{"data": {"bikes": [{"bike_id": "3268d2ae2d9c17d724e58c96dead8ec4", "type": "electric_scooter", "is_disabled": 0, "lat": 38.90362366666667, "rental_uris": {"ios": "https://dc.lft.to/lastmile_qr_scan", "android": "https://dc.lft.to/lastmile_qr_scan"}, "is_reserved": 0, "fusion_lon": 0.0, "fusion_lat": 0.0, "lon": -77.06010833333333, "name": "3268d2ae2d9c17d724e58c96dead8ec4"}, {"bike_id": "49a73332d62c9dddda9026463cdbaa83", "type": "electric_scooter", "is_disabled": 0, "lat": 38.886618166666665, "rental_uris": {"ios": "https://dc.lft.to/lastmile_qr_scan", "android": "https://dc.lft.to/lastmile_qr_scan"}, "is_reserved": 0, "fusion_lon": 0.0, "fusion_lat": 0.0, "lon": -77.033863, "name": "49a73332d62c9dddda9026463cdbaa83"}, {"bike_id": "d384b2ea8d3df775d1ebe15d3fd43dd1", "type": "electric_scooter", "is_disabled": 0, "lat": 38.8668295, "rental_uris": {"ios": "https://dc.lft.to/lastmile_qr_scan", "android": "https://dc.lft.to/lastmile_qr_scan"}, "is_reserved": 0, "fusion_lon": 0.0, "fusion_lat": 0.0, "lon": -76.98555683333333, "name": "d384b2ea8d3df775d1ebe15d3fd43dd1"}, {"bike_id": "fcee2ed3be0aab2bc80db411c106f280", "type": "electric_scooter", "is_disabled": 0, "lat": 38.87867283333333, "rental_uris": {"ios": "https://dc.lft.to/lastmile_qr_scan", "android": "https://dc.lft.to/lastmile_qr_scan"}, "is_reserved": 0, "fusion_lon": 0.0, "fusion_lat": 0.0, "lon": -77.0059795, "name": "fcee2ed3be0aab2bc80db411c106f280"}, {"bike_id": "1edfe9d01b6723ef37ba546ebbbc1af4", "type": "electric_scooter", "is_disabled": 0, "lat": 38.90525266666667, "rental_uris": {"ios": "https://dc.lft.to/lastmile_qr_scan", "android": "https://dc.lft.to/lastmile_qr_scan"}, "is_reserved": 0, "fusion_lon": 0.0, "fusion_lat": 0.0, "lon": -77.059297, "name": "1edfe9d01b6723ef37ba546ebbbc1af4"}, {"bike_id": "6f0657e676294be2dabd9578c0afa53a", "type": "electric_scooter", "is_disabled": 0, "lat": 38.920148, "rental_uris": {"ios": "https://dc.lft.to/lastmile_qr_scan", "android": "https://dc.lft.to/lastmile_qr_scan"}, "is_reserved": 0, "fusion_lon": 0.0, "fusion_lat": 0.0, "lon": -77.03122566666667, "name": "6f0657e676294be2dabd9578c0afa53a"}, {"bike_id": "e2d9531fd1c60da9b042a333b92a50a7", "type": "electric_scooter", "is_disabled": 0, "lat": 38.9084485, "rental_uris": {"ios": "https://dc.lft.to/lastmile_qr_scan", "android": "https://dc.lft.to/lastmile_qr_scan"}, "is_reserved": 0, "fusion_lon": 0.0, "fusion_lat": 0.0, "lon": -76.99799133333333, "name": "e2d9531fd1c60da9b042a333b92a50a7"}, {"bike_id": "49504ba215deecce169151bc131f940e", "type": "electric_scooter", "is_disabled": 0, "lat": 38.8637355, "rental_uris": {"ios": "https://dc.lft.to/lastmile_qr_scan", "android": "https://dc.lft.to/lastmile_qr_scan"}, "is_reserved": 0, "fusion_lon": 0.0, "fusion_lat": 0.0, "lon": -76.9906215, "name": "49504ba215deecce169151bc131f940e"}, {"bike_id": "bb73672087f4b9c9617f7676214ffddd", "type": "electric_scooter", "is_disabled": 0, "lat": 38.89844766666667, "rental_uris": {"ios": "https://dc.lft.to/lastmile_qr_scan", "android": "https://dc.lft.to/lastmile_qr_scan"}, "is_reserved": 0, "fusion_lon": 0.0, "fusion_lat": 0.0, "lon": -76.9463245, "name": "bb73672087f4b9c9617f7676214ffddd"}, {"bike_id": "27ba11c0e52f0891ee1d26bfe15c78ff", "type": "electric_scooter", "is_disabled": 0, "lat": 38.92100466666667, "rental_uris": {"ios": "https://dc.lft.to/lastmile_qr_scan", "android": "https://dc.lft.to/lastmile_qr_scan"}, "is_reserved": 0, "fusion_lon": 0.0, "fusion_lat": 0.0, "lon": -77.02517266666666, "name": "27ba11c0e52f0891ee1d26bfe15c78ff"}, {"bike_id": "29d66db0d50e202a5374800d9695ac40", "type": "electric_scooter", "is_disabled": 0, "lat": 38.922675, "rental_uris": {"ios": "https://dc.lft.to/lastmile_qr_scan", "android": "https://dc.lft.to/lastmile_qr_scan"}, "is_reserved": 0, "fusion_lon": 0.0, "fusion_lat": 0.0, "lon": -77.03401583333333, "name": "29d66db0d50e202a5374800d9695ac40"}, {"bike_id": "d6ffcbe4254bbb2fc7f27edfd2a2042c", "type": "electric_scooter", "is_disabled": 0, "lat": 38.94107433333333, "rental_uris": {"ios": "https://dc.lft.to/lastmile_qr_scan", "android": "https://dc.lft.to/lastmile_qr_scan"}, "is_reserved": 0, "fusion_lon": 0.0, "fusion_lat": 0.0, "lon": -77.02527966666666, "name": "d6ffcbe4254bbb2fc7f27edfd2a2042c"}, {"bike_id": "0a469e66f928cd4e5d51ca84752c156c", "type": "electric_scooter", "is_disabled": 0, "lat": 38.9124175, "rental_uris": {"ios": "https://dc.lft.to/lastmile_qr_scan", "android": "https://dc.lft.to/lastmile_qr_scan"}, "is_reserved": 0, "fusion_lon": 0.0, "fusion_lat": 0.0, "lon": -77.000936, "name": "0a469e66f928cd4e5d51ca84752c156c"}, {"bike_id": "fa5a349501ac39a605a446cc6bc109d7", "type": "electric_scooter", "is_disabled": 0, "lat": 38.9111445, "rental_uris": {"ios": "https://dc.lft.to/lastmile_qr_scan", "android": "https://dc.lft.to/lastmile_qr_scan"}, "is_reserved": 0, "fusion_lon": 0.0, "fusion_lat": 0.0, "lon": -77.04974816666666, "name": "fa5a349501ac39a605a446cc6bc109d7"}, {"bike_id": "df4dc335706b9e83f446092eda8f68e3", "type": "electric_scooter", "is_disabled": 0, "lat": 38.92232216666667, "rental_uris": {"ios": "https://dc.lft.to/lastmile_qr_scan", "android": "https://dc.lft.to/lastmile_qr_scan"}, "is_reserved": 0, "fusion_lon": 0.0, "fusion_lat": 0.0, "lon": -77.03289433333333, "name": "df4dc335706b9e83f446092eda8f68e3"}, {"bike_id": "39e3742ea0ed8d38aec45466e9a4c568", "type": "electric_scooter", "is_disabled": 0, "lat": 38.90576883333333, "rental_uris": {"ios": "https://dc.lft.to/lastmile_qr_scan", "android": "https://dc.lft.to/lastmile_qr_scan"}, "is_reserved": 0, "fusion_lon": 0.0, "fusion_lat": 0.0, "lon": -77.04617933333333, "name": "39e3742ea0ed8d38aec45466e9a4c568"}, {"bike_id": "123e48dd05348d3a832f74db4e89f330", "type": "electric_scooter", "is_disabled": 0, "lat": 38.89837983333334, "rental_uris": {"ios": "https://dc.lft.to/lastmile_qr_scan", "android": "https://dc.lft.to/lastmile_qr_scan"}, "is_reserved": 0, "fusion_lon": 0.0, "fusion_lat": 0.0, "lon": -77.028227, "name": "123e48dd05348d3a832f74db4e89f330"}, {"bike_id": "f68b885885ac0765fac7dff1514ba6d0", "type": "electric_scooter", "is_disabled": 0, "lat": 38.876311, "rental_uris": {"ios": "https://dc.lft.to/lastmile_qr_scan", "android": "https://dc.lft.to/lastmile_qr_scan"}, "is_reserved": 0, "fusion_lon": 0.0, "fusion_lat": 0.0, "lon": -76.96526283333333, "name": "f68b885885ac0765fac7dff1514ba6d0"}, {"bike_id": "bdf89debf5970de09ca53705c9305e6b", "type": "electric_scooter", "is_disabled": 0, "lat": 38.87073383333333, "rental_uris": {"ios": "https://dc.lft.to/lastmile_qr_scan", "android": "https://dc.lft.to/lastmile_qr_scan"}, "is_reserved": 0, "fusion_lon": 0.0, "fusion_lat": 0.0, "lon": -77.01192083333333, "name": "bdf89debf5970de09ca53705c9305e6b"}, {"bike_id": "d78a622a7df6242430d9148b22824585", "type": "electric_scooter", "is_disabled": 0, "lat": 38.931966333333335, "rental_uris": {"ios": "https://dc.lft.to/lastmile_qr_scan", "android": "https://dc.lft.to/lastmile_qr_scan"}, "is_reserved": 0, "fusion_lon": 0.0, "fusion_lat": 0.0, "lon": -77.019624, "name": "d78a622a7df6242430d9148b22824585"}, {"bike_id": "f3eb7dd9488b4eadbc5c19c9022d8c61", "type": "electric_bike", "is_disabled": 0, "lat": 39.0399115, "rental_uris": {"ios": "https://dc.lft.to/lastmile_qr_scan", "android": "https://dc.lft.to/lastmile_qr_scan"}, "is_reserved": 0, "fusion_lon": 0.0, "fusion_lat": 0.0, "lon": -76.99929883333333, "name": "f3eb7dd9488b4eadbc5c19c9022d8c61"}, {"bike_id": "57e72d61953dcf111233448133f2a250", "type": "electric_scooter", "is_disabled": 0, "lat": 38.9007155, "rental_uris": {"ios": "https://dc.lft.to/lastmile_qr_scan", "android": "https://dc.lft.to/lastmile_qr_scan"}, "is_reserved": 0, "fusion_lon": 0.0, "fusion_lat": 0.0, "lon": -77.0364035, "name": "57e72d61953dcf111233448133f2a250"}, {"bike_id": "74912099a9e9fc421c9e0017be1ce623", "type": "electric_scooter", "is_disabled": 0, "lat": 38.902588, "rental_uris": {"ios": "https://dc.lft.to/lastmile_qr_scan", "android": "https://dc.lft.to/lastmile_qr_scan"}, "is_reserved": 0, "fusion_lon": 0.0, "fusion_lat": 0.0, "lon": -76.97547083333333, "name": "74912099a9e9fc421c9e0017be1ce623"}, {"bike_id": "0b18ff417c3b355ece433a75bb876580", "type": "electric_scooter", "is_disabled": 0, "lat": 38.90653966666667, "rental_uris": {"ios": "https://dc.lft.to/lastmile_qr_scan", "android": "https://dc.lft.to/lastmile_qr_scan"}, "is_reserved": 0, "fusion_lon": 0.0, "fusion_lat": 0.0, "lon": -77.03788583333333, "name": "0b18ff417c3b355ece433a75bb876580"}, {"bike_id": "d21c78177c723b250bb74dec63e27d45", "type": "electric_scooter", "is_disabled": 0, "lat": 38.92219866666667, "rental_uris": {"ios": "https://dc.lft.to/lastmile_qr_scan", "android": "https://dc.lft.to/lastmile_qr_scan"}, "is_reserved": 0, "fusion_lon": 0.0, "fusion_lat": 0.0, "lon": -77.0345775, "name": "d21c78177c723b250bb74dec63e27d45"}, {"bike_id": "11448386e674c7078a6f74502604a5a9", "type": "electric_scooter", "is_disabled": 0, "lat": 38.9084015, "rental_uris": {"ios": "https://dc.lft.to/lastmile_qr_scan", "android": "https://dc.lft.to/lastmile_qr_scan"}, "is_reserved": 0, "fusion_lon": 0.0, "fusion_lat": 0.0, "lon": -77.0435785, "name": "11448386e674c7078a6f74502604a5a9"}, {"bike_id": "8e96a0fc4c217d10527dba4ade4d579b", "type": "electric_scooter", "is_disabled": 0, "lat": 38.9048885, "rental_uris": {"ios": "https://dc.lft.to/lastmile_qr_scan", "android": "https://dc.lft.to/lastmile_qr_scan"}, "is_reserved": 0, "fusion_lon": 0.0, "fusion_lat": 0.0, "lon": -76.98684383333334, "name": "8e96a0fc4c217d10527dba4ade4d579b"}, {"bike_id": "dd75ee9e75be000cac114870b3f04e32", "type": "electric_scooter", "is_disabled": 0, "lat": 38.89734166666667, "rental_uris": {"ios": "https://dc.lft.to/lastmile_qr_scan", "android": "https://dc.lft.to/lastmile_qr_scan"}, "is_reserved": 0, "fusion_lon": 0.0, "fusion_lat": 0.0, "lon": -77.05471666666666, "name": "dd75ee9e75be000cac114870b3f04e32"}, {"bike_id": "8080531957019bf057c88a7e11a4a08b", "type": "electric_scooter", "is_disabled": 0, "lat": 38.89984333333334, "rental_uris": {"ios": "https://dc.lft.to/lastmile_qr_scan", "android": "https://dc.lft.to/lastmile_qr_scan"}, "is_reserved": 0, "fusion_lon": 0.0, "fusion_lat": 0.0, "lon": -76.98817666666666, "name": "8080531957019bf057c88a7e11a4a08b"}, {"bike_id": "3f55553763534bf9715922298475a5a0", "type": "electric_scooter", "is_disabled": 0, "lat": 38.898311166666666, "rental_uris": {"ios": "https://dc.lft.to/lastmile_qr_scan", "android": "https://dc.lft.to/lastmile_qr_scan"}, "is_reserved": 0, "fusion_lon": 0.0, "fusion_lat": 0.0, "lon": -77.024494, "name": "3f55553763534bf9715922298475a5a0"}, {"bike_id": "8f7746144e1b0368ae2c2d7584674bc2", "type": "electric_scooter", "is_disabled": 0, "lat": 38.961414, "rental_uris": {"ios": "https://dc.lft.to/lastmile_qr_scan", "android": "https://dc.lft.to/lastmile_qr_scan"}, "is_reserved": 0, "fusion_lon": 0.0, "fusion_lat": 0.0, "lon": -77.029913, "name": "8f7746144e1b0368ae2c2d7584674bc2"}, {"bike_id": "568b5372b6a440a29a01bbfd225bb0e5", "type": "electric_scooter", "is_disabled": 0, "lat": 38.905171833333334, "rental_uris": {"ios": "https://dc.lft.to/lastmile_qr_scan", "android": "https://dc.lft.to/lastmile_qr_scan"}, "is_reserved": 0, "fusion_lon": 0.0, "fusion_lat": 0.0, "lon": -77.063798, "name": "568b5372b6a440a29a01bbfd225bb0e5"}, {"bike_id": "f094c87d623c819200debb6b44fa4494", "type": "electric_scooter", "is_disabled": 0, "lat": 38.882685, "rental_uris": {"ios": "https://dc.lft.to/lastmile_qr_scan", "android": "https://dc.lft.to/lastmile_qr_scan"}, "is_reserved": 0, "fusion_lon": 0.0, "fusion_lat": 0.0, "lon": -76.99253116666667, "name": "f094c87d623c819200debb6b44fa4494"}, {"bike_id": "3f02ccc617aa02d983440e75a6e2605e", "type": "electric_scooter", "is_disabled": 0, "lat": 38.9068535, "rental_uris": {"ios": "https://dc.lft.to/lastmile_qr_scan", "android": "https://dc.lft.to/lastmile_qr_scan"}, "is_reserved": 0, "fusion_lon": 0.0, "fusion_lat": 0.0, "lon": -77.0633955, "name": "3f02ccc617aa02d983440e75a6e2605e"}, {"bike_id": "a1c2a646851dff7bfbbbf96c536a1ad2", "type": "electric_scooter", "is_disabled": 0, "lat": 38.90851966666666, "rental_uris": {"ios": "https://dc.lft.to/lastmile_qr_scan", "android": "https://dc.lft.to/lastmile_qr_scan"}, "is_reserved": 0, "fusion_lon": 0.0, "fusion_lat": 0.0, "lon": -77.05568183333334, "name": "a1c2a646851dff7bfbbbf96c536a1ad2"}, {"bike_id": "01ce8b611a6c2e8ba218b1b2bbae1978", "type": "electric_scooter", "is_disabled": 0, "lat": 38.915325, "rental_uris": {"ios": "https://dc.lft.to/lastmile_qr_scan", "android": "https://dc.lft.to/lastmile_qr_scan"}, "is_reserved": 0, "fusion_lon": 0.0, "fusion_lat": 0.0, "lon": -77.02002833333333, "name": "01ce8b611a6c2e8ba218b1b2bbae1978"}, {"bike_id": "9e02deaafaaa64297f4d7688b5a0cc36", "type": "electric_scooter", "is_disabled": 0, "lat": 38.908264833333334, "rental_uris": {"ios": "https://dc.lft.to/lastmile_qr_scan", "android": "https://dc.lft.to/lastmile_qr_scan"}, "is_reserved": 0, "fusion_lon": 0.0, "fusion_lat": 0.0, "lon": -77.02397633333334, "name": "9e02deaafaaa64297f4d7688b5a0cc36"}, {"bike_id": "6c3bd50d846362422620ea2dc54a8159", "type": "electric_scooter", "is_disabled": 0, "lat": 38.94325366666666, "rental_uris": {"ios": "https://dc.lft.to/lastmile_qr_scan", "android": "https://dc.lft.to/lastmile_qr_scan"}, "is_reserved": 0, "fusion_lon": 0.0, "fusion_lat": 0.0, "lon": -77.01482466666667, "name": "6c3bd50d846362422620ea2dc54a8159"}, {"bike_id": "e010aa3b08f429fdb1e425b4e074a0ba", "type": "electric_scooter", "is_disabled": 0, "lat": 38.92147116666666, "rental_uris": {"ios": "https://dc.lft.to/lastmile_qr_scan", "android": "https://dc.lft.to/lastmile_qr_scan"}, "is_reserved": 0, "fusion_lon": 0.0, "fusion_lat": 0.0, "lon": -77.04349216666667, "name": "e010aa3b08f429fdb1e425b4e074a0ba"}, {"bike_id": "16d63fbd6a545eadefa29cfd0f4fc5e4", "type": "electric_scooter", "is_disabled": 0, "lat": 38.92377616666667, "rental_uris": {"ios": "https://dc.lft.to/lastmile_qr_scan", "android": "https://dc.lft.to/lastmile_qr_scan"}, "is_reserved": 0, "fusion_lon": 0.0, "fusion_lat": 0.0, "lon": -77.04081516666666, "name": "16d63fbd6a545eadefa29cfd0f4fc5e4"}, {"bike_id": "08b2a1a8b8754681a12f8b463384d9c4", "type": "electric_scooter", "is_disabled": 0, "lat": 38.9289975, "rental_uris": {"ios": "https://dc.lft.to/lastmile_qr_scan", "android": "https://dc.lft.to/lastmile_qr_scan"}, "is_reserved": 0, "fusion_lon": 0.0, "fusion_lat": 0.0, "lon": -77.03245683333333, "name": "08b2a1a8b8754681a12f8b463384d9c4"}, {"bike_id": "a2bbfa55ff7159f6a03a4d85c7c3df2e", "type": "electric_scooter", "is_disabled": 0, "lat": 38.91918166666667, "rental_uris": {"ios": "https://dc.lft.to/lastmile_qr_scan", "android": "https://dc.lft.to/lastmile_qr_scan"}, "is_reserved": 0, "fusion_lon": 0.0, "fusion_lat": 0.0, "lon": -77.03415083333333, "name": "a2bbfa55ff7159f6a03a4d85c7c3df2e"}, {"bike_id": "195bd06f943546fcab9a274faf19668c", "type": "electric_scooter", "is_disabled": 0, "lat": 38.908928, "rental_uris": {"ios": "https://dc.lft.to/lastmile_qr_scan", "android": "https://dc.lft.to/lastmile_qr_scan"}, "is_reserved": 0, "fusion_lon": 0.0, "fusion_lat": 0.0, "lon": -77.04327483333333, "name": "195bd06f943546fcab9a274faf19668c"}, {"bike_id": "bb4f7788f733ac20f304aa4c54813a0d", "type": "electric_scooter", "is_disabled": 0, "lat": 38.929108666666664, "rental_uris": {"ios": "https://dc.lft.to/lastmile_qr_scan", "android": "https://dc.lft.to/lastmile_qr_scan"}, "is_reserved": 0, "fusion_lon": 0.0, "fusion_lat": 0.0, "lon": -77.0327875, "name": "bb4f7788f733ac20f304aa4c54813a0d"}, {"bike_id": "bfc1e58af717ed845c476ae5e256344e", "type": "electric_scooter", "is_disabled": 0, "lat": 38.91646716666666, "rental_uris": {"ios": "https://dc.lft.to/lastmile_qr_scan", "android": "https://dc.lft.to/lastmile_qr_scan"}, "is_reserved": 0, "fusion_lon": 0.0, "fusion_lat": 0.0, "lon": -77.02275683333333, "name": "bfc1e58af717ed845c476ae5e256344e"}, {"bike_id": "9a4173e8406625a19791eacab5d97fda", "type": "electric_scooter", "is_disabled": 0, "lat": 38.91427633333333, "rental_uris": {"ios": "https://dc.lft.to/lastmile_qr_scan", "android": "https://dc.lft.to/lastmile_qr_scan"}, "is_reserved": 0, "fusion_lon": 0.0, "fusion_lat": 0.0, "lon": -77.03210633333333, "name": "9a4173e8406625a19791eacab5d97fda"}, {"bike_id": "77bde8d1170fb360d4661bb2496709b9", "type": "electric_scooter", "is_disabled": 0, "lat": 38.93417, "rental_uris": {"ios": "https://dc.lft.to/lastmile_qr_scan", "android": "https://dc.lft.to/lastmile_qr_scan"}, "is_reserved": 0, "fusion_lon": 0.0, "fusion_lat": 0.0, "lon": -77.04148916666666, "name": "77bde8d1170fb360d4661bb2496709b9"}, {"bike_id": "2686c2122a4cffa4c619a6532ff22f52", "type": "electric_scooter", "is_disabled": 0, "lat": 38.90038166666667, "rental_uris": {"ios": "https://dc.lft.to/lastmile_qr_scan", "android": "https://dc.lft.to/lastmile_qr_scan"}, "is_reserved": 0, "fusion_lon": 0.0, "fusion_lat": 0.0, "lon": -77.00381566666667, "name": "2686c2122a4cffa4c619a6532ff22f52"}, {"bike_id": "a7dbc3fa3aa1f89e709137d12579733f", "type": "electric_bike", "is_disabled": 0, "lat": 38.88244383333333, "rental_uris": {"ios": "https://dc.lft.to/lastmile_qr_scan", "android": "https://dc.lft.to/lastmile_qr_scan"}, "is_reserved": 0, "fusion_lon": 0.0, "fusion_lat": 0.0, "lon": -76.96260166666667, "name": "a7dbc3fa3aa1f89e709137d12579733f"}, {"bike_id": "10b76aa4c4a5abcdfa5085b5d1d4d8c8", "type": "electric_bike", "is_disabled": 0, "lat": 38.93444233333334, "rental_uris": {"ios": "https://dc.lft.to/lastmile_qr_scan", "android": "https://dc.lft.to/lastmile_qr_scan"}, "is_reserved": 0, "fusion_lon": 0.0, "fusion_lat": 0.0, "lon": -77.041298, "name": "10b76aa4c4a5abcdfa5085b5d1d4d8c8"}, {"bike_id": "ca3d4c7052f8655e6492ed86d0542d1d", "type": "electric_scooter", "is_disabled": 0, "lat": 38.90467366666667, "rental_uris": {"ios": "https://dc.lft.to/lastmile_qr_scan", "android": "https://dc.lft.to/lastmile_qr_scan"}, "is_reserved": 0, "fusion_lon": 0.0, "fusion_lat": 0.0, "lon": -76.97605333333334, "name": "ca3d4c7052f8655e6492ed86d0542d1d"}, {"bike_id": "ace016a36e4d8327d0667b4226b28836", "type": "electric_scooter", "is_disabled": 0, "lat": 38.944492833333335, "rental_uris": {"ios": "https://dc.lft.to/lastmile_qr_scan", "android": "https://dc.lft.to/lastmile_qr_scan"}, "is_reserved": 0, "fusion_lon": 0.0, "fusion_lat": 0.0, "lon": -77.06351733333334, "name": "ace016a36e4d8327d0667b4226b28836"}, {"bike_id": "d9f4d962095b325ca9a6ad90c04ed1b1", "type": "electric_bike", "is_disabled": 0, "lat": 38.932307333333334, "rental_uris": {"ios": "https://dc.lft.to/lastmile_qr_scan", "android": "https://dc.lft.to/lastmile_qr_scan"}, "is_reserved": 0, "fusion_lon": 0.0, "fusion_lat": 0.0, "lon": -77.18124316666666, "name": "d9f4d962095b325ca9a6ad90c04ed1b1"}, {"bike_id": "22da9ed3f4463407da65ef1065584811", "type": "electric_scooter", "is_disabled": 0, "lat": 38.92253183333333, "rental_uris": {"ios": "https://dc.lft.to/lastmile_qr_scan", "android": "https://dc.lft.to/lastmile_qr_scan"}, "is_reserved": 0, "fusion_lon": 0.0, "fusion_lat": 0.0, "lon": -77.04208383333334, "name": "22da9ed3f4463407da65ef1065584811"}, {"bike_id": "b32be91dd60d493e542a18b2b7faa24e", "type": "electric_scooter", "is_disabled": 0, "lat": 38.92952966666667, "rental_uris": {"ios": "https://dc.lft.to/lastmile_qr_scan", "android": "https://dc.lft.to/lastmile_qr_scan"}, "is_reserved": 0, "fusion_lon": 0.0, "fusion_lat": 0.0, "lon": -77.04403066666667, "name": "b32be91dd60d493e542a18b2b7faa24e"}, {"bike_id": "b089d74aa867e96573b5f1f45094c99c", "type": "electric_scooter", "is_disabled": 0, "lat": 38.934569333333336, "rental_uris": {"ios": "https://dc.lft.to/lastmile_qr_scan", "android": "https://dc.lft.to/lastmile_qr_scan"}, "is_reserved": 0, "fusion_lon": 0.0, "fusion_lat": 0.0, "lon": -77.0279345, "name": "b089d74aa867e96573b5f1f45094c99c"}, {"bike_id": "c904ca0b342c784097bcd697e4b847a9", "type": "electric_scooter", "is_disabled": 0, "lat": 38.93195383333333, "rental_uris": {"ios": "https://dc.lft.to/lastmile_qr_scan", "android": "https://dc.lft.to/lastmile_qr_scan"}, "is_reserved": 0, "fusion_lon": 0.0, "fusion_lat": 0.0, "lon": -77.02390983333333, "name": "c904ca0b342c784097bcd697e4b847a9"}, {"bike_id": "84d9cbbb56dd336a1429d905fd6ea8e2", "type": "electric_scooter", "is_disabled": 0, "lat": 38.90697433333333, "rental_uris": {"ios": "https://dc.lft.to/lastmile_qr_scan", "android": "https://dc.lft.to/lastmile_qr_scan"}, "is_reserved": 0, "fusion_lon": 0.0, "fusion_lat": 0.0, "lon": -77.006003, "name": "84d9cbbb56dd336a1429d905fd6ea8e2"}, {"bike_id": "88161727cd6b488087ebd98c9e47a775", "type": "electric_scooter", "is_disabled": 0, "lat": 38.87179666666667, "rental_uris": {"ios": "https://dc.lft.to/lastmile_qr_scan", "android": "https://dc.lft.to/lastmile_qr_scan"}, "is_reserved": 0, "fusion_lon": 0.0, "fusion_lat": 0.0, "lon": -77.00609433333334, "name": "88161727cd6b488087ebd98c9e47a775"}, {"bike_id": "d1dbd4371d19d87e4e300d5debb8a9e6", "type": "electric_scooter", "is_disabled": 0, "lat": 38.892224, "rental_uris": {"ios": "https://dc.lft.to/lastmile_qr_scan", "android": "https://dc.lft.to/lastmile_qr_scan"}, "is_reserved": 0, "fusion_lon": 0.0, "fusion_lat": 0.0, "lon": -77.025874, "name": "d1dbd4371d19d87e4e300d5debb8a9e6"}, {"bike_id": "27a69838d3e59f7f9605dc92ab71ce9c", "type": "electric_scooter", "is_disabled": 0, "lat": 38.90275233333333, "rental_uris": {"ios": "https://dc.lft.to/lastmile_qr_scan", "android": "https://dc.lft.to/lastmile_qr_scan"}, "is_reserved": 0, "fusion_lon": 0.0, "fusion_lat": 0.0, "lon": -77.04466783333334, "name": "27a69838d3e59f7f9605dc92ab71ce9c"}, {"bike_id": "dfb213d57c2d9ba28da1f3daed52e3d2", "type": "electric_scooter", "is_disabled": 0, "lat": 38.9115825, "rental_uris": {"ios": "https://dc.lft.to/lastmile_qr_scan", "android": "https://dc.lft.to/lastmile_qr_scan"}, "is_reserved": 0, "fusion_lon": 0.0, "fusion_lat": 0.0, "lon": -77.02282066666666, "name": "dfb213d57c2d9ba28da1f3daed52e3d2"}, {"bike_id": "35aeb06fffc398c81d62f46c39fe38bf", "type": "electric_scooter", "is_disabled": 0, "lat": 38.96407333333333, "rental_uris": {"ios": "https://dc.lft.to/lastmile_qr_scan", "android": "https://dc.lft.to/lastmile_qr_scan"}, "is_reserved": 0, "fusion_lon": 0.0, "fusion_lat": 0.0, "lon": -77.0276325, "name": "35aeb06fffc398c81d62f46c39fe38bf"}, {"bike_id": "7d80e45007ab9e79bb47600f9d1e92da", "type": "electric_scooter", "is_disabled": 0, "lat": 38.90501183333333, "rental_uris": {"ios": "https://dc.lft.to/lastmile_qr_scan", "android": "https://dc.lft.to/lastmile_qr_scan"}, "is_reserved": 0, "fusion_lon": 0.0, "fusion_lat": 0.0, "lon": -77.06885333333334, "name": "7d80e45007ab9e79bb47600f9d1e92da"}, {"bike_id": "e69f081b126c6be88737016864c6c868", "type": "electric_scooter", "is_disabled": 0, "lat": 38.87628766666667, "rental_uris": {"ios": "https://dc.lft.to/lastmile_qr_scan", "android": "https://dc.lft.to/lastmile_qr_scan"}, "is_reserved": 0, "fusion_lon": 0.0, "fusion_lat": 0.0, "lon": -76.9652605, "name": "e69f081b126c6be88737016864c6c868"}, {"bike_id": "1f0486101277d6bd71a38860ec9a01ab", "type": "electric_scooter", "is_disabled": 0, "lat": 38.900646333333334, "rental_uris": {"ios": "https://dc.lft.to/lastmile_qr_scan", "android": "https://dc.lft.to/lastmile_qr_scan"}, "is_reserved": 0, "fusion_lon": 0.0, "fusion_lat": 0.0, "lon": -76.92744083333334, "name": "1f0486101277d6bd71a38860ec9a01ab"}, {"bike_id": "a67cb695f8a0b00fade5cf8d567374bb", "type": "electric_scooter", "is_disabled": 0, "lat": 38.912147, "rental_uris": {"ios": "https://dc.lft.to/lastmile_qr_scan", "android": "https://dc.lft.to/lastmile_qr_scan"}, "is_reserved": 0, "fusion_lon": 0.0, "fusion_lat": 0.0, "lon": -77.03464716666667, "name": "a67cb695f8a0b00fade5cf8d567374bb"}, {"bike_id": "2e61a5410dc9145ac5512fee05ee87d2", "type": "electric_scooter", "is_disabled": 0, "lat": 38.926596333333336, "rental_uris": {"ios": "https://dc.lft.to/lastmile_qr_scan", "android": "https://dc.lft.to/lastmile_qr_scan"}, "is_reserved": 0, "fusion_lon": 0.0, "fusion_lat": 0.0, "lon": -77.03725533333333, "name": "2e61a5410dc9145ac5512fee05ee87d2"}, {"bike_id": "bae2dc6bffec4c078957eb6aa35d379d", "type": "electric_scooter", "is_disabled": 0, "lat": 38.893241333333336, "rental_uris": {"ios": "https://dc.lft.to/lastmile_qr_scan", "android": "https://dc.lft.to/lastmile_qr_scan"}, "is_reserved": 0, "fusion_lon": 0.0, "fusion_lat": 0.0, "lon": -77.04875366666667, "name": "bae2dc6bffec4c078957eb6aa35d379d"}, {"bike_id": "5fe2e002a9967400a21f05c9f1f7cc7e", "type": "electric_scooter", "is_disabled": 0, "lat": 38.8746115, "rental_uris": {"ios": "https://dc.lft.to/lastmile_qr_scan", "android": "https://dc.lft.to/lastmile_qr_scan"}, "is_reserved": 0, "fusion_lon": 0.0, "fusion_lat": 0.0, "lon": -77.00943033333333, "name": "5fe2e002a9967400a21f05c9f1f7cc7e"}, {"bike_id": "071dbdd35adf7767725a5e18faa68bff", "type": "electric_scooter", "is_disabled": 0, "lat": 38.928911, "rental_uris": {"ios": "https://dc.lft.to/lastmile_qr_scan", "android": "https://dc.lft.to/lastmile_qr_scan"}, "is_reserved": 0, "fusion_lon": 0.0, "fusion_lat": 0.0, "lon": -77.03252683333334, "name": "071dbdd35adf7767725a5e18faa68bff"}, {"bike_id": "6baa645712b649ddc736b28c95e7ac6d", "type": "electric_scooter", "is_disabled": 0, "lat": 38.876839, "rental_uris": {"ios": "https://dc.lft.to/lastmile_qr_scan", "android": "https://dc.lft.to/lastmile_qr_scan"}, "is_reserved": 0, "fusion_lon": 0.0, "fusion_lat": 0.0, "lon": -77.01791083333333, "name": "6baa645712b649ddc736b28c95e7ac6d"}, {"bike_id": "708c0c21d42251ec8c0b98dd6a0db272", "type": "electric_scooter", "is_disabled": 0, "lat": 38.9228535, "rental_uris": {"ios": "https://dc.lft.to/lastmile_qr_scan", "android": "https://dc.lft.to/lastmile_qr_scan"}, "is_reserved": 0, "fusion_lon": 0.0, "fusion_lat": 0.0, "lon": -77.0429105, "name": "708c0c21d42251ec8c0b98dd6a0db272"}, {"bike_id": "e1d559b21111c2a167e5df5aa325aab2", "type": "electric_scooter", "is_disabled": 0, "lat": 38.906713833333335, "rental_uris": {"ios": "https://dc.lft.to/lastmile_qr_scan", "android": "https://dc.lft.to/lastmile_qr_scan"}, "is_reserved": 0, "fusion_lon": 0.0, "fusion_lat": 0.0, "lon": -77.02707783333334, "name": "e1d559b21111c2a167e5df5aa325aab2"}, {"bike_id": "94abc899b5a6a6eb188a5da13eaa1726", "type": "electric_scooter", "is_disabled": 0, "lat": 38.892233166666664, "rental_uris": {"ios": "https://dc.lft.to/lastmile_qr_scan", "android": "https://dc.lft.to/lastmile_qr_scan"}, "is_reserved": 0, "fusion_lon": 0.0, "fusion_lat": 0.0, "lon": -77.02627666666666, "name": "94abc899b5a6a6eb188a5da13eaa1726"}, {"bike_id": "edf48f3615e17405f17bdcfcdb9c3915", "type": "electric_scooter", "is_disabled": 0, "lat": 38.91707483333333, "rental_uris": {"ios": "https://dc.lft.to/lastmile_qr_scan", "android": "https://dc.lft.to/lastmile_qr_scan"}, "is_reserved": 0, "fusion_lon": 0.0, "fusion_lat": 0.0, "lon": -77.02407066666666, "name": "edf48f3615e17405f17bdcfcdb9c3915"}, {"bike_id": "363cccd96e2d2a09338449deef0a8cf0", "type": "electric_scooter", "is_disabled": 0, "lat": 38.91862233333333, "rental_uris": {"ios": "https://dc.lft.to/lastmile_qr_scan", "android": "https://dc.lft.to/lastmile_qr_scan"}, "is_reserved": 0, "fusion_lon": 0.0, "fusion_lat": 0.0, "lon": -77.036663, "name": "363cccd96e2d2a09338449deef0a8cf0"}, {"bike_id": "b5fc2230681376a0cd200d4fa08a91bb", "type": "electric_scooter", "is_disabled": 0, "lat": 38.91751466666667, "rental_uris": {"ios": "https://dc.lft.to/lastmile_qr_scan", "android": "https://dc.lft.to/lastmile_qr_scan"}, "is_reserved": 0, "fusion_lon": 0.0, "fusion_lat": 0.0, "lon": -77.036649, "name": "b5fc2230681376a0cd200d4fa08a91bb"}, {"bike_id": "cc3db428ab97b8b5c78616e2d478f940", "type": "electric_scooter", "is_disabled": 0, "lat": 38.89843533333333, "rental_uris": {"ios": "https://dc.lft.to/lastmile_qr_scan", "android": "https://dc.lft.to/lastmile_qr_scan"}, "is_reserved": 0, "fusion_lon": 0.0, "fusion_lat": 0.0, "lon": -76.94632733333333, "name": "cc3db428ab97b8b5c78616e2d478f940"}, {"bike_id": "91012dbed1f981b2ecbbe1ab9e91e120", "type": "electric_scooter", "is_disabled": 0, "lat": 38.90929116666667, "rental_uris": {"ios": "https://dc.lft.to/lastmile_qr_scan", "android": "https://dc.lft.to/lastmile_qr_scan"}, "is_reserved": 0, "fusion_lon": 0.0, "fusion_lat": 0.0, "lon": -77.02312783333333, "name": "91012dbed1f981b2ecbbe1ab9e91e120"}, {"bike_id": "47ad88e519c676a46ac50aa61289b147", "type": "electric_scooter", "is_disabled": 0, "lat": 38.9260525, "rental_uris": {"ios": "https://dc.lft.to/lastmile_qr_scan", "android": "https://dc.lft.to/lastmile_qr_scan"}, "is_reserved": 0, "fusion_lon": 0.0, "fusion_lat": 0.0, "lon": -77.1024455, "name": "47ad88e519c676a46ac50aa61289b147"}, {"bike_id": "64841c5c9204c6d485db6df4e6a4df99", "type": "electric_scooter", "is_disabled": 0, "lat": 38.897186166666664, "rental_uris": {"ios": "https://dc.lft.to/lastmile_qr_scan", "android": "https://dc.lft.to/lastmile_qr_scan"}, "is_reserved": 0, "fusion_lon": 0.0, "fusion_lat": 0.0, "lon": -77.048831, "name": "64841c5c9204c6d485db6df4e6a4df99"}, {"bike_id": "095a899f400d866e45762f1f8969a9d5", "type": "electric_scooter", "is_disabled": 0, "lat": 38.90409116666667, "rental_uris": {"ios": "https://dc.lft.to/lastmile_qr_scan", "android": "https://dc.lft.to/lastmile_qr_scan"}, "is_reserved": 0, "fusion_lon": 0.0, "fusion_lat": 0.0, "lon": -76.97333166666667, "name": "095a899f400d866e45762f1f8969a9d5"}, {"bike_id": "aa67cb569e3c583293936cd3537d6b6a", "type": "electric_scooter", "is_disabled": 0, "lat": 38.899025, "rental_uris": {"ios": "https://dc.lft.to/lastmile_qr_scan", "android": "https://dc.lft.to/lastmile_qr_scan"}, "is_reserved": 0, "fusion_lon": 0.0, "fusion_lat": 0.0, "lon": -77.03937533333334, "name": "aa67cb569e3c583293936cd3537d6b6a"}, {"bike_id": "23b4cb1072d443c0fb5b257fd2ee22dd", "type": "electric_scooter", "is_disabled": 0, "lat": 38.956306, "rental_uris": {"ios": "https://dc.lft.to/lastmile_qr_scan", "android": "https://dc.lft.to/lastmile_qr_scan"}, "is_reserved": 0, "fusion_lon": 0.0, "fusion_lat": 0.0, "lon": -77.036178, "name": "23b4cb1072d443c0fb5b257fd2ee22dd"}, {"bike_id": "88454a4a922a6881bf4e644e5422285f", "type": "electric_bike", "is_disabled": 0, "lat": 38.973960166666664, "rental_uris": {"ios": "https://dc.lft.to/lastmile_qr_scan", "android": "https://dc.lft.to/lastmile_qr_scan"}, "is_reserved": 0, "fusion_lon": 0.0, "fusion_lat": 0.0, "lon": -77.06454516666666, "name": "88454a4a922a6881bf4e644e5422285f"}, {"bike_id": "4d8f8d727da83ea55fb9c8e00afe54fb", "type": "electric_scooter", "is_disabled": 0, "lat": 38.8735555, "rental_uris": {"ios": "https://dc.lft.to/lastmile_qr_scan", "android": "https://dc.lft.to/lastmile_qr_scan"}, "is_reserved": 0, "fusion_lon": 0.0, "fusion_lat": 0.0, "lon": -77.00604833333334, "name": "4d8f8d727da83ea55fb9c8e00afe54fb"}, {"bike_id": "5732ea12689671621bb1f5060f7caf88", "type": "electric_scooter", "is_disabled": 0, "lat": 38.9105355, "rental_uris": {"ios": "https://dc.lft.to/lastmile_qr_scan", "android": "https://dc.lft.to/lastmile_qr_scan"}, "is_reserved": 0, "fusion_lon": 0.0, "fusion_lat": 0.0, "lon": -77.04348066666667, "name": "5732ea12689671621bb1f5060f7caf88"}, {"bike_id": "4f3ce25b8d224e45cc8e7e6ae5c0da5c", "type": "electric_scooter", "is_disabled": 0, "lat": 38.879173, "rental_uris": {"ios": "https://dc.lft.to/lastmile_qr_scan", "android": "https://dc.lft.to/lastmile_qr_scan"}, "is_reserved": 0, "fusion_lon": 0.0, "fusion_lat": 0.0, "lon": -77.00883116666667, "name": "4f3ce25b8d224e45cc8e7e6ae5c0da5c"}, {"bike_id": "046ffd7501d014cea69d00b2e0fffadf", "type": "electric_scooter", "is_disabled": 0, "lat": 38.90122083333333, "rental_uris": {"ios": "https://dc.lft.to/lastmile_qr_scan", "android": "https://dc.lft.to/lastmile_qr_scan"}, "is_reserved": 0, "fusion_lon": 0.0, "fusion_lat": 0.0, "lon": -76.92953683333333, "name": "046ffd7501d014cea69d00b2e0fffadf"}, {"bike_id": "f93f1b8d15ce3438f69afcfa97e3808d", "type": "electric_scooter", "is_disabled": 0, "lat": 38.9028945, "rental_uris": {"ios": "https://dc.lft.to/lastmile_qr_scan", "android": "https://dc.lft.to/lastmile_qr_scan"}, "is_reserved": 0, "fusion_lon": 0.0, "fusion_lat": 0.0, "lon": -77.00352, "name": "f93f1b8d15ce3438f69afcfa97e3808d"}, {"bike_id": "d41a1ca5818302b13b5f6376f678758c", "type": "electric_scooter", "is_disabled": 0, "lat": 38.873359666666666, "rental_uris": {"ios": "https://dc.lft.to/lastmile_qr_scan", "android": "https://dc.lft.to/lastmile_qr_scan"}, "is_reserved": 0, "fusion_lon": 0.0, "fusion_lat": 0.0, "lon": -76.96780566666666, "name": "d41a1ca5818302b13b5f6376f678758c"}, {"bike_id": "27a57a84047eed36ddeb485626a12757", "type": "electric_scooter", "is_disabled": 0, "lat": 38.88740116666666, "rental_uris": {"ios": "https://dc.lft.to/lastmile_qr_scan", "android": "https://dc.lft.to/lastmile_qr_scan"}, "is_reserved": 0, "fusion_lon": 0.0, "fusion_lat": 0.0, "lon": -77.01535783333334, "name": "27a57a84047eed36ddeb485626a12757"}, {"bike_id": "4e418ccaeac378fdd57368fe727486f1", "type": "electric_scooter", "is_disabled": 0, "lat": 38.9232785, "rental_uris": {"ios": "https://dc.lft.to/lastmile_qr_scan", "android": "https://dc.lft.to/lastmile_qr_scan"}, "is_reserved": 0, "fusion_lon": 0.0, "fusion_lat": 0.0, "lon": -77.0378655, "name": "4e418ccaeac378fdd57368fe727486f1"}, {"bike_id": "2f77253808649bda0bc19ab8599d2c75", "type": "electric_scooter", "is_disabled": 0, "lat": 38.898618, "rental_uris": {"ios": "https://dc.lft.to/lastmile_qr_scan", "android": "https://dc.lft.to/lastmile_qr_scan"}, "is_reserved": 0, "fusion_lon": 0.0, "fusion_lat": 0.0, "lon": -77.04658933333333, "name": "2f77253808649bda0bc19ab8599d2c75"}, {"bike_id": "deee75dc6dd56956632fb7395a33fa5a", "type": "electric_bike", "is_disabled": 0, "lat": 38.951042, "rental_uris": {"ios": "https://dc.lft.to/lastmile_qr_scan", "android": "https://dc.lft.to/lastmile_qr_scan"}, "is_reserved": 0, "fusion_lon": 0.0, "fusion_lat": 0.0, "lon": -77.05515216666667, "name": "deee75dc6dd56956632fb7395a33fa5a"}, {"bike_id": "bb8a4c2cc2cc1131e230bccac8bb7f42", "type": "electric_scooter", "is_disabled": 0, "lat": 38.92332783333333, "rental_uris": {"ios": "https://dc.lft.to/lastmile_qr_scan", "android": "https://dc.lft.to/lastmile_qr_scan"}, "is_reserved": 0, "fusion_lon": 0.0, "fusion_lat": 0.0, "lon": -77.0418785, "name": "bb8a4c2cc2cc1131e230bccac8bb7f42"}, {"bike_id": "b4a876b0c944d498a9e9869a8ff3ce41", "type": "electric_scooter", "is_disabled": 0, "lat": 38.915439666666664, "rental_uris": {"ios": "https://dc.lft.to/lastmile_qr_scan", "android": "https://dc.lft.to/lastmile_qr_scan"}, "is_reserved": 0, "fusion_lon": 0.0, "fusion_lat": 0.0, "lon": -77.012701, "name": "b4a876b0c944d498a9e9869a8ff3ce41"}, {"bike_id": "521a896458e63ada33a9a8edb22d304a", "type": "electric_scooter", "is_disabled": 0, "lat": 38.928816833333336, "rental_uris": {"ios": "https://dc.lft.to/lastmile_qr_scan", "android": "https://dc.lft.to/lastmile_qr_scan"}, "is_reserved": 0, "fusion_lon": 0.0, "fusion_lat": 0.0, "lon": -77.03263233333334, "name": "521a896458e63ada33a9a8edb22d304a"}, {"bike_id": "0ce09b69179344c6aa8204be12b7b757", "type": "electric_scooter", "is_disabled": 0, "lat": 38.912617, "rental_uris": {"ios": "https://dc.lft.to/lastmile_qr_scan", "android": "https://dc.lft.to/lastmile_qr_scan"}, "is_reserved": 0, "fusion_lon": 0.0, "fusion_lat": 0.0, "lon": -77.042516, "name": "0ce09b69179344c6aa8204be12b7b757"}, {"bike_id": "39a2bcd0c1861255b7f8c84b72c1e8ed", "type": "electric_bike", "is_disabled": 0, "lat": 38.9254455, "rental_uris": {"ios": "https://dc.lft.to/lastmile_qr_scan", "android": "https://dc.lft.to/lastmile_qr_scan"}, "is_reserved": 0, "fusion_lon": 0.0, "fusion_lat": 0.0, "lon": -77.057622, "name": "39a2bcd0c1861255b7f8c84b72c1e8ed"}, {"bike_id": "d485ec2c506b49b5b0f56359702ceec2", "type": "electric_scooter", "is_disabled": 0, "lat": 38.889182166666664, "rental_uris": {"ios": "https://dc.lft.to/lastmile_qr_scan", "android": "https://dc.lft.to/lastmile_qr_scan"}, "is_reserved": 0, "fusion_lon": 0.0, "fusion_lat": 0.0, "lon": -76.991322, "name": "d485ec2c506b49b5b0f56359702ceec2"}, {"bike_id": "5726a283c14d9447c62b6e8ecfac1114", "type": "electric_scooter", "is_disabled": 0, "lat": 38.906104666666664, "rental_uris": {"ios": "https://dc.lft.to/lastmile_qr_scan", "android": "https://dc.lft.to/lastmile_qr_scan"}, "is_reserved": 0, "fusion_lon": 0.0, "fusion_lat": 0.0, "lon": -77.02111383333333, "name": "5726a283c14d9447c62b6e8ecfac1114"}, {"bike_id": "34b8745105059ac076aca2a6cc5af8c5", "type": "electric_bike", "is_disabled": 0, "lat": 38.95404, "rental_uris": {"ios": "https://dc.lft.to/lastmile_qr_scan", "android": "https://dc.lft.to/lastmile_qr_scan"}, "is_reserved": 0, "fusion_lon": 0.0, "fusion_lat": 0.0, "lon": -76.98057316666667, "name": "34b8745105059ac076aca2a6cc5af8c5"}, {"bike_id": "039afd036c9f151dd832f665cc0057bb", "type": "electric_scooter", "is_disabled": 0, "lat": 38.89894233333333, "rental_uris": {"ios": "https://dc.lft.to/lastmile_qr_scan", "android": "https://dc.lft.to/lastmile_qr_scan"}, "is_reserved": 0, "fusion_lon": 0.0, "fusion_lat": 0.0, "lon": -76.97694666666666, "name": "039afd036c9f151dd832f665cc0057bb"}, {"bike_id": "7d520b039f57ff744552517be9a09044", "type": "electric_bike", "is_disabled": 0, "lat": 38.83828183333333, "rental_uris": {"ios": "https://dc.lft.to/lastmile_qr_scan", "android": "https://dc.lft.to/lastmile_qr_scan"}, "is_reserved": 0, "fusion_lon": 0.0, "fusion_lat": 0.0, "lon": -77.0028135, "name": "7d520b039f57ff744552517be9a09044"}, {"bike_id": "7bc89b15387c748a2890b71f9d6a2aa0", "type": "electric_scooter", "is_disabled": 0, "lat": 38.925392333333335, "rental_uris": {"ios": "https://dc.lft.to/lastmile_qr_scan", "android": "https://dc.lft.to/lastmile_qr_scan"}, "is_reserved": 0, "fusion_lon": 0.0, "fusion_lat": 0.0, "lon": -77.04126316666667, "name": "7bc89b15387c748a2890b71f9d6a2aa0"}, {"bike_id": "35cd683b472d6ce74489a98a2c2117bf", "type": "electric_scooter", "is_disabled": 0, "lat": 38.90771433333333, "rental_uris": {"ios": "https://dc.lft.to/lastmile_qr_scan", "android": "https://dc.lft.to/lastmile_qr_scan"}, "is_reserved": 0, "fusion_lon": 0.0, "fusion_lat": 0.0, "lon": -77.07130233333334, "name": "35cd683b472d6ce74489a98a2c2117bf"}, {"bike_id": "023fc571f24effed079751e448eaa3b4", "type": "electric_scooter", "is_disabled": 0, "lat": 38.86985966666667, "rental_uris": {"ios": "https://dc.lft.to/lastmile_qr_scan", "android": "https://dc.lft.to/lastmile_qr_scan"}, "is_reserved": 0, "fusion_lon": 0.0, "fusion_lat": 0.0, "lon": -76.9816815, "name": "023fc571f24effed079751e448eaa3b4"}, {"bike_id": "e169fb212aa39a89465ad38df4eeefea", "type": "electric_scooter", "is_disabled": 0, "lat": 38.94707366666667, "rental_uris": {"ios": "https://dc.lft.to/lastmile_qr_scan", "android": "https://dc.lft.to/lastmile_qr_scan"}, "is_reserved": 0, "fusion_lon": 0.0, "fusion_lat": 0.0, "lon": -77.01938666666666, "name": "e169fb212aa39a89465ad38df4eeefea"}, {"bike_id": "53a9a6e8f11838a165dce113c49bb94f", "type": "electric_scooter", "is_disabled": 0, "lat": 38.8824235, "rental_uris": {"ios": "https://dc.lft.to/lastmile_qr_scan", "android": "https://dc.lft.to/lastmile_qr_scan"}, "is_reserved": 0, "fusion_lon": 0.0, "fusion_lat": 0.0, "lon": -76.92658733333333, "name": "53a9a6e8f11838a165dce113c49bb94f"}, {"bike_id": "7575d4fb3de1a1df9ada30ea15a92942", "type": "electric_scooter", "is_disabled": 0, "lat": 38.92829116666667, "rental_uris": {"ios": "https://dc.lft.to/lastmile_qr_scan", "android": "https://dc.lft.to/lastmile_qr_scan"}, "is_reserved": 0, "fusion_lon": 0.0, "fusion_lat": 0.0, "lon": -77.0060075, "name": "7575d4fb3de1a1df9ada30ea15a92942"}, {"bike_id": "1d6b8ec10d4be3a0b58574391898c75f", "type": "electric_scooter", "is_disabled": 0, "lat": 38.93533816666667, "rental_uris": {"ios": "https://dc.lft.to/lastmile_qr_scan", "android": "https://dc.lft.to/lastmile_qr_scan"}, "is_reserved": 0, "fusion_lon": 0.0, "fusion_lat": 0.0, "lon": -77.02346366666667, "name": "1d6b8ec10d4be3a0b58574391898c75f"}, {"bike_id": "1de18d41198e863104a1b7213b46648b", "type": "electric_scooter", "is_disabled": 0, "lat": 38.905141666666665, "rental_uris": {"ios": "https://dc.lft.to/lastmile_qr_scan", "android": "https://dc.lft.to/lastmile_qr_scan"}, "is_reserved": 0, "fusion_lon": 0.0, "fusion_lat": 0.0, "lon": -77.04192083333334, "name": "1de18d41198e863104a1b7213b46648b"}, {"bike_id": "7ad105debc3a23634d06ab57f7559059", "type": "electric_scooter", "is_disabled": 0, "lat": 38.9100495, "rental_uris": {"ios": "https://dc.lft.to/lastmile_qr_scan", "android": "https://dc.lft.to/lastmile_qr_scan"}, "is_reserved": 0, "fusion_lon": 0.0, "fusion_lat": 0.0, "lon": -77.04425683333334, "name": "7ad105debc3a23634d06ab57f7559059"}, {"bike_id": "47bca10b194552129b3895f5f626c3e5", "type": "electric_scooter", "is_disabled": 0, "lat": 38.90580966666667, "rental_uris": {"ios": "https://dc.lft.to/lastmile_qr_scan", "android": "https://dc.lft.to/lastmile_qr_scan"}, "is_reserved": 0, "fusion_lon": 0.0, "fusion_lat": 0.0, "lon": -77.03820683333333, "name": "47bca10b194552129b3895f5f626c3e5"}, {"bike_id": "08a4c4cc5d9c2f8db01340a860a32584", "type": "electric_bike", "is_disabled": 0, "lat": 38.872824333333334, "rental_uris": {"ios": "https://dc.lft.to/lastmile_qr_scan", "android": "https://dc.lft.to/lastmile_qr_scan"}, "is_reserved": 0, "fusion_lon": 0.0, "fusion_lat": 0.0, "lon": -77.2331785, "name": "08a4c4cc5d9c2f8db01340a860a32584"}, {"bike_id": "fcb9082bbc06dcf984644291a8910a97", "type": "electric_scooter", "is_disabled": 0, "lat": 38.914216, "rental_uris": {"ios": "https://dc.lft.to/lastmile_qr_scan", "android": "https://dc.lft.to/lastmile_qr_scan"}, "is_reserved": 0, "fusion_lon": 0.0, "fusion_lat": 0.0, "lon": -77.04808983333334, "name": "fcb9082bbc06dcf984644291a8910a97"}, {"bike_id": "f054288c7bb06cf00278cb95f1b46165", "type": "electric_scooter", "is_disabled": 0, "lat": 38.928562666666664, "rental_uris": {"ios": "https://dc.lft.to/lastmile_qr_scan", "android": "https://dc.lft.to/lastmile_qr_scan"}, "is_reserved": 0, "fusion_lon": 0.0, "fusion_lat": 0.0, "lon": -77.01954916666666, "name": "f054288c7bb06cf00278cb95f1b46165"}, {"bike_id": "cf1aad3c80d5752162c72d51fe9eb093", "type": "electric_scooter", "is_disabled": 0, "lat": 38.94792183333333, "rental_uris": {"ios": "https://dc.lft.to/lastmile_qr_scan", "android": "https://dc.lft.to/lastmile_qr_scan"}, "is_reserved": 0, "fusion_lon": 0.0, "fusion_lat": 0.0, "lon": -77.02130683333333, "name": "cf1aad3c80d5752162c72d51fe9eb093"}, {"bike_id": "b29f85c8ba20215f12058c999b26351a", "type": "electric_scooter", "is_disabled": 0, "lat": 38.921545, "rental_uris": {"ios": "https://dc.lft.to/lastmile_qr_scan", "android": "https://dc.lft.to/lastmile_qr_scan"}, "is_reserved": 0, "fusion_lon": 0.0, "fusion_lat": 0.0, "lon": -77.03530433333333, "name": "b29f85c8ba20215f12058c999b26351a"}, {"bike_id": "49083724b52984dcd07377b8f44df0fc", "type": "electric_scooter", "is_disabled": 0, "lat": 38.913755, "rental_uris": {"ios": "https://dc.lft.to/lastmile_qr_scan", "android": "https://dc.lft.to/lastmile_qr_scan"}, "is_reserved": 0, "fusion_lon": 0.0, "fusion_lat": 0.0, "lon": -77.07269583333333, "name": "49083724b52984dcd07377b8f44df0fc"}, {"bike_id": "2f3653ad983c29ad94bd7379bd3ba0ba", "type": "electric_bike", "is_disabled": 0, "lat": 38.88062716666666, "rental_uris": {"ios": "https://dc.lft.to/lastmile_qr_scan", "android": "https://dc.lft.to/lastmile_qr_scan"}, "is_reserved": 0, "fusion_lon": 0.0, "fusion_lat": 0.0, "lon": -76.96242166666667, "name": "2f3653ad983c29ad94bd7379bd3ba0ba"}, {"bike_id": "6759a35257b1c9bd68cfc3f07e66e99a", "type": "electric_bike", "is_disabled": 0, "lat": 38.910169833333335, "rental_uris": {"ios": "https://dc.lft.to/lastmile_qr_scan", "android": "https://dc.lft.to/lastmile_qr_scan"}, "is_reserved": 0, "fusion_lon": 0.0, "fusion_lat": 0.0, "lon": -77.227983, "name": "6759a35257b1c9bd68cfc3f07e66e99a"}, {"bike_id": "261262d32abac9358afe5c6caffa9b9d", "type": "electric_scooter", "is_disabled": 0, "lat": 38.92014416666667, "rental_uris": {"ios": "https://dc.lft.to/lastmile_qr_scan", "android": "https://dc.lft.to/lastmile_qr_scan"}, "is_reserved": 0, "fusion_lon": 0.0, "fusion_lat": 0.0, "lon": -77.041725, "name": "261262d32abac9358afe5c6caffa9b9d"}, {"bike_id": "f5ca3d08276d5dcf6632d8b2b95f766c", "type": "electric_scooter", "is_disabled": 0, "lat": 38.92357483333333, "rental_uris": {"ios": "https://dc.lft.to/lastmile_qr_scan", "android": "https://dc.lft.to/lastmile_qr_scan"}, "is_reserved": 0, "fusion_lon": 0.0, "fusion_lat": 0.0, "lon": -77.0527455, "name": "f5ca3d08276d5dcf6632d8b2b95f766c"}, {"bike_id": "e7800d10fabd361c125f894989247f00", "type": "electric_scooter", "is_disabled": 0, "lat": 38.914031333333334, "rental_uris": {"ios": "https://dc.lft.to/lastmile_qr_scan", "android": "https://dc.lft.to/lastmile_qr_scan"}, "is_reserved": 0, "fusion_lon": 0.0, "fusion_lat": 0.0, "lon": -77.0317345, "name": "e7800d10fabd361c125f894989247f00"}, {"bike_id": "0c8e0830edd6f5f0a0ae68559b1480cc", "type": "electric_scooter", "is_disabled": 0, "lat": 38.8893395, "rental_uris": {"ios": "https://dc.lft.to/lastmile_qr_scan", "android": "https://dc.lft.to/lastmile_qr_scan"}, "is_reserved": 0, "fusion_lon": 0.0, "fusion_lat": 0.0, "lon": -76.93584333333334, "name": "0c8e0830edd6f5f0a0ae68559b1480cc"}, {"bike_id": "9dd9bf521fe2927610a0636bd3fe6a09", "type": "electric_scooter", "is_disabled": 0, "lat": 38.910604166666666, "rental_uris": {"ios": "https://dc.lft.to/lastmile_qr_scan", "android": "https://dc.lft.to/lastmile_qr_scan"}, "is_reserved": 0, "fusion_lon": 0.0, "fusion_lat": 0.0, "lon": -77.04149666666666, "name": "9dd9bf521fe2927610a0636bd3fe6a09"}, {"bike_id": "e117711cf12230b9efe90f5c01b07f0a", "type": "electric_scooter", "is_disabled": 0, "lat": 38.888557666666664, "rental_uris": {"ios": "https://dc.lft.to/lastmile_qr_scan", "android": "https://dc.lft.to/lastmile_qr_scan"}, "is_reserved": 0, "fusion_lon": 0.0, "fusion_lat": 0.0, "lon": -77.00050683333333, "name": "e117711cf12230b9efe90f5c01b07f0a"}, {"bike_id": "bd7c18de0b101259760017f6ded191f5", "type": "electric_scooter", "is_disabled": 0, "lat": 38.844311833333336, "rental_uris": {"ios": "https://dc.lft.to/lastmile_qr_scan", "android": "https://dc.lft.to/lastmile_qr_scan"}, "is_reserved": 0, "fusion_lon": 0.0, "fusion_lat": 0.0, "lon": -76.9978275, "name": "bd7c18de0b101259760017f6ded191f5"}, {"bike_id": "01ede8423f6dd2426953f9e885159e8e", "type": "electric_scooter", "is_disabled": 0, "lat": 38.9059815, "rental_uris": {"ios": "https://dc.lft.to/lastmile_qr_scan", "android": "https://dc.lft.to/lastmile_qr_scan"}, "is_reserved": 0, "fusion_lon": 0.0, "fusion_lat": 0.0, "lon": -77.03475883333333, "name": "01ede8423f6dd2426953f9e885159e8e"}, {"bike_id": "ae35ce0196d2e4923903222b2d97a7bb", "type": "electric_scooter", "is_disabled": 0, "lat": 38.9329185, "rental_uris": {"ios": "https://dc.lft.to/lastmile_qr_scan", "android": "https://dc.lft.to/lastmile_qr_scan"}, "is_reserved": 0, "fusion_lon": 0.0, "fusion_lat": 0.0, "lon": -77.03540866666667, "name": "ae35ce0196d2e4923903222b2d97a7bb"}, {"bike_id": "8510d39bbdef71deff67229e1a5167fc", "type": "electric_bike", "is_disabled": 0, "lat": 39.043088166666664, "rental_uris": {"ios": "https://dc.lft.to/lastmile_qr_scan", "android": "https://dc.lft.to/lastmile_qr_scan"}, "is_reserved": 0, "fusion_lon": 0.0, "fusion_lat": 0.0, "lon": -77.05160016666666, "name": "8510d39bbdef71deff67229e1a5167fc"}, {"bike_id": "5a579a5d5b3bfe5476a8886fe7615080", "type": "electric_scooter", "is_disabled": 0, "lat": 38.8715715, "rental_uris": {"ios": "https://dc.lft.to/lastmile_qr_scan", "android": "https://dc.lft.to/lastmile_qr_scan"}, "is_reserved": 0, "fusion_lon": 0.0, "fusion_lat": 0.0, "lon": -77.0135315, "name": "5a579a5d5b3bfe5476a8886fe7615080"}, {"bike_id": "cb28852a494f732a6c027b64bff676d8", "type": "electric_bike", "is_disabled": 0, "lat": 38.8238115, "rental_uris": {"ios": "https://dc.lft.to/lastmile_qr_scan", "android": "https://dc.lft.to/lastmile_qr_scan"}, "is_reserved": 0, "fusion_lon": 0.0, "fusion_lat": 0.0, "lon": -77.0022715, "name": "cb28852a494f732a6c027b64bff676d8"}, {"bike_id": "f0ceaa9c86bb3898ed1be2ae29128ce1", "type": "electric_scooter", "is_disabled": 0, "lat": 38.89358033333333, "rental_uris": {"ios": "https://dc.lft.to/lastmile_qr_scan", "android": "https://dc.lft.to/lastmile_qr_scan"}, "is_reserved": 0, "fusion_lon": 0.0, "fusion_lat": 0.0, "lon": -76.94934616666667, "name": "f0ceaa9c86bb3898ed1be2ae29128ce1"}, {"bike_id": "c086f2251083b06cc8c74de0bdb266e4", "type": "electric_scooter", "is_disabled": 0, "lat": 38.9022075, "rental_uris": {"ios": "https://dc.lft.to/lastmile_qr_scan", "android": "https://dc.lft.to/lastmile_qr_scan"}, "is_reserved": 0, "fusion_lon": 0.0, "fusion_lat": 0.0, "lon": -77.0458325, "name": "c086f2251083b06cc8c74de0bdb266e4"}, {"bike_id": "db2b63ada5f545ec7e5d9b859e356b58", "type": "electric_scooter", "is_disabled": 0, "lat": 38.89793233333333, "rental_uris": {"ios": "https://dc.lft.to/lastmile_qr_scan", "android": "https://dc.lft.to/lastmile_qr_scan"}, "is_reserved": 0, "fusion_lon": 0.0, "fusion_lat": 0.0, "lon": -77.02224633333333, "name": "db2b63ada5f545ec7e5d9b859e356b58"}, {"bike_id": "0c33392915e2230f12300ba1dc8f6eb2", "type": "electric_scooter", "is_disabled": 0, "lat": 38.896078833333334, "rental_uris": {"ios": "https://dc.lft.to/lastmile_qr_scan", "android": "https://dc.lft.to/lastmile_qr_scan"}, "is_reserved": 0, "fusion_lon": 0.0, "fusion_lat": 0.0, "lon": -77.05439283333334, "name": "0c33392915e2230f12300ba1dc8f6eb2"}, {"bike_id": "cbf5f5cda8dbeba6b7526799e73ebc48", "type": "electric_scooter", "is_disabled": 0, "lat": 38.9280075, "rental_uris": {"ios": "https://dc.lft.to/lastmile_qr_scan", "android": "https://dc.lft.to/lastmile_qr_scan"}, "is_reserved": 0, "fusion_lon": 0.0, "fusion_lat": 0.0, "lon": -77.03201366666667, "name": "cbf5f5cda8dbeba6b7526799e73ebc48"}, {"bike_id": "b99a2896f6a6ac395fe12e633b843b32", "type": "electric_bike", "is_disabled": 0, "lat": 38.909648833333335, "rental_uris": {"ios": "https://dc.lft.to/lastmile_qr_scan", "android": "https://dc.lft.to/lastmile_qr_scan"}, "is_reserved": 0, "fusion_lon": 0.0, "fusion_lat": 0.0, "lon": -77.0273895, "name": "b99a2896f6a6ac395fe12e633b843b32"}, {"bike_id": "8af909f58886d6eab659fcc8e4aead6e", "type": "electric_scooter", "is_disabled": 0, "lat": 38.920120833333335, "rental_uris": {"ios": "https://dc.lft.to/lastmile_qr_scan", "android": "https://dc.lft.to/lastmile_qr_scan"}, "is_reserved": 0, "fusion_lon": 0.0, "fusion_lat": 0.0, "lon": -77.04174433333333, "name": "8af909f58886d6eab659fcc8e4aead6e"}, {"bike_id": "51ee4db1fe7b3263d21267e590d3785b", "type": "electric_scooter", "is_disabled": 0, "lat": 38.903670166666664, "rental_uris": {"ios": "https://dc.lft.to/lastmile_qr_scan", "android": "https://dc.lft.to/lastmile_qr_scan"}, "is_reserved": 0, "fusion_lon": 0.0, "fusion_lat": 0.0, "lon": -76.99942366666667, "name": "51ee4db1fe7b3263d21267e590d3785b"}, {"bike_id": "4169923598c9130c57337b7ab732cec3", "type": "electric_scooter", "is_disabled": 0, "lat": 38.915662833333336, "rental_uris": {"ios": "https://dc.lft.to/lastmile_qr_scan", "android": "https://dc.lft.to/lastmile_qr_scan"}, "is_reserved": 0, "fusion_lon": 0.0, "fusion_lat": 0.0, "lon": -77.0500645, "name": "4169923598c9130c57337b7ab732cec3"}, {"bike_id": "ed9401528cadee65814e71bcae00cbb6", "type": "electric_scooter", "is_disabled": 0, "lat": 38.9031725, "rental_uris": {"ios": "https://dc.lft.to/lastmile_qr_scan", "android": "https://dc.lft.to/lastmile_qr_scan"}, "is_reserved": 0, "fusion_lon": 0.0, "fusion_lat": 0.0, "lon": -77.02895283333334, "name": "ed9401528cadee65814e71bcae00cbb6"}, {"bike_id": "f13da406ec165b7681e13ffe5b0b1411", "type": "electric_scooter", "is_disabled": 0, "lat": 38.88426966666667, "rental_uris": {"ios": "https://dc.lft.to/lastmile_qr_scan", "android": "https://dc.lft.to/lastmile_qr_scan"}, "is_reserved": 0, "fusion_lon": 0.0, "fusion_lat": 0.0, "lon": -76.95741733333334, "name": "f13da406ec165b7681e13ffe5b0b1411"}, {"bike_id": "6820540a395276463c2d72dc0a79fed9", "type": "electric_scooter", "is_disabled": 0, "lat": 38.9071845, "rental_uris": {"ios": "https://dc.lft.to/lastmile_qr_scan", "android": "https://dc.lft.to/lastmile_qr_scan"}, "is_reserved": 0, "fusion_lon": 0.0, "fusion_lat": 0.0, "lon": -77.01474133333333, "name": "6820540a395276463c2d72dc0a79fed9"}, {"bike_id": "9abc8970cdaa5c5cbddd5822b5df174a", "type": "electric_scooter", "is_disabled": 0, "lat": 38.91123266666666, "rental_uris": {"ios": "https://dc.lft.to/lastmile_qr_scan", "android": "https://dc.lft.to/lastmile_qr_scan"}, "is_reserved": 0, "fusion_lon": 0.0, "fusion_lat": 0.0, "lon": -77.02170133333334, "name": "9abc8970cdaa5c5cbddd5822b5df174a"}, {"bike_id": "83bdabb53a02f58ec28dc4776bbfe130", "type": "electric_scooter", "is_disabled": 0, "lat": 38.9346665, "rental_uris": {"ios": "https://dc.lft.to/lastmile_qr_scan", "android": "https://dc.lft.to/lastmile_qr_scan"}, "is_reserved": 0, "fusion_lon": 0.0, "fusion_lat": 0.0, "lon": -77.02927533333333, "name": "83bdabb53a02f58ec28dc4776bbfe130"}, {"bike_id": "fefc4a1ae14ce50cee5eb97f5d12d920", "type": "electric_scooter", "is_disabled": 0, "lat": 38.92084466666667, "rental_uris": {"ios": "https://dc.lft.to/lastmile_qr_scan", "android": "https://dc.lft.to/lastmile_qr_scan"}, "is_reserved": 0, "fusion_lon": 0.0, "fusion_lat": 0.0, "lon": -77.02301066666666, "name": "fefc4a1ae14ce50cee5eb97f5d12d920"}, {"bike_id": "994f1bfe9c9aeb4274d568465ec48f68", "type": "electric_scooter", "is_disabled": 0, "lat": 38.91660783333333, "rental_uris": {"ios": "https://dc.lft.to/lastmile_qr_scan", "android": "https://dc.lft.to/lastmile_qr_scan"}, "is_reserved": 0, "fusion_lon": 0.0, "fusion_lat": 0.0, "lon": -77.0270215, "name": "994f1bfe9c9aeb4274d568465ec48f68"}, {"bike_id": "21658dd7f27a9b7cd427cea266fa8194", "type": "electric_scooter", "is_disabled": 0, "lat": 38.935318333333335, "rental_uris": {"ios": "https://dc.lft.to/lastmile_qr_scan", "android": "https://dc.lft.to/lastmile_qr_scan"}, "is_reserved": 0, "fusion_lon": 0.0, "fusion_lat": 0.0, "lon": -77.02358366666667, "name": "21658dd7f27a9b7cd427cea266fa8194"}, {"bike_id": "9f9c0b6483f7783c349613754742eea0", "type": "electric_scooter", "is_disabled": 0, "lat": 38.924487666666664, "rental_uris": {"ios": "https://dc.lft.to/lastmile_qr_scan", "android": "https://dc.lft.to/lastmile_qr_scan"}, "is_reserved": 0, "fusion_lon": 0.0, "fusion_lat": 0.0, "lon": -77.04104416666667, "name": "9f9c0b6483f7783c349613754742eea0"}, {"bike_id": "8020f45a0e56f4667492ec042fa70759", "type": "electric_scooter", "is_disabled": 0, "lat": 38.91553666666667, "rental_uris": {"ios": "https://dc.lft.to/lastmile_qr_scan", "android": "https://dc.lft.to/lastmile_qr_scan"}, "is_reserved": 0, "fusion_lon": 0.0, "fusion_lat": 0.0, "lon": -77.032226, "name": "8020f45a0e56f4667492ec042fa70759"}, {"bike_id": "030fec9a94ebf66abe10f4b573470047", "type": "electric_bike", "is_disabled": 0, "lat": 38.94363083333333, "rental_uris": {"ios": "https://dc.lft.to/lastmile_qr_scan", "android": "https://dc.lft.to/lastmile_qr_scan"}, "is_reserved": 0, "fusion_lon": 0.0, "fusion_lat": 0.0, "lon": -76.967786, "name": "030fec9a94ebf66abe10f4b573470047"}, {"bike_id": "98f5e8a14d1e7400d4df97e0355a7113", "type": "electric_scooter", "is_disabled": 0, "lat": 38.9232145, "rental_uris": {"ios": "https://dc.lft.to/lastmile_qr_scan", "android": "https://dc.lft.to/lastmile_qr_scan"}, "is_reserved": 0, "fusion_lon": 0.0, "fusion_lat": 0.0, "lon": -77.04601366666667, "name": "98f5e8a14d1e7400d4df97e0355a7113"}, {"bike_id": "3a47317258d2d0d13a43936e147abac3", "type": "electric_scooter", "is_disabled": 0, "lat": 38.89990866666667, "rental_uris": {"ios": "https://dc.lft.to/lastmile_qr_scan", "android": "https://dc.lft.to/lastmile_qr_scan"}, "is_reserved": 0, "fusion_lon": 0.0, "fusion_lat": 0.0, "lon": -77.00622016666667, "name": "3a47317258d2d0d13a43936e147abac3"}, {"bike_id": "e256a6be137daae1bf3a313de4864c82", "type": "electric_scooter", "is_disabled": 0, "lat": 38.90616883333333, "rental_uris": {"ios": "https://dc.lft.to/lastmile_qr_scan", "android": "https://dc.lft.to/lastmile_qr_scan"}, "is_reserved": 0, "fusion_lon": 0.0, "fusion_lat": 0.0, "lon": -77.00600016666667, "name": "e256a6be137daae1bf3a313de4864c82"}, {"bike_id": "a578490720aa20a17b8b9605cec2b717", "type": "electric_scooter", "is_disabled": 0, "lat": 38.924453, "rental_uris": {"ios": "https://dc.lft.to/lastmile_qr_scan", "android": "https://dc.lft.to/lastmile_qr_scan"}, "is_reserved": 0, "fusion_lon": 0.0, "fusion_lat": 0.0, "lon": -77.03277183333333, "name": "a578490720aa20a17b8b9605cec2b717"}, {"bike_id": "36bdf43ffe4ab25977a7823c4827b9d9", "type": "electric_scooter", "is_disabled": 0, "lat": 38.895422333333336, "rental_uris": {"ios": "https://dc.lft.to/lastmile_qr_scan", "android": "https://dc.lft.to/lastmile_qr_scan"}, "is_reserved": 0, "fusion_lon": 0.0, "fusion_lat": 0.0, "lon": -76.949285, "name": "36bdf43ffe4ab25977a7823c4827b9d9"}, {"bike_id": "2f8f03207ab0eca9fc75d05769ebc4d3", "type": "electric_scooter", "is_disabled": 0, "lat": 38.9228755, "rental_uris": {"ios": "https://dc.lft.to/lastmile_qr_scan", "android": "https://dc.lft.to/lastmile_qr_scan"}, "is_reserved": 0, "fusion_lon": 0.0, "fusion_lat": 0.0, "lon": -77.0224565, "name": "2f8f03207ab0eca9fc75d05769ebc4d3"}, {"bike_id": "42499352990a8cb7ac43d8a78ee781e9", "type": "electric_scooter", "is_disabled": 0, "lat": 38.92281666666667, "rental_uris": {"ios": "https://dc.lft.to/lastmile_qr_scan", "android": "https://dc.lft.to/lastmile_qr_scan"}, "is_reserved": 0, "fusion_lon": 0.0, "fusion_lat": 0.0, "lon": -77.02245433333333, "name": "42499352990a8cb7ac43d8a78ee781e9"}, {"bike_id": "93ddfdcad0d1f101040f3f51fd69c0dd", "type": "electric_scooter", "is_disabled": 0, "lat": 38.907509833333336, "rental_uris": {"ios": "https://dc.lft.to/lastmile_qr_scan", "android": "https://dc.lft.to/lastmile_qr_scan"}, "is_reserved": 0, "fusion_lon": 0.0, "fusion_lat": 0.0, "lon": -77.03188116666666, "name": "93ddfdcad0d1f101040f3f51fd69c0dd"}, {"bike_id": "c6b868e32d3e2df91098dae0120e0af6", "type": "electric_bike", "is_disabled": 0, "lat": 38.956437666666666, "rental_uris": {"ios": "https://dc.lft.to/lastmile_qr_scan", "android": "https://dc.lft.to/lastmile_qr_scan"}, "is_reserved": 0, "fusion_lon": 0.0, "fusion_lat": 0.0, "lon": -76.99795466666667, "name": "c6b868e32d3e2df91098dae0120e0af6"}, {"bike_id": "69520c94783101cb2bc24ae4c0595666", "type": "electric_scooter", "is_disabled": 0, "lat": 38.90507383333333, "rental_uris": {"ios": "https://dc.lft.to/lastmile_qr_scan", "android": "https://dc.lft.to/lastmile_qr_scan"}, "is_reserved": 0, "fusion_lon": 0.0, "fusion_lat": 0.0, "lon": -77.04326166666667, "name": "69520c94783101cb2bc24ae4c0595666"}, {"bike_id": "70e3229716da639b4deb24ca17ed6fbd", "type": "electric_scooter", "is_disabled": 0, "lat": 38.901079333333335, "rental_uris": {"ios": "https://dc.lft.to/lastmile_qr_scan", "android": "https://dc.lft.to/lastmile_qr_scan"}, "is_reserved": 0, "fusion_lon": 0.0, "fusion_lat": 0.0, "lon": -77.024784, "name": "70e3229716da639b4deb24ca17ed6fbd"}, {"bike_id": "cc3408d9bc472dc46d46ba3db7862362", "type": "electric_scooter", "is_disabled": 0, "lat": 38.91566733333333, "rental_uris": {"ios": "https://dc.lft.to/lastmile_qr_scan", "android": "https://dc.lft.to/lastmile_qr_scan"}, "is_reserved": 0, "fusion_lon": 0.0, "fusion_lat": 0.0, "lon": -77.03161216666666, "name": "cc3408d9bc472dc46d46ba3db7862362"}, {"bike_id": "37246986ca881ac4e6519dad83fabcea", "type": "electric_scooter", "is_disabled": 0, "lat": 38.92346583333333, "rental_uris": {"ios": "https://dc.lft.to/lastmile_qr_scan", "android": "https://dc.lft.to/lastmile_qr_scan"}, "is_reserved": 0, "fusion_lon": 0.0, "fusion_lat": 0.0, "lon": -77.04146833333333, "name": "37246986ca881ac4e6519dad83fabcea"}, {"bike_id": "7e82f9d0121d7c926082c20bf4977757", "type": "electric_scooter", "is_disabled": 0, "lat": 38.911120333333336, "rental_uris": {"ios": "https://dc.lft.to/lastmile_qr_scan", "android": "https://dc.lft.to/lastmile_qr_scan"}, "is_reserved": 0, "fusion_lon": 0.0, "fusion_lat": 0.0, "lon": -77.01002116666666, "name": "7e82f9d0121d7c926082c20bf4977757"}, {"bike_id": "efdbf316c1df8dfd4babf7ddcb468212", "type": "electric_scooter", "is_disabled": 0, "lat": 38.896269333333336, "rental_uris": {"ios": "https://dc.lft.to/lastmile_qr_scan", "android": "https://dc.lft.to/lastmile_qr_scan"}, "is_reserved": 0, "fusion_lon": 0.0, "fusion_lat": 0.0, "lon": -77.03295266666667, "name": "efdbf316c1df8dfd4babf7ddcb468212"}, {"bike_id": "ef767288e853d5a833d0fdb3b70e1217", "type": "electric_bike", "is_disabled": 0, "lat": 39.013712, "rental_uris": {"ios": "https://dc.lft.to/lastmile_qr_scan", "android": "https://dc.lft.to/lastmile_qr_scan"}, "is_reserved": 0, "fusion_lon": 0.0, "fusion_lat": 0.0, "lon": -76.92135066666667, "name": "ef767288e853d5a833d0fdb3b70e1217"}, {"bike_id": "904eb9dd1f1319500ed0ee9b79bff903", "type": "electric_scooter", "is_disabled": 0, "lat": 38.9101615, "rental_uris": {"ios": "https://dc.lft.to/lastmile_qr_scan", "android": "https://dc.lft.to/lastmile_qr_scan"}, "is_reserved": 0, "fusion_lon": 0.0, "fusion_lat": 0.0, "lon": -77.034427, "name": "904eb9dd1f1319500ed0ee9b79bff903"}, {"bike_id": "ca4d8d17f143b3f1281723cb16112b9e", "type": "electric_scooter", "is_disabled": 0, "lat": 38.88059116666667, "rental_uris": {"ios": "https://dc.lft.to/lastmile_qr_scan", "android": "https://dc.lft.to/lastmile_qr_scan"}, "is_reserved": 0, "fusion_lon": 0.0, "fusion_lat": 0.0, "lon": -76.93221333333334, "name": "ca4d8d17f143b3f1281723cb16112b9e"}, {"bike_id": "aa50d7a3c799c58d977f71bdf20f743b", "type": "electric_scooter", "is_disabled": 0, "lat": 38.906784333333334, "rental_uris": {"ios": "https://dc.lft.to/lastmile_qr_scan", "android": "https://dc.lft.to/lastmile_qr_scan"}, "is_reserved": 0, "fusion_lon": 0.0, "fusion_lat": 0.0, "lon": -77.07194816666667, "name": "aa50d7a3c799c58d977f71bdf20f743b"}, {"bike_id": "4ed9d25794b74adf0c04d86f54bb1a88", "type": "electric_scooter", "is_disabled": 0, "lat": 38.905888166666664, "rental_uris": {"ios": "https://dc.lft.to/lastmile_qr_scan", "android": "https://dc.lft.to/lastmile_qr_scan"}, "is_reserved": 0, "fusion_lon": 0.0, "fusion_lat": 0.0, "lon": -77.07005833333334, "name": "4ed9d25794b74adf0c04d86f54bb1a88"}, {"bike_id": "2e1f1ec5aff274c206cec83c6f30bd5e", "type": "electric_scooter", "is_disabled": 0, "lat": 38.95604383333333, "rental_uris": {"ios": "https://dc.lft.to/lastmile_qr_scan", "android": "https://dc.lft.to/lastmile_qr_scan"}, "is_reserved": 0, "fusion_lon": 0.0, "fusion_lat": 0.0, "lon": -77.00094566666667, "name": "2e1f1ec5aff274c206cec83c6f30bd5e"}, {"bike_id": "2c1f0f899c4ce297d590b56a89f7abf0", "type": "electric_scooter", "is_disabled": 0, "lat": 38.92273133333333, "rental_uris": {"ios": "https://dc.lft.to/lastmile_qr_scan", "android": "https://dc.lft.to/lastmile_qr_scan"}, "is_reserved": 0, "fusion_lon": 0.0, "fusion_lat": 0.0, "lon": -76.98636983333333, "name": "2c1f0f899c4ce297d590b56a89f7abf0"}, {"bike_id": "1b6e25a09b3d18b7d902a396b9ab97f5", "type": "electric_scooter", "is_disabled": 0, "lat": 38.92019633333334, "rental_uris": {"ios": "https://dc.lft.to/lastmile_qr_scan", "android": "https://dc.lft.to/lastmile_qr_scan"}, "is_reserved": 0, "fusion_lon": 0.0, "fusion_lat": 0.0, "lon": -77.028018, "name": "1b6e25a09b3d18b7d902a396b9ab97f5"}, {"bike_id": "97a073e21b667ee9ebc952c3bbe5b3f9", "type": "electric_scooter", "is_disabled": 0, "lat": 38.917974, "rental_uris": {"ios": "https://dc.lft.to/lastmile_qr_scan", "android": "https://dc.lft.to/lastmile_qr_scan"}, "is_reserved": 0, "fusion_lon": 0.0, "fusion_lat": 0.0, "lon": -77.03659516666667, "name": "97a073e21b667ee9ebc952c3bbe5b3f9"}, {"bike_id": "9d75299b8306acbd2790f12f96175e00", "type": "electric_scooter", "is_disabled": 0, "lat": 38.93222816666667, "rental_uris": {"ios": "https://dc.lft.to/lastmile_qr_scan", "android": "https://dc.lft.to/lastmile_qr_scan"}, "is_reserved": 0, "fusion_lon": 0.0, "fusion_lat": 0.0, "lon": -77.03050683333333, "name": "9d75299b8306acbd2790f12f96175e00"}, {"bike_id": "56cdc92f245bea31669a0af534fb97b2", "type": "electric_scooter", "is_disabled": 0, "lat": 38.86248583333333, "rental_uris": {"ios": "https://dc.lft.to/lastmile_qr_scan", "android": "https://dc.lft.to/lastmile_qr_scan"}, "is_reserved": 0, "fusion_lon": 0.0, "fusion_lat": 0.0, "lon": -76.9950355, "name": "56cdc92f245bea31669a0af534fb97b2"}, {"bike_id": "faeeecee94bdf2b2ed24a19e8e17d73b", "type": "electric_scooter", "is_disabled": 0, "lat": 38.844384166666664, "rental_uris": {"ios": "https://dc.lft.to/lastmile_qr_scan", "android": "https://dc.lft.to/lastmile_qr_scan"}, "is_reserved": 0, "fusion_lon": 0.0, "fusion_lat": 0.0, "lon": -76.987446, "name": "faeeecee94bdf2b2ed24a19e8e17d73b"}, {"bike_id": "eac0121cac2faca62de3c284d6a3918f", "type": "electric_scooter", "is_disabled": 0, "lat": 38.890102666666664, "rental_uris": {"ios": "https://dc.lft.to/lastmile_qr_scan", "android": "https://dc.lft.to/lastmile_qr_scan"}, "is_reserved": 0, "fusion_lon": 0.0, "fusion_lat": 0.0, "lon": -76.93744833333334, "name": "eac0121cac2faca62de3c284d6a3918f"}, {"bike_id": "4a9794b06bd664211c411ad0be233d36", "type": "electric_scooter", "is_disabled": 0, "lat": 38.91708283333333, "rental_uris": {"ios": "https://dc.lft.to/lastmile_qr_scan", "android": "https://dc.lft.to/lastmile_qr_scan"}, "is_reserved": 0, "fusion_lon": 0.0, "fusion_lat": 0.0, "lon": -77.02408816666667, "name": "4a9794b06bd664211c411ad0be233d36"}, {"bike_id": "b6f85f19a79e2296ef6ad1d8cc3343b4", "type": "electric_bike", "is_disabled": 0, "lat": 39.057885666666664, "rental_uris": {"ios": "https://dc.lft.to/lastmile_qr_scan", "android": "https://dc.lft.to/lastmile_qr_scan"}, "is_reserved": 0, "fusion_lon": 0.0, "fusion_lat": 0.0, "lon": -77.1502195, "name": "b6f85f19a79e2296ef6ad1d8cc3343b4"}, {"bike_id": "c1d7817767105fcf711b7c2190527f8d", "type": "electric_bike", "is_disabled": 0, "lat": 38.89815083333333, "rental_uris": {"ios": "https://dc.lft.to/lastmile_qr_scan", "android": "https://dc.lft.to/lastmile_qr_scan"}, "is_reserved": 0, "fusion_lon": 0.0, "fusion_lat": 0.0, "lon": -77.02465383333333, "name": "c1d7817767105fcf711b7c2190527f8d"}, {"bike_id": "35f75a9d63a64cf5688a389aafcee30e", "type": "electric_scooter", "is_disabled": 0, "lat": 38.935320833333336, "rental_uris": {"ios": "https://dc.lft.to/lastmile_qr_scan", "android": "https://dc.lft.to/lastmile_qr_scan"}, "is_reserved": 0, "fusion_lon": 0.0, "fusion_lat": 0.0, "lon": -77.023458, "name": "35f75a9d63a64cf5688a389aafcee30e"}, {"bike_id": "76850895b2412bc308b5f18612e1a0d5", "type": "electric_scooter", "is_disabled": 0, "lat": 38.930091833333336, "rental_uris": {"ios": "https://dc.lft.to/lastmile_qr_scan", "android": "https://dc.lft.to/lastmile_qr_scan"}, "is_reserved": 0, "fusion_lon": 0.0, "fusion_lat": 0.0, "lon": -77.014288, "name": "76850895b2412bc308b5f18612e1a0d5"}, {"bike_id": "da0f4095ae6abb9614124943e54f6b21", "type": "electric_scooter", "is_disabled": 0, "lat": 38.932471, "rental_uris": {"ios": "https://dc.lft.to/lastmile_qr_scan", "android": "https://dc.lft.to/lastmile_qr_scan"}, "is_reserved": 0, "fusion_lon": 0.0, "fusion_lat": 0.0, "lon": -77.029509, "name": "da0f4095ae6abb9614124943e54f6b21"}, {"bike_id": "3d1174eebb1409c56856512485b9c670", "type": "electric_scooter", "is_disabled": 0, "lat": 38.912784, "rental_uris": {"ios": "https://dc.lft.to/lastmile_qr_scan", "android": "https://dc.lft.to/lastmile_qr_scan"}, "is_reserved": 0, "fusion_lon": 0.0, "fusion_lat": 0.0, "lon": -77.04737533333333, "name": "3d1174eebb1409c56856512485b9c670"}, {"bike_id": "09cb693bbe97f6cf479c5d97ecd1f2b9", "type": "electric_scooter", "is_disabled": 0, "lat": 38.915749, "rental_uris": {"ios": "https://dc.lft.to/lastmile_qr_scan", "android": "https://dc.lft.to/lastmile_qr_scan"}, "is_reserved": 0, "fusion_lon": 0.0, "fusion_lat": 0.0, "lon": -77.0199385, "name": "09cb693bbe97f6cf479c5d97ecd1f2b9"}, {"bike_id": "785f50896c3fbc4c28b39b1fa805d7cc", "type": "electric_bike", "is_disabled": 0, "lat": 38.89738633333333, "rental_uris": {"ios": "https://dc.lft.to/lastmile_qr_scan", "android": "https://dc.lft.to/lastmile_qr_scan"}, "is_reserved": 0, "fusion_lon": 0.0, "fusion_lat": 0.0, "lon": -76.94254966666666, "name": "785f50896c3fbc4c28b39b1fa805d7cc"}, {"bike_id": "bbeef9334e87ba5ba5b2b7751a24fdcf", "type": "electric_scooter", "is_disabled": 0, "lat": 38.900595, "rental_uris": {"ios": "https://dc.lft.to/lastmile_qr_scan", "android": "https://dc.lft.to/lastmile_qr_scan"}, "is_reserved": 0, "fusion_lon": 0.0, "fusion_lat": 0.0, "lon": -76.93473216666666, "name": "bbeef9334e87ba5ba5b2b7751a24fdcf"}, {"bike_id": "43022496ff0ee195b9486ebb2a0f322c", "type": "electric_scooter", "is_disabled": 0, "lat": 38.903165, "rental_uris": {"ios": "https://dc.lft.to/lastmile_qr_scan", "android": "https://dc.lft.to/lastmile_qr_scan"}, "is_reserved": 0, "fusion_lon": 0.0, "fusion_lat": 0.0, "lon": -76.99430133333334, "name": "43022496ff0ee195b9486ebb2a0f322c"}, {"bike_id": "efee10e0922756bb04fe786cf1f87240", "type": "electric_scooter", "is_disabled": 0, "lat": 38.857040833333336, "rental_uris": {"ios": "https://dc.lft.to/lastmile_qr_scan", "android": "https://dc.lft.to/lastmile_qr_scan"}, "is_reserved": 0, "fusion_lon": 0.0, "fusion_lat": 0.0, "lon": -76.989696, "name": "efee10e0922756bb04fe786cf1f87240"}, {"bike_id": "c288eedae43ccf24859747808a8077a2", "type": "electric_scooter", "is_disabled": 0, "lat": 38.92960983333333, "rental_uris": {"ios": "https://dc.lft.to/lastmile_qr_scan", "android": "https://dc.lft.to/lastmile_qr_scan"}, "is_reserved": 0, "fusion_lon": 0.0, "fusion_lat": 0.0, "lon": -77.0296305, "name": "c288eedae43ccf24859747808a8077a2"}, {"bike_id": "4fceec1c359251570c16a19f3953ea06", "type": "electric_scooter", "is_disabled": 0, "lat": 38.93852433333333, "rental_uris": {"ios": "https://dc.lft.to/lastmile_qr_scan", "android": "https://dc.lft.to/lastmile_qr_scan"}, "is_reserved": 0, "fusion_lon": 0.0, "fusion_lat": 0.0, "lon": -77.0723755, "name": "4fceec1c359251570c16a19f3953ea06"}, {"bike_id": "0c92324761ceed673b847353a0531e2b", "type": "electric_scooter", "is_disabled": 0, "lat": 38.8971275, "rental_uris": {"ios": "https://dc.lft.to/lastmile_qr_scan", "android": "https://dc.lft.to/lastmile_qr_scan"}, "is_reserved": 0, "fusion_lon": 0.0, "fusion_lat": 0.0, "lon": -77.03216366666666, "name": "0c92324761ceed673b847353a0531e2b"}, {"bike_id": "0d97ec47ca2bfb8bad8e5d38498655a3", "type": "electric_scooter", "is_disabled": 0, "lat": 38.902752666666665, "rental_uris": {"ios": "https://dc.lft.to/lastmile_qr_scan", "android": "https://dc.lft.to/lastmile_qr_scan"}, "is_reserved": 0, "fusion_lon": 0.0, "fusion_lat": 0.0, "lon": -77.038639, "name": "0d97ec47ca2bfb8bad8e5d38498655a3"}, {"bike_id": "9ddaf16924cd95eb1309cf0de63821bd", "type": "electric_scooter", "is_disabled": 0, "lat": 38.93885316666667, "rental_uris": {"ios": "https://dc.lft.to/lastmile_qr_scan", "android": "https://dc.lft.to/lastmile_qr_scan"}, "is_reserved": 0, "fusion_lon": 0.0, "fusion_lat": 0.0, "lon": -77.02494816666666, "name": "9ddaf16924cd95eb1309cf0de63821bd"}, {"bike_id": "984035736b78534db827ca538345c86f", "type": "electric_scooter", "is_disabled": 0, "lat": 38.897317, "rental_uris": {"ios": "https://dc.lft.to/lastmile_qr_scan", "android": "https://dc.lft.to/lastmile_qr_scan"}, "is_reserved": 0, "fusion_lon": 0.0, "fusion_lat": 0.0, "lon": -77.00755583333333, "name": "984035736b78534db827ca538345c86f"}, {"bike_id": "5030692bd5c5eadec8d107d03528aacd", "type": "electric_scooter", "is_disabled": 0, "lat": 38.904047166666665, "rental_uris": {"ios": "https://dc.lft.to/lastmile_qr_scan", "android": "https://dc.lft.to/lastmile_qr_scan"}, "is_reserved": 0, "fusion_lon": 0.0, "fusion_lat": 0.0, "lon": -77.05495933333333, "name": "5030692bd5c5eadec8d107d03528aacd"}, {"bike_id": "dca175020f67e84bdc2af9ee41f842f5", "type": "electric_scooter", "is_disabled": 0, "lat": 38.844365333333336, "rental_uris": {"ios": "https://dc.lft.to/lastmile_qr_scan", "android": "https://dc.lft.to/lastmile_qr_scan"}, "is_reserved": 0, "fusion_lon": 0.0, "fusion_lat": 0.0, "lon": -76.99865966666667, "name": "dca175020f67e84bdc2af9ee41f842f5"}, {"bike_id": "322e1356115586a98d4a960d807c16d1", "type": "electric_scooter", "is_disabled": 0, "lat": 38.872018833333335, "rental_uris": {"ios": "https://dc.lft.to/lastmile_qr_scan", "android": "https://dc.lft.to/lastmile_qr_scan"}, "is_reserved": 0, "fusion_lon": 0.0, "fusion_lat": 0.0, "lon": -77.00932083333333, "name": "322e1356115586a98d4a960d807c16d1"}, {"bike_id": "b99dfec95345feb81a5f1e7e435834d9", "type": "electric_scooter", "is_disabled": 0, "lat": 38.916965833333336, "rental_uris": {"ios": "https://dc.lft.to/lastmile_qr_scan", "android": "https://dc.lft.to/lastmile_qr_scan"}, "is_reserved": 0, "fusion_lon": 0.0, "fusion_lat": 0.0, "lon": -77.03489866666666, "name": "b99dfec95345feb81a5f1e7e435834d9"}, {"bike_id": "9ed18535c542080bd013b7de62d6257a", "type": "electric_bike", "is_disabled": 0, "lat": 39.062953666666665, "rental_uris": {"ios": "https://dc.lft.to/lastmile_qr_scan", "android": "https://dc.lft.to/lastmile_qr_scan"}, "is_reserved": 0, "fusion_lon": 0.0, "fusion_lat": 0.0, "lon": -77.04978083333333, "name": "9ed18535c542080bd013b7de62d6257a"}, {"bike_id": "7262531e9256ec326dddfb0507e1c5c0", "type": "electric_scooter", "is_disabled": 0, "lat": 38.901511166666666, "rental_uris": {"ios": "https://dc.lft.to/lastmile_qr_scan", "android": "https://dc.lft.to/lastmile_qr_scan"}, "is_reserved": 0, "fusion_lon": 0.0, "fusion_lat": 0.0, "lon": -76.93058466666666, "name": "7262531e9256ec326dddfb0507e1c5c0"}, {"bike_id": "faf3cfe9ad52b7fda6537b14486403b8", "type": "electric_scooter", "is_disabled": 0, "lat": 38.8624735, "rental_uris": {"ios": "https://dc.lft.to/lastmile_qr_scan", "android": "https://dc.lft.to/lastmile_qr_scan"}, "is_reserved": 0, "fusion_lon": 0.0, "fusion_lat": 0.0, "lon": -76.9950195, "name": "faf3cfe9ad52b7fda6537b14486403b8"}, {"bike_id": "a621eaa0c5aead4d8a723b561f3cb1fe", "type": "electric_scooter", "is_disabled": 0, "lat": 38.9017765, "rental_uris": {"ios": "https://dc.lft.to/lastmile_qr_scan", "android": "https://dc.lft.to/lastmile_qr_scan"}, "is_reserved": 0, "fusion_lon": 0.0, "fusion_lat": 0.0, "lon": -76.98451816666666, "name": "a621eaa0c5aead4d8a723b561f3cb1fe"}, {"bike_id": "a50f9d0b09257a928c55b1dc627ad622", "type": "electric_scooter", "is_disabled": 0, "lat": 38.942937, "rental_uris": {"ios": "https://dc.lft.to/lastmile_qr_scan", "android": "https://dc.lft.to/lastmile_qr_scan"}, "is_reserved": 0, "fusion_lon": 0.0, "fusion_lat": 0.0, "lon": -77.0217095, "name": "a50f9d0b09257a928c55b1dc627ad622"}, {"bike_id": "04111bae13dfc2e0e299f37f7ebf5c3f", "type": "electric_scooter", "is_disabled": 0, "lat": 38.948437166666665, "rental_uris": {"ios": "https://dc.lft.to/lastmile_qr_scan", "android": "https://dc.lft.to/lastmile_qr_scan"}, "is_reserved": 0, "fusion_lon": 0.0, "fusion_lat": 0.0, "lon": -77.02541933333333, "name": "04111bae13dfc2e0e299f37f7ebf5c3f"}, {"bike_id": "8bc73da24447d6bbdc9e93ec72b035c1", "type": "electric_scooter", "is_disabled": 0, "lat": 38.917532333333334, "rental_uris": {"ios": "https://dc.lft.to/lastmile_qr_scan", "android": "https://dc.lft.to/lastmile_qr_scan"}, "is_reserved": 0, "fusion_lon": 0.0, "fusion_lat": 0.0, "lon": -77.0385645, "name": "8bc73da24447d6bbdc9e93ec72b035c1"}, {"bike_id": "01882919671a5734f011843a1d5b25a9", "type": "electric_scooter", "is_disabled": 0, "lat": 38.904215666666666, "rental_uris": {"ios": "https://dc.lft.to/lastmile_qr_scan", "android": "https://dc.lft.to/lastmile_qr_scan"}, "is_reserved": 0, "fusion_lon": 0.0, "fusion_lat": 0.0, "lon": -76.9737435, "name": "01882919671a5734f011843a1d5b25a9"}, {"bike_id": "fd3c6aee762d5648e3c749afde378063", "type": "electric_scooter", "is_disabled": 0, "lat": 38.92071966666666, "rental_uris": {"ios": "https://dc.lft.to/lastmile_qr_scan", "android": "https://dc.lft.to/lastmile_qr_scan"}, "is_reserved": 0, "fusion_lon": 0.0, "fusion_lat": 0.0, "lon": -77.04377966666667, "name": "fd3c6aee762d5648e3c749afde378063"}, {"bike_id": "0b9c78f7eabbb822a296fdc0f41e0cc3", "type": "electric_scooter", "is_disabled": 0, "lat": 38.93428016666667, "rental_uris": {"ios": "https://dc.lft.to/lastmile_qr_scan", "android": "https://dc.lft.to/lastmile_qr_scan"}, "is_reserved": 0, "fusion_lon": 0.0, "fusion_lat": 0.0, "lon": -77.0391445, "name": "0b9c78f7eabbb822a296fdc0f41e0cc3"}, {"bike_id": "c81995a3bb7b5fdc9caf80f64715eef8", "type": "electric_scooter", "is_disabled": 0, "lat": 38.854478, "rental_uris": {"ios": "https://dc.lft.to/lastmile_qr_scan", "android": "https://dc.lft.to/lastmile_qr_scan"}, "is_reserved": 0, "fusion_lon": 0.0, "fusion_lat": 0.0, "lon": -76.986093, "name": "c81995a3bb7b5fdc9caf80f64715eef8"}, {"bike_id": "9cf71810973334027db4f5e850cfaf7b", "type": "electric_scooter", "is_disabled": 0, "lat": 38.9119205, "rental_uris": {"ios": "https://dc.lft.to/lastmile_qr_scan", "android": "https://dc.lft.to/lastmile_qr_scan"}, "is_reserved": 0, "fusion_lon": 0.0, "fusion_lat": 0.0, "lon": -77.03831233333334, "name": "9cf71810973334027db4f5e850cfaf7b"}, {"bike_id": "ff312351bfafad3f451ae89209f2e3ce", "type": "electric_scooter", "is_disabled": 0, "lat": 38.88755466666667, "rental_uris": {"ios": "https://dc.lft.to/lastmile_qr_scan", "android": "https://dc.lft.to/lastmile_qr_scan"}, "is_reserved": 0, "fusion_lon": 0.0, "fusion_lat": 0.0, "lon": -77.0026835, "name": "ff312351bfafad3f451ae89209f2e3ce"}, {"bike_id": "2a8fbad6db3a359557c16598c808cd5c", "type": "electric_scooter", "is_disabled": 0, "lat": 38.935377333333335, "rental_uris": {"ios": "https://dc.lft.to/lastmile_qr_scan", "android": "https://dc.lft.to/lastmile_qr_scan"}, "is_reserved": 0, "fusion_lon": 0.0, "fusion_lat": 0.0, "lon": -77.02353466666666, "name": "2a8fbad6db3a359557c16598c808cd5c"}, {"bike_id": "56ca668966e63a3d3548a83319246735", "type": "electric_scooter", "is_disabled": 0, "lat": 38.93313783333333, "rental_uris": {"ios": "https://dc.lft.to/lastmile_qr_scan", "android": "https://dc.lft.to/lastmile_qr_scan"}, "is_reserved": 0, "fusion_lon": 0.0, "fusion_lat": 0.0, "lon": -77.02937466666667, "name": "56ca668966e63a3d3548a83319246735"}, {"bike_id": "fdc4bcc28dfc33810a2060760543255f", "type": "electric_scooter", "is_disabled": 0, "lat": 38.88494933333333, "rental_uris": {"ios": "https://dc.lft.to/lastmile_qr_scan", "android": "https://dc.lft.to/lastmile_qr_scan"}, "is_reserved": 0, "fusion_lon": 0.0, "fusion_lat": 0.0, "lon": -77.00709016666667, "name": "fdc4bcc28dfc33810a2060760543255f"}, {"bike_id": "d4088c7a83d529a3c60661128763f2a4", "type": "electric_scooter", "is_disabled": 0, "lat": 38.9245215, "rental_uris": {"ios": "https://dc.lft.to/lastmile_qr_scan", "android": "https://dc.lft.to/lastmile_qr_scan"}, "is_reserved": 0, "fusion_lon": 0.0, "fusion_lat": 0.0, "lon": -77.02415483333333, "name": "d4088c7a83d529a3c60661128763f2a4"}, {"bike_id": "989194c83367884d09ac6be4ed34688b", "type": "electric_bike", "is_disabled": 0, "lat": 38.85419683333333, "rental_uris": {"ios": "https://dc.lft.to/lastmile_qr_scan", "android": "https://dc.lft.to/lastmile_qr_scan"}, "is_reserved": 0, "fusion_lon": 0.0, "fusion_lat": 0.0, "lon": -77.12077233333333, "name": "989194c83367884d09ac6be4ed34688b"}, {"bike_id": "01c8dc4653266fff9c4e2152d5053ccc", "type": "electric_scooter", "is_disabled": 0, "lat": 38.88934666666667, "rental_uris": {"ios": "https://dc.lft.to/lastmile_qr_scan", "android": "https://dc.lft.to/lastmile_qr_scan"}, "is_reserved": 0, "fusion_lon": 0.0, "fusion_lat": 0.0, "lon": -77.01505333333333, "name": "01c8dc4653266fff9c4e2152d5053ccc"}, {"bike_id": "a2b0c085cb48a913e568086f5b9cee2f", "type": "electric_scooter", "is_disabled": 0, "lat": 38.92836666666667, "rental_uris": {"ios": "https://dc.lft.to/lastmile_qr_scan", "android": "https://dc.lft.to/lastmile_qr_scan"}, "is_reserved": 0, "fusion_lon": 0.0, "fusion_lat": 0.0, "lon": -77.027495, "name": "a2b0c085cb48a913e568086f5b9cee2f"}, {"bike_id": "1e35ab22a102d5b6b1971038e7921138", "type": "electric_scooter", "is_disabled": 0, "lat": 38.92341283333333, "rental_uris": {"ios": "https://dc.lft.to/lastmile_qr_scan", "android": "https://dc.lft.to/lastmile_qr_scan"}, "is_reserved": 0, "fusion_lon": 0.0, "fusion_lat": 0.0, "lon": -77.0018835, "name": "1e35ab22a102d5b6b1971038e7921138"}, {"bike_id": "7cde1539c830f135b3d519796cedb944", "type": "electric_bike", "is_disabled": 0, "lat": 38.836087, "rental_uris": {"ios": "https://dc.lft.to/lastmile_qr_scan", "android": "https://dc.lft.to/lastmile_qr_scan"}, "is_reserved": 0, "fusion_lon": 0.0, "fusion_lat": 0.0, "lon": -77.00384616666666, "name": "7cde1539c830f135b3d519796cedb944"}, {"bike_id": "f91ba62829e8bae45ee0586b7568adef", "type": "electric_scooter", "is_disabled": 0, "lat": 38.884261, "rental_uris": {"ios": "https://dc.lft.to/lastmile_qr_scan", "android": "https://dc.lft.to/lastmile_qr_scan"}, "is_reserved": 0, "fusion_lon": 0.0, "fusion_lat": 0.0, "lon": -76.95747133333333, "name": "f91ba62829e8bae45ee0586b7568adef"}, {"bike_id": "23841331b1d0ee96417bfa67838765c8", "type": "electric_bike", "is_disabled": 0, "lat": 38.9489855, "rental_uris": {"ios": "https://dc.lft.to/lastmile_qr_scan", "android": "https://dc.lft.to/lastmile_qr_scan"}, "is_reserved": 0, "fusion_lon": 0.0, "fusion_lat": 0.0, "lon": -76.96378883333334, "name": "23841331b1d0ee96417bfa67838765c8"}, {"bike_id": "4f60c169a51decca5515867f6f81f13c", "type": "electric_scooter", "is_disabled": 0, "lat": 38.91680616666667, "rental_uris": {"ios": "https://dc.lft.to/lastmile_qr_scan", "android": "https://dc.lft.to/lastmile_qr_scan"}, "is_reserved": 0, "fusion_lon": 0.0, "fusion_lat": 0.0, "lon": -77.0235175, "name": "4f60c169a51decca5515867f6f81f13c"}, {"bike_id": "ff58a4feb26d875a90927d52cc54c5e0", "type": "electric_scooter", "is_disabled": 0, "lat": 38.905544166666665, "rental_uris": {"ios": "https://dc.lft.to/lastmile_qr_scan", "android": "https://dc.lft.to/lastmile_qr_scan"}, "is_reserved": 0, "fusion_lon": 0.0, "fusion_lat": 0.0, "lon": -76.99622033333333, "name": "ff58a4feb26d875a90927d52cc54c5e0"}, {"bike_id": "512a089be48b1afd3ca7cb80067c0b0b", "type": "electric_scooter", "is_disabled": 0, "lat": 38.905009, "rental_uris": {"ios": "https://dc.lft.to/lastmile_qr_scan", "android": "https://dc.lft.to/lastmile_qr_scan"}, "is_reserved": 0, "fusion_lon": 0.0, "fusion_lat": 0.0, "lon": -77.01997783333333, "name": "512a089be48b1afd3ca7cb80067c0b0b"}, {"bike_id": "24a371e09366603f903f7af26435b404", "type": "electric_bike", "is_disabled": 0, "lat": 38.804168, "rental_uris": {"ios": "https://dc.lft.to/lastmile_qr_scan", "android": "https://dc.lft.to/lastmile_qr_scan"}, "is_reserved": 0, "fusion_lon": 0.0, "fusion_lat": 0.0, "lon": -77.05551883333334, "name": "24a371e09366603f903f7af26435b404"}, {"bike_id": "25819075a11a19da4caf1d29c22cf1f8", "type": "electric_bike", "is_disabled": 0, "lat": 38.807104, "rental_uris": {"ios": "https://dc.lft.to/lastmile_qr_scan", "android": "https://dc.lft.to/lastmile_qr_scan"}, "is_reserved": 0, "fusion_lon": 0.0, "fusion_lat": 0.0, "lon": -77.06172133333334, "name": "25819075a11a19da4caf1d29c22cf1f8"}, {"bike_id": "62a362a5f8306dce52eae7a52d24ed19", "type": "electric_scooter", "is_disabled": 0, "lat": 38.922503, "rental_uris": {"ios": "https://dc.lft.to/lastmile_qr_scan", "android": "https://dc.lft.to/lastmile_qr_scan"}, "is_reserved": 0, "fusion_lon": 0.0, "fusion_lat": 0.0, "lon": -77.03917166666666, "name": "62a362a5f8306dce52eae7a52d24ed19"}, {"bike_id": "0a43867c3b0ae5cc4d19351949db05d7", "type": "electric_scooter", "is_disabled": 0, "lat": 38.895598666666665, "rental_uris": {"ios": "https://dc.lft.to/lastmile_qr_scan", "android": "https://dc.lft.to/lastmile_qr_scan"}, "is_reserved": 0, "fusion_lon": 0.0, "fusion_lat": 0.0, "lon": -77.01109, "name": "0a43867c3b0ae5cc4d19351949db05d7"}, {"bike_id": "73a89613ec77e224b83080fa5020672c", "type": "electric_scooter", "is_disabled": 0, "lat": 38.92275166666667, "rental_uris": {"ios": "https://dc.lft.to/lastmile_qr_scan", "android": "https://dc.lft.to/lastmile_qr_scan"}, "is_reserved": 0, "fusion_lon": 0.0, "fusion_lat": 0.0, "lon": -76.99452416666666, "name": "73a89613ec77e224b83080fa5020672c"}, {"bike_id": "ca42a683ac90a492d201a66b2549f952", "type": "electric_scooter", "is_disabled": 0, "lat": 38.88347366666667, "rental_uris": {"ios": "https://dc.lft.to/lastmile_qr_scan", "android": "https://dc.lft.to/lastmile_qr_scan"}, "is_reserved": 0, "fusion_lon": 0.0, "fusion_lat": 0.0, "lon": -76.99496966666666, "name": "ca42a683ac90a492d201a66b2549f952"}, {"bike_id": "a0750464504a91956b4d04785d7bf9f2", "type": "electric_scooter", "is_disabled": 0, "lat": 38.9063335, "rental_uris": {"ios": "https://dc.lft.to/lastmile_qr_scan", "android": "https://dc.lft.to/lastmile_qr_scan"}, "is_reserved": 0, "fusion_lon": 0.0, "fusion_lat": 0.0, "lon": -77.05153233333333, "name": "a0750464504a91956b4d04785d7bf9f2"}, {"bike_id": "a98c2d8ddf8c436a6c0ac07751456ff9", "type": "electric_bike", "is_disabled": 0, "lat": 38.9550325, "rental_uris": {"ios": "https://dc.lft.to/lastmile_qr_scan", "android": "https://dc.lft.to/lastmile_qr_scan"}, "is_reserved": 0, "fusion_lon": 0.0, "fusion_lat": 0.0, "lon": -76.99355683333333, "name": "a98c2d8ddf8c436a6c0ac07751456ff9"}, {"bike_id": "989d6fd2f8212c6395acbb82547ccdb2", "type": "electric_scooter", "is_disabled": 0, "lat": 38.92375466666667, "rental_uris": {"ios": "https://dc.lft.to/lastmile_qr_scan", "android": "https://dc.lft.to/lastmile_qr_scan"}, "is_reserved": 0, "fusion_lon": 0.0, "fusion_lat": 0.0, "lon": -77.030198, "name": "989d6fd2f8212c6395acbb82547ccdb2"}, {"bike_id": "7d016152bf397721d639d282afb5060e", "type": "electric_bike", "is_disabled": 0, "lat": 39.036981833333336, "rental_uris": {"ios": "https://dc.lft.to/lastmile_qr_scan", "android": "https://dc.lft.to/lastmile_qr_scan"}, "is_reserved": 0, "fusion_lon": 0.0, "fusion_lat": 0.0, "lon": -77.02864366666667, "name": "7d016152bf397721d639d282afb5060e"}, {"bike_id": "6d2455f2d8f35548ebd7198acdd8ff06", "type": "electric_scooter", "is_disabled": 0, "lat": 38.945144, "rental_uris": {"ios": "https://dc.lft.to/lastmile_qr_scan", "android": "https://dc.lft.to/lastmile_qr_scan"}, "is_reserved": 0, "fusion_lon": 0.0, "fusion_lat": 0.0, "lon": -77.02170783333334, "name": "6d2455f2d8f35548ebd7198acdd8ff06"}, {"bike_id": "1ff7dc53d400b5c295e1dbf099e070fc", "type": "electric_scooter", "is_disabled": 0, "lat": 38.875643, "rental_uris": {"ios": "https://dc.lft.to/lastmile_qr_scan", "android": "https://dc.lft.to/lastmile_qr_scan"}, "is_reserved": 0, "fusion_lon": 0.0, "fusion_lat": 0.0, "lon": -76.95866566666666, "name": "1ff7dc53d400b5c295e1dbf099e070fc"}, {"bike_id": "53c388c512452a85ec1fa1d1e82d8857", "type": "electric_scooter", "is_disabled": 0, "lat": 38.917169, "rental_uris": {"ios": "https://dc.lft.to/lastmile_qr_scan", "android": "https://dc.lft.to/lastmile_qr_scan"}, "is_reserved": 0, "fusion_lon": 0.0, "fusion_lat": 0.0, "lon": -77.036669, "name": "53c388c512452a85ec1fa1d1e82d8857"}, {"bike_id": "16067e11ccec20219598fb88d7b92df6", "type": "electric_scooter", "is_disabled": 0, "lat": 38.9041685, "rental_uris": {"ios": "https://dc.lft.to/lastmile_qr_scan", "android": "https://dc.lft.to/lastmile_qr_scan"}, "is_reserved": 0, "fusion_lon": 0.0, "fusion_lat": 0.0, "lon": -77.01812466666667, "name": "16067e11ccec20219598fb88d7b92df6"}, {"bike_id": "35afb221078f81a7b0883828731350d9", "type": "electric_scooter", "is_disabled": 0, "lat": 38.92008333333333, "rental_uris": {"ios": "https://dc.lft.to/lastmile_qr_scan", "android": "https://dc.lft.to/lastmile_qr_scan"}, "is_reserved": 0, "fusion_lon": 0.0, "fusion_lat": 0.0, "lon": -77.02404133333333, "name": "35afb221078f81a7b0883828731350d9"}, {"bike_id": "6f1608e29e5305121e857c9cb7afa8f0", "type": "electric_scooter", "is_disabled": 0, "lat": 38.898323833333336, "rental_uris": {"ios": "https://dc.lft.to/lastmile_qr_scan", "android": "https://dc.lft.to/lastmile_qr_scan"}, "is_reserved": 0, "fusion_lon": 0.0, "fusion_lat": 0.0, "lon": -77.00767433333333, "name": "6f1608e29e5305121e857c9cb7afa8f0"}, {"bike_id": "a6b72b0b688bea3c4362db152b992a43", "type": "electric_scooter", "is_disabled": 0, "lat": 38.959375333333334, "rental_uris": {"ios": "https://dc.lft.to/lastmile_qr_scan", "android": "https://dc.lft.to/lastmile_qr_scan"}, "is_reserved": 0, "fusion_lon": 0.0, "fusion_lat": 0.0, "lon": -77.03123416666666, "name": "a6b72b0b688bea3c4362db152b992a43"}, {"bike_id": "00e8127ad7eed2acef36a4592c2927e4", "type": "electric_scooter", "is_disabled": 0, "lat": 38.931639, "rental_uris": {"ios": "https://dc.lft.to/lastmile_qr_scan", "android": "https://dc.lft.to/lastmile_qr_scan"}, "is_reserved": 0, "fusion_lon": 0.0, "fusion_lat": 0.0, "lon": -77.04533133333334, "name": "00e8127ad7eed2acef36a4592c2927e4"}, {"bike_id": "caed654f71dc2047e75842454535da78", "type": "electric_bike", "is_disabled": 0, "lat": 38.9559455, "rental_uris": {"ios": "https://dc.lft.to/lastmile_qr_scan", "android": "https://dc.lft.to/lastmile_qr_scan"}, "is_reserved": 0, "fusion_lon": 0.0, "fusion_lat": 0.0, "lon": -77.08796133333334, "name": "caed654f71dc2047e75842454535da78"}, {"bike_id": "1a225be843ca7ee50820a883e661c705", "type": "electric_scooter", "is_disabled": 0, "lat": 38.97232, "rental_uris": {"ios": "https://dc.lft.to/lastmile_qr_scan", "android": "https://dc.lft.to/lastmile_qr_scan"}, "is_reserved": 0, "fusion_lon": 0.0, "fusion_lat": 0.0, "lon": -77.02690433333333, "name": "1a225be843ca7ee50820a883e661c705"}, {"bike_id": "e338207336c1dc41d15b38c0575b9cd6", "type": "electric_bike", "is_disabled": 0, "lat": 38.95712866666667, "rental_uris": {"ios": "https://dc.lft.to/lastmile_qr_scan", "android": "https://dc.lft.to/lastmile_qr_scan"}, "is_reserved": 0, "fusion_lon": 0.0, "fusion_lat": 0.0, "lon": -77.00280483333333, "name": "e338207336c1dc41d15b38c0575b9cd6"}, {"bike_id": "d23e6a56880ac6232e6ae0451940e5ba", "type": "electric_scooter", "is_disabled": 0, "lat": 38.905613, "rental_uris": {"ios": "https://dc.lft.to/lastmile_qr_scan", "android": "https://dc.lft.to/lastmile_qr_scan"}, "is_reserved": 0, "fusion_lon": 0.0, "fusion_lat": 0.0, "lon": -77.05004466666666, "name": "d23e6a56880ac6232e6ae0451940e5ba"}, {"bike_id": "8dd09f4b45795d3de97343a043af9ab0", "type": "electric_scooter", "is_disabled": 0, "lat": 38.92375666666667, "rental_uris": {"ios": "https://dc.lft.to/lastmile_qr_scan", "android": "https://dc.lft.to/lastmile_qr_scan"}, "is_reserved": 0, "fusion_lon": 0.0, "fusion_lat": 0.0, "lon": -77.05254116666667, "name": "8dd09f4b45795d3de97343a043af9ab0"}, {"bike_id": "c353a05a873d5031c182bf2a46068065", "type": "electric_scooter", "is_disabled": 0, "lat": 38.892831666666666, "rental_uris": {"ios": "https://dc.lft.to/lastmile_qr_scan", "android": "https://dc.lft.to/lastmile_qr_scan"}, "is_reserved": 0, "fusion_lon": 0.0, "fusion_lat": 0.0, "lon": -77.02421983333333, "name": "c353a05a873d5031c182bf2a46068065"}, {"bike_id": "848fc940a4aa1de20987766d113883af", "type": "electric_scooter", "is_disabled": 0, "lat": 38.9124875, "rental_uris": {"ios": "https://dc.lft.to/lastmile_qr_scan", "android": "https://dc.lft.to/lastmile_qr_scan"}, "is_reserved": 0, "fusion_lon": 0.0, "fusion_lat": 0.0, "lon": -77.0320115, "name": "848fc940a4aa1de20987766d113883af"}, {"bike_id": "c6da6b089c5defeda9dd2acd6413b0e1", "type": "electric_bike", "is_disabled": 0, "lat": 38.924532666666664, "rental_uris": {"ios": "https://dc.lft.to/lastmile_qr_scan", "android": "https://dc.lft.to/lastmile_qr_scan"}, "is_reserved": 0, "fusion_lon": 0.0, "fusion_lat": 0.0, "lon": -77.225597, "name": "c6da6b089c5defeda9dd2acd6413b0e1"}, {"bike_id": "0b0f7c9562f18ddeabd158486aa77610", "type": "electric_scooter", "is_disabled": 0, "lat": 38.91114733333333, "rental_uris": {"ios": "https://dc.lft.to/lastmile_qr_scan", "android": "https://dc.lft.to/lastmile_qr_scan"}, "is_reserved": 0, "fusion_lon": 0.0, "fusion_lat": 0.0, "lon": -77.03911016666666, "name": "0b0f7c9562f18ddeabd158486aa77610"}, {"bike_id": "caa3466ef773b62dee29fed9cf776ec6", "type": "electric_scooter", "is_disabled": 0, "lat": 38.90652883333333, "rental_uris": {"ios": "https://dc.lft.to/lastmile_qr_scan", "android": "https://dc.lft.to/lastmile_qr_scan"}, "is_reserved": 0, "fusion_lon": 0.0, "fusion_lat": 0.0, "lon": -77.0102745, "name": "caa3466ef773b62dee29fed9cf776ec6"}, {"bike_id": "4b6b6fa1f80d6525f31248932b3ea6d5", "type": "electric_scooter", "is_disabled": 0, "lat": 38.92316683333333, "rental_uris": {"ios": "https://dc.lft.to/lastmile_qr_scan", "android": "https://dc.lft.to/lastmile_qr_scan"}, "is_reserved": 0, "fusion_lon": 0.0, "fusion_lat": 0.0, "lon": -77.04210483333334, "name": "4b6b6fa1f80d6525f31248932b3ea6d5"}, {"bike_id": "da753c531c6fc9185440948f25ffb053", "type": "electric_scooter", "is_disabled": 0, "lat": 38.93531, "rental_uris": {"ios": "https://dc.lft.to/lastmile_qr_scan", "android": "https://dc.lft.to/lastmile_qr_scan"}, "is_reserved": 0, "fusion_lon": 0.0, "fusion_lat": 0.0, "lon": -77.02963816666667, "name": "da753c531c6fc9185440948f25ffb053"}, {"bike_id": "dd03879d39bf63a2c887a382830f720b", "type": "electric_scooter", "is_disabled": 0, "lat": 38.95534583333333, "rental_uris": {"ios": "https://dc.lft.to/lastmile_qr_scan", "android": "https://dc.lft.to/lastmile_qr_scan"}, "is_reserved": 0, "fusion_lon": 0.0, "fusion_lat": 0.0, "lon": -77.027779, "name": "dd03879d39bf63a2c887a382830f720b"}, {"bike_id": "479a428dd12129a8ff75714219db76bd", "type": "electric_scooter", "is_disabled": 0, "lat": 38.92917716666667, "rental_uris": {"ios": "https://dc.lft.to/lastmile_qr_scan", "android": "https://dc.lft.to/lastmile_qr_scan"}, "is_reserved": 0, "fusion_lon": 0.0, "fusion_lat": 0.0, "lon": -77.031728, "name": "479a428dd12129a8ff75714219db76bd"}, {"bike_id": "990eaff0351d80b6430b9111fcdc1d88", "type": "electric_scooter", "is_disabled": 0, "lat": 38.86891833333333, "rental_uris": {"ios": "https://dc.lft.to/lastmile_qr_scan", "android": "https://dc.lft.to/lastmile_qr_scan"}, "is_reserved": 0, "fusion_lon": 0.0, "fusion_lat": 0.0, "lon": -76.984454, "name": "990eaff0351d80b6430b9111fcdc1d88"}, {"bike_id": "b5ac96a3833bcfbb2f26c3345755a1e2", "type": "electric_bike", "is_disabled": 0, "lat": 38.83814066666667, "rental_uris": {"ios": "https://dc.lft.to/lastmile_qr_scan", "android": "https://dc.lft.to/lastmile_qr_scan"}, "is_reserved": 0, "fusion_lon": 0.0, "fusion_lat": 0.0, "lon": -77.09520733333333, "name": "b5ac96a3833bcfbb2f26c3345755a1e2"}, {"bike_id": "f5196b2a90d15430fff47f32f8e56555", "type": "electric_scooter", "is_disabled": 0, "lat": 38.96550516666667, "rental_uris": {"ios": "https://dc.lft.to/lastmile_qr_scan", "android": "https://dc.lft.to/lastmile_qr_scan"}, "is_reserved": 0, "fusion_lon": 0.0, "fusion_lat": 0.0, "lon": -77.0362815, "name": "f5196b2a90d15430fff47f32f8e56555"}, {"bike_id": "49729d73725cc5bfcd14e03edbd12274", "type": "electric_scooter", "is_disabled": 0, "lat": 38.91407016666667, "rental_uris": {"ios": "https://dc.lft.to/lastmile_qr_scan", "android": "https://dc.lft.to/lastmile_qr_scan"}, "is_reserved": 0, "fusion_lon": 0.0, "fusion_lat": 0.0, "lon": -77.03263183333334, "name": "49729d73725cc5bfcd14e03edbd12274"}, {"bike_id": "2dbffd8e437f65d46ef1477989ce81bd", "type": "electric_scooter", "is_disabled": 0, "lat": 38.922495, "rental_uris": {"ios": "https://dc.lft.to/lastmile_qr_scan", "android": "https://dc.lft.to/lastmile_qr_scan"}, "is_reserved": 0, "fusion_lon": 0.0, "fusion_lat": 0.0, "lon": -77.03906983333333, "name": "2dbffd8e437f65d46ef1477989ce81bd"}, {"bike_id": "8513554006ffac945670c2659574b4da", "type": "electric_scooter", "is_disabled": 0, "lat": 38.907763833333334, "rental_uris": {"ios": "https://dc.lft.to/lastmile_qr_scan", "android": "https://dc.lft.to/lastmile_qr_scan"}, "is_reserved": 0, "fusion_lon": 0.0, "fusion_lat": 0.0, "lon": -77.06591283333333, "name": "8513554006ffac945670c2659574b4da"}, {"bike_id": "910f0431b3a68665a23e68a3f9b866f8", "type": "electric_scooter", "is_disabled": 0, "lat": 38.89221, "rental_uris": {"ios": "https://dc.lft.to/lastmile_qr_scan", "android": "https://dc.lft.to/lastmile_qr_scan"}, "is_reserved": 0, "fusion_lon": 0.0, "fusion_lat": 0.0, "lon": -77.02633366666667, "name": "910f0431b3a68665a23e68a3f9b866f8"}, {"bike_id": "3864b7e17cbbe65fc36d905488508443", "type": "electric_scooter", "is_disabled": 0, "lat": 38.91192183333333, "rental_uris": {"ios": "https://dc.lft.to/lastmile_qr_scan", "android": "https://dc.lft.to/lastmile_qr_scan"}, "is_reserved": 0, "fusion_lon": 0.0, "fusion_lat": 0.0, "lon": -77.03472066666667, "name": "3864b7e17cbbe65fc36d905488508443"}, {"bike_id": "c83ab569a8abc86ebbfb7b20401a8bbc", "type": "electric_scooter", "is_disabled": 0, "lat": 38.89593416666666, "rental_uris": {"ios": "https://dc.lft.to/lastmile_qr_scan", "android": "https://dc.lft.to/lastmile_qr_scan"}, "is_reserved": 0, "fusion_lon": 0.0, "fusion_lat": 0.0, "lon": -77.00503616666667, "name": "c83ab569a8abc86ebbfb7b20401a8bbc"}, {"bike_id": "a9784d353d1cc6e114ad064d0014f8cb", "type": "electric_scooter", "is_disabled": 0, "lat": 38.9266925, "rental_uris": {"ios": "https://dc.lft.to/lastmile_qr_scan", "android": "https://dc.lft.to/lastmile_qr_scan"}, "is_reserved": 0, "fusion_lon": 0.0, "fusion_lat": 0.0, "lon": -77.03784966666667, "name": "a9784d353d1cc6e114ad064d0014f8cb"}, {"bike_id": "16c290533907bd3dea0cffaa370f1075", "type": "electric_scooter", "is_disabled": 0, "lat": 38.90291583333333, "rental_uris": {"ios": "https://dc.lft.to/lastmile_qr_scan", "android": "https://dc.lft.to/lastmile_qr_scan"}, "is_reserved": 0, "fusion_lon": 0.0, "fusion_lat": 0.0, "lon": -76.9903225, "name": "16c290533907bd3dea0cffaa370f1075"}, {"bike_id": "834bce8825540e9893b0087f15641548", "type": "electric_scooter", "is_disabled": 0, "lat": 38.92869866666667, "rental_uris": {"ios": "https://dc.lft.to/lastmile_qr_scan", "android": "https://dc.lft.to/lastmile_qr_scan"}, "is_reserved": 0, "fusion_lon": 0.0, "fusion_lat": 0.0, "lon": -77.03275583333334, "name": "834bce8825540e9893b0087f15641548"}, {"bike_id": "9684f41483b6f652734c962f8498e9f1", "type": "electric_scooter", "is_disabled": 0, "lat": 38.92750866666667, "rental_uris": {"ios": "https://dc.lft.to/lastmile_qr_scan", "android": "https://dc.lft.to/lastmile_qr_scan"}, "is_reserved": 0, "fusion_lon": 0.0, "fusion_lat": 0.0, "lon": -77.02534616666667, "name": "9684f41483b6f652734c962f8498e9f1"}, {"bike_id": "3a98acbd2484b02ccf0b0131da986a9b", "type": "electric_scooter", "is_disabled": 0, "lat": 38.9224405, "rental_uris": {"ios": "https://dc.lft.to/lastmile_qr_scan", "android": "https://dc.lft.to/lastmile_qr_scan"}, "is_reserved": 0, "fusion_lon": 0.0, "fusion_lat": 0.0, "lon": -77.03517733333334, "name": "3a98acbd2484b02ccf0b0131da986a9b"}, {"bike_id": "035fdbf7d69220802bfa98797d47f6b3", "type": "electric_scooter", "is_disabled": 0, "lat": 38.936756833333334, "rental_uris": {"ios": "https://dc.lft.to/lastmile_qr_scan", "android": "https://dc.lft.to/lastmile_qr_scan"}, "is_reserved": 0, "fusion_lon": 0.0, "fusion_lat": 0.0, "lon": -77.03593216666667, "name": "035fdbf7d69220802bfa98797d47f6b3"}, {"bike_id": "3716e2b4e78cc635166345c2bd1077af", "type": "electric_scooter", "is_disabled": 0, "lat": 38.942957, "rental_uris": {"ios": "https://dc.lft.to/lastmile_qr_scan", "android": "https://dc.lft.to/lastmile_qr_scan"}, "is_reserved": 0, "fusion_lon": 0.0, "fusion_lat": 0.0, "lon": -77.02173183333333, "name": "3716e2b4e78cc635166345c2bd1077af"}, {"bike_id": "f1853550a89e6aceab4087b419aea7ed", "type": "electric_bike", "is_disabled": 0, "lat": 38.8535385, "rental_uris": {"ios": "https://dc.lft.to/lastmile_qr_scan", "android": "https://dc.lft.to/lastmile_qr_scan"}, "is_reserved": 0, "fusion_lon": 0.0, "fusion_lat": 0.0, "lon": -77.13465316666667, "name": "f1853550a89e6aceab4087b419aea7ed"},