{"data": {"bikes": [{"lat": 38.9336225, "lon": -77.05737933333333, "is_disabled": 0, "fusion_lon": 0.0, "is_reserved": 0, "name": "c2899e2b1d078ddcd0fd304d6681380b", "type": "electric_scooter", "bike_id": "c2899e2b1d078ddcd0fd304d6681380b", "rental_uris": {"ios": "https://dc.lft.to/lastmile_qr_scan", "android": "https://dc.lft.to/lastmile_qr_scan"}, "fusion_lat": 0.0}, {"lat": 38.901311166666666, "lon": -77.0020935, "is_disabled": 0, "fusion_lon": 0.0, "is_reserved": 0, "name": "0ee52c5a4e070afaae7b09ffceb656dd", "type": "electric_scooter", "bike_id": "0ee52c5a4e070afaae7b09ffceb656dd", "rental_uris": {"ios": "https://dc.lft.to/lastmile_qr_scan", "android": "https://dc.lft.to/lastmile_qr_scan"}, "fusion_lat": 0.0}, {"lat": 38.90027633333333, "lon": -77.0119045, "is_disabled": 0, "fusion_lon": 0.0, "is_reserved": 0, "name": "c3efbf2329a252aa33cbe05209f9e7d4", "type": "electric_scooter", "bike_id": "c3efbf2329a252aa33cbe05209f9e7d4", "rental_uris": {"ios": "https://dc.lft.to/lastmile_qr_scan", "android": "https://dc.lft.to/lastmile_qr_scan"}, "fusion_lat": 0.0}, {"lat": 38.90987616666666, "lon": -77.03192983333334, "is_disabled": 0, "fusion_lon": 0.0, "is_reserved": 0, "name": "e9a8edfe16493ee3205b94f279ff4263", "type": "electric_scooter", "bike_id": "e9a8edfe16493ee3205b94f279ff4263", "rental_uris": {"ios": "https://dc.lft.to/lastmile_qr_scan", "android": "https://dc.lft.to/lastmile_qr_scan"}, "fusion_lat": 0.0}, {"lat": 38.906890833333335, "lon": -77.03592383333333, "is_disabled": 0, "fusion_lon": 0.0, "is_reserved": 0, "name": "822395bd607e0587c120e727df31db18", "type": "electric_scooter", "bike_id": "822395bd607e0587c120e727df31db18", "rental_uris": {"ios": "https://dc.lft.to/lastmile_qr_scan", "android": "https://dc.lft.to/lastmile_qr_scan"}, "fusion_lat": 0.0}, {"lat": 38.926016, "lon": -77.02158916666667, "is_disabled": 0, "fusion_lon": 0.0, "is_reserved": 0, "name": "03cae112f25cd340d192afe0e1b9e95e", "type": "electric_scooter", "bike_id": "03cae112f25cd340d192afe0e1b9e95e", "rental_uris": {"ios": "https://dc.lft.to/lastmile_qr_scan", "android": "https://dc.lft.to/lastmile_qr_scan"}, "fusion_lat": 0.0}, {"lat": 38.91820766666667, "lon": -77.03658966666667, "is_disabled": 0, "fusion_lon": 0.0, "is_reserved": 0, "name": "96b2e881b01cfd42371de27b8a00782c", "type": "electric_scooter", "bike_id": "96b2e881b01cfd42371de27b8a00782c", "rental_uris": {"ios": "https://dc.lft.to/lastmile_qr_scan", "android": "https://dc.lft.to/lastmile_qr_scan"}, "fusion_lat": 0.0}, {"lat": 38.915916833333334, "lon": -77.012049, "is_disabled": 0, "fusion_lon": 0.0, "is_reserved": 0, "name": "8d4df713077abc0f954ffbe58101b497", "type": "electric_scooter", "bike_id": "8d4df713077abc0f954ffbe58101b497", "rental_uris": {"ios": "https://dc.lft.to/lastmile_qr_scan", "android": "https://dc.lft.to/lastmile_qr_scan"}, "fusion_lat": 0.0}, {"lat": 38.924831833333336, "lon": -77.05223483333333, "is_disabled": 0, "fusion_lon": 0.0, "is_reserved": 0, "name": "01650c7b329656bf1ad09d42dd569f7f", "type": "electric_scooter", "bike_id": "01650c7b329656bf1ad09d42dd569f7f", "rental_uris": {"ios": "https://dc.lft.to/lastmile_qr_scan", "android": "https://dc.lft.to/lastmile_qr_scan"}, "fusion_lat": 0.0}, {"lat": 38.90861016666667, "lon": -77.04483033333334, "is_disabled": 0, "fusion_lon": 0.0, "is_reserved": 0, "name": "4e1a6320d4966669afc0fe17feb7f977", "type": "electric_scooter", "bike_id": "4e1a6320d4966669afc0fe17feb7f977", "rental_uris": {"ios": "https://dc.lft.to/lastmile_qr_scan", "android": "https://dc.lft.to/lastmile_qr_scan"}, "fusion_lat": 0.0}, {"lat": 38.944979833333335, "lon": -77.0780355, "is_disabled": 0, "fusion_lon": 0.0, "is_reserved": 0, "name": "da4ea81311fa5db004ddd576c5aadd49", "type": "electric_scooter", "bike_id": "da4ea81311fa5db004ddd576c5aadd49", "rental_uris": {"ios": "https://dc.lft.to/lastmile_qr_scan", "android": "https://dc.lft.to/lastmile_qr_scan"}, "fusion_lat": 0.0}, {"lat": 38.9228755, "lon": -77.031913, "is_disabled": 0, "fusion_lon": 0.0, "is_reserved": 0, "name": "ee0237ac36f3a557577858e002ab7fc9", "type": "electric_scooter", "bike_id": "ee0237ac36f3a557577858e002ab7fc9", "rental_uris": {"ios": "https://dc.lft.to/lastmile_qr_scan", "android": "https://dc.lft.to/lastmile_qr_scan"}, "fusion_lat": 0.0}, {"lat": 38.90140483333333, "lon": -77.04159, "is_disabled": 0, "fusion_lon": 0.0, "is_reserved": 0, "name": "f6b076365eb7f2eb44ae6141a951efb4", "type": "electric_scooter", "bike_id": "f6b076365eb7f2eb44ae6141a951efb4", "rental_uris": {"ios": "https://dc.lft.to/lastmile_qr_scan", "android": "https://dc.lft.to/lastmile_qr_scan"}, "fusion_lat": 0.0}, {"lat": 38.92370716666667, "lon": -77.030522, "is_disabled": 0, "fusion_lon": 0.0, "is_reserved": 0, "name": "d1e370efaca329a77400deb6c8075b29", "type": "electric_scooter", "bike_id": "d1e370efaca329a77400deb6c8075b29", "rental_uris": {"ios": "https://dc.lft.to/lastmile_qr_scan", "android": "https://dc.lft.to/lastmile_qr_scan"}, "fusion_lat": 0.0}, {"lat": 38.923223, "lon": -77.05678166666667, "is_disabled": 0, "fusion_lon": 0.0, "is_reserved": 0, "name": "12b93df727bb1eee1bf84052c8ba1a56", "type": "electric_scooter", "bike_id": "12b93df727bb1eee1bf84052c8ba1a56", "rental_uris": {"ios": "https://dc.lft.to/lastmile_qr_scan", "android": "https://dc.lft.to/lastmile_qr_scan"}, "fusion_lat": 0.0}, {"lat": 38.8833265, "lon": -76.935026, "is_disabled": 0, "fusion_lon": 0.0, "is_reserved": 0, "name": "8dad6f2850c3fff92666a4618e7a72da", "type": "electric_scooter", "bike_id": "8dad6f2850c3fff92666a4618e7a72da", "rental_uris": {"ios": "https://dc.lft.to/lastmile_qr_scan", "android": "https://dc.lft.to/lastmile_qr_scan"}, "fusion_lat": 0.0}, {"lat": 38.91859183333333, "lon": -77.01521833333334, "is_disabled": 0, "fusion_lon": 0.0, "is_reserved": 0, "name": "a4875bd22c39a4a8d2d21ead9fecde56", "type": "electric_scooter", "bike_id": "a4875bd22c39a4a8d2d21ead9fecde56", "rental_uris": {"ios": "https://dc.lft.to/lastmile_qr_scan", "android": "https://dc.lft.to/lastmile_qr_scan"}, "fusion_lat": 0.0}, {"lat": 38.904100166666666, "lon": -76.97330466666666, "is_disabled": 0, "fusion_lon": 0.0, "is_reserved": 0, "name": "5ac28e564ee582bd5027726ed6d88122", "type": "electric_scooter", "bike_id": "5ac28e564ee582bd5027726ed6d88122", "rental_uris": {"ios": "https://dc.lft.to/lastmile_qr_scan", "android": "https://dc.lft.to/lastmile_qr_scan"}, "fusion_lat": 0.0}, {"lat": 38.897238333333334, "lon": -77.03347166666667, "is_disabled": 0, "fusion_lon": 0.0, "is_reserved": 0, "name": "8974a90bcfa4ceb4d74e31cbbeff55ad", "type": "electric_scooter", "bike_id": "8974a90bcfa4ceb4d74e31cbbeff55ad", "rental_uris": {"ios": "https://dc.lft.to/lastmile_qr_scan", "android": "https://dc.lft.to/lastmile_qr_scan"}, "fusion_lat": 0.0}, {"lat": 38.92115366666667, "lon": -77.025308, "is_disabled": 0, "fusion_lon": 0.0, "is_reserved": 0, "name": "c3467809e3978acbe608127203796b01", "type": "electric_scooter", "bike_id": "c3467809e3978acbe608127203796b01", "rental_uris": {"ios": "https://dc.lft.to/lastmile_qr_scan", "android": "https://dc.lft.to/lastmile_qr_scan"}, "fusion_lat": 0.0}, {"lat": 38.9169465, "lon": -77.0267195, "is_disabled": 0, "fusion_lon": 0.0, "is_reserved": 0, "name": "ca99f102e3ac08a25f5a0661b0d22e26", "type": "electric_scooter", "bike_id": "ca99f102e3ac08a25f5a0661b0d22e26", "rental_uris": {"ios": "https://dc.lft.to/lastmile_qr_scan", "android": "https://dc.lft.to/lastmile_qr_scan"}, "fusion_lat": 0.0}, {"lat": 38.924631, "lon": -77.0224975, "is_disabled": 0, "fusion_lon": 0.0, "is_reserved": 0, "name": "e6e164260e8fb9e664919e8b552bd981", "type": "electric_scooter", "bike_id": "e6e164260e8fb9e664919e8b552bd981", "rental_uris": {"ios": "https://dc.lft.to/lastmile_qr_scan", "android": "https://dc.lft.to/lastmile_qr_scan"}, "fusion_lat": 0.0}, {"lat": 38.92309566666667, "lon": -77.0340695, "is_disabled": 0, "fusion_lon": 0.0, "is_reserved": 0, "name": "667732b4d0a42d739eaef36d125fa2ea", "type": "electric_scooter", "bike_id": "667732b4d0a42d739eaef36d125fa2ea", "rental_uris": {"ios": "https://dc.lft.to/lastmile_qr_scan", "android": "https://dc.lft.to/lastmile_qr_scan"}, "fusion_lat": 0.0}, {"lat": 38.90254216666666, "lon": -77.02651683333333, "is_disabled": 0, "fusion_lon": 0.0, "is_reserved": 0, "name": "e762bde327c1a3a18e957997916149c0", "type": "electric_scooter", "bike_id": "e762bde327c1a3a18e957997916149c0", "rental_uris": {"ios": "https://dc.lft.to/lastmile_qr_scan", "android": "https://dc.lft.to/lastmile_qr_scan"}, "fusion_lat": 0.0}, {"lat": 38.91447516666667, "lon": -77.041584, "is_disabled": 0, "fusion_lon": 0.0, "is_reserved": 0, "name": "73000366410b98be281bdfe950f6e2b5", "type": "electric_scooter", "bike_id": "73000366410b98be281bdfe950f6e2b5", "rental_uris": {"ios": "https://dc.lft.to/lastmile_qr_scan", "android": "https://dc.lft.to/lastmile_qr_scan"}, "fusion_lat": 0.0}, {"lat": 38.912975333333335, "lon": -77.02229333333334, "is_disabled": 0, "fusion_lon": 0.0, "is_reserved": 0, "name": "e5ef6e6fe7aa5abee67e62e6eea07921", "type": "electric_scooter", "bike_id": "e5ef6e6fe7aa5abee67e62e6eea07921", "rental_uris": {"ios": "https://dc.lft.to/lastmile_qr_scan", "android": "https://dc.lft.to/lastmile_qr_scan"}, "fusion_lat": 0.0}, {"lat": 38.91917516666667, "lon": -77.03424466666667, "is_disabled": 0, "fusion_lon": 0.0, "is_reserved": 0, "name": "377f8a68fdc3335dc7133e7c80c3f570", "type": "electric_scooter", "bike_id": "377f8a68fdc3335dc7133e7c80c3f570", "rental_uris": {"ios": "https://dc.lft.to/lastmile_qr_scan", "android": "https://dc.lft.to/lastmile_qr_scan"}, "fusion_lat": 0.0}, {"lat": 38.917656, "lon": -77.02370266666667, "is_disabled": 0, "fusion_lon": 0.0, "is_reserved": 0, "name": "452aac4e8715781d10f8661bee2582eb", "type": "electric_scooter", "bike_id": "452aac4e8715781d10f8661bee2582eb", "rental_uris": {"ios": "https://dc.lft.to/lastmile_qr_scan", "android": "https://dc.lft.to/lastmile_qr_scan"}, "fusion_lat": 0.0}, {"lat": 38.94737033333333, "lon": -77.01618133333334, "is_disabled": 0, "fusion_lon": 0.0, "is_reserved": 0, "name": "47ee7dfc2eace93de787bbee107f4ff3", "type": "electric_scooter", "bike_id": "47ee7dfc2eace93de787bbee107f4ff3", "rental_uris": {"ios": "https://dc.lft.to/lastmile_qr_scan", "android": "https://dc.lft.to/lastmile_qr_scan"}, "fusion_lat": 0.0}, {"lat": 38.922861, "lon": -77.03673666666667, "is_disabled": 0, "fusion_lon": 0.0, "is_reserved": 0, "name": "08559428df75fa4c3469cb993218c0ae", "type": "electric_scooter", "bike_id": "08559428df75fa4c3469cb993218c0ae", "rental_uris": {"ios": "https://dc.lft.to/lastmile_qr_scan", "android": "https://dc.lft.to/lastmile_qr_scan"}, "fusion_lat": 0.0}, {"lat": 38.904991833333334, "lon": -77.00724216666667, "is_disabled": 0, "fusion_lon": 0.0, "is_reserved": 0, "name": "dd0c3475c712265ed647c561d749270f", "type": "electric_scooter", "bike_id": "dd0c3475c712265ed647c561d749270f", "rental_uris": {"ios": "https://dc.lft.to/lastmile_qr_scan", "android": "https://dc.lft.to/lastmile_qr_scan"}, "fusion_lat": 0.0}, {"lat": 38.91592333333333, "lon": -77.04659416666667, "is_disabled": 0, "fusion_lon": 0.0, "is_reserved": 0, "name": "8dceeca4ed61e33c908bd2e965aa1338", "type": "electric_scooter", "bike_id": "8dceeca4ed61e33c908bd2e965aa1338", "rental_uris": {"ios": "https://dc.lft.to/lastmile_qr_scan", "android": "https://dc.lft.to/lastmile_qr_scan"}, "fusion_lat": 0.0}, {"lat": 38.83247383333333, "lon": -77.00729083333333, "is_disabled": 0, "fusion_lon": 0.0, "is_reserved": 0, "name": "7cd4ac3cd8ec4c3beea21e322defc4f3", "type": "electric_bike", "bike_id": "7cd4ac3cd8ec4c3beea21e322defc4f3", "rental_uris": {"ios": "https://dc.lft.to/lastmile_qr_scan", "android": "https://dc.lft.to/lastmile_qr_scan"}, "fusion_lat": 0.0}, {"lat": 38.90409566666666, "lon": -77.0180485, "is_disabled": 0, "fusion_lon": 0.0, "is_reserved": 0, "name": "78f3617d53cce6e4407cfa6d555ca9a7", "type": "electric_scooter", "bike_id": "78f3617d53cce6e4407cfa6d555ca9a7", "rental_uris": {"ios": "https://dc.lft.to/lastmile_qr_scan", "android": "https://dc.lft.to/lastmile_qr_scan"}, "fusion_lat": 0.0}, {"lat": 38.89913833333333, "lon": -76.94548816666666, "is_disabled": 0, "fusion_lon": 0.0, "is_reserved": 0, "name": "283f9fdf3e6cdaa4be273ee35afa50f3", "type": "electric_scooter", "bike_id": "283f9fdf3e6cdaa4be273ee35afa50f3", "rental_uris": {"ios": "https://dc.lft.to/lastmile_qr_scan", "android": "https://dc.lft.to/lastmile_qr_scan"}, "fusion_lat": 0.0}, {"lat": 38.9115715, "lon": -77.03468266666667, "is_disabled": 0, "fusion_lon": 0.0, "is_reserved": 0, "name": "a69a7eb23650cad973f05e33ed4686eb", "type": "electric_scooter", "bike_id": "a69a7eb23650cad973f05e33ed4686eb", "rental_uris": {"ios": "https://dc.lft.to/lastmile_qr_scan", "android": "https://dc.lft.to/lastmile_qr_scan"}, "fusion_lat": 0.0}, {"lat": 38.913431, "lon": -77.0466685, "is_disabled": 0, "fusion_lon": 0.0, "is_reserved": 0, "name": "3f7ec684837f7993122ae183ab6e0afe", "type": "electric_scooter", "bike_id": "3f7ec684837f7993122ae183ab6e0afe", "rental_uris": {"ios": "https://dc.lft.to/lastmile_qr_scan", "android": "https://dc.lft.to/lastmile_qr_scan"}, "fusion_lat": 0.0}, {"lat": 38.9126175, "lon": -77.01561616666666, "is_disabled": 0, "fusion_lon": 0.0, "is_reserved": 0, "name": "a341914e10e4e0a0615e3fc2d2cae6b5", "type": "electric_scooter", "bike_id": "a341914e10e4e0a0615e3fc2d2cae6b5", "rental_uris": {"ios": "https://dc.lft.to/lastmile_qr_scan", "android": "https://dc.lft.to/lastmile_qr_scan"}, "fusion_lat": 0.0}, {"lat": 38.90101883333333, "lon": -77.03361316666667, "is_disabled": 0, "fusion_lon": 0.0, "is_reserved": 0, "name": "abbde0eda9179bdae99e1cafb8c61b1b", "type": "electric_scooter", "bike_id": "abbde0eda9179bdae99e1cafb8c61b1b", "rental_uris": {"ios": "https://dc.lft.to/lastmile_qr_scan", "android": "https://dc.lft.to/lastmile_qr_scan"}, "fusion_lat": 0.0}, {"lat": 38.897507, "lon": -77.00754666666667, "is_disabled": 0, "fusion_lon": 0.0, "is_reserved": 0, "name": "ee32a0db87794fa2cfb5ba0e57ab02c5", "type": "electric_scooter", "bike_id": "ee32a0db87794fa2cfb5ba0e57ab02c5", "rental_uris": {"ios": "https://dc.lft.to/lastmile_qr_scan", "android": "https://dc.lft.to/lastmile_qr_scan"}, "fusion_lat": 0.0}, {"lat": 38.898013166666665, "lon": -77.04888633333333, "is_disabled": 0, "fusion_lon": 0.0, "is_reserved": 0, "name": "c14973b00b1a6554c62fa49a36ce2bdf", "type": "electric_scooter", "bike_id": "c14973b00b1a6554c62fa49a36ce2bdf", "rental_uris": {"ios": "https://dc.lft.to/lastmile_qr_scan", "android": "https://dc.lft.to/lastmile_qr_scan"}, "fusion_lat": 0.0}, {"lat": 38.887223666666664, "lon": -77.02832933333333, "is_disabled": 0, "fusion_lon": 0.0, "is_reserved": 0, "name": "426e15d47e16fea9b5f964c234d9743a", "type": "electric_scooter", "bike_id": "426e15d47e16fea9b5f964c234d9743a", "rental_uris": {"ios": "https://dc.lft.to/lastmile_qr_scan", "android": "https://dc.lft.to/lastmile_qr_scan"}, "fusion_lat": 0.0}, {"lat": 38.90673483333333, "lon": -77.020745, "is_disabled": 0, "fusion_lon": 0.0, "is_reserved": 0, "name": "7a15c22e084633bfd71611027375683c", "type": "electric_scooter", "bike_id": "7a15c22e084633bfd71611027375683c", "rental_uris": {"ios": "https://dc.lft.to/lastmile_qr_scan", "android": "https://dc.lft.to/lastmile_qr_scan"}, "fusion_lat": 0.0}, {"lat": 38.90531633333333, "lon": -77.04249683333333, "is_disabled": 0, "fusion_lon": 0.0, "is_reserved": 0, "name": "d075ecbe2cf1a1aee8134d79ebe872d4", "type": "electric_scooter", "bike_id": "d075ecbe2cf1a1aee8134d79ebe872d4", "rental_uris": {"ios": "https://dc.lft.to/lastmile_qr_scan", "android": "https://dc.lft.to/lastmile_qr_scan"}, "fusion_lat": 0.0}, {"lat": 38.93414533333333, "lon": -77.043065, "is_disabled": 0, "fusion_lon": 0.0, "is_reserved": 0, "name": "cfb6b65fae96b5f25f802d4953473c1c", "type": "electric_bike", "bike_id": "cfb6b65fae96b5f25f802d4953473c1c", "rental_uris": {"ios": "https://dc.lft.to/lastmile_qr_scan", "android": "https://dc.lft.to/lastmile_qr_scan"}, "fusion_lat": 0.0}, {"lat": 38.906337, "lon": -77.006661, "is_disabled": 0, "fusion_lon": 0.0, "is_reserved": 0, "name": "a95e0f5e63de90450e814c947ad73be2", "type": "electric_scooter", "bike_id": "a95e0f5e63de90450e814c947ad73be2", "rental_uris": {"ios": "https://dc.lft.to/lastmile_qr_scan", "android": "https://dc.lft.to/lastmile_qr_scan"}, "fusion_lat": 0.0}, {"lat": 38.911046, "lon": -77.024179, "is_disabled": 0, "fusion_lon": 0.0, "is_reserved": 0, "name": "c07f29c03b78cf8533da4464b8099708", "type": "electric_scooter", "bike_id": "c07f29c03b78cf8533da4464b8099708", "rental_uris": {"ios": "https://dc.lft.to/lastmile_qr_scan", "android": "https://dc.lft.to/lastmile_qr_scan"}, "fusion_lat": 0.0}, {"lat": 38.85725033333333, "lon": -76.97772766666667, "is_disabled": 0, "fusion_lon": 0.0, "is_reserved": 0, "name": "1f1229d4099b69f0436572806cd22d8c", "type": "electric_bike", "bike_id": "1f1229d4099b69f0436572806cd22d8c", "rental_uris": {"ios": "https://dc.lft.to/lastmile_qr_scan", "android": "https://dc.lft.to/lastmile_qr_scan"}, "fusion_lat": 0.0}, {"lat": 38.9170745, "lon": -77.03206266666666, "is_disabled": 0, "fusion_lon": 0.0, "is_reserved": 0, "name": "4526eab35e07f0847197c58de9bf0098", "type": "electric_scooter", "bike_id": "4526eab35e07f0847197c58de9bf0098", "rental_uris": {"ios": "https://dc.lft.to/lastmile_qr_scan", "android": "https://dc.lft.to/lastmile_qr_scan"}, "fusion_lat": 0.0}, {"lat": 38.907249, "lon": -77.03475166666666, "is_disabled": 0, "fusion_lon": 0.0, "is_reserved": 0, "name": "92d617ab93becbc4b719c85c7c71036b", "type": "electric_scooter", "bike_id": "92d617ab93becbc4b719c85c7c71036b", "rental_uris": {"ios": "https://dc.lft.to/lastmile_qr_scan", "android": "https://dc.lft.to/lastmile_qr_scan"}, "fusion_lat": 0.0}, {"lat": 38.92100833333333, "lon": -77.04693733333333, "is_disabled": 0, "fusion_lon": 0.0, "is_reserved": 0, "name": "ed012f1e2545cbc0654b0624c8bac554", "type": "electric_scooter", "bike_id": "ed012f1e2545cbc0654b0624c8bac554", "rental_uris": {"ios": "https://dc.lft.to/lastmile_qr_scan", "android": "https://dc.lft.to/lastmile_qr_scan"}, "fusion_lat": 0.0}, {"lat": 38.964709666666664, "lon": -77.03559566666667, "is_disabled": 0, "fusion_lon": 0.0, "is_reserved": 0, "name": "178a70a978cd7b773bd59fa6897308d2", "type": "electric_bike", "bike_id": "178a70a978cd7b773bd59fa6897308d2", "rental_uris": {"ios": "https://dc.lft.to/lastmile_qr_scan", "android": "https://dc.lft.to/lastmile_qr_scan"}, "fusion_lat": 0.0}, {"lat": 38.92244683333333, "lon": -77.05280966666666, "is_disabled": 0, "fusion_lon": 0.0, "is_reserved": 0, "name": "85d7390d53a5bd4e0f3f0ccca62fdd97", "type": "electric_scooter", "bike_id": "85d7390d53a5bd4e0f3f0ccca62fdd97", "rental_uris": {"ios": "https://dc.lft.to/lastmile_qr_scan", "android": "https://dc.lft.to/lastmile_qr_scan"}, "fusion_lat": 0.0}, {"lat": 38.904354166666664, "lon": -77.02850016666666, "is_disabled": 0, "fusion_lon": 0.0, "is_reserved": 0, "name": "49a3bdd7120892de6b760bd4d3a0cae2", "type": "electric_scooter", "bike_id": "49a3bdd7120892de6b760bd4d3a0cae2", "rental_uris": {"ios": "https://dc.lft.to/lastmile_qr_scan", "android": "https://dc.lft.to/lastmile_qr_scan"}, "fusion_lat": 0.0}, {"lat": 38.900102, "lon": -76.98905716666667, "is_disabled": 0, "fusion_lon": 0.0, "is_reserved": 0, "name": "e8a8d6d2b46940893c76d096a181656e", "type": "electric_scooter", "bike_id": "e8a8d6d2b46940893c76d096a181656e", "rental_uris": {"ios": "https://dc.lft.to/lastmile_qr_scan", "android": "https://dc.lft.to/lastmile_qr_scan"}, "fusion_lat": 0.0}, {"lat": 38.929739833333336, "lon": -77.02827166666667, "is_disabled": 0, "fusion_lon": 0.0, "is_reserved": 0, "name": "fd65b6eb9166c1cce14f867304b71b9e", "type": "electric_scooter", "bike_id": "fd65b6eb9166c1cce14f867304b71b9e", "rental_uris": {"ios": "https://dc.lft.to/lastmile_qr_scan", "android": "https://dc.lft.to/lastmile_qr_scan"}, "fusion_lat": 0.0}, {"lat": 38.919103166666666, "lon": -77.032107, "is_disabled": 0, "fusion_lon": 0.0, "is_reserved": 0, "name": "da788f43b78dd18c46453ac0a84d2bf2", "type": "electric_scooter", "bike_id": "da788f43b78dd18c46453ac0a84d2bf2", "rental_uris": {"ios": "https://dc.lft.to/lastmile_qr_scan", "android": "https://dc.lft.to/lastmile_qr_scan"}, "fusion_lat": 0.0}, {"lat": 38.94339083333333, "lon": -76.98320833333334, "is_disabled": 0, "fusion_lon": 0.0, "is_reserved": 0, "name": "03ac4f3fa1e2c453feacc28485e5409d", "type": "electric_scooter", "bike_id": "03ac4f3fa1e2c453feacc28485e5409d", "rental_uris": {"ios": "https://dc.lft.to/lastmile_qr_scan", "android": "https://dc.lft.to/lastmile_qr_scan"}, "fusion_lat": 0.0}, {"lat": 38.87545333333333, "lon": -77.005393, "is_disabled": 0, "fusion_lon": 0.0, "is_reserved": 0, "name": "876a0c97e49d5f17445c3447dc0d1fc3", "type": "electric_scooter", "bike_id": "876a0c97e49d5f17445c3447dc0d1fc3", "rental_uris": {"ios": "https://dc.lft.to/lastmile_qr_scan", "android": "https://dc.lft.to/lastmile_qr_scan"}, "fusion_lat": 0.0}, {"lat": 38.92342416666666, "lon": -77.05183033333333, "is_disabled": 0, "fusion_lon": 0.0, "is_reserved": 0, "name": "2a84a66c5fda047c61a741055a8cc4b8", "type": "electric_scooter", "bike_id": "2a84a66c5fda047c61a741055a8cc4b8", "rental_uris": {"ios": "https://dc.lft.to/lastmile_qr_scan", "android": "https://dc.lft.to/lastmile_qr_scan"}, "fusion_lat": 0.0}, {"lat": 38.95358783333333, "lon": -76.981005, "is_disabled": 0, "fusion_lon": 0.0, "is_reserved": 0, "name": "093697b2df6df5ddb2328b5c475e5288", "type": "electric_bike", "bike_id": "093697b2df6df5ddb2328b5c475e5288", "rental_uris": {"ios": "https://dc.lft.to/lastmile_qr_scan", "android": "https://dc.lft.to/lastmile_qr_scan"}, "fusion_lat": 0.0}, {"lat": 38.91419966666667, "lon": -77.03187166666666, "is_disabled": 0, "fusion_lon": 0.0, "is_reserved": 0, "name": "36608f02694f7263fe69d12f9aab2c52", "type": "electric_scooter", "bike_id": "36608f02694f7263fe69d12f9aab2c52", "rental_uris": {"ios": "https://dc.lft.to/lastmile_qr_scan", "android": "https://dc.lft.to/lastmile_qr_scan"}, "fusion_lat": 0.0}, {"lat": 38.96609566666667, "lon": -77.02741916666666, "is_disabled": 0, "fusion_lon": 0.0, "is_reserved": 0, "name": "422b3744c242c8c05e25ed3ff6c6ffae", "type": "electric_scooter", "bike_id": "422b3744c242c8c05e25ed3ff6c6ffae", "rental_uris": {"ios": "https://dc.lft.to/lastmile_qr_scan", "android": "https://dc.lft.to/lastmile_qr_scan"}, "fusion_lat": 0.0}, {"lat": 38.906393333333334, "lon": -77.01436133333333, "is_disabled": 0, "fusion_lon": 0.0, "is_reserved": 0, "name": "55cc4d3209c4611e1116556747972044", "type": "electric_scooter", "bike_id": "55cc4d3209c4611e1116556747972044", "rental_uris": {"ios": "https://dc.lft.to/lastmile_qr_scan", "android": "https://dc.lft.to/lastmile_qr_scan"}, "fusion_lat": 0.0}, {"lat": 38.89384483333333, "lon": -76.9230585, "is_disabled": 0, "fusion_lon": 0.0, "is_reserved": 0, "name": "2e3ef2b78a1ebdb29f62d46f539faff8", "type": "electric_scooter", "bike_id": "2e3ef2b78a1ebdb29f62d46f539faff8", "rental_uris": {"ios": "https://dc.lft.to/lastmile_qr_scan", "android": "https://dc.lft.to/lastmile_qr_scan"}, "fusion_lat": 0.0}, {"lat": 38.8675305, "lon": -76.94539183333333, "is_disabled": 0, "fusion_lon": 0.0, "is_reserved": 0, "name": "d9a3940f281935ef72fc2191cda2b4d0", "type": "electric_bike", "bike_id": "d9a3940f281935ef72fc2191cda2b4d0", "rental_uris": {"ios": "https://dc.lft.to/lastmile_qr_scan", "android": "https://dc.lft.to/lastmile_qr_scan"}, "fusion_lat": 0.0}, {"lat": 38.87666816666667, "lon": -76.99275333333334, "is_disabled": 0, "fusion_lon": 0.0, "is_reserved": 0, "name": "b410dc69de2889d35fcd6e73ef30fb2e", "type": "electric_scooter", "bike_id": "b410dc69de2889d35fcd6e73ef30fb2e", "rental_uris": {"ios": "https://dc.lft.to/lastmile_qr_scan", "android": "https://dc.lft.to/lastmile_qr_scan"}, "fusion_lat": 0.0}, {"lat": 38.884628166666666, "lon": -76.95246066666667, "is_disabled": 0, "fusion_lon": 0.0, "is_reserved": 0, "name": "70aa3308b4610f5ea1162c51c8f9ffa5", "type": "electric_bike", "bike_id": "70aa3308b4610f5ea1162c51c8f9ffa5", "rental_uris": {"ios": "https://dc.lft.to/lastmile_qr_scan", "android": "https://dc.lft.to/lastmile_qr_scan"}, "fusion_lat": 0.0}, {"lat": 38.9491795, "lon": -77.00799633333334, "is_disabled": 0, "fusion_lon": 0.0, "is_reserved": 0, "name": "f5d1979a32a8a8bbc7cd404b7ce4f031", "type": "electric_bike", "bike_id": "f5d1979a32a8a8bbc7cd404b7ce4f031", "rental_uris": {"ios": "https://dc.lft.to/lastmile_qr_scan", "android": "https://dc.lft.to/lastmile_qr_scan"}, "fusion_lat": 0.0}, {"lat": 38.91490833333334, "lon": -77.034613, "is_disabled": 0, "fusion_lon": 0.0, "is_reserved": 0, "name": "5bc8d1a85def45b13bde598be910a95d", "type": "electric_scooter", "bike_id": "5bc8d1a85def45b13bde598be910a95d", "rental_uris": {"ios": "https://dc.lft.to/lastmile_qr_scan", "android": "https://dc.lft.to/lastmile_qr_scan"}, "fusion_lat": 0.0}, {"lat": 38.91419666666667, "lon": -77.0218185, "is_disabled": 0, "fusion_lon": 0.0, "is_reserved": 0, "name": "8c4dbeffd9e527e1d416d536ed25dcef", "type": "electric_scooter", "bike_id": "8c4dbeffd9e527e1d416d536ed25dcef", "rental_uris": {"ios": "https://dc.lft.to/lastmile_qr_scan", "android": "https://dc.lft.to/lastmile_qr_scan"}, "fusion_lat": 0.0}, {"lat": 38.931901833333335, "lon": -77.028183, "is_disabled": 0, "fusion_lon": 0.0, "is_reserved": 0, "name": "9d567bf904476f109a6faf18ffaa058d", "type": "electric_scooter", "bike_id": "9d567bf904476f109a6faf18ffaa058d", "rental_uris": {"ios": "https://dc.lft.to/lastmile_qr_scan", "android": "https://dc.lft.to/lastmile_qr_scan"}, "fusion_lat": 0.0}, {"lat": 38.9198615, "lon": -77.04168383333334, "is_disabled": 0, "fusion_lon": 0.0, "is_reserved": 0, "name": "17c150c79b25a7d7380651a9797c7cbf", "type": "electric_scooter", "bike_id": "17c150c79b25a7d7380651a9797c7cbf", "rental_uris": {"ios": "https://dc.lft.to/lastmile_qr_scan", "android": "https://dc.lft.to/lastmile_qr_scan"}, "fusion_lat": 0.0}, {"lat": 38.896175166666666, "lon": -77.0213755, "is_disabled": 0, "fusion_lon": 0.0, "is_reserved": 0, "name": "c303fb3ff02ec998e228d1dfb0413ff1", "type": "electric_scooter", "bike_id": "c303fb3ff02ec998e228d1dfb0413ff1", "rental_uris": {"ios": "https://dc.lft.to/lastmile_qr_scan", "android": "https://dc.lft.to/lastmile_qr_scan"}, "fusion_lat": 0.0}, {"lat": 38.9324705, "lon": -77.03288816666667, "is_disabled": 0, "fusion_lon": 0.0, "is_reserved": 0, "name": "705a5995427bc0b27abea0af1f9c050c", "type": "electric_scooter", "bike_id": "705a5995427bc0b27abea0af1f9c050c", "rental_uris": {"ios": "https://dc.lft.to/lastmile_qr_scan", "android": "https://dc.lft.to/lastmile_qr_scan"}, "fusion_lat": 0.0}, {"lat": 38.918834, "lon": -77.02959333333334, "is_disabled": 0, "fusion_lon": 0.0, "is_reserved": 0, "name": "2b05e6868c0620b2bca829c9f4ba0b7c", "type": "electric_scooter", "bike_id": "2b05e6868c0620b2bca829c9f4ba0b7c", "rental_uris": {"ios": "https://dc.lft.to/lastmile_qr_scan", "android": "https://dc.lft.to/lastmile_qr_scan"}, "fusion_lat": 0.0}, {"lat": 38.916883166666665, "lon": -77.02631116666667, "is_disabled": 0, "fusion_lon": 0.0, "is_reserved": 0, "name": "4cb90ff7604831c1c321b60a6226567f", "type": "electric_scooter", "bike_id": "4cb90ff7604831c1c321b60a6226567f", "rental_uris": {"ios": "https://dc.lft.to/lastmile_qr_scan", "android": "https://dc.lft.to/lastmile_qr_scan"}, "fusion_lat": 0.0}, {"lat": 38.9938395, "lon": -76.9288455, "is_disabled": 0, "fusion_lon": 0.0, "is_reserved": 0, "name": "abd96d57b8e0bc4034eaf720f279cff2", "type": "electric_bike", "bike_id": "abd96d57b8e0bc4034eaf720f279cff2", "rental_uris": {"ios": "https://dc.lft.to/lastmile_qr_scan", "android": "https://dc.lft.to/lastmile_qr_scan"}, "fusion_lat": 0.0}, {"lat": 38.92341066666667, "lon": -77.05174583333333, "is_disabled": 0, "fusion_lon": 0.0, "is_reserved": 0, "name": "be5cd9c75b2952035bc02617831916e5", "type": "electric_scooter", "bike_id": "be5cd9c75b2952035bc02617831916e5", "rental_uris": {"ios": "https://dc.lft.to/lastmile_qr_scan", "android": "https://dc.lft.to/lastmile_qr_scan"}, "fusion_lat": 0.0}, {"lat": 38.876966, "lon": -77.01712666666667, "is_disabled": 0, "fusion_lon": 0.0, "is_reserved": 0, "name": "7d2ea9fa07f833bf377968c858c1a834", "type": "electric_scooter", "bike_id": "7d2ea9fa07f833bf377968c858c1a834", "rental_uris": {"ios": "https://dc.lft.to/lastmile_qr_scan", "android": "https://dc.lft.to/lastmile_qr_scan"}, "fusion_lat": 0.0}, {"lat": 38.964402666666665, "lon": -77.03159716666667, "is_disabled": 0, "fusion_lon": 0.0, "is_reserved": 0, "name": "c185a4e9c87ab7414d4d91f9b0373b44", "type": "electric_bike", "bike_id": "c185a4e9c87ab7414d4d91f9b0373b44", "rental_uris": {"ios": "https://dc.lft.to/lastmile_qr_scan", "android": "https://dc.lft.to/lastmile_qr_scan"}, "fusion_lat": 0.0}, {"lat": 38.9100365, "lon": -77.0491355, "is_disabled": 0, "fusion_lon": 0.0, "is_reserved": 0, "name": "f8d33f088c5534a333812f9c745a22f0", "type": "electric_scooter", "bike_id": "f8d33f088c5534a333812f9c745a22f0", "rental_uris": {"ios": "https://dc.lft.to/lastmile_qr_scan", "android": "https://dc.lft.to/lastmile_qr_scan"}, "fusion_lat": 0.0}, {"lat": 38.905095833333334, "lon": -77.04828, "is_disabled": 0, "fusion_lon": 0.0, "is_reserved": 0, "name": "91d86fcd553a87e4507837b7d6f9e4ae", "type": "electric_scooter", "bike_id": "91d86fcd553a87e4507837b7d6f9e4ae", "rental_uris": {"ios": "https://dc.lft.to/lastmile_qr_scan", "android": "https://dc.lft.to/lastmile_qr_scan"}, "fusion_lat": 0.0}, {"lat": 38.95010766666667, "lon": -77.08042233333333, "is_disabled": 0, "fusion_lon": 0.0, "is_reserved": 0, "name": "3ba15210c7ceb33dc242159622ea3bdb", "type": "electric_scooter", "bike_id": "3ba15210c7ceb33dc242159622ea3bdb", "rental_uris": {"ios": "https://dc.lft.to/lastmile_qr_scan", "android": "https://dc.lft.to/lastmile_qr_scan"}, "fusion_lat": 0.0}, {"lat": 38.915173, "lon": -77.03856316666666, "is_disabled": 0, "fusion_lon": 0.0, "is_reserved": 0, "name": "020eed3b859a6abbe09b0a1ff5c69493", "type": "electric_scooter", "bike_id": "020eed3b859a6abbe09b0a1ff5c69493", "rental_uris": {"ios": "https://dc.lft.to/lastmile_qr_scan", "android": "https://dc.lft.to/lastmile_qr_scan"}, "fusion_lat": 0.0}, {"lat": 38.90826883333333, "lon": -77.0434715, "is_disabled": 0, "fusion_lon": 0.0, "is_reserved": 0, "name": "d13d6cb40e29c6612cb240508b622245", "type": "electric_scooter", "bike_id": "d13d6cb40e29c6612cb240508b622245", "rental_uris": {"ios": "https://dc.lft.to/lastmile_qr_scan", "android": "https://dc.lft.to/lastmile_qr_scan"}, "fusion_lat": 0.0}, {"lat": 38.84754083333333, "lon": -76.99501966666666, "is_disabled": 0, "fusion_lon": 0.0, "is_reserved": 0, "name": "de780c18d04ecbfd1bb18416aee051ff", "type": "electric_scooter", "bike_id": "de780c18d04ecbfd1bb18416aee051ff", "rental_uris": {"ios": "https://dc.lft.to/lastmile_qr_scan", "android": "https://dc.lft.to/lastmile_qr_scan"}, "fusion_lat": 0.0}, {"lat": 38.88958616666667, "lon": -76.93684766666667, "is_disabled": 0, "fusion_lon": 0.0, "is_reserved": 0, "name": "674969a5e17e56c653621e46df61814f", "type": "electric_scooter", "bike_id": "674969a5e17e56c653621e46df61814f", "rental_uris": {"ios": "https://dc.lft.to/lastmile_qr_scan", "android": "https://dc.lft.to/lastmile_qr_scan"}, "fusion_lat": 0.0}, {"lat": 38.9221985, "lon": -77.02113, "is_disabled": 0, "fusion_lon": 0.0, "is_reserved": 0, "name": "c936402b04f0af0253b4cb8f0a3f7ff0", "type": "electric_scooter", "bike_id": "c936402b04f0af0253b4cb8f0a3f7ff0", "rental_uris": {"ios": "https://dc.lft.to/lastmile_qr_scan", "android": "https://dc.lft.to/lastmile_qr_scan"}, "fusion_lat": 0.0}, {"lat": 38.921537, "lon": -77.03357583333333, "is_disabled": 0, "fusion_lon": 0.0, "is_reserved": 0, "name": "e622a554b74ae3768eb179e61d1c17ac", "type": "electric_scooter", "bike_id": "e622a554b74ae3768eb179e61d1c17ac", "rental_uris": {"ios": "https://dc.lft.to/lastmile_qr_scan", "android": "https://dc.lft.to/lastmile_qr_scan"}, "fusion_lat": 0.0}, {"lat": 38.904427166666665, "lon": -76.99827383333333, "is_disabled": 0, "fusion_lon": 0.0, "is_reserved": 0, "name": "6b0ff0ad460cf6dbbed8a8ae991b862a", "type": "electric_scooter", "bike_id": "6b0ff0ad460cf6dbbed8a8ae991b862a", "rental_uris": {"ios": "https://dc.lft.to/lastmile_qr_scan", "android": "https://dc.lft.to/lastmile_qr_scan"}, "fusion_lat": 0.0}, {"lat": 38.903303, "lon": -77.0628545, "is_disabled": 0, "fusion_lon": 0.0, "is_reserved": 0, "name": "c83948b694963ca9a4682502a9a6ff0d", "type": "electric_scooter", "bike_id": "c83948b694963ca9a4682502a9a6ff0d", "rental_uris": {"ios": "https://dc.lft.to/lastmile_qr_scan", "android": "https://dc.lft.to/lastmile_qr_scan"}, "fusion_lat": 0.0}, {"lat": 38.91568, "lon": -77.019095, "is_disabled": 0, "fusion_lon": 0.0, "is_reserved": 0, "name": "c4332e650e4cd512af1655c85525f1fc", "type": "electric_scooter", "bike_id": "c4332e650e4cd512af1655c85525f1fc", "rental_uris": {"ios": "https://dc.lft.to/lastmile_qr_scan", "android": "https://dc.lft.to/lastmile_qr_scan"}, "fusion_lat": 0.0}, {"lat": 38.89972366666667, "lon": -76.9855935, "is_disabled": 0, "fusion_lon": 0.0, "is_reserved": 0, "name": "6826f81936d1595adc1ffb8050c29669", "type": "electric_scooter", "bike_id": "6826f81936d1595adc1ffb8050c29669", "rental_uris": {"ios": "https://dc.lft.to/lastmile_qr_scan", "android": "https://dc.lft.to/lastmile_qr_scan"}, "fusion_lat": 0.0}, {"lat": 39.05253533333333, "lon": -77.08068733333333, "is_disabled": 0, "fusion_lon": 0.0, "is_reserved": 0, "name": "a401a6dcbe4d1d9512dbe34171094d8a", "type": "electric_bike", "bike_id": "a401a6dcbe4d1d9512dbe34171094d8a", "rental_uris": {"ios": "https://dc.lft.to/lastmile_qr_scan", "android": "https://dc.lft.to/lastmile_qr_scan"}, "fusion_lat": 0.0}, {"lat": 38.8689445, "lon": -76.98524116666667, "is_disabled": 0, "fusion_lon": 0.0, "is_reserved": 0, "name": "d6b63d89d4b18a3fc3751348f2a28903", "type": "electric_bike", "bike_id": "d6b63d89d4b18a3fc3751348f2a28903", "rental_uris": {"ios": "https://dc.lft.to/lastmile_qr_scan", "android": "https://dc.lft.to/lastmile_qr_scan"}, "fusion_lat": 0.0}, {"lat": 38.873737166666665, "lon": -77.00034466666666, "is_disabled": 0, "fusion_lon": 0.0, "is_reserved": 0, "name": "06265a303b0c9a867811b61260e0cdb6", "type": "electric_scooter", "bike_id": "06265a303b0c9a867811b61260e0cdb6", "rental_uris": {"ios": "https://dc.lft.to/lastmile_qr_scan", "android": "https://dc.lft.to/lastmile_qr_scan"}, "fusion_lat": 0.0}, {"lat": 38.918693, "lon": -77.027618, "is_disabled": 0, "fusion_lon": 0.0, "is_reserved": 0, "name": "1203debc4423533968ee9a93c6dbc03c", "type": "electric_bike", "bike_id": "1203debc4423533968ee9a93c6dbc03c", "rental_uris": {"ios": "https://dc.lft.to/lastmile_qr_scan", "android": "https://dc.lft.to/lastmile_qr_scan"}, "fusion_lat": 0.0}, {"lat": 38.87543983333333, "lon": -77.00537366666667, "is_disabled": 0, "fusion_lon": 0.0, "is_reserved": 0, "name": "a1ba7c1c74a3beb3e9655ad0dd71c212", "type": "electric_scooter", "bike_id": "a1ba7c1c74a3beb3e9655ad0dd71c212", "rental_uris": {"ios": "https://dc.lft.to/lastmile_qr_scan", "android": "https://dc.lft.to/lastmile_qr_scan"}, "fusion_lat": 0.0}, {"lat": 38.91547966666667, "lon": -77.038593, "is_disabled": 0, "fusion_lon": 0.0, "is_reserved": 0, "name": "ad9944e093978f6999d93df5b2ae9a07", "type": "electric_scooter", "bike_id": "ad9944e093978f6999d93df5b2ae9a07", "rental_uris": {"ios": "https://dc.lft.to/lastmile_qr_scan", "android": "https://dc.lft.to/lastmile_qr_scan"}, "fusion_lat": 0.0}, {"lat": 38.918061, "lon": -77.034368, "is_disabled": 0, "fusion_lon": 0.0, "is_reserved": 0, "name": "5b9f09686581b4d3a8d9f79553babffc", "type": "electric_scooter", "bike_id": "5b9f09686581b4d3a8d9f79553babffc", "rental_uris": {"ios": "https://dc.lft.to/lastmile_qr_scan", "android": "https://dc.lft.to/lastmile_qr_scan"}, "fusion_lat": 0.0}, {"lat": 38.90511733333334, "lon": -77.060217, "is_disabled": 0, "fusion_lon": 0.0, "is_reserved": 0, "name": "69b6ed1a50f770ecb72f637440a80ded", "type": "electric_scooter", "bike_id": "69b6ed1a50f770ecb72f637440a80ded", "rental_uris": {"ios": "https://dc.lft.to/lastmile_qr_scan", "android": "https://dc.lft.to/lastmile_qr_scan"}, "fusion_lat": 0.0}, {"lat": 38.87368566666667, "lon": -77.001644, "is_disabled": 0, "fusion_lon": 0.0, "is_reserved": 0, "name": "7f30cd2b73728fcf6be8bb6860863464", "type": "electric_scooter", "bike_id": "7f30cd2b73728fcf6be8bb6860863464", "rental_uris": {"ios": "https://dc.lft.to/lastmile_qr_scan", "android": "https://dc.lft.to/lastmile_qr_scan"}, "fusion_lat": 0.0}, {"lat": 39.014151166666664, "lon": -77.04498983333333, "is_disabled": 0, "fusion_lon": 0.0, "is_reserved": 0, "name": "d67b0946c25e7e2cd51fe14277b0515e", "type": "electric_bike", "bike_id": "d67b0946c25e7e2cd51fe14277b0515e", "rental_uris": {"ios": "https://dc.lft.to/lastmile_qr_scan", "android": "https://dc.lft.to/lastmile_qr_scan"}, "fusion_lat": 0.0}, {"lat": 38.98958616666667, "lon": -77.09535016666666, "is_disabled": 0, "fusion_lon": 0.0, "is_reserved": 0, "name": "eac38a5582f4c9f34b85cc9a2759c1d5", "type": "electric_bike", "bike_id": "eac38a5582f4c9f34b85cc9a2759c1d5", "rental_uris": {"ios": "https://dc.lft.to/lastmile_qr_scan", "android": "https://dc.lft.to/lastmile_qr_scan"}, "fusion_lat": 0.0}, {"lat": 38.89565266666666, "lon": -77.1274025, "is_disabled": 0, "fusion_lon": 0.0, "is_reserved": 0, "name": "9ff3906672d2cbac6b66060be5161b64", "type": "electric_bike", "bike_id": "9ff3906672d2cbac6b66060be5161b64", "rental_uris": {"ios": "https://dc.lft.to/lastmile_qr_scan", "android": "https://dc.lft.to/lastmile_qr_scan"}, "fusion_lat": 0.0}, {"lat": 38.92347266666667, "lon": -77.03220316666666, "is_disabled": 0, "fusion_lon": 0.0, "is_reserved": 0, "name": "a5830082cb99e2770cd05a5cc9f6579e", "type": "electric_scooter", "bike_id": "a5830082cb99e2770cd05a5cc9f6579e", "rental_uris": {"ios": "https://dc.lft.to/lastmile_qr_scan", "android": "https://dc.lft.to/lastmile_qr_scan"}, "fusion_lat": 0.0}, {"lat": 38.91271366666667, "lon": -77.0305795, "is_disabled": 0, "fusion_lon": 0.0, "is_reserved": 0, "name": "0b7908e90b74564e3c8daf772673d4b5", "type": "electric_scooter", "bike_id": "0b7908e90b74564e3c8daf772673d4b5", "rental_uris": {"ios": "https://dc.lft.to/lastmile_qr_scan", "android": "https://dc.lft.to/lastmile_qr_scan"}, "fusion_lat": 0.0}, {"lat": 38.8786785, "lon": -77.0074935, "is_disabled": 0, "fusion_lon": 0.0, "is_reserved": 0, "name": "490a5f27c8805c99019263e4283b0c1c", "type": "electric_scooter", "bike_id": "490a5f27c8805c99019263e4283b0c1c", "rental_uris": {"ios": "https://dc.lft.to/lastmile_qr_scan", "android": "https://dc.lft.to/lastmile_qr_scan"}, "fusion_lat": 0.0}, {"lat": 38.924864, "lon": -77.03500816666667, "is_disabled": 0, "fusion_lon": 0.0, "is_reserved": 0, "name": "36a1817c1919706b2c5f519d0921df15", "type": "electric_scooter", "bike_id": "36a1817c1919706b2c5f519d0921df15", "rental_uris": {"ios": "https://dc.lft.to/lastmile_qr_scan", "android": "https://dc.lft.to/lastmile_qr_scan"}, "fusion_lat": 0.0}, {"lat": 38.90505, "lon": -77.029524, "is_disabled": 0, "fusion_lon": 0.0, "is_reserved": 0, "name": "6392bd8ebf91be8629082f4c90dbc918", "type": "electric_scooter", "bike_id": "6392bd8ebf91be8629082f4c90dbc918", "rental_uris": {"ios": "https://dc.lft.to/lastmile_qr_scan", "android": "https://dc.lft.to/lastmile_qr_scan"}, "fusion_lat": 0.0}, {"lat": 38.93411666666667, "lon": -77.03289, "is_disabled": 0, "fusion_lon": 0.0, "is_reserved": 0, "name": "1c7ac212baf93d9fda93a16923094147", "type": "electric_scooter", "bike_id": "1c7ac212baf93d9fda93a16923094147", "rental_uris": {"ios": "https://dc.lft.to/lastmile_qr_scan", "android": "https://dc.lft.to/lastmile_qr_scan"}, "fusion_lat": 0.0}, {"lat": 38.87104333333333, "lon": -76.965764, "is_disabled": 0, "fusion_lon": 0.0, "is_reserved": 0, "name": "6c3b26924fb2abb100ccdc37a5a2620e", "type": "electric_scooter", "bike_id": "6c3b26924fb2abb100ccdc37a5a2620e", "rental_uris": {"ios": "https://dc.lft.to/lastmile_qr_scan", "android": "https://dc.lft.to/lastmile_qr_scan"}, "fusion_lat": 0.0}, {"lat": 38.917112833333334, "lon": -76.97649816666667, "is_disabled": 0, "fusion_lon": 0.0, "is_reserved": 0, "name": "1f92fd40548ccf4c84edf9915832446b", "type": "electric_scooter", "bike_id": "1f92fd40548ccf4c84edf9915832446b", "rental_uris": {"ios": "https://dc.lft.to/lastmile_qr_scan", "android": "https://dc.lft.to/lastmile_qr_scan"}, "fusion_lat": 0.0}, {"lat": 38.918944, "lon": -77.02448666666666, "is_disabled": 0, "fusion_lon": 0.0, "is_reserved": 0, "name": "4678cc354f8a92b3bdee4e83aa254676", "type": "electric_scooter", "bike_id": "4678cc354f8a92b3bdee4e83aa254676", "rental_uris": {"ios": "https://dc.lft.to/lastmile_qr_scan", "android": "https://dc.lft.to/lastmile_qr_scan"}, "fusion_lat": 0.0}, {"lat": 38.887221, "lon": -77.02825416666667, "is_disabled": 0, "fusion_lon": 0.0, "is_reserved": 0, "name": "90d5735b7a3352e75b064edd127429b8", "type": "electric_scooter", "bike_id": "90d5735b7a3352e75b064edd127429b8", "rental_uris": {"ios": "https://dc.lft.to/lastmile_qr_scan", "android": "https://dc.lft.to/lastmile_qr_scan"}, "fusion_lat": 0.0}, {"lat": 38.8773565, "lon": -77.11852633333334, "is_disabled": 0, "fusion_lon": 0.0, "is_reserved": 0, "name": "6939aff72839669b184a1dbba871cdb9", "type": "electric_bike", "bike_id": "6939aff72839669b184a1dbba871cdb9", "rental_uris": {"ios": "https://dc.lft.to/lastmile_qr_scan", "android": "https://dc.lft.to/lastmile_qr_scan"}, "fusion_lat": 0.0}, {"lat": 38.91880166666667, "lon": -77.04314633333334, "is_disabled": 0, "fusion_lon": 0.0, "is_reserved": 0, "name": "4ae6d2f9c74bff9ca4f9e05ef581fa19", "type": "electric_scooter", "bike_id": "4ae6d2f9c74bff9ca4f9e05ef581fa19", "rental_uris": {"ios": "https://dc.lft.to/lastmile_qr_scan", "android": "https://dc.lft.to/lastmile_qr_scan"}, "fusion_lat": 0.0}, {"lat": 38.880080666666665, "lon": -77.00578166666666, "is_disabled": 0, "fusion_lon": 0.0, "is_reserved": 0, "name": "ede6bde6b4d135676786fdef2163a750", "type": "electric_scooter", "bike_id": "ede6bde6b4d135676786fdef2163a750", "rental_uris": {"ios": "https://dc.lft.to/lastmile_qr_scan", "android": "https://dc.lft.to/lastmile_qr_scan"}, "fusion_lat": 0.0}, {"lat": 38.928294, "lon": -76.995919, "is_disabled": 0, "fusion_lon": 0.0, "is_reserved": 0, "name": "f3905aacc555cd1630cd433b916cec0c", "type": "electric_scooter", "bike_id": "f3905aacc555cd1630cd433b916cec0c", "rental_uris": {"ios": "https://dc.lft.to/lastmile_qr_scan", "android": "https://dc.lft.to/lastmile_qr_scan"}, "fusion_lat": 0.0}, {"lat": 38.903927, "lon": -77.0600895, "is_disabled": 0, "fusion_lon": 0.0, "is_reserved": 0, "name": "369f3d712ee748998bb09858b87a0fed", "type": "electric_scooter", "bike_id": "369f3d712ee748998bb09858b87a0fed", "rental_uris": {"ios": "https://dc.lft.to/lastmile_qr_scan", "android": "https://dc.lft.to/lastmile_qr_scan"}, "fusion_lat": 0.0}, {"lat": 38.909529, "lon": -77.048277, "is_disabled": 0, "fusion_lon": 0.0, "is_reserved": 0, "name": "d90e784247aba8ba1eea072e659d09fb", "type": "electric_scooter", "bike_id": "d90e784247aba8ba1eea072e659d09fb", "rental_uris": {"ios": "https://dc.lft.to/lastmile_qr_scan", "android": "https://dc.lft.to/lastmile_qr_scan"}, "fusion_lat": 0.0}, {"lat": 38.9182155, "lon": -77.0242455, "is_disabled": 0, "fusion_lon": 0.0, "is_reserved": 0, "name": "2ab94d665fb9a9d549cb68a66c31f6d3", "type": "electric_scooter", "bike_id": "2ab94d665fb9a9d549cb68a66c31f6d3", "rental_uris": {"ios": "https://dc.lft.to/lastmile_qr_scan", "android": "https://dc.lft.to/lastmile_qr_scan"}, "fusion_lat": 0.0}, {"lat": 38.9027255, "lon": -76.92888916666666, "is_disabled": 0, "fusion_lon": 0.0, "is_reserved": 0, "name": "2c096cac459878683adf6c08a6f4848c", "type": "electric_scooter", "bike_id": "2c096cac459878683adf6c08a6f4848c", "rental_uris": {"ios": "https://dc.lft.to/lastmile_qr_scan", "android": "https://dc.lft.to/lastmile_qr_scan"}, "fusion_lat": 0.0}, {"lat": 38.91038066666667, "lon": -77.03412333333333, "is_disabled": 0, "fusion_lon": 0.0, "is_reserved": 0, "name": "2ebaab5ca8fe833ec6c2a9a2468ba7d8", "type": "electric_scooter", "bike_id": "2ebaab5ca8fe833ec6c2a9a2468ba7d8", "rental_uris": {"ios": "https://dc.lft.to/lastmile_qr_scan", "android": "https://dc.lft.to/lastmile_qr_scan"}, "fusion_lat": 0.0}, {"lat": 38.90713616666667, "lon": -77.0435535, "is_disabled": 0, "fusion_lon": 0.0, "is_reserved": 0, "name": "4646faf23e9bdf918138977e0f0138f1", "type": "electric_scooter", "bike_id": "4646faf23e9bdf918138977e0f0138f1", "rental_uris": {"ios": "https://dc.lft.to/lastmile_qr_scan", "android": "https://dc.lft.to/lastmile_qr_scan"}, "fusion_lat": 0.0}, {"lat": 38.92170566666667, "lon": -77.038347, "is_disabled": 0, "fusion_lon": 0.0, "is_reserved": 0, "name": "4d5e278d6548fa05c8cf52392c6b2876", "type": "electric_scooter", "bike_id": "4d5e278d6548fa05c8cf52392c6b2876", "rental_uris": {"ios": "https://dc.lft.to/lastmile_qr_scan", "android": "https://dc.lft.to/lastmile_qr_scan"}, "fusion_lat": 0.0}, {"lat": 38.877253333333336, "lon": -77.01762916666667, "is_disabled": 0, "fusion_lon": 0.0, "is_reserved": 0, "name": "a2d70a869cd1af84c240334ad57e0c0b", "type": "electric_scooter", "bike_id": "a2d70a869cd1af84c240334ad57e0c0b", "rental_uris": {"ios": "https://dc.lft.to/lastmile_qr_scan", "android": "https://dc.lft.to/lastmile_qr_scan"}, "fusion_lat": 0.0}, {"lat": 38.9238775, "lon": -77.02164583333334, "is_disabled": 0, "fusion_lon": 0.0, "is_reserved": 0, "name": "4c68e1bfd40b20413f761efb78ab1606", "type": "electric_scooter", "bike_id": "4c68e1bfd40b20413f761efb78ab1606", "rental_uris": {"ios": "https://dc.lft.to/lastmile_qr_scan", "android": "https://dc.lft.to/lastmile_qr_scan"}, "fusion_lat": 0.0}, {"lat": 38.901682666666666, "lon": -77.01612033333333, "is_disabled": 0, "fusion_lon": 0.0, "is_reserved": 0, "name": "147ea5cc30b0fd14cb34a7165eaa13bf", "type": "electric_scooter", "bike_id": "147ea5cc30b0fd14cb34a7165eaa13bf", "rental_uris": {"ios": "https://dc.lft.to/lastmile_qr_scan", "android": "https://dc.lft.to/lastmile_qr_scan"}, "fusion_lat": 0.0}, {"lat": 38.90044366666667, "lon": -77.00199366666666, "is_disabled": 0, "fusion_lon": 0.0, "is_reserved": 0, "name": "fef691984b4a0e16fbd0d0c59fd2545f", "type": "electric_scooter", "bike_id": "fef691984b4a0e16fbd0d0c59fd2545f", "rental_uris": {"ios": "https://dc.lft.to/lastmile_qr_scan", "android": "https://dc.lft.to/lastmile_qr_scan"}, "fusion_lat": 0.0}, {"lat": 38.90189616666667, "lon": -77.02348016666667, "is_disabled": 0, "fusion_lon": 0.0, "is_reserved": 0, "name": "f02aa85685134c20a395d67fc0de2fa0", "type": "electric_scooter", "bike_id": "f02aa85685134c20a395d67fc0de2fa0", "rental_uris": {"ios": "https://dc.lft.to/lastmile_qr_scan", "android": "https://dc.lft.to/lastmile_qr_scan"}, "fusion_lat": 0.0}, {"lat": 39.00310016666667, "lon": -76.90330166666666, "is_disabled": 0, "fusion_lon": 0.0, "is_reserved": 0, "name": "cc9f5eb4d8a3e52ba47534631e4ec348", "type": "electric_bike", "bike_id": "cc9f5eb4d8a3e52ba47534631e4ec348", "rental_uris": {"ios": "https://dc.lft.to/lastmile_qr_scan", "android": "https://dc.lft.to/lastmile_qr_scan"}, "fusion_lat": 0.0}, {"lat": 38.9180645, "lon": -77.01422533333333, "is_disabled": 0, "fusion_lon": 0.0, "is_reserved": 0, "name": "dd8cdbbea34076049b3c3ff88132b0a2", "type": "electric_scooter", "bike_id": "dd8cdbbea34076049b3c3ff88132b0a2", "rental_uris": {"ios": "https://dc.lft.to/lastmile_qr_scan", "android": "https://dc.lft.to/lastmile_qr_scan"}, "fusion_lat": 0.0}, {"lat": 38.91036716666667, "lon": -77.0650185, "is_disabled": 0, "fusion_lon": 0.0, "is_reserved": 0, "name": "7af375c61e824f81d0615f5c26b406ce", "type": "electric_scooter", "bike_id": "7af375c61e824f81d0615f5c26b406ce", "rental_uris": {"ios": "https://dc.lft.to/lastmile_qr_scan", "android": "https://dc.lft.to/lastmile_qr_scan"}, "fusion_lat": 0.0}, {"lat": 38.9073025, "lon": -77.02388883333333, "is_disabled": 0, "fusion_lon": 0.0, "is_reserved": 0, "name": "e60aae33126e8eb69357b900c2a86e76", "type": "electric_scooter", "bike_id": "e60aae33126e8eb69357b900c2a86e76", "rental_uris": {"ios": "https://dc.lft.to/lastmile_qr_scan", "android": "https://dc.lft.to/lastmile_qr_scan"}, "fusion_lat": 0.0}, {"lat": 38.945004, "lon": -77.03830583333334, "is_disabled": 0, "fusion_lon": 0.0, "is_reserved": 0, "name": "e2f2db7bde56de1c3f8b2eea168f649b", "type": "electric_scooter", "bike_id": "e2f2db7bde56de1c3f8b2eea168f649b", "rental_uris": {"ios": "https://dc.lft.to/lastmile_qr_scan", "android": "https://dc.lft.to/lastmile_qr_scan"}, "fusion_lat": 0.0}, {"lat": 38.92897, "lon": -77.0328915, "is_disabled": 0, "fusion_lon": 0.0, "is_reserved": 0, "name": "6916bf5200ca5e7b7fa5486b82257688", "type": "electric_scooter", "bike_id": "6916bf5200ca5e7b7fa5486b82257688", "rental_uris": {"ios": "https://dc.lft.to/lastmile_qr_scan", "android": "https://dc.lft.to/lastmile_qr_scan"}, "fusion_lat": 0.0}, {"lat": 38.9735, "lon": -77.027904, "is_disabled": 0, "fusion_lon": 0.0, "is_reserved": 0, "name": "4ddc722be26a5b897fe3789d92bc19e6", "type": "electric_scooter", "bike_id": "4ddc722be26a5b897fe3789d92bc19e6", "rental_uris": {"ios": "https://dc.lft.to/lastmile_qr_scan", "android": "https://dc.lft.to/lastmile_qr_scan"}, "fusion_lat": 0.0}, {"lat": 38.90730583333333, "lon": -77.023862, "is_disabled": 0, "fusion_lon": 0.0, "is_reserved": 0, "name": "7f885969778311685d04594a7dd00d6e", "type": "electric_scooter", "bike_id": "7f885969778311685d04594a7dd00d6e", "rental_uris": {"ios": "https://dc.lft.to/lastmile_qr_scan", "android": "https://dc.lft.to/lastmile_qr_scan"}, "fusion_lat": 0.0}, {"lat": 38.931889166666664, "lon": -77.0310525, "is_disabled": 0, "fusion_lon": 0.0, "is_reserved": 0, "name": "253280e23b5653b6f06a729921555efc", "type": "electric_scooter", "bike_id": "253280e23b5653b6f06a729921555efc", "rental_uris": {"ios": "https://dc.lft.to/lastmile_qr_scan", "android": "https://dc.lft.to/lastmile_qr_scan"}, "fusion_lat": 0.0}, {"lat": 38.92768566666667, "lon": -77.02782933333333, "is_disabled": 0, "fusion_lon": 0.0, "is_reserved": 0, "name": "2c213b736556011215ef626d57f2dbf8", "type": "electric_scooter", "bike_id": "2c213b736556011215ef626d57f2dbf8", "rental_uris": {"ios": "https://dc.lft.to/lastmile_qr_scan", "android": "https://dc.lft.to/lastmile_qr_scan"}, "fusion_lat": 0.0}, {"lat": 38.9178335, "lon": -77.03202033333334, "is_disabled": 0, "fusion_lon": 0.0, "is_reserved": 0, "name": "0d5891f5a321b1f0251d0dc6186abe2d", "type": "electric_scooter", "bike_id": "0d5891f5a321b1f0251d0dc6186abe2d", "rental_uris": {"ios": "https://dc.lft.to/lastmile_qr_scan", "android": "https://dc.lft.to/lastmile_qr_scan"}, "fusion_lat": 0.0}, {"lat": 38.92102416666667, "lon": -77.0177235, "is_disabled": 0, "fusion_lon": 0.0, "is_reserved": 0, "name": "218dac0844d04426a469160155d5a870", "type": "electric_scooter", "bike_id": "218dac0844d04426a469160155d5a870", "rental_uris": {"ios": "https://dc.lft.to/lastmile_qr_scan", "android": "https://dc.lft.to/lastmile_qr_scan"}, "fusion_lat": 0.0}, {"lat": 38.88197266666667, "lon": -77.0036475, "is_disabled": 0, "fusion_lon": 0.0, "is_reserved": 0, "name": "be63c08f48abb2aaa1982da184323951", "type": "electric_scooter", "bike_id": "be63c08f48abb2aaa1982da184323951", "rental_uris": {"ios": "https://dc.lft.to/lastmile_qr_scan", "android": "https://dc.lft.to/lastmile_qr_scan"}, "fusion_lat": 0.0}, {"lat": 38.9288015, "lon": -77.0361885, "is_disabled": 0, "fusion_lon": 0.0, "is_reserved": 0, "name": "57cff8573c4c9ffd5af6a521ca8add5b", "type": "electric_bike", "bike_id": "57cff8573c4c9ffd5af6a521ca8add5b", "rental_uris": {"ios": "https://dc.lft.to/lastmile_qr_scan", "android": "https://dc.lft.to/lastmile_qr_scan"}, "fusion_lat": 0.0}, {"lat": 38.9359895, "lon": -77.03656616666666, "is_disabled": 0, "fusion_lon": 0.0, "is_reserved": 0, "name": "8c642768b9b7a7e9a932b26ec4808bd5", "type": "electric_scooter", "bike_id": "8c642768b9b7a7e9a932b26ec4808bd5", "rental_uris": {"ios": "https://dc.lft.to/lastmile_qr_scan", "android": "https://dc.lft.to/lastmile_qr_scan"}, "fusion_lat": 0.0}, {"lat": 38.90266583333333, "lon": -77.026494, "is_disabled": 0, "fusion_lon": 0.0, "is_reserved": 0, "name": "5eb69f38ff24255030c1cd562fd3122f", "type": "electric_scooter", "bike_id": "5eb69f38ff24255030c1cd562fd3122f", "rental_uris": {"ios": "https://dc.lft.to/lastmile_qr_scan", "android": "https://dc.lft.to/lastmile_qr_scan"}, "fusion_lat": 0.0}, {"lat": 38.901985, "lon": -77.0237565, "is_disabled": 0, "fusion_lon": 0.0, "is_reserved": 0, "name": "c5bc53cab8aeb7b47df9517d7c9a9a62", "type": "electric_scooter", "bike_id": "c5bc53cab8aeb7b47df9517d7c9a9a62", "rental_uris": {"ios": "https://dc.lft.to/lastmile_qr_scan", "android": "https://dc.lft.to/lastmile_qr_scan"}, "fusion_lat": 0.0}, {"lat": 38.95060333333333, "lon": -77.08024516666667, "is_disabled": 0, "fusion_lon": 0.0, "is_reserved": 0, "name": "99b7a3814f337bef119717ce24733ca3", "type": "electric_scooter", "bike_id": "99b7a3814f337bef119717ce24733ca3", "rental_uris": {"ios": "https://dc.lft.to/lastmile_qr_scan", "android": "https://dc.lft.to/lastmile_qr_scan"}, "fusion_lat": 0.0}, {"lat": 38.898972, "lon": -76.999586, "is_disabled": 0, "fusion_lon": 0.0, "is_reserved": 0, "name": "475e39fbc95fd9f9b2c4af477b7ce177", "type": "electric_scooter", "bike_id": "475e39fbc95fd9f9b2c4af477b7ce177", "rental_uris": {"ios": "https://dc.lft.to/lastmile_qr_scan", "android": "https://dc.lft.to/lastmile_qr_scan"}, "fusion_lat": 0.0}, {"lat": 38.917224833333336, "lon": -77.0258535, "is_disabled": 0, "fusion_lon": 0.0, "is_reserved": 0, "name": "b2e97c1ef491b166d905eed54b00372e", "type": "electric_scooter", "bike_id": "b2e97c1ef491b166d905eed54b00372e", "rental_uris": {"ios": "https://dc.lft.to/lastmile_qr_scan", "android": "https://dc.lft.to/lastmile_qr_scan"}, "fusion_lat": 0.0}, {"lat": 38.9344325, "lon": -77.09059616666667, "is_disabled": 0, "fusion_lon": 0.0, "is_reserved": 0, "name": "5ff9364517153181aa6e191f93ff5986", "type": "electric_scooter", "bike_id": "5ff9364517153181aa6e191f93ff5986", "rental_uris": {"ios": "https://dc.lft.to/lastmile_qr_scan", "android": "https://dc.lft.to/lastmile_qr_scan"}, "fusion_lat": 0.0}, {"lat": 38.91412016666666, "lon": -77.00876833333334, "is_disabled": 0, "fusion_lon": 0.0, "is_reserved": 0, "name": "dcaa8943c53f59c909f6063191c344ab", "type": "electric_scooter", "bike_id": "dcaa8943c53f59c909f6063191c344ab", "rental_uris": {"ios": "https://dc.lft.to/lastmile_qr_scan", "android": "https://dc.lft.to/lastmile_qr_scan"}, "fusion_lat": 0.0}, {"lat": 38.87578083333333, "lon": -77.2341125, "is_disabled": 0, "fusion_lon": 0.0, "is_reserved": 0, "name": "811a0de4f94203f5a6d614926af50dc4", "type": "electric_bike", "bike_id": "811a0de4f94203f5a6d614926af50dc4", "rental_uris": {"ios": "https://dc.lft.to/lastmile_qr_scan", "android": "https://dc.lft.to/lastmile_qr_scan"}, "fusion_lat": 0.0}, {"lat": 38.90717716666666, "lon": -77.02679, "is_disabled": 0, "fusion_lon": 0.0, "is_reserved": 0, "name": "57e5e347ede9aa6e97bafcf791190829", "type": "electric_scooter", "bike_id": "57e5e347ede9aa6e97bafcf791190829", "rental_uris": {"ios": "https://dc.lft.to/lastmile_qr_scan", "android": "https://dc.lft.to/lastmile_qr_scan"}, "fusion_lat": 0.0}, {"lat": 38.8998915, "lon": -77.02721233333334, "is_disabled": 0, "fusion_lon": 0.0, "is_reserved": 0, "name": "0a3fd40b000f4c7d2fce31241dafd2ad", "type": "electric_scooter", "bike_id": "0a3fd40b000f4c7d2fce31241dafd2ad", "rental_uris": {"ios": "https://dc.lft.to/lastmile_qr_scan", "android": "https://dc.lft.to/lastmile_qr_scan"}, "fusion_lat": 0.0}, {"lat": 38.90034716666667, "lon": -76.99835333333333, "is_disabled": 0, "fusion_lon": 0.0, "is_reserved": 0, "name": "ef42dddaef80409d50b221258d5d2664", "type": "electric_scooter", "bike_id": "ef42dddaef80409d50b221258d5d2664", "rental_uris": {"ios": "https://dc.lft.to/lastmile_qr_scan", "android": "https://dc.lft.to/lastmile_qr_scan"}, "fusion_lat": 0.0}, {"lat": 38.905843833333336, "lon": -77.00880483333333, "is_disabled": 0, "fusion_lon": 0.0, "is_reserved": 0, "name": "26b795052ea7873c6b9ea5c0163c2051", "type": "electric_scooter", "bike_id": "26b795052ea7873c6b9ea5c0163c2051", "rental_uris": {"ios": "https://dc.lft.to/lastmile_qr_scan", "android": "https://dc.lft.to/lastmile_qr_scan"}, "fusion_lat": 0.0}, {"lat": 38.91177483333333, "lon": -77.03508066666667, "is_disabled": 0, "fusion_lon": 0.0, "is_reserved": 0, "name": "d1c0290a23aa19cfc193e7cea737b707", "type": "electric_scooter", "bike_id": "d1c0290a23aa19cfc193e7cea737b707", "rental_uris": {"ios": "https://dc.lft.to/lastmile_qr_scan", "android": "https://dc.lft.to/lastmile_qr_scan"}, "fusion_lat": 0.0}, {"lat": 38.89903983333333, "lon": -76.945585, "is_disabled": 0, "fusion_lon": 0.0, "is_reserved": 0, "name": "7b7cf861ea696e228d9ea919b4ff22cb", "type": "electric_scooter", "bike_id": "7b7cf861ea696e228d9ea919b4ff22cb", "rental_uris": {"ios": "https://dc.lft.to/lastmile_qr_scan", "android": "https://dc.lft.to/lastmile_qr_scan"}, "fusion_lat": 0.0}, {"lat": 38.9179785, "lon": -77.024884, "is_disabled": 0, "fusion_lon": 0.0, "is_reserved": 0, "name": "163fb4ccba77efc7e7d78edb665dd525", "type": "electric_scooter", "bike_id": "163fb4ccba77efc7e7d78edb665dd525", "rental_uris": {"ios": "https://dc.lft.to/lastmile_qr_scan", "android": "https://dc.lft.to/lastmile_qr_scan"}, "fusion_lat": 0.0}, {"lat": 38.89682583333333, "lon": -76.93712966666666, "is_disabled": 0, "fusion_lon": 0.0, "is_reserved": 0, "name": "c9e122d3d481ceba0d4c103d013838c0", "type": "electric_scooter", "bike_id": "c9e122d3d481ceba0d4c103d013838c0", "rental_uris": {"ios": "https://dc.lft.to/lastmile_qr_scan", "android": "https://dc.lft.to/lastmile_qr_scan"}, "fusion_lat": 0.0}, {"lat": 38.91521783333334, "lon": -77.0486215, "is_disabled": 0, "fusion_lon": 0.0, "is_reserved": 0, "name": "cdeedcd2c1d05db6eb7265976a088526", "type": "electric_scooter", "bike_id": "cdeedcd2c1d05db6eb7265976a088526", "rental_uris": {"ios": "https://dc.lft.to/lastmile_qr_scan", "android": "https://dc.lft.to/lastmile_qr_scan"}, "fusion_lat": 0.0}, {"lat": 38.9258865, "lon": -77.09687933333333, "is_disabled": 0, "fusion_lon": 0.0, "is_reserved": 0, "name": "7b7e04644a3e76904b72cad0ea1078fa", "type": "electric_scooter", "bike_id": "7b7e04644a3e76904b72cad0ea1078fa", "rental_uris": {"ios": "https://dc.lft.to/lastmile_qr_scan", "android": "https://dc.lft.to/lastmile_qr_scan"}, "fusion_lat": 0.0}, {"lat": 38.9057155, "lon": -77.0343465, "is_disabled": 0, "fusion_lon": 0.0, "is_reserved": 0, "name": "2341685abd0c1f866485e65277aaa807", "type": "electric_scooter", "bike_id": "2341685abd0c1f866485e65277aaa807", "rental_uris": {"ios": "https://dc.lft.to/lastmile_qr_scan", "android": "https://dc.lft.to/lastmile_qr_scan"}, "fusion_lat": 0.0}, {"lat": 38.9083965, "lon": -76.99761416666666, "is_disabled": 0, "fusion_lon": 0.0, "is_reserved": 0, "name": "df092218f837d5da306c4049d8726618", "type": "electric_scooter", "bike_id": "df092218f837d5da306c4049d8726618", "rental_uris": {"ios": "https://dc.lft.to/lastmile_qr_scan", "android": "https://dc.lft.to/lastmile_qr_scan"}, "fusion_lat": 0.0}, {"lat": 38.90526116666667, "lon": -77.053267, "is_disabled": 0, "fusion_lon": 0.0, "is_reserved": 0, "name": "850a19bbb8a0b3f071d46a9444c6f2b6", "type": "electric_scooter", "bike_id": "850a19bbb8a0b3f071d46a9444c6f2b6", "rental_uris": {"ios": "https://dc.lft.to/lastmile_qr_scan", "android": "https://dc.lft.to/lastmile_qr_scan"}, "fusion_lat": 0.0}, {"lat": 38.922991333333336, "lon": -77.04271133333333, "is_disabled": 0, "fusion_lon": 0.0, "is_reserved": 0, "name": "3fb0d731baeb0ce7804872583f1d2683", "type": "electric_scooter", "bike_id": "3fb0d731baeb0ce7804872583f1d2683", "rental_uris": {"ios": "https://dc.lft.to/lastmile_qr_scan", "android": "https://dc.lft.to/lastmile_qr_scan"}, "fusion_lat": 0.0}, {"lat": 38.901489166666664, "lon": -76.93068933333333, "is_disabled": 0, "fusion_lon": 0.0, "is_reserved": 0, "name": "b89ceb11a614ba5e7b13e8a48dfb45b6", "type": "electric_scooter", "bike_id": "b89ceb11a614ba5e7b13e8a48dfb45b6", "rental_uris": {"ios": "https://dc.lft.to/lastmile_qr_scan", "android": "https://dc.lft.to/lastmile_qr_scan"}, "fusion_lat": 0.0}, {"lat": 38.924238333333335, "lon": -77.05182466666666, "is_disabled": 0, "fusion_lon": 0.0, "is_reserved": 0, "name": "90754ce539cbca60936fa20d0b309392", "type": "electric_scooter", "bike_id": "90754ce539cbca60936fa20d0b309392", "rental_uris": {"ios": "https://dc.lft.to/lastmile_qr_scan", "android": "https://dc.lft.to/lastmile_qr_scan"}, "fusion_lat": 0.0}, {"lat": 38.901981, "lon": -77.0237265, "is_disabled": 0, "fusion_lon": 0.0, "is_reserved": 0, "name": "1e0a37b41e4c2953c6f58239dda46668", "type": "electric_scooter", "bike_id": "1e0a37b41e4c2953c6f58239dda46668", "rental_uris": {"ios": "https://dc.lft.to/lastmile_qr_scan", "android": "https://dc.lft.to/lastmile_qr_scan"}, "fusion_lat": 0.0}, {"lat": 38.88078383333333, "lon": -76.98531533333333, "is_disabled": 0, "fusion_lon": 0.0, "is_reserved": 0, "name": "f93175850e116278298ad2ce8df25fdc", "type": "electric_bike", "bike_id": "f93175850e116278298ad2ce8df25fdc", "rental_uris": {"ios": "https://dc.lft.to/lastmile_qr_scan", "android": "https://dc.lft.to/lastmile_qr_scan"}, "fusion_lat": 0.0}, {"lat": 38.950544, "lon": -77.08027883333334, "is_disabled": 0, "fusion_lon": 0.0, "is_reserved": 0, "name": "cad8c1c13792472c248f6a051fab4b51", "type": "electric_scooter", "bike_id": "cad8c1c13792472c248f6a051fab4b51", "rental_uris": {"ios": "https://dc.lft.to/lastmile_qr_scan", "android": "https://dc.lft.to/lastmile_qr_scan"}, "fusion_lat": 0.0}, {"lat": 38.9348125, "lon": -77.0360515, "is_disabled": 0, "fusion_lon": 0.0, "is_reserved": 0, "name": "e5c174cfa6a4b73205c69ff7345db809", "type": "electric_scooter", "bike_id": "e5c174cfa6a4b73205c69ff7345db809", "rental_uris": {"ios": "https://dc.lft.to/lastmile_qr_scan", "android": "https://dc.lft.to/lastmile_qr_scan"}, "fusion_lat": 0.0}, {"lat": 38.87556433333334, "lon": -77.00604616666666, "is_disabled": 0, "fusion_lon": 0.0, "is_reserved": 0, "name": "2f9a947422222c00965fb4c9d6517a0e", "type": "electric_scooter", "bike_id": "2f9a947422222c00965fb4c9d6517a0e", "rental_uris": {"ios": "https://dc.lft.to/lastmile_qr_scan", "android": "https://dc.lft.to/lastmile_qr_scan"}, "fusion_lat": 0.0}, {"lat": 38.9203445, "lon": -77.02589666666667, "is_disabled": 0, "fusion_lon": 0.0, "is_reserved": 0, "name": "5d7c59821621ae2b9b049c35dce752e9", "type": "electric_scooter", "bike_id": "5d7c59821621ae2b9b049c35dce752e9", "rental_uris": {"ios": "https://dc.lft.to/lastmile_qr_scan", "android": "https://dc.lft.to/lastmile_qr_scan"}, "fusion_lat": 0.0}, {"lat": 38.900086, "lon": -77.02409433333334, "is_disabled": 0, "fusion_lon": 0.0, "is_reserved": 0, "name": "05c317fa0d9c4fba67e701a0971d1485", "type": "electric_scooter", "bike_id": "05c317fa0d9c4fba67e701a0971d1485", "rental_uris": {"ios": "https://dc.lft.to/lastmile_qr_scan", "android": "https://dc.lft.to/lastmile_qr_scan"}, "fusion_lat": 0.0}, {"lat": 38.9271445, "lon": -77.02083366666666, "is_disabled": 0, "fusion_lon": 0.0, "is_reserved": 0, "name": "9e0ed3cb39b2183a0117e16b52a791d8", "type": "electric_scooter", "bike_id": "9e0ed3cb39b2183a0117e16b52a791d8", "rental_uris": {"ios": "https://dc.lft.to/lastmile_qr_scan", "android": "https://dc.lft.to/lastmile_qr_scan"}, "fusion_lat": 0.0}, {"lat": 38.9303105, "lon": -77.02332483333333, "is_disabled": 0, "fusion_lon": 0.0, "is_reserved": 0, "name": "7a1ba9efe0e31c4f7b382a899cc276a8", "type": "electric_scooter", "bike_id": "7a1ba9efe0e31c4f7b382a899cc276a8", "rental_uris": {"ios": "https://dc.lft.to/lastmile_qr_scan", "android": "https://dc.lft.to/lastmile_qr_scan"}, "fusion_lat": 0.0}, {"lat": 38.911622666666666, "lon": -77.01310166666667, "is_disabled": 0, "fusion_lon": 0.0, "is_reserved": 0, "name": "cd7d69b674540a28715d8daeeb977843", "type": "electric_scooter", "bike_id": "cd7d69b674540a28715d8daeeb977843", "rental_uris": {"ios": "https://dc.lft.to/lastmile_qr_scan", "android": "https://dc.lft.to/lastmile_qr_scan"}, "fusion_lat": 0.0}, {"lat": 38.92363566666667, "lon": -77.0206835, "is_disabled": 0, "fusion_lon": 0.0, "is_reserved": 0, "name": "8caed1432d9423107ea595ca409306d1", "type": "electric_scooter", "bike_id": "8caed1432d9423107ea595ca409306d1", "rental_uris": {"ios": "https://dc.lft.to/lastmile_qr_scan", "android": "https://dc.lft.to/lastmile_qr_scan"}, "fusion_lat": 0.0}, {"lat": 38.973485333333336, "lon": -77.02787733333334, "is_disabled": 0, "fusion_lon": 0.0, "is_reserved": 0, "name": "c379a3d9ca448a42e6ab85abffdfd6fd", "type": "electric_scooter", "bike_id": "c379a3d9ca448a42e6ab85abffdfd6fd", "rental_uris": {"ios": "https://dc.lft.to/lastmile_qr_scan", "android": "https://dc.lft.to/lastmile_qr_scan"}, "fusion_lat": 0.0}, {"lat": 38.924223833333336, "lon": -76.99712283333334, "is_disabled": 0, "fusion_lon": 0.0, "is_reserved": 0, "name": "c17c1e41f4427e73a4d12753a3b67f1e", "type": "electric_scooter", "bike_id": "c17c1e41f4427e73a4d12753a3b67f1e", "rental_uris": {"ios": "https://dc.lft.to/lastmile_qr_scan", "android": "https://dc.lft.to/lastmile_qr_scan"}, "fusion_lat": 0.0}, {"lat": 38.9097155, "lon": -77.05192833333334, "is_disabled": 0, "fusion_lon": 0.0, "is_reserved": 0, "name": "e30056e87c9d5d97b6eac9e48f5e0f42", "type": "electric_scooter", "bike_id": "e30056e87c9d5d97b6eac9e48f5e0f42", "rental_uris": {"ios": "https://dc.lft.to/lastmile_qr_scan", "android": "https://dc.lft.to/lastmile_qr_scan"}, "fusion_lat": 0.0}, {"lat": 38.887336833333336, "lon": -77.0212495, "is_disabled": 0, "fusion_lon": 0.0, "is_reserved": 0, "name": "0c0cef2262bc35c787f518793f663838", "type": "electric_scooter", "bike_id": "0c0cef2262bc35c787f518793f663838", "rental_uris": {"ios": "https://dc.lft.to/lastmile_qr_scan", "android": "https://dc.lft.to/lastmile_qr_scan"}, "fusion_lat": 0.0}, {"lat": 38.863914, "lon": -77.20110533333333, "is_disabled": 0, "fusion_lon": 0.0, "is_reserved": 0, "name": "e707a0a455c75b5a94763706653d4fda", "type": "electric_bike", "bike_id": "e707a0a455c75b5a94763706653d4fda", "rental_uris": {"ios": "https://dc.lft.to/lastmile_qr_scan", "android": "https://dc.lft.to/lastmile_qr_scan"}, "fusion_lat": 0.0}, {"lat": 38.8419185, "lon": -77.0675975, "is_disabled": 0, "fusion_lon": 0.0, "is_reserved": 0, "name": "04c381cebc688f9ee7692298b989b03f", "type": "electric_bike", "bike_id": "04c381cebc688f9ee7692298b989b03f", "rental_uris": {"ios": "https://dc.lft.to/lastmile_qr_scan", "android": "https://dc.lft.to/lastmile_qr_scan"}, "fusion_lat": 0.0}, {"lat": 38.91799233333333, "lon": -77.02486566666667, "is_disabled": 0, "fusion_lon": 0.0, "is_reserved": 0, "name": "37228278b6578d40c39391443d662c54", "type": "electric_scooter", "bike_id": "37228278b6578d40c39391443d662c54", "rental_uris": {"ios": "https://dc.lft.to/lastmile_qr_scan", "android": "https://dc.lft.to/lastmile_qr_scan"}, "fusion_lat": 0.0}, {"lat": 38.8935075, "lon": -77.00344066666666, "is_disabled": 0, "fusion_lon": 0.0, "is_reserved": 0, "name": "17ef51bdc11dbbcf2cd128b154d96ae4", "type": "electric_scooter", "bike_id": "17ef51bdc11dbbcf2cd128b154d96ae4", "rental_uris": {"ios": "https://dc.lft.to/lastmile_qr_scan", "android": "https://dc.lft.to/lastmile_qr_scan"}, "fusion_lat": 0.0}, {"lat": 38.907289, "lon": -77.057153, "is_disabled": 0, "fusion_lon": 0.0, "is_reserved": 0, "name": "3b3214dd30a75f5beaa99080c80722bd", "type": "electric_scooter", "bike_id": "3b3214dd30a75f5beaa99080c80722bd", "rental_uris": {"ios": "https://dc.lft.to/lastmile_qr_scan", "android": "https://dc.lft.to/lastmile_qr_scan"}, "fusion_lat": 0.0}, {"lat": 38.96586216666667, "lon": -77.01593033333333, "is_disabled": 0, "fusion_lon": 0.0, "is_reserved": 0, "name": "73d709e6f9bd6ed7ec46e2738df1ed56", "type": "electric_scooter", "bike_id": "73d709e6f9bd6ed7ec46e2738df1ed56", "rental_uris": {"ios": "https://dc.lft.to/lastmile_qr_scan", "android": "https://dc.lft.to/lastmile_qr_scan"}, "fusion_lat": 0.0}, {"lat": 38.9054085, "lon": -77.04867616666667, "is_disabled": 0, "fusion_lon": 0.0, "is_reserved": 0, "name": "7fcc7aec188f49e964c13b36839520d6", "type": "electric_scooter", "bike_id": "7fcc7aec188f49e964c13b36839520d6", "rental_uris": {"ios": "https://dc.lft.to/lastmile_qr_scan", "android": "https://dc.lft.to/lastmile_qr_scan"}, "fusion_lat": 0.0}, {"lat": 38.923843, "lon": -77.03103266666666, "is_disabled": 0, "fusion_lon": 0.0, "is_reserved": 0, "name": "4d6c68204ffa0d10f6c11d92272cb1b3", "type": "electric_scooter", "bike_id": "4d6c68204ffa0d10f6c11d92272cb1b3", "rental_uris": {"ios": "https://dc.lft.to/lastmile_qr_scan", "android": "https://dc.lft.to/lastmile_qr_scan"}, "fusion_lat": 0.0}, {"lat": 38.90259616666667, "lon": -77.02612666666667, "is_disabled": 0, "fusion_lon": 0.0, "is_reserved": 0, "name": "29b50a7cb389ad3befa61021a3158b4e", "type": "electric_scooter", "bike_id": "29b50a7cb389ad3befa61021a3158b4e", "rental_uris": {"ios": "https://dc.lft.to/lastmile_qr_scan", "android": "https://dc.lft.to/lastmile_qr_scan"}, "fusion_lat": 0.0}, {"lat": 38.936383, "lon": -77.03664716666667, "is_disabled": 0, "fusion_lon": 0.0, "is_reserved": 0, "name": "872d8075b2d73901a64f9ba3d701a577", "type": "electric_bike", "bike_id": "872d8075b2d73901a64f9ba3d701a577", "rental_uris": {"ios": "https://dc.lft.to/lastmile_qr_scan", "android": "https://dc.lft.to/lastmile_qr_scan"}, "fusion_lat": 0.0}, {"lat": 38.913864333333336, "lon": -76.9841235, "is_disabled": 0, "fusion_lon": 0.0, "is_reserved": 0, "name": "7a5a22a8c8ab0fabe9be90381b6e6e6c", "type": "electric_scooter", "bike_id": "7a5a22a8c8ab0fabe9be90381b6e6e6c", "rental_uris": {"ios": "https://dc.lft.to/lastmile_qr_scan", "android": "https://dc.lft.to/lastmile_qr_scan"}, "fusion_lat": 0.0}, {"lat": 38.92638616666667, "lon": -77.038451, "is_disabled": 0, "fusion_lon": 0.0, "is_reserved": 0, "name": "11be3d6ed163970ad070fbacc87ff12e", "type": "electric_scooter", "bike_id": "11be3d6ed163970ad070fbacc87ff12e", "rental_uris": {"ios": "https://dc.lft.to/lastmile_qr_scan", "android": "https://dc.lft.to/lastmile_qr_scan"}, "fusion_lat": 0.0}, {"lat": 38.902812, "lon": -77.0346555, "is_disabled": 0, "fusion_lon": 0.0, "is_reserved": 0, "name": "3936b20b8deb662137b43efd7a1cafa9", "type": "electric_scooter", "bike_id": "3936b20b8deb662137b43efd7a1cafa9", "rental_uris": {"ios": "https://dc.lft.to/lastmile_qr_scan", "android": "https://dc.lft.to/lastmile_qr_scan"}, "fusion_lat": 0.0}, {"lat": 38.8899575, "lon": -76.98373366666667, "is_disabled": 0, "fusion_lon": 0.0, "is_reserved": 0, "name": "218a89db5296563cb1ce7dacefbb6396", "type": "electric_scooter", "bike_id": "218a89db5296563cb1ce7dacefbb6396", "rental_uris": {"ios": "https://dc.lft.to/lastmile_qr_scan", "android": "https://dc.lft.to/lastmile_qr_scan"}, "fusion_lat": 0.0}, {"lat": 38.87624066666667, "lon": -77.01479983333333, "is_disabled": 0, "fusion_lon": 0.0, "is_reserved": 0, "name": "0df0f76911d50bac5b87e4f36eaadf08", "type": "electric_scooter", "bike_id": "0df0f76911d50bac5b87e4f36eaadf08", "rental_uris": {"ios": "https://dc.lft.to/lastmile_qr_scan", "android": "https://dc.lft.to/lastmile_qr_scan"}, "fusion_lat": 0.0}, {"lat": 38.93213866666667, "lon": -77.032695, "is_disabled": 0, "fusion_lon": 0.0, "is_reserved": 0, "name": "b886f83fa169ec346232200e31c908d5", "type": "electric_scooter", "bike_id": "b886f83fa169ec346232200e31c908d5", "rental_uris": {"ios": "https://dc.lft.to/lastmile_qr_scan", "android": "https://dc.lft.to/lastmile_qr_scan"}, "fusion_lat": 0.0}, {"lat": 38.9002355, "lon": -77.01192466666667, "is_disabled": 0, "fusion_lon": 0.0, "is_reserved": 0, "name": "8b032ce77975444a1ed3454640588c1f", "type": "electric_scooter", "bike_id": "8b032ce77975444a1ed3454640588c1f", "rental_uris": {"ios": "https://dc.lft.to/lastmile_qr_scan", "android": "https://dc.lft.to/lastmile_qr_scan"}, "fusion_lat": 0.0}, {"lat": 38.90956666666666, "lon": -77.03426183333333, "is_disabled": 0, "fusion_lon": 0.0, "is_reserved": 0, "name": "c2ec32940595b08c511b079139ccfa14", "type": "electric_scooter", "bike_id": "c2ec32940595b08c511b079139ccfa14", "rental_uris": {"ios": "https://dc.lft.to/lastmile_qr_scan", "android": "https://dc.lft.to/lastmile_qr_scan"}, "fusion_lat": 0.0}, {"lat": 38.924455, "lon": -77.02173166666667, "is_disabled": 0, "fusion_lon": 0.0, "is_reserved": 0, "name": "4b963e07004e84808cff642629df7cb5", "type": "electric_scooter", "bike_id": "4b963e07004e84808cff642629df7cb5", "rental_uris": {"ios": "https://dc.lft.to/lastmile_qr_scan", "android": "https://dc.lft.to/lastmile_qr_scan"}, "fusion_lat": 0.0}, {"lat": 38.907898333333335, "lon": -77.06359333333333, "is_disabled": 0, "fusion_lon": 0.0, "is_reserved": 0, "name": "90a74d83152b1c6dfccb192d99011ba9", "type": "electric_scooter", "bike_id": "90a74d83152b1c6dfccb192d99011ba9", "rental_uris": {"ios": "https://dc.lft.to/lastmile_qr_scan", "android": "https://dc.lft.to/lastmile_qr_scan"}, "fusion_lat": 0.0}, {"lat": 38.9083195, "lon": -77.03545083333333, "is_disabled": 0, "fusion_lon": 0.0, "is_reserved": 0, "name": "5fe6a82e0e5e62c77e3f8f97fa1fc73a", "type": "electric_scooter", "bike_id": "5fe6a82e0e5e62c77e3f8f97fa1fc73a", "rental_uris": {"ios": "https://dc.lft.to/lastmile_qr_scan", "android": "https://dc.lft.to/lastmile_qr_scan"}, "fusion_lat": 0.0}, {"lat": 38.898314666666664, "lon": -76.94638016666667, "is_disabled": 0, "fusion_lon": 0.0, "is_reserved": 0, "name": "d71ca5fe3741fd5d945d8f880dd11742", "type": "electric_scooter", "bike_id": "d71ca5fe3741fd5d945d8f880dd11742", "rental_uris": {"ios": "https://dc.lft.to/lastmile_qr_scan", "android": "https://dc.lft.to/lastmile_qr_scan"}, "fusion_lat": 0.0}, {"lat": 38.91709383333333, "lon": -77.03866566666666, "is_disabled": 0, "fusion_lon": 0.0, "is_reserved": 0, "name": "f3b7dcb81207bf7a354d37a6d3f3bb7f", "type": "electric_scooter", "bike_id": "f3b7dcb81207bf7a354d37a6d3f3bb7f", "rental_uris": {"ios": "https://dc.lft.to/lastmile_qr_scan", "android": "https://dc.lft.to/lastmile_qr_scan"}, "fusion_lat": 0.0}, {"lat": 38.895172, "lon": -77.02819133333334, "is_disabled": 0, "fusion_lon": 0.0, "is_reserved": 0, "name": "d7c01ed9fef10a9b2832caac7cfdd98b", "type": "electric_scooter", "bike_id": "d7c01ed9fef10a9b2832caac7cfdd98b", "rental_uris": {"ios": "https://dc.lft.to/lastmile_qr_scan", "android": "https://dc.lft.to/lastmile_qr_scan"}, "fusion_lat": 0.0}, {"lat": 38.8739845, "lon": -77.01451883333333, "is_disabled": 0, "fusion_lon": 0.0, "is_reserved": 0, "name": "2d812e236b14f94961dbbda1570332aa", "type": "electric_scooter", "bike_id": "2d812e236b14f94961dbbda1570332aa", "rental_uris": {"ios": "https://dc.lft.to/lastmile_qr_scan", "android": "https://dc.lft.to/lastmile_qr_scan"}, "fusion_lat": 0.0}, {"lat": 38.91771683333333, "lon": -77.04421316666667, "is_disabled": 0, "fusion_lon": 0.0, "is_reserved": 0, "name": "8db0318ec180651893f76edfbef345b7", "type": "electric_scooter", "bike_id": "8db0318ec180651893f76edfbef345b7", "rental_uris": {"ios": "https://dc.lft.to/lastmile_qr_scan", "android": "https://dc.lft.to/lastmile_qr_scan"}, "fusion_lat": 0.0}, {"lat": 38.87466516666667, "lon": -77.0046775, "is_disabled": 0, "fusion_lon": 0.0, "is_reserved": 0, "name": "c01337f5bceddeb416219cbe23274b36", "type": "electric_scooter", "bike_id": "c01337f5bceddeb416219cbe23274b36", "rental_uris": {"ios": "https://dc.lft.to/lastmile_qr_scan", "android": "https://dc.lft.to/lastmile_qr_scan"}, "fusion_lat": 0.0}, {"lat": 38.903360166666666, "lon": -77.03550866666667, "is_disabled": 0, "fusion_lon": 0.0, "is_reserved": 0, "name": "dbb5539746067a17d8dacde5b3d39739", "type": "electric_scooter", "bike_id": "dbb5539746067a17d8dacde5b3d39739", "rental_uris": {"ios": "https://dc.lft.to/lastmile_qr_scan", "android": "https://dc.lft.to/lastmile_qr_scan"}, "fusion_lat": 0.0}, {"lat": 38.872680833333334, "lon": -77.01361183333333, "is_disabled": 0, "fusion_lon": 0.0, "is_reserved": 0, "name": "63e53d0b4dd5dbc8b1abfdd6e6d5b790", "type": "electric_scooter", "bike_id": "63e53d0b4dd5dbc8b1abfdd6e6d5b790", "rental_uris": {"ios": "https://dc.lft.to/lastmile_qr_scan", "android": "https://dc.lft.to/lastmile_qr_scan"}, "fusion_lat": 0.0}, {"lat": 38.86967966666667, "lon": -76.97854216666667, "is_disabled": 0, "fusion_lon": 0.0, "is_reserved": 0, "name": "4b2ab206663e116084dbfdb4d4d23a0f", "type": "electric_scooter", "bike_id": "4b2ab206663e116084dbfdb4d4d23a0f", "rental_uris": {"ios": "https://dc.lft.to/lastmile_qr_scan", "android": "https://dc.lft.to/lastmile_qr_scan"}, "fusion_lat": 0.0}, {"lat": 38.942523666666666, "lon": -77.03631816666666, "is_disabled": 0, "fusion_lon": 0.0, "is_reserved": 0, "name": "46032a57757d8c2e24388b93eeee9e3e", "type": "electric_scooter", "bike_id": "46032a57757d8c2e24388b93eeee9e3e", "rental_uris": {"ios": "https://dc.lft.to/lastmile_qr_scan", "android": "https://dc.lft.to/lastmile_qr_scan"}, "fusion_lat": 0.0}, {"lat": 38.91715583333333, "lon": -77.02405233333333, "is_disabled": 0, "fusion_lon": 0.0, "is_reserved": 0, "name": "0cd098936e2e132e0eb2ed54c5cb8ece", "type": "electric_scooter", "bike_id": "0cd098936e2e132e0eb2ed54c5cb8ece", "rental_uris": {"ios": "https://dc.lft.to/lastmile_qr_scan", "android": "https://dc.lft.to/lastmile_qr_scan"}, "fusion_lat": 0.0}, {"lat": 38.87376883333334, "lon": -77.00086333333333, "is_disabled": 0, "fusion_lon": 0.0, "is_reserved": 0, "name": "ce69155df396583e0fa82394d1064022", "type": "electric_scooter", "bike_id": "ce69155df396583e0fa82394d1064022", "rental_uris": {"ios": "https://dc.lft.to/lastmile_qr_scan", "android": "https://dc.lft.to/lastmile_qr_scan"}, "fusion_lat": 0.0}, {"lat": 38.894972833333334, "lon": -77.00360783333333, "is_disabled": 0, "fusion_lon": 0.0, "is_reserved": 0, "name": "69384cb87e5d72a4365b4df43ed4d0c3", "type": "electric_scooter", "bike_id": "69384cb87e5d72a4365b4df43ed4d0c3", "rental_uris": {"ios": "https://dc.lft.to/lastmile_qr_scan", "android": "https://dc.lft.to/lastmile_qr_scan"}, "fusion_lat": 0.0}, {"lat": 38.89764533333334, "lon": -77.0271965, "is_disabled": 0, "fusion_lon": 0.0, "is_reserved": 0, "name": "879f00e78a4107c052bdf46df2a1f8dd", "type": "electric_scooter", "bike_id": "879f00e78a4107c052bdf46df2a1f8dd", "rental_uris": {"ios": "https://dc.lft.to/lastmile_qr_scan", "android": "https://dc.lft.to/lastmile_qr_scan"}, "fusion_lat": 0.0}, {"lat": 38.900824666666665, "lon": -77.04904333333333, "is_disabled": 0, "fusion_lon": 0.0, "is_reserved": 0, "name": "1082b335aa7b4c860c468a5ce8313585", "type": "electric_scooter", "bike_id": "1082b335aa7b4c860c468a5ce8313585", "rental_uris": {"ios": "https://dc.lft.to/lastmile_qr_scan", "android": "https://dc.lft.to/lastmile_qr_scan"}, "fusion_lat": 0.0}, {"lat": 38.88260983333333, "lon": -77.00559716666666, "is_disabled": 0, "fusion_lon": 0.0, "is_reserved": 0, "name": "68cc5c93f311d095d87b82b734297ef3", "type": "electric_scooter", "bike_id": "68cc5c93f311d095d87b82b734297ef3", "rental_uris": {"ios": "https://dc.lft.to/lastmile_qr_scan", "android": "https://dc.lft.to/lastmile_qr_scan"}, "fusion_lat": 0.0}, {"lat": 38.898778, "lon": -77.05007066666667, "is_disabled": 0, "fusion_lon": 0.0, "is_reserved": 0, "name": "ed932648d97214d44b028c716ccd4cc8", "type": "electric_scooter", "bike_id": "ed932648d97214d44b028c716ccd4cc8", "rental_uris": {"ios": "https://dc.lft.to/lastmile_qr_scan", "android": "https://dc.lft.to/lastmile_qr_scan"}, "fusion_lat": 0.0}, {"lat": 38.9169465, "lon": -77.037638, "is_disabled": 0, "fusion_lon": 0.0, "is_reserved": 0, "name": "18646564ad607184c37d5bca30167ad3", "type": "electric_bike", "bike_id": "18646564ad607184c37d5bca30167ad3", "rental_uris": {"ios": "https://dc.lft.to/lastmile_qr_scan", "android": "https://dc.lft.to/lastmile_qr_scan"}, "fusion_lat": 0.0}, {"lat": 38.9234365, "lon": -77.05172633333333, "is_disabled": 0, "fusion_lon": 0.0, "is_reserved": 0, "name": "94a3ad28f9d666fe4b8a67daf302a78c", "type": "electric_scooter", "bike_id": "94a3ad28f9d666fe4b8a67daf302a78c", "rental_uris": {"ios": "https://dc.lft.to/lastmile_qr_scan", "android": "https://dc.lft.to/lastmile_qr_scan"}, "fusion_lat": 0.0}, {"lat": 38.9012955, "lon": -76.99735916666667, "is_disabled": 0, "fusion_lon": 0.0, "is_reserved": 0, "name": "91745abacd9afa6fc9487237f37d33d0", "type": "electric_scooter", "bike_id": "91745abacd9afa6fc9487237f37d33d0", "rental_uris": {"ios": "https://dc.lft.to/lastmile_qr_scan", "android": "https://dc.lft.to/lastmile_qr_scan"}, "fusion_lat": 0.0}, {"lat": 38.922837666666666, "lon": -77.03205366666667, "is_disabled": 0, "fusion_lon": 0.0, "is_reserved": 0, "name": "d056c820397315c374e126e1004ea58e", "type": "electric_scooter", "bike_id": "d056c820397315c374e126e1004ea58e", "rental_uris": {"ios": "https://dc.lft.to/lastmile_qr_scan", "android": "https://dc.lft.to/lastmile_qr_scan"}, "fusion_lat": 0.0}, {"lat": 38.884141166666666, "lon": -76.94208666666667, "is_disabled": 0, "fusion_lon": 0.0, "is_reserved": 0, "name": "5bfb5d5b4768a7d723b4d2243d7a0537", "type": "electric_scooter", "bike_id": "5bfb5d5b4768a7d723b4d2243d7a0537", "rental_uris": {"ios": "https://dc.lft.to/lastmile_qr_scan", "android": "https://dc.lft.to/lastmile_qr_scan"}, "fusion_lat": 0.0}, {"lat": 38.926005833333335, "lon": -77.0215775, "is_disabled": 0, "fusion_lon": 0.0, "is_reserved": 0, "name": "89c58da325002e960de641a0cedb04bb", "type": "electric_scooter", "bike_id": "89c58da325002e960de641a0cedb04bb", "rental_uris": {"ios": "https://dc.lft.to/lastmile_qr_scan", "android": "https://dc.lft.to/lastmile_qr_scan"}, "fusion_lat": 0.0}, {"lat": 38.929374333333335, "lon": -77.03285316666667, "is_disabled": 0, "fusion_lon": 0.0, "is_reserved": 0, "name": "fdb729174904f84404dddb1298f110a4", "type": "electric_scooter", "bike_id": "fdb729174904f84404dddb1298f110a4", "rental_uris": {"ios": "https://dc.lft.to/lastmile_qr_scan", "android": "https://dc.lft.to/lastmile_qr_scan"}, "fusion_lat": 0.0}, {"lat": 38.9185335, "lon": -77.03662266666667, "is_disabled": 0, "fusion_lon": 0.0, "is_reserved": 0, "name": "0efc8e1367e246f5921aa06d5e1e041d", "type": "electric_scooter", "bike_id": "0efc8e1367e246f5921aa06d5e1e041d", "rental_uris": {"ios": "https://dc.lft.to/lastmile_qr_scan", "android": "https://dc.lft.to/lastmile_qr_scan"}, "fusion_lat": 0.0}, {"lat": 38.92103316666667, "lon": -77.07192366666666, "is_disabled": 0, "fusion_lon": 0.0, "is_reserved": 0, "name": "cff398276554d21532fea6635c8358b0", "type": "electric_scooter", "bike_id": "cff398276554d21532fea6635c8358b0", "rental_uris": {"ios": "https://dc.lft.to/lastmile_qr_scan", "android": "https://dc.lft.to/lastmile_qr_scan"}, "fusion_lat": 0.0}, {"lat": 38.90259616666667, "lon": -77.027886, "is_disabled": 0, "fusion_lon": 0.0, "is_reserved": 0, "name": "07db76da2f9fee9f0692ef29c6fb6092", "type": "electric_scooter", "bike_id": "07db76da2f9fee9f0692ef29c6fb6092", "rental_uris": {"ios": "https://dc.lft.to/lastmile_qr_scan", "android": "https://dc.lft.to/lastmile_qr_scan"}, "fusion_lat": 0.0}, {"lat": 38.88731083333333, "lon": -76.98359483333333, "is_disabled": 0, "fusion_lon": 0.0, "is_reserved": 0, "name": "5c53a446fac668b146d11d85791c52cb", "type": "electric_scooter", "bike_id": "5c53a446fac668b146d11d85791c52cb", "rental_uris": {"ios": "https://dc.lft.to/lastmile_qr_scan", "android": "https://dc.lft.to/lastmile_qr_scan"}, "fusion_lat": 0.0}, {"lat": 38.8755605, "lon": -77.00605283333333, "is_disabled": 0, "fusion_lon": 0.0, "is_reserved": 0, "name": "79394b67fc19dc76744f823ac8f15d5a", "type": "electric_scooter", "bike_id": "79394b67fc19dc76744f823ac8f15d5a", "rental_uris": {"ios": "https://dc.lft.to/lastmile_qr_scan", "android": "https://dc.lft.to/lastmile_qr_scan"}, "fusion_lat": 0.0}, {"lat": 38.97495633333333, "lon": -77.01681366666666, "is_disabled": 0, "fusion_lon": 0.0, "is_reserved": 0, "name": "96a96a05db24616977a13459c5c840ba", "type": "electric_scooter", "bike_id": "96a96a05db24616977a13459c5c840ba", "rental_uris": {"ios": "https://dc.lft.to/lastmile_qr_scan", "android": "https://dc.lft.to/lastmile_qr_scan"}, "fusion_lat": 0.0}, {"lat": 38.904316666666666, "lon": -77.02772683333333, "is_disabled": 0, "fusion_lon": 0.0, "is_reserved": 0, "name": "7abba672d54418669434dde6667aecb1", "type": "electric_bike", "bike_id": "7abba672d54418669434dde6667aecb1", "rental_uris": {"ios": "https://dc.lft.to/lastmile_qr_scan", "android": "https://dc.lft.to/lastmile_qr_scan"}, "fusion_lat": 0.0}, {"lat": 38.91482466666667, "lon": -77.04242833333333, "is_disabled": 0, "fusion_lon": 0.0, "is_reserved": 0, "name": "dcda868abef22a22eaa0dc4f6f06eabb", "type": "electric_scooter", "bike_id": "dcda868abef22a22eaa0dc4f6f06eabb", "rental_uris": {"ios": "https://dc.lft.to/lastmile_qr_scan", "android": "https://dc.lft.to/lastmile_qr_scan"}, "fusion_lat": 0.0}, {"lat": 38.912390333333335, "lon": -77.048791, "is_disabled": 0, "fusion_lon": 0.0, "is_reserved": 0, "name": "d812d5b67358aad1c30d96533b43603f", "type": "electric_scooter", "bike_id": "d812d5b67358aad1c30d96533b43603f", "rental_uris": {"ios": "https://dc.lft.to/lastmile_qr_scan", "android": "https://dc.lft.to/lastmile_qr_scan"}, "fusion_lat": 0.0}, {"lat": 38.9206745, "lon": -77.0419235, "is_disabled": 0, "fusion_lon": 0.0, "is_reserved": 0, "name": "9ba402a00572bf9e2601e9ae44f975dc", "type": "electric_scooter", "bike_id": "9ba402a00572bf9e2601e9ae44f975dc", "rental_uris": {"ios": "https://dc.lft.to/lastmile_qr_scan", "android": "https://dc.lft.to/lastmile_qr_scan"}, "fusion_lat": 0.0}, {"lat": 38.91578766666667, "lon": -77.0123255, "is_disabled": 0, "fusion_lon": 0.0, "is_reserved": 0, "name": "1611cd4c03752ba7030bf4e8cd5818a2", "type": "electric_scooter", "bike_id": "1611cd4c03752ba7030bf4e8cd5818a2", "rental_uris": {"ios": "https://dc.lft.to/lastmile_qr_scan", "android": "https://dc.lft.to/lastmile_qr_scan"}, "fusion_lat": 0.0}, {"lat": 38.91126233333333, "lon": -77.0219915, "is_disabled": 0, "fusion_lon": 0.0, "is_reserved": 0, "name": "9e6edf41196d7bbb6dead9d5800eb4ca", "type": "electric_scooter", "bike_id": "9e6edf41196d7bbb6dead9d5800eb4ca", "rental_uris": {"ios": "https://dc.lft.to/lastmile_qr_scan", "android": "https://dc.lft.to/lastmile_qr_scan"}, "fusion_lat": 0.0}, {"lat": 38.915497333333334, "lon": -77.04157766666667, "is_disabled": 0, "fusion_lon": 0.0, "is_reserved": 0, "name": "8a92a6b6b2cf9785d87e50e91bdf2832", "type": "electric_scooter", "bike_id": "8a92a6b6b2cf9785d87e50e91bdf2832", "rental_uris": {"ios": "https://dc.lft.to/lastmile_qr_scan", "android": "https://dc.lft.to/lastmile_qr_scan"}, "fusion_lat": 0.0}, {"lat": 38.91710416666667, "lon": -77.03250033333333, "is_disabled": 0, "fusion_lon": 0.0, "is_reserved": 0, "name": "06eae671c846f63b0df9caa803ad7f42", "type": "electric_scooter", "bike_id": "06eae671c846f63b0df9caa803ad7f42", "rental_uris": {"ios": "https://dc.lft.to/lastmile_qr_scan", "android": "https://dc.lft.to/lastmile_qr_scan"}, "fusion_lat": 0.0}, {"lat": 39.0706385, "lon": -77.11524533333333, "is_disabled": 0, "fusion_lon": 0.0, "is_reserved": 0, "name": "9c8c9e9b34aed96b30cac78019148885", "type": "electric_bike", "bike_id": "9c8c9e9b34aed96b30cac78019148885", "rental_uris": {"ios": "https://dc.lft.to/lastmile_qr_scan", "android": "https://dc.lft.to/lastmile_qr_scan"}, "fusion_lat": 0.0}, {"lat": 38.898983, "lon": -76.9808365, "is_disabled": 0, "fusion_lon": 0.0, "is_reserved": 0, "name": "fee7dc280045918752a75290305745c4", "type": "electric_scooter", "bike_id": "fee7dc280045918752a75290305745c4", "rental_uris": {"ios": "https://dc.lft.to/lastmile_qr_scan", "android": "https://dc.lft.to/lastmile_qr_scan"}, "fusion_lat": 0.0}, {"lat": 38.900113166666664, "lon": -77.03934116666667, "is_disabled": 0, "fusion_lon": 0.0, "is_reserved": 0, "name": "bad5c1ae8f9279fbfa0d5db92a1c8098", "type": "electric_scooter", "bike_id": "bad5c1ae8f9279fbfa0d5db92a1c8098", "rental_uris": {"ios": "https://dc.lft.to/lastmile_qr_scan", "android": "https://dc.lft.to/lastmile_qr_scan"}, "fusion_lat": 0.0}, {"lat": 38.900071833333335, "lon": -77.00669383333333, "is_disabled": 0, "fusion_lon": 0.0, "is_reserved": 0, "name": "83db0bffab99eedf831c012a4c7fd856", "type": "electric_scooter", "bike_id": "83db0bffab99eedf831c012a4c7fd856", "rental_uris": {"ios": "https://dc.lft.to/lastmile_qr_scan", "android": "https://dc.lft.to/lastmile_qr_scan"}, "fusion_lat": 0.0}, {"lat": 38.90004716666667, "lon": -77.00212816666667, "is_disabled": 0, "fusion_lon": 0.0, "is_reserved": 0, "name": "c3b9bc0aba8ff5da1ebe5b32e2cde11a", "type": "electric_scooter", "bike_id": "c3b9bc0aba8ff5da1ebe5b32e2cde11a", "rental_uris": {"ios": "https://dc.lft.to/lastmile_qr_scan", "android": "https://dc.lft.to/lastmile_qr_scan"}, "fusion_lat": 0.0}, {"lat": 38.910495833333336, "lon": -77.02206016666666, "is_disabled": 0, "fusion_lon": 0.0, "is_reserved": 0, "name": "24ec92cc1c28db2dc1ebc428bb3b1434", "type": "electric_scooter", "bike_id": "24ec92cc1c28db2dc1ebc428bb3b1434", "rental_uris": {"ios": "https://dc.lft.to/lastmile_qr_scan", "android": "https://dc.lft.to/lastmile_qr_scan"}, "fusion_lat": 0.0}, {"lat": 38.926109333333336, "lon": -77.03231183333334, "is_disabled": 0, "fusion_lon": 0.0, "is_reserved": 0, "name": "3efe8d6ffed42362fbe594aa2e39c8b3", "type": "electric_scooter", "bike_id": "3efe8d6ffed42362fbe594aa2e39c8b3", "rental_uris": {"ios": "https://dc.lft.to/lastmile_qr_scan", "android": "https://dc.lft.to/lastmile_qr_scan"}, "fusion_lat": 0.0}, {"lat": 38.91824866666666, "lon": -77.024184, "is_disabled": 0, "fusion_lon": 0.0, "is_reserved": 0, "name": "c657c2a1af79ce73e9faca6089466f6d", "type": "electric_scooter", "bike_id": "c657c2a1af79ce73e9faca6089466f6d", "rental_uris": {"ios": "https://dc.lft.to/lastmile_qr_scan", "android": "https://dc.lft.to/lastmile_qr_scan"}, "fusion_lat": 0.0}, {"lat": 38.9119965, "lon": -77.011774, "is_disabled": 0, "fusion_lon": 0.0, "is_reserved": 0, "name": "c11f7864215396abad72a96ceb4b104f", "type": "electric_scooter", "bike_id": "c11f7864215396abad72a96ceb4b104f", "rental_uris": {"ios": "https://dc.lft.to/lastmile_qr_scan", "android": "https://dc.lft.to/lastmile_qr_scan"}, "fusion_lat": 0.0}, {"lat": 38.908162, "lon": -77.033906, "is_disabled": 0, "fusion_lon": 0.0, "is_reserved": 0, "name": "aea2843319d5101f2e23154ab11f231f", "type": "electric_scooter", "bike_id": "aea2843319d5101f2e23154ab11f231f", "rental_uris": {"ios": "https://dc.lft.to/lastmile_qr_scan", "android": "https://dc.lft.to/lastmile_qr_scan"}, "fusion_lat": 0.0}, {"lat": 38.911256, "lon": -77.02201883333333, "is_disabled": 0, "fusion_lon": 0.0, "is_reserved": 0, "name": "0f58d7d772cffca6002529539de8bd37", "type": "electric_scooter", "bike_id": "0f58d7d772cffca6002529539de8bd37", "rental_uris": {"ios": "https://dc.lft.to/lastmile_qr_scan", "android": "https://dc.lft.to/lastmile_qr_scan"}, "fusion_lat": 0.0}, {"lat": 38.90850983333333, "lon": -77.02235566666667, "is_disabled": 0, "fusion_lon": 0.0, "is_reserved": 0, "name": "29468fecfd8a8a874fc65d8ea41a6ef0", "type": "electric_scooter", "bike_id": "29468fecfd8a8a874fc65d8ea41a6ef0", "rental_uris": {"ios": "https://dc.lft.to/lastmile_qr_scan", "android": "https://dc.lft.to/lastmile_qr_scan"}, "fusion_lat": 0.0}, {"lat": 38.899861, "lon": -77.01642266666667, "is_disabled": 0, "fusion_lon": 0.0, "is_reserved": 0, "name": "c888093424febaec3983258f93ec6f33", "type": "electric_scooter", "bike_id": "c888093424febaec3983258f93ec6f33", "rental_uris": {"ios": "https://dc.lft.to/lastmile_qr_scan", "android": "https://dc.lft.to/lastmile_qr_scan"}, "fusion_lat": 0.0}, {"lat": 38.91685483333333, "lon": -77.031864, "is_disabled": 0, "fusion_lon": 0.0, "is_reserved": 0, "name": "dc209f653ac24e91ad34660c64faa6dd", "type": "electric_scooter", "bike_id": "dc209f653ac24e91ad34660c64faa6dd", "rental_uris": {"ios": "https://dc.lft.to/lastmile_qr_scan", "android": "https://dc.lft.to/lastmile_qr_scan"}, "fusion_lat": 0.0}, {"lat": 38.860141, "lon": -76.96705116666666, "is_disabled": 0, "fusion_lon": 0.0, "is_reserved": 0, "name": "85e99ad1ae7e8488f7a7356fc942533f", "type": "electric_scooter", "bike_id": "85e99ad1ae7e8488f7a7356fc942533f", "rental_uris": {"ios": "https://dc.lft.to/lastmile_qr_scan", "android": "https://dc.lft.to/lastmile_qr_scan"}, "fusion_lat": 0.0}, {"lat": 38.914546, "lon": -77.03664066666667, "is_disabled": 0, "fusion_lon": 0.0, "is_reserved": 0, "name": "917e15c1a0b92b6a67031894a6b056ed", "type": "electric_scooter", "bike_id": "917e15c1a0b92b6a67031894a6b056ed", "rental_uris": {"ios": "https://dc.lft.to/lastmile_qr_scan", "android": "https://dc.lft.to/lastmile_qr_scan"}, "fusion_lat": 0.0}, {"lat": 38.92728816666666, "lon": -77.02272583333334, "is_disabled": 0, "fusion_lon": 0.0, "is_reserved": 0, "name": "2105c578a55a0b7f506c798e71b28766", "type": "electric_scooter", "bike_id": "2105c578a55a0b7f506c798e71b28766", "rental_uris": {"ios": "https://dc.lft.to/lastmile_qr_scan", "android": "https://dc.lft.to/lastmile_qr_scan"}, "fusion_lat": 0.0}, {"lat": 38.9037965, "lon": -77.05151016666667, "is_disabled": 0, "fusion_lon": 0.0, "is_reserved": 0, "name": "3826866eee227c9ac2554167aae57d3a", "type": "electric_scooter", "bike_id": "3826866eee227c9ac2554167aae57d3a", "rental_uris": {"ios": "https://dc.lft.to/lastmile_qr_scan", "android": "https://dc.lft.to/lastmile_qr_scan"}, "fusion_lat": 0.0}, {"lat": 38.906446333333335, "lon": -77.024735, "is_disabled": 0, "fusion_lon": 0.0, "is_reserved": 0, "name": "c21ec1d44b678726849f337821eb5cc5", "type": "electric_scooter", "bike_id": "c21ec1d44b678726849f337821eb5cc5", "rental_uris": {"ios": "https://dc.lft.to/lastmile_qr_scan", "android": "https://dc.lft.to/lastmile_qr_scan"}, "fusion_lat": 0.0}, {"lat": 38.92645383333333, "lon": -77.00755183333334, "is_disabled": 0, "fusion_lon": 0.0, "is_reserved": 0, "name": "34b6d280e4e60bf07c0432e69a74d9b5", "type": "electric_scooter", "bike_id": "34b6d280e4e60bf07c0432e69a74d9b5", "rental_uris": {"ios": "https://dc.lft.to/lastmile_qr_scan", "android": "https://dc.lft.to/lastmile_qr_scan"}, "fusion_lat": 0.0}, {"lat": 38.905632, "lon": -77.0343475, "is_disabled": 0, "fusion_lon": 0.0, "is_reserved": 0, "name": "66a2e8e7fe2fbf7e2f56c1176564760d", "type": "electric_scooter", "bike_id": "66a2e8e7fe2fbf7e2f56c1176564760d", "rental_uris": {"ios": "https://dc.lft.to/lastmile_qr_scan", "android": "https://dc.lft.to/lastmile_qr_scan"}, "fusion_lat": 0.0}, {"lat": 38.916427166666665, "lon": -77.02227366666666, "is_disabled": 0, "fusion_lon": 0.0, "is_reserved": 0, "name": "2c62b96f108176d065a2b0d39df2ba85", "type": "electric_scooter", "bike_id": "2c62b96f108176d065a2b0d39df2ba85", "rental_uris": {"ios": "https://dc.lft.to/lastmile_qr_scan", "android": "https://dc.lft.to/lastmile_qr_scan"}, "fusion_lat": 0.0}, {"lat": 38.90711966666667, "lon": -77.00768666666667, "is_disabled": 0, "fusion_lon": 0.0, "is_reserved": 0, "name": "8e6fd099dd5d02414f7672de4ade6ca4", "type": "electric_scooter", "bike_id": "8e6fd099dd5d02414f7672de4ade6ca4", "rental_uris": {"ios": "https://dc.lft.to/lastmile_qr_scan", "android": "https://dc.lft.to/lastmile_qr_scan"}, "fusion_lat": 0.0}, {"lat": 38.91604266666667, "lon": -77.02299733333334, "is_disabled": 0, "fusion_lon": 0.0, "is_reserved": 0, "name": "a92bff2a2b163872d21e8eff838b4fc3", "type": "electric_scooter", "bike_id": "a92bff2a2b163872d21e8eff838b4fc3", "rental_uris": {"ios": "https://dc.lft.to/lastmile_qr_scan", "android": "https://dc.lft.to/lastmile_qr_scan"}, "fusion_lat": 0.0}, {"lat": 38.92755533333333, "lon": -77.03282283333333, "is_disabled": 0, "fusion_lon": 0.0, "is_reserved": 0, "name": "ff37054ec77664a4a0faf26b8b21bce4", "type": "electric_scooter", "bike_id": "ff37054ec77664a4a0faf26b8b21bce4", "rental_uris": {"ios": "https://dc.lft.to/lastmile_qr_scan", "android": "https://dc.lft.to/lastmile_qr_scan"}, "fusion_lat": 0.0}, {"lat": 38.923428, "lon": -77.05181466666667, "is_disabled": 0, "fusion_lon": 0.0, "is_reserved": 0, "name": "f73d146f1a2505582d0408a0ab23bfae", "type": "electric_scooter", "bike_id": "f73d146f1a2505582d0408a0ab23bfae", "rental_uris": {"ios": "https://dc.lft.to/lastmile_qr_scan", "android": "https://dc.lft.to/lastmile_qr_scan"}, "fusion_lat": 0.0}, {"lat": 38.893215833333336, "lon": -77.0860755, "is_disabled": 0, "fusion_lon": 0.0, "is_reserved": 0, "name": "be77df535cfcf216768fbe8e3ed52555", "type": "electric_bike", "bike_id": "be77df535cfcf216768fbe8e3ed52555", "rental_uris": {"ios": "https://dc.lft.to/lastmile_qr_scan", "android": "https://dc.lft.to/lastmile_qr_scan"}, "fusion_lat": 0.0}, {"lat": 38.88436866666667, "lon": -77.01764916666667, "is_disabled": 0, "fusion_lon": 0.0, "is_reserved": 0, "name": "e16b083580fe4810ff4620a7aed37725", "type": "electric_scooter", "bike_id": "e16b083580fe4810ff4620a7aed37725", "rental_uris": {"ios": "https://dc.lft.to/lastmile_qr_scan", "android": "https://dc.lft.to/lastmile_qr_scan"}, "fusion_lat": 0.0}, {"lat": 38.8728545, "lon": -77.0098625, "is_disabled": 0, "fusion_lon": 0.0, "is_reserved": 0, "name": "58b750035579a27b196e606a9b6dee16", "type": "electric_scooter", "bike_id": "58b750035579a27b196e606a9b6dee16", "rental_uris": {"ios": "https://dc.lft.to/lastmile_qr_scan", "android": "https://dc.lft.to/lastmile_qr_scan"}, "fusion_lat": 0.0}, {"lat": 38.9363415, "lon": -77.0663095, "is_disabled": 0, "fusion_lon": 0.0, "is_reserved": 0, "name": "ece078a8dca2dffb14e5a5bb1f838492", "type": "electric_scooter", "bike_id": "ece078a8dca2dffb14e5a5bb1f838492", "rental_uris": {"ios": "https://dc.lft.to/lastmile_qr_scan", "android": "https://dc.lft.to/lastmile_qr_scan"}, "fusion_lat": 0.0}, {"lat": 38.903314, "lon": -76.97594616666666, "is_disabled": 0, "fusion_lon": 0.0, "is_reserved": 0, "name": "eeb82e1d9b942f9de399a082ff11ddbf", "type": "electric_scooter", "bike_id": "eeb82e1d9b942f9de399a082ff11ddbf", "rental_uris": {"ios": "https://dc.lft.to/lastmile_qr_scan", "android": "https://dc.lft.to/lastmile_qr_scan"}, "fusion_lat": 0.0}, {"lat": 38.89559766666667, "lon": -76.94878133333333, "is_disabled": 0, "fusion_lon": 0.0, "is_reserved": 0, "name": "361592263cd3e731f627eabc2302fdab", "type": "electric_scooter", "bike_id": "361592263cd3e731f627eabc2302fdab", "rental_uris": {"ios": "https://dc.lft.to/lastmile_qr_scan", "android": "https://dc.lft.to/lastmile_qr_scan"}, "fusion_lat": 0.0}, {"lat": 38.8733685, "lon": -76.99167883333334, "is_disabled": 0, "fusion_lon": 0.0, "is_reserved": 0, "name": "88713daef380bf7df413a33abea16e09", "type": "electric_scooter", "bike_id": "88713daef380bf7df413a33abea16e09", "rental_uris": {"ios": "https://dc.lft.to/lastmile_qr_scan", "android": "https://dc.lft.to/lastmile_qr_scan"}, "fusion_lat": 0.0}, {"lat": 38.924135666666665, "lon": -77.0574975, "is_disabled": 0, "fusion_lon": 0.0, "is_reserved": 0, "name": "53db1fe85eae670edf82f230a80bd502", "type": "electric_scooter", "bike_id": "53db1fe85eae670edf82f230a80bd502", "rental_uris": {"ios": "https://dc.lft.to/lastmile_qr_scan", "android": "https://dc.lft.to/lastmile_qr_scan"}, "fusion_lat": 0.0}, {"lat": 38.9236875, "lon": -77.02061816666667, "is_disabled": 0, "fusion_lon": 0.0, "is_reserved": 0, "name": "f66b740679df4ad63b61ed960d2f9282", "type": "electric_scooter", "bike_id": "f66b740679df4ad63b61ed960d2f9282", "rental_uris": {"ios": "https://dc.lft.to/lastmile_qr_scan", "android": "https://dc.lft.to/lastmile_qr_scan"}, "fusion_lat": 0.0}, {"lat": 38.91210783333333, "lon": -77.07591533333333, "is_disabled": 0, "fusion_lon": 0.0, "is_reserved": 0, "name": "11efe8e7ec49893a64812b94822bef16", "type": "electric_scooter", "bike_id": "11efe8e7ec49893a64812b94822bef16", "rental_uris": {"ios": "https://dc.lft.to/lastmile_qr_scan", "android": "https://dc.lft.to/lastmile_qr_scan"}, "fusion_lat": 0.0}, {"lat": 38.939644333333334, "lon": -77.032589, "is_disabled": 0, "fusion_lon": 0.0, "is_reserved": 0, "name": "407669391d4cbb5a4d43f01da75d709a", "type": "electric_scooter", "bike_id": "407669391d4cbb5a4d43f01da75d709a", "rental_uris": {"ios": "https://dc.lft.to/lastmile_qr_scan", "android": "https://dc.lft.to/lastmile_qr_scan"}, "fusion_lat": 0.0},