{"data": {"bikes": [{"is_reserved": 0, "rental_uris": {"ios": "https://dc.lft.to/lastmile_qr_scan", "android": "https://dc.lft.to/lastmile_qr_scan"}, "is_disabled": 0, "fusion_lon": 0.0, "lat": 38.866567333333336, "type": "electric_scooter", "fusion_lat": 0.0, "bike_id": "c9dcf5fd3e2815a7b0ec1a69bbea5d84", "name": "c9dcf5fd3e2815a7b0ec1a69bbea5d84", "lon": -76.99010916666667}, {"is_reserved": 0, "rental_uris": {"ios": "https://dc.lft.to/lastmile_qr_scan", "android": "https://dc.lft.to/lastmile_qr_scan"}, "is_disabled": 0, "fusion_lon": 0.0, "lat": 38.83980233333333, "type": "electric_bike", "fusion_lat": 0.0, "bike_id": "eec3543fd86b27b9122d8e0fde542b93", "name": "eec3543fd86b27b9122d8e0fde542b93", "lon": -77.00568383333334}, {"is_reserved": 0, "rental_uris": {"ios": "https://dc.lft.to/lastmile_qr_scan", "android": "https://dc.lft.to/lastmile_qr_scan"}, "is_disabled": 0, "fusion_lon": 0.0, "lat": 38.89991116666667, "type": "electric_scooter", "fusion_lat": 0.0, "bike_id": "8a2735278eff4c313461f37b103e96e1", "name": "8a2735278eff4c313461f37b103e96e1", "lon": -77.05253016666667}, {"is_reserved": 0, "rental_uris": {"ios": "https://dc.lft.to/lastmile_qr_scan", "android": "https://dc.lft.to/lastmile_qr_scan"}, "is_disabled": 0, "fusion_lon": 0.0, "lat": 38.9097455, "type": "electric_scooter", "fusion_lat": 0.0, "bike_id": "cf771f5580c88681b45840cb11c1e785", "name": "cf771f5580c88681b45840cb11c1e785", "lon": -77.0318335}, {"is_reserved": 0, "rental_uris": {"ios": "https://dc.lft.to/lastmile_qr_scan", "android": "https://dc.lft.to/lastmile_qr_scan"}, "is_disabled": 0, "fusion_lon": 0.0, "lat": 38.881317333333335, "type": "electric_bike", "fusion_lat": 0.0, "bike_id": "7491d50d2506544273673f9ed83e89f6", "name": "7491d50d2506544273673f9ed83e89f6", "lon": -76.9809115}, {"is_reserved": 0, "rental_uris": {"ios": "https://dc.lft.to/lastmile_qr_scan", "android": "https://dc.lft.to/lastmile_qr_scan"}, "is_disabled": 0, "fusion_lon": 0.0, "lat": 38.924175, "type": "electric_scooter", "fusion_lat": 0.0, "bike_id": "2015351bcca8db16a7aa37049e5588dc", "name": "2015351bcca8db16a7aa37049e5588dc", "lon": -77.01940083333334}, {"is_reserved": 0, "rental_uris": {"ios": "https://dc.lft.to/lastmile_qr_scan", "android": "https://dc.lft.to/lastmile_qr_scan"}, "is_disabled": 0, "fusion_lon": 0.0, "lat": 38.915544833333335, "type": "electric_scooter", "fusion_lat": 0.0, "bike_id": "f785aadadc019390189a78595e0c85ac", "name": "f785aadadc019390189a78595e0c85ac", "lon": -77.04252483333333}, {"is_reserved": 0, "rental_uris": {"ios": "https://dc.lft.to/lastmile_qr_scan", "android": "https://dc.lft.to/lastmile_qr_scan"}, "is_disabled": 0, "fusion_lon": 0.0, "lat": 38.90569566666667, "type": "electric_scooter", "fusion_lat": 0.0, "bike_id": "17cc498c52120fa3399538b26685d376", "name": "17cc498c52120fa3399538b26685d376", "lon": -77.0345605}, {"is_reserved": 0, "rental_uris": {"ios": "https://dc.lft.to/lastmile_qr_scan", "android": "https://dc.lft.to/lastmile_qr_scan"}, "is_disabled": 0, "fusion_lon": 0.0, "lat": 38.91566916666667, "type": "electric_scooter", "fusion_lat": 0.0, "bike_id": "a7830ec93dc8a3d7c2f0a3c883d3c4c8", "name": "a7830ec93dc8a3d7c2f0a3c883d3c4c8", "lon": -77.02170366666667}, {"is_reserved": 0, "rental_uris": {"ios": "https://dc.lft.to/lastmile_qr_scan", "android": "https://dc.lft.to/lastmile_qr_scan"}, "is_disabled": 0, "fusion_lon": 0.0, "lat": 38.898014833333335, "type": "electric_scooter", "fusion_lat": 0.0, "bike_id": "1de81f16498d916675339a79397713b6", "name": "1de81f16498d916675339a79397713b6", "lon": -76.94663483333333}, {"is_reserved": 0, "rental_uris": {"ios": "https://dc.lft.to/lastmile_qr_scan", "android": "https://dc.lft.to/lastmile_qr_scan"}, "is_disabled": 0, "fusion_lon": 0.0, "lat": 38.90341166666666, "type": "electric_scooter", "fusion_lat": 0.0, "bike_id": "2cb4d15bcefc4992e5336f124fc36554", "name": "2cb4d15bcefc4992e5336f124fc36554", "lon": -77.06578066666667}, {"is_reserved": 0, "rental_uris": {"ios": "https://dc.lft.to/lastmile_qr_scan", "android": "https://dc.lft.to/lastmile_qr_scan"}, "is_disabled": 0, "fusion_lon": 0.0, "lat": 38.9173105, "type": "electric_scooter", "fusion_lat": 0.0, "bike_id": "03b48b197eca217d925e63cce93f7555", "name": "03b48b197eca217d925e63cce93f7555", "lon": -77.0366075}, {"is_reserved": 0, "rental_uris": {"ios": "https://dc.lft.to/lastmile_qr_scan", "android": "https://dc.lft.to/lastmile_qr_scan"}, "is_disabled": 0, "fusion_lon": 0.0, "lat": 38.908512333333334, "type": "electric_scooter", "fusion_lat": 0.0, "bike_id": "de490ec80d7871566812ee3fe7ecf1b0", "name": "de490ec80d7871566812ee3fe7ecf1b0", "lon": -77.03294483333333}, {"is_reserved": 0, "rental_uris": {"ios": "https://dc.lft.to/lastmile_qr_scan", "android": "https://dc.lft.to/lastmile_qr_scan"}, "is_disabled": 0, "fusion_lon": 0.0, "lat": 38.924071833333336, "type": "electric_bike", "fusion_lat": 0.0, "bike_id": "b9c280910840c365148738aa5e0a484e", "name": "b9c280910840c365148738aa5e0a484e", "lon": -77.208102}, {"is_reserved": 0, "rental_uris": {"ios": "https://dc.lft.to/lastmile_qr_scan", "android": "https://dc.lft.to/lastmile_qr_scan"}, "is_disabled": 0, "fusion_lon": 0.0, "lat": 38.9169275, "type": "electric_scooter", "fusion_lat": 0.0, "bike_id": "7891c6d5fbdd42792b8af69f1505f3d3", "name": "7891c6d5fbdd42792b8af69f1505f3d3", "lon": -77.03324766666667}, {"is_reserved": 0, "rental_uris": {"ios": "https://dc.lft.to/lastmile_qr_scan", "android": "https://dc.lft.to/lastmile_qr_scan"}, "is_disabled": 0, "fusion_lon": 0.0, "lat": 38.871586666666666, "type": "electric_scooter", "fusion_lat": 0.0, "bike_id": "1e61691486f59017fdeed379ae534036", "name": "1e61691486f59017fdeed379ae534036", "lon": -77.0134975}, {"is_reserved": 0, "rental_uris": {"ios": "https://dc.lft.to/lastmile_qr_scan", "android": "https://dc.lft.to/lastmile_qr_scan"}, "is_disabled": 0, "fusion_lon": 0.0, "lat": 38.91728916666667, "type": "electric_scooter", "fusion_lat": 0.0, "bike_id": "db47219a0d351a5064e56a07d2e5af93", "name": "db47219a0d351a5064e56a07d2e5af93", "lon": -77.03660516666666}, {"is_reserved": 0, "rental_uris": {"ios": "https://dc.lft.to/lastmile_qr_scan", "android": "https://dc.lft.to/lastmile_qr_scan"}, "is_disabled": 0, "fusion_lon": 0.0, "lat": 38.898210166666665, "type": "electric_scooter", "fusion_lat": 0.0, "bike_id": "04ecfa68a296932d937b18d9be321f51", "name": "04ecfa68a296932d937b18d9be321f51", "lon": -77.043305}, {"is_reserved": 0, "rental_uris": {"ios": "https://dc.lft.to/lastmile_qr_scan", "android": "https://dc.lft.to/lastmile_qr_scan"}, "is_disabled": 0, "fusion_lon": 0.0, "lat": 38.9091175, "type": "electric_scooter", "fusion_lat": 0.0, "bike_id": "2b191bd633c4d3572ada3f09c5ab633f", "name": "2b191bd633c4d3572ada3f09c5ab633f", "lon": -76.992627}, {"is_reserved": 0, "rental_uris": {"ios": "https://dc.lft.to/lastmile_qr_scan", "android": "https://dc.lft.to/lastmile_qr_scan"}, "is_disabled": 0, "fusion_lon": 0.0, "lat": 38.9178655, "type": "electric_scooter", "fusion_lat": 0.0, "bike_id": "a8bbb4a5060c6214ae8ebeba808510b5", "name": "a8bbb4a5060c6214ae8ebeba808510b5", "lon": -77.03432283333333}, {"is_reserved": 0, "rental_uris": {"ios": "https://dc.lft.to/lastmile_qr_scan", "android": "https://dc.lft.to/lastmile_qr_scan"}, "is_disabled": 0, "fusion_lon": 0.0, "lat": 38.845702833333334, "type": "electric_bike", "fusion_lat": 0.0, "bike_id": "bc4bb108a3a12c656360fa7f4081b7e0", "name": "bc4bb108a3a12c656360fa7f4081b7e0", "lon": -77.096173}, {"is_reserved": 0, "rental_uris": {"ios": "https://dc.lft.to/lastmile_qr_scan", "android": "https://dc.lft.to/lastmile_qr_scan"}, "is_disabled": 0, "fusion_lon": 0.0, "lat": 38.88428716666667, "type": "electric_bike", "fusion_lat": 0.0, "bike_id": "2e6f87a8bfa240caf88bfb6d0698017e", "name": "2e6f87a8bfa240caf88bfb6d0698017e", "lon": -76.95755966666667}, {"is_reserved": 0, "rental_uris": {"ios": "https://dc.lft.to/lastmile_qr_scan", "android": "https://dc.lft.to/lastmile_qr_scan"}, "is_disabled": 0, "fusion_lon": 0.0, "lat": 38.915607666666666, "type": "electric_scooter", "fusion_lat": 0.0, "bike_id": "bccfc6d866f24ead60f44625403df082", "name": "bccfc6d866f24ead60f44625403df082", "lon": -77.03150066666667}, {"is_reserved": 0, "rental_uris": {"ios": "https://dc.lft.to/lastmile_qr_scan", "android": "https://dc.lft.to/lastmile_qr_scan"}, "is_disabled": 0, "fusion_lon": 0.0, "lat": 38.8972615, "type": "electric_scooter", "fusion_lat": 0.0, "bike_id": "607f3a9bde745401c3327aeb3f3cdce3", "name": "607f3a9bde745401c3327aeb3f3cdce3", "lon": -77.04888166666667}, {"is_reserved": 0, "rental_uris": {"ios": "https://dc.lft.to/lastmile_qr_scan", "android": "https://dc.lft.to/lastmile_qr_scan"}, "is_disabled": 0, "fusion_lon": 0.0, "lat": 38.91110583333333, "type": "electric_scooter", "fusion_lat": 0.0, "bike_id": "747317997a4f039e05e9ba7bba1446f3", "name": "747317997a4f039e05e9ba7bba1446f3", "lon": -77.0450055}, {"is_reserved": 0, "rental_uris": {"ios": "https://dc.lft.to/lastmile_qr_scan", "android": "https://dc.lft.to/lastmile_qr_scan"}, "is_disabled": 0, "fusion_lon": 0.0, "lat": 38.91552766666667, "type": "electric_scooter", "fusion_lat": 0.0, "bike_id": "cab3d46c99b82e789d66fc82cdab023b", "name": "cab3d46c99b82e789d66fc82cdab023b", "lon": -77.01235216666667}, {"is_reserved": 0, "rental_uris": {"ios": "https://dc.lft.to/lastmile_qr_scan", "android": "https://dc.lft.to/lastmile_qr_scan"}, "is_disabled": 0, "fusion_lon": 0.0, "lat": 38.904321, "type": "electric_scooter", "fusion_lat": 0.0, "bike_id": "4816482e15d89d8d4e36afb4d7eef98c", "name": "4816482e15d89d8d4e36afb4d7eef98c", "lon": -77.02441366666666}, {"is_reserved": 0, "rental_uris": {"ios": "https://dc.lft.to/lastmile_qr_scan", "android": "https://dc.lft.to/lastmile_qr_scan"}, "is_disabled": 0, "fusion_lon": 0.0, "lat": 38.89219216666667, "type": "electric_bike", "fusion_lat": 0.0, "bike_id": "e37cb6e6696756af86d6d059bf0c856f", "name": "e37cb6e6696756af86d6d059bf0c856f", "lon": -77.10777966666667}, {"is_reserved": 0, "rental_uris": {"ios": "https://dc.lft.to/lastmile_qr_scan", "android": "https://dc.lft.to/lastmile_qr_scan"}, "is_disabled": 0, "fusion_lon": 0.0, "lat": 38.92024033333333, "type": "electric_scooter", "fusion_lat": 0.0, "bike_id": "30042b570df708d9e5a101078095cab3", "name": "30042b570df708d9e5a101078095cab3", "lon": -77.0279985}, {"is_reserved": 0, "rental_uris": {"ios": "https://dc.lft.to/lastmile_qr_scan", "android": "https://dc.lft.to/lastmile_qr_scan"}, "is_disabled": 0, "fusion_lon": 0.0, "lat": 38.9086325, "type": "electric_scooter", "fusion_lat": 0.0, "bike_id": "e035e59bd43e8473c755e8a4637251c8", "name": "e035e59bd43e8473c755e8a4637251c8", "lon": -77.02848616666667}, {"is_reserved": 0, "rental_uris": {"ios": "https://dc.lft.to/lastmile_qr_scan", "android": "https://dc.lft.to/lastmile_qr_scan"}, "is_disabled": 0, "fusion_lon": 0.0, "lat": 38.9418265, "type": "electric_scooter", "fusion_lat": 0.0, "bike_id": "d5cc9e22b7bb80c8665f4d759abc529e", "name": "d5cc9e22b7bb80c8665f4d759abc529e", "lon": -77.0248585}, {"is_reserved": 0, "rental_uris": {"ios": "https://dc.lft.to/lastmile_qr_scan", "android": "https://dc.lft.to/lastmile_qr_scan"}, "is_disabled": 0, "fusion_lon": 0.0, "lat": 38.89211933333333, "type": "electric_scooter", "fusion_lat": 0.0, "bike_id": "0ae2008798bf2c4a2881456dda828315", "name": "0ae2008798bf2c4a2881456dda828315", "lon": -77.021266}, {"is_reserved": 0, "rental_uris": {"ios": "https://dc.lft.to/lastmile_qr_scan", "android": "https://dc.lft.to/lastmile_qr_scan"}, "is_disabled": 0, "fusion_lon": 0.0, "lat": 38.90034983333334, "type": "electric_scooter", "fusion_lat": 0.0, "bike_id": "3392dfd78b315f2d0ef874f3dd794cd3", "name": "3392dfd78b315f2d0ef874f3dd794cd3", "lon": -77.00536516666666}, {"is_reserved": 0, "rental_uris": {"ios": "https://dc.lft.to/lastmile_qr_scan", "android": "https://dc.lft.to/lastmile_qr_scan"}, "is_disabled": 0, "fusion_lon": 0.0, "lat": 38.884584, "type": "electric_scooter", "fusion_lat": 0.0, "bike_id": "fde2913947df58f24a6a5abb262b7ebd", "name": "fde2913947df58f24a6a5abb262b7ebd", "lon": -77.01534566666666}, {"is_reserved": 0, "rental_uris": {"ios": "https://dc.lft.to/lastmile_qr_scan", "android": "https://dc.lft.to/lastmile_qr_scan"}, "is_disabled": 0, "fusion_lon": 0.0, "lat": 38.887400666666665, "type": "electric_scooter", "fusion_lat": 0.0, "bike_id": "61d7bcd25fc642e840862d166053761a", "name": "61d7bcd25fc642e840862d166053761a", "lon": -77.01530783333334}, {"is_reserved": 0, "rental_uris": {"ios": "https://dc.lft.to/lastmile_qr_scan", "android": "https://dc.lft.to/lastmile_qr_scan"}, "is_disabled": 0, "fusion_lon": 0.0, "lat": 38.892449166666665, "type": "electric_scooter", "fusion_lat": 0.0, "bike_id": "be405b013abcb7e8d0761fcccfe355e7", "name": "be405b013abcb7e8d0761fcccfe355e7", "lon": -77.03957333333334}, {"is_reserved": 0, "rental_uris": {"ios": "https://dc.lft.to/lastmile_qr_scan", "android": "https://dc.lft.to/lastmile_qr_scan"}, "is_disabled": 0, "fusion_lon": 0.0, "lat": 38.99099233333333, "type": "electric_bike", "fusion_lat": 0.0, "bike_id": "fcafcf026dce60f4287a5ab9ef1bf3d1", "name": "fcafcf026dce60f4287a5ab9ef1bf3d1", "lon": -76.87461433333333}, {"is_reserved": 0, "rental_uris": {"ios": "https://dc.lft.to/lastmile_qr_scan", "android": "https://dc.lft.to/lastmile_qr_scan"}, "is_disabled": 0, "fusion_lon": 0.0, "lat": 38.9169715, "type": "electric_scooter", "fusion_lat": 0.0, "bike_id": "a1df11df0d05147062235fd206913425", "name": "a1df11df0d05147062235fd206913425", "lon": -77.0304705}, {"is_reserved": 0, "rental_uris": {"ios": "https://dc.lft.to/lastmile_qr_scan", "android": "https://dc.lft.to/lastmile_qr_scan"}, "is_disabled": 0, "fusion_lon": 0.0, "lat": 38.87784666666667, "type": "electric_scooter", "fusion_lat": 0.0, "bike_id": "c0e94ca04b391caf641d576ee130d8fd", "name": "c0e94ca04b391caf641d576ee130d8fd", "lon": -76.99413566666666}, {"is_reserved": 0, "rental_uris": {"ios": "https://dc.lft.to/lastmile_qr_scan", "android": "https://dc.lft.to/lastmile_qr_scan"}, "is_disabled": 0, "fusion_lon": 0.0, "lat": 38.8974515, "type": "electric_scooter", "fusion_lat": 0.0, "bike_id": "0959edb7d9cb4bbb9bf0d25b7307bc6f", "name": "0959edb7d9cb4bbb9bf0d25b7307bc6f", "lon": -77.04586833333333}, {"is_reserved": 0, "rental_uris": {"ios": "https://dc.lft.to/lastmile_qr_scan", "android": "https://dc.lft.to/lastmile_qr_scan"}, "is_disabled": 0, "fusion_lon": 0.0, "lat": 38.90347533333333, "type": "electric_scooter", "fusion_lat": 0.0, "bike_id": "9960ba14c5aa4a678a5f1e93679271b6", "name": "9960ba14c5aa4a678a5f1e93679271b6", "lon": -77.04354066666667}, {"is_reserved": 0, "rental_uris": {"ios": "https://dc.lft.to/lastmile_qr_scan", "android": "https://dc.lft.to/lastmile_qr_scan"}, "is_disabled": 0, "fusion_lon": 0.0, "lat": 38.9191315, "type": "electric_scooter", "fusion_lat": 0.0, "bike_id": "7fd4325468a908d1c6482cd6517fc0dd", "name": "7fd4325468a908d1c6482cd6517fc0dd", "lon": -77.02784466666667}, {"is_reserved": 0, "rental_uris": {"ios": "https://dc.lft.to/lastmile_qr_scan", "android": "https://dc.lft.to/lastmile_qr_scan"}, "is_disabled": 0, "fusion_lon": 0.0, "lat": 38.82871516666667, "type": "electric_bike", "fusion_lat": 0.0, "bike_id": "1dcf47ae1ea41da44c31780119634244", "name": "1dcf47ae1ea41da44c31780119634244", "lon": -77.11219666666666}, {"is_reserved": 0, "rental_uris": {"ios": "https://dc.lft.to/lastmile_qr_scan", "android": "https://dc.lft.to/lastmile_qr_scan"}, "is_disabled": 0, "fusion_lon": 0.0, "lat": 38.900945, "type": "electric_scooter", "fusion_lat": 0.0, "bike_id": "5b546c21b34f85c46c104a432c50cc56", "name": "5b546c21b34f85c46c104a432c50cc56", "lon": -76.98339416666667}, {"is_reserved": 0, "rental_uris": {"ios": "https://dc.lft.to/lastmile_qr_scan", "android": "https://dc.lft.to/lastmile_qr_scan"}, "is_disabled": 0, "fusion_lon": 0.0, "lat": 38.902429833333336, "type": "electric_scooter", "fusion_lat": 0.0, "bike_id": "17ea5900fc4faa601482d26d911eeefd", "name": "17ea5900fc4faa601482d26d911eeefd", "lon": -77.02638916666666}, {"is_reserved": 0, "rental_uris": {"ios": "https://dc.lft.to/lastmile_qr_scan", "android": "https://dc.lft.to/lastmile_qr_scan"}, "is_disabled": 0, "fusion_lon": 0.0, "lat": 38.949789833333334, "type": "electric_scooter", "fusion_lat": 0.0, "bike_id": "2f7352f186631b332f90a15a6b9ef39d", "name": "2f7352f186631b332f90a15a6b9ef39d", "lon": -77.02696466666667}, {"is_reserved": 0, "rental_uris": {"ios": "https://dc.lft.to/lastmile_qr_scan", "android": "https://dc.lft.to/lastmile_qr_scan"}, "is_disabled": 0, "fusion_lon": 0.0, "lat": 38.91414, "type": "electric_scooter", "fusion_lat": 0.0, "bike_id": "25bec80a0cb144a0b78b418fb731e0b4", "name": "25bec80a0cb144a0b78b418fb731e0b4", "lon": -77.04539033333333}, {"is_reserved": 0, "rental_uris": {"ios": "https://dc.lft.to/lastmile_qr_scan", "android": "https://dc.lft.to/lastmile_qr_scan"}, "is_disabled": 0, "fusion_lon": 0.0, "lat": 38.8840595, "type": "electric_scooter", "fusion_lat": 0.0, "bike_id": "b9ae014e91d15f20562347c5ee77c110", "name": "b9ae014e91d15f20562347c5ee77c110", "lon": -77.0151815}, {"is_reserved": 0, "rental_uris": {"ios": "https://dc.lft.to/lastmile_qr_scan", "android": "https://dc.lft.to/lastmile_qr_scan"}, "is_disabled": 0, "fusion_lon": 0.0, "lat": 38.892229, "type": "electric_scooter", "fusion_lat": 0.0, "bike_id": "4d89a643cd68421d512ca16ccc72e3b6", "name": "4d89a643cd68421d512ca16ccc72e3b6", "lon": -77.02415783333333}, {"is_reserved": 0, "rental_uris": {"ios": "https://dc.lft.to/lastmile_qr_scan", "android": "https://dc.lft.to/lastmile_qr_scan"}, "is_disabled": 0, "fusion_lon": 0.0, "lat": 38.888639166666664, "type": "electric_scooter", "fusion_lat": 0.0, "bike_id": "c42fa07bae0d1fa4e33d0768a21a7b6a", "name": "c42fa07bae0d1fa4e33d0768a21a7b6a", "lon": -77.00119783333334}, {"is_reserved": 0, "rental_uris": {"ios": "https://dc.lft.to/lastmile_qr_scan", "android": "https://dc.lft.to/lastmile_qr_scan"}, "is_disabled": 0, "fusion_lon": 0.0, "lat": 38.90723283333333, "type": "electric_scooter", "fusion_lat": 0.0, "bike_id": "3adfe8a622ebe520c9f26db262d9afe5", "name": "3adfe8a622ebe520c9f26db262d9afe5", "lon": -77.02542766666667}, {"is_reserved": 0, "rental_uris": {"ios": "https://dc.lft.to/lastmile_qr_scan", "android": "https://dc.lft.to/lastmile_qr_scan"}, "is_disabled": 0, "fusion_lon": 0.0, "lat": 38.9036505, "type": "electric_scooter", "fusion_lat": 0.0, "bike_id": "aff30bc5349b18fdb35a2376a97fed9d", "name": "aff30bc5349b18fdb35a2376a97fed9d", "lon": -77.0487865}, {"is_reserved": 0, "rental_uris": {"ios": "https://dc.lft.to/lastmile_qr_scan", "android": "https://dc.lft.to/lastmile_qr_scan"}, "is_disabled": 0, "fusion_lon": 0.0, "lat": 38.914173, "type": "electric_scooter", "fusion_lat": 0.0, "bike_id": "5adad2c77f3e5326f9f00818d2164b5f", "name": "5adad2c77f3e5326f9f00818d2164b5f", "lon": -77.033989}, {"is_reserved": 0, "rental_uris": {"ios": "https://dc.lft.to/lastmile_qr_scan", "android": "https://dc.lft.to/lastmile_qr_scan"}, "is_disabled": 0, "fusion_lon": 0.0, "lat": 38.86659916666667, "type": "electric_scooter", "fusion_lat": 0.0, "bike_id": "163cde4a06657a7426af24949a88192c", "name": "163cde4a06657a7426af24949a88192c", "lon": -76.989054}, {"is_reserved": 0, "rental_uris": {"ios": "https://dc.lft.to/lastmile_qr_scan", "android": "https://dc.lft.to/lastmile_qr_scan"}, "is_disabled": 0, "fusion_lon": 0.0, "lat": 38.92097733333333, "type": "electric_scooter", "fusion_lat": 0.0, "bike_id": "5d8a36dba123a1c2f48aa87ac70d15f3", "name": "5d8a36dba123a1c2f48aa87ac70d15f3", "lon": -77.06332}, {"is_reserved": 0, "rental_uris": {"ios": "https://dc.lft.to/lastmile_qr_scan", "android": "https://dc.lft.to/lastmile_qr_scan"}, "is_disabled": 0, "fusion_lon": 0.0, "lat": 38.90648, "type": "electric_scooter", "fusion_lat": 0.0, "bike_id": "5b80a6700c7e44fd0092a5bfda95e11f", "name": "5b80a6700c7e44fd0092a5bfda95e11f", "lon": -77.008154}, {"is_reserved": 0, "rental_uris": {"ios": "https://dc.lft.to/lastmile_qr_scan", "android": "https://dc.lft.to/lastmile_qr_scan"}, "is_disabled": 0, "fusion_lon": 0.0, "lat": 38.90580416666667, "type": "electric_scooter", "fusion_lat": 0.0, "bike_id": "e9f7285f629536954f818c2a3a710686", "name": "e9f7285f629536954f818c2a3a710686", "lon": -77.04702183333333}, {"is_reserved": 0, "rental_uris": {"ios": "https://dc.lft.to/lastmile_qr_scan", "android": "https://dc.lft.to/lastmile_qr_scan"}, "is_disabled": 0, "fusion_lon": 0.0, "lat": 38.903695666666664, "type": "electric_scooter", "fusion_lat": 0.0, "bike_id": "f4737bdd691a2f367da902abec84ab3d", "name": "f4737bdd691a2f367da902abec84ab3d", "lon": -77.03464316666667}, {"is_reserved": 0, "rental_uris": {"ios": "https://dc.lft.to/lastmile_qr_scan", "android": "https://dc.lft.to/lastmile_qr_scan"}, "is_disabled": 0, "fusion_lon": 0.0, "lat": 38.9168565, "type": "electric_scooter", "fusion_lat": 0.0, "bike_id": "138b96d1c4ebfddc281a65745d47b37b", "name": "138b96d1c4ebfddc281a65745d47b37b", "lon": -77.02289116666667}, {"is_reserved": 0, "rental_uris": {"ios": "https://dc.lft.to/lastmile_qr_scan", "android": "https://dc.lft.to/lastmile_qr_scan"}, "is_disabled": 0, "fusion_lon": 0.0, "lat": 38.8745845, "type": "electric_scooter", "fusion_lat": 0.0, "bike_id": "343f5767d1e3f04a6c7a73c2de83415e", "name": "343f5767d1e3f04a6c7a73c2de83415e", "lon": -77.00492633333333}, {"is_reserved": 0, "rental_uris": {"ios": "https://dc.lft.to/lastmile_qr_scan", "android": "https://dc.lft.to/lastmile_qr_scan"}, "is_disabled": 0, "fusion_lon": 0.0, "lat": 38.898328166666666, "type": "electric_scooter", "fusion_lat": 0.0, "bike_id": "86ee02e11bd4cc7edd2bec1f3c72edfd", "name": "86ee02e11bd4cc7edd2bec1f3c72edfd", "lon": -76.94634383333333}, {"is_reserved": 0, "rental_uris": {"ios": "https://dc.lft.to/lastmile_qr_scan", "android": "https://dc.lft.to/lastmile_qr_scan"}, "is_disabled": 0, "fusion_lon": 0.0, "lat": 38.8843925, "type": "electric_scooter", "fusion_lat": 0.0, "bike_id": "34242c3c1b5ba3277c1226939e5f4ed7", "name": "34242c3c1b5ba3277c1226939e5f4ed7", "lon": -76.95758316666667}, {"is_reserved": 0, "rental_uris": {"ios": "https://dc.lft.to/lastmile_qr_scan", "android": "https://dc.lft.to/lastmile_qr_scan"}, "is_disabled": 0, "fusion_lon": 0.0, "lat": 38.8962995, "type": "electric_scooter", "fusion_lat": 0.0, "bike_id": "f996db0e194bb209657bfdfb165bf553", "name": "f996db0e194bb209657bfdfb165bf553", "lon": -77.0395495}, {"is_reserved": 0, "rental_uris": {"ios": "https://dc.lft.to/lastmile_qr_scan", "android": "https://dc.lft.to/lastmile_qr_scan"}, "is_disabled": 0, "fusion_lon": 0.0, "lat": 38.90442133333333, "type": "electric_scooter", "fusion_lat": 0.0, "bike_id": "aa676ea5b66ad2668736f873afda987c", "name": "aa676ea5b66ad2668736f873afda987c", "lon": -77.04017966666666}, {"is_reserved": 0, "rental_uris": {"ios": "https://dc.lft.to/lastmile_qr_scan", "android": "https://dc.lft.to/lastmile_qr_scan"}, "is_disabled": 0, "fusion_lon": 0.0, "lat": 38.924217666666664, "type": "electric_scooter", "fusion_lat": 0.0, "bike_id": "ba39a996f2dd17c3dc832306096d3881", "name": "ba39a996f2dd17c3dc832306096d3881", "lon": -77.05064083333333}, {"is_reserved": 0, "rental_uris": {"ios": "https://dc.lft.to/lastmile_qr_scan", "android": "https://dc.lft.to/lastmile_qr_scan"}, "is_disabled": 0, "fusion_lon": 0.0, "lat": 38.91477666666667, "type": "electric_scooter", "fusion_lat": 0.0, "bike_id": "0834a55d00045220af6df42dc3377b36", "name": "0834a55d00045220af6df42dc3377b36", "lon": -77.02388966666666}, {"is_reserved": 0, "rental_uris": {"ios": "https://dc.lft.to/lastmile_qr_scan", "android": "https://dc.lft.to/lastmile_qr_scan"}, "is_disabled": 0, "fusion_lon": 0.0, "lat": 38.93051766666667, "type": "electric_scooter", "fusion_lat": 0.0, "bike_id": "9bf62834856e6a0af5b8f10110e44aa3", "name": "9bf62834856e6a0af5b8f10110e44aa3", "lon": -77.03191916666667}, {"is_reserved": 0, "rental_uris": {"ios": "https://dc.lft.to/lastmile_qr_scan", "android": "https://dc.lft.to/lastmile_qr_scan"}, "is_disabled": 0, "fusion_lon": 0.0, "lat": 38.90950766666667, "type": "electric_scooter", "fusion_lat": 0.0, "bike_id": "a92435127379844d20f51391548fa18f", "name": "a92435127379844d20f51391548fa18f", "lon": -77.04659366666667}, {"is_reserved": 0, "rental_uris": {"ios": "https://dc.lft.to/lastmile_qr_scan", "android": "https://dc.lft.to/lastmile_qr_scan"}, "is_disabled": 0, "fusion_lon": 0.0, "lat": 38.964975833333334, "type": "electric_bike", "fusion_lat": 0.0, "bike_id": "e440fa9807ba2f57b8ccce1e91f1c154", "name": "e440fa9807ba2f57b8ccce1e91f1c154", "lon": -77.06491183333333}, {"is_reserved": 0, "rental_uris": {"ios": "https://dc.lft.to/lastmile_qr_scan", "android": "https://dc.lft.to/lastmile_qr_scan"}, "is_disabled": 0, "fusion_lon": 0.0, "lat": 38.866597166666665, "type": "electric_scooter", "fusion_lat": 0.0, "bike_id": "9b461a4623b5ab9d00b8c69c89a8836f", "name": "9b461a4623b5ab9d00b8c69c89a8836f", "lon": -76.98908233333333}, {"is_reserved": 0, "rental_uris": {"ios": "https://dc.lft.to/lastmile_qr_scan", "android": "https://dc.lft.to/lastmile_qr_scan"}, "is_disabled": 0, "fusion_lon": 0.0, "lat": 38.91632966666667, "type": "electric_scooter", "fusion_lat": 0.0, "bike_id": "eb0ee4b9dc20079f942f37e14c6356dd", "name": "eb0ee4b9dc20079f942f37e14c6356dd", "lon": -77.01369966666667}, {"is_reserved": 0, "rental_uris": {"ios": "https://dc.lft.to/lastmile_qr_scan", "android": "https://dc.lft.to/lastmile_qr_scan"}, "is_disabled": 0, "fusion_lon": 0.0, "lat": 38.889708666666664, "type": "electric_scooter", "fusion_lat": 0.0, "bike_id": "3d6230b6947395364484e2592859868e", "name": "3d6230b6947395364484e2592859868e", "lon": -76.93737166666666}, {"is_reserved": 0, "rental_uris": {"ios": "https://dc.lft.to/lastmile_qr_scan", "android": "https://dc.lft.to/lastmile_qr_scan"}, "is_disabled": 0, "fusion_lon": 0.0, "lat": 38.945957, "type": "electric_scooter", "fusion_lat": 0.0, "bike_id": "6836d6fff4be0ae51475dd70f39ab713", "name": "6836d6fff4be0ae51475dd70f39ab713", "lon": -77.02983783333333}, {"is_reserved": 0, "rental_uris": {"ios": "https://dc.lft.to/lastmile_qr_scan", "android": "https://dc.lft.to/lastmile_qr_scan"}, "is_disabled": 0, "fusion_lon": 0.0, "lat": 38.91612966666667, "type": "electric_scooter", "fusion_lat": 0.0, "bike_id": "b4d4f3e1edaf274d4b085302611570ec", "name": "b4d4f3e1edaf274d4b085302611570ec", "lon": -77.021247}, {"is_reserved": 0, "rental_uris": {"ios": "https://dc.lft.to/lastmile_qr_scan", "android": "https://dc.lft.to/lastmile_qr_scan"}, "is_disabled": 0, "fusion_lon": 0.0, "lat": 38.8427195, "type": "electric_bike", "fusion_lat": 0.0, "bike_id": "2c74345db846ceca97932c8ef61a2004", "name": "2c74345db846ceca97932c8ef61a2004", "lon": -76.98845316666667}, {"is_reserved": 0, "rental_uris": {"ios": "https://dc.lft.to/lastmile_qr_scan", "android": "https://dc.lft.to/lastmile_qr_scan"}, "is_disabled": 0, "fusion_lon": 0.0, "lat": 38.91773966666667, "type": "electric_scooter", "fusion_lat": 0.0, "bike_id": "632c4b8e4b9a855482ce7b257b3564be", "name": "632c4b8e4b9a855482ce7b257b3564be", "lon": -77.02312466666666}, {"is_reserved": 0, "rental_uris": {"ios": "https://dc.lft.to/lastmile_qr_scan", "android": "https://dc.lft.to/lastmile_qr_scan"}, "is_disabled": 0, "fusion_lon": 0.0, "lat": 38.900479, "type": "electric_scooter", "fusion_lat": 0.0, "bike_id": "fc26bdc0c4782a72c7c053aaf912b66c", "name": "fc26bdc0c4782a72c7c053aaf912b66c", "lon": -77.00863633333333}, {"is_reserved": 0, "rental_uris": {"ios": "https://dc.lft.to/lastmile_qr_scan", "android": "https://dc.lft.to/lastmile_qr_scan"}, "is_disabled": 0, "fusion_lon": 0.0, "lat": 38.884981833333335, "type": "electric_scooter", "fusion_lat": 0.0, "bike_id": "6aca1fa0b94d40c011e0d7d4a05697ac", "name": "6aca1fa0b94d40c011e0d7d4a05697ac", "lon": -77.005666}, {"is_reserved": 0, "rental_uris": {"ios": "https://dc.lft.to/lastmile_qr_scan", "android": "https://dc.lft.to/lastmile_qr_scan"}, "is_disabled": 0, "fusion_lon": 0.0, "lat": 38.9443165, "type": "electric_scooter", "fusion_lat": 0.0, "bike_id": "131408d631e35b3ba19a8a3760a1f345", "name": "131408d631e35b3ba19a8a3760a1f345", "lon": -77.06305283333333}, {"is_reserved": 0, "rental_uris": {"ios": "https://dc.lft.to/lastmile_qr_scan", "android": "https://dc.lft.to/lastmile_qr_scan"}, "is_disabled": 0, "fusion_lon": 0.0, "lat": 38.898938, "type": "electric_scooter", "fusion_lat": 0.0, "bike_id": "71039d7cc045bc37127defa0e8077f2c", "name": "71039d7cc045bc37127defa0e8077f2c", "lon": -77.0334045}, {"is_reserved": 0, "rental_uris": {"ios": "https://dc.lft.to/lastmile_qr_scan", "android": "https://dc.lft.to/lastmile_qr_scan"}, "is_disabled": 0, "fusion_lon": 0.0, "lat": 38.90526533333333, "type": "electric_scooter", "fusion_lat": 0.0, "bike_id": "0099d72efe6e49d5f7470f03fd81b040", "name": "0099d72efe6e49d5f7470f03fd81b040", "lon": -77.060045}, {"is_reserved": 0, "rental_uris": {"ios": "https://dc.lft.to/lastmile_qr_scan", "android": "https://dc.lft.to/lastmile_qr_scan"}, "is_disabled": 0, "fusion_lon": 0.0, "lat": 38.91684383333333, "type": "electric_scooter", "fusion_lat": 0.0, "bike_id": "e8e0eec5f006f81346b5927bc0c6695b", "name": "e8e0eec5f006f81346b5927bc0c6695b", "lon": -77.0220025}, {"is_reserved": 0, "rental_uris": {"ios": "https://dc.lft.to/lastmile_qr_scan", "android": "https://dc.lft.to/lastmile_qr_scan"}, "is_disabled": 0, "fusion_lon": 0.0, "lat": 38.892529333333336, "type": "electric_scooter", "fusion_lat": 0.0, "bike_id": "233a106c96182d607e5d3e714942f73a", "name": "233a106c96182d607e5d3e714942f73a", "lon": -77.02815733333334}, {"is_reserved": 0, "rental_uris": {"ios": "https://dc.lft.to/lastmile_qr_scan", "android": "https://dc.lft.to/lastmile_qr_scan"}, "is_disabled": 0, "fusion_lon": 0.0, "lat": 38.866259166666666, "type": "electric_scooter", "fusion_lat": 0.0, "bike_id": "32a5e59918c471b49ee11a088f0b2c80", "name": "32a5e59918c471b49ee11a088f0b2c80", "lon": -76.98713416666666}, {"is_reserved": 0, "rental_uris": {"ios": "https://dc.lft.to/lastmile_qr_scan", "android": "https://dc.lft.to/lastmile_qr_scan"}, "is_disabled": 0, "fusion_lon": 0.0, "lat": 38.89664116666667, "type": "electric_scooter", "fusion_lat": 0.0, "bike_id": "bec9d7dfb6088ddc9b65715f0c788383", "name": "bec9d7dfb6088ddc9b65715f0c788383", "lon": -76.9883405}, {"is_reserved": 0, "rental_uris": {"ios": "https://dc.lft.to/lastmile_qr_scan", "android": "https://dc.lft.to/lastmile_qr_scan"}, "is_disabled": 0, "fusion_lon": 0.0, "lat": 38.921088, "type": "electric_scooter", "fusion_lat": 0.0, "bike_id": "d771c1d2be97fddd21a78700a739fab3", "name": "d771c1d2be97fddd21a78700a739fab3", "lon": -77.0318405}, {"is_reserved": 0, "rental_uris": {"ios": "https://dc.lft.to/lastmile_qr_scan", "android": "https://dc.lft.to/lastmile_qr_scan"}, "is_disabled": 0, "fusion_lon": 0.0, "lat": 38.895165666666664, "type": "electric_scooter", "fusion_lat": 0.0, "bike_id": "3d9d332fe292839198f6c636289c0624", "name": "3d9d332fe292839198f6c636289c0624", "lon": -77.02934733333333}, {"is_reserved": 0, "rental_uris": {"ios": "https://dc.lft.to/lastmile_qr_scan", "android": "https://dc.lft.to/lastmile_qr_scan"}, "is_disabled": 0, "fusion_lon": 0.0, "lat": 38.900313, "type": "electric_scooter", "fusion_lat": 0.0, "bike_id": "c882cc09c75c84ad1dd02afb771954d1", "name": "c882cc09c75c84ad1dd02afb771954d1", "lon": -77.01209866666666}, {"is_reserved": 0, "rental_uris": {"ios": "https://dc.lft.to/lastmile_qr_scan", "android": "https://dc.lft.to/lastmile_qr_scan"}, "is_disabled": 0, "fusion_lon": 0.0, "lat": 38.9290305, "type": "electric_scooter", "fusion_lat": 0.0, "bike_id": "59901955ffc4f4d95ea92f4071e48164", "name": "59901955ffc4f4d95ea92f4071e48164", "lon": -77.06415833333334}, {"is_reserved": 0, "rental_uris": {"ios": "https://dc.lft.to/lastmile_qr_scan", "android": "https://dc.lft.to/lastmile_qr_scan"}, "is_disabled": 0, "fusion_lon": 0.0, "lat": 38.9008695, "type": "electric_scooter", "fusion_lat": 0.0, "bike_id": "65bf74a756cfe93b1bc31526fad63d90", "name": "65bf74a756cfe93b1bc31526fad63d90", "lon": -77.02531533333334}, {"is_reserved": 0, "rental_uris": {"ios": "https://dc.lft.to/lastmile_qr_scan", "android": "https://dc.lft.to/lastmile_qr_scan"}, "is_disabled": 0, "fusion_lon": 0.0, "lat": 38.914726, "type": "electric_scooter", "fusion_lat": 0.0, "bike_id": "f46aae025b4d2db4f9b5877b242cabd8", "name": "f46aae025b4d2db4f9b5877b242cabd8", "lon": -77.03184516666667}, {"is_reserved": 0, "rental_uris": {"ios": "https://dc.lft.to/lastmile_qr_scan", "android": "https://dc.lft.to/lastmile_qr_scan"}, "is_disabled": 0, "fusion_lon": 0.0, "lat": 38.95646683333333, "type": "electric_bike", "fusion_lat": 0.0, "bike_id": "2f619a69b5314b382efaf684dbe8056d", "name": "2f619a69b5314b382efaf684dbe8056d", "lon": -76.93869716666667}, {"is_reserved": 0, "rental_uris": {"ios": "https://dc.lft.to/lastmile_qr_scan", "android": "https://dc.lft.to/lastmile_qr_scan"}, "is_disabled": 0, "fusion_lon": 0.0, "lat": 38.919567666666666, "type": "electric_scooter", "fusion_lat": 0.0, "bike_id": "9e567ae58517741e6e69ac4e36117dd7", "name": "9e567ae58517741e6e69ac4e36117dd7", "lon": -77.02706883333333}, {"is_reserved": 0, "rental_uris": {"ios": "https://dc.lft.to/lastmile_qr_scan", "android": "https://dc.lft.to/lastmile_qr_scan"}, "is_disabled": 0, "fusion_lon": 0.0, "lat": 38.844648666666664, "type": "electric_bike", "fusion_lat": 0.0, "bike_id": "5a6a7df5847d206bec5a18d806942d4d", "name": "5a6a7df5847d206bec5a18d806942d4d", "lon": -76.987521}, {"is_reserved": 0, "rental_uris": {"ios": "https://dc.lft.to/lastmile_qr_scan", "android": "https://dc.lft.to/lastmile_qr_scan"}, "is_disabled": 0, "fusion_lon": 0.0, "lat": 38.92120833333333, "type": "electric_scooter", "fusion_lat": 0.0, "bike_id": "0ef1961adc5d599c210d15700320f106", "name": "0ef1961adc5d599c210d15700320f106", "lon": -77.04572616666667}, {"is_reserved": 0, "rental_uris": {"ios": "https://dc.lft.to/lastmile_qr_scan", "android": "https://dc.lft.to/lastmile_qr_scan"}, "is_disabled": 0, "fusion_lon": 0.0, "lat": 38.95407766666667, "type": "electric_scooter", "fusion_lat": 0.0, "bike_id": "33dfce09eb917c9ac2b766e618577b0e", "name": "33dfce09eb917c9ac2b766e618577b0e", "lon": -77.027449}, {"is_reserved": 0, "rental_uris": {"ios": "https://dc.lft.to/lastmile_qr_scan", "android": "https://dc.lft.to/lastmile_qr_scan"}, "is_disabled": 0, "fusion_lon": 0.0, "lat": 38.900183166666665, "type": "electric_scooter", "fusion_lat": 0.0, "bike_id": "a8d8340e253ac1e8c0f53ab3358dd68f", "name": "a8d8340e253ac1e8c0f53ab3358dd68f", "lon": -76.99848433333334}, {"is_reserved": 0, "rental_uris": {"ios": "https://dc.lft.to/lastmile_qr_scan", "android": "https://dc.lft.to/lastmile_qr_scan"}, "is_disabled": 0, "fusion_lon": 0.0, "lat": 38.913004666666666, "type": "electric_scooter", "fusion_lat": 0.0, "bike_id": "a0f494d31aa746ae9fe8e0a07ca9490c", "name": "a0f494d31aa746ae9fe8e0a07ca9490c", "lon": -77.036379}, {"is_reserved": 0, "rental_uris": {"ios": "https://dc.lft.to/lastmile_qr_scan", "android": "https://dc.lft.to/lastmile_qr_scan"}, "is_disabled": 0, "fusion_lon": 0.0, "lat": 38.946302833333334, "type": "electric_scooter", "fusion_lat": 0.0, "bike_id": "02f31425da715d9ca81bf75ed01ab122", "name": "02f31425da715d9ca81bf75ed01ab122", "lon": -77.01844133333333}, {"is_reserved": 0, "rental_uris": {"ios": "https://dc.lft.to/lastmile_qr_scan", "android": "https://dc.lft.to/lastmile_qr_scan"}, "is_disabled": 0, "fusion_lon": 0.0, "lat": 38.86524883333333, "type": "electric_scooter", "fusion_lat": 0.0, "bike_id": "cd36c4e3a4dcaa75724a5aa6e30524ff", "name": "cd36c4e3a4dcaa75724a5aa6e30524ff", "lon": -76.99026066666667}, {"is_reserved": 0, "rental_uris": {"ios": "https://dc.lft.to/lastmile_qr_scan", "android": "https://dc.lft.to/lastmile_qr_scan"}, "is_disabled": 0, "fusion_lon": 0.0, "lat": 38.908345, "type": "electric_scooter", "fusion_lat": 0.0, "bike_id": "ba8b19b5da3781508d56f14e7ec5cbf8", "name": "ba8b19b5da3781508d56f14e7ec5cbf8", "lon": -77.04348066666667}, {"is_reserved": 0, "rental_uris": {"ios": "https://dc.lft.to/lastmile_qr_scan", "android": "https://dc.lft.to/lastmile_qr_scan"}, "is_disabled": 0, "fusion_lon": 0.0, "lat": 38.915487166666665, "type": "electric_scooter", "fusion_lat": 0.0, "bike_id": "12bb8b8543c8de16018c4b126cebd0ec", "name": "12bb8b8543c8de16018c4b126cebd0ec", "lon": -77.04613416666666}, {"is_reserved": 0, "rental_uris": {"ios": "https://dc.lft.to/lastmile_qr_scan", "android": "https://dc.lft.to/lastmile_qr_scan"}, "is_disabled": 0, "fusion_lon": 0.0, "lat": 38.866623833333335, "type": "electric_scooter", "fusion_lat": 0.0, "bike_id": "8cd16b8a4afb026afc2a27f780447d3b", "name": "8cd16b8a4afb026afc2a27f780447d3b", "lon": -76.98900183333333}, {"is_reserved": 0, "rental_uris": {"ios": "https://dc.lft.to/lastmile_qr_scan", "android": "https://dc.lft.to/lastmile_qr_scan"}, "is_disabled": 0, "fusion_lon": 0.0, "lat": 38.91467383333333, "type": "electric_scooter", "fusion_lat": 0.0, "bike_id": "1cb923130ef204335b2ac0086f52106b", "name": "1cb923130ef204335b2ac0086f52106b", "lon": -76.98436066666666}, {"is_reserved": 0, "rental_uris": {"ios": "https://dc.lft.to/lastmile_qr_scan", "android": "https://dc.lft.to/lastmile_qr_scan"}, "is_disabled": 0, "fusion_lon": 0.0, "lat": 38.89050733333333, "type": "electric_scooter", "fusion_lat": 0.0, "bike_id": "2b3bba2ad1a0a95e84a6de768a03aa2f", "name": "2b3bba2ad1a0a95e84a6de768a03aa2f", "lon": -76.9375365}, {"is_reserved": 0, "rental_uris": {"ios": "https://dc.lft.to/lastmile_qr_scan", "android": "https://dc.lft.to/lastmile_qr_scan"}, "is_disabled": 0, "fusion_lon": 0.0, "lat": 38.92232283333333, "type": "electric_scooter", "fusion_lat": 0.0, "bike_id": "2466414ff2c9ef7c90b5d5a77c4e796c", "name": "2466414ff2c9ef7c90b5d5a77c4e796c", "lon": -77.02423133333333}, {"is_reserved": 0, "rental_uris": {"ios": "https://dc.lft.to/lastmile_qr_scan", "android": "https://dc.lft.to/lastmile_qr_scan"}, "is_disabled": 0, "fusion_lon": 0.0, "lat": 38.87629733333333, "type": "electric_scooter", "fusion_lat": 0.0, "bike_id": "f413ad3472ccf56ef5df187dc57befb8", "name": "f413ad3472ccf56ef5df187dc57befb8", "lon": -76.965277}, {"is_reserved": 0, "rental_uris": {"ios": "https://dc.lft.to/lastmile_qr_scan", "android": "https://dc.lft.to/lastmile_qr_scan"}, "is_disabled": 0, "fusion_lon": 0.0, "lat": 38.91904, "type": "electric_scooter", "fusion_lat": 0.0, "bike_id": "ac2b5388f212281f078715605bfcfd15", "name": "ac2b5388f212281f078715605bfcfd15", "lon": -77.041117}, {"is_reserved": 0, "rental_uris": {"ios": "https://dc.lft.to/lastmile_qr_scan", "android": "https://dc.lft.to/lastmile_qr_scan"}, "is_disabled": 0, "fusion_lon": 0.0, "lat": 38.89621533333333, "type": "electric_scooter", "fusion_lat": 0.0, "bike_id": "1a388b1a096c32e1eaa314f30dea0ddc", "name": "1a388b1a096c32e1eaa314f30dea0ddc", "lon": -76.956452}, {"is_reserved": 0, "rental_uris": {"ios": "https://dc.lft.to/lastmile_qr_scan", "android": "https://dc.lft.to/lastmile_qr_scan"}, "is_disabled": 0, "fusion_lon": 0.0, "lat": 38.9404565, "type": "electric_scooter", "fusion_lat": 0.0, "bike_id": "8916f6144627c94105a15c428a5cbee4", "name": "8916f6144627c94105a15c428a5cbee4", "lon": -77.02976933333333}, {"is_reserved": 0, "rental_uris": {"ios": "https://dc.lft.to/lastmile_qr_scan", "android": "https://dc.lft.to/lastmile_qr_scan"}, "is_disabled": 0, "fusion_lon": 0.0, "lat": 38.85321033333334, "type": "electric_scooter", "fusion_lat": 0.0, "bike_id": "4dd99b5b862f2c9c235a3637c1e91556", "name": "4dd99b5b862f2c9c235a3637c1e91556", "lon": -76.98005866666666}, {"is_reserved": 0, "rental_uris": {"ios": "https://dc.lft.to/lastmile_qr_scan", "android": "https://dc.lft.to/lastmile_qr_scan"}, "is_disabled": 0, "fusion_lon": 0.0, "lat": 38.893552166666666, "type": "electric_scooter", "fusion_lat": 0.0, "bike_id": "552390f6453bb9b9f5439c4c337ce15e", "name": "552390f6453bb9b9f5439c4c337ce15e", "lon": -77.00334666666667}, {"is_reserved": 0, "rental_uris": {"ios": "https://dc.lft.to/lastmile_qr_scan", "android": "https://dc.lft.to/lastmile_qr_scan"}, "is_disabled": 0, "fusion_lon": 0.0, "lat": 38.89693116666667, "type": "electric_scooter", "fusion_lat": 0.0, "bike_id": "ee296b667b35c552f2dc5aa9b285d572", "name": "ee296b667b35c552f2dc5aa9b285d572", "lon": -77.00491916666667}, {"is_reserved": 0, "rental_uris": {"ios": "https://dc.lft.to/lastmile_qr_scan", "android": "https://dc.lft.to/lastmile_qr_scan"}, "is_disabled": 0, "fusion_lon": 0.0, "lat": 38.916163, "type": "electric_scooter", "fusion_lat": 0.0, "bike_id": "47774e26d11f09fe0fa61beb48805d69", "name": "47774e26d11f09fe0fa61beb48805d69", "lon": -77.03158916666666}, {"is_reserved": 0, "rental_uris": {"ios": "https://dc.lft.to/lastmile_qr_scan", "android": "https://dc.lft.to/lastmile_qr_scan"}, "is_disabled": 0, "fusion_lon": 0.0, "lat": 38.9032245, "type": "electric_scooter", "fusion_lat": 0.0, "bike_id": "49fa4cdddc87b4b46c8d5ca14077e1d1", "name": "49fa4cdddc87b4b46c8d5ca14077e1d1", "lon": -76.97296116666666}, {"is_reserved": 0, "rental_uris": {"ios": "https://dc.lft.to/lastmile_qr_scan", "android": "https://dc.lft.to/lastmile_qr_scan"}, "is_disabled": 0, "fusion_lon": 0.0, "lat": 38.89604883333333, "type": "electric_scooter", "fusion_lat": 0.0, "bike_id": "8c7f4d77954a5780688e2c5f72aad1d7", "name": "8c7f4d77954a5780688e2c5f72aad1d7", "lon": -77.04237416666666}, {"is_reserved": 0, "rental_uris": {"ios": "https://dc.lft.to/lastmile_qr_scan", "android": "https://dc.lft.to/lastmile_qr_scan"}, "is_disabled": 0, "fusion_lon": 0.0, "lat": 38.88742633333333, "type": "electric_scooter", "fusion_lat": 0.0, "bike_id": "c73079ba8c019c71552fb673a4e62520", "name": "c73079ba8c019c71552fb673a4e62520", "lon": -77.02070816666667}, {"is_reserved": 0, "rental_uris": {"ios": "https://dc.lft.to/lastmile_qr_scan", "android": "https://dc.lft.to/lastmile_qr_scan"}, "is_disabled": 0, "fusion_lon": 0.0, "lat": 38.933157, "type": "electric_scooter", "fusion_lat": 0.0, "bike_id": "0cf7949e7fa4bf8948ce62c9a660f4f9", "name": "0cf7949e7fa4bf8948ce62c9a660f4f9", "lon": -77.03287383333333}, {"is_reserved": 0, "rental_uris": {"ios": "https://dc.lft.to/lastmile_qr_scan", "android": "https://dc.lft.to/lastmile_qr_scan"}, "is_disabled": 0, "fusion_lon": 0.0, "lat": 38.961518833333336, "type": "electric_scooter", "fusion_lat": 0.0, "bike_id": "42a6d0fad5575bed76bbc83cb484c415", "name": "42a6d0fad5575bed76bbc83cb484c415", "lon": -76.99772933333334}, {"is_reserved": 0, "rental_uris": {"ios": "https://dc.lft.to/lastmile_qr_scan", "android": "https://dc.lft.to/lastmile_qr_scan"}, "is_disabled": 0, "fusion_lon": 0.0, "lat": 38.922553, "type": "electric_scooter", "fusion_lat": 0.0, "bike_id": "2790486691de3b005ba8c3d8946d3d4b", "name": "2790486691de3b005ba8c3d8946d3d4b", "lon": -77.04132216666666}, {"is_reserved": 0, "rental_uris": {"ios": "https://dc.lft.to/lastmile_qr_scan", "android": "https://dc.lft.to/lastmile_qr_scan"}, "is_disabled": 0, "fusion_lon": 0.0, "lat": 38.92450866666667, "type": "electric_bike", "fusion_lat": 0.0, "bike_id": "c8c3606d35033db41c3406e9b2d99ba1", "name": "c8c3606d35033db41c3406e9b2d99ba1", "lon": -77.05759}, {"is_reserved": 0, "rental_uris": {"ios": "https://dc.lft.to/lastmile_qr_scan", "android": "https://dc.lft.to/lastmile_qr_scan"}, "is_disabled": 0, "fusion_lon": 0.0, "lat": 38.91694283333333, "type": "electric_scooter", "fusion_lat": 0.0, "bike_id": "75cf299326c0bb72f8da7f845d4d0f1d", "name": "75cf299326c0bb72f8da7f845d4d0f1d", "lon": -77.03628266666666}, {"is_reserved": 0, "rental_uris": {"ios": "https://dc.lft.to/lastmile_qr_scan", "android": "https://dc.lft.to/lastmile_qr_scan"}, "is_disabled": 0, "fusion_lon": 0.0, "lat": 38.90377133333333, "type": "electric_scooter", "fusion_lat": 0.0, "bike_id": "b1e0a6d9f8e5b92730da04cf5331985a", "name": "b1e0a6d9f8e5b92730da04cf5331985a", "lon": -77.04674016666667}, {"is_reserved": 0, "rental_uris": {"ios": "https://dc.lft.to/lastmile_qr_scan", "android": "https://dc.lft.to/lastmile_qr_scan"}, "is_disabled": 0, "fusion_lon": 0.0, "lat": 38.93098833333333, "type": "electric_scooter", "fusion_lat": 0.0, "bike_id": "cf2c606d3b6aa4d5ab569e1abb897756", "name": "cf2c606d3b6aa4d5ab569e1abb897756", "lon": -77.02396}, {"is_reserved": 0, "rental_uris": {"ios": "https://dc.lft.to/lastmile_qr_scan", "android": "https://dc.lft.to/lastmile_qr_scan"}, "is_disabled": 0, "fusion_lon": 0.0, "lat": 38.8723225, "type": "electric_scooter", "fusion_lat": 0.0, "bike_id": "39245945ac6176698f61cfd4371f1220", "name": "39245945ac6176698f61cfd4371f1220", "lon": -77.012078}, {"is_reserved": 0, "rental_uris": {"ios": "https://dc.lft.to/lastmile_qr_scan", "android": "https://dc.lft.to/lastmile_qr_scan"}, "is_disabled": 0, "fusion_lon": 0.0, "lat": 38.90734966666667, "type": "electric_scooter", "fusion_lat": 0.0, "bike_id": "0c2fc7683fa31e17b34af19bc6b00c45", "name": "0c2fc7683fa31e17b34af19bc6b00c45", "lon": -77.03982816666667}, {"is_reserved": 0, "rental_uris": {"ios": "https://dc.lft.to/lastmile_qr_scan", "android": "https://dc.lft.to/lastmile_qr_scan"}, "is_disabled": 0, "fusion_lon": 0.0, "lat": 38.89216966666667, "type": "electric_scooter", "fusion_lat": 0.0, "bike_id": "a088644777810d21015908bead9f8785", "name": "a088644777810d21015908bead9f8785", "lon": -77.04368766666667}, {"is_reserved": 0, "rental_uris": {"ios": "https://dc.lft.to/lastmile_qr_scan", "android": "https://dc.lft.to/lastmile_qr_scan"}, "is_disabled": 0, "fusion_lon": 0.0, "lat": 38.858084833333336, "type": "electric_scooter", "fusion_lat": 0.0, "bike_id": "6700edff04733b9817529008513261fd", "name": "6700edff04733b9817529008513261fd", "lon": -76.98654666666667}, {"is_reserved": 0, "rental_uris": {"ios": "https://dc.lft.to/lastmile_qr_scan", "android": "https://dc.lft.to/lastmile_qr_scan"}, "is_disabled": 0, "fusion_lon": 0.0, "lat": 38.895352333333335, "type": "electric_scooter", "fusion_lat": 0.0, "bike_id": "6dd42971014c57ec732a2d3e6e0cd886", "name": "6dd42971014c57ec732a2d3e6e0cd886", "lon": -77.032196}, {"is_reserved": 0, "rental_uris": {"ios": "https://dc.lft.to/lastmile_qr_scan", "android": "https://dc.lft.to/lastmile_qr_scan"}, "is_disabled": 0, "fusion_lon": 0.0, "lat": 38.94980316666667, "type": "electric_scooter", "fusion_lat": 0.0, "bike_id": "89798d733e561c72d1c709f536d845d7", "name": "89798d733e561c72d1c709f536d845d7", "lon": -77.02698116666667}, {"is_reserved": 0, "rental_uris": {"ios": "https://dc.lft.to/lastmile_qr_scan", "android": "https://dc.lft.to/lastmile_qr_scan"}, "is_disabled": 0, "fusion_lon": 0.0, "lat": 38.9439375, "type": "electric_scooter", "fusion_lat": 0.0, "bike_id": "98b075e17d17e22d662ca2719ce18d88", "name": "98b075e17d17e22d662ca2719ce18d88", "lon": -77.02611866666666}, {"is_reserved": 0, "rental_uris": {"ios": "https://dc.lft.to/lastmile_qr_scan", "android": "https://dc.lft.to/lastmile_qr_scan"}, "is_disabled": 0, "fusion_lon": 0.0, "lat": 38.892213, "type": "electric_scooter", "fusion_lat": 0.0, "bike_id": "2a1ec6b5f5c749aace4f59362abfcbc0", "name": "2a1ec6b5f5c749aace4f59362abfcbc0", "lon": -77.02444966666667}, {"is_reserved": 0, "rental_uris": {"ios": "https://dc.lft.to/lastmile_qr_scan", "android": "https://dc.lft.to/lastmile_qr_scan"}, "is_disabled": 0, "fusion_lon": 0.0, "lat": 38.943054000000004, "type": "electric_scooter", "fusion_lat": 0.0, "bike_id": "dd1893d621816288ee22b96371e91ff9", "name": "dd1893d621816288ee22b96371e91ff9", "lon": -77.06171983333333}, {"is_reserved": 0, "rental_uris": {"ios": "https://dc.lft.to/lastmile_qr_scan", "android": "https://dc.lft.to/lastmile_qr_scan"}, "is_disabled": 0, "fusion_lon": 0.0, "lat": 38.90484683333333, "type": "electric_scooter", "fusion_lat": 0.0, "bike_id": "7ad33095a9867131ba75e66b2abb5665", "name": "7ad33095a9867131ba75e66b2abb5665", "lon": -77.06013883333334}, {"is_reserved": 0, "rental_uris": {"ios": "https://dc.lft.to/lastmile_qr_scan", "android": "https://dc.lft.to/lastmile_qr_scan"}, "is_disabled": 0, "fusion_lon": 0.0, "lat": 38.9148755, "type": "electric_scooter", "fusion_lat": 0.0, "bike_id": "3a62b96f98b9496e04aabdcee4ecc187", "name": "3a62b96f98b9496e04aabdcee4ecc187", "lon": -77.03234883333333}, {"is_reserved": 0, "rental_uris": {"ios": "https://dc.lft.to/lastmile_qr_scan", "android": "https://dc.lft.to/lastmile_qr_scan"}, "is_disabled": 0, "fusion_lon": 0.0, "lat": 38.87495633333333, "type": "electric_scooter", "fusion_lat": 0.0, "bike_id": "2652aceee0db9234cb5596725bd73c5f", "name": "2652aceee0db9234cb5596725bd73c5f", "lon": -77.00337683333333}, {"is_reserved": 0, "rental_uris": {"ios": "https://dc.lft.to/lastmile_qr_scan", "android": "https://dc.lft.to/lastmile_qr_scan"}, "is_disabled": 0, "fusion_lon": 0.0, "lat": 38.92362816666667, "type": "electric_scooter", "fusion_lat": 0.0, "bike_id": "570ee7efc4a99ae418e40b11319a8c4e", "name": "570ee7efc4a99ae418e40b11319a8c4e", "lon": -77.05130316666667}, {"is_reserved": 0, "rental_uris": {"ios": "https://dc.lft.to/lastmile_qr_scan", "android": "https://dc.lft.to/lastmile_qr_scan"}, "is_disabled": 0, "fusion_lon": 0.0, "lat": 38.846216166666665, "type": "electric_bike", "fusion_lat": 0.0, "bike_id": "0b913a005b90a7d5de1ef88c16d6233d", "name": "0b913a005b90a7d5de1ef88c16d6233d", "lon": -77.069383}, {"is_reserved": 0, "rental_uris": {"ios": "https://dc.lft.to/lastmile_qr_scan", "android": "https://dc.lft.to/lastmile_qr_scan"}, "is_disabled": 0, "fusion_lon": 0.0, "lat": 38.94301083333333, "type": "electric_scooter", "fusion_lat": 0.0, "bike_id": "263f69820d4c42e4a42cd593225e4aee", "name": "263f69820d4c42e4a42cd593225e4aee", "lon": -77.03261983333333}, {"is_reserved": 0, "rental_uris": {"ios": "https://dc.lft.to/lastmile_qr_scan", "android": "https://dc.lft.to/lastmile_qr_scan"}, "is_disabled": 0, "fusion_lon": 0.0, "lat": 38.89279033333333, "type": "electric_scooter", "fusion_lat": 0.0, "bike_id": "2dc78f3e564ca105d82bf6d19fcc5edb", "name": "2dc78f3e564ca105d82bf6d19fcc5edb", "lon": -77.050389}, {"is_reserved": 0, "rental_uris": {"ios": "https://dc.lft.to/lastmile_qr_scan", "android": "https://dc.lft.to/lastmile_qr_scan"}, "is_disabled": 0, "fusion_lon": 0.0, "lat": 38.924640333333336, "type": "electric_scooter", "fusion_lat": 0.0, "bike_id": "38ffcd27999e7c2ba45134caa275f2fe", "name": "38ffcd27999e7c2ba45134caa275f2fe", "lon": -77.05751433333333}, {"is_reserved": 0, "rental_uris": {"ios": "https://dc.lft.to/lastmile_qr_scan", "android": "https://dc.lft.to/lastmile_qr_scan"}, "is_disabled": 0, "fusion_lon": 0.0, "lat": 38.884818, "type": "electric_scooter", "fusion_lat": 0.0, "bike_id": "43193b9e49571149e3423840dc4450d3", "name": "43193b9e49571149e3423840dc4450d3", "lon": -76.9452695}, {"is_reserved": 0, "rental_uris": {"ios": "https://dc.lft.to/lastmile_qr_scan", "android": "https://dc.lft.to/lastmile_qr_scan"}, "is_disabled": 0, "fusion_lon": 0.0, "lat": 38.91912333333333, "type": "electric_scooter", "fusion_lat": 0.0, "bike_id": "9bd3708ae5fa9045b5ad262514bf7d74", "name": "9bd3708ae5fa9045b5ad262514bf7d74", "lon": -77.0462695}, {"is_reserved": 0, "rental_uris": {"ios": "https://dc.lft.to/lastmile_qr_scan", "android": "https://dc.lft.to/lastmile_qr_scan"}, "is_disabled": 0, "fusion_lon": 0.0, "lat": 38.9211815, "type": "electric_scooter", "fusion_lat": 0.0, "bike_id": "7e6b270c3b4fd372dc4a60023d6a0166", "name": "7e6b270c3b4fd372dc4a60023d6a0166", "lon": -77.04221233333334}, {"is_reserved": 0, "rental_uris": {"ios": "https://dc.lft.to/lastmile_qr_scan", "android": "https://dc.lft.to/lastmile_qr_scan"}, "is_disabled": 0, "fusion_lon": 0.0, "lat": 38.90875916666667, "type": "electric_scooter", "fusion_lat": 0.0, "bike_id": "4268674d245a67f1a35a2b7c041622bb", "name": "4268674d245a67f1a35a2b7c041622bb", "lon": -76.997888}, {"is_reserved": 0, "rental_uris": {"ios": "https://dc.lft.to/lastmile_qr_scan", "android": "https://dc.lft.to/lastmile_qr_scan"}, "is_disabled": 0, "fusion_lon": 0.0, "lat": 38.915243833333335, "type": "electric_scooter", "fusion_lat": 0.0, "bike_id": "f65e4236c3140b59da924af29a73eeda", "name": "f65e4236c3140b59da924af29a73eeda", "lon": -77.01999233333333}, {"is_reserved": 0, "rental_uris": {"ios": "https://dc.lft.to/lastmile_qr_scan", "android": "https://dc.lft.to/lastmile_qr_scan"}, "is_disabled": 0, "fusion_lon": 0.0, "lat": 38.9222865, "type": "electric_scooter", "fusion_lat": 0.0, "bike_id": "6ab910f756aefdce217c8adc2bcc7bd1", "name": "6ab910f756aefdce217c8adc2bcc7bd1", "lon": -77.041301}, {"is_reserved": 0, "rental_uris": {"ios": "https://dc.lft.to/lastmile_qr_scan", "android": "https://dc.lft.to/lastmile_qr_scan"}, "is_disabled": 0, "fusion_lon": 0.0, "lat": 38.92365683333333, "type": "electric_scooter", "fusion_lat": 0.0, "bike_id": "08420802626dca8af5b4d051b537ceac", "name": "08420802626dca8af5b4d051b537ceac", "lon": -77.01914033333334}, {"is_reserved": 0, "rental_uris": {"ios": "https://dc.lft.to/lastmile_qr_scan", "android": "https://dc.lft.to/lastmile_qr_scan"}, "is_disabled": 0, "fusion_lon": 0.0, "lat": 38.93633166666667, "type": "electric_scooter", "fusion_lat": 0.0, "bike_id": "23eb65fdf510442f38c3fd9981bf378b", "name": "23eb65fdf510442f38c3fd9981bf378b", "lon": -77.05880783333333}, {"is_reserved": 0, "rental_uris": {"ios": "https://dc.lft.to/lastmile_qr_scan", "android": "https://dc.lft.to/lastmile_qr_scan"}, "is_disabled": 0, "fusion_lon": 0.0, "lat": 38.90335233333333, "type": "electric_scooter", "fusion_lat": 0.0, "bike_id": "d2062fb1e9220e38537d7481df43b36f", "name": "d2062fb1e9220e38537d7481df43b36f", "lon": -77.02592033333333}, {"is_reserved": 0, "rental_uris": {"ios": "https://dc.lft.to/lastmile_qr_scan", "android": "https://dc.lft.to/lastmile_qr_scan"}, "is_disabled": 0, "fusion_lon": 0.0, "lat": 38.92474033333333, "type": "electric_scooter", "fusion_lat": 0.0, "bike_id": "c87dc3d76298e2c5dc44ae4d9e6684da", "name": "c87dc3d76298e2c5dc44ae4d9e6684da", "lon": -77.033752}, {"is_reserved": 0, "rental_uris": {"ios": "https://dc.lft.to/lastmile_qr_scan", "android": "https://dc.lft.to/lastmile_qr_scan"}, "is_disabled": 0, "fusion_lon": 0.0, "lat": 38.880388833333335, "type": "electric_scooter", "fusion_lat": 0.0, "bike_id": "3a5d6fdaee23dda2febe1ed78a4626a4", "name": "3a5d6fdaee23dda2febe1ed78a4626a4", "lon": -77.00564}, {"is_reserved": 0, "rental_uris": {"ios": "https://dc.lft.to/lastmile_qr_scan", "android": "https://dc.lft.to/lastmile_qr_scan"}, "is_disabled": 0, "fusion_lon": 0.0, "lat": 38.89603966666667, "type": "electric_scooter", "fusion_lat": 0.0, "bike_id": "ef7da526c2a43354a189d18438288dc5", "name": "ef7da526c2a43354a189d18438288dc5", "lon": -76.95524716666667}, {"is_reserved": 0, "rental_uris": {"ios": "https://dc.lft.to/lastmile_qr_scan", "android": "https://dc.lft.to/lastmile_qr_scan"}, "is_disabled": 0, "fusion_lon": 0.0, "lat": 38.888852666666665, "type": "electric_scooter", "fusion_lat": 0.0, "bike_id": "b0d3be9d982d493de1c71f069dbf57cb", "name": "b0d3be9d982d493de1c71f069dbf57cb", "lon": -76.93154083333333}, {"is_reserved": 0, "rental_uris": {"ios": "https://dc.lft.to/lastmile_qr_scan", "android": "https://dc.lft.to/lastmile_qr_scan"}, "is_disabled": 0, "fusion_lon": 0.0, "lat": 38.8874345, "type": "electric_scooter", "fusion_lat": 0.0, "bike_id": "e621b9daf4a7bc0a387bf835512a49bb", "name": "e621b9daf4a7bc0a387bf835512a49bb", "lon": -77.0216865}, {"is_reserved": 0, "rental_uris": {"ios": "https://dc.lft.to/lastmile_qr_scan", "android": "https://dc.lft.to/lastmile_qr_scan"}, "is_disabled": 0, "fusion_lon": 0.0, "lat": 38.903486666666666, "type": "electric_scooter", "fusion_lat": 0.0, "bike_id": "e8795da88aa17df5be8628c66016e8e5", "name": "e8795da88aa17df5be8628c66016e8e5", "lon": -77.04260633333334}, {"is_reserved": 0, "rental_uris": {"ios": "https://dc.lft.to/lastmile_qr_scan", "android": "https://dc.lft.to/lastmile_qr_scan"}, "is_disabled": 0, "fusion_lon": 0.0, "lat": 38.93248, "type": "electric_scooter", "fusion_lat": 0.0, "bike_id": "286fc48e40ff0e4b7ac2450283ccfe53", "name": "286fc48e40ff0e4b7ac2450283ccfe53", "lon": -77.03280166666667}, {"is_reserved": 0, "rental_uris": {"ios": "https://dc.lft.to/lastmile_qr_scan", "android": "https://dc.lft.to/lastmile_qr_scan"}, "is_disabled": 0, "fusion_lon": 0.0, "lat": 38.931374166666664, "type": "electric_scooter", "fusion_lat": 0.0, "bike_id": "39d6c4e8937735ce1d4b6ef8ce764e8e", "name": "39d6c4e8937735ce1d4b6ef8ce764e8e", "lon": -77.05617633333334}, {"is_reserved": 0, "rental_uris": {"ios": "https://dc.lft.to/lastmile_qr_scan", "android": "https://dc.lft.to/lastmile_qr_scan"}, "is_disabled": 0, "fusion_lon": 0.0, "lat": 38.90722933333333, "type": "electric_bike", "fusion_lat": 0.0, "bike_id": "914bf3620140d49b7aa7a6079007d607", "name": "914bf3620140d49b7aa7a6079007d607", "lon": -77.0290085}, {"is_reserved": 0, "rental_uris": {"ios": "https://dc.lft.to/lastmile_qr_scan", "android": "https://dc.lft.to/lastmile_qr_scan"}, "is_disabled": 0, "fusion_lon": 0.0, "lat": 38.922030166666666, "type": "electric_scooter", "fusion_lat": 0.0, "bike_id": "4280de42d0ba778ceb44fba4208aa2cd", "name": "4280de42d0ba778ceb44fba4208aa2cd", "lon": -77.04018066666667}, {"is_reserved": 0, "rental_uris": {"ios": "https://dc.lft.to/lastmile_qr_scan", "android": "https://dc.lft.to/lastmile_qr_scan"}, "is_disabled": 0, "fusion_lon": 0.0, "lat": 38.924234166666665, "type": "electric_scooter", "fusion_lat": 0.0, "bike_id": "5c22b55fc151c829065256011a612219", "name": "5c22b55fc151c829065256011a612219", "lon": -77.042344}, {"is_reserved": 0, "rental_uris": {"ios": "https://dc.lft.to/lastmile_qr_scan", "android": "https://dc.lft.to/lastmile_qr_scan"}, "is_disabled": 0, "fusion_lon": 0.0, "lat": 38.91016716666667, "type": "electric_scooter", "fusion_lat": 0.0, "bike_id": "3f1af45918db94fdcb4f57b84c3d18d1", "name": "3f1af45918db94fdcb4f57b84c3d18d1", "lon": -77.0545665}, {"is_reserved": 0, "rental_uris": {"ios": "https://dc.lft.to/lastmile_qr_scan", "android": "https://dc.lft.to/lastmile_qr_scan"}, "is_disabled": 0, "fusion_lon": 0.0, "lat": 38.893741, "type": "electric_scooter", "fusion_lat": 0.0, "bike_id": "6d5e8ea7538a782151f863c0f3b1c78c", "name": "6d5e8ea7538a782151f863c0f3b1c78c", "lon": -77.0480085}, {"is_reserved": 0, "rental_uris": {"ios": "https://dc.lft.to/lastmile_qr_scan", "android": "https://dc.lft.to/lastmile_qr_scan"}, "is_disabled": 0, "fusion_lon": 0.0, "lat": 38.890598, "type": "electric_scooter", "fusion_lat": 0.0, "bike_id": "69193fc1ba72c84c8f055ea88c0a6770", "name": "69193fc1ba72c84c8f055ea88c0a6770", "lon": -76.9432885}, {"is_reserved": 0, "rental_uris": {"ios": "https://dc.lft.to/lastmile_qr_scan", "android": "https://dc.lft.to/lastmile_qr_scan"}, "is_disabled": 0, "fusion_lon": 0.0, "lat": 38.90784566666667, "type": "electric_scooter", "fusion_lat": 0.0, "bike_id": "b9c0072898c619d50b08997790433bcf", "name": "b9c0072898c619d50b08997790433bcf", "lon": -77.0383025}, {"is_reserved": 0, "rental_uris": {"ios": "https://dc.lft.to/lastmile_qr_scan", "android": "https://dc.lft.to/lastmile_qr_scan"}, "is_disabled": 0, "fusion_lon": 0.0, "lat": 38.86607716666666, "type": "electric_bike", "fusion_lat": 0.0, "bike_id": "2bdc46c944ee1d34084771ee752a1940", "name": "2bdc46c944ee1d34084771ee752a1940", "lon": -76.94569466666667}, {"is_reserved": 0, "rental_uris": {"ios": "https://dc.lft.to/lastmile_qr_scan", "android": "https://dc.lft.to/lastmile_qr_scan"}, "is_disabled": 0, "fusion_lon": 0.0, "lat": 38.924416666666666, "type": "electric_scooter", "fusion_lat": 0.0, "bike_id": "996c03e6c0d797caa66187579d083071", "name": "996c03e6c0d797caa66187579d083071", "lon": -77.02161166666667}, {"is_reserved": 0, "rental_uris": {"ios": "https://dc.lft.to/lastmile_qr_scan", "android": "https://dc.lft.to/lastmile_qr_scan"}, "is_disabled": 0, "fusion_lon": 0.0, "lat": 38.858050166666665, "type": "electric_scooter", "fusion_lat": 0.0, "bike_id": "aed501f0507740d282297e5fe367225f", "name": "aed501f0507740d282297e5fe367225f", "lon": -76.98651816666667}, {"is_reserved": 0, "rental_uris": {"ios": "https://dc.lft.to/lastmile_qr_scan", "android": "https://dc.lft.to/lastmile_qr_scan"}, "is_disabled": 0, "fusion_lon": 0.0, "lat": 38.924639166666665, "type": "electric_bike", "fusion_lat": 0.0, "bike_id": "bb508468b66d4f3cc5bed5df9f0ebbfd", "name": "bb508468b66d4f3cc5bed5df9f0ebbfd", "lon": -77.20840183333334}, {"is_reserved": 0, "rental_uris": {"ios": "https://dc.lft.to/lastmile_qr_scan", "android": "https://dc.lft.to/lastmile_qr_scan"}, "is_disabled": 0, "fusion_lon": 0.0, "lat": 38.918709, "type": "electric_scooter", "fusion_lat": 0.0, "bike_id": "9ef5d821a3218b8f27677cfab1b8e910", "name": "9ef5d821a3218b8f27677cfab1b8e910", "lon": -77.0318085}, {"is_reserved": 0, "rental_uris": {"ios": "https://dc.lft.to/lastmile_qr_scan", "android": "https://dc.lft.to/lastmile_qr_scan"}, "is_disabled": 0, "fusion_lon": 0.0, "lat": 38.901988333333335, "type": "electric_scooter", "fusion_lat": 0.0, "bike_id": "e65b47207e7e1bda468d589919746de0", "name": "e65b47207e7e1bda468d589919746de0", "lon": -76.982309}, {"is_reserved": 0, "rental_uris": {"ios": "https://dc.lft.to/lastmile_qr_scan", "android": "https://dc.lft.to/lastmile_qr_scan"}, "is_disabled": 0, "fusion_lon": 0.0, "lat": 38.910053833333336, "type": "electric_scooter", "fusion_lat": 0.0, "bike_id": "c3adebb23511e32ef7e9a4c7acb02faa", "name": "c3adebb23511e32ef7e9a4c7acb02faa", "lon": -77.0345405}, {"is_reserved": 0, "rental_uris": {"ios": "https://dc.lft.to/lastmile_qr_scan", "android": "https://dc.lft.to/lastmile_qr_scan"}, "is_disabled": 0, "fusion_lon": 0.0, "lat": 38.93591683333333, "type": "electric_scooter", "fusion_lat": 0.0, "bike_id": "237e8014ee659a74f46ba32e2d9f90fc", "name": "237e8014ee659a74f46ba32e2d9f90fc", "lon": -77.02329883333333}, {"is_reserved": 0, "rental_uris": {"ios": "https://dc.lft.to/lastmile_qr_scan", "android": "https://dc.lft.to/lastmile_qr_scan"}, "is_disabled": 0, "fusion_lon": 0.0, "lat": 38.94166533333333, "type": "electric_scooter", "fusion_lat": 0.0, "bike_id": "7596afc30d8d27390176979a0b3a5ad2", "name": "7596afc30d8d27390176979a0b3a5ad2", "lon": -77.02536216666667}, {"is_reserved": 0, "rental_uris": {"ios": "https://dc.lft.to/lastmile_qr_scan", "android": "https://dc.lft.to/lastmile_qr_scan"}, "is_disabled": 0, "fusion_lon": 0.0, "lat": 38.92866, "type": "electric_scooter", "fusion_lat": 0.0, "bike_id": "81eb4fdd7fa9c2699d0f0e90486fc0bd", "name": "81eb4fdd7fa9c2699d0f0e90486fc0bd", "lon": -77.03430966666667}, {"is_reserved": 0, "rental_uris": {"ios": "https://dc.lft.to/lastmile_qr_scan", "android": "https://dc.lft.to/lastmile_qr_scan"}, "is_disabled": 0, "fusion_lon": 0.0, "lat": 38.8919115, "type": "electric_bike", "fusion_lat": 0.0, "bike_id": "46ed3909ad4914a80a13f8c419baf057", "name": "46ed3909ad4914a80a13f8c419baf057", "lon": -77.12262366666667}, {"is_reserved": 0, "rental_uris": {"ios": "https://dc.lft.to/lastmile_qr_scan", "android": "https://dc.lft.to/lastmile_qr_scan"}, "is_disabled": 0, "fusion_lon": 0.0, "lat": 38.885339, "type": "electric_scooter", "fusion_lat": 0.0, "bike_id": "c0588a16a1dd4cc642ad6466cdb43d48", "name": "c0588a16a1dd4cc642ad6466cdb43d48", "lon": -76.997891}, {"is_reserved": 0, "rental_uris": {"ios": "https://dc.lft.to/lastmile_qr_scan", "android": "https://dc.lft.to/lastmile_qr_scan"}, "is_disabled": 0, "fusion_lon": 0.0, "lat": 38.88479916666667, "type": "electric_scooter", "fusion_lat": 0.0, "bike_id": "be74a95c6dc7faf721b402958868f04d", "name": "be74a95c6dc7faf721b402958868f04d", "lon": -77.03348933333334}, {"is_reserved": 0, "rental_uris": {"ios": "https://dc.lft.to/lastmile_qr_scan", "android": "https://dc.lft.to/lastmile_qr_scan"}, "is_disabled": 0, "fusion_lon": 0.0, "lat": 38.92477133333333, "type": "electric_scooter", "fusion_lat": 0.0, "bike_id": "dbe4256ea6c54abb7eb70d7906fa2f41", "name": "dbe4256ea6c54abb7eb70d7906fa2f41", "lon": -77.05256783333333}, {"is_reserved": 0, "rental_uris": {"ios": "https://dc.lft.to/lastmile_qr_scan", "android": "https://dc.lft.to/lastmile_qr_scan"}, "is_disabled": 0, "fusion_lon": 0.0, "lat": 38.92072116666667, "type": "electric_scooter", "fusion_lat": 0.0, "bike_id": "e8bb33af61cd315900d8971680fefe1e", "name": "e8bb33af61cd315900d8971680fefe1e", "lon": -77.04685416666666}, {"is_reserved": 0, "rental_uris": {"ios": "https://dc.lft.to/lastmile_qr_scan", "android": "https://dc.lft.to/lastmile_qr_scan"}, "is_disabled": 0, "fusion_lon": 0.0, "lat": 38.87429016666667, "type": "electric_scooter", "fusion_lat": 0.0, "bike_id": "2cb50df645ef75a4a7b845be19239fac", "name": "2cb50df645ef75a4a7b845be19239fac", "lon": -77.0004655}, {"is_reserved": 0, "rental_uris": {"ios": "https://dc.lft.to/lastmile_qr_scan", "android": "https://dc.lft.to/lastmile_qr_scan"}, "is_disabled": 0, "fusion_lon": 0.0, "lat": 38.92661783333333, "type": "electric_scooter", "fusion_lat": 0.0, "bike_id": "0f7d5132941bf2c59e18bf2e0f0e6240", "name": "0f7d5132941bf2c59e18bf2e0f0e6240", "lon": -77.0559525}, {"is_reserved": 0, "rental_uris": {"ios": "https://dc.lft.to/lastmile_qr_scan", "android": "https://dc.lft.to/lastmile_qr_scan"}, "is_disabled": 0, "fusion_lon": 0.0, "lat": 38.880688, "type": "electric_bike", "fusion_lat": 0.0, "bike_id": "84a237f3f5ead622ccef8e2110c6b511", "name": "84a237f3f5ead622ccef8e2110c6b511", "lon": -77.08627866666667}, {"is_reserved": 0, "rental_uris": {"ios": "https://dc.lft.to/lastmile_qr_scan", "android": "https://dc.lft.to/lastmile_qr_scan"}, "is_disabled": 0, "fusion_lon": 0.0, "lat": 38.918802, "type": "electric_scooter", "fusion_lat": 0.0, "bike_id": "0f550f3dec263570d958913c14dd1ac9", "name": "0f550f3dec263570d958913c14dd1ac9", "lon": -77.01585633333333}, {"is_reserved": 0, "rental_uris": {"ios": "https://dc.lft.to/lastmile_qr_scan", "android": "https://dc.lft.to/lastmile_qr_scan"}, "is_disabled": 0, "fusion_lon": 0.0, "lat": 38.90330016666667, "type": "electric_scooter", "fusion_lat": 0.0, "bike_id": "c46c72c249d194470c04e9ffcc14b3b8", "name": "c46c72c249d194470c04e9ffcc14b3b8", "lon": -77.01630283333333}, {"is_reserved": 0, "rental_uris": {"ios": "https://dc.lft.to/lastmile_qr_scan", "android": "https://dc.lft.to/lastmile_qr_scan"}, "is_disabled": 0, "fusion_lon": 0.0, "lat": 38.88659, "type": "electric_scooter", "fusion_lat": 0.0, "bike_id": "ecf205d2233658bc3b295c0aae18bb37", "name": "ecf205d2233658bc3b295c0aae18bb37", "lon": -77.03389983333334}, {"is_reserved": 0, "rental_uris": {"ios": "https://dc.lft.to/lastmile_qr_scan", "android": "https://dc.lft.to/lastmile_qr_scan"}, "is_disabled": 0, "fusion_lon": 0.0, "lat": 38.916972, "type": "electric_scooter", "fusion_lat": 0.0, "bike_id": "4bacae591b8d70b5aa6c6644628e29e8", "name": "4bacae591b8d70b5aa6c6644628e29e8", "lon": -77.035066}, {"is_reserved": 0, "rental_uris": {"ios": "https://dc.lft.to/lastmile_qr_scan", "android": "https://dc.lft.to/lastmile_qr_scan"}, "is_disabled": 0, "fusion_lon": 0.0, "lat": 38.922288333333334, "type": "electric_scooter", "fusion_lat": 0.0, "bike_id": "87a66ba3543c1c7071ac225fd0d39920", "name": "87a66ba3543c1c7071ac225fd0d39920", "lon": -77.0438195}, {"is_reserved": 0, "rental_uris": {"ios": "https://dc.lft.to/lastmile_qr_scan", "android": "https://dc.lft.to/lastmile_qr_scan"}, "is_disabled": 0, "fusion_lon": 0.0, "lat": 38.89557583333333, "type": "electric_scooter", "fusion_lat": 0.0, "bike_id": "b98db40f2358dc7641b901a43f28c052", "name": "b98db40f2358dc7641b901a43f28c052", "lon": -76.9337375}, {"is_reserved": 0, "rental_uris": {"ios": "https://dc.lft.to/lastmile_qr_scan", "android": "https://dc.lft.to/lastmile_qr_scan"}, "is_disabled": 0, "fusion_lon": 0.0, "lat": 38.935958166666666, "type": "electric_scooter", "fusion_lat": 0.0, "bike_id": "96692843161b6d18f76fd48c6cc0e942", "name": "96692843161b6d18f76fd48c6cc0e942", "lon": -77.03800833333334}, {"is_reserved": 0, "rental_uris": {"ios": "https://dc.lft.to/lastmile_qr_scan", "android": "https://dc.lft.to/lastmile_qr_scan"}, "is_disabled": 0, "fusion_lon": 0.0, "lat": 38.9003465, "type": "electric_scooter", "fusion_lat": 0.0, "bike_id": "c48f99fb8c0e3feb4512ffe936906dc7", "name": "c48f99fb8c0e3feb4512ffe936906dc7", "lon": -77.00536216666667}, {"is_reserved": 0, "rental_uris": {"ios": "https://dc.lft.to/lastmile_qr_scan", "android": "https://dc.lft.to/lastmile_qr_scan"}, "is_disabled": 0, "fusion_lon": 0.0, "lat": 38.8984, "type": "electric_scooter", "fusion_lat": 0.0, "bike_id": "cf0fe3627da299dbd1ee7d3902089a14", "name": "cf0fe3627da299dbd1ee7d3902089a14", "lon": -77.0425665}, {"is_reserved": 0, "rental_uris": {"ios": "https://dc.lft.to/lastmile_qr_scan", "android": "https://dc.lft.to/lastmile_qr_scan"}, "is_disabled": 0, "fusion_lon": 0.0, "lat": 38.913751500000004, "type": "electric_scooter", "fusion_lat": 0.0, "bike_id": "e3a75dfce2b3dcbb24ac6d76ff969343", "name": "e3a75dfce2b3dcbb24ac6d76ff969343", "lon": -77.02001583333333}, {"is_reserved": 0, "rental_uris": {"ios": "https://dc.lft.to/lastmile_qr_scan", "android": "https://dc.lft.to/lastmile_qr_scan"}, "is_disabled": 0, "fusion_lon": 0.0, "lat": 38.8970645, "type": "electric_scooter", "fusion_lat": 0.0, "bike_id": "6ea56a94fb8f25411d583ae01918bdf7", "name": "6ea56a94fb8f25411d583ae01918bdf7", "lon": -76.91768233333333}, {"is_reserved": 0, "rental_uris": {"ios": "https://dc.lft.to/lastmile_qr_scan", "android": "https://dc.lft.to/lastmile_qr_scan"}, "is_disabled": 0, "fusion_lon": 0.0, "lat": 38.88017116666666, "type": "electric_scooter", "fusion_lat": 0.0, "bike_id": "266a1802a80621b1378440bd03f767ca", "name": "266a1802a80621b1378440bd03f767ca", "lon": -76.931281}, {"is_reserved": 0, "rental_uris": {"ios": "https://dc.lft.to/lastmile_qr_scan", "android": "https://dc.lft.to/lastmile_qr_scan"}, "is_disabled": 0, "fusion_lon": 0.0, "lat": 38.90041983333333, "type": "electric_scooter", "fusion_lat": 0.0, "bike_id": "f2af7c1dc5c1497ddad9b2a26915a057", "name": "f2af7c1dc5c1497ddad9b2a26915a057", "lon": -76.98834233333334}, {"is_reserved": 0, "rental_uris": {"ios": "https://dc.lft.to/lastmile_qr_scan", "android": "https://dc.lft.to/lastmile_qr_scan"}, "is_disabled": 0, "fusion_lon": 0.0, "lat": 38.904461833333336, "type": "electric_scooter", "fusion_lat": 0.0, "bike_id": "8264949851cebec5af78ead61c69747d", "name": "8264949851cebec5af78ead61c69747d", "lon": -77.04350033333333}, {"is_reserved": 0, "rental_uris": {"ios": "https://dc.lft.to/lastmile_qr_scan", "android": "https://dc.lft.to/lastmile_qr_scan"}, "is_disabled": 0, "fusion_lon": 0.0, "lat": 38.8921805, "type": "electric_scooter", "fusion_lat": 0.0, "bike_id": "df10b476d52b1f97314c188cc5540d53", "name": "df10b476d52b1f97314c188cc5540d53", "lon": -77.02135916666667}, {"is_reserved": 0, "rental_uris": {"ios": "https://dc.lft.to/lastmile_qr_scan", "android": "https://dc.lft.to/lastmile_qr_scan"}, "is_disabled": 0, "fusion_lon": 0.0, "lat": 38.952927, "type": "electric_bike", "fusion_lat": 0.0, "bike_id": "b66264313ea03beae3b7a8efacf22bdb", "name": "b66264313ea03beae3b7a8efacf22bdb", "lon": -77.06858316666667}, {"is_reserved": 0, "rental_uris": {"ios": "https://dc.lft.to/lastmile_qr_scan", "android": "https://dc.lft.to/lastmile_qr_scan"}, "is_disabled": 0, "fusion_lon": 0.0, "lat": 38.9395965, "type": "electric_bike", "fusion_lat": 0.0, "bike_id": "c1a3cd671cb93288f64468fa38fc3b31", "name": "c1a3cd671cb93288f64468fa38fc3b31", "lon": -77.360871}, {"is_reserved": 0, "rental_uris": {"ios": "https://dc.lft.to/lastmile_qr_scan", "android": "https://dc.lft.to/lastmile_qr_scan"}, "is_disabled": 0, "fusion_lon": 0.0, "lat": 38.901379166666665, "type": "electric_scooter", "fusion_lat": 0.0, "bike_id": "ce1c6b6ff6273fb94aa9fc48a69c3f22", "name": "ce1c6b6ff6273fb94aa9fc48a69c3f22", "lon": -77.04897716666666}, {"is_reserved": 0, "rental_uris": {"ios": "https://dc.lft.to/lastmile_qr_scan", "android": "https://dc.lft.to/lastmile_qr_scan"}, "is_disabled": 0, "fusion_lon": 0.0, "lat": 38.90746766666667, "type": "electric_scooter", "fusion_lat": 0.0, "bike_id": "6ffd73259318c756a0792ab52d7924b8", "name": "6ffd73259318c756a0792ab52d7924b8", "lon": -76.99875766666666}, {"is_reserved": 0, "rental_uris": {"ios": "https://dc.lft.to/lastmile_qr_scan", "android": "https://dc.lft.to/lastmile_qr_scan"}, "is_disabled": 0, "fusion_lon": 0.0, "lat": 38.965724, "type": "electric_bike", "fusion_lat": 0.0, "bike_id": "db74bd05206ba5021106508815a0b069", "name": "db74bd05206ba5021106508815a0b069", "lon": -76.95476983333333}, {"is_reserved": 0, "rental_uris": {"ios": "https://dc.lft.to/lastmile_qr_scan", "android": "https://dc.lft.to/lastmile_qr_scan"}, "is_disabled": 0, "fusion_lon": 0.0, "lat": 38.895576166666665, "type": "electric_scooter", "fusion_lat": 0.0, "bike_id": "0c95c468e12dd4e6d421fedb5cc97a7b", "name": "0c95c468e12dd4e6d421fedb5cc97a7b", "lon": -76.93080083333334}, {"is_reserved": 0, "rental_uris": {"ios": "https://dc.lft.to/lastmile_qr_scan", "android": "https://dc.lft.to/lastmile_qr_scan"}, "is_disabled": 0, "fusion_lon": 0.0, "lat": 38.908703833333334, "type": "electric_scooter", "fusion_lat": 0.0, "bike_id": "7906eee7e7a57dbc01c2cbffc195bf56", "name": "7906eee7e7a57dbc01c2cbffc195bf56", "lon": -77.04014433333333}, {"is_reserved": 0, "rental_uris": {"ios": "https://dc.lft.to/lastmile_qr_scan", "android": "https://dc.lft.to/lastmile_qr_scan"}, "is_disabled": 0, "fusion_lon": 0.0, "lat": 38.89556066666667, "type": "electric_scooter", "fusion_lat": 0.0, "bike_id": "4528a23eadd31c9991d64f1e6efa7329", "name": "4528a23eadd31c9991d64f1e6efa7329", "lon": -77.04673566666666}, {"is_reserved": 0, "rental_uris": {"ios": "https://dc.lft.to/lastmile_qr_scan", "android": "https://dc.lft.to/lastmile_qr_scan"}, "is_disabled": 0, "fusion_lon": 0.0, "lat": 38.87503183333333, "type": "electric_scooter", "fusion_lat": 0.0, "bike_id": "93dcf0f7c920d6af995393aae5ac1a99", "name": "93dcf0f7c920d6af995393aae5ac1a99", "lon": -77.01736916666667}, {"is_reserved": 0, "rental_uris": {"ios": "https://dc.lft.to/lastmile_qr_scan", "android": "https://dc.lft.to/lastmile_qr_scan"}, "is_disabled": 0, "fusion_lon": 0.0, "lat": 38.923258, "type": "electric_scooter", "fusion_lat": 0.0, "bike_id": "384547e4d81e3e141f3faa8919341914", "name": "384547e4d81e3e141f3faa8919341914", "lon": -77.0547055}, {"is_reserved": 0, "rental_uris": {"ios": "https://dc.lft.to/lastmile_qr_scan", "android": "https://dc.lft.to/lastmile_qr_scan"}, "is_disabled": 0, "fusion_lon": 0.0, "lat": 38.927448, "type": "electric_scooter", "fusion_lat": 0.0, "bike_id": "b77cc6db74c11fd442f56c920f746a09", "name": "b77cc6db74c11fd442f56c920f746a09", "lon": -77.02483483333333}, {"is_reserved": 0, "rental_uris": {"ios": "https://dc.lft.to/lastmile_qr_scan", "android": "https://dc.lft.to/lastmile_qr_scan"}, "is_disabled": 0, "fusion_lon": 0.0, "lat": 38.919659333333335, "type": "electric_scooter", "fusion_lat": 0.0, "bike_id": "3d5c58b2cd11319e3fb00840e7365fc8", "name": "3d5c58b2cd11319e3fb00840e7365fc8", "lon": -77.039575}, {"is_reserved": 0, "rental_uris": {"ios": "https://dc.lft.to/lastmile_qr_scan", "android": "https://dc.lft.to/lastmile_qr_scan"}, "is_disabled": 0, "fusion_lon": 0.0, "lat": 38.91259933333333, "type": "electric_scooter", "fusion_lat": 0.0, "bike_id": "3b1882beb330fad12d7f16d78c53e413", "name": "3b1882beb330fad12d7f16d78c53e413", "lon": -77.04547433333333}, {"is_reserved": 0, "rental_uris": {"ios": "https://dc.lft.to/lastmile_qr_scan", "android": "https://dc.lft.to/lastmile_qr_scan"}, "is_disabled": 0, "fusion_lon": 0.0, "lat": 38.9241375, "type": "electric_scooter", "fusion_lat": 0.0, "bike_id": "a39a6b0f52d8d1406211069365aca68e", "name": "a39a6b0f52d8d1406211069365aca68e", "lon": -77.02237516666666}, {"is_reserved": 0, "rental_uris": {"ios": "https://dc.lft.to/lastmile_qr_scan", "android": "https://dc.lft.to/lastmile_qr_scan"}, "is_disabled": 0, "fusion_lon": 0.0, "lat": 38.891964333333334, "type": "electric_scooter", "fusion_lat": 0.0, "bike_id": "0cb8eb044b3e3b14f80fb0e50faf4b54", "name": "0cb8eb044b3e3b14f80fb0e50faf4b54", "lon": -77.0237805}, {"is_reserved": 0, "rental_uris": {"ios": "https://dc.lft.to/lastmile_qr_scan", "android": "https://dc.lft.to/lastmile_qr_scan"}, "is_disabled": 0, "fusion_lon": 0.0, "lat": 38.90402066666667, "type": "electric_scooter", "fusion_lat": 0.0, "bike_id": "f21c117a997b07be961896b5d57a3f2f", "name": "f21c117a997b07be961896b5d57a3f2f", "lon": -77.020812}, {"is_reserved": 0, "rental_uris": {"ios": "https://dc.lft.to/lastmile_qr_scan", "android": "https://dc.lft.to/lastmile_qr_scan"}, "is_disabled": 0, "fusion_lon": 0.0, "lat": 38.89897533333333, "type": "electric_scooter", "fusion_lat": 0.0, "bike_id": "702ddc9e0346213212616d949e806d94", "name": "702ddc9e0346213212616d949e806d94", "lon": -76.9335455}, {"is_reserved": 0, "rental_uris": {"ios": "https://dc.lft.to/lastmile_qr_scan", "android": "https://dc.lft.to/lastmile_qr_scan"}, "is_disabled": 0, "fusion_lon": 0.0, "lat": 38.940142, "type": "electric_scooter", "fusion_lat": 0.0, "bike_id": "dac694d31d28d735bf97b01c9beb2259", "name": "dac694d31d28d735bf97b01c9beb2259", "lon": -77.07173766666666}, {"is_reserved": 0, "rental_uris": {"ios": "https://dc.lft.to/lastmile_qr_scan", "android": "https://dc.lft.to/lastmile_qr_scan"}, "is_disabled": 0, "fusion_lon": 0.0, "lat": 38.90488533333333, "type": "electric_scooter", "fusion_lat": 0.0, "bike_id": "25ced0e99ef23f4f4182c91d817c6451", "name": "25ced0e99ef23f4f4182c91d817c6451", "lon": -77.060057}, {"is_reserved": 0, "rental_uris": {"ios": "https://dc.lft.to/lastmile_qr_scan", "android": "https://dc.lft.to/lastmile_qr_scan"}, "is_disabled": 0, "fusion_lon": 0.0, "lat": 38.858086166666666, "type": "electric_scooter", "fusion_lat": 0.0, "bike_id": "9e150074247d8908c83216dfba39d59d", "name": "9e150074247d8908c83216dfba39d59d", "lon": -76.989916}, {"is_reserved": 0, "rental_uris": {"ios": "https://dc.lft.to/lastmile_qr_scan", "android": "https://dc.lft.to/lastmile_qr_scan"}, "is_disabled": 0, "fusion_lon": 0.0, "lat": 38.88322983333333, "type": "electric_scooter", "fusion_lat": 0.0, "bike_id": "f40872613baa48558f199faa35e64800", "name": "f40872613baa48558f199faa35e64800", "lon": -76.934521}, {"is_reserved": 0, "rental_uris": {"ios": "https://dc.lft.to/lastmile_qr_scan", "android": "https://dc.lft.to/lastmile_qr_scan"}, "is_disabled": 0, "fusion_lon": 0.0, "lat": 38.90133733333333, "type": "electric_scooter", "fusion_lat": 0.0, "bike_id": "f343b4952167f0da8615cd2baf07f274", "name": "f343b4952167f0da8615cd2baf07f274", "lon": -77.04489983333333}, {"is_reserved": 0, "rental_uris": {"ios": "https://dc.lft.to/lastmile_qr_scan", "android": "https://dc.lft.to/lastmile_qr_scan"}, "is_disabled": 0, "fusion_lon": 0.0, "lat": 38.87496766666667, "type": "electric_scooter", "fusion_lat": 0.0, "bike_id": "839fcab2561c8a92d5c255defa2f2eaa", "name": "839fcab2561c8a92d5c255defa2f2eaa", "lon": -76.99796816666667}, {"is_reserved": 0, "rental_uris": {"ios": "https://dc.lft.to/lastmile_qr_scan", "android": "https://dc.lft.to/lastmile_qr_scan"}, "is_disabled": 0, "fusion_lon": 0.0, "lat": 38.8851535, "type": "electric_scooter", "fusion_lat": 0.0, "bike_id": "83d160c234abc9f4c1a8e16079378094", "name": "83d160c234abc9f4c1a8e16079378094", "lon": -77.03354433333334}, {"is_reserved": 0, "rental_uris": {"ios": "https://dc.lft.to/lastmile_qr_scan", "android": "https://dc.lft.to/lastmile_qr_scan"}, "is_disabled": 0, "fusion_lon": 0.0, "lat": 38.898462, "type": "electric_scooter", "fusion_lat": 0.0, "bike_id": "f983bed151ac9940b45e4a97b1120f6c", "name": "f983bed151ac9940b45e4a97b1120f6c", "lon": -77.0436555}, {"is_reserved": 0, "rental_uris": {"ios": "https://dc.lft.to/lastmile_qr_scan", "android": "https://dc.lft.to/lastmile_qr_scan"}, "is_disabled": 0, "fusion_lon": 0.0, "lat": 38.93616383333333, "type": "electric_scooter", "fusion_lat": 0.0, "bike_id": "40257fcff646406dca447a974b3c1f19", "name": "40257fcff646406dca447a974b3c1f19", "lon": -77.03215216666666}, {"is_reserved": 0, "rental_uris": {"ios": "https://dc.lft.to/lastmile_qr_scan", "android": "https://dc.lft.to/lastmile_qr_scan"}, "is_disabled": 0, "fusion_lon": 0.0, "lat": 38.92196666666667, "type": "electric_scooter", "fusion_lat": 0.0, "bike_id": "86d897ea090f23620dc6b086bfac0c1b", "name": "86d897ea090f23620dc6b086bfac0c1b", "lon": -77.01831416666667}, {"is_reserved": 0, "rental_uris": {"ios": "https://dc.lft.to/lastmile_qr_scan", "android": "https://dc.lft.to/lastmile_qr_scan"}, "is_disabled": 0, "fusion_lon": 0.0, "lat": 38.902299666666664, "type": "electric_scooter", "fusion_lat": 0.0, "bike_id": "a22fedb8d131f669e414905a90bfc203", "name": "a22fedb8d131f669e414905a90bfc203", "lon": -77.0485265}, {"is_reserved": 0, "rental_uris": {"ios": "https://dc.lft.to/lastmile_qr_scan", "android": "https://dc.lft.to/lastmile_qr_scan"}, "is_disabled": 0, "fusion_lon": 0.0, "lat": 38.91039266666667, "type": "electric_scooter", "fusion_lat": 0.0, "bike_id": "57075ec40db14f1b2389d16c8a7841a3", "name": "57075ec40db14f1b2389d16c8a7841a3", "lon": -77.040908}, {"is_reserved": 0, "rental_uris": {"ios": "https://dc.lft.to/lastmile_qr_scan", "android": "https://dc.lft.to/lastmile_qr_scan"}, "is_disabled": 0, "fusion_lon": 0.0, "lat": 38.918231666666664, "type": "electric_scooter", "fusion_lat": 0.0, "bike_id": "a819f298d5532f81947b10d804185f73", "name": "a819f298d5532f81947b10d804185f73", "lon": -77.038408}, {"is_reserved": 0, "rental_uris": {"ios": "https://dc.lft.to/lastmile_qr_scan", "android": "https://dc.lft.to/lastmile_qr_scan"}, "is_disabled": 0, "fusion_lon": 0.0, "lat": 38.88583333333333, "type": "electric_scooter", "fusion_lat": 0.0, "bike_id": "c31433e90243abe0e16eb509ecdffc6b", "name": "c31433e90243abe0e16eb509ecdffc6b", "lon": -77.012237}, {"is_reserved": 0, "rental_uris": {"ios": "https://dc.lft.to/lastmile_qr_scan", "android": "https://dc.lft.to/lastmile_qr_scan"}, "is_disabled": 0, "fusion_lon": 0.0, "lat": 38.930863, "type": "electric_scooter", "fusion_lat": 0.0, "bike_id": "ebb97876b23142a4c22a7e2947cda264", "name": "ebb97876b23142a4c22a7e2947cda264", "lon": -76.96711933333333}, {"is_reserved": 0, "rental_uris": {"ios": "https://dc.lft.to/lastmile_qr_scan", "android": "https://dc.lft.to/lastmile_qr_scan"}, "is_disabled": 0, "fusion_lon": 0.0, "lat": 38.964935, "type": "electric_bike", "fusion_lat": 0.0, "bike_id": "0483c05a6c2faf6dfec0bb3ee730a882", "name": "0483c05a6c2faf6dfec0bb3ee730a882", "lon": -76.93849233333333}, {"is_reserved": 0, "rental_uris": {"ios": "https://dc.lft.to/lastmile_qr_scan", "android": "https://dc.lft.to/lastmile_qr_scan"}, "is_disabled": 0, "fusion_lon": 0.0, "lat": 38.92825783333333, "type": "electric_scooter", "fusion_lat": 0.0, "bike_id": "9226704752bf22f99f2d95c2db2b6749", "name": "9226704752bf22f99f2d95c2db2b6749", "lon": -77.0225635}, {"is_reserved": 0, "rental_uris": {"ios": "https://dc.lft.to/lastmile_qr_scan", "android": "https://dc.lft.to/lastmile_qr_scan"}, "is_disabled": 0, "fusion_lon": 0.0, "lat": 38.90765966666667, "type": "electric_scooter", "fusion_lat": 0.0, "bike_id": "c056f75e451af589fdf90332dc1f56c1", "name": "c056f75e451af589fdf90332dc1f56c1", "lon": -77.06916116666666}, {"is_reserved": 0, "rental_uris": {"ios": "https://dc.lft.to/lastmile_qr_scan", "android": "https://dc.lft.to/lastmile_qr_scan"}, "is_disabled": 0, "fusion_lon": 0.0, "lat": 38.887432833333335, "type": "electric_scooter", "fusion_lat": 0.0, "bike_id": "d8f1b2510442deeeb308f981ca467559", "name": "d8f1b2510442deeeb308f981ca467559", "lon": -77.0216525}, {"is_reserved": 0, "rental_uris": {"ios": "https://dc.lft.to/lastmile_qr_scan", "android": "https://dc.lft.to/lastmile_qr_scan"}, "is_disabled": 0, "fusion_lon": 0.0, "lat": 38.884154333333335, "type": "electric_scooter", "fusion_lat": 0.0, "bike_id": "55cc200e4b145acc6cc31f25e1aa1938", "name": "55cc200e4b145acc6cc31f25e1aa1938", "lon": -77.01781}, {"is_reserved": 0, "rental_uris": {"ios": "https://dc.lft.to/lastmile_qr_scan", "android": "https://dc.lft.to/lastmile_qr_scan"}, "is_disabled": 0, "fusion_lon": 0.0, "lat": 38.92024416666667, "type": "electric_scooter", "fusion_lat": 0.0, "bike_id": "2e536a6b05adc391877957b4c1814898", "name": "2e536a6b05adc391877957b4c1814898", "lon": -77.03138866666667}, {"is_reserved": 0, "rental_uris": {"ios": "https://dc.lft.to/lastmile_qr_scan", "android": "https://dc.lft.to/lastmile_qr_scan"}, "is_disabled": 0, "fusion_lon": 0.0, "lat": 38.9155175, "type": "electric_scooter", "fusion_lat": 0.0, "bike_id": "c6cac31a2a752daee1e4fcf37be1d39e", "name": "c6cac31a2a752daee1e4fcf37be1d39e", "lon": -77.0123435}, {"is_reserved": 0, "rental_uris": {"ios": "https://dc.lft.to/lastmile_qr_scan", "android": "https://dc.lft.to/lastmile_qr_scan"}, "is_disabled": 0, "fusion_lon": 0.0, "lat": 38.92439533333334, "type": "electric_scooter", "fusion_lat": 0.0, "bike_id": "549d1cbf555b0496dd0caedcf11e3c0f", "name": "549d1cbf555b0496dd0caedcf11e3c0f", "lon": -77.05215583333333}, {"is_reserved": 0, "rental_uris": {"ios": "https://dc.lft.to/lastmile_qr_scan", "android": "https://dc.lft.to/lastmile_qr_scan"}, "is_disabled": 0, "fusion_lon": 0.0, "lat": 38.87879483333333, "type": "electric_scooter", "fusion_lat": 0.0, "bike_id": "4ed9146b9b8ecac4f751ad47bd70fc7f", "name": "4ed9146b9b8ecac4f751ad47bd70fc7f", "lon": -77.00732883333333}, {"is_reserved": 0, "rental_uris": {"ios": "https://dc.lft.to/lastmile_qr_scan", "android": "https://dc.lft.to/lastmile_qr_scan"}, "is_disabled": 0, "fusion_lon": 0.0, "lat": 38.85789, "type": "electric_bike", "fusion_lat": 0.0, "bike_id": "4b26bbbfc534c0d45e94a4c8b7609518", "name": "4b26bbbfc534c0d45e94a4c8b7609518", "lon": -76.987414}, {"is_reserved": 0, "rental_uris": {"ios": "https://dc.lft.to/lastmile_qr_scan", "android": "https://dc.lft.to/lastmile_qr_scan"}, "is_disabled": 0, "fusion_lon": 0.0, "lat": 38.90336666666666, "type": "electric_scooter", "fusion_lat": 0.0, "bike_id": "60d53a1e17b681daf04f763645c37754", "name": "60d53a1e17b681daf04f763645c37754", "lon": -76.97592683333333}, {"is_reserved": 0, "rental_uris": {"ios": "https://dc.lft.to/lastmile_qr_scan", "android": "https://dc.lft.to/lastmile_qr_scan"}, "is_disabled": 0, "fusion_lon": 0.0, "lat": 38.89803366666666, "type": "electric_scooter", "fusion_lat": 0.0, "bike_id": "68c34976769f81e6cafb50d044022f29", "name": "68c34976769f81e6cafb50d044022f29", "lon": -77.03292083333334}, {"is_reserved": 0, "rental_uris": {"ios": "https://dc.lft.to/lastmile_qr_scan", "android": "https://dc.lft.to/lastmile_qr_scan"}, "is_disabled": 0, "fusion_lon": 0.0, "lat": 38.920562, "type": "electric_scooter", "fusion_lat": 0.0, "bike_id": "d589b83881494f77306c7254fb5b6725", "name": "d589b83881494f77306c7254fb5b6725", "lon": -77.0243325}, {"is_reserved": 0, "rental_uris": {"ios": "https://dc.lft.to/lastmile_qr_scan", "android": "https://dc.lft.to/lastmile_qr_scan"}, "is_disabled": 0, "fusion_lon": 0.0, "lat": 38.90282083333334, "type": "electric_bike", "fusion_lat": 0.0, "bike_id": "b914eee8f32198439dc6b8b84537eb34", "name": "b914eee8f32198439dc6b8b84537eb34", "lon": -77.0599775}, {"is_reserved": 0, "rental_uris": {"ios": "https://dc.lft.to/lastmile_qr_scan", "android": "https://dc.lft.to/lastmile_qr_scan"}, "is_disabled": 0, "fusion_lon": 0.0, "lat": 38.915592833333335, "type": "electric_scooter", "fusion_lat": 0.0, "bike_id": "6b188e0ce00f29e628579f3456b0b97a", "name": "6b188e0ce00f29e628579f3456b0b97a", "lon": -77.03963733333333}, {"is_reserved": 0, "rental_uris": {"ios": "https://dc.lft.to/lastmile_qr_scan", "android": "https://dc.lft.to/lastmile_qr_scan"}, "is_disabled": 0, "fusion_lon": 0.0, "lat": 38.9443355, "type": "electric_scooter", "fusion_lat": 0.0, "bike_id": "77e736d2e0a49ee97b054546c7c129ba", "name": "77e736d2e0a49ee97b054546c7c129ba", "lon": -77.06304166666666}, {"is_reserved": 0, "rental_uris": {"ios": "https://dc.lft.to/lastmile_qr_scan", "android": "https://dc.lft.to/lastmile_qr_scan"}, "is_disabled": 0, "fusion_lon": 0.0, "lat": 38.874716, "type": "electric_scooter", "fusion_lat": 0.0, "bike_id": "a5cb6344886004b812fd589a648d09a3", "name": "a5cb6344886004b812fd589a648d09a3", "lon": -77.00547816666666}, {"is_reserved": 0, "rental_uris": {"ios": "https://dc.lft.to/lastmile_qr_scan", "android": "https://dc.lft.to/lastmile_qr_scan"}, "is_disabled": 0, "fusion_lon": 0.0, "lat": 38.92470183333333, "type": "electric_scooter", "fusion_lat": 0.0, "bike_id": "16b794e8bfff8e32c2c1948ddc12cbb6", "name": "16b794e8bfff8e32c2c1948ddc12cbb6", "lon": -77.05237666666666}, {"is_reserved": 0, "rental_uris": {"ios": "https://dc.lft.to/lastmile_qr_scan", "android": "https://dc.lft.to/lastmile_qr_scan"}, "is_disabled": 0, "fusion_lon": 0.0, "lat": 38.9016135, "type": "electric_scooter", "fusion_lat": 0.0, "bike_id": "f135eeedc83c05b3c2ec55346c0f3da1", "name": "f135eeedc83c05b3c2ec55346c0f3da1", "lon": -77.02552666666666}, {"is_reserved": 0, "rental_uris": {"ios": "https://dc.lft.to/lastmile_qr_scan", "android": "https://dc.lft.to/lastmile_qr_scan"}, "is_disabled": 0, "fusion_lon": 0.0, "lat": 38.93493683333333, "type": "electric_scooter", "fusion_lat": 0.0, "bike_id": "d3da7842c869f527ad76860632f1e933", "name": "d3da7842c869f527ad76860632f1e933", "lon": -77.07274683333333}, {"is_reserved": 0, "rental_uris": {"ios": "https://dc.lft.to/lastmile_qr_scan", "android": "https://dc.lft.to/lastmile_qr_scan"}, "is_disabled": 0, "fusion_lon": 0.0, "lat": 38.900091, "type": "electric_scooter", "fusion_lat": 0.0, "bike_id": "0935be2ea11b6a3f968a3d384296d5b1", "name": "0935be2ea11b6a3f968a3d384296d5b1", "lon": -77.00618216666666}, {"is_reserved": 0, "rental_uris": {"ios": "https://dc.lft.to/lastmile_qr_scan", "android": "https://dc.lft.to/lastmile_qr_scan"}, "is_disabled": 0, "fusion_lon": 0.0, "lat": 38.91248083333333, "type": "electric_scooter", "fusion_lat": 0.0, "bike_id": "9f5ae2c4739cead3f7023c4cd4803668", "name": "9f5ae2c4739cead3f7023c4cd4803668", "lon": -77.0271405}, {"is_reserved": 0, "rental_uris": {"ios": "https://dc.lft.to/lastmile_qr_scan", "android": "https://dc.lft.to/lastmile_qr_scan"}, "is_disabled": 0, "fusion_lon": 0.0, "lat": 38.88317116666666, "type": "electric_scooter", "fusion_lat": 0.0, "bike_id": "af47212002116b0eaf78c59affd5cc00", "name": "af47212002116b0eaf78c59affd5cc00", "lon": -77.0093555}, {"is_reserved": 0, "rental_uris": {"ios": "https://dc.lft.to/lastmile_qr_scan", "android": "https://dc.lft.to/lastmile_qr_scan"}, "is_disabled": 0, "fusion_lon": 0.0, "lat": 38.87150466666667, "type": "electric_bike", "fusion_lat": 0.0, "bike_id": "1c6d36215c2f21604ba65dcf476d496a", "name": "1c6d36215c2f21604ba65dcf476d496a", "lon": -76.93669616666666}, {"is_reserved": 0, "rental_uris": {"ios": "https://dc.lft.to/lastmile_qr_scan", "android": "https://dc.lft.to/lastmile_qr_scan"}, "is_disabled": 0, "fusion_lon": 0.0, "lat": 38.898822, "type": "electric_scooter", "fusion_lat": 0.0, "bike_id": "02c6ea79dda74884f46b2a06fd56b340", "name": "02c6ea79dda74884f46b2a06fd56b340", "lon": -77.03273683333333}, {"is_reserved": 0, "rental_uris": {"ios": "https://dc.lft.to/lastmile_qr_scan", "android": "https://dc.lft.to/lastmile_qr_scan"}, "is_disabled": 0, "fusion_lon": 0.0, "lat": 38.941844333333336, "type": "electric_scooter", "fusion_lat": 0.0, "bike_id": "f5693a2ca3653918f4f2415e4cb41f40", "name": "f5693a2ca3653918f4f2415e4cb41f40", "lon": -77.02485033333333}, {"is_reserved": 0, "rental_uris": {"ios": "https://dc.lft.to/lastmile_qr_scan", "android": "https://dc.lft.to/lastmile_qr_scan"}, "is_disabled": 0, "fusion_lon": 0.0, "lat": 38.904053, "type": "electric_scooter", "fusion_lat": 0.0, "bike_id": "4de230bc58907287533988fe3caf3474", "name": "4de230bc58907287533988fe3caf3474", "lon": -77.0389045}, {"is_reserved": 0, "rental_uris": {"ios": "https://dc.lft.to/lastmile_qr_scan", "android": "https://dc.lft.to/lastmile_qr_scan"}, "is_disabled": 0, "fusion_lon": 0.0, "lat": 38.89252316666666, "type": "electric_scooter", "fusion_lat": 0.0, "bike_id": "91e2be6026deab469484b4dcc75930c9", "name": "91e2be6026deab469484b4dcc75930c9", "lon": -76.94339133333334}, {"is_reserved": 0, "rental_uris": {"ios": "https://dc.lft.to/lastmile_qr_scan", "android": "https://dc.lft.to/lastmile_qr_scan"}, "is_disabled": 0, "fusion_lon": 0.0, "lat": 38.95220416666667, "type": "electric_bike", "fusion_lat": 0.0, "bike_id": "bd008e422b18c5a7667cf1085ff28d69", "name": "bd008e422b18c5a7667cf1085ff28d69", "lon": -77.00279433333333}, {"is_reserved": 0, "rental_uris": {"ios": "https://dc.lft.to/lastmile_qr_scan", "android": "https://dc.lft.to/lastmile_qr_scan"}, "is_disabled": 0, "fusion_lon": 0.0, "lat": 38.921879, "type": "electric_scooter", "fusion_lat": 0.0, "bike_id": "06b9601ef6ae2aed056f5426671a3e7b", "name": "06b9601ef6ae2aed056f5426671a3e7b", "lon": -77.03181966666666}, {"is_reserved": 0, "rental_uris": {"ios": "https://dc.lft.to/lastmile_qr_scan", "android": "https://dc.lft.to/lastmile_qr_scan"}, "is_disabled": 0, "fusion_lon": 0.0, "lat": 38.893542333333336, "type": "electric_scooter", "fusion_lat": 0.0, "bike_id": "9fff4856845095d0baf70f0ea75f3e3a", "name": "9fff4856845095d0baf70f0ea75f3e3a", "lon": -77.00334366666667}, {"is_reserved": 0, "rental_uris": {"ios": "https://dc.lft.to/lastmile_qr_scan", "android": "https://dc.lft.to/lastmile_qr_scan"}, "is_disabled": 0, "fusion_lon": 0.0, "lat": 38.90377266666667, "type": "electric_scooter", "fusion_lat": 0.0, "bike_id": "e81aba2c7527a583ba31c9d59d033d6e", "name": "e81aba2c7527a583ba31c9d59d033d6e", "lon": -77.05052316666666}, {"is_reserved": 0, "rental_uris": {"ios": "https://dc.lft.to/lastmile_qr_scan", "android": "https://dc.lft.to/lastmile_qr_scan"}, "is_disabled": 0, "fusion_lon": 0.0, "lat": 38.90019566666667, "type": "electric_scooter", "fusion_lat": 0.0, "bike_id": "a52882ccdd129ef36df15c36fdee708b", "name": "a52882ccdd129ef36df15c36fdee708b", "lon": -76.9978875}, {"is_reserved": 0, "rental_uris": {"ios": "https://dc.lft.to/lastmile_qr_scan", "android": "https://dc.lft.to/lastmile_qr_scan"}, "is_disabled": 0, "fusion_lon": 0.0, "lat": 38.90518433333333, "type": "electric_scooter", "fusion_lat": 0.0, "bike_id": "256811e1caa3a7cc839a933bba922871", "name": "256811e1caa3a7cc839a933bba922871", "lon": -77.06446216666667}, {"is_reserved": 0, "rental_uris": {"ios": "https://dc.lft.to/lastmile_qr_scan", "android": "https://dc.lft.to/lastmile_qr_scan"}, "is_disabled": 0, "fusion_lon": 0.0, "lat": 38.916137166666665, "type": "electric_scooter", "fusion_lat": 0.0, "bike_id": "522f4ce742600f2bb39b464607a74c35", "name": "522f4ce742600f2bb39b464607a74c35", "lon": -77.02705683333333}, {"is_reserved": 0, "rental_uris": {"ios": "https://dc.lft.to/lastmile_qr_scan", "android": "https://dc.lft.to/lastmile_qr_scan"}, "is_disabled": 0, "fusion_lon": 0.0, "lat": 38.95404833333333, "type": "electric_scooter", "fusion_lat": 0.0, "bike_id": "a113e33d2cfa8735c90af95e8fad541b", "name": "a113e33d2cfa8735c90af95e8fad541b", "lon": -77.02750983333334}, {"is_reserved": 0, "rental_uris": {"ios": "https://dc.lft.to/lastmile_qr_scan", "android": "https://dc.lft.to/lastmile_qr_scan"}, "is_disabled": 0, "fusion_lon": 0.0, "lat": 38.8919665, "type": "electric_scooter", "fusion_lat": 0.0, "bike_id": "756302850b09f0c14a1a0eb8fd2704c6", "name": "756302850b09f0c14a1a0eb8fd2704c6", "lon": -77.02455033333334}, {"is_reserved": 0, "rental_uris": {"ios": "https://dc.lft.to/lastmile_qr_scan", "android": "https://dc.lft.to/lastmile_qr_scan"}, "is_disabled": 0, "fusion_lon": 0.0, "lat": 38.9097385, "type": "electric_scooter", "fusion_lat": 0.0, "bike_id": "fa45bd1fe0f94c9a1bee24b8543eb5f5", "name": "fa45bd1fe0f94c9a1bee24b8543eb5f5", "lon": -77.04872383333333}, {"is_reserved": 0, "rental_uris": {"ios": "https://dc.lft.to/lastmile_qr_scan", "android": "https://dc.lft.to/lastmile_qr_scan"}, "is_disabled": 0, "fusion_lon": 0.0, "lat": 38.91191533333333, "type": "electric_scooter", "fusion_lat": 0.0, "bike_id": "aecccdd23eef4574ddf0df42aba1b45a", "name": "aecccdd23eef4574ddf0df42aba1b45a", "lon": -77.06096566666666}, {"is_reserved": 0, "rental_uris": {"ios": "https://dc.lft.to/lastmile_qr_scan", "android": "https://dc.lft.to/lastmile_qr_scan"}, "is_disabled": 0, "fusion_lon": 0.0, "lat": 38.91813883333333, "type": "electric_scooter", "fusion_lat": 0.0, "bike_id": "dc83795c37267b80ee435c68a18586d1", "name": "dc83795c37267b80ee435c68a18586d1", "lon": -77.04449616666666}, {"is_reserved": 0, "rental_uris": {"ios": "https://dc.lft.to/lastmile_qr_scan", "android": "https://dc.lft.to/lastmile_qr_scan"}, "is_disabled": 0, "fusion_lon": 0.0, "lat": 38.8925075, "type": "electric_scooter", "fusion_lat": 0.0, "bike_id": "f9fc576ee9bcd9de462f45ade703e2a9", "name": "f9fc576ee9bcd9de462f45ade703e2a9", "lon": -77.03958666666666}, {"is_reserved": 0, "rental_uris": {"ios": "https://dc.lft.to/lastmile_qr_scan", "android": "https://dc.lft.to/lastmile_qr_scan"}, "is_disabled": 0, "fusion_lon": 0.0, "lat": 38.861678166666664, "type": "electric_bike", "fusion_lat": 0.0, "bike_id": "38d16e470bb85fe8b6e2fd0b95a084f0", "name": "38d16e470bb85fe8b6e2fd0b95a084f0", "lon": -76.950678}, {"is_reserved": 0, "rental_uris": {"ios": "https://dc.lft.to/lastmile_qr_scan", "android": "https://dc.lft.to/lastmile_qr_scan"}, "is_disabled": 0, "fusion_lon": 0.0, "lat": 38.9232465, "type": "electric_scooter", "fusion_lat": 0.0, "bike_id": "df90d8ea364559c4c23e97f6fe6ef3ee", "name": "df90d8ea364559c4c23e97f6fe6ef3ee", "lon": -77.04753533333333}, {"is_reserved": 0, "rental_uris": {"ios": "https://dc.lft.to/lastmile_qr_scan", "android": "https://dc.lft.to/lastmile_qr_scan"}, "is_disabled": 0, "fusion_lon": 0.0, "lat": 38.914647, "type": "electric_scooter", "fusion_lat": 0.0, "bike_id": "41fa09d539e45698cb689c8da531086f", "name": "41fa09d539e45698cb689c8da531086f", "lon": -77.0218125}, {"is_reserved": 0, "rental_uris": {"ios": "https://dc.lft.to/lastmile_qr_scan", "android": "https://dc.lft.to/lastmile_qr_scan"}, "is_disabled": 0, "fusion_lon": 0.0, "lat": 38.91713516666667, "type": "electric_scooter", "fusion_lat": 0.0, "bike_id": "5cd7383991e5bd7b1c4e79fc13d07b6b", "name": "5cd7383991e5bd7b1c4e79fc13d07b6b", "lon": -77.031236}, {"is_reserved": 0, "rental_uris": {"ios": "https://dc.lft.to/lastmile_qr_scan", "android": "https://dc.lft.to/lastmile_qr_scan"}, "is_disabled": 0, "fusion_lon": 0.0, "lat": 38.92322733333334, "type": "electric_scooter", "fusion_lat": 0.0, "bike_id": "6905e8b011e6901a50a7367b5267d19e", "name": "6905e8b011e6901a50a7367b5267d19e", "lon": -77.05674883333333}, {"is_reserved": 0, "rental_uris": {"ios": "https://dc.lft.to/lastmile_qr_scan", "android": "https://dc.lft.to/lastmile_qr_scan"}, "is_disabled": 0, "fusion_lon": 0.0, "lat": 38.92842316666667, "type": "electric_scooter", "fusion_lat": 0.0, "bike_id": "0a96eab86d62b520a8a0d4bf2fc65cac", "name": "0a96eab86d62b520a8a0d4bf2fc65cac", "lon": -77.05435483333333}, {"is_reserved": 0, "rental_uris": {"ios": "https://dc.lft.to/lastmile_qr_scan", "android": "https://dc.lft.to/lastmile_qr_scan"}, "is_disabled": 0, "fusion_lon": 0.0, "lat": 38.88761516666667, "type": "electric_scooter", "fusion_lat": 0.0, "bike_id": "0a0661a1916f1e8724bf16e9094a7f71", "name": "0a0661a1916f1e8724bf16e9094a7f71", "lon": -76.95533866666666}, {"is_reserved": 0, "rental_uris": {"ios": "https://dc.lft.to/lastmile_qr_scan", "android": "https://dc.lft.to/lastmile_qr_scan"}, "is_disabled": 0, "fusion_lon": 0.0, "lat": 38.905731333333335, "type": "electric_scooter", "fusion_lat": 0.0, "bike_id": "e8f9f8c0621a78515b146f4f25c518bd", "name": "e8f9f8c0621a78515b146f4f25c518bd", "lon": -77.02541683333334}, {"is_reserved": 0, "rental_uris": {"ios": "https://dc.lft.to/lastmile_qr_scan", "android": "https://dc.lft.to/lastmile_qr_scan"}, "is_disabled": 0, "fusion_lon": 0.0, "lat": 38.92443983333333, "type": "electric_scooter", "fusion_lat": 0.0, "bike_id": "f7cae569d6a2b55d5f603ec968b0ddc9", "name": "f7cae569d6a2b55d5f603ec968b0ddc9", "lon": -77.04108783333334}, {"is_reserved": 0, "rental_uris": {"ios": "https://dc.lft.to/lastmile_qr_scan", "android": "https://dc.lft.to/lastmile_qr_scan"}, "is_disabled": 0, "fusion_lon": 0.0, "lat": 38.941659333333334, "type": "electric_scooter", "fusion_lat": 0.0, "bike_id": "b2720597ca92197594bb2737bbe6e478", "name": "b2720597ca92197594bb2737bbe6e478", "lon": -77.025357}, {"is_reserved": 0, "rental_uris": {"ios": "https://dc.lft.to/lastmile_qr_scan", "android": "https://dc.lft.to/lastmile_qr_scan"}, "is_disabled": 0, "fusion_lon": 0.0, "lat": 38.941816333333335, "type": "electric_scooter", "fusion_lat": 0.0, "bike_id": "8cc6e8640a5b3abc0985cffb54ce7c45", "name": "8cc6e8640a5b3abc0985cffb54ce7c45", "lon": -77.02338466666667}, {"is_reserved": 0, "rental_uris": {"ios": "https://dc.lft.to/lastmile_qr_scan", "android": "https://dc.lft.to/lastmile_qr_scan"},