{"data": {"bikes": [{"rental_uris": {"ios": "https://dc.lft.to/lastmile_qr_scan", "android": "https://dc.lft.to/lastmile_qr_scan"}, "fusion_lat": 0.0, "name": "c776bc6a3a24a0ca8cdef85c5c0adb7f", "bike_id": "c776bc6a3a24a0ca8cdef85c5c0adb7f", "is_disabled": 0, "type": "electric_scooter", "lat": 38.917996, "lon": -77.022747, "is_reserved": 0, "fusion_lon": 0.0}, {"rental_uris": {"ios": "https://dc.lft.to/lastmile_qr_scan", "android": "https://dc.lft.to/lastmile_qr_scan"}, "fusion_lat": 0.0, "name": "9aa0107d475cb751d64426e2461d5e0d", "bike_id": "9aa0107d475cb751d64426e2461d5e0d", "is_disabled": 0, "type": "electric_scooter", "lat": 38.895238666666664, "lon": -77.04335666666667, "is_reserved": 0, "fusion_lon": 0.0}, {"rental_uris": {"ios": "https://dc.lft.to/lastmile_qr_scan", "android": "https://dc.lft.to/lastmile_qr_scan"}, "fusion_lat": 0.0, "name": "cf8812abb85bc41d146a97d9ac6039c2", "bike_id": "cf8812abb85bc41d146a97d9ac6039c2", "is_disabled": 0, "type": "electric_scooter", "lat": 38.915648166666664, "lon": -77.02208233333333, "is_reserved": 0, "fusion_lon": 0.0}, {"rental_uris": {"ios": "https://dc.lft.to/lastmile_qr_scan", "android": "https://dc.lft.to/lastmile_qr_scan"}, "fusion_lat": 0.0, "name": "1fd6bd90a7beb66253f371e0d69568fd", "bike_id": "1fd6bd90a7beb66253f371e0d69568fd", "is_disabled": 0, "type": "electric_scooter", "lat": 38.91188116666667, "lon": -77.04453283333334, "is_reserved": 0, "fusion_lon": 0.0}, {"rental_uris": {"ios": "https://dc.lft.to/lastmile_qr_scan", "android": "https://dc.lft.to/lastmile_qr_scan"}, "fusion_lat": 0.0, "name": "5a27df76fedddd7c59d999fe131d3778", "bike_id": "5a27df76fedddd7c59d999fe131d3778", "is_disabled": 0, "type": "electric_scooter", "lat": 38.9012945, "lon": -77.01833066666667, "is_reserved": 0, "fusion_lon": 0.0}, {"rental_uris": {"ios": "https://dc.lft.to/lastmile_qr_scan", "android": "https://dc.lft.to/lastmile_qr_scan"}, "fusion_lat": 0.0, "name": "e77e76949485cc85d3b8ec10b3460de9", "bike_id": "e77e76949485cc85d3b8ec10b3460de9", "is_disabled": 0, "type": "electric_scooter", "lat": 38.928813, "lon": -77.07303366666666, "is_reserved": 0, "fusion_lon": 0.0}, {"rental_uris": {"ios": "https://dc.lft.to/lastmile_qr_scan", "android": "https://dc.lft.to/lastmile_qr_scan"}, "fusion_lat": 0.0, "name": "a33914e8924deef621265b6cbb0a3b58", "bike_id": "a33914e8924deef621265b6cbb0a3b58", "is_disabled": 0, "type": "electric_scooter", "lat": 38.897277333333335, "lon": -77.021649, "is_reserved": 0, "fusion_lon": 0.0}, {"rental_uris": {"ios": "https://dc.lft.to/lastmile_qr_scan", "android": "https://dc.lft.to/lastmile_qr_scan"}, "fusion_lat": 0.0, "name": "ad1cfb99b542057ef06ac27c58854a31", "bike_id": "ad1cfb99b542057ef06ac27c58854a31", "is_disabled": 0, "type": "electric_scooter", "lat": 38.9038595, "lon": -77.03316333333333, "is_reserved": 0, "fusion_lon": 0.0}, {"rental_uris": {"ios": "https://dc.lft.to/lastmile_qr_scan", "android": "https://dc.lft.to/lastmile_qr_scan"}, "fusion_lat": 0.0, "name": "12e84fe222ee12eed88221ed7b23a2b6", "bike_id": "12e84fe222ee12eed88221ed7b23a2b6", "is_disabled": 0, "type": "electric_scooter", "lat": 38.9174225, "lon": -77.03186333333333, "is_reserved": 0, "fusion_lon": 0.0}, {"rental_uris": {"ios": "https://dc.lft.to/lastmile_qr_scan", "android": "https://dc.lft.to/lastmile_qr_scan"}, "fusion_lat": 0.0, "name": "49c2d61d273c73f11cc0945692eabeda", "bike_id": "49c2d61d273c73f11cc0945692eabeda", "is_disabled": 0, "type": "electric_scooter", "lat": 38.899031666666666, "lon": -76.93356133333333, "is_reserved": 0, "fusion_lon": 0.0}, {"rental_uris": {"ios": "https://dc.lft.to/lastmile_qr_scan", "android": "https://dc.lft.to/lastmile_qr_scan"}, "fusion_lat": 0.0, "name": "263315ea2af2f79d5ed0241769c25eeb", "bike_id": "263315ea2af2f79d5ed0241769c25eeb", "is_disabled": 0, "type": "electric_scooter", "lat": 38.8429315, "lon": -76.99946866666667, "is_reserved": 0, "fusion_lon": 0.0}, {"rental_uris": {"ios": "https://dc.lft.to/lastmile_qr_scan", "android": "https://dc.lft.to/lastmile_qr_scan"}, "fusion_lat": 0.0, "name": "534cdb84645bfd398997afa9530f10e6", "bike_id": "534cdb84645bfd398997afa9530f10e6", "is_disabled": 0, "type": "electric_scooter", "lat": 38.91678733333333, "lon": -77.02801983333333, "is_reserved": 0, "fusion_lon": 0.0}, {"rental_uris": {"ios": "https://dc.lft.to/lastmile_qr_scan", "android": "https://dc.lft.to/lastmile_qr_scan"}, "fusion_lat": 0.0, "name": "5da28bedb32d22fb3f43e4171353b91d", "bike_id": "5da28bedb32d22fb3f43e4171353b91d", "is_disabled": 0, "type": "electric_scooter", "lat": 38.938875833333334, "lon": -77.02485516666667, "is_reserved": 0, "fusion_lon": 0.0}, {"rental_uris": {"ios": "https://dc.lft.to/lastmile_qr_scan", "android": "https://dc.lft.to/lastmile_qr_scan"}, "fusion_lat": 0.0, "name": "9da054c6d9afb230f62852b2b7c4265c", "bike_id": "9da054c6d9afb230f62852b2b7c4265c", "is_disabled": 0, "type": "electric_scooter", "lat": 38.86657266666667, "lon": -76.98885083333333, "is_reserved": 0, "fusion_lon": 0.0}, {"rental_uris": {"ios": "https://dc.lft.to/lastmile_qr_scan", "android": "https://dc.lft.to/lastmile_qr_scan"}, "fusion_lat": 0.0, "name": "949fff16cf046b572edeb5308913dc13", "bike_id": "949fff16cf046b572edeb5308913dc13", "is_disabled": 0, "type": "electric_scooter", "lat": 38.9129955, "lon": -77.04348983333334, "is_reserved": 0, "fusion_lon": 0.0}, {"rental_uris": {"ios": "https://dc.lft.to/lastmile_qr_scan", "android": "https://dc.lft.to/lastmile_qr_scan"}, "fusion_lat": 0.0, "name": "34fd32c6d08acf4ca9a2bcf02697d25a", "bike_id": "34fd32c6d08acf4ca9a2bcf02697d25a", "is_disabled": 0, "type": "electric_scooter", "lat": 38.905712, "lon": -77.00587916666667, "is_reserved": 0, "fusion_lon": 0.0}, {"rental_uris": {"ios": "https://dc.lft.to/lastmile_qr_scan", "android": "https://dc.lft.to/lastmile_qr_scan"}, "fusion_lat": 0.0, "name": "e3179c834da462e1120305e03be25ebd", "bike_id": "e3179c834da462e1120305e03be25ebd", "is_disabled": 0, "type": "electric_scooter", "lat": 38.92137983333333, "lon": -77.0730165, "is_reserved": 0, "fusion_lon": 0.0}, {"rental_uris": {"ios": "https://dc.lft.to/lastmile_qr_scan", "android": "https://dc.lft.to/lastmile_qr_scan"}, "fusion_lat": 0.0, "name": "3fdc6f96df453bea22dbfca5cfb981b6", "bike_id": "3fdc6f96df453bea22dbfca5cfb981b6", "is_disabled": 0, "type": "electric_scooter", "lat": 38.90344, "lon": -77.04657966666667, "is_reserved": 0, "fusion_lon": 0.0}, {"rental_uris": {"ios": "https://dc.lft.to/lastmile_qr_scan", "android": "https://dc.lft.to/lastmile_qr_scan"}, "fusion_lat": 0.0, "name": "0c8426bf0db11fa222775d7c8f3f89cd", "bike_id": "0c8426bf0db11fa222775d7c8f3f89cd", "is_disabled": 0, "type": "electric_scooter", "lat": 38.9172245, "lon": -77.02374016666667, "is_reserved": 0, "fusion_lon": 0.0}, {"rental_uris": {"ios": "https://dc.lft.to/lastmile_qr_scan", "android": "https://dc.lft.to/lastmile_qr_scan"}, "fusion_lat": 0.0, "name": "ebc5ce320ec11d8a2c74609ba1b11dfa", "bike_id": "ebc5ce320ec11d8a2c74609ba1b11dfa", "is_disabled": 0, "type": "electric_scooter", "lat": 38.9040985, "lon": -76.97329766666667, "is_reserved": 0, "fusion_lon": 0.0}, {"rental_uris": {"ios": "https://dc.lft.to/lastmile_qr_scan", "android": "https://dc.lft.to/lastmile_qr_scan"}, "fusion_lat": 0.0, "name": "91811284d037842e983d7c272c4740b0", "bike_id": "91811284d037842e983d7c272c4740b0", "is_disabled": 0, "type": "electric_scooter", "lat": 38.924775, "lon": -77.03559816666667, "is_reserved": 0, "fusion_lon": 0.0}, {"rental_uris": {"ios": "https://dc.lft.to/lastmile_qr_scan", "android": "https://dc.lft.to/lastmile_qr_scan"}, "fusion_lat": 0.0, "name": "57a5eba6cb13490db12a4ef9b15a4eb6", "bike_id": "57a5eba6cb13490db12a4ef9b15a4eb6", "is_disabled": 0, "type": "electric_scooter", "lat": 38.8757095, "lon": -77.02075416666666, "is_reserved": 0, "fusion_lon": 0.0}, {"rental_uris": {"ios": "https://dc.lft.to/lastmile_qr_scan", "android": "https://dc.lft.to/lastmile_qr_scan"}, "fusion_lat": 0.0, "name": "7690fe4986a8289f18173b81eac04eaa", "bike_id": "7690fe4986a8289f18173b81eac04eaa", "is_disabled": 0, "type": "electric_scooter", "lat": 38.913352333333336, "lon": -77.0488225, "is_reserved": 0, "fusion_lon": 0.0}, {"rental_uris": {"ios": "https://dc.lft.to/lastmile_qr_scan", "android": "https://dc.lft.to/lastmile_qr_scan"}, "fusion_lat": 0.0, "name": "7ec8f8bd1e3a95c2b63b3f9eea07bbb9", "bike_id": "7ec8f8bd1e3a95c2b63b3f9eea07bbb9", "is_disabled": 0, "type": "electric_scooter", "lat": 38.88432666666667, "lon": -77.0304315, "is_reserved": 0, "fusion_lon": 0.0}, {"rental_uris": {"ios": "https://dc.lft.to/lastmile_qr_scan", "android": "https://dc.lft.to/lastmile_qr_scan"}, "fusion_lat": 0.0, "name": "a9f49cbaed3fd9622027d88189171c86", "bike_id": "a9f49cbaed3fd9622027d88189171c86", "is_disabled": 0, "type": "electric_bike", "lat": 39.030453, "lon": -77.09480383333333, "is_reserved": 0, "fusion_lon": 0.0}, {"rental_uris": {"ios": "https://dc.lft.to/lastmile_qr_scan", "android": "https://dc.lft.to/lastmile_qr_scan"}, "fusion_lat": 0.0, "name": "3e847e0d3480baf51869df8aff9bbb69", "bike_id": "3e847e0d3480baf51869df8aff9bbb69", "is_disabled": 0, "type": "electric_scooter", "lat": 38.91816466666667, "lon": -77.02718466666667, "is_reserved": 0, "fusion_lon": 0.0}, {"rental_uris": {"ios": "https://dc.lft.to/lastmile_qr_scan", "android": "https://dc.lft.to/lastmile_qr_scan"}, "fusion_lat": 0.0, "name": "ca963a2bad26141c219d9e8ce92ae32c", "bike_id": "ca963a2bad26141c219d9e8ce92ae32c", "is_disabled": 0, "type": "electric_scooter", "lat": 38.90584533333333, "lon": -77.00064283333333, "is_reserved": 0, "fusion_lon": 0.0}, {"rental_uris": {"ios": "https://dc.lft.to/lastmile_qr_scan", "android": "https://dc.lft.to/lastmile_qr_scan"}, "fusion_lat": 0.0, "name": "cb69abb27355603384b28a93f4bac40c", "bike_id": "cb69abb27355603384b28a93f4bac40c", "is_disabled": 0, "type": "electric_scooter", "lat": 38.916749833333334, "lon": -77.0295275, "is_reserved": 0, "fusion_lon": 0.0}, {"rental_uris": {"ios": "https://dc.lft.to/lastmile_qr_scan", "android": "https://dc.lft.to/lastmile_qr_scan"}, "fusion_lat": 0.0, "name": "f409b685c70bc50d36f339080fe8f250", "bike_id": "f409b685c70bc50d36f339080fe8f250", "is_disabled": 0, "type": "electric_scooter", "lat": 38.920639666666666, "lon": -76.99523483333333, "is_reserved": 0, "fusion_lon": 0.0}, {"rental_uris": {"ios": "https://dc.lft.to/lastmile_qr_scan", "android": "https://dc.lft.to/lastmile_qr_scan"}, "fusion_lat": 0.0, "name": "a1335fa769ab35839635740bd377ef2d", "bike_id": "a1335fa769ab35839635740bd377ef2d", "is_disabled": 0, "type": "electric_scooter", "lat": 38.89397816666666, "lon": -77.05000583333333, "is_reserved": 0, "fusion_lon": 0.0}, {"rental_uris": {"ios": "https://dc.lft.to/lastmile_qr_scan", "android": "https://dc.lft.to/lastmile_qr_scan"}, "fusion_lat": 0.0, "name": "e03ebaff95d4b1a7a743143b4cc02904", "bike_id": "e03ebaff95d4b1a7a743143b4cc02904", "is_disabled": 0, "type": "electric_scooter", "lat": 38.877908166666664, "lon": -77.001205, "is_reserved": 0, "fusion_lon": 0.0}, {"rental_uris": {"ios": "https://dc.lft.to/lastmile_qr_scan", "android": "https://dc.lft.to/lastmile_qr_scan"}, "fusion_lat": 0.0, "name": "e54c9827f95f5c8b7ac9cc9a8124f1aa", "bike_id": "e54c9827f95f5c8b7ac9cc9a8124f1aa", "is_disabled": 0, "type": "electric_scooter", "lat": 38.90124816666667, "lon": -77.03090016666667, "is_reserved": 0, "fusion_lon": 0.0}, {"rental_uris": {"ios": "https://dc.lft.to/lastmile_qr_scan", "android": "https://dc.lft.to/lastmile_qr_scan"}, "fusion_lat": 0.0, "name": "61a7eb533bd2b8cd51903dee16783d86", "bike_id": "61a7eb533bd2b8cd51903dee16783d86", "is_disabled": 0, "type": "electric_scooter", "lat": 38.90561433333333, "lon": -77.0346, "is_reserved": 0, "fusion_lon": 0.0}, {"rental_uris": {"ios": "https://dc.lft.to/lastmile_qr_scan", "android": "https://dc.lft.to/lastmile_qr_scan"}, "fusion_lat": 0.0, "name": "57274ea419b36188e6020a1d86d37d85", "bike_id": "57274ea419b36188e6020a1d86d37d85", "is_disabled": 0, "type": "electric_scooter", "lat": 38.94957616666667, "lon": -77.027187, "is_reserved": 0, "fusion_lon": 0.0}, {"rental_uris": {"ios": "https://dc.lft.to/lastmile_qr_scan", "android": "https://dc.lft.to/lastmile_qr_scan"}, "fusion_lat": 0.0, "name": "de0d0da46e4e7eb5b521afef7df455cd", "bike_id": "de0d0da46e4e7eb5b521afef7df455cd", "is_disabled": 0, "type": "electric_scooter", "lat": 38.89504216666667, "lon": -77.01615616666666, "is_reserved": 0, "fusion_lon": 0.0}, {"rental_uris": {"ios": "https://dc.lft.to/lastmile_qr_scan", "android": "https://dc.lft.to/lastmile_qr_scan"}, "fusion_lat": 0.0, "name": "89f0255d0beaeea884af8f5a0a81cdb7", "bike_id": "89f0255d0beaeea884af8f5a0a81cdb7", "is_disabled": 0, "type": "electric_scooter", "lat": 38.91752283333334, "lon": -77.03076616666667, "is_reserved": 0, "fusion_lon": 0.0}, {"rental_uris": {"ios": "https://dc.lft.to/lastmile_qr_scan", "android": "https://dc.lft.to/lastmile_qr_scan"}, "fusion_lat": 0.0, "name": "1e8a0210e04528d1d0df2d6d40dbee28", "bike_id": "1e8a0210e04528d1d0df2d6d40dbee28", "is_disabled": 0, "type": "electric_scooter", "lat": 38.91246816666666, "lon": -77.03197366666667, "is_reserved": 0, "fusion_lon": 0.0}, {"rental_uris": {"ios": "https://dc.lft.to/lastmile_qr_scan", "android": "https://dc.lft.to/lastmile_qr_scan"}, "fusion_lat": 0.0, "name": "04e75b205b439bb20cac86580ce9e487", "bike_id": "04e75b205b439bb20cac86580ce9e487", "is_disabled": 0, "type": "electric_scooter", "lat": 38.90282916666666, "lon": -77.046065, "is_reserved": 0, "fusion_lon": 0.0}, {"rental_uris": {"ios": "https://dc.lft.to/lastmile_qr_scan", "android": "https://dc.lft.to/lastmile_qr_scan"}, "fusion_lat": 0.0, "name": "a952977c87540991e2a18ba31abdf8e1", "bike_id": "a952977c87540991e2a18ba31abdf8e1", "is_disabled": 0, "type": "electric_scooter", "lat": 38.84292683333334, "lon": -76.99946783333333, "is_reserved": 0, "fusion_lon": 0.0}, {"rental_uris": {"ios": "https://dc.lft.to/lastmile_qr_scan", "android": "https://dc.lft.to/lastmile_qr_scan"}, "fusion_lat": 0.0, "name": "0c3008b1c522c2bcfe0ebc80738c3a6a", "bike_id": "0c3008b1c522c2bcfe0ebc80738c3a6a", "is_disabled": 0, "type": "electric_scooter", "lat": 38.93141716666667, "lon": -77.026016, "is_reserved": 0, "fusion_lon": 0.0}, {"rental_uris": {"ios": "https://dc.lft.to/lastmile_qr_scan", "android": "https://dc.lft.to/lastmile_qr_scan"}, "fusion_lat": 0.0, "name": "1699aed9c856107bf71402634bb0f09e", "bike_id": "1699aed9c856107bf71402634bb0f09e", "is_disabled": 0, "type": "electric_scooter", "lat": 38.919425333333336, "lon": -77.01348983333334, "is_reserved": 0, "fusion_lon": 0.0}, {"rental_uris": {"ios": "https://dc.lft.to/lastmile_qr_scan", "android": "https://dc.lft.to/lastmile_qr_scan"}, "fusion_lat": 0.0, "name": "e9cd202016a53ea14b890fc4bf649157", "bike_id": "e9cd202016a53ea14b890fc4bf649157", "is_disabled": 0, "type": "electric_scooter", "lat": 38.89221333333333, "lon": -77.02220533333333, "is_reserved": 0, "fusion_lon": 0.0}, {"rental_uris": {"ios": "https://dc.lft.to/lastmile_qr_scan", "android": "https://dc.lft.to/lastmile_qr_scan"}, "fusion_lat": 0.0, "name": "61574fc6b59a37e89276a91ef163a5dc", "bike_id": "61574fc6b59a37e89276a91ef163a5dc", "is_disabled": 0, "type": "electric_scooter", "lat": 38.919717, "lon": -76.9734205, "is_reserved": 0, "fusion_lon": 0.0}, {"rental_uris": {"ios": "https://dc.lft.to/lastmile_qr_scan", "android": "https://dc.lft.to/lastmile_qr_scan"}, "fusion_lat": 0.0, "name": "d476b8c840f8324c5f0fc7b60d34c562", "bike_id": "d476b8c840f8324c5f0fc7b60d34c562", "is_disabled": 0, "type": "electric_scooter", "lat": 38.89819283333333, "lon": -77.04359966666667, "is_reserved": 0, "fusion_lon": 0.0}, {"rental_uris": {"ios": "https://dc.lft.to/lastmile_qr_scan", "android": "https://dc.lft.to/lastmile_qr_scan"}, "fusion_lat": 0.0, "name": "8070c6e9f352797879b0c0dde3947965", "bike_id": "8070c6e9f352797879b0c0dde3947965", "is_disabled": 0, "type": "electric_scooter", "lat": 38.918154666666666, "lon": -77.03914633333333, "is_reserved": 0, "fusion_lon": 0.0}, {"rental_uris": {"ios": "https://dc.lft.to/lastmile_qr_scan", "android": "https://dc.lft.to/lastmile_qr_scan"}, "fusion_lat": 0.0, "name": "2469a1170af16aef112d81a4025ea08d", "bike_id": "2469a1170af16aef112d81a4025ea08d", "is_disabled": 0, "type": "electric_scooter", "lat": 38.88226816666667, "lon": -76.99089566666666, "is_reserved": 0, "fusion_lon": 0.0}, {"rental_uris": {"ios": "https://dc.lft.to/lastmile_qr_scan", "android": "https://dc.lft.to/lastmile_qr_scan"}, "fusion_lat": 0.0, "name": "ce62a9ada4af9d04eb18d1df86b60391", "bike_id": "ce62a9ada4af9d04eb18d1df86b60391", "is_disabled": 0, "type": "electric_bike", "lat": 38.961332166666665, "lon": -77.0097195, "is_reserved": 0, "fusion_lon": 0.0}, {"rental_uris": {"ios": "https://dc.lft.to/lastmile_qr_scan", "android": "https://dc.lft.to/lastmile_qr_scan"}, "fusion_lat": 0.0, "name": "f0b922b57f93b585bd527694e46f83cc", "bike_id": "f0b922b57f93b585bd527694e46f83cc", "is_disabled": 0, "type": "electric_scooter", "lat": 38.9052755, "lon": -77.05936916666667, "is_reserved": 0, "fusion_lon": 0.0}, {"rental_uris": {"ios": "https://dc.lft.to/lastmile_qr_scan", "android": "https://dc.lft.to/lastmile_qr_scan"}, "fusion_lat": 0.0, "name": "a7ab427bc3428431e18edab9c4c860bd", "bike_id": "a7ab427bc3428431e18edab9c4c860bd", "is_disabled": 0, "type": "electric_scooter", "lat": 38.90985, "lon": -77.03182833333334, "is_reserved": 0, "fusion_lon": 0.0}, {"rental_uris": {"ios": "https://dc.lft.to/lastmile_qr_scan", "android": "https://dc.lft.to/lastmile_qr_scan"}, "fusion_lat": 0.0, "name": "6ac28b6a2ee5c84d35d2bd4d1a8955de", "bike_id": "6ac28b6a2ee5c84d35d2bd4d1a8955de", "is_disabled": 0, "type": "electric_scooter", "lat": 38.89219533333333, "lon": -77.02224716666667, "is_reserved": 0, "fusion_lon": 0.0}, {"rental_uris": {"ios": "https://dc.lft.to/lastmile_qr_scan", "android": "https://dc.lft.to/lastmile_qr_scan"}, "fusion_lat": 0.0, "name": "ae966a0d1df44db6e1aacec21d913e80", "bike_id": "ae966a0d1df44db6e1aacec21d913e80", "is_disabled": 0, "type": "electric_scooter", "lat": 38.892307, "lon": -77.0318285, "is_reserved": 0, "fusion_lon": 0.0}, {"rental_uris": {"ios": "https://dc.lft.to/lastmile_qr_scan", "android": "https://dc.lft.to/lastmile_qr_scan"}, "fusion_lat": 0.0, "name": "cc5e62542f855dcb52200808db5cb858", "bike_id": "cc5e62542f855dcb52200808db5cb858", "is_disabled": 0, "type": "electric_scooter", "lat": 38.91109516666667, "lon": -77.00152833333334, "is_reserved": 0, "fusion_lon": 0.0}, {"rental_uris": {"ios": "https://dc.lft.to/lastmile_qr_scan", "android": "https://dc.lft.to/lastmile_qr_scan"}, "fusion_lat": 0.0, "name": "e5c10b98832ffcc97ee22e854cbdda89", "bike_id": "e5c10b98832ffcc97ee22e854cbdda89", "is_disabled": 0, "type": "electric_scooter", "lat": 38.91960266666667, "lon": -77.01784683333334, "is_reserved": 0, "fusion_lon": 0.0}, {"rental_uris": {"ios": "https://dc.lft.to/lastmile_qr_scan", "android": "https://dc.lft.to/lastmile_qr_scan"}, "fusion_lat": 0.0, "name": "53f32020ab9174418c2611761334e2c0", "bike_id": "53f32020ab9174418c2611761334e2c0", "is_disabled": 0, "type": "electric_scooter", "lat": 38.90646916666667, "lon": -77.048737, "is_reserved": 0, "fusion_lon": 0.0}, {"rental_uris": {"ios": "https://dc.lft.to/lastmile_qr_scan", "android": "https://dc.lft.to/lastmile_qr_scan"}, "fusion_lat": 0.0, "name": "26258a01fc4756d4c673939e15aac15b", "bike_id": "26258a01fc4756d4c673939e15aac15b", "is_disabled": 0, "type": "electric_scooter", "lat": 38.892232, "lon": -77.03219716666666, "is_reserved": 0, "fusion_lon": 0.0}, {"rental_uris": {"ios": "https://dc.lft.to/lastmile_qr_scan", "android": "https://dc.lft.to/lastmile_qr_scan"}, "fusion_lat": 0.0, "name": "7d5053c57fdd6fdd89a8ccaab3a2e53d", "bike_id": "7d5053c57fdd6fdd89a8ccaab3a2e53d", "is_disabled": 0, "type": "electric_scooter", "lat": 38.9064685, "lon": -77.0486825, "is_reserved": 0, "fusion_lon": 0.0}, {"rental_uris": {"ios": "https://dc.lft.to/lastmile_qr_scan", "android": "https://dc.lft.to/lastmile_qr_scan"}, "fusion_lat": 0.0, "name": "f240bd57750e65afec5da7e744bf35be", "bike_id": "f240bd57750e65afec5da7e744bf35be", "is_disabled": 0, "type": "electric_scooter", "lat": 38.9136205, "lon": -77.04485383333333, "is_reserved": 0, "fusion_lon": 0.0}, {"rental_uris": {"ios": "https://dc.lft.to/lastmile_qr_scan", "android": "https://dc.lft.to/lastmile_qr_scan"}, "fusion_lat": 0.0, "name": "0667da86e79534e81b33712654d11439", "bike_id": "0667da86e79534e81b33712654d11439", "is_disabled": 0, "type": "electric_scooter", "lat": 38.94226333333334, "lon": -77.07680333333333, "is_reserved": 0, "fusion_lon": 0.0}, {"rental_uris": {"ios": "https://dc.lft.to/lastmile_qr_scan", "android": "https://dc.lft.to/lastmile_qr_scan"}, "fusion_lat": 0.0, "name": "8a2dbf73159ad257b9e616750fd7a3c1", "bike_id": "8a2dbf73159ad257b9e616750fd7a3c1", "is_disabled": 0, "type": "electric_scooter", "lat": 38.914148, "lon": -77.0408085, "is_reserved": 0, "fusion_lon": 0.0}, {"rental_uris": {"ios": "https://dc.lft.to/lastmile_qr_scan", "android": "https://dc.lft.to/lastmile_qr_scan"}, "fusion_lat": 0.0, "name": "64c03c64ca7ffa3e9f801d26eb391a75", "bike_id": "64c03c64ca7ffa3e9f801d26eb391a75", "is_disabled": 0, "type": "electric_scooter", "lat": 38.907999333333336, "lon": -77.0383215, "is_reserved": 0, "fusion_lon": 0.0}, {"rental_uris": {"ios": "https://dc.lft.to/lastmile_qr_scan", "android": "https://dc.lft.to/lastmile_qr_scan"}, "fusion_lat": 0.0, "name": "19c9de18940d89f98bcf6f4662e50c61", "bike_id": "19c9de18940d89f98bcf6f4662e50c61", "is_disabled": 0, "type": "electric_scooter", "lat": 38.920471, "lon": -77.03410333333333, "is_reserved": 0, "fusion_lon": 0.0}, {"rental_uris": {"ios": "https://dc.lft.to/lastmile_qr_scan", "android": "https://dc.lft.to/lastmile_qr_scan"}, "fusion_lat": 0.0, "name": "9501eaff0137bf549c6f9d432462d6ce", "bike_id": "9501eaff0137bf549c6f9d432462d6ce", "is_disabled": 0, "type": "electric_scooter", "lat": 38.918025, "lon": -77.02493016666666, "is_reserved": 0, "fusion_lon": 0.0}, {"rental_uris": {"ios": "https://dc.lft.to/lastmile_qr_scan", "android": "https://dc.lft.to/lastmile_qr_scan"}, "fusion_lat": 0.0, "name": "b65c8ecf346366aa4f69eb77084aa479", "bike_id": "b65c8ecf346366aa4f69eb77084aa479", "is_disabled": 0, "type": "electric_scooter", "lat": 38.88813833333333, "lon": -76.93343583333333, "is_reserved": 0, "fusion_lon": 0.0}, {"rental_uris": {"ios": "https://dc.lft.to/lastmile_qr_scan", "android": "https://dc.lft.to/lastmile_qr_scan"}, "fusion_lat": 0.0, "name": "1bdada215247df14a055ecea5a7b1da1", "bike_id": "1bdada215247df14a055ecea5a7b1da1", "is_disabled": 0, "type": "electric_scooter", "lat": 38.93177816666667, "lon": -77.07063866666667, "is_reserved": 0, "fusion_lon": 0.0}, {"rental_uris": {"ios": "https://dc.lft.to/lastmile_qr_scan", "android": "https://dc.lft.to/lastmile_qr_scan"}, "fusion_lat": 0.0, "name": "0a61eab307fb9fad6a3e98468d5813ae", "bike_id": "0a61eab307fb9fad6a3e98468d5813ae", "is_disabled": 0, "type": "electric_bike", "lat": 38.8398225, "lon": -77.00569766666666, "is_reserved": 0, "fusion_lon": 0.0}, {"rental_uris": {"ios": "https://dc.lft.to/lastmile_qr_scan", "android": "https://dc.lft.to/lastmile_qr_scan"}, "fusion_lat": 0.0, "name": "4bb421f4f537e78c5d64fad98e304506", "bike_id": "4bb421f4f537e78c5d64fad98e304506", "is_disabled": 0, "type": "electric_scooter", "lat": 38.8920995, "lon": -77.03161416666667, "is_reserved": 0, "fusion_lon": 0.0}, {"rental_uris": {"ios": "https://dc.lft.to/lastmile_qr_scan", "android": "https://dc.lft.to/lastmile_qr_scan"}, "fusion_lat": 0.0, "name": "e843d9343d0bfada466a60b98100541b", "bike_id": "e843d9343d0bfada466a60b98100541b", "is_disabled": 0, "type": "electric_scooter", "lat": 38.916276833333335, "lon": -77.02699083333333, "is_reserved": 0, "fusion_lon": 0.0}, {"rental_uris": {"ios": "https://dc.lft.to/lastmile_qr_scan", "android": "https://dc.lft.to/lastmile_qr_scan"}, "fusion_lat": 0.0, "name": "f68bafb5f9f66cc35f8eb489f4637627", "bike_id": "f68bafb5f9f66cc35f8eb489f4637627", "is_disabled": 0, "type": "electric_scooter", "lat": 38.90890616666667, "lon": -77.032051, "is_reserved": 0, "fusion_lon": 0.0}, {"rental_uris": {"ios": "https://dc.lft.to/lastmile_qr_scan", "android": "https://dc.lft.to/lastmile_qr_scan"}, "fusion_lat": 0.0, "name": "eb7688e90a46092b4d66f60b23a14ad1", "bike_id": "eb7688e90a46092b4d66f60b23a14ad1", "is_disabled": 0, "type": "electric_scooter", "lat": 38.866971, "lon": -76.98392733333333, "is_reserved": 0, "fusion_lon": 0.0}, {"rental_uris": {"ios": "https://dc.lft.to/lastmile_qr_scan", "android": "https://dc.lft.to/lastmile_qr_scan"}, "fusion_lat": 0.0, "name": "3787245874c78b2d078d525ba2ebebde", "bike_id": "3787245874c78b2d078d525ba2ebebde", "is_disabled": 0, "type": "electric_scooter", "lat": 38.900728, "lon": -77.0271105, "is_reserved": 0, "fusion_lon": 0.0}, {"rental_uris": {"ios": "https://dc.lft.to/lastmile_qr_scan", "android": "https://dc.lft.to/lastmile_qr_scan"}, "fusion_lat": 0.0, "name": "f17bc786f62c3ce39689445bce99a05c", "bike_id": "f17bc786f62c3ce39689445bce99a05c", "is_disabled": 0, "type": "electric_scooter", "lat": 38.862425, "lon": -76.99495816666666, "is_reserved": 0, "fusion_lon": 0.0}, {"rental_uris": {"ios": "https://dc.lft.to/lastmile_qr_scan", "android": "https://dc.lft.to/lastmile_qr_scan"}, "fusion_lat": 0.0, "name": "85ce2338a5c55fc6fa2b9e36a43f5ae4", "bike_id": "85ce2338a5c55fc6fa2b9e36a43f5ae4", "is_disabled": 0, "type": "electric_scooter", "lat": 38.901302, "lon": -77.0296715, "is_reserved": 0, "fusion_lon": 0.0}, {"rental_uris": {"ios": "https://dc.lft.to/lastmile_qr_scan", "android": "https://dc.lft.to/lastmile_qr_scan"}, "fusion_lat": 0.0, "name": "01aa9494a4422aef9881df8bfbc7c301", "bike_id": "01aa9494a4422aef9881df8bfbc7c301", "is_disabled": 0, "type": "electric_scooter", "lat": 38.897281666666665, "lon": -77.04686466666666, "is_reserved": 0, "fusion_lon": 0.0}, {"rental_uris": {"ios": "https://dc.lft.to/lastmile_qr_scan", "android": "https://dc.lft.to/lastmile_qr_scan"}, "fusion_lat": 0.0, "name": "a5ced10623a972b370709460f17c20e8", "bike_id": "a5ced10623a972b370709460f17c20e8", "is_disabled": 0, "type": "electric_scooter", "lat": 38.907260666666666, "lon": -77.023489, "is_reserved": 0, "fusion_lon": 0.0}, {"rental_uris": {"ios": "https://dc.lft.to/lastmile_qr_scan", "android": "https://dc.lft.to/lastmile_qr_scan"}, "fusion_lat": 0.0, "name": "e1210e8f56e70ff773da3105095d9f81", "bike_id": "e1210e8f56e70ff773da3105095d9f81", "is_disabled": 0, "type": "electric_scooter", "lat": 38.94467383333333, "lon": -77.02341533333333, "is_reserved": 0, "fusion_lon": 0.0}, {"rental_uris": {"ios": "https://dc.lft.to/lastmile_qr_scan", "android": "https://dc.lft.to/lastmile_qr_scan"}, "fusion_lat": 0.0, "name": "396c48290695620c37da51104b66508e", "bike_id": "396c48290695620c37da51104b66508e", "is_disabled": 0, "type": "electric_bike", "lat": 38.853943, "lon": -77.12481616666666, "is_reserved": 0, "fusion_lon": 0.0}, {"rental_uris": {"ios": "https://dc.lft.to/lastmile_qr_scan", "android": "https://dc.lft.to/lastmile_qr_scan"}, "fusion_lat": 0.0, "name": "7f0b5fbce266fa0d6e51c90a9e3e9b35", "bike_id": "7f0b5fbce266fa0d6e51c90a9e3e9b35", "is_disabled": 0, "type": "electric_scooter", "lat": 38.89622333333333, "lon": -77.03183683333333, "is_reserved": 0, "fusion_lon": 0.0}, {"rental_uris": {"ios": "https://dc.lft.to/lastmile_qr_scan", "android": "https://dc.lft.to/lastmile_qr_scan"}, "fusion_lat": 0.0, "name": "2a95c724a9c147c9c993767b002716a5", "bike_id": "2a95c724a9c147c9c993767b002716a5", "is_disabled": 0, "type": "electric_scooter", "lat": 38.88371083333333, "lon": -76.9951235, "is_reserved": 0, "fusion_lon": 0.0}, {"rental_uris": {"ios": "https://dc.lft.to/lastmile_qr_scan", "android": "https://dc.lft.to/lastmile_qr_scan"}, "fusion_lat": 0.0, "name": "8e7e4b66c8e692c0656405d65f147070", "bike_id": "8e7e4b66c8e692c0656405d65f147070", "is_disabled": 0, "type": "electric_scooter", "lat": 38.90663966666666, "lon": -77.02694933333333, "is_reserved": 0, "fusion_lon": 0.0}, {"rental_uris": {"ios": "https://dc.lft.to/lastmile_qr_scan", "android": "https://dc.lft.to/lastmile_qr_scan"}, "fusion_lat": 0.0, "name": "de66d911d2856ac9d0a51c4780c8d9db", "bike_id": "de66d911d2856ac9d0a51c4780c8d9db", "is_disabled": 0, "type": "electric_bike", "lat": 38.840127, "lon": -76.975289, "is_reserved": 0, "fusion_lon": 0.0}, {"rental_uris": {"ios": "https://dc.lft.to/lastmile_qr_scan", "android": "https://dc.lft.to/lastmile_qr_scan"}, "fusion_lat": 0.0, "name": "8e49c61b47b8105782e8650f3a31a977", "bike_id": "8e49c61b47b8105782e8650f3a31a977", "is_disabled": 0, "type": "electric_scooter", "lat": 38.920420166666666, "lon": -77.0420265, "is_reserved": 0, "fusion_lon": 0.0}, {"rental_uris": {"ios": "https://dc.lft.to/lastmile_qr_scan", "android": "https://dc.lft.to/lastmile_qr_scan"}, "fusion_lat": 0.0, "name": "9d03db46791e09904c6d9cda9fba58c4", "bike_id": "9d03db46791e09904c6d9cda9fba58c4", "is_disabled": 0, "type": "electric_scooter", "lat": 38.8957965, "lon": -76.98180866666667, "is_reserved": 0, "fusion_lon": 0.0}, {"rental_uris": {"ios": "https://dc.lft.to/lastmile_qr_scan", "android": "https://dc.lft.to/lastmile_qr_scan"}, "fusion_lat": 0.0, "name": "96adc53d31f839fcba846cd69892f891", "bike_id": "96adc53d31f839fcba846cd69892f891", "is_disabled": 0, "type": "electric_scooter", "lat": 38.905816, "lon": -77.0420095, "is_reserved": 0, "fusion_lon": 0.0}, {"rental_uris": {"ios": "https://dc.lft.to/lastmile_qr_scan", "android": "https://dc.lft.to/lastmile_qr_scan"}, "fusion_lat": 0.0, "name": "290c55e3b6fdf7dbf7e53074f0c70762", "bike_id": "290c55e3b6fdf7dbf7e53074f0c70762", "is_disabled": 0, "type": "electric_scooter", "lat": 38.92793416666667, "lon": -77.02604566666666, "is_reserved": 0, "fusion_lon": 0.0}, {"rental_uris": {"ios": "https://dc.lft.to/lastmile_qr_scan", "android": "https://dc.lft.to/lastmile_qr_scan"}, "fusion_lat": 0.0, "name": "2abfa0697ddc3af2e3f71d45c287658e", "bike_id": "2abfa0697ddc3af2e3f71d45c287658e", "is_disabled": 0, "type": "electric_scooter", "lat": 38.8822815, "lon": -76.99092983333334, "is_reserved": 0, "fusion_lon": 0.0}, {"rental_uris": {"ios": "https://dc.lft.to/lastmile_qr_scan", "android": "https://dc.lft.to/lastmile_qr_scan"}, "fusion_lat": 0.0, "name": "a848b4f9303944a9ad57730c8f84b218", "bike_id": "a848b4f9303944a9ad57730c8f84b218", "is_disabled": 0, "type": "electric_scooter", "lat": 38.903784, "lon": -76.980242, "is_reserved": 0, "fusion_lon": 0.0}, {"rental_uris": {"ios": "https://dc.lft.to/lastmile_qr_scan", "android": "https://dc.lft.to/lastmile_qr_scan"}, "fusion_lat": 0.0, "name": "a3a39ca4aa45493ffd5163b696216cd8", "bike_id": "a3a39ca4aa45493ffd5163b696216cd8", "is_disabled": 0, "type": "electric_scooter", "lat": 38.90531333333333, "lon": -77.04159533333333, "is_reserved": 0, "fusion_lon": 0.0}, {"rental_uris": {"ios": "https://dc.lft.to/lastmile_qr_scan", "android": "https://dc.lft.to/lastmile_qr_scan"}, "fusion_lat": 0.0, "name": "24f8125b395a3ca82f55e13bddffc075", "bike_id": "24f8125b395a3ca82f55e13bddffc075", "is_disabled": 0, "type": "electric_scooter", "lat": 38.91924433333333, "lon": -77.02532316666667, "is_reserved": 0, "fusion_lon": 0.0}, {"rental_uris": {"ios": "https://dc.lft.to/lastmile_qr_scan", "android": "https://dc.lft.to/lastmile_qr_scan"}, "fusion_lat": 0.0, "name": "b0a0dba90fe6db5d8b5898a8ef8b7328", "bike_id": "b0a0dba90fe6db5d8b5898a8ef8b7328", "is_disabled": 0, "type": "electric_scooter", "lat": 38.9187505, "lon": -77.0244955, "is_reserved": 0, "fusion_lon": 0.0}, {"rental_uris": {"ios": "https://dc.lft.to/lastmile_qr_scan", "android": "https://dc.lft.to/lastmile_qr_scan"}, "fusion_lat": 0.0, "name": "78f674a4c0280367e638564b1dca7090", "bike_id": "78f674a4c0280367e638564b1dca7090", "is_disabled": 0, "type": "electric_scooter", "lat": 38.9096305, "lon": -77.0461425, "is_reserved": 0, "fusion_lon": 0.0}, {"rental_uris": {"ios": "https://dc.lft.to/lastmile_qr_scan", "android": "https://dc.lft.to/lastmile_qr_scan"}, "fusion_lat": 0.0, "name": "77ba71e9dc1f2995018d5f046ba182f0", "bike_id": "77ba71e9dc1f2995018d5f046ba182f0", "is_disabled": 0, "type": "electric_scooter", "lat": 38.9089255, "lon": -76.99636083333333, "is_reserved": 0, "fusion_lon": 0.0}, {"rental_uris": {"ios": "https://dc.lft.to/lastmile_qr_scan", "android": "https://dc.lft.to/lastmile_qr_scan"}, "fusion_lat": 0.0, "name": "70ac65bda5ffb01aea755aabde1b75fe", "bike_id": "70ac65bda5ffb01aea755aabde1b75fe", "is_disabled": 0, "type": "electric_scooter", "lat": 38.915202, "lon": -77.04162733333334, "is_reserved": 0, "fusion_lon": 0.0}, {"rental_uris": {"ios": "https://dc.lft.to/lastmile_qr_scan", "android": "https://dc.lft.to/lastmile_qr_scan"}, "fusion_lat": 0.0, "name": "644d5744f12be6b243833e99ec98bbbc", "bike_id": "644d5744f12be6b243833e99ec98bbbc", "is_disabled": 0, "type": "electric_scooter", "lat": 38.893224833333335, "lon": -77.055811, "is_reserved": 0, "fusion_lon": 0.0}, {"rental_uris": {"ios": "https://dc.lft.to/lastmile_qr_scan", "android": "https://dc.lft.to/lastmile_qr_scan"}, "fusion_lat": 0.0, "name": "13f7d8efa36669d9f627df1795eacc3d", "bike_id": "13f7d8efa36669d9f627df1795eacc3d", "is_disabled": 0, "type": "electric_scooter", "lat": 38.8989945, "lon": -77.032787, "is_reserved": 0, "fusion_lon": 0.0}, {"rental_uris": {"ios": "https://dc.lft.to/lastmile_qr_scan", "android": "https://dc.lft.to/lastmile_qr_scan"}, "fusion_lat": 0.0, "name": "696ec91e3e6e26aafb7a47842874ea07", "bike_id": "696ec91e3e6e26aafb7a47842874ea07", "is_disabled": 0, "type": "electric_scooter", "lat": 38.9104035, "lon": -77.026918, "is_reserved": 0, "fusion_lon": 0.0}, {"rental_uris": {"ios": "https://dc.lft.to/lastmile_qr_scan", "android": "https://dc.lft.to/lastmile_qr_scan"}, "fusion_lat": 0.0, "name": "f784beb2bf0df606011227975acbfecc", "bike_id": "f784beb2bf0df606011227975acbfecc", "is_disabled": 0, "type": "electric_scooter", "lat": 38.906849, "lon": -77.02694, "is_reserved": 0, "fusion_lon": 0.0}, {"rental_uris": {"ios": "https://dc.lft.to/lastmile_qr_scan", "android": "https://dc.lft.to/lastmile_qr_scan"}, "fusion_lat": 0.0, "name": "54f6af82558327748f745938e569be91", "bike_id": "54f6af82558327748f745938e569be91", "is_disabled": 0, "type": "electric_scooter", "lat": 38.89095183333333, "lon": -77.00045933333334, "is_reserved": 0, "fusion_lon": 0.0}, {"rental_uris": {"ios": "https://dc.lft.to/lastmile_qr_scan", "android": "https://dc.lft.to/lastmile_qr_scan"}, "fusion_lat": 0.0, "name": "f05898bf37b426a375ad7ee87d6dccb2", "bike_id": "f05898bf37b426a375ad7ee87d6dccb2", "is_disabled": 0, "type": "electric_scooter", "lat": 38.892198, "lon": -77.02625533333334, "is_reserved": 0, "fusion_lon": 0.0}, {"rental_uris": {"ios": "https://dc.lft.to/lastmile_qr_scan", "android": "https://dc.lft.to/lastmile_qr_scan"}, "fusion_lat": 0.0, "name": "3b89cc27599d2af0cd5dd7f514313456", "bike_id": "3b89cc27599d2af0cd5dd7f514313456", "is_disabled": 0, "type": "electric_bike", "lat": 38.964845, "lon": -77.1072385, "is_reserved": 0, "fusion_lon": 0.0}, {"rental_uris": {"ios": "https://dc.lft.to/lastmile_qr_scan", "android": "https://dc.lft.to/lastmile_qr_scan"}, "fusion_lat": 0.0, "name": "d158cd79911a5231a334d67c2157caa4", "bike_id": "d158cd79911a5231a334d67c2157caa4", "is_disabled": 0, "type": "electric_bike", "lat": 38.793273166666665, "lon": -77.04020083333333, "is_reserved": 0, "fusion_lon": 0.0}, {"rental_uris": {"ios": "https://dc.lft.to/lastmile_qr_scan", "android": "https://dc.lft.to/lastmile_qr_scan"}, "fusion_lat": 0.0, "name": "5e914a9f1df10e26383478929992f2aa", "bike_id": "5e914a9f1df10e26383478929992f2aa", "is_disabled": 0, "type": "electric_scooter", "lat": 38.9142305, "lon": -77.03184483333334, "is_reserved": 0, "fusion_lon": 0.0}, {"rental_uris": {"ios": "https://dc.lft.to/lastmile_qr_scan", "android": "https://dc.lft.to/lastmile_qr_scan"}, "fusion_lat": 0.0, "name": "80896dd01adfe5ad6844e86cc88b61aa", "bike_id": "80896dd01adfe5ad6844e86cc88b61aa", "is_disabled": 0, "type": "electric_scooter", "lat": 38.940991, "lon": -77.0210755, "is_reserved": 0, "fusion_lon": 0.0}, {"rental_uris": {"ios": "https://dc.lft.to/lastmile_qr_scan", "android": "https://dc.lft.to/lastmile_qr_scan"}, "fusion_lat": 0.0, "name": "94affc5ce8fc419ca3010ccb447772c8", "bike_id": "94affc5ce8fc419ca3010ccb447772c8", "is_disabled": 0, "type": "electric_scooter", "lat": 38.923278333333336, "lon": -77.04304916666666, "is_reserved": 0, "fusion_lon": 0.0}, {"rental_uris": {"ios": "https://dc.lft.to/lastmile_qr_scan", "android": "https://dc.lft.to/lastmile_qr_scan"}, "fusion_lat": 0.0, "name": "04bfb1332afb5c2dfe6b920f468f089d", "bike_id": "04bfb1332afb5c2dfe6b920f468f089d", "is_disabled": 0, "type": "electric_bike", "lat": 38.9490025, "lon": -76.9723625, "is_reserved": 0, "fusion_lon": 0.0}, {"rental_uris": {"ios": "https://dc.lft.to/lastmile_qr_scan", "android": "https://dc.lft.to/lastmile_qr_scan"}, "fusion_lat": 0.0, "name": "9ecea3893fe28ff1c02d21bdd2c7c8b0", "bike_id": "9ecea3893fe28ff1c02d21bdd2c7c8b0", "is_disabled": 0, "type": "electric_scooter", "lat": 38.913219166666664, "lon": -77.03179216666666, "is_reserved": 0, "fusion_lon": 0.0}, {"rental_uris": {"ios": "https://dc.lft.to/lastmile_qr_scan", "android": "https://dc.lft.to/lastmile_qr_scan"}, "fusion_lat": 0.0, "name": "eaaf35d942e4c4074188cd838a5c4d2c", "bike_id": "eaaf35d942e4c4074188cd838a5c4d2c", "is_disabled": 0, "type": "electric_scooter", "lat": 38.883359, "lon": -77.00932083333333, "is_reserved": 0, "fusion_lon": 0.0}, {"rental_uris": {"ios": "https://dc.lft.to/lastmile_qr_scan", "android": "https://dc.lft.to/lastmile_qr_scan"}, "fusion_lat": 0.0, "name": "30019079d5493324302600b405827970", "bike_id": "30019079d5493324302600b405827970", "is_disabled": 0, "type": "electric_scooter", "lat": 38.93188416666667, "lon": -77.028278, "is_reserved": 0, "fusion_lon": 0.0}, {"rental_uris": {"ios": "https://dc.lft.to/lastmile_qr_scan", "android": "https://dc.lft.to/lastmile_qr_scan"}, "fusion_lat": 0.0, "name": "2d198d3a58b89d0b78067b0a91e470c1", "bike_id": "2d198d3a58b89d0b78067b0a91e470c1", "is_disabled": 0, "type": "electric_scooter", "lat": 38.93294316666667, "lon": -77.0219555, "is_reserved": 0, "fusion_lon": 0.0}, {"rental_uris": {"ios": "https://dc.lft.to/lastmile_qr_scan", "android": "https://dc.lft.to/lastmile_qr_scan"}, "fusion_lat": 0.0, "name": "45012f4afc0101b63645b6d44e8f5167", "bike_id": "45012f4afc0101b63645b6d44e8f5167", "is_disabled": 0, "type": "electric_scooter", "lat": 38.931614833333335, "lon": -77.05608166666667, "is_reserved": 0, "fusion_lon": 0.0}, {"rental_uris": {"ios": "https://dc.lft.to/lastmile_qr_scan", "android": "https://dc.lft.to/lastmile_qr_scan"}, "fusion_lat": 0.0, "name": "d733f8a7811268bb5d21d1d410982d65", "bike_id": "d733f8a7811268bb5d21d1d410982d65", "is_disabled": 0, "type": "electric_scooter", "lat": 38.922875833333336, "lon": -77.03192066666666, "is_reserved": 0, "fusion_lon": 0.0}, {"rental_uris": {"ios": "https://dc.lft.to/lastmile_qr_scan", "android": "https://dc.lft.to/lastmile_qr_scan"}, "fusion_lat": 0.0, "name": "e08bb16a8ab03e29e5ba787a0e80e7bc", "bike_id": "e08bb16a8ab03e29e5ba787a0e80e7bc", "is_disabled": 0, "type": "electric_scooter", "lat": 38.89222766666666, "lon": -77.0137285, "is_reserved": 0, "fusion_lon": 0.0}, {"rental_uris": {"ios": "https://dc.lft.to/lastmile_qr_scan", "android": "https://dc.lft.to/lastmile_qr_scan"}, "fusion_lat": 0.0, "name": "16198a85168251a6de48ae18775d5e1c", "bike_id": "16198a85168251a6de48ae18775d5e1c", "is_disabled": 0, "type": "electric_scooter", "lat": 38.86495883333333, "lon": -76.98985, "is_reserved": 0, "fusion_lon": 0.0}, {"rental_uris": {"ios": "https://dc.lft.to/lastmile_qr_scan", "android": "https://dc.lft.to/lastmile_qr_scan"}, "fusion_lat": 0.0, "name": "729c0d58dc1f36030b93a954dbdee581", "bike_id": "729c0d58dc1f36030b93a954dbdee581", "is_disabled": 0, "type": "electric_scooter", "lat": 38.90268583333334, "lon": -77.03408433333334, "is_reserved": 0, "fusion_lon": 0.0}, {"rental_uris": {"ios": "https://dc.lft.to/lastmile_qr_scan", "android": "https://dc.lft.to/lastmile_qr_scan"}, "fusion_lat": 0.0, "name": "a1287024ad77c2af1f39154cac28eebe", "bike_id": "a1287024ad77c2af1f39154cac28eebe", "is_disabled": 0, "type": "electric_scooter", "lat": 38.895177333333336, "lon": -77.02426416666667, "is_reserved": 0, "fusion_lon": 0.0}, {"rental_uris": {"ios": "https://dc.lft.to/lastmile_qr_scan", "android": "https://dc.lft.to/lastmile_qr_scan"}, "fusion_lat": 0.0, "name": "3696d996f6602001e9cf608bb2cc5529", "bike_id": "3696d996f6602001e9cf608bb2cc5529", "is_disabled": 0, "type": "electric_scooter", "lat": 38.917057166666666, "lon": -77.02572566666667, "is_reserved": 0, "fusion_lon": 0.0}, {"rental_uris": {"ios": "https://dc.lft.to/lastmile_qr_scan", "android": "https://dc.lft.to/lastmile_qr_scan"}, "fusion_lat": 0.0, "name": "844bc270e94eb9dd39d9d167b4488157", "bike_id": "844bc270e94eb9dd39d9d167b4488157", "is_disabled": 0, "type": "electric_scooter", "lat": 38.90577316666667, "lon": -77.03849133333334, "is_reserved": 0, "fusion_lon": 0.0}, {"rental_uris": {"ios": "https://dc.lft.to/lastmile_qr_scan", "android": "https://dc.lft.to/lastmile_qr_scan"}, "fusion_lat": 0.0, "name": "a11cbd74e0ea70d9db1af4d272b79816", "bike_id": "a11cbd74e0ea70d9db1af4d272b79816", "is_disabled": 0, "type": "electric_scooter", "lat": 38.928283666666665, "lon": -77.0370685, "is_reserved": 0, "fusion_lon": 0.0}, {"rental_uris": {"ios": "https://dc.lft.to/lastmile_qr_scan", "android": "https://dc.lft.to/lastmile_qr_scan"}, "fusion_lat": 0.0, "name": "86f7da2d48e30faf146f0b989c8210f2", "bike_id": "86f7da2d48e30faf146f0b989c8210f2", "is_disabled": 0, "type": "electric_scooter", "lat": 38.9191115, "lon": -77.02496216666667, "is_reserved": 0, "fusion_lon": 0.0}, {"rental_uris": {"ios": "https://dc.lft.to/lastmile_qr_scan", "android": "https://dc.lft.to/lastmile_qr_scan"}, "fusion_lat": 0.0, "name": "349cb348f4956c8ac31e7e799564ab78", "bike_id": "349cb348f4956c8ac31e7e799564ab78", "is_disabled": 0, "type": "electric_scooter", "lat": 38.91270466666667, "lon": -77.02226283333333, "is_reserved": 0, "fusion_lon": 0.0}, {"rental_uris": {"ios": "https://dc.lft.to/lastmile_qr_scan", "android": "https://dc.lft.to/lastmile_qr_scan"}, "fusion_lat": 0.0, "name": "944d907dbc92974909513b67e1ec6df3", "bike_id": "944d907dbc92974909513b67e1ec6df3", "is_disabled": 0, "type": "electric_scooter", "lat": 38.92695716666667, "lon": -77.0258135, "is_reserved": 0, "fusion_lon": 0.0}, {"rental_uris": {"ios": "https://dc.lft.to/lastmile_qr_scan", "android": "https://dc.lft.to/lastmile_qr_scan"}, "fusion_lat": 0.0, "name": "15e8225537fbec118617f61370dc8ae0", "bike_id": "15e8225537fbec118617f61370dc8ae0", "is_disabled": 0, "type": "electric_scooter", "lat": 38.915661166666666, "lon": -77.02004966666667, "is_reserved": 0, "fusion_lon": 0.0}, {"rental_uris": {"ios": "https://dc.lft.to/lastmile_qr_scan", "android": "https://dc.lft.to/lastmile_qr_scan"}, "fusion_lat": 0.0, "name": "f093ac4d60a4acf0ebce44bf85c8d089", "bike_id": "f093ac4d60a4acf0ebce44bf85c8d089", "is_disabled": 0, "type": "electric_scooter", "lat": 38.895815166666665, "lon": -77.029792, "is_reserved": 0, "fusion_lon": 0.0}, {"rental_uris": {"ios": "https://dc.lft.to/lastmile_qr_scan", "android": "https://dc.lft.to/lastmile_qr_scan"}, "fusion_lat": 0.0, "name": "ab95bdda1f1e852680c2b9f7f45189e3", "bike_id": "ab95bdda1f1e852680c2b9f7f45189e3", "is_disabled": 0, "type": "electric_scooter", "lat": 38.91224283333333, "lon": -77.041135, "is_reserved": 0, "fusion_lon": 0.0}, {"rental_uris": {"ios": "https://dc.lft.to/lastmile_qr_scan", "android": "https://dc.lft.to/lastmile_qr_scan"}, "fusion_lat": 0.0, "name": "281d419f32510d0600c7afe2637acb87", "bike_id": "281d419f32510d0600c7afe2637acb87", "is_disabled": 0, "type": "electric_scooter", "lat": 38.9011385, "lon": -77.03375683333333, "is_reserved": 0, "fusion_lon": 0.0}, {"rental_uris": {"ios": "https://dc.lft.to/lastmile_qr_scan", "android": "https://dc.lft.to/lastmile_qr_scan"}, "fusion_lat": 0.0, "name": "3a0518405174735b522eef9b537bcc4e", "bike_id": "3a0518405174735b522eef9b537bcc4e", "is_disabled": 0, "type": "electric_scooter", "lat": 38.866888833333334, "lon": -76.98547516666666, "is_reserved": 0, "fusion_lon": 0.0}, {"rental_uris": {"ios": "https://dc.lft.to/lastmile_qr_scan", "android": "https://dc.lft.to/lastmile_qr_scan"}, "fusion_lat": 0.0, "name": "311d0f26f441d5bfc9a56e0115350c2c", "bike_id": "311d0f26f441d5bfc9a56e0115350c2c", "is_disabled": 0, "type": "electric_scooter", "lat": 38.89221966666667, "lon": -77.043278, "is_reserved": 0, "fusion_lon": 0.0}, {"rental_uris": {"ios": "https://dc.lft.to/lastmile_qr_scan", "android": "https://dc.lft.to/lastmile_qr_scan"}, "fusion_lat": 0.0, "name": "92247e3b373bb0c1623006a074deaf88", "bike_id": "92247e3b373bb0c1623006a074deaf88", "is_disabled": 0, "type": "electric_scooter", "lat": 38.840747666666665, "lon": -76.9892665, "is_reserved": 0, "fusion_lon": 0.0}, {"rental_uris": {"ios": "https://dc.lft.to/lastmile_qr_scan", "android": "https://dc.lft.to/lastmile_qr_scan"}, "fusion_lat": 0.0, "name": "4a1bd2c34da535b1cadb0b3f62364764", "bike_id": "4a1bd2c34da535b1cadb0b3f62364764", "is_disabled": 0, "type": "electric_scooter", "lat": 38.8923085, "lon": -77.028014, "is_reserved": 0, "fusion_lon": 0.0}, {"rental_uris": {"ios": "https://dc.lft.to/lastmile_qr_scan", "android": "https://dc.lft.to/lastmile_qr_scan"}, "fusion_lat": 0.0, "name": "c552b6d19c8c6e85985ccf116c1b015f", "bike_id": "c552b6d19c8c6e85985ccf116c1b015f", "is_disabled": 0, "type": "electric_scooter", "lat": 38.915585, "lon": -77.03860833333333, "is_reserved": 0, "fusion_lon": 0.0}, {"rental_uris": {"ios": "https://dc.lft.to/lastmile_qr_scan", "android": "https://dc.lft.to/lastmile_qr_scan"}, "fusion_lat": 0.0, "name": "004ce6a6bf5cefe66b2b922557e82e64", "bike_id": "004ce6a6bf5cefe66b2b922557e82e64", "is_disabled": 0, "type": "electric_scooter", "lat": 38.9496045, "lon": -77.02724716666667, "is_reserved": 0, "fusion_lon": 0.0}, {"rental_uris": {"ios": "https://dc.lft.to/lastmile_qr_scan", "android": "https://dc.lft.to/lastmile_qr_scan"}, "fusion_lat": 0.0, "name": "a4023452505f85a7903c8a50b50f2960", "bike_id": "a4023452505f85a7903c8a50b50f2960", "is_disabled": 0, "type": "electric_scooter", "lat": 38.90737583333333, "lon": -77.02713916666667, "is_reserved": 0, "fusion_lon": 0.0}, {"rental_uris": {"ios": "https://dc.lft.to/lastmile_qr_scan", "android": "https://dc.lft.to/lastmile_qr_scan"}, "fusion_lat": 0.0, "name": "bb7f1744cca9e18f21f2798b23c221ad", "bike_id": "bb7f1744cca9e18f21f2798b23c221ad", "is_disabled": 0, "type": "electric_scooter", "lat": 38.951662166666665, "lon": -77.02751333333333, "is_reserved": 0, "fusion_lon": 0.0}, {"rental_uris": {"ios": "https://dc.lft.to/lastmile_qr_scan", "android": "https://dc.lft.to/lastmile_qr_scan"}, "fusion_lat": 0.0, "name": "48b4a707b9fa3e89a108796278aac6e7", "bike_id": "48b4a707b9fa3e89a108796278aac6e7", "is_disabled": 0, "type": "electric_scooter", "lat": 38.8921895, "lon": -77.01371733333333, "is_reserved": 0, "fusion_lon": 0.0}, {"rental_uris": {"ios": "https://dc.lft.to/lastmile_qr_scan", "android": "https://dc.lft.to/lastmile_qr_scan"}, "fusion_lat": 0.0, "name": "6701a7bec8b1bd37b9b946a9e8270d52", "bike_id": "6701a7bec8b1bd37b9b946a9e8270d52", "is_disabled": 0, "type": "electric_scooter", "lat": 38.89980716666667, "lon": -77.02659133333333, "is_reserved": 0, "fusion_lon": 0.0}, {"rental_uris": {"ios": "https://dc.lft.to/lastmile_qr_scan", "android": "https://dc.lft.to/lastmile_qr_scan"}, "fusion_lat": 0.0, "name": "b577aad84f187d3be9ba5fcd515f2571", "bike_id": "b577aad84f187d3be9ba5fcd515f2571", "is_disabled": 0, "type": "electric_scooter", "lat": 38.94713316666667, "lon": -77.03291733333333, "is_reserved": 0, "fusion_lon": 0.0}, {"rental_uris": {"ios": "https://dc.lft.to/lastmile_qr_scan", "android": "https://dc.lft.to/lastmile_qr_scan"}, "fusion_lat": 0.0, "name": "84ca125e6efa08c398e7a2761bf868a7", "bike_id": "84ca125e6efa08c398e7a2761bf868a7", "is_disabled": 0, "type": "electric_scooter", "lat": 38.87251416666667, "lon": -77.00573566666667, "is_reserved": 0, "fusion_lon": 0.0}, {"rental_uris": {"ios": "https://dc.lft.to/lastmile_qr_scan", "android": "https://dc.lft.to/lastmile_qr_scan"}, "fusion_lat": 0.0, "name": "0350271bcd406c8a3fdde8f3bbf6dbbd", "bike_id": "0350271bcd406c8a3fdde8f3bbf6dbbd", "is_disabled": 0, "type": "electric_scooter", "lat": 38.8928955, "lon": -77.04185883333334, "is_reserved": 0, "fusion_lon": 0.0}, {"rental_uris": {"ios": "https://dc.lft.to/lastmile_qr_scan", "android": "https://dc.lft.to/lastmile_qr_scan"}, "fusion_lat": 0.0, "name": "39b099830b9e75a483b1924283dc9695", "bike_id": "39b099830b9e75a483b1924283dc9695", "is_disabled": 0, "type": "electric_scooter", "lat": 38.9135385, "lon": -77.03362466666667, "is_reserved": 0, "fusion_lon": 0.0}, {"rental_uris": {"ios": "https://dc.lft.to/lastmile_qr_scan", "android": "https://dc.lft.to/lastmile_qr_scan"}, "fusion_lat": 0.0, "name": "14e2d63abd4272733fc75e40db607687", "bike_id": "14e2d63abd4272733fc75e40db607687", "is_disabled": 0, "type": "electric_scooter", "lat": 38.923118, "lon": -77.03521333333333, "is_reserved": 0, "fusion_lon": 0.0}, {"rental_uris": {"ios": "https://dc.lft.to/lastmile_qr_scan", "android": "https://dc.lft.to/lastmile_qr_scan"}, "fusion_lat": 0.0, "name": "82e26c85946872f493180e02d48f48d0", "bike_id": "82e26c85946872f493180e02d48f48d0", "is_disabled": 0, "type": "electric_scooter", "lat": 38.9204445, "lon": -77.02430066666666, "is_reserved": 0, "fusion_lon": 0.0}, {"rental_uris": {"ios": "https://dc.lft.to/lastmile_qr_scan", "android": "https://dc.lft.to/lastmile_qr_scan"}, "fusion_lat": 0.0, "name": "a24b38db36db7ca0ad23c7e8bc71dbb9", "bike_id": "a24b38db36db7ca0ad23c7e8bc71dbb9", "is_disabled": 0, "type": "electric_bike", "lat": 38.927594, "lon": -77.06875683333334, "is_reserved": 0, "fusion_lon": 0.0}, {"rental_uris": {"ios": "https://dc.lft.to/lastmile_qr_scan", "android": "https://dc.lft.to/lastmile_qr_scan"}, "fusion_lat": 0.0, "name": "ac9e9eeacc37f5ee370f8ff4f70d046d", "bike_id": "ac9e9eeacc37f5ee370f8ff4f70d046d", "is_disabled": 0, "type": "electric_scooter", "lat": 38.89220483333333, "lon": -77.013694, "is_reserved": 0, "fusion_lon": 0.0}, {"rental_uris": {"ios": "https://dc.lft.to/lastmile_qr_scan", "android": "https://dc.lft.to/lastmile_qr_scan"}, "fusion_lat": 0.0, "name": "72583dc92c33c35f94e45e1d1f057d37", "bike_id": "72583dc92c33c35f94e45e1d1f057d37", "is_disabled": 0, "type": "electric_scooter", "lat": 38.903051, "lon": -77.06524916666666, "is_reserved": 0, "fusion_lon": 0.0}, {"rental_uris": {"ios": "https://dc.lft.to/lastmile_qr_scan", "android": "https://dc.lft.to/lastmile_qr_scan"}, "fusion_lat": 0.0, "name": "f31efa0353bc359ba45472ba2c0cd9b8", "bike_id": "f31efa0353bc359ba45472ba2c0cd9b8", "is_disabled": 0, "type": "electric_scooter", "lat": 38.92064116666667, "lon": -77.04295066666667, "is_reserved": 0, "fusion_lon": 0.0}, {"rental_uris": {"ios": "https://dc.lft.to/lastmile_qr_scan", "android": "https://dc.lft.to/lastmile_qr_scan"}, "fusion_lat": 0.0, "name": "33669f710581498389bdda3522b180ff", "bike_id": "33669f710581498389bdda3522b180ff", "is_disabled": 0, "type": "electric_scooter", "lat": 38.941841333333336, "lon": -77.02491333333333, "is_reserved": 0, "fusion_lon": 0.0}, {"rental_uris": {"ios": "https://dc.lft.to/lastmile_qr_scan", "android": "https://dc.lft.to/lastmile_qr_scan"}, "fusion_lat": 0.0, "name": "ea98589a1a9d701c52303937273065ad", "bike_id": "ea98589a1a9d701c52303937273065ad", "is_disabled": 0, "type": "electric_scooter", "lat": 38.876979666666664, "lon": -77.01763316666667, "is_reserved": 0, "fusion_lon": 0.0}, {"rental_uris": {"ios": "https://dc.lft.to/lastmile_qr_scan", "android": "https://dc.lft.to/lastmile_qr_scan"}, "fusion_lat": 0.0, "name": "9f77dd6f712611c3d7d6ae778bd0c2e5", "bike_id": "9f77dd6f712611c3d7d6ae778bd0c2e5", "is_disabled": 0, "type": "electric_scooter", "lat": 38.88745316666667, "lon": -77.0221015, "is_reserved": 0, "fusion_lon": 0.0}, {"rental_uris": {"ios": "https://dc.lft.to/lastmile_qr_scan", "android": "https://dc.lft.to/lastmile_qr_scan"}, "fusion_lat": 0.0, "name": "c1f15d597a460270a30317bdffdfec37", "bike_id": "c1f15d597a460270a30317bdffdfec37", "is_disabled": 0, "type": "electric_scooter", "lat": 38.882681166666664, "lon": -77.00370516666666, "is_reserved": 0, "fusion_lon": 0.0}, {"rental_uris": {"ios": "https://dc.lft.to/lastmile_qr_scan", "android": "https://dc.lft.to/lastmile_qr_scan"}, "fusion_lat": 0.0, "name": "4c1503a1ccea606af978fc92040e3a65", "bike_id": "4c1503a1ccea606af978fc92040e3a65", "is_disabled": 0, "type": "electric_scooter", "lat": 38.92805283333333, "lon": -77.026188, "is_reserved": 0, "fusion_lon": 0.0}, {"rental_uris": {"ios": "https://dc.lft.to/lastmile_qr_scan", "android": "https://dc.lft.to/lastmile_qr_scan"}, "fusion_lat": 0.0, "name": "0a76c8888f6acdd28f9a9446daca013b", "bike_id": "0a76c8888f6acdd28f9a9446daca013b", "is_disabled": 0, "type": "electric_scooter", "lat": 38.94643766666667, "lon": -77.03105183333334, "is_reserved": 0, "fusion_lon": 0.0}, {"rental_uris": {"ios": "https://dc.lft.to/lastmile_qr_scan", "android": "https://dc.lft.to/lastmile_qr_scan"}, "fusion_lat": 0.0, "name": "9a4351ebbf3f4bee286c43423ae8ab48", "bike_id": "9a4351ebbf3f4bee286c43423ae8ab48", "is_disabled": 0, "type": "electric_scooter", "lat": 38.899715666666665, "lon": -77.0526625, "is_reserved": 0, "fusion_lon": 0.0}, {"rental_uris": {"ios": "https://dc.lft.to/lastmile_qr_scan", "android": "https://dc.lft.to/lastmile_qr_scan"}, "fusion_lat": 0.0, "name": "d0cc62613996b89a0706984b9269a2ab", "bike_id": "d0cc62613996b89a0706984b9269a2ab", "is_disabled": 0, "type": "electric_scooter", "lat": 38.892239000000004, "lon": -77.03221466666666, "is_reserved": 0, "fusion_lon": 0.0}, {"rental_uris": {"ios": "https://dc.lft.to/lastmile_qr_scan", "android": "https://dc.lft.to/lastmile_qr_scan"}, "fusion_lat": 0.0, "name": "965ca1302cdf4a65920d7944f927757f", "bike_id": "965ca1302cdf4a65920d7944f927757f", "is_disabled": 0, "type": "electric_scooter", "lat": 38.9097865, "lon": -76.99507116666666, "is_reserved": 0, "fusion_lon": 0.0}, {"rental_uris": {"ios": "https://dc.lft.to/lastmile_qr_scan", "android": "https://dc.lft.to/lastmile_qr_scan"}, "fusion_lat": 0.0, "name": "6b1d1cbee9ed89e330fa54431ef71598", "bike_id": "6b1d1cbee9ed89e330fa54431ef71598", "is_disabled": 0, "type": "electric_scooter", "lat": 38.905247833333334, "lon": -77.04175916666667, "is_reserved": 0, "fusion_lon": 0.0}, {"rental_uris": {"ios": "https://dc.lft.to/lastmile_qr_scan", "android": "https://dc.lft.to/lastmile_qr_scan"}, "fusion_lat": 0.0, "name": "0683cf14ceee3832643cf830cd4e9dbb", "bike_id": "0683cf14ceee3832643cf830cd4e9dbb", "is_disabled": 0, "type": "electric_scooter", "lat": 38.903744, "lon": -77.04613033333334, "is_reserved": 0, "fusion_lon": 0.0}, {"rental_uris": {"ios": "https://dc.lft.to/lastmile_qr_scan", "android": "https://dc.lft.to/lastmile_qr_scan"}, "fusion_lat": 0.0, "name": "f951fb70de61fe1da3508289ee267bb6", "bike_id": "f951fb70de61fe1da3508289ee267bb6", "is_disabled": 0, "type": "electric_scooter", "lat": 38.90958033333333, "lon": -77.04653966666666, "is_reserved": 0, "fusion_lon": 0.0}, {"rental_uris": {"ios": "https://dc.lft.to/lastmile_qr_scan", "android": "https://dc.lft.to/lastmile_qr_scan"}, "fusion_lat": 0.0, "name": "cd92a55447a3ccea7e4d665b1508a0d2", "bike_id": "cd92a55447a3ccea7e4d665b1508a0d2", "is_disabled": 0, "type": "electric_scooter", "lat": 38.901342, "lon": -77.04878183333334, "is_reserved": 0, "fusion_lon": 0.0}, {"rental_uris": {"ios": "https://dc.lft.to/lastmile_qr_scan", "android": "https://dc.lft.to/lastmile_qr_scan"}, "fusion_lat": 0.0, "name": "71aca6ce4c6df4e073efeedc589c5935", "bike_id": "71aca6ce4c6df4e073efeedc589c5935", "is_disabled": 0, "type": "electric_scooter", "lat": 38.91709733333333, "lon": -77.03670866666667, "is_reserved": 0, "fusion_lon": 0.0}, {"rental_uris": {"ios": "https://dc.lft.to/lastmile_qr_scan", "android": "https://dc.lft.to/lastmile_qr_scan"}, "fusion_lat": 0.0, "name": "fb6a4421cca3af0fac75ec590364ed5a", "bike_id": "fb6a4421cca3af0fac75ec590364ed5a", "is_disabled": 0, "type": "electric_scooter", "lat": 38.907238166666666, "lon": -77.02891416666667, "is_reserved": 0, "fusion_lon": 0.0}, {"rental_uris": {"ios": "https://dc.lft.to/lastmile_qr_scan", "android": "https://dc.lft.to/lastmile_qr_scan"}, "fusion_lat": 0.0, "name": "29bef97a72fbd66aff3f3bb03d11f742", "bike_id": "29bef97a72fbd66aff3f3bb03d11f742", "is_disabled": 0, "type": "electric_scooter", "lat": 38.93966616666667, "lon": -77.03205366666667, "is_reserved": 0, "fusion_lon": 0.0}, {"rental_uris": {"ios": "https://dc.lft.to/lastmile_qr_scan", "android": "https://dc.lft.to/lastmile_qr_scan"}, "fusion_lat": 0.0, "name": "08683eb1922850be2cd563a6094daa36", "bike_id": "08683eb1922850be2cd563a6094daa36", "is_disabled": 0, "type": "electric_scooter", "lat": 38.8955, "lon": -77.0220605, "is_reserved": 0, "fusion_lon": 0.0}, {"rental_uris": {"ios": "https://dc.lft.to/lastmile_qr_scan", "android": "https://dc.lft.to/lastmile_qr_scan"}, "fusion_lat": 0.0, "name": "29e174e6a3a8fc8083f7c3132eea05f8", "bike_id": "29e174e6a3a8fc8083f7c3132eea05f8", "is_disabled": 0, "type": "electric_scooter", "lat": 38.914109833333335, "lon": -77.039931, "is_reserved": 0, "fusion_lon": 0.0}, {"rental_uris": {"ios": "https://dc.lft.to/lastmile_qr_scan", "android": "https://dc.lft.to/lastmile_qr_scan"}, "fusion_lat": 0.0, "name": "3fa7af96f89eb865ade679a7af479a5d", "bike_id": "3fa7af96f89eb865ade679a7af479a5d", "is_disabled": 0, "type": "electric_scooter", "lat": 38.92340883333333, "lon": -77.05049783333334, "is_reserved": 0, "fusion_lon": 0.0}, {"rental_uris": {"ios": "https://dc.lft.to/lastmile_qr_scan", "android": "https://dc.lft.to/lastmile_qr_scan"}, "fusion_lat": 0.0, "name": "96ef7a8a5bea549d203827745b0faca9", "bike_id": "96ef7a8a5bea549d203827745b0faca9", "is_disabled": 0, "type": "electric_scooter", "lat": 38.88500966666667, "lon": -77.01584433333333, "is_reserved": 0, "fusion_lon": 0.0}, {"rental_uris": {"ios": "https://dc.lft.to/lastmile_qr_scan", "android": "https://dc.lft.to/lastmile_qr_scan"}, "fusion_lat": 0.0, "name": "b9e690d654967d9b689ed86e340b2c79", "bike_id": "b9e690d654967d9b689ed86e340b2c79", "is_disabled": 0, "type": "electric_scooter", "lat": 38.89882883333333, "lon": -77.04326366666666, "is_reserved": 0, "fusion_lon": 0.0}, {"rental_uris": {"ios": "https://dc.lft.to/lastmile_qr_scan", "android": "https://dc.lft.to/lastmile_qr_scan"}, "fusion_lat": 0.0, "name": "ba16a7377a59646c633d1311e04800cf", "bike_id": "ba16a7377a59646c633d1311e04800cf", "is_disabled": 0, "type": "electric_scooter", "lat": 38.8683045, "lon": -76.97743016666666, "is_reserved": 0, "fusion_lon": 0.0}, {"rental_uris": {"ios": "https://dc.lft.to/lastmile_qr_scan", "android": "https://dc.lft.to/lastmile_qr_scan"}, "fusion_lat": 0.0, "name": "89c797fd822981bd10a8e2539082a11f", "bike_id": "89c797fd822981bd10a8e2539082a11f", "is_disabled": 0, "type": "electric_bike", "lat": 38.932869833333335, "lon": -77.02846116666667, "is_reserved": 0, "fusion_lon": 0.0}, {"rental_uris": {"ios": "https://dc.lft.to/lastmile_qr_scan", "android": "https://dc.lft.to/lastmile_qr_scan"}, "fusion_lat": 0.0, "name": "4806101e1f3092d19521e697ebee84f2", "bike_id": "4806101e1f3092d19521e697ebee84f2", "is_disabled": 0, "type": "electric_scooter", "lat": 38.8671775, "lon": -76.98696166666667, "is_reserved": 0, "fusion_lon": 0.0}, {"rental_uris": {"ios": "https://dc.lft.to/lastmile_qr_scan", "android": "https://dc.lft.to/lastmile_qr_scan"}, "fusion_lat": 0.0, "name": "e616a2ce056d64c757ebc1ef2cfd13be", "bike_id": "e616a2ce056d64c757ebc1ef2cfd13be", "is_disabled": 0, "type": "electric_scooter", "lat": 38.8964585, "lon": -77.046461, "is_reserved": 0, "fusion_lon": 0.0}, {"rental_uris": {"ios": "https://dc.lft.to/lastmile_qr_scan", "android": "https://dc.lft.to/lastmile_qr_scan"}, "fusion_lat": 0.0, "name": "7ccaa6e0a7798e3d8eff1b61ad3c5fa5", "bike_id": "7ccaa6e0a7798e3d8eff1b61ad3c5fa5", "is_disabled": 0, "type": "electric_scooter", "lat": 38.90406883333333, "lon": -77.01774416666666, "is_reserved": 0, "fusion_lon": 0.0}, {"rental_uris": {"ios": "https://dc.lft.to/lastmile_qr_scan", "android": "https://dc.lft.to/lastmile_qr_scan"}, "fusion_lat": 0.0, "name": "cde86268ee0b71f5028729079b0550e2", "bike_id": "cde86268ee0b71f5028729079b0550e2", "is_disabled": 0, "type": "electric_scooter", "lat": 38.89240433333333, "lon": -77.0466165, "is_reserved": 0, "fusion_lon": 0.0}, {"rental_uris": {"ios": "https://dc.lft.to/lastmile_qr_scan", "android": "https://dc.lft.to/lastmile_qr_scan"}, "fusion_lat": 0.0, "name": "c892a60fedf5262bb863843fde9461c1", "bike_id": "c892a60fedf5262bb863843fde9461c1", "is_disabled": 0, "type": "electric_scooter", "lat": 38.90084933333333, "lon": -77.05054566666666, "is_reserved": 0, "fusion_lon": 0.0}, {"rental_uris": {"ios": "https://dc.lft.to/lastmile_qr_scan", "android": "https://dc.lft.to/lastmile_qr_scan"}, "fusion_lat": 0.0, "name": "19d0f80a66a5d78a16d598df8bfc4cde", "bike_id": "19d0f80a66a5d78a16d598df8bfc4cde", "is_disabled": 0, "type": "electric_scooter", "lat": 38.9113125, "lon": -77.026924, "is_reserved": 0, "fusion_lon": 0.0}, {"rental_uris": {"ios": "https://dc.lft.to/lastmile_qr_scan", "android": "https://dc.lft.to/lastmile_qr_scan"}, "fusion_lat": 0.0, "name": "dfffd55eba9944e621a754f08c341007", "bike_id": "dfffd55eba9944e621a754f08c341007", "is_disabled": 0, "type": "electric_scooter", "lat": 38.903785, "lon": -77.03857783333333, "is_reserved": 0, "fusion_lon": 0.0}, {"rental_uris": {"ios": "https://dc.lft.to/lastmile_qr_scan", "android": "https://dc.lft.to/lastmile_qr_scan"}, "fusion_lat": 0.0, "name": "37579fe5a21a0e010339ad7c93b45b11", "bike_id": "37579fe5a21a0e010339ad7c93b45b11", "is_disabled": 0, "type": "electric_scooter", "lat": 38.89883316666667, "lon": -76.93176433333333, "is_reserved": 0, "fusion_lon": 0.0}, {"rental_uris": {"ios": "https://dc.lft.to/lastmile_qr_scan", "android": "https://dc.lft.to/lastmile_qr_scan"}, "fusion_lat": 0.0, "name": "ead7eba1e26260f184e5d643ec03f716", "bike_id": "ead7eba1e26260f184e5d643ec03f716", "is_disabled": 0, "type": "electric_bike", "lat": 38.86209183333333, "lon": -76.99777466666667, "is_reserved": 0, "fusion_lon": 0.0}, {"rental_uris": {"ios": "https://dc.lft.to/lastmile_qr_scan", "android": "https://dc.lft.to/lastmile_qr_scan"}, "fusion_lat": 0.0, "name": "ec67455ad323209c24a002a3b6f40a45", "bike_id": "ec67455ad323209c24a002a3b6f40a45", "is_disabled": 0, "type": "electric_scooter", "lat": 38.918709, "lon": -77.03552566666667, "is_reserved": 0, "fusion_lon": 0.0}, {"rental_uris": {"ios": "https://dc.lft.to/lastmile_qr_scan", "android": "https://dc.lft.to/lastmile_qr_scan"}, "fusion_lat": 0.0, "name": "80d8d3da320051560a5894e605bcc656", "bike_id": "80d8d3da320051560a5894e605bcc656", "is_disabled": 0, "type": "electric_scooter", "lat": 38.928549333333336, "lon": -77.03104716666667, "is_reserved": 0, "fusion_lon": 0.0}, {"rental_uris": {"ios": "https://dc.lft.to/lastmile_qr_scan", "android": "https://dc.lft.to/lastmile_qr_scan"}, "fusion_lat": 0.0, "name": "69ded7e093d8c11f3338fda64f2c8b9c", "bike_id": "69ded7e093d8c11f3338fda64f2c8b9c", "is_disabled": 0, "type": "electric_scooter", "lat": 38.92815216666666, "lon": -77.0287495, "is_reserved": 0, "fusion_lon": 0.0}, {"rental_uris": {"ios": "https://dc.lft.to/lastmile_qr_scan", "android": "https://dc.lft.to/lastmile_qr_scan"}, "fusion_lat": 0.0, "name": "548696b2e477a21ef95ea70920403b83", "bike_id": "548696b2e477a21ef95ea70920403b83", "is_disabled": 0, "type": "electric_scooter", "lat": 38.91594116666667, "lon": -77.03180333333333, "is_reserved": 0, "fusion_lon": 0.0}, {"rental_uris": {"ios": "https://dc.lft.to/lastmile_qr_scan", "android": "https://dc.lft.to/lastmile_qr_scan"}, "fusion_lat": 0.0, "name": "71f44ac8a6803a803d6d111124c152aa", "bike_id": "71f44ac8a6803a803d6d111124c152aa", "is_disabled": 0, "type": "electric_scooter", "lat": 38.86651666666667, "lon": -76.98508483333333, "is_reserved": 0, "fusion_lon": 0.0}, {"rental_uris": {"ios": "https://dc.lft.to/lastmile_qr_scan", "android": "https://dc.lft.to/lastmile_qr_scan"}, "fusion_lat": 0.0, "name": "55f3b72a664d93ce75385e65da09daf8", "bike_id": "55f3b72a664d93ce75385e65da09daf8", "is_disabled": 0, "type": "electric_bike", "lat": 38.870868, "lon": -77.01207883333333, "is_reserved": 0, "fusion_lon": 0.0}, {"rental_uris": {"ios": "https://dc.lft.to/lastmile_qr_scan", "android": "https://dc.lft.to/lastmile_qr_scan"}, "fusion_lat": 0.0, "name": "4ea527ed937b4494e88468bf29e91643", "bike_id": "4ea527ed937b4494e88468bf29e91643", "is_disabled": 0, "type": "electric_scooter", "lat": 38.914238833333336, "lon": -77.03928433333333, "is_reserved": 0, "fusion_lon": 0.0}, {"rental_uris": {"ios": "https://dc.lft.to/lastmile_qr_scan", "android": "https://dc.lft.to/lastmile_qr_scan"}, "fusion_lat": 0.0, "name": "59909fe9fd414f2acf476e0d7f206a90", "bike_id": "59909fe9fd414f2acf476e0d7f206a90", "is_disabled": 0, "type": "electric_scooter", "lat": 38.91757416666667, "lon": -77.02701283333333, "is_reserved": 0, "fusion_lon": 0.0}, {"rental_uris": {"ios": "https://dc.lft.to/lastmile_qr_scan", "android": "https://dc.lft.to/lastmile_qr_scan"}, "fusion_lat": 0.0, "name": "a4e02846dd45434491aa2d3ef9aa5244", "bike_id": "a4e02846dd45434491aa2d3ef9aa5244", "is_disabled": 0, "type": "electric_scooter", "lat": 38.89226766666667, "lon": -77.05003983333333, "is_reserved": 0, "fusion_lon": 0.0}, {"rental_uris": {"ios": "https://dc.lft.to/lastmile_qr_scan", "android": "https://dc.lft.to/lastmile_qr_scan"}, "fusion_lat": 0.0, "name": "2dcb32c868b26059884257c13ac85541", "bike_id": "2dcb32c868b26059884257c13ac85541", "is_disabled": 0, "type": "electric_scooter", "lat": 38.90598583333333, "lon": -77.00594083333333, "is_reserved": 0, "fusion_lon": 0.0}, {"rental_uris": {"ios": "https://dc.lft.to/lastmile_qr_scan", "android": "https://dc.lft.to/lastmile_qr_scan"}, "fusion_lat": 0.0, "name": "fd52efe8048f524a66866ae1feca1236", "bike_id": "fd52efe8048f524a66866ae1feca1236", "is_disabled": 0, "type": "electric_scooter", "lat": 38.91605066666666, "lon": -77.02296216666667, "is_reserved": 0, "fusion_lon": 0.0}, {"rental_uris": {"ios": "https://dc.lft.to/lastmile_qr_scan", "android": "https://dc.lft.to/lastmile_qr_scan"}, "fusion_lat": 0.0, "name": "556d7368a06f2bad08a9b1e25bec8ab1", "bike_id": "556d7368a06f2bad08a9b1e25bec8ab1", "is_disabled": 0, "type": "electric_scooter", "lat": 38.86718583333333, "lon": -76.98690083333334, "is_reserved": 0, "fusion_lon": 0.0}, {"rental_uris": {"ios": "https://dc.lft.to/lastmile_qr_scan", "android": "https://dc.lft.to/lastmile_qr_scan"}, "fusion_lat": 0.0, "name": "ff3b7105202bec112ca3e95ce15c4b54", "bike_id": "ff3b7105202bec112ca3e95ce15c4b54", "is_disabled": 0, "type": "electric_scooter", "lat": 38.909820333333336, "lon": -77.03183533333333, "is_reserved": 0, "fusion_lon": 0.0}, {"rental_uris": {"ios": "https://dc.lft.to/lastmile_qr_scan", "android": "https://dc.lft.to/lastmile_qr_scan"}, "fusion_lat": 0.0, "name": "f7761bab7730c43e04971a4fbb1df5ce", "bike_id": "f7761bab7730c43e04971a4fbb1df5ce", "is_disabled": 0, "type": "electric_scooter", "lat": 38.916228833333335, "lon": -77.023044, "is_reserved": 0, "fusion_lon": 0.0}, {"rental_uris": {"ios": "https://dc.lft.to/lastmile_qr_scan", "android": "https://dc.lft.to/lastmile_qr_scan"}, "fusion_lat": 0.0, "name": "b2677b65e73ac5b42fcdfdffc7ea586a", "bike_id": "b2677b65e73ac5b42fcdfdffc7ea586a", "is_disabled": 0, "type": "electric_scooter", "lat": 38.930662166666664, "lon": -77.0402885, "is_reserved": 0, "fusion_lon": 0.0}, {"rental_uris": {"ios": "https://dc.lft.to/lastmile_qr_scan", "android": "https://dc.lft.to/lastmile_qr_scan"}, "fusion_lat": 0.0, "name": "ac08f5f2979e0092768a0fa8b13b6478", "bike_id": "ac08f5f2979e0092768a0fa8b13b6478", "is_disabled": 0, "type": "electric_scooter", "lat": 38.89527283333334, "lon": -77.046412, "is_reserved": 0, "fusion_lon": 0.0}, {"rental_uris": {"ios": "https://dc.lft.to/lastmile_qr_scan", "android": "https://dc.lft.to/lastmile_qr_scan"}, "fusion_lat": 0.0, "name": "8cced11f7a80648ea44cf980344f5440", "bike_id": "8cced11f7a80648ea44cf980344f5440", "is_disabled": 0, "type": "electric_bike", "lat": 38.87150833333333, "lon": -76.93649866666667, "is_reserved": 0, "fusion_lon": 0.0}, {"rental_uris": {"ios": "https://dc.lft.to/lastmile_qr_scan", "android": "https://dc.lft.to/lastmile_qr_scan"}, "fusion_lat": 0.0, "name": "1946610d6c8b4df86ce201067492ab14", "bike_id": "1946610d6c8b4df86ce201067492ab14", "is_disabled": 0, "type": "electric_scooter", "lat": 38.862137833333335, "lon": -76.99479033333333, "is_reserved": 0, "fusion_lon": 0.0}, {"rental_uris": {"ios": "https://dc.lft.to/lastmile_qr_scan", "android": "https://dc.lft.to/lastmile_qr_scan"}, "fusion_lat": 0.0, "name": "5b6cfbf4efd092dce803dd45202d3586", "bike_id": "5b6cfbf4efd092dce803dd45202d3586", "is_disabled": 0, "type": "electric_scooter", "lat": 38.9207505, "lon": -77.04213033333333, "is_reserved": 0, "fusion_lon": 0.0}, {"rental_uris": {"ios": "https://dc.lft.to/lastmile_qr_scan", "android": "https://dc.lft.to/lastmile_qr_scan"}, "fusion_lat": 0.0, "name": "67dff0e6758e207cd43d8ed9df70b809", "bike_id": "67dff0e6758e207cd43d8ed9df70b809", "is_disabled": 0, "type": "electric_scooter", "lat": 38.87385783333333, "lon": -76.96601916666667, "is_reserved": 0, "fusion_lon": 0.0}, {"rental_uris": {"ios": "https://dc.lft.to/lastmile_qr_scan", "android": "https://dc.lft.to/lastmile_qr_scan"}, "fusion_lat": 0.0, "name": "deb6ac042453d7ea47dda4e746f33039", "bike_id": "deb6ac042453d7ea47dda4e746f33039", "is_disabled": 0, "type": "electric_scooter", "lat": 38.892184666666665, "lon": -77.02781766666666, "is_reserved": 0, "fusion_lon": 0.0}, {"rental_uris": {"ios": "https://dc.lft.to/lastmile_qr_scan", "android": "https://dc.lft.to/lastmile_qr_scan"}, "fusion_lat": 0.0, "name": "857b40dd4e9680df6145175a4894a31a", "bike_id": "857b40dd4e9680df6145175a4894a31a", "is_disabled": 0, "type": "electric_scooter", "lat": 38.892176166666665, "lon": -77.026567, "is_reserved": 0, "fusion_lon": 0.0}, {"rental_uris": {"ios": "https://dc.lft.to/lastmile_qr_scan", "android": "https://dc.lft.to/lastmile_qr_scan"}, "fusion_lat": 0.0, "name": "5e4d5ea834d8ba78f345a8cd12f442ff", "bike_id": "5e4d5ea834d8ba78f345a8cd12f442ff", "is_disabled": 0, "type": "electric_scooter", "lat": 38.925085833333334, "lon": -77.00222033333333, "is_reserved": 0, "fusion_lon": 0.0}, {"rental_uris": {"ios": "https://dc.lft.to/lastmile_qr_scan", "android": "https://dc.lft.to/lastmile_qr_scan"}, "fusion_lat": 0.0, "name": "3da93ee60f06d20e290a90cba8e2e7e3", "bike_id": "3da93ee60f06d20e290a90cba8e2e7e3", "is_disabled": 0, "type": "electric_scooter", "lat": 38.91664383333333, "lon": -77.03197133333333, "is_reserved": 0, "fusion_lon": 0.0}, {"rental_uris": {"ios": "https://dc.lft.to/lastmile_qr_scan", "android": "https://dc.lft.to/lastmile_qr_scan"}, "fusion_lat": 0.0, "name": "61ac05500b73391395900d8491f2c540", "bike_id": "61ac05500b73391395900d8491f2c540", "is_disabled": 0, "type": "electric_scooter", "lat": 38.89616133333333, "lon": -77.026918, "is_reserved": 0, "fusion_lon": 0.0}, {"rental_uris": {"ios": "https://dc.lft.to/lastmile_qr_scan", "android": "https://dc.lft.to/lastmile_qr_scan"}, "fusion_lat": 0.0, "name": "d53b519cfd1f972d65f4d485826c5a57", "bike_id": "d53b519cfd1f972d65f4d485826c5a57", "is_disabled": 0, "type": "electric_scooter", "lat": 38.90665583333333, "lon": -77.02705, "is_reserved": 0, "fusion_lon": 0.0}, {"rental_uris": {"ios": "https://dc.lft.to/lastmile_qr_scan", "android": "https://dc.lft.to/lastmile_qr_scan"}, "fusion_lat": 0.0, "name": "eea8a16c6bfefc861c999b1c46e37c02", "bike_id": "eea8a16c6bfefc861c999b1c46e37c02", "is_disabled": 0, "type": "electric_scooter", "lat": 38.89034083333333, "lon": -76.9376125, "is_reserved": 0, "fusion_lon": 0.0}, {"rental_uris": {"ios": "https://dc.lft.to/lastmile_qr_scan", "android": "https://dc.lft.to/lastmile_qr_scan"}, "fusion_lat": 0.0, "name": "1466a2c056d9d04368a2a466ee5290de", "bike_id": "1466a2c056d9d04368a2a466ee5290de", "is_disabled": 0, "type": "electric_scooter", "lat": 38.918157, "lon": -77.04519116666667, "is_reserved": 0, "fusion_lon": 0.0}, {"rental_uris": {"ios": "https://dc.lft.to/lastmile_qr_scan", "android": "https://dc.lft.to/lastmile_qr_scan"}, "fusion_lat": 0.0, "name": "aa519625a6fdef29025458492077dda9", "bike_id": "aa519625a6fdef29025458492077dda9", "is_disabled": 0, "type": "electric_bike", "lat": 38.9483435, "lon": -77.0063395, "is_reserved": 0, "fusion_lon": 0.0}, {"rental_uris": {"ios": "https://dc.lft.to/lastmile_qr_scan", "android": "https://dc.lft.to/lastmile_qr_scan"}, "fusion_lat": 0.0, "name": "41de664432634945ef4e73e15c88d49e", "bike_id": "41de664432634945ef4e73e15c88d49e", "is_disabled": 0, "type": "electric_scooter", "lat": 38.92164133333333, "lon": -77.04011116666666, "is_reserved": 0, "fusion_lon": 0.0}, {"rental_uris": {"ios": "https://dc.lft.to/lastmile_qr_scan", "android": "https://dc.lft.to/lastmile_qr_scan"}, "fusion_lat": 0.0, "name": "9262a976381e493f797d667ffe6e56c3", "bike_id": "9262a976381e493f797d667ffe6e56c3", "is_disabled": 0, "type": "electric_scooter", "lat": 38.892366333333335, "lon": -77.04661716666666, "is_reserved": 0, "fusion_lon": 0.0}, {"rental_uris": {"ios": "https://dc.lft.to/lastmile_qr_scan", "android": "https://dc.lft.to/lastmile_qr_scan"}, "fusion_lat": 0.0, "name": "1f76aa49d4f7984509943ece97c8b177", "bike_id": "1f76aa49d4f7984509943ece97c8b177", "is_disabled": 0, "type": "electric_scooter", "lat": 38.90430883333333, "lon": -77.0341585, "is_reserved": 0, "fusion_lon": 0.0}, {"rental_uris": {"ios": "https://dc.lft.to/lastmile_qr_scan", "android": "https://dc.lft.to/lastmile_qr_scan"}, "fusion_lat": 0.0, "name": "34bc2b488fcdbb5c63bc27bd996a4403", "bike_id": "34bc2b488fcdbb5c63bc27bd996a4403", "is_disabled": 0, "type": "electric_scooter", "lat": 38.91672033333333, "lon": -77.023442, "is_reserved": 0, "fusion_lon": 0.0}, {"rental_uris": {"ios": "https://dc.lft.to/lastmile_qr_scan", "android": "https://dc.lft.to/lastmile_qr_scan"}, "fusion_lat": 0.0, "name": "01edc1b8c1211be1db824fcf77681a39", "bike_id": "01edc1b8c1211be1db824fcf77681a39", "is_disabled": 0, "type": "electric_scooter", "lat": 38.886466, "lon": -77.00094, "is_reserved": 0, "fusion_lon": 0.0}, {"rental_uris": {"ios": "https://dc.lft.to/lastmile_qr_scan", "android": "https://dc.lft.to/lastmile_qr_scan"}, "fusion_lat": 0.0, "name": "aca325142690e2398dbe23db4c9372a3", "bike_id": "aca325142690e2398dbe23db4c9372a3", "is_disabled": 0, "type": "electric_scooter", "lat": 38.93240466666666, "lon": -77.03843316666666, "is_reserved": 0, "fusion_lon": 0.0}, {"rental_uris": {"ios": "https://dc.lft.to/lastmile_qr_scan", "android": "https://dc.lft.to/lastmile_qr_scan"}, "fusion_lat": 0.0, "name": "77af07533b9b8a54d4864aa651a6753f", "bike_id": "77af07533b9b8a54d4864aa651a6753f", "is_disabled": 0, "type": "electric_scooter", "lat": 38.9211735, "lon": -77.04377583333333, "is_reserved": 0, "fusion_lon": 0.0}, {"rental_uris": {"ios": "https://dc.lft.to/lastmile_qr_scan", "android": "https://dc.lft.to/lastmile_qr_scan"}, "fusion_lat": 0.0, "name": "7a5c415576ef401fd5b438695e43d242", "bike_id": "7a5c415576ef401fd5b438695e43d242", "is_disabled": 0, "type": "electric_scooter", "lat": 38.87086333333333, "lon": -76.96867116666667, "is_reserved": 0, "fusion_lon": 0.0}, {"rental_uris": {"ios": "https://dc.lft.to/lastmile_qr_scan", "android": "https://dc.lft.to/lastmile_qr_scan"}, "fusion_lat": 0.0, "name": "3ee542cfabb091725fd55da4dbe7dcd8", "bike_id": "3ee542cfabb091725fd55da4dbe7dcd8", "is_disabled": 0, "type": "electric_scooter", "lat": 38.9167485, "lon": -77.0294545, "is_reserved": 0, "fusion_lon": 0.0}, {"rental_uris": {"ios": "https://dc.lft.to/lastmile_qr_scan", "android": "https://dc.lft.to/lastmile_qr_scan"}, "fusion_lat": 0.0, "name": "ba2fd0c2dc7a63e88c64dd40d1c310f4", "bike_id": "ba2fd0c2dc7a63e88c64dd40d1c310f4", "is_disabled": 0, "type": "electric_bike", "lat": 39.0293055, "lon": -77.0492655, "is_reserved": 0, "fusion_lon": 0.0}, {"rental_uris": {"ios": "https://dc.lft.to/lastmile_qr_scan", "android": "https://dc.lft.to/lastmile_qr_scan"}, "fusion_lat": 0.0, "name": "dc928ae2d894d2f3918cd582f5e7b612", "bike_id": "dc928ae2d894d2f3918cd582f5e7b612", "is_disabled": 0, "type": "electric_scooter", "lat": 38.92149033333333, "lon": -77.03512433333333, "is_reserved": 0, "fusion_lon": 0.0}, {"rental_uris": {"ios": "https://dc.lft.to/lastmile_qr_scan", "android": "https://dc.lft.to/lastmile_qr_scan"}, "fusion_lat": 0.0, "name": "e8da6544c2f960f1d2fd17e45f2b70f8", "bike_id": "e8da6544c2f960f1d2fd17e45f2b70f8", "is_disabled": 0, "type": "electric_scooter", "lat": 38.94382933333333, "lon": -77.0770965, "is_reserved": 0, "fusion_lon": 0.0}, {"rental_uris": {"ios": "https://dc.lft.to/lastmile_qr_scan", "android": "https://dc.lft.to/lastmile_qr_scan"}, "fusion_lat": 0.0, "name": "12d711b15f9382304826250d90610883", "bike_id": "12d711b15f9382304826250d90610883", "is_disabled": 0, "type": "electric_scooter", "lat": 38.90373833333334, "lon": -77.03884483333333, "is_reserved": 0, "fusion_lon": 0.0}, {"rental_uris": {"ios": "https://dc.lft.to/lastmile_qr_scan", "android": "https://dc.lft.to/lastmile_qr_scan"}, "fusion_lat": 0.0, "name": "c335e36169e8c9abb5c83274e4e040fe", "bike_id": "c335e36169e8c9abb5c83274e4e040fe", "is_disabled": 0, "type": "electric_scooter", "lat": 38.92125733333334, "lon": -77.04432533333333, "is_reserved": 0, "fusion_lon": 0.0}, {"rental_uris": {"ios": "https://dc.lft.to/lastmile_qr_scan", "android": "https://dc.lft.to/lastmile_qr_scan"}, "fusion_lat": 0.0, "name": "71da5d18fe42e5fdf893e47a4c307420", "bike_id": "71da5d18fe42e5fdf893e47a4c307420", "is_disabled": 0, "type": "electric_scooter", "lat": 38.913376666666665, "lon": -77.03170933333334, "is_reserved": 0, "fusion_lon": 0.0}, {"rental_uris": {"ios": "https://dc.lft.to/lastmile_qr_scan", "android": "https://dc.lft.to/lastmile_qr_scan"}, "fusion_lat": 0.0, "name": "0e2de8c2994886a0031611645ed42ce6", "bike_id": "0e2de8c2994886a0031611645ed42ce6", "is_disabled": 0, "type": "electric_scooter", "lat": 38.90704066666667, "lon": -77.00328583333334, "is_reserved": 0, "fusion_lon": 0.0}, {"rental_uris": {"ios": "https://dc.lft.to/lastmile_qr_scan", "android": "https://dc.lft.to/lastmile_qr_scan"}, "fusion_lat": 0.0, "name": "3e3aad01a8a507cab6016ba73dbbf4e2", "bike_id": "3e3aad01a8a507cab6016ba73dbbf4e2", "is_disabled": 0, "type": "electric_scooter", "lat": 38.90701166666667, "lon": -77.02974933333333, "is_reserved": 0, "fusion_lon": 0.0}, {"rental_uris": {"ios": "https://dc.lft.to/lastmile_qr_scan", "android": "https://dc.lft.to/lastmile_qr_scan"}, "fusion_lat": 0.0, "name": "b9b45d31003ae7206392ba3cb88500ea", "bike_id": "b9b45d31003ae7206392ba3cb88500ea", "is_disabled": 0, "type": "electric_bike", "lat": 38.922609, "lon": -76.981534, "is_reserved": 0, "fusion_lon": 0.0}, {"rental_uris": {"ios": "https://dc.lft.to/lastmile_qr_scan", "android": "https://dc.lft.to/lastmile_qr_scan"}, "fusion_lat": 0.0, "name": "959a2088ce94a8cd8bb9ae133022b800", "bike_id": "959a2088ce94a8cd8bb9ae133022b800", "is_disabled": 0, "type": "electric_scooter", "lat": 38.90274383333333, "lon": -77.028042, "is_reserved": 0, "fusion_lon": 0.0}, {"rental_uris": {"ios": "https://dc.lft.to/lastmile_qr_scan", "android": "https://dc.lft.to/lastmile_qr_scan"}, "fusion_lat": 0.0, "name": "1077d82dcf5bec4b43cab4d0da50a22f", "bike_id": "1077d82dcf5bec4b43cab4d0da50a22f", "is_disabled": 0, "type": "electric_scooter", "lat": 38.908114, "lon": -77.0435195, "is_reserved": 0, "fusion_lon": 0.0}, {"rental_uris": {"ios": "https://dc.lft.to/lastmile_qr_scan", "android": "https://dc.lft.to/lastmile_qr_scan"}, "fusion_lat": 0.0, "name": "eafe2b9c44e1c53229c0f34f3b8155c4", "bike_id": "eafe2b9c44e1c53229c0f34f3b8155c4", "is_disabled": 0, "type": "electric_scooter", "lat": 38.92172383333333, "lon": -77.04015433333333, "is_reserved": 0, "fusion_lon": 0.0}, {"rental_uris": {"ios": "https://dc.lft.to/lastmile_qr_scan", "android": "https://dc.lft.to/lastmile_qr_scan"}, "fusion_lat": 0.0, "name": "be7535dbce0dbb52290c415cc7241faf", "bike_id": "be7535dbce0dbb52290c415cc7241faf", "is_disabled": 0, "type": "electric_scooter", "lat": 38.90379766666667, "lon": -77.03217983333333, "is_reserved": 0, "fusion_lon": 0.0}, {"rental_uris": {"ios": "https://dc.lft.to/lastmile_qr_scan", "android": "https://dc.lft.to/lastmile_qr_scan"}, "fusion_lat": 0.0, "name": "7dbcea47be60f6c93867fe0376cd5521", "bike_id": "7dbcea47be60f6c93867fe0376cd5521", "is_disabled": 0, "type": "electric_scooter", "lat": 38.92229116666667, "lon": -77.02977933333334, "is_reserved": 0, "fusion_lon": 0.0}, {"rental_uris": {"ios": "https://dc.lft.to/lastmile_qr_scan", "android": "https://dc.lft.to/lastmile_qr_scan"}, "fusion_lat": 0.0, "name": "5808a50a3eb29c3aefebfc5d33598a8c", "bike_id": "5808a50a3eb29c3aefebfc5d33598a8c", "is_disabled": 0, "type": "electric_scooter", "lat": 38.90270733333333, "lon": -77.03843616666667, "is_reserved": 0, "fusion_lon": 0.0}, {"rental_uris": {"ios": "https://dc.lft.to/lastmile_qr_scan", "android": "https://dc.lft.to/lastmile_qr_scan"}, "fusion_lat": 0.0, "name": "d06503b3339a63982cfc40661bff3e1e", "bike_id": "d06503b3339a63982cfc40661bff3e1e", "is_disabled": 0, "type": "electric_scooter", "lat": 38.91336416666667, "lon": -77.03168616666666, "is_reserved": 0, "fusion_lon": 0.0}, {"rental_uris": {"ios": "https://dc.lft.to/lastmile_qr_scan", "android": "https://dc.lft.to/lastmile_qr_scan"}, "fusion_lat": 0.0, "name": "992091938dae521ba25e92123ea96253", "bike_id": "992091938dae521ba25e92123ea96253", "is_disabled": 0, "type": "electric_scooter", "lat": 38.95637216666667, "lon": -77.032942, "is_reserved": 0, "fusion_lon": 0.0}, {"rental_uris": {"ios": "https://dc.lft.to/lastmile_qr_scan", "android": "https://dc.lft.to/lastmile_qr_scan"}, "fusion_lat": 0.0, "name": "b2ec261d883ce2b65f9daeb63801d601", "bike_id": "b2ec261d883ce2b65f9daeb63801d601", "is_disabled": 0, "type": "electric_bike", "lat": 39.05268983333333, "lon": -77.11197083333333, "is_reserved": 0, "fusion_lon": 0.0}, {"rental_uris": {"ios": "https://dc.lft.to/lastmile_qr_scan", "android": "https://dc.lft.to/lastmile_qr_scan"}, "fusion_lat": 0.0, "name": "b036b873bb08d9b36673576535f2f520", "bike_id": "b036b873bb08d9b36673576535f2f520", "is_disabled": 0, "type": "electric_scooter", "lat": 38.904614, "lon": -77.04468033333333, "is_reserved": 0, "fusion_lon": 0.0}, {"rental_uris": {"ios": "https://dc.lft.to/lastmile_qr_scan", "android": "https://dc.lft.to/lastmile_qr_scan"}, "fusion_lat": 0.0, "name": "3e3ea0f901845eb8cc6cb416425e842c", "bike_id": "3e3ea0f901845eb8cc6cb416425e842c", "is_disabled": 0, "type": "electric_scooter", "lat": 38.92478116666667, "lon": -77.02720466666666, "is_reserved": 0, "fusion_lon": 0.0}, {"rental_uris": {"ios": "https://dc.lft.to/lastmile_qr_scan", "android": "https://dc.lft.to/lastmile_qr_scan"}, "fusion_lat": 0.0, "name": "b74c35ffd4ed87feda8ec72c2a3e1d9c", "bike_id": "b74c35ffd4ed87feda8ec72c2a3e1d9c", "is_disabled": 0, "type": "electric_scooter", "lat": 38.91490833333334, "lon": -77.03216, "is_reserved": 0, "fusion_lon": 0.0}, {"rental_uris": {"ios": "https://dc.lft.to/lastmile_qr_scan", "android": "https://dc.lft.to/lastmile_qr_scan"}, "fusion_lat": 0.0, "name": "d9a4038864e9489afb7da68c89a10522", "bike_id": "d9a4038864e9489afb7da68c89a10522", "is_disabled": 0, "type": "electric_scooter", "lat": 38.914226666666664, "lon": -77.031888, "is_reserved": 0, "fusion_lon": 0.0}, {"rental_uris": {"ios": "https://dc.lft.to/lastmile_qr_scan", "android": "https://dc.lft.to/lastmile_qr_scan"}, "fusion_lat": 0.0, "name": "60d69c84811252debfc476b4da76b7e0", "bike_id": "60d69c84811252debfc476b4da76b7e0", "is_disabled": 0, "type": "electric_scooter", "lat": 38.91210216666666, "lon": -77.04140833333334, "is_reserved": 0, "fusion_lon": 0.0}, {"rental_uris": {"ios": "https://dc.lft.to/lastmile_qr_scan", "android": "https://dc.lft.to/lastmile_qr_scan"}, "fusion_lat": 0.0, "name": "e0baf5aecb5498dfbf870798e7d17fdf", "bike_id": "e0baf5aecb5498dfbf870798e7d17fdf", "is_disabled": 0, "type": "electric_scooter", "lat": 38.901574333333336, "lon": -77.0487255, "is_reserved": 0, "fusion_lon": 0.0}, {"rental_uris": {"ios": "https://dc.lft.to/lastmile_qr_scan", "android": "https://dc.lft.to/lastmile_qr_scan"}, "fusion_lat": 0.0, "name": "5ebc594e31cf3e7f77e2e65557da4552", "bike_id": "5ebc594e31cf3e7f77e2e65557da4552", "is_disabled": 0, "type": "electric_scooter", "lat": 38.915621333333334, "lon": -77.0314975, "is_reserved": 0, "fusion_lon": 0.0}, {"rental_uris": {"ios": "https://dc.lft.to/lastmile_qr_scan", "android": "https://dc.lft.to/lastmile_qr_scan"}, "fusion_lat": 0.0, "name": "9bf46e703a620aa661f861ff4aa45c6a", "bike_id": "9bf46e703a620aa661f861ff4aa45c6a", "is_disabled": 0, "type": "electric_scooter", "lat": 38.93189516666666, "lon": -77.0282875, "is_reserved": 0, "fusion_lon": 0.0}, {"rental_uris": {"ios": "https://dc.lft.to/lastmile_qr_scan", "android": "https://dc.lft.to/lastmile_qr_scan"}, "fusion_lat": 0.0, "name": "11aae130000068a01e05e239e97869af", "bike_id": "11aae130000068a01e05e239e97869af", "is_disabled": 0, "type": "electric_scooter", "lat": 38.902516166666665, "lon": -76.97701233333333, "is_reserved": 0, "fusion_lon": 0.0}, {"rental_uris": {"ios": "https://dc.lft.to/lastmile_qr_scan", "android": "https://dc.lft.to/lastmile_qr_scan"}, "fusion_lat": 0.0, "name": "09c525bf28927639b738599df6e09aae", "bike_id": "09c525bf28927639b738599df6e09aae", "is_disabled": 0, "type": "electric_scooter", "lat": 38.91948633333333, "lon": -76.980758, "is_reserved": 0, "fusion_lon": 0.0}, {"rental_uris": {"ios": "https://dc.lft.to/lastmile_qr_scan", "android": "https://dc.lft.to/lastmile_qr_scan"}, "fusion_lat": 0.0, "name": "712e5c40982abb0b5e0f42bbb44e40bb", "bike_id": "712e5c40982abb0b5e0f42bbb44e40bb", "is_disabled": 0, "type": "electric_bike", "lat": 38.95591066666667, "lon": -77.01010766666667, "is_reserved": 0, "fusion_lon": 0.0}, {"rental_uris": {"ios": "https://dc.lft.to/lastmile_qr_scan", "android": "https://dc.lft.to/lastmile_qr_scan"}, "fusion_lat": 0.0, "name": "923f389f185698617b2b698e7762fdad", "bike_id": "923f389f185698617b2b698e7762fdad", "is_disabled": 0, "type": "electric_scooter", "lat": 38.902460166666664, "lon": -77.03879366666666, "is_reserved": 0, "fusion_lon": 0.0}, {"rental_uris": {"ios": "https://dc.lft.to/lastmile_qr_scan", "android": "https://dc.lft.to/lastmile_qr_scan"}, "fusion_lat": 0.0, "name": "9f9d360fda4053df41013527291f557c", "bike_id": "9f9d360fda4053df41013527291f557c", "is_disabled": 0, "type": "electric_scooter", "lat": 38.89379383333333, "lon": -77.04650566666666, "is_reserved": 0, "fusion_lon": 0.0}, {"rental_uris": {"ios": "https://dc.lft.to/lastmile_qr_scan", "android": "https://dc.lft.to/lastmile_qr_scan"}, "fusion_lat": 0.0, "name": "8777f5b4cb940b350e1b7e6367b813c4", "bike_id": "8777f5b4cb940b350e1b7e6367b813c4", "is_disabled": 0, "type": "electric_scooter", "lat": 38.885253, "lon": -77.0113515, "is_reserved": 0, "fusion_lon": 0.0}, {"rental_uris": {"ios": "https://dc.lft.to/lastmile_qr_scan", "android": "https://dc.lft.to/lastmile_qr_scan"}, "fusion_lat": 0.0, "name": "b726d525023e1f361f15eb5e3219c104", "bike_id": "b726d525023e1f361f15eb5e3219c104", "is_disabled": 0, "type": "electric_scooter", "lat": 38.95967233333333, "lon": -77.00855316666667, "is_reserved": 0, "fusion_lon": 0.0}, {"rental_uris": {"ios": "https://dc.lft.to/lastmile_qr_scan", "android": "https://dc.lft.to/lastmile_qr_scan"}, "fusion_lat": 0.0, "name": "e4806663609a68b26b7f0e2e13f328e7", "bike_id": "e4806663609a68b26b7f0e2e13f328e7", "is_disabled": 0, "type": "electric_bike", "lat": 38.86250183333333, "lon": -77.08848916666666, "is_reserved": 0, "fusion_lon": 0.0}, {"rental_uris": {"ios": "https://dc.lft.to/lastmile_qr_scan", "android": "https://dc.lft.to/lastmile_qr_scan"}, "fusion_lat": 0.0, "name": "a3a0727f9b7ca529b680c0f12b359cda", "bike_id": "a3a0727f9b7ca529b680c0f12b359cda", "is_disabled": 0, "type": "electric_scooter", "lat": 38.93076383333333, "lon": -77.034261, "is_reserved": 0, "fusion_lon": 0.0}, {"rental_uris": {"ios": "https://dc.lft.to/lastmile_qr_scan", "android": "https://dc.lft.to/lastmile_qr_scan"}, "fusion_lat": 0.0, "name": "804fd9474374a04f50424d8ba9d4abd7", "bike_id": "804fd9474374a04f50424d8ba9d4abd7", "is_disabled": 0, "type": "electric_scooter", "lat": 38.918499833333335, "lon": -77.03894316666667, "is_reserved": 0, "fusion_lon": 0.0}, {"rental_uris": {"ios": "https://dc.lft.to/lastmile_qr_scan", "android": "https://dc.lft.to/lastmile_qr_scan"}, "fusion_lat": 0.0, "name": "06586e53b0aa55e1f45b324a48057f7f", "bike_id": "06586e53b0aa55e1f45b324a48057f7f", "is_disabled": 0, "type": "electric_scooter", "lat": 38.8972485, "lon": -77.043429, "is_reserved": 0, "fusion_lon": 0.0}, {"rental_uris": {"ios": "https://dc.lft.to/lastmile_qr_scan", "android": "https://dc.lft.to/lastmile_qr_scan"}, "fusion_lat": 0.0, "name": "995cad763a12721292a167f716abef8e", "bike_id": "995cad763a12721292a167f716abef8e", "is_disabled": 0, "type": "electric_scooter", "lat": 38.922075666666665, "lon": -77.036544, "is_reserved": 0, "fusion_lon": 0.0}, {"rental_uris": {"ios": "https://dc.lft.to/lastmile_qr_scan", "android": "https://dc.lft.to/lastmile_qr_scan"}, "fusion_lat": 0.0, "name": "339f257baecf7a039b134dbaa0c69fc3", "bike_id": "339f257baecf7a039b134dbaa0c69fc3", "is_disabled": 0, "type": "electric_scooter", "lat": 38.902583166666666, "lon": -77.01758183333334, "is_reserved": 0, "fusion_lon": 0.0}, {"rental_uris": {"ios": "https://dc.lft.to/lastmile_qr_scan", "android": "https://dc.lft.to/lastmile_qr_scan"}, "fusion_lat": 0.0, "name": "51e22227be08663315d28ce230f98e3f", "bike_id": "51e22227be08663315d28ce230f98e3f", "is_disabled": 0, "type": "electric_scooter", "lat": 38.937455666666665, "lon": -77.03450616666667, "is_reserved": 0, "fusion_lon": 0.0}, {"rental_uris": {"ios": "https://dc.lft.to/lastmile_qr_scan", "android": "https://dc.lft.to/lastmile_qr_scan"}, "fusion_lat": 0.0, "name": "ee9aab852a842542d2e758da319e3fd7", "bike_id": "ee9aab852a842542d2e758da319e3fd7", "is_disabled": 0, "type": "electric_scooter", "lat": 38.9097835, "lon": -77.02180116666666, "is_reserved": 0, "fusion_lon": 0.0}, {"rental_uris": {"ios": "https://dc.lft.to/lastmile_qr_scan", "android": "https://dc.lft.to/lastmile_qr_scan"}, "fusion_lat": 0.0, "name": "eb81a3e2aafa468a4129b90afe1474bd", "bike_id": "eb81a3e2aafa468a4129b90afe1474bd", "is_disabled": 0, "type": "electric_scooter", "lat": 38.89352383333333, "lon": -77.00336766666666, "is_reserved": 0, "fusion_lon": 0.0}, {"rental_uris": {"ios": "https://dc.lft.to/lastmile_qr_scan", "android": "https://dc.lft.to/lastmile_qr_scan"}, "fusion_lat": 0.0, "name": "72df3fc7fb54e23ca8a360f73892ee40", "bike_id": "72df3fc7fb54e23ca8a360f73892ee40", "is_disabled": 0, "type": "electric_scooter", "lat": 38.88740116666666, "lon": -77.028571, "is_reserved": 0, "fusion_lon": 0.0}, {"rental_uris": {"ios": "https://dc.lft.to/lastmile_qr_scan", "android": "https://dc.lft.to/lastmile_qr_scan"}, "fusion_lat": 0.0, "name": "19e2f99d7d65a9a62defe1bcf2136b66", "bike_id": "19e2f99d7d65a9a62defe1bcf2136b66", "is_disabled": 0, "type": "electric_scooter", "lat": 38.91669383333333, "lon": -77.02378666666667, "is_reserved": 0, "fusion_lon": 0.0}, {"rental_uris": {"ios": "https://dc.lft.to/lastmile_qr_scan", "android": "https://dc.lft.to/lastmile_qr_scan"}, "fusion_lat": 0.0, "name": "4eb7997fa11a00753117c4c34643c9e4", "bike_id": "4eb7997fa11a00753117c4c34643c9e4", "is_disabled": 0, "type": "electric_scooter", "lat": 38.93340533333333, "lon": -77.072567, "is_reserved": 0, "fusion_lon": 0.0}, {"rental_uris": {"ios": "https://dc.lft.to/lastmile_qr_scan", "android": "https://dc.lft.to/lastmile_qr_scan"}, "fusion_lat": 0.0, "name": "2fe75e847e389b962849c718b940f626", "bike_id": "2fe75e847e389b962849c718b940f626", "is_disabled": 0, "type": "electric_scooter", "lat": 38.91033316666667, "lon": -77.04369583333333, "is_reserved": 0, "fusion_lon": 0.0}, {"rental_uris": {"ios": "https://dc.lft.to/lastmile_qr_scan", "android": "https://dc.lft.to/lastmile_qr_scan"}, "fusion_lat": 0.0, "name": "28a3f3e56003354f8c01f1646ecdd87d", "bike_id": "28a3f3e56003354f8c01f1646ecdd87d", "is_disabled": 0, "type": "electric_scooter", "lat": 38.9217335, "lon": -77.0383255, "is_reserved": 0, "fusion_lon": 0.0}, {"rental_uris": {"ios": "https://dc.lft.to/lastmile_qr_scan", "android": "https://dc.lft.to/lastmile_qr_scan"}, "fusion_lat": 0.0, "name": "25b48d044eab7b097262b6c2800685fd", "bike_id": "25b48d044eab7b097262b6c2800685fd", "is_disabled": 0, "type": "electric_scooter", "lat": 38.906753, "lon": -77.02688216666667, "is_reserved": 0, "fusion_lon": 0.0}, {"rental_uris": {"ios": "https://dc.lft.to/lastmile_qr_scan", "android": "https://dc.lft.to/lastmile_qr_scan"}, "fusion_lat": 0.0, "name": "3204a0c6a75b466e1b58ce6527dfa049", "bike_id": "3204a0c6a75b466e1b58ce6527dfa049", "is_disabled": 0, "type": "electric_scooter", "lat": 38.88738266666667, "lon": -77.01531683333333, "is_reserved": 0, "fusion_lon": 0.0}, {"rental_uris": {"ios": "https://dc.lft.to/lastmile_qr_scan", "android": "https://dc.lft.to/lastmile_qr_scan"}, "fusion_lat": 0.0, "name": "931cc1969e21be8558d8cdd874788511", "bike_id": "931cc1969e21be8558d8cdd874788511", "is_disabled": 0, "type": "electric_scooter", "lat": 38.92951816666667, "lon": -76.99089016666667, "is_reserved": 0, "fusion_lon": 0.0}, {"rental_uris": {"ios": "https://dc.lft.to/lastmile_qr_scan", "android": "https://dc.lft.to/lastmile_qr_scan"}, "fusion_lat": 0.0, "name": "299d41f104e445504035b5ccdf31ba1b", "bike_id": "299d41f104e445504035b5ccdf31ba1b", "is_disabled": 0, "type": "electric_scooter", "lat": 38.9096665, "lon": -76.996045, "is_reserved": 0, "fusion_lon": 0.0}, {"rental_uris": {"ios": "https://dc.lft.to/lastmile_qr_scan", "android": "https://dc.lft.to/lastmile_qr_scan"}, "fusion_lat": 0.0, "name": "289a0752536e448736d6f38864c8b80c", "bike_id": "289a0752536e448736d6f38864c8b80c", "is_disabled": 0, "type": "electric_scooter", "lat": 38.903693, "lon": -77.03465333333334, "is_reserved": 0, "fusion_lon": 0.0}, {"rental_uris": {"ios": "https://dc.lft.to/lastmile_qr_scan", "android": "https://dc.lft.to/lastmile_qr_scan"}, "fusion_lat": 0.0, "name": "a901000376f839b41d3cee081e5dd47d", "bike_id": "a901000376f839b41d3cee081e5dd47d", "is_disabled": 0, "type": "electric_scooter", "lat": 38.920518, "lon": -77.0419495, "is_reserved": 0, "fusion_lon": 0.0}, {"rental_uris": {"ios": "https://dc.lft.to/lastmile_qr_scan", "android": "https://dc.lft.to/lastmile_qr_scan"}, "fusion_lat": 0.0, "name": "5defbdffdb0496602ff56f06efb6cfb5", "bike_id": "5defbdffdb0496602ff56f06efb6cfb5", "is_disabled": 0, "type": "electric_scooter", "lat": 38.887169666666665, "lon": -76.9961085, "is_reserved": 0, "fusion_lon": 0.0}, {"rental_uris": {"ios": "https://dc.lft.to/lastmile_qr_scan", "android": "https://dc.lft.to/lastmile_qr_scan"}, "fusion_lat": 0.0, "name": "95dd448c25d5af71d41c97c82f57861e", "bike_id": "95dd448c25d5af71d41c97c82f57861e", "is_disabled": 0, "type": "electric_scooter", "lat": 38.9155865, "lon": -77.0117245, "is_reserved": 0, "fusion_lon": 0.0}, {"rental_uris": {"ios": "https://dc.lft.to/lastmile_qr_scan", "android": "https://dc.lft.to/lastmile_qr_scan"}, "fusion_lat": 0.0, "name": "0cf6308d957b801c1e77897079ec43ad", "bike_id": "0cf6308d957b801c1e77897079ec43ad", "is_disabled": 0, "type": "electric_scooter", "lat": 38.9155235, "lon": -77.0221395, "is_reserved": 0, "fusion_lon": 0.0}, {"rental_uris": {"ios": "https://dc.lft.to/lastmile_qr_scan", "android": "https://dc.lft.to/lastmile_qr_scan"}, "fusion_lat": 0.0, "name": "f84623c60d21f21bae9701d22ba5d78f", "bike_id": "f84623c60d21f21bae9701d22ba5d78f", "is_disabled": 0, "type": "electric_scooter", "lat": 38.91064316666667, "lon": -77.04484133333334, "is_reserved": 0, "fusion_lon": 0.0}, {"rental_uris": {"ios": "https://dc.lft.to/lastmile_qr_scan", "android": "https://dc.lft.to/lastmile_qr_scan"}, "fusion_lat": 0.0, "name": "a147ab2aae1e606fca3929b959f5a403", "bike_id": "a147ab2aae1e606fca3929b959f5a403", "is_disabled": 0, "type": "electric_scooter", "lat": 38.89929516666667, "lon": -77.02796283333333, "is_reserved": 0, "fusion_lon": 0.0}, {"rental_uris": {"ios": "https://dc.lft.to/lastmile_qr_scan", "android": "https://dc.lft.to/lastmile_qr_scan"}, "fusion_lat": 0.0, "name": "c93f958b11a2512314424c0bf8d1d031", "bike_id": "c93f958b11a2512314424c0bf8d1d031", "is_disabled": 0, "type": "electric_bike", "lat": 38.900704833333336, "lon": -77.05075433333333, "is_reserved": 0, "fusion_lon": 0.0}, {"rental_uris": {"ios": "https://dc.lft.to/lastmile_qr_scan", "android": "https://dc.lft.to/lastmile_qr_scan"}, "fusion_lat": 0.0, "name": "4d4d64cca39cc3c8889a3dc093ec3317", "bike_id": "4d4d64cca39cc3c8889a3dc093ec3317", "is_disabled": 0, "type": "electric_scooter", "lat": 38.948133166666665, "lon": -76.99903366666666, "is_reserved": 0, "fusion_lon": 0.0}, {"rental_uris": {"ios": "https://dc.lft.to/lastmile_qr_scan", "android": "https://dc.lft.to/lastmile_qr_scan"}, "fusion_lat": 0.0, "name": "75aab5ef66521cca4d32ea0bc806c9cc", "bike_id": "75aab5ef66521cca4d32ea0bc806c9cc", "is_disabled": 0, "type": "electric_scooter", "lat": 38.90254783333334, "lon": -77.01757216666667, "is_reserved": 0, "fusion_lon": 0.0}, {"rental_uris": {"ios": "https://dc.lft.to/lastmile_qr_scan", "android": "https://dc.lft.to/lastmile_qr_scan"}, "fusion_lat": 0.0, "name": "a3b05a033794a6400614146df4a037d9", "bike_id": "a3b05a033794a6400614146df4a037d9", "is_disabled": 0, "type": "electric_scooter", "lat": 38.914779333333335, "lon": -77.021787, "is_reserved": 0, "fusion_lon": 0.0}, {"rental_uris": {"ios": "https://dc.lft.to/lastmile_qr_scan", "android": "https://dc.lft.to/lastmile_qr_scan"}, "fusion_lat": 0.0, "name": "694b7b0d2ec56d85f9e748e13b14fea2", "bike_id": "694b7b0d2ec56d85f9e748e13b14fea2", "is_disabled": 0, "type": "electric_scooter", "lat": 38.9042285, "lon": -77.05065416666666, "is_reserved": 0, "fusion_lon": 0.0}, {"rental_uris": {"ios": "https://dc.lft.to/lastmile_qr_scan", "android": "https://dc.lft.to/lastmile_qr_scan"}, "fusion_lat": 0.0, "name": "08eccaa3da217079ff682a5e0bee07bc", "bike_id": "08eccaa3da217079ff682a5e0bee07bc", "is_disabled": 0, "type": "electric_scooter", "lat": 38.907314166666666, "lon": -77.034507, "is_reserved": 0, "fusion_lon": 0.0}, {"rental_uris": {"ios": "https://dc.lft.to/lastmile_qr_scan", "android": "https://dc.lft.to/lastmile_qr_scan"}, "fusion_lat": 0.0, "name": "b049ef55ab1a03c260cb4803da5a214f", "bike_id": "b049ef55ab1a03c260cb4803da5a214f", "is_disabled": 0, "type": "electric_scooter", "lat": 38.892298833333335, "lon": -77.04998416666666, "is_reserved": 0, "fusion_lon": 0.0}, {"rental_uris": {"ios": "https://dc.lft.to/lastmile_qr_scan", "android": "https://dc.lft.to/lastmile_qr_scan"}, "fusion_lat": 0.0, "name": "29fe818ceadcd7dba855eba965c5ee2f", "bike_id": "29fe818ceadcd7dba855eba965c5ee2f", "is_disabled": 0, "type": "electric_scooter", "lat": 38.918560166666666, "lon": -77.03214366666667, "is_reserved": 0, "fusion_lon": 0.0}, {"rental_uris": {"ios": "https://dc.lft.to/lastmile_qr_scan", "android": "https://dc.lft.to/lastmile_qr_scan"}, "fusion_lat": 0.0, "name": "e31c13cc720a01c85a4c15a6d80d00b6", "bike_id": "e31c13cc720a01c85a4c15a6d80d00b6", "is_disabled": 0, "type": "electric_scooter", "lat": 38.91691983333333, "lon": -76.97952133333334, "is_reserved": 0, "fusion_lon": 0.0}, {"rental_uris": {"ios": "https://dc.lft.to/lastmile_qr_scan", "android": "https://dc.lft.to/lastmile_qr_scan"}, "fusion_lat": 0.0, "name": "425b009b67ecd5e863086e9e1a9b14d1", "bike_id": "425b009b67ecd5e863086e9e1a9b14d1", "is_disabled": 0, "type": "electric_bike", "lat": 38.87070666666666, "lon": -77.11059066666667, "is_reserved": 0, "fusion_lon": 0.0}, {"rental_uris": {"ios": "https://dc.lft.to/lastmile_qr_scan", "android": "https://dc.lft.to/lastmile_qr_scan"},