{"data": {"bikes": [{"is_disabled": 0, "lat": 38.89220133333333, "bike_id": "ef9bc301693f550e74dbaaf07e66457b", "fusion_lon": 0.0, "is_reserved": 0, "type": "electric_scooter", "name": "ef9bc301693f550e74dbaaf07e66457b", "lon": -77.02653483333333, "rental_uris": {"android": "https://dc.lft.to/lastmile_qr_scan", "ios": "https://dc.lft.to/lastmile_qr_scan"}, "fusion_lat": 0.0}, {"is_disabled": 0, "lat": 38.90582583333333, "bike_id": "763a8d08245672d03452fe8413764b53", "fusion_lon": 0.0, "is_reserved": 0, "type": "electric_scooter", "name": "763a8d08245672d03452fe8413764b53", "lon": -77.04439716666667, "rental_uris": {"android": "https://dc.lft.to/lastmile_qr_scan", "ios": "https://dc.lft.to/lastmile_qr_scan"}, "fusion_lat": 0.0}, {"is_disabled": 0, "lat": 38.92296616666667, "bike_id": "29976aa5212aa3c976333a70758fe5ca", "fusion_lon": 0.0, "is_reserved": 0, "type": "electric_bike", "name": "29976aa5212aa3c976333a70758fe5ca", "lon": -76.99374366666666, "rental_uris": {"android": "https://dc.lft.to/lastmile_qr_scan", "ios": "https://dc.lft.to/lastmile_qr_scan"}, "fusion_lat": 0.0}, {"is_disabled": 0, "lat": 38.9071995, "bike_id": "422bdbe57238468abf7743de9f630b01", "fusion_lon": 0.0, "is_reserved": 0, "type": "electric_scooter", "name": "422bdbe57238468abf7743de9f630b01", "lon": -77.03431916666666, "rental_uris": {"android": "https://dc.lft.to/lastmile_qr_scan", "ios": "https://dc.lft.to/lastmile_qr_scan"}, "fusion_lat": 0.0}, {"is_disabled": 0, "lat": 38.80569833333333, "bike_id": "7e84984fba08bc30b04d9191f0b01572", "fusion_lon": 0.0, "is_reserved": 0, "type": "electric_bike", "name": "7e84984fba08bc30b04d9191f0b01572", "lon": -77.06834616666667, "rental_uris": {"android": "https://dc.lft.to/lastmile_qr_scan", "ios": "https://dc.lft.to/lastmile_qr_scan"}, "fusion_lat": 0.0}, {"is_disabled": 0, "lat": 38.86239316666666, "bike_id": "476ae607a4ab812fb181ba1864350bac", "fusion_lon": 0.0, "is_reserved": 0, "type": "electric_bike", "name": "476ae607a4ab812fb181ba1864350bac", "lon": -76.99084316666666, "rental_uris": {"android": "https://dc.lft.to/lastmile_qr_scan", "ios": "https://dc.lft.to/lastmile_qr_scan"}, "fusion_lat": 0.0}, {"is_disabled": 0, "lat": 38.9047775, "bike_id": "bc3b0a43dacf2cd2e352b230f0948eb9", "fusion_lon": 0.0, "is_reserved": 0, "type": "electric_scooter", "name": "bc3b0a43dacf2cd2e352b230f0948eb9", "lon": -77.04860283333333, "rental_uris": {"android": "https://dc.lft.to/lastmile_qr_scan", "ios": "https://dc.lft.to/lastmile_qr_scan"}, "fusion_lat": 0.0}, {"is_disabled": 0, "lat": 38.9542105, "bike_id": "d786a940be01a9926590709428db4e4e", "fusion_lon": 0.0, "is_reserved": 0, "type": "electric_scooter", "name": "d786a940be01a9926590709428db4e4e", "lon": -77.027676, "rental_uris": {"android": "https://dc.lft.to/lastmile_qr_scan", "ios": "https://dc.lft.to/lastmile_qr_scan"}, "fusion_lat": 0.0}, {"is_disabled": 0, "lat": 38.9070805, "bike_id": "895a7ed45ce86a4f77e6e73e99a85a1a", "fusion_lon": 0.0, "is_reserved": 0, "type": "electric_scooter", "name": "895a7ed45ce86a4f77e6e73e99a85a1a", "lon": -76.98087133333334, "rental_uris": {"android": "https://dc.lft.to/lastmile_qr_scan", "ios": "https://dc.lft.to/lastmile_qr_scan"}, "fusion_lat": 0.0}, {"is_disabled": 0, "lat": 38.95636983333333, "bike_id": "2c70d330db6f3eb897e814d0af27ef92", "fusion_lon": 0.0, "is_reserved": 0, "type": "electric_scooter", "name": "2c70d330db6f3eb897e814d0af27ef92", "lon": -77.03300683333333, "rental_uris": {"android": "https://dc.lft.to/lastmile_qr_scan", "ios": "https://dc.lft.to/lastmile_qr_scan"}, "fusion_lat": 0.0}, {"is_disabled": 0, "lat": 38.896240166666665, "bike_id": "783b1e0511b578288023a9077ad8f88d", "fusion_lon": 0.0, "is_reserved": 0, "type": "electric_scooter", "name": "783b1e0511b578288023a9077ad8f88d", "lon": -77.02927883333334, "rental_uris": {"android": "https://dc.lft.to/lastmile_qr_scan", "ios": "https://dc.lft.to/lastmile_qr_scan"}, "fusion_lat": 0.0}, {"is_disabled": 0, "lat": 38.94295183333333, "bike_id": "9d77dc0638245707d7d63cfb95ec7810", "fusion_lon": 0.0, "is_reserved": 0, "type": "electric_scooter", "name": "9d77dc0638245707d7d63cfb95ec7810", "lon": -77.0586715, "rental_uris": {"android": "https://dc.lft.to/lastmile_qr_scan", "ios": "https://dc.lft.to/lastmile_qr_scan"}, "fusion_lat": 0.0}, {"is_disabled": 0, "lat": 38.90269283333333, "bike_id": "a1e901b1187f0f87fe64c4f75bd3af02", "fusion_lon": 0.0, "is_reserved": 0, "type": "electric_scooter", "name": "a1e901b1187f0f87fe64c4f75bd3af02", "lon": -77.06021983333333, "rental_uris": {"android": "https://dc.lft.to/lastmile_qr_scan", "ios": "https://dc.lft.to/lastmile_qr_scan"}, "fusion_lat": 0.0}, {"is_disabled": 0, "lat": 38.916917833333336, "bike_id": "69ef174d66b579775649bbd82217c1bf", "fusion_lon": 0.0, "is_reserved": 0, "type": "electric_scooter", "name": "69ef174d66b579775649bbd82217c1bf", "lon": -77.02599716666667, "rental_uris": {"android": "https://dc.lft.to/lastmile_qr_scan", "ios": "https://dc.lft.to/lastmile_qr_scan"}, "fusion_lat": 0.0}, {"is_disabled": 0, "lat": 38.93726016666667, "bike_id": "9381ab7b4a269e53b3a1d4f74c7dbea8", "fusion_lon": 0.0, "is_reserved": 0, "type": "electric_scooter", "name": "9381ab7b4a269e53b3a1d4f74c7dbea8", "lon": -77.0326135, "rental_uris": {"android": "https://dc.lft.to/lastmile_qr_scan", "ios": "https://dc.lft.to/lastmile_qr_scan"}, "fusion_lat": 0.0}, {"is_disabled": 0, "lat": 38.92122766666667, "bike_id": "5126cc1a8cbd52eca3c38da5da2d6b15", "fusion_lon": 0.0, "is_reserved": 0, "type": "electric_scooter", "name": "5126cc1a8cbd52eca3c38da5da2d6b15", "lon": -77.043445, "rental_uris": {"android": "https://dc.lft.to/lastmile_qr_scan", "ios": "https://dc.lft.to/lastmile_qr_scan"}, "fusion_lat": 0.0}, {"is_disabled": 0, "lat": 38.92113366666667, "bike_id": "e2fb97365cc966e25bba92bbacd15e8b", "fusion_lon": 0.0, "is_reserved": 0, "type": "electric_scooter", "name": "e2fb97365cc966e25bba92bbacd15e8b", "lon": -77.03930333333334, "rental_uris": {"android": "https://dc.lft.to/lastmile_qr_scan", "ios": "https://dc.lft.to/lastmile_qr_scan"}, "fusion_lat": 0.0}, {"is_disabled": 0, "lat": 38.885499333333335, "bike_id": "39ceed3756266000b1b9edae307e6300", "fusion_lon": 0.0, "is_reserved": 0, "type": "electric_scooter", "name": "39ceed3756266000b1b9edae307e6300", "lon": -77.01115766666666, "rental_uris": {"android": "https://dc.lft.to/lastmile_qr_scan", "ios": "https://dc.lft.to/lastmile_qr_scan"}, "fusion_lat": 0.0}, {"is_disabled": 0, "lat": 38.926884, "bike_id": "0cde335a669fb7e05811732d69344d5f", "fusion_lon": 0.0, "is_reserved": 0, "type": "electric_scooter", "name": "0cde335a669fb7e05811732d69344d5f", "lon": -77.02631583333333, "rental_uris": {"android": "https://dc.lft.to/lastmile_qr_scan", "ios": "https://dc.lft.to/lastmile_qr_scan"}, "fusion_lat": 0.0}, {"is_disabled": 0, "lat": 39.028916, "bike_id": "ed784f76e81dc922848787895405d84b", "fusion_lon": 0.0, "is_reserved": 0, "type": "electric_bike", "name": "ed784f76e81dc922848787895405d84b", "lon": -77.09594933333334, "rental_uris": {"android": "https://dc.lft.to/lastmile_qr_scan", "ios": "https://dc.lft.to/lastmile_qr_scan"}, "fusion_lat": 0.0}, {"is_disabled": 0, "lat": 38.90675616666667, "bike_id": "b89825d830250559ff3ac067e10f5fb1", "fusion_lon": 0.0, "is_reserved": 0, "type": "electric_scooter", "name": "b89825d830250559ff3ac067e10f5fb1", "lon": -77.03881366666667, "rental_uris": {"android": "https://dc.lft.to/lastmile_qr_scan", "ios": "https://dc.lft.to/lastmile_qr_scan"}, "fusion_lat": 0.0}, {"is_disabled": 0, "lat": 38.899213833333334, "bike_id": "ac5f024e66d7e6ae696dce988a2ec504", "fusion_lon": 0.0, "is_reserved": 0, "type": "electric_scooter", "name": "ac5f024e66d7e6ae696dce988a2ec504", "lon": -77.0397605, "rental_uris": {"android": "https://dc.lft.to/lastmile_qr_scan", "ios": "https://dc.lft.to/lastmile_qr_scan"}, "fusion_lat": 0.0}, {"is_disabled": 0, "lat": 38.949918333333336, "bike_id": "ce9411a431e00bc626198badfd27b29b", "fusion_lon": 0.0, "is_reserved": 0, "type": "electric_scooter", "name": "ce9411a431e00bc626198badfd27b29b", "lon": -77.0184475, "rental_uris": {"android": "https://dc.lft.to/lastmile_qr_scan", "ios": "https://dc.lft.to/lastmile_qr_scan"}, "fusion_lat": 0.0}, {"is_disabled": 0, "lat": 38.9082255, "bike_id": "38a86f08690d9e2336215f52327c4bf9", "fusion_lon": 0.0, "is_reserved": 0, "type": "electric_scooter", "name": "38a86f08690d9e2336215f52327c4bf9", "lon": -77.00623, "rental_uris": {"android": "https://dc.lft.to/lastmile_qr_scan", "ios": "https://dc.lft.to/lastmile_qr_scan"}, "fusion_lat": 0.0}, {"is_disabled": 0, "lat": 39.024382833333334, "bike_id": "88acc5601e7c457cd05af91948259711", "fusion_lon": 0.0, "is_reserved": 0, "type": "electric_bike", "name": "88acc5601e7c457cd05af91948259711", "lon": -77.13101533333334, "rental_uris": {"android": "https://dc.lft.to/lastmile_qr_scan", "ios": "https://dc.lft.to/lastmile_qr_scan"}, "fusion_lat": 0.0}, {"is_disabled": 0, "lat": 38.94834916666667, "bike_id": "e0535b8fb2317e01d68340daf9bdafbf", "fusion_lon": 0.0, "is_reserved": 0, "type": "electric_scooter", "name": "e0535b8fb2317e01d68340daf9bdafbf", "lon": -77.02683383333333, "rental_uris": {"android": "https://dc.lft.to/lastmile_qr_scan", "ios": "https://dc.lft.to/lastmile_qr_scan"}, "fusion_lat": 0.0}, {"is_disabled": 0, "lat": 38.917155666666666, "bike_id": "b8ed1b49436fcc65b933cb5c9ec44196", "fusion_lon": 0.0, "is_reserved": 0, "type": "electric_scooter", "name": "b8ed1b49436fcc65b933cb5c9ec44196", "lon": -77.03325483333333, "rental_uris": {"android": "https://dc.lft.to/lastmile_qr_scan", "ios": "https://dc.lft.to/lastmile_qr_scan"}, "fusion_lat": 0.0}, {"is_disabled": 0, "lat": 38.9006685, "bike_id": "0e045bfc2200919c3e6c5dab63751896", "fusion_lon": 0.0, "is_reserved": 0, "type": "electric_scooter", "name": "0e045bfc2200919c3e6c5dab63751896", "lon": -77.04536816666666, "rental_uris": {"android": "https://dc.lft.to/lastmile_qr_scan", "ios": "https://dc.lft.to/lastmile_qr_scan"}, "fusion_lat": 0.0}, {"is_disabled": 0, "lat": 38.960746666666665, "bike_id": "8fc0e9ab2c1c3de426fdec2c9023dce0", "fusion_lon": 0.0, "is_reserved": 0, "type": "electric_scooter", "name": "8fc0e9ab2c1c3de426fdec2c9023dce0", "lon": -77.05624116666667, "rental_uris": {"android": "https://dc.lft.to/lastmile_qr_scan", "ios": "https://dc.lft.to/lastmile_qr_scan"}, "fusion_lat": 0.0}, {"is_disabled": 0, "lat": 38.877607166666664, "bike_id": "00f8f5f3078d96b92bbacc660d9205ab", "fusion_lon": 0.0, "is_reserved": 0, "type": "electric_scooter", "name": "00f8f5f3078d96b92bbacc660d9205ab", "lon": -76.995289, "rental_uris": {"android": "https://dc.lft.to/lastmile_qr_scan", "ios": "https://dc.lft.to/lastmile_qr_scan"}, "fusion_lat": 0.0}, {"is_disabled": 0, "lat": 38.848216, "bike_id": "6630af65fca116b81d3914ee175f37f4", "fusion_lon": 0.0, "is_reserved": 0, "type": "electric_bike", "name": "6630af65fca116b81d3914ee175f37f4", "lon": -77.084608, "rental_uris": {"android": "https://dc.lft.to/lastmile_qr_scan", "ios": "https://dc.lft.to/lastmile_qr_scan"}, "fusion_lat": 0.0}, {"is_disabled": 0, "lat": 38.93298683333333, "bike_id": "78f922256df3dc26786744db9642d11d", "fusion_lon": 0.0, "is_reserved": 0, "type": "electric_scooter", "name": "78f922256df3dc26786744db9642d11d", "lon": -77.02802, "rental_uris": {"android": "https://dc.lft.to/lastmile_qr_scan", "ios": "https://dc.lft.to/lastmile_qr_scan"}, "fusion_lat": 0.0}, {"is_disabled": 0, "lat": 38.8792385, "bike_id": "3ae5fa77011e20f1a2851d36fa730b37", "fusion_lon": 0.0, "is_reserved": 0, "type": "electric_scooter", "name": "3ae5fa77011e20f1a2851d36fa730b37", "lon": -77.01319966666667, "rental_uris": {"android": "https://dc.lft.to/lastmile_qr_scan", "ios": "https://dc.lft.to/lastmile_qr_scan"}, "fusion_lat": 0.0}, {"is_disabled": 0, "lat": 38.91113983333334, "bike_id": "733d188b52f4ba22f56705cf70561dfa", "fusion_lon": 0.0, "is_reserved": 0, "type": "electric_scooter", "name": "733d188b52f4ba22f56705cf70561dfa", "lon": -77.0308425, "rental_uris": {"android": "https://dc.lft.to/lastmile_qr_scan", "ios": "https://dc.lft.to/lastmile_qr_scan"}, "fusion_lat": 0.0}, {"is_disabled": 0, "lat": 38.9170525, "bike_id": "c04679abacd2811ff188af4b167b8b9a", "fusion_lon": 0.0, "is_reserved": 0, "type": "electric_scooter", "name": "c04679abacd2811ff188af4b167b8b9a", "lon": -77.03500416666667, "rental_uris": {"android": "https://dc.lft.to/lastmile_qr_scan", "ios": "https://dc.lft.to/lastmile_qr_scan"}, "fusion_lat": 0.0}, {"is_disabled": 0, "lat": 38.893505833333336, "bike_id": "55c0cdf8745d0acf6e1307bb8c87f535", "fusion_lon": 0.0, "is_reserved": 0, "type": "electric_bike", "name": "55c0cdf8745d0acf6e1307bb8c87f535", "lon": -77.18738033333334, "rental_uris": {"android": "https://dc.lft.to/lastmile_qr_scan", "ios": "https://dc.lft.to/lastmile_qr_scan"}, "fusion_lat": 0.0}, {"is_disabled": 0, "lat": 38.89626116666667, "bike_id": "ace9af800ddeba012285cc3fc6c7b718", "fusion_lon": 0.0, "is_reserved": 0, "type": "electric_scooter", "name": "ace9af800ddeba012285cc3fc6c7b718", "lon": -77.04817033333333, "rental_uris": {"android": "https://dc.lft.to/lastmile_qr_scan", "ios": "https://dc.lft.to/lastmile_qr_scan"}, "fusion_lat": 0.0}, {"is_disabled": 0, "lat": 38.916398666666666, "bike_id": "45901ecef7f74683175a7ab1e502e69e", "fusion_lon": 0.0, "is_reserved": 0, "type": "electric_scooter", "name": "45901ecef7f74683175a7ab1e502e69e", "lon": -77.02276766666667, "rental_uris": {"android": "https://dc.lft.to/lastmile_qr_scan", "ios": "https://dc.lft.to/lastmile_qr_scan"}, "fusion_lat": 0.0}, {"is_disabled": 0, "lat": 38.892249666666665, "bike_id": "b92f96a910b8d517535f1ad80ed8c275", "fusion_lon": 0.0, "is_reserved": 0, "type": "electric_scooter", "name": "b92f96a910b8d517535f1ad80ed8c275", "lon": -77.043778, "rental_uris": {"android": "https://dc.lft.to/lastmile_qr_scan", "ios": "https://dc.lft.to/lastmile_qr_scan"}, "fusion_lat": 0.0}, {"is_disabled": 0, "lat": 38.92252916666666, "bike_id": "8a83eab50d39c493def8ec32a8b6afd6", "fusion_lon": 0.0, "is_reserved": 0, "type": "electric_scooter", "name": "8a83eab50d39c493def8ec32a8b6afd6", "lon": -77.03405, "rental_uris": {"android": "https://dc.lft.to/lastmile_qr_scan", "ios": "https://dc.lft.to/lastmile_qr_scan"}, "fusion_lat": 0.0}, {"is_disabled": 0, "lat": 38.905882, "bike_id": "d6eba7406c8df88e1fe2609fbd5baba1", "fusion_lon": 0.0, "is_reserved": 0, "type": "electric_scooter", "name": "d6eba7406c8df88e1fe2609fbd5baba1", "lon": -77.04364833333334, "rental_uris": {"android": "https://dc.lft.to/lastmile_qr_scan", "ios": "https://dc.lft.to/lastmile_qr_scan"}, "fusion_lat": 0.0}, {"is_disabled": 0, "lat": 38.91707916666667, "bike_id": "226559f85bc2ebb71a529fc45da6ca3c", "fusion_lon": 0.0, "is_reserved": 0, "type": "electric_scooter", "name": "226559f85bc2ebb71a529fc45da6ca3c", "lon": -77.00716983333334, "rental_uris": {"android": "https://dc.lft.to/lastmile_qr_scan", "ios": "https://dc.lft.to/lastmile_qr_scan"}, "fusion_lat": 0.0}, {"is_disabled": 0, "lat": 38.936992333333336, "bike_id": "823e47b1221b53a82cd68f0020b08937", "fusion_lon": 0.0, "is_reserved": 0, "type": "electric_scooter", "name": "823e47b1221b53a82cd68f0020b08937", "lon": -77.027183, "rental_uris": {"android": "https://dc.lft.to/lastmile_qr_scan", "ios": "https://dc.lft.to/lastmile_qr_scan"}, "fusion_lat": 0.0}, {"is_disabled": 0, "lat": 38.923682666666664, "bike_id": "5920533fb29ca03d3b6b7d05f739c864", "fusion_lon": 0.0, "is_reserved": 0, "type": "electric_scooter", "name": "5920533fb29ca03d3b6b7d05f739c864", "lon": -77.0503615, "rental_uris": {"android": "https://dc.lft.to/lastmile_qr_scan", "ios": "https://dc.lft.to/lastmile_qr_scan"}, "fusion_lat": 0.0}, {"is_disabled": 0, "lat": 38.91675333333333, "bike_id": "8b439b0c6d0c245bdfc718059ded3475", "fusion_lon": 0.0, "is_reserved": 0, "type": "electric_scooter", "name": "8b439b0c6d0c245bdfc718059ded3475", "lon": -77.0297375, "rental_uris": {"android": "https://dc.lft.to/lastmile_qr_scan", "ios": "https://dc.lft.to/lastmile_qr_scan"}, "fusion_lat": 0.0}, {"is_disabled": 0, "lat": 38.908832833333335, "bike_id": "8da2e290051b35a3476e19b22ea7c338", "fusion_lon": 0.0, "is_reserved": 0, "type": "electric_scooter", "name": "8da2e290051b35a3476e19b22ea7c338", "lon": -77.04325816666666, "rental_uris": {"android": "https://dc.lft.to/lastmile_qr_scan", "ios": "https://dc.lft.to/lastmile_qr_scan"}, "fusion_lat": 0.0}, {"is_disabled": 0, "lat": 38.909760166666665, "bike_id": "bdfae365667d66e3a9934c0bd38c66ed", "fusion_lon": 0.0, "is_reserved": 0, "type": "electric_scooter", "name": "bdfae365667d66e3a9934c0bd38c66ed", "lon": -77.03182666666666, "rental_uris": {"android": "https://dc.lft.to/lastmile_qr_scan", "ios": "https://dc.lft.to/lastmile_qr_scan"}, "fusion_lat": 0.0}, {"is_disabled": 0, "lat": 38.91994316666667, "bike_id": "94d6aab7d5ddc47d03ddefc8e45c4ea3", "fusion_lon": 0.0, "is_reserved": 0, "type": "electric_scooter", "name": "94d6aab7d5ddc47d03ddefc8e45c4ea3", "lon": -77.023836, "rental_uris": {"android": "https://dc.lft.to/lastmile_qr_scan", "ios": "https://dc.lft.to/lastmile_qr_scan"}, "fusion_lat": 0.0}, {"is_disabled": 0, "lat": 38.922503666666664, "bike_id": "97c43a3eaf4203f5a6d5cbb0a5c1989d", "fusion_lon": 0.0, "is_reserved": 0, "type": "electric_scooter", "name": "97c43a3eaf4203f5a6d5cbb0a5c1989d", "lon": -77.03086233333333, "rental_uris": {"android": "https://dc.lft.to/lastmile_qr_scan", "ios": "https://dc.lft.to/lastmile_qr_scan"}, "fusion_lat": 0.0}, {"is_disabled": 0, "lat": 38.92986333333333, "bike_id": "aba84519be8f3818e0649c68e6fb5da0", "fusion_lon": 0.0, "is_reserved": 0, "type": "electric_scooter", "name": "aba84519be8f3818e0649c68e6fb5da0", "lon": -77.02529, "rental_uris": {"android": "https://dc.lft.to/lastmile_qr_scan", "ios": "https://dc.lft.to/lastmile_qr_scan"}, "fusion_lat": 0.0}, {"is_disabled": 0, "lat": 38.9110685, "bike_id": "b48e169ab3c7a8a42a08b9b59c81aa44", "fusion_lon": 0.0, "is_reserved": 0, "type": "electric_scooter", "name": "b48e169ab3c7a8a42a08b9b59c81aa44", "lon": -77.02204966666666, "rental_uris": {"android": "https://dc.lft.to/lastmile_qr_scan", "ios": "https://dc.lft.to/lastmile_qr_scan"}, "fusion_lat": 0.0}, {"is_disabled": 0, "lat": 38.904099333333335, "bike_id": "cb09cc152d11fb87785f756e2003d91d", "fusion_lon": 0.0, "is_reserved": 0, "type": "electric_scooter", "name": "cb09cc152d11fb87785f756e2003d91d", "lon": -76.973301, "rental_uris": {"android": "https://dc.lft.to/lastmile_qr_scan", "ios": "https://dc.lft.to/lastmile_qr_scan"}, "fusion_lat": 0.0}, {"is_disabled": 0, "lat": 38.918016, "bike_id": "346f259ec2964d46c31aed1def212de1", "fusion_lon": 0.0, "is_reserved": 0, "type": "electric_scooter", "name": "346f259ec2964d46c31aed1def212de1", "lon": -77.02712766666667, "rental_uris": {"android": "https://dc.lft.to/lastmile_qr_scan", "ios": "https://dc.lft.to/lastmile_qr_scan"}, "fusion_lat": 0.0}, {"is_disabled": 0, "lat": 38.8994725, "bike_id": "c3a5112bd874b807afe2d715ead12c6b", "fusion_lon": 0.0, "is_reserved": 0, "type": "electric_scooter", "name": "c3a5112bd874b807afe2d715ead12c6b", "lon": -77.03152716666666, "rental_uris": {"android": "https://dc.lft.to/lastmile_qr_scan", "ios": "https://dc.lft.to/lastmile_qr_scan"}, "fusion_lat": 0.0}, {"is_disabled": 0, "lat": 38.953683, "bike_id": "d85616d7b6ecf6fc866854b43e7bbdb9", "fusion_lon": 0.0, "is_reserved": 0, "type": "electric_scooter", "name": "d85616d7b6ecf6fc866854b43e7bbdb9", "lon": -77.027777, "rental_uris": {"android": "https://dc.lft.to/lastmile_qr_scan", "ios": "https://dc.lft.to/lastmile_qr_scan"}, "fusion_lat": 0.0}, {"is_disabled": 0, "lat": 38.923656, "bike_id": "5054991b8da0f1840738e2ee2c7894f5", "fusion_lon": 0.0, "is_reserved": 0, "type": "electric_scooter", "name": "5054991b8da0f1840738e2ee2c7894f5", "lon": -77.00384933333333, "rental_uris": {"android": "https://dc.lft.to/lastmile_qr_scan", "ios": "https://dc.lft.to/lastmile_qr_scan"}, "fusion_lat": 0.0}, {"is_disabled": 0, "lat": 38.89236116666667, "bike_id": "2e1ba9686a0d5c26aa4f17707feb130b", "fusion_lon": 0.0, "is_reserved": 0, "type": "electric_scooter", "name": "2e1ba9686a0d5c26aa4f17707feb130b", "lon": -77.04502566666666, "rental_uris": {"android": "https://dc.lft.to/lastmile_qr_scan", "ios": "https://dc.lft.to/lastmile_qr_scan"}, "fusion_lat": 0.0}, {"is_disabled": 0, "lat": 38.913365166666665, "bike_id": "5f73d9db308b826a2cb1b260a5fc1e5d", "fusion_lon": 0.0, "is_reserved": 0, "type": "electric_scooter", "name": "5f73d9db308b826a2cb1b260a5fc1e5d", "lon": -77.00431533333334, "rental_uris": {"android": "https://dc.lft.to/lastmile_qr_scan", "ios": "https://dc.lft.to/lastmile_qr_scan"}, "fusion_lat": 0.0}, {"is_disabled": 0, "lat": 38.8879785, "bike_id": "f0a6d783b55d3b677969f1648f2cf393", "fusion_lon": 0.0, "is_reserved": 0, "type": "electric_scooter", "name": "f0a6d783b55d3b677969f1648f2cf393", "lon": -76.93361683333333, "rental_uris": {"android": "https://dc.lft.to/lastmile_qr_scan", "ios": "https://dc.lft.to/lastmile_qr_scan"}, "fusion_lat": 0.0}, {"is_disabled": 0, "lat": 38.94602883333334, "bike_id": "dbc9cbbb06c1e7ce36e3db4acf1b0d04", "fusion_lon": 0.0, "is_reserved": 0, "type": "electric_scooter", "name": "dbc9cbbb06c1e7ce36e3db4acf1b0d04", "lon": -77.02979716666667, "rental_uris": {"android": "https://dc.lft.to/lastmile_qr_scan", "ios": "https://dc.lft.to/lastmile_qr_scan"}, "fusion_lat": 0.0}, {"is_disabled": 0, "lat": 38.925017833333335, "bike_id": "3d374cadcb50707c40e7c05a24bcb63b", "fusion_lon": 0.0, "is_reserved": 0, "type": "electric_scooter", "name": "3d374cadcb50707c40e7c05a24bcb63b", "lon": -77.0522465, "rental_uris": {"android": "https://dc.lft.to/lastmile_qr_scan", "ios": "https://dc.lft.to/lastmile_qr_scan"}, "fusion_lat": 0.0}, {"is_disabled": 0, "lat": 38.90373316666667, "bike_id": "d9eef8fede7d63ef70b2e5f3df34eb18", "fusion_lon": 0.0, "is_reserved": 0, "type": "electric_scooter", "name": "d9eef8fede7d63ef70b2e5f3df34eb18", "lon": -77.045033, "rental_uris": {"android": "https://dc.lft.to/lastmile_qr_scan", "ios": "https://dc.lft.to/lastmile_qr_scan"}, "fusion_lat": 0.0}, {"is_disabled": 0, "lat": 38.89536183333333, "bike_id": "39eb4631cf0763373fa3d2f9554d6038", "fusion_lon": 0.0, "is_reserved": 0, "type": "electric_scooter", "name": "39eb4631cf0763373fa3d2f9554d6038", "lon": -77.0034615, "rental_uris": {"android": "https://dc.lft.to/lastmile_qr_scan", "ios": "https://dc.lft.to/lastmile_qr_scan"}, "fusion_lat": 0.0}, {"is_disabled": 0, "lat": 38.930985, "bike_id": "b87b52013a7e7a41f559a23c6c23afef", "fusion_lon": 0.0, "is_reserved": 0, "type": "electric_scooter", "name": "b87b52013a7e7a41f559a23c6c23afef", "lon": -77.025947, "rental_uris": {"android": "https://dc.lft.to/lastmile_qr_scan", "ios": "https://dc.lft.to/lastmile_qr_scan"}, "fusion_lat": 0.0}, {"is_disabled": 0, "lat": 38.97594616666667, "bike_id": "fe32aada540b76ec82c09ce1352e90c8", "fusion_lon": 0.0, "is_reserved": 0, "type": "electric_scooter", "name": "fe32aada540b76ec82c09ce1352e90c8", "lon": -77.017677, "rental_uris": {"android": "https://dc.lft.to/lastmile_qr_scan", "ios": "https://dc.lft.to/lastmile_qr_scan"}, "fusion_lat": 0.0}, {"is_disabled": 0, "lat": 38.89558133333333, "bike_id": "17b0a0179a58448f757a535b09d08299", "fusion_lon": 0.0, "is_reserved": 0, "type": "electric_scooter", "name": "17b0a0179a58448f757a535b09d08299", "lon": -77.04675316666666, "rental_uris": {"android": "https://dc.lft.to/lastmile_qr_scan", "ios": "https://dc.lft.to/lastmile_qr_scan"}, "fusion_lat": 0.0}, {"is_disabled": 0, "lat": 38.909977, "bike_id": "011c3d4a4e652e6bd262529e5d2fe7d8", "fusion_lon": 0.0, "is_reserved": 0, "type": "electric_scooter", "name": "011c3d4a4e652e6bd262529e5d2fe7d8", "lon": -77.03644416666667, "rental_uris": {"android": "https://dc.lft.to/lastmile_qr_scan", "ios": "https://dc.lft.to/lastmile_qr_scan"}, "fusion_lat": 0.0}, {"is_disabled": 0, "lat": 38.9154975, "bike_id": "fc1d6c409ab1652b0a9e89a18b2625a3", "fusion_lon": 0.0, "is_reserved": 0, "type": "electric_scooter", "name": "fc1d6c409ab1652b0a9e89a18b2625a3", "lon": -77.0448, "rental_uris": {"android": "https://dc.lft.to/lastmile_qr_scan", "ios": "https://dc.lft.to/lastmile_qr_scan"}, "fusion_lat": 0.0}, {"is_disabled": 0, "lat": 38.915654, "bike_id": "ce92e36f4a9ce409b4a93536379dfafa", "fusion_lon": 0.0, "is_reserved": 0, "type": "electric_scooter", "name": "ce92e36f4a9ce409b4a93536379dfafa", "lon": -77.05213066666667, "rental_uris": {"android": "https://dc.lft.to/lastmile_qr_scan", "ios": "https://dc.lft.to/lastmile_qr_scan"}, "fusion_lat": 0.0}, {"is_disabled": 0, "lat": 38.8937185, "bike_id": "656896aa4944c4d4d30092fb53ee6979", "fusion_lon": 0.0, "is_reserved": 0, "type": "electric_scooter", "name": "656896aa4944c4d4d30092fb53ee6979", "lon": -77.02366883333333, "rental_uris": {"android": "https://dc.lft.to/lastmile_qr_scan", "ios": "https://dc.lft.to/lastmile_qr_scan"}, "fusion_lat": 0.0}, {"is_disabled": 0, "lat": 38.936475, "bike_id": "c1162887c46d1df97dd40565df2e1139", "fusion_lon": 0.0, "is_reserved": 0, "type": "electric_scooter", "name": "c1162887c46d1df97dd40565df2e1139", "lon": -77.03283266666666, "rental_uris": {"android": "https://dc.lft.to/lastmile_qr_scan", "ios": "https://dc.lft.to/lastmile_qr_scan"}, "fusion_lat": 0.0}, {"is_disabled": 0, "lat": 38.9024925, "bike_id": "3d904a36070741d996486c28deb97f5b", "fusion_lon": 0.0, "is_reserved": 0, "type": "electric_scooter", "name": "3d904a36070741d996486c28deb97f5b", "lon": -77.04862433333334, "rental_uris": {"android": "https://dc.lft.to/lastmile_qr_scan", "ios": "https://dc.lft.to/lastmile_qr_scan"}, "fusion_lat": 0.0}, {"is_disabled": 0, "lat": 38.89601416666667, "bike_id": "e804cbbe015a6ec521c8205497c607c6", "fusion_lon": 0.0, "is_reserved": 0, "type": "electric_scooter", "name": "e804cbbe015a6ec521c8205497c607c6", "lon": -77.0442725, "rental_uris": {"android": "https://dc.lft.to/lastmile_qr_scan", "ios": "https://dc.lft.to/lastmile_qr_scan"}, "fusion_lat": 0.0}, {"is_disabled": 0, "lat": 38.90376966666667, "bike_id": "5341847cff82e9ffc6ab8078a6d90cb4", "fusion_lon": 0.0, "is_reserved": 0, "type": "electric_scooter", "name": "5341847cff82e9ffc6ab8078a6d90cb4", "lon": -77.038505, "rental_uris": {"android": "https://dc.lft.to/lastmile_qr_scan", "ios": "https://dc.lft.to/lastmile_qr_scan"}, "fusion_lat": 0.0}, {"is_disabled": 0, "lat": 38.883715, "bike_id": "901ec1aa55ce846049d220905fd67f04", "fusion_lon": 0.0, "is_reserved": 0, "type": "electric_scooter", "name": "901ec1aa55ce846049d220905fd67f04", "lon": -76.99531783333333, "rental_uris": {"android": "https://dc.lft.to/lastmile_qr_scan", "ios": "https://dc.lft.to/lastmile_qr_scan"}, "fusion_lat": 0.0}, {"is_disabled": 0, "lat": 38.887287, "bike_id": "5d57a00c33468be7c754567c0f1af59d", "fusion_lon": 0.0, "is_reserved": 0, "type": "electric_scooter", "name": "5d57a00c33468be7c754567c0f1af59d", "lon": -77.02210116666667, "rental_uris": {"android": "https://dc.lft.to/lastmile_qr_scan", "ios": "https://dc.lft.to/lastmile_qr_scan"}, "fusion_lat": 0.0}, {"is_disabled": 0, "lat": 38.90072883333333, "bike_id": "02892102179b8b9c9ed7725bab86e51e", "fusion_lon": 0.0, "is_reserved": 0, "type": "electric_scooter", "name": "02892102179b8b9c9ed7725bab86e51e", "lon": -77.049048, "rental_uris": {"android": "https://dc.lft.to/lastmile_qr_scan", "ios": "https://dc.lft.to/lastmile_qr_scan"}, "fusion_lat": 0.0}, {"is_disabled": 0, "lat": 38.9333765, "bike_id": "34a9895a27111dddf0275cc1e3b56aeb", "fusion_lon": 0.0, "is_reserved": 0, "type": "electric_scooter", "name": "34a9895a27111dddf0275cc1e3b56aeb", "lon": -77.0285135, "rental_uris": {"android": "https://dc.lft.to/lastmile_qr_scan", "ios": "https://dc.lft.to/lastmile_qr_scan"}, "fusion_lat": 0.0}, {"is_disabled": 0, "lat": 38.912777, "bike_id": "e2d15f93531b109ba668acc22e1c180d", "fusion_lon": 0.0, "is_reserved": 0, "type": "electric_scooter", "name": "e2d15f93531b109ba668acc22e1c180d", "lon": -77.022438, "rental_uris": {"android": "https://dc.lft.to/lastmile_qr_scan", "ios": "https://dc.lft.to/lastmile_qr_scan"}, "fusion_lat": 0.0}, {"is_disabled": 0, "lat": 38.903558833333335, "bike_id": "e75fd63a1abe4150808620a570d867fe", "fusion_lon": 0.0, "is_reserved": 0, "type": "electric_scooter", "name": "e75fd63a1abe4150808620a570d867fe", "lon": -77.01109816666667, "rental_uris": {"android": "https://dc.lft.to/lastmile_qr_scan", "ios": "https://dc.lft.to/lastmile_qr_scan"}, "fusion_lat": 0.0}, {"is_disabled": 0, "lat": 38.930027333333335, "bike_id": "7b4f27a14701a001f503e8595b594e83", "fusion_lon": 0.0, "is_reserved": 0, "type": "electric_scooter", "name": "7b4f27a14701a001f503e8595b594e83", "lon": -77.0130155, "rental_uris": {"android": "https://dc.lft.to/lastmile_qr_scan", "ios": "https://dc.lft.to/lastmile_qr_scan"}, "fusion_lat": 0.0}, {"is_disabled": 0, "lat": 38.90426633333333, "bike_id": "519e1deb43cf65fa1c7df24c57117a0a", "fusion_lon": 0.0, "is_reserved": 0, "type": "electric_scooter", "name": "519e1deb43cf65fa1c7df24c57117a0a", "lon": -77.04653983333333, "rental_uris": {"android": "https://dc.lft.to/lastmile_qr_scan", "ios": "https://dc.lft.to/lastmile_qr_scan"}, "fusion_lat": 0.0}, {"is_disabled": 0, "lat": 38.897727, "bike_id": "932eb309cde2e06021204b5499de1d0a", "fusion_lon": 0.0, "is_reserved": 0, "type": "electric_scooter", "name": "932eb309cde2e06021204b5499de1d0a", "lon": -77.03213033333333, "rental_uris": {"android": "https://dc.lft.to/lastmile_qr_scan", "ios": "https://dc.lft.to/lastmile_qr_scan"}, "fusion_lat": 0.0}, {"is_disabled": 0, "lat": 38.91708633333333, "bike_id": "f52bea4cff46aa5539412d84a74e97b4", "fusion_lon": 0.0, "is_reserved": 0, "type": "electric_scooter", "name": "f52bea4cff46aa5539412d84a74e97b4", "lon": -77.02849266666666, "rental_uris": {"android": "https://dc.lft.to/lastmile_qr_scan", "ios": "https://dc.lft.to/lastmile_qr_scan"}, "fusion_lat": 0.0}, {"is_disabled": 0, "lat": 38.9055605, "bike_id": "c2b29d359822a69de86235902a3cc44c", "fusion_lon": 0.0, "is_reserved": 0, "type": "electric_scooter", "name": "c2b29d359822a69de86235902a3cc44c", "lon": -77.04469983333334, "rental_uris": {"android": "https://dc.lft.to/lastmile_qr_scan", "ios": "https://dc.lft.to/lastmile_qr_scan"}, "fusion_lat": 0.0}, {"is_disabled": 0, "lat": 38.88864, "bike_id": "07a0453ae1638ebf175720e7fdae32c1", "fusion_lon": 0.0, "is_reserved": 0, "type": "electric_scooter", "name": "07a0453ae1638ebf175720e7fdae32c1", "lon": -76.980195, "rental_uris": {"android": "https://dc.lft.to/lastmile_qr_scan", "ios": "https://dc.lft.to/lastmile_qr_scan"}, "fusion_lat": 0.0}, {"is_disabled": 0, "lat": 38.918872666666665, "bike_id": "e3b40e7fe3335702fa8015dd84e5d177", "fusion_lon": 0.0, "is_reserved": 0, "type": "electric_scooter", "name": "e3b40e7fe3335702fa8015dd84e5d177", "lon": -77.04156583333334, "rental_uris": {"android": "https://dc.lft.to/lastmile_qr_scan", "ios": "https://dc.lft.to/lastmile_qr_scan"}, "fusion_lat": 0.0}, {"is_disabled": 0, "lat": 38.90513633333333, "bike_id": "25e17e04187ce0e6b2360070e2ccc3dc", "fusion_lon": 0.0, "is_reserved": 0, "type": "electric_scooter", "name": "25e17e04187ce0e6b2360070e2ccc3dc", "lon": -77.0449855, "rental_uris": {"android": "https://dc.lft.to/lastmile_qr_scan", "ios": "https://dc.lft.to/lastmile_qr_scan"}, "fusion_lat": 0.0}, {"is_disabled": 0, "lat": 38.9682035, "bike_id": "c3e1fb2fccaf6a71325163aeb0ac8c93", "fusion_lon": 0.0, "is_reserved": 0, "type": "electric_scooter", "name": "c3e1fb2fccaf6a71325163aeb0ac8c93", "lon": -77.00895933333334, "rental_uris": {"android": "https://dc.lft.to/lastmile_qr_scan", "ios": "https://dc.lft.to/lastmile_qr_scan"}, "fusion_lat": 0.0}, {"is_disabled": 0, "lat": 38.956553666666665, "bike_id": "e24ef7d7501d5a744f68b8925f5e298b", "fusion_lon": 0.0, "is_reserved": 0, "type": "electric_scooter", "name": "e24ef7d7501d5a744f68b8925f5e298b", "lon": -77.01964066666666, "rental_uris": {"android": "https://dc.lft.to/lastmile_qr_scan", "ios": "https://dc.lft.to/lastmile_qr_scan"}, "fusion_lat": 0.0}, {"is_disabled": 0, "lat": 38.911047, "bike_id": "dd554feb75edb72cee62d50e7abd3d36", "fusion_lon": 0.0, "is_reserved": 0, "type": "electric_scooter", "name": "dd554feb75edb72cee62d50e7abd3d36", "lon": -77.0222855, "rental_uris": {"android": "https://dc.lft.to/lastmile_qr_scan", "ios": "https://dc.lft.to/lastmile_qr_scan"}, "fusion_lat": 0.0}, {"is_disabled": 0, "lat": 38.91918883333334, "bike_id": "01f2dd2f9a86569f90d665756ebfb397", "fusion_lon": 0.0, "is_reserved": 0, "type": "electric_scooter", "name": "01f2dd2f9a86569f90d665756ebfb397", "lon": -77.03206733333333, "rental_uris": {"android": "https://dc.lft.to/lastmile_qr_scan", "ios": "https://dc.lft.to/lastmile_qr_scan"}, "fusion_lat": 0.0}, {"is_disabled": 0, "lat": 38.894724333333336, "bike_id": "54b8bbd7103a0f9fbf78a5a030fa0e8e", "fusion_lon": 0.0, "is_reserved": 0, "type": "electric_scooter", "name": "54b8bbd7103a0f9fbf78a5a030fa0e8e", "lon": -77.01291083333334, "rental_uris": {"android": "https://dc.lft.to/lastmile_qr_scan", "ios": "https://dc.lft.to/lastmile_qr_scan"}, "fusion_lat": 0.0}, {"is_disabled": 0, "lat": 38.99342866666667, "bike_id": "ea69ef1bbc6d79e67aa8fdc53f790108", "fusion_lon": 0.0, "is_reserved": 0, "type": "electric_bike", "name": "ea69ef1bbc6d79e67aa8fdc53f790108", "lon": -77.11574983333334, "rental_uris": {"android": "https://dc.lft.to/lastmile_qr_scan", "ios": "https://dc.lft.to/lastmile_qr_scan"}, "fusion_lat": 0.0}, {"is_disabled": 0, "lat": 38.9211965, "bike_id": "34aede87f59fa80b1bb0e5dc459cc9e5", "fusion_lon": 0.0, "is_reserved": 0, "type": "electric_scooter", "name": "34aede87f59fa80b1bb0e5dc459cc9e5", "lon": -77.04422366666667, "rental_uris": {"android": "https://dc.lft.to/lastmile_qr_scan", "ios": "https://dc.lft.to/lastmile_qr_scan"}, "fusion_lat": 0.0}, {"is_disabled": 0, "lat": 38.89221, "bike_id": "0224c1b970d4dcb1c7de8393da7e6545", "fusion_lon": 0.0, "is_reserved": 0, "type": "electric_scooter", "name": "0224c1b970d4dcb1c7de8393da7e6545", "lon": -77.0137305, "rental_uris": {"android": "https://dc.lft.to/lastmile_qr_scan", "ios": "https://dc.lft.to/lastmile_qr_scan"}, "fusion_lat": 0.0}, {"is_disabled": 0, "lat": 38.90724516666667, "bike_id": "4813d4d418f851be07b37fd64c8d30f7", "fusion_lon": 0.0, "is_reserved": 0, "type": "electric_scooter", "name": "4813d4d418f851be07b37fd64c8d30f7", "lon": -76.998147, "rental_uris": {"android": "https://dc.lft.to/lastmile_qr_scan", "ios": "https://dc.lft.to/lastmile_qr_scan"}, "fusion_lat": 0.0}, {"is_disabled": 0, "lat": 38.908979, "bike_id": "2fa75e185240b29966b5077243e9a94f", "fusion_lon": 0.0, "is_reserved": 0, "type": "electric_scooter", "name": "2fa75e185240b29966b5077243e9a94f", "lon": -77.043748, "rental_uris": {"android": "https://dc.lft.to/lastmile_qr_scan", "ios": "https://dc.lft.to/lastmile_qr_scan"}, "fusion_lat": 0.0}, {"is_disabled": 0, "lat": 38.93362166666667, "bike_id": "a7dde569fd9971a69c9f8a675da58fee", "fusion_lon": 0.0, "is_reserved": 0, "type": "electric_scooter", "name": "a7dde569fd9971a69c9f8a675da58fee", "lon": -76.99117166666667, "rental_uris": {"android": "https://dc.lft.to/lastmile_qr_scan", "ios": "https://dc.lft.to/lastmile_qr_scan"}, "fusion_lat": 0.0}, {"is_disabled": 0, "lat": 38.90122733333333, "bike_id": "c736c8a0d43cf99b6f8eb3465ad6684b", "fusion_lon": 0.0, "is_reserved": 0, "type": "electric_scooter", "name": "c736c8a0d43cf99b6f8eb3465ad6684b", "lon": -77.050187, "rental_uris": {"android": "https://dc.lft.to/lastmile_qr_scan", "ios": "https://dc.lft.to/lastmile_qr_scan"}, "fusion_lat": 0.0}, {"is_disabled": 0, "lat": 38.93095783333333, "bike_id": "73ad5b76cefa328116d74ea457be194a", "fusion_lon": 0.0, "is_reserved": 0, "type": "electric_scooter", "name": "73ad5b76cefa328116d74ea457be194a", "lon": -77.03813966666667, "rental_uris": {"android": "https://dc.lft.to/lastmile_qr_scan", "ios": "https://dc.lft.to/lastmile_qr_scan"}, "fusion_lat": 0.0}, {"is_disabled": 0, "lat": 38.873380166666664, "bike_id": "be09d5921030f32d544438ee9aafcd3f", "fusion_lon": 0.0, "is_reserved": 0, "type": "electric_scooter", "name": "be09d5921030f32d544438ee9aafcd3f", "lon": -76.96782633333333, "rental_uris": {"android": "https://dc.lft.to/lastmile_qr_scan", "ios": "https://dc.lft.to/lastmile_qr_scan"}, "fusion_lat": 0.0}, {"is_disabled": 0, "lat": 38.91264666666667, "bike_id": "ced0f867b716ab6e5af6946e5073848f", "fusion_lon": 0.0, "is_reserved": 0, "type": "electric_scooter", "name": "ced0f867b716ab6e5af6946e5073848f", "lon": -77.02946083333333, "rental_uris": {"android": "https://dc.lft.to/lastmile_qr_scan", "ios": "https://dc.lft.to/lastmile_qr_scan"}, "fusion_lat": 0.0}, {"is_disabled": 0, "lat": 38.89001733333333, "bike_id": "63be299b93102be18c0f30019370464c", "fusion_lon": 0.0, "is_reserved": 0, "type": "electric_scooter", "name": "63be299b93102be18c0f30019370464c", "lon": -77.04902316666667, "rental_uris": {"android": "https://dc.lft.to/lastmile_qr_scan", "ios": "https://dc.lft.to/lastmile_qr_scan"}, "fusion_lat": 0.0}, {"is_disabled": 0, "lat": 38.916704833333334, "bike_id": "4098e19f44d2c8fbb083595140464bc5", "fusion_lon": 0.0, "is_reserved": 0, "type": "electric_scooter", "name": "4098e19f44d2c8fbb083595140464bc5", "lon": -77.02305716666666, "rental_uris": {"android": "https://dc.lft.to/lastmile_qr_scan", "ios": "https://dc.lft.to/lastmile_qr_scan"}, "fusion_lat": 0.0}, {"is_disabled": 0, "lat": 39.03671633333333, "bike_id": "d5cb2559b5aa4dedc369803b1ad52075", "fusion_lon": 0.0, "is_reserved": 0, "type": "electric_bike", "name": "d5cb2559b5aa4dedc369803b1ad52075", "lon": -77.05109966666667, "rental_uris": {"android": "https://dc.lft.to/lastmile_qr_scan", "ios": "https://dc.lft.to/lastmile_qr_scan"}, "fusion_lat": 0.0}, {"is_disabled": 0, "lat": 38.8874725, "bike_id": "9bbaeb4987ba5cf97aee02c814cb3a80", "fusion_lon": 0.0, "is_reserved": 0, "type": "electric_scooter", "name": "9bbaeb4987ba5cf97aee02c814cb3a80", "lon": -77.028481, "rental_uris": {"android": "https://dc.lft.to/lastmile_qr_scan", "ios": "https://dc.lft.to/lastmile_qr_scan"}, "fusion_lat": 0.0}, {"is_disabled": 0, "lat": 38.88633633333333, "bike_id": "afe1a45b66e29b907584f318a8ad39f7", "fusion_lon": 0.0, "is_reserved": 0, "type": "electric_scooter", "name": "afe1a45b66e29b907584f318a8ad39f7", "lon": -76.99858316666666, "rental_uris": {"android": "https://dc.lft.to/lastmile_qr_scan", "ios": "https://dc.lft.to/lastmile_qr_scan"}, "fusion_lat": 0.0}, {"is_disabled": 0, "lat": 38.892015, "bike_id": "8c5aedeb3e787bf1bd078ac6c994dfd8", "fusion_lon": 0.0, "is_reserved": 0, "type": "electric_scooter", "name": "8c5aedeb3e787bf1bd078ac6c994dfd8", "lon": -77.03880516666666, "rental_uris": {"android": "https://dc.lft.to/lastmile_qr_scan", "ios": "https://dc.lft.to/lastmile_qr_scan"}, "fusion_lat": 0.0}, {"is_disabled": 0, "lat": 38.915889666666665, "bike_id": "2fa68fcbc143051bc8f6e85390d73598", "fusion_lon": 0.0, "is_reserved": 0, "type": "electric_scooter", "name": "2fa68fcbc143051bc8f6e85390d73598", "lon": -77.03183, "rental_uris": {"android": "https://dc.lft.to/lastmile_qr_scan", "ios": "https://dc.lft.to/lastmile_qr_scan"}, "fusion_lat": 0.0}, {"is_disabled": 0, "lat": 38.9183845, "bike_id": "19a58beba06595d7271ed3eb41e8bd27", "fusion_lon": 0.0, "is_reserved": 0, "type": "electric_scooter", "name": "19a58beba06595d7271ed3eb41e8bd27", "lon": -77.012095, "rental_uris": {"android": "https://dc.lft.to/lastmile_qr_scan", "ios": "https://dc.lft.to/lastmile_qr_scan"}, "fusion_lat": 0.0}, {"is_disabled": 0, "lat": 38.903651333333336, "bike_id": "f9c5be4eb91f8eb505ffd956339e6eff", "fusion_lon": 0.0, "is_reserved": 0, "type": "electric_scooter", "name": "f9c5be4eb91f8eb505ffd956339e6eff", "lon": -77.03843916666666, "rental_uris": {"android": "https://dc.lft.to/lastmile_qr_scan", "ios": "https://dc.lft.to/lastmile_qr_scan"}, "fusion_lat": 0.0}, {"is_disabled": 0, "lat": 38.877681, "bike_id": "2a8d8ff89514c7a93eba00fecb348455", "fusion_lon": 0.0, "is_reserved": 0, "type": "electric_scooter", "name": "2a8d8ff89514c7a93eba00fecb348455", "lon": -76.96238466666667, "rental_uris": {"android": "https://dc.lft.to/lastmile_qr_scan", "ios": "https://dc.lft.to/lastmile_qr_scan"}, "fusion_lat": 0.0}, {"is_disabled": 0, "lat": 38.941829, "bike_id": "c2df80f18b5ee8acb356e0eb4f8f1399", "fusion_lon": 0.0, "is_reserved": 0, "type": "electric_scooter", "name": "c2df80f18b5ee8acb356e0eb4f8f1399", "lon": -77.0248965, "rental_uris": {"android": "https://dc.lft.to/lastmile_qr_scan", "ios": "https://dc.lft.to/lastmile_qr_scan"}, "fusion_lat": 0.0}, {"is_disabled": 0, "lat": 38.961855666666665, "bike_id": "85498ed5048520d69bcbc76eee2b8f02", "fusion_lon": 0.0, "is_reserved": 0, "type": "electric_bike", "name": "85498ed5048520d69bcbc76eee2b8f02", "lon": -77.08775033333333, "rental_uris": {"android": "https://dc.lft.to/lastmile_qr_scan", "ios": "https://dc.lft.to/lastmile_qr_scan"}, "fusion_lat": 0.0}, {"is_disabled": 0, "lat": 38.9287485, "bike_id": "e6ab320215287c5d7a53d74abdff1c7a", "fusion_lon": 0.0, "is_reserved": 0, "type": "electric_scooter", "name": "e6ab320215287c5d7a53d74abdff1c7a", "lon": -77.012314, "rental_uris": {"android": "https://dc.lft.to/lastmile_qr_scan", "ios": "https://dc.lft.to/lastmile_qr_scan"}, "fusion_lat": 0.0}, {"is_disabled": 0, "lat": 38.93408183333333, "bike_id": "ef322a97931a7dd2d776096f0708d045", "fusion_lon": 0.0, "is_reserved": 0, "type": "electric_scooter", "name": "ef322a97931a7dd2d776096f0708d045", "lon": -77.04542883333333, "rental_uris": {"android": "https://dc.lft.to/lastmile_qr_scan", "ios": "https://dc.lft.to/lastmile_qr_scan"}, "fusion_lat": 0.0}, {"is_disabled": 0, "lat": 38.9175525, "bike_id": "5b70cdb71458c43ad876e6b43725ac8d", "fusion_lon": 0.0, "is_reserved": 0, "type": "electric_scooter", "name": "5b70cdb71458c43ad876e6b43725ac8d", "lon": -77.03936666666667, "rental_uris": {"android": "https://dc.lft.to/lastmile_qr_scan", "ios": "https://dc.lft.to/lastmile_qr_scan"}, "fusion_lat": 0.0}, {"is_disabled": 0, "lat": 38.92208266666667, "bike_id": "d132563f93b9e0b85fa91d57776312c3", "fusion_lon": 0.0, "is_reserved": 0, "type": "electric_scooter", "name": "d132563f93b9e0b85fa91d57776312c3", "lon": -77.037754, "rental_uris": {"android": "https://dc.lft.to/lastmile_qr_scan", "ios": "https://dc.lft.to/lastmile_qr_scan"}, "fusion_lat": 0.0}, {"is_disabled": 0, "lat": 38.905189, "bike_id": "bac519e5ecc0131c9d997d731f38fe0c", "fusion_lon": 0.0, "is_reserved": 0, "type": "electric_scooter", "name": "bac519e5ecc0131c9d997d731f38fe0c", "lon": -77.0645115, "rental_uris": {"android": "https://dc.lft.to/lastmile_qr_scan", "ios": "https://dc.lft.to/lastmile_qr_scan"}, "fusion_lat": 0.0}, {"is_disabled": 0, "lat": 38.91573183333333, "bike_id": "d214140e41514c9fed01030d1604d7d7", "fusion_lon": 0.0, "is_reserved": 0, "type": "electric_scooter", "name": "d214140e41514c9fed01030d1604d7d7", "lon": -77.02289533333334, "rental_uris": {"android": "https://dc.lft.to/lastmile_qr_scan", "ios": "https://dc.lft.to/lastmile_qr_scan"}, "fusion_lat": 0.0}, {"is_disabled": 0, "lat": 38.92953166666667, "bike_id": "d39ca4e6cc3d3cc348ec559ef6ff3d9b", "fusion_lon": 0.0, "is_reserved": 0, "type": "electric_bike", "name": "d39ca4e6cc3d3cc348ec559ef6ff3d9b", "lon": -77.22573283333334, "rental_uris": {"android": "https://dc.lft.to/lastmile_qr_scan", "ios": "https://dc.lft.to/lastmile_qr_scan"}, "fusion_lat": 0.0}, {"is_disabled": 0, "lat": 38.9037835, "bike_id": "ff4fbbc3d5f97c1d6a597faefc2aff24", "fusion_lon": 0.0, "is_reserved": 0, "type": "electric_scooter", "name": "ff4fbbc3d5f97c1d6a597faefc2aff24", "lon": -77.04520066666667, "rental_uris": {"android": "https://dc.lft.to/lastmile_qr_scan", "ios": "https://dc.lft.to/lastmile_qr_scan"}, "fusion_lat": 0.0}, {"is_disabled": 0, "lat": 38.894854333333335, "bike_id": "cbf49baaa079d02414818c58487213ff", "fusion_lon": 0.0, "is_reserved": 0, "type": "electric_scooter", "name": "cbf49baaa079d02414818c58487213ff", "lon": -77.0022275, "rental_uris": {"android": "https://dc.lft.to/lastmile_qr_scan", "ios": "https://dc.lft.to/lastmile_qr_scan"}, "fusion_lat": 0.0}, {"is_disabled": 0, "lat": 38.89827, "bike_id": "1c412c8a188efb72e70d8b9e5cbd0a13", "fusion_lon": 0.0, "is_reserved": 0, "type": "electric_scooter", "name": "1c412c8a188efb72e70d8b9e5cbd0a13", "lon": -77.0433365, "rental_uris": {"android": "https://dc.lft.to/lastmile_qr_scan", "ios": "https://dc.lft.to/lastmile_qr_scan"}, "fusion_lat": 0.0}, {"is_disabled": 0, "lat": 38.92604033333333, "bike_id": "a2874e8e560103b3feced248e28f1721", "fusion_lon": 0.0, "is_reserved": 0, "type": "electric_scooter", "name": "a2874e8e560103b3feced248e28f1721", "lon": -77.021556, "rental_uris": {"android": "https://dc.lft.to/lastmile_qr_scan", "ios": "https://dc.lft.to/lastmile_qr_scan"}, "fusion_lat": 0.0}, {"is_disabled": 0, "lat": 38.927423166666664, "bike_id": "9a8e62ab57237230c85541726c063e99", "fusion_lon": 0.0, "is_reserved": 0, "type": "electric_scooter", "name": "9a8e62ab57237230c85541726c063e99", "lon": -77.02535783333333, "rental_uris": {"android": "https://dc.lft.to/lastmile_qr_scan", "ios": "https://dc.lft.to/lastmile_qr_scan"}, "fusion_lat": 0.0}, {"is_disabled": 0, "lat": 38.907203333333335, "bike_id": "70ddd409f8e6e594e1c178fd1bcf53b9", "fusion_lon": 0.0, "is_reserved": 0, "type": "electric_scooter", "name": "70ddd409f8e6e594e1c178fd1bcf53b9", "lon": -77.04497366666666, "rental_uris": {"android": "https://dc.lft.to/lastmile_qr_scan", "ios": "https://dc.lft.to/lastmile_qr_scan"}, "fusion_lat": 0.0}, {"is_disabled": 0, "lat": 38.9072315, "bike_id": "591b6937be278dc359687a8a35a853dd", "fusion_lon": 0.0, "is_reserved": 0, "type": "electric_scooter", "name": "591b6937be278dc359687a8a35a853dd", "lon": -77.0416885, "rental_uris": {"android": "https://dc.lft.to/lastmile_qr_scan", "ios": "https://dc.lft.to/lastmile_qr_scan"}, "fusion_lat": 0.0}, {"is_disabled": 0, "lat": 38.94361266666667, "bike_id": "b444694780785fb9116127c609ea50ca", "fusion_lon": 0.0, "is_reserved": 0, "type": "electric_scooter", "name": "b444694780785fb9116127c609ea50ca", "lon": -77.06130483333334, "rental_uris": {"android": "https://dc.lft.to/lastmile_qr_scan", "ios": "https://dc.lft.to/lastmile_qr_scan"}, "fusion_lat": 0.0}, {"is_disabled": 0, "lat": 38.90736366666667, "bike_id": "00de70b9a80a938e5540c2641aea2294", "fusion_lon": 0.0, "is_reserved": 0, "type": "electric_scooter", "name": "00de70b9a80a938e5540c2641aea2294", "lon": -77.04666533333334, "rental_uris": {"android": "https://dc.lft.to/lastmile_qr_scan", "ios": "https://dc.lft.to/lastmile_qr_scan"}, "fusion_lat": 0.0}, {"is_disabled": 0, "lat": 38.92873066666667, "bike_id": "00eaf44dbc0d4f123a0815424e0bbafd", "fusion_lon": 0.0, "is_reserved": 0, "type": "electric_scooter", "name": "00eaf44dbc0d4f123a0815424e0bbafd", "lon": -77.03441383333333, "rental_uris": {"android": "https://dc.lft.to/lastmile_qr_scan", "ios": "https://dc.lft.to/lastmile_qr_scan"}, "fusion_lat": 0.0}, {"is_disabled": 0, "lat": 38.9072915, "bike_id": "19befe6aecad90e2e7901075e80e99a0", "fusion_lon": 0.0, "is_reserved": 0, "type": "electric_scooter", "name": "19befe6aecad90e2e7901075e80e99a0", "lon": -77.048309, "rental_uris": {"android": "https://dc.lft.to/lastmile_qr_scan", "ios": "https://dc.lft.to/lastmile_qr_scan"}, "fusion_lat": 0.0}, {"is_disabled": 0, "lat": 38.9199515, "bike_id": "0fb55c1f9e695a701e6a65c93ffe1851", "fusion_lon": 0.0, "is_reserved": 0, "type": "electric_bike", "name": "0fb55c1f9e695a701e6a65c93ffe1851", "lon": -77.0476195, "rental_uris": {"android": "https://dc.lft.to/lastmile_qr_scan", "ios": "https://dc.lft.to/lastmile_qr_scan"}, "fusion_lat": 0.0}, {"is_disabled": 0, "lat": 38.932498833333334, "bike_id": "8a5b00971dbcebd8af8bd093c21c3d9e", "fusion_lon": 0.0, "is_reserved": 0, "type": "electric_scooter", "name": "8a5b00971dbcebd8af8bd093c21c3d9e", "lon": -77.03280033333333, "rental_uris": {"android": "https://dc.lft.to/lastmile_qr_scan", "ios": "https://dc.lft.to/lastmile_qr_scan"}, "fusion_lat": 0.0}, {"is_disabled": 0, "lat": 38.90965816666667, "bike_id": "66cb8c4b4302dda7c7268141a1b664c8", "fusion_lon": 0.0, "is_reserved": 0, "type": "electric_scooter", "name": "66cb8c4b4302dda7c7268141a1b664c8", "lon": -77.034262, "rental_uris": {"android": "https://dc.lft.to/lastmile_qr_scan", "ios": "https://dc.lft.to/lastmile_qr_scan"}, "fusion_lat": 0.0}, {"is_disabled": 0, "lat": 38.918057166666664, "bike_id": "981ac50cfa4529a836cecc1b4455e7ec", "fusion_lon": 0.0, "is_reserved": 0, "type": "electric_scooter", "name": "981ac50cfa4529a836cecc1b4455e7ec", "lon": -77.0343385, "rental_uris": {"android": "https://dc.lft.to/lastmile_qr_scan", "ios": "https://dc.lft.to/lastmile_qr_scan"}, "fusion_lat": 0.0}, {"is_disabled": 0, "lat": 38.924432, "bike_id": "9939607abfedfc0b73ea919607139586", "fusion_lon": 0.0, "is_reserved": 0, "type": "electric_scooter", "name": "9939607abfedfc0b73ea919607139586", "lon": -77.01958783333333, "rental_uris": {"android": "https://dc.lft.to/lastmile_qr_scan", "ios": "https://dc.lft.to/lastmile_qr_scan"}, "fusion_lat": 0.0}, {"is_disabled": 0, "lat": 38.9267545, "bike_id": "17d749317eb00bbdcaea9fd4a8208546", "fusion_lon": 0.0, "is_reserved": 0, "type": "electric_scooter", "name": "17d749317eb00bbdcaea9fd4a8208546", "lon": -77.00759883333333, "rental_uris": {"android": "https://dc.lft.to/lastmile_qr_scan", "ios": "https://dc.lft.to/lastmile_qr_scan"}, "fusion_lat": 0.0}, {"is_disabled": 0, "lat": 38.8877035, "bike_id": "d7b1690af5db034891a0e85ccdb9f01f", "fusion_lon": 0.0, "is_reserved": 0, "type": "electric_scooter", "name": "d7b1690af5db034891a0e85ccdb9f01f", "lon": -77.03168633333334, "rental_uris": {"android": "https://dc.lft.to/lastmile_qr_scan", "ios": "https://dc.lft.to/lastmile_qr_scan"}, "fusion_lat": 0.0}, {"is_disabled": 0, "lat": 38.872195, "bike_id": "8d76ceb0260fbc0ddb927f101dc5a11d", "fusion_lon": 0.0, "is_reserved": 0, "type": "electric_scooter", "name": "8d76ceb0260fbc0ddb927f101dc5a11d", "lon": -77.01770233333333, "rental_uris": {"android": "https://dc.lft.to/lastmile_qr_scan", "ios": "https://dc.lft.to/lastmile_qr_scan"}, "fusion_lat": 0.0}, {"is_disabled": 0, "lat": 38.91761666666667, "bike_id": "62b98c9dae4fad8e2d41cf93fa054c6b", "fusion_lon": 0.0, "is_reserved": 0, "type": "electric_scooter", "name": "62b98c9dae4fad8e2d41cf93fa054c6b", "lon": -77.024047, "rental_uris": {"android": "https://dc.lft.to/lastmile_qr_scan", "ios": "https://dc.lft.to/lastmile_qr_scan"}, "fusion_lat": 0.0}, {"is_disabled": 0, "lat": 38.87740133333333, "bike_id": "ab5f443a9e893cf8b5196134211b6665", "fusion_lon": 0.0, "is_reserved": 0, "type": "electric_bike", "name": "ab5f443a9e893cf8b5196134211b6665", "lon": -77.118522, "rental_uris": {"android": "https://dc.lft.to/lastmile_qr_scan", "ios": "https://dc.lft.to/lastmile_qr_scan"}, "fusion_lat": 0.0}, {"is_disabled": 0, "lat": 38.911879666666664, "bike_id": "8e6c30a50841661f89c424392fe475b6", "fusion_lon": 0.0, "is_reserved": 0, "type": "electric_scooter", "name": "8e6c30a50841661f89c424392fe475b6", "lon": -77.0396475, "rental_uris": {"android": "https://dc.lft.to/lastmile_qr_scan", "ios": "https://dc.lft.to/lastmile_qr_scan"}, "fusion_lat": 0.0}, {"is_disabled": 0, "lat": 38.963487, "bike_id": "6f598a05b5aec2c1fb60dc8d3196297d", "fusion_lon": 0.0, "is_reserved": 0, "type": "electric_scooter", "name": "6f598a05b5aec2c1fb60dc8d3196297d", "lon": -77.01055016666666, "rental_uris": {"android": "https://dc.lft.to/lastmile_qr_scan", "ios": "https://dc.lft.to/lastmile_qr_scan"}, "fusion_lat": 0.0}, {"is_disabled": 0, "lat": 38.8964265, "bike_id": "abf9faf95b06dc7a1d208fc6d81c8967", "fusion_lon": 0.0, "is_reserved": 0, "type": "electric_scooter", "name": "abf9faf95b06dc7a1d208fc6d81c8967", "lon": -76.99939266666667, "rental_uris": {"android": "https://dc.lft.to/lastmile_qr_scan", "ios": "https://dc.lft.to/lastmile_qr_scan"}, "fusion_lat": 0.0}, {"is_disabled": 0, "lat": 38.92567533333333, "bike_id": "ac9bd1449b1866d2da61d97d0b601432", "fusion_lon": 0.0, "is_reserved": 0, "type": "electric_scooter", "name": "ac9bd1449b1866d2da61d97d0b601432", "lon": -77.0376905, "rental_uris": {"android": "https://dc.lft.to/lastmile_qr_scan", "ios": "https://dc.lft.to/lastmile_qr_scan"}, "fusion_lat": 0.0}, {"is_disabled": 0, "lat": 38.902415500000004, "bike_id": "ebecab7cd95d18d1af45e52c39258f23", "fusion_lon": 0.0, "is_reserved": 0, "type": "electric_scooter", "name": "ebecab7cd95d18d1af45e52c39258f23", "lon": -77.02137916666666, "rental_uris": {"android": "https://dc.lft.to/lastmile_qr_scan", "ios": "https://dc.lft.to/lastmile_qr_scan"}, "fusion_lat": 0.0}, {"is_disabled": 0, "lat": 38.923703333333336, "bike_id": "8de592d1d214c5ad0e861a0e654dd07d", "fusion_lon": 0.0, "is_reserved": 0, "type": "electric_scooter", "name": "8de592d1d214c5ad0e861a0e654dd07d", "lon": -77.05036633333333, "rental_uris": {"android": "https://dc.lft.to/lastmile_qr_scan", "ios": "https://dc.lft.to/lastmile_qr_scan"}, "fusion_lat": 0.0}, {"is_disabled": 0, "lat": 38.92471533333333, "bike_id": "8b2506dffdd9dac091262a683bf20b92", "fusion_lon": 0.0, "is_reserved": 0, "type": "electric_scooter", "name": "8b2506dffdd9dac091262a683bf20b92", "lon": -77.03915266666667, "rental_uris": {"android": "https://dc.lft.to/lastmile_qr_scan", "ios": "https://dc.lft.to/lastmile_qr_scan"}, "fusion_lat": 0.0}, {"is_disabled": 0, "lat": 38.92671633333333, "bike_id": "5d9c7cda47f9a70ca9edbd37fd9fa324", "fusion_lon": 0.0, "is_reserved": 0, "type": "electric_scooter", "name": "5d9c7cda47f9a70ca9edbd37fd9fa324", "lon": -77.043182, "rental_uris": {"android": "https://dc.lft.to/lastmile_qr_scan", "ios": "https://dc.lft.to/lastmile_qr_scan"}, "fusion_lat": 0.0}, {"is_disabled": 0, "lat": 38.866544833333336, "bike_id": "3a655bc435fe4b16ce6bd34ac69e70f1", "fusion_lon": 0.0, "is_reserved": 0, "type": "electric_scooter", "name": "3a655bc435fe4b16ce6bd34ac69e70f1", "lon": -76.9888695, "rental_uris": {"android": "https://dc.lft.to/lastmile_qr_scan", "ios": "https://dc.lft.to/lastmile_qr_scan"}, "fusion_lat": 0.0}, {"is_disabled": 0, "lat": 38.89012833333334, "bike_id": "e9593ab41d13b76e2e570289d068b66c", "fusion_lon": 0.0, "is_reserved": 0, "type": "electric_scooter", "name": "e9593ab41d13b76e2e570289d068b66c", "lon": -76.9373085, "rental_uris": {"android": "https://dc.lft.to/lastmile_qr_scan", "ios": "https://dc.lft.to/lastmile_qr_scan"}, "fusion_lat": 0.0}, {"is_disabled": 0, "lat": 38.916404, "bike_id": "a0f18411c9f187d4d1a95cf0876c00bb", "fusion_lon": 0.0, "is_reserved": 0, "type": "electric_scooter", "name": "a0f18411c9f187d4d1a95cf0876c00bb", "lon": -76.98244616666666, "rental_uris": {"android": "https://dc.lft.to/lastmile_qr_scan", "ios": "https://dc.lft.to/lastmile_qr_scan"}, "fusion_lat": 0.0}, {"is_disabled": 0, "lat": 38.89447916666667, "bike_id": "ae7e1699f0e8bcb8f84b8bf7c336c578", "fusion_lon": 0.0, "is_reserved": 0, "type": "electric_scooter", "name": "ae7e1699f0e8bcb8f84b8bf7c336c578", "lon": -77.00188333333334, "rental_uris": {"android": "https://dc.lft.to/lastmile_qr_scan", "ios": "https://dc.lft.to/lastmile_qr_scan"}, "fusion_lat": 0.0}, {"is_disabled": 0, "lat": 38.89884933333333, "bike_id": "8514ad2f1b0b5656ed25b745d402f81a", "fusion_lon": 0.0, "is_reserved": 0, "type": "electric_scooter", "name": "8514ad2f1b0b5656ed25b745d402f81a", "lon": -77.053806, "rental_uris": {"android": "https://dc.lft.to/lastmile_qr_scan", "ios": "https://dc.lft.to/lastmile_qr_scan"}, "fusion_lat": 0.0}, {"is_disabled": 0, "lat": 38.927182333333334, "bike_id": "423779edc67d92cd12d0dd8bc206084b", "fusion_lon": 0.0, "is_reserved": 0, "type": "electric_scooter", "name": "423779edc67d92cd12d0dd8bc206084b", "lon": -77.03095416666666, "rental_uris": {"android": "https://dc.lft.to/lastmile_qr_scan", "ios": "https://dc.lft.to/lastmile_qr_scan"}, "fusion_lat": 0.0}, {"is_disabled": 0, "lat": 38.86746333333333, "bike_id": "8b4de222839e765c540cfa2f727665e8", "fusion_lon": 0.0, "is_reserved": 0, "type": "electric_scooter", "name": "8b4de222839e765c540cfa2f727665e8", "lon": -76.98805333333334, "rental_uris": {"android": "https://dc.lft.to/lastmile_qr_scan", "ios": "https://dc.lft.to/lastmile_qr_scan"}, "fusion_lat": 0.0}, {"is_disabled": 0, "lat": 38.93940466666667, "bike_id": "a15ae2064d4771dc8d76df3e18581b5d", "fusion_lon": 0.0, "is_reserved": 0, "type": "electric_scooter", "name": "a15ae2064d4771dc8d76df3e18581b5d", "lon": -77.03607066666666, "rental_uris": {"android": "https://dc.lft.to/lastmile_qr_scan", "ios": "https://dc.lft.to/lastmile_qr_scan"}, "fusion_lat": 0.0}, {"is_disabled": 0, "lat": 38.9325135, "bike_id": "c3572b639e29aad77b2444fbd7c45432", "fusion_lon": 0.0, "is_reserved": 0, "type": "electric_scooter", "name": "c3572b639e29aad77b2444fbd7c45432", "lon": -77.032615, "rental_uris": {"android": "https://dc.lft.to/lastmile_qr_scan", "ios": "https://dc.lft.to/lastmile_qr_scan"}, "fusion_lat": 0.0}, {"is_disabled": 0, "lat": 38.919834333333334, "bike_id": "5a06ec0b71a8d474242caaa7f8919e21", "fusion_lon": 0.0, "is_reserved": 0, "type": "electric_scooter", "name": "5a06ec0b71a8d474242caaa7f8919e21", "lon": -77.02382666666666, "rental_uris": {"android": "https://dc.lft.to/lastmile_qr_scan", "ios": "https://dc.lft.to/lastmile_qr_scan"}, "fusion_lat": 0.0}, {"is_disabled": 0, "lat": 38.93536666666667, "bike_id": "4569229ef224bf9859d1f6ebc5ff9da1", "fusion_lon": 0.0, "is_reserved": 0, "type": "electric_scooter", "name": "4569229ef224bf9859d1f6ebc5ff9da1", "lon": -77.023488, "rental_uris": {"android": "https://dc.lft.to/lastmile_qr_scan", "ios": "https://dc.lft.to/lastmile_qr_scan"}, "fusion_lat": 0.0}, {"is_disabled": 0, "lat": 38.9311365, "bike_id": "1ef08b4665aba21b35b420bfa77dbdfe", "fusion_lon": 0.0, "is_reserved": 0, "type": "electric_scooter", "name": "1ef08b4665aba21b35b420bfa77dbdfe", "lon": -77.07902766666666, "rental_uris": {"android": "https://dc.lft.to/lastmile_qr_scan", "ios": "https://dc.lft.to/lastmile_qr_scan"}, "fusion_lat": 0.0}, {"is_disabled": 0, "lat": 38.903185666666666, "bike_id": "3c3017cb92821e9ce5be690632144393", "fusion_lon": 0.0, "is_reserved": 0, "type": "electric_scooter", "name": "3c3017cb92821e9ce5be690632144393", "lon": -76.9814365, "rental_uris": {"android": "https://dc.lft.to/lastmile_qr_scan", "ios": "https://dc.lft.to/lastmile_qr_scan"}, "fusion_lat": 0.0}, {"is_disabled": 0, "lat": 38.902617666666664, "bike_id": "b8bddf332259db6549c1a8bb9377229a", "fusion_lon": 0.0, "is_reserved": 0, "type": "electric_scooter", "name": "b8bddf332259db6549c1a8bb9377229a", "lon": -77.03957966666667, "rental_uris": {"android": "https://dc.lft.to/lastmile_qr_scan", "ios": "https://dc.lft.to/lastmile_qr_scan"}, "fusion_lat": 0.0}, {"is_disabled": 0, "lat": 38.927465, "bike_id": "c54ee645591af8a7391301ef787bb424", "fusion_lon": 0.0, "is_reserved": 0, "type": "electric_scooter", "name": "c54ee645591af8a7391301ef787bb424", "lon": -77.02481666666667, "rental_uris": {"android": "https://dc.lft.to/lastmile_qr_scan", "ios": "https://dc.lft.to/lastmile_qr_scan"}, "fusion_lat": 0.0}, {"is_disabled": 0, "lat": 38.9037205, "bike_id": "625324692cd21c92f9ed5f382e0ba8ad", "fusion_lon": 0.0, "is_reserved": 0, "type": "electric_scooter", "name": "625324692cd21c92f9ed5f382e0ba8ad", "lon": -77.03860133333333, "rental_uris": {"android": "https://dc.lft.to/lastmile_qr_scan", "ios": "https://dc.lft.to/lastmile_qr_scan"}, "fusion_lat": 0.0}, {"is_disabled": 0, "lat": 38.93226333333333, "bike_id": "f14bf62686c314c1eac3c33f70f02133", "fusion_lon": 0.0, "is_reserved": 0, "type": "electric_scooter", "name": "f14bf62686c314c1eac3c33f70f02133", "lon": -77.030339, "rental_uris": {"android": "https://dc.lft.to/lastmile_qr_scan", "ios": "https://dc.lft.to/lastmile_qr_scan"}, "fusion_lat": 0.0}, {"is_disabled": 0, "lat": 38.91705416666667, "bike_id": "5dab853c9dde15f08a5d5cbd201e8977", "fusion_lon": 0.0, "is_reserved": 0, "type": "electric_scooter", "name": "5dab853c9dde15f08a5d5cbd201e8977", "lon": -77.04125233333333, "rental_uris": {"android": "https://dc.lft.to/lastmile_qr_scan", "ios": "https://dc.lft.to/lastmile_qr_scan"}, "fusion_lat": 0.0}, {"is_disabled": 0, "lat": 38.905273666666666, "bike_id": "0630af8d58fa9bb42ef3cba3797e50e6", "fusion_lon": 0.0, "is_reserved": 0, "type": "electric_scooter", "name": "0630af8d58fa9bb42ef3cba3797e50e6", "lon": -76.98305033333334, "rental_uris": {"android": "https://dc.lft.to/lastmile_qr_scan", "ios": "https://dc.lft.to/lastmile_qr_scan"}, "fusion_lat": 0.0}, {"is_disabled": 0, "lat": 38.878872666666666, "bike_id": "e34125ae6d1fbffa59676fd90db4d15a", "fusion_lon": 0.0, "is_reserved": 0, "type": "electric_scooter", "name": "e34125ae6d1fbffa59676fd90db4d15a", "lon": -77.0228625, "rental_uris": {"android": "https://dc.lft.to/lastmile_qr_scan", "ios": "https://dc.lft.to/lastmile_qr_scan"}, "fusion_lat": 0.0}, {"is_disabled": 0, "lat": 38.926746333333334, "bike_id": "cc75abc52cb2d3baa86ac124e9a4eba8", "fusion_lon": 0.0, "is_reserved": 0, "type": "electric_scooter", "name": "cc75abc52cb2d3baa86ac124e9a4eba8", "lon": -77.02995716666666, "rental_uris": {"android": "https://dc.lft.to/lastmile_qr_scan", "ios": "https://dc.lft.to/lastmile_qr_scan"}, "fusion_lat": 0.0}, {"is_disabled": 0, "lat": 38.952453, "bike_id": "2a5a2083584557f68fc8bfb5f2782c71", "fusion_lon": 0.0, "is_reserved": 0, "type": "electric_bike", "name": "2a5a2083584557f68fc8bfb5f2782c71", "lon": -76.9767095, "rental_uris": {"android": "https://dc.lft.to/lastmile_qr_scan", "ios": "https://dc.lft.to/lastmile_qr_scan"}, "fusion_lat": 0.0}, {"is_disabled": 0, "lat": 38.94202216666667, "bike_id": "76e9d61768d3e294fcca4afcfb4faa6b", "fusion_lon": 0.0, "is_reserved": 0, "type": "electric_scooter", "name": "76e9d61768d3e294fcca4afcfb4faa6b", "lon": -77.02495816666666, "rental_uris": {"android": "https://dc.lft.to/lastmile_qr_scan", "ios": "https://dc.lft.to/lastmile_qr_scan"}, "fusion_lat": 0.0}, {"is_disabled": 0, "lat": 38.918673, "bike_id": "a62d3dca3c4d26643c5e322ccce7a551", "fusion_lon": 0.0, "is_reserved": 0, "type": "electric_scooter", "name": "a62d3dca3c4d26643c5e322ccce7a551", "lon": -77.0405335, "rental_uris": {"android": "https://dc.lft.to/lastmile_qr_scan", "ios": "https://dc.lft.to/lastmile_qr_scan"}, "fusion_lat": 0.0}, {"is_disabled": 0, "lat": 38.941415166666665, "bike_id": "a1c17e5ee992f200529bf7e40eba3ce9", "fusion_lon": 0.0, "is_reserved": 0, "type": "electric_scooter", "name": "a1c17e5ee992f200529bf7e40eba3ce9", "lon": -77.02550533333333, "rental_uris": {"android": "https://dc.lft.to/lastmile_qr_scan", "ios": "https://dc.lft.to/lastmile_qr_scan"}, "fusion_lat": 0.0}, {"is_disabled": 0, "lat": 38.9165815, "bike_id": "6deebd7ed2e8cdb48ddeb85eb163aee3", "fusion_lon": 0.0, "is_reserved": 0, "type": "electric_scooter", "name": "6deebd7ed2e8cdb48ddeb85eb163aee3", "lon": -77.03844816666667, "rental_uris": {"android": "https://dc.lft.to/lastmile_qr_scan", "ios": "https://dc.lft.to/lastmile_qr_scan"}, "fusion_lat": 0.0}, {"is_disabled": 0, "lat": 38.9204225, "bike_id": "591c4c198376c0a8c1283697f2438753", "fusion_lon": 0.0, "is_reserved": 0, "type": "electric_bike", "name": "591c4c198376c0a8c1283697f2438753", "lon": -76.99332883333334, "rental_uris": {"android": "https://dc.lft.to/lastmile_qr_scan", "ios": "https://dc.lft.to/lastmile_qr_scan"}, "fusion_lat": 0.0}, {"is_disabled": 0, "lat": 38.9223905, "bike_id": "f2295a007fc50d8acf439aeabd46316e", "fusion_lon": 0.0, "is_reserved": 0, "type": "electric_scooter", "name": "f2295a007fc50d8acf439aeabd46316e", "lon": -77.03352283333334, "rental_uris": {"android": "https://dc.lft.to/lastmile_qr_scan", "ios": "https://dc.lft.to/lastmile_qr_scan"}, "fusion_lat": 0.0}, {"is_disabled": 0, "lat": 38.8888815, "bike_id": "aef9c261073306b4c0fa15751f88cb1e", "fusion_lon": 0.0, "is_reserved": 0, "type": "electric_scooter", "name": "aef9c261073306b4c0fa15751f88cb1e", "lon": -77.033245, "rental_uris": {"android": "https://dc.lft.to/lastmile_qr_scan", "ios": "https://dc.lft.to/lastmile_qr_scan"}, "fusion_lat": 0.0}, {"is_disabled": 0, "lat": 38.95021066666666, "bike_id": "7dc3c3d3974c18824aa80b65e4be3006", "fusion_lon": 0.0, "is_reserved": 0, "type": "electric_scooter", "name": "7dc3c3d3974c18824aa80b65e4be3006", "lon": -77.01966566666667, "rental_uris": {"android": "https://dc.lft.to/lastmile_qr_scan", "ios": "https://dc.lft.to/lastmile_qr_scan"}, "fusion_lat": 0.0}, {"is_disabled": 0, "lat": 38.905488166666665, "bike_id": "ca23482004443ccd36c83a45c7b9884a", "fusion_lon": 0.0, "is_reserved": 0, "type": "electric_scooter", "name": "ca23482004443ccd36c83a45c7b9884a", "lon": -77.050128, "rental_uris": {"android": "https://dc.lft.to/lastmile_qr_scan", "ios": "https://dc.lft.to/lastmile_qr_scan"}, "fusion_lat": 0.0}, {"is_disabled": 0, "lat": 38.88470016666667, "bike_id": "d5b24b0b938ab32c5d52d5f4d2cea1be", "fusion_lon": 0.0, "is_reserved": 0, "type": "electric_scooter", "name": "d5b24b0b938ab32c5d52d5f4d2cea1be", "lon": -76.95408683333333, "rental_uris": {"android": "https://dc.lft.to/lastmile_qr_scan", "ios": "https://dc.lft.to/lastmile_qr_scan"}, "fusion_lat": 0.0}, {"is_disabled": 0, "lat": 38.9103065, "bike_id": "343957248818e0e8cd8039ef7442eb1c", "fusion_lon": 0.0, "is_reserved": 0, "type": "electric_scooter", "name": "343957248818e0e8cd8039ef7442eb1c", "lon": -77.02172666666667, "rental_uris": {"android": "https://dc.lft.to/lastmile_qr_scan", "ios": "https://dc.lft.to/lastmile_qr_scan"}, "fusion_lat": 0.0}, {"is_disabled": 0, "lat": 38.86626116666667, "bike_id": "ac0e26578dafd554012b567106459890", "fusion_lon": 0.0, "is_reserved": 0, "type": "electric_scooter", "name": "ac0e26578dafd554012b567106459890", "lon": -76.9871545, "rental_uris": {"android": "https://dc.lft.to/lastmile_qr_scan", "ios": "https://dc.lft.to/lastmile_qr_scan"}, "fusion_lat": 0.0}, {"is_disabled": 0, "lat": 38.88732016666667, "bike_id": "3e257aed8a1fa755afd017dbc2b974e3", "fusion_lon": 0.0, "is_reserved": 0, "type": "electric_scooter", "name": "3e257aed8a1fa755afd017dbc2b974e3", "lon": -77.02829683333333, "rental_uris": {"android": "https://dc.lft.to/lastmile_qr_scan", "ios": "https://dc.lft.to/lastmile_qr_scan"}, "fusion_lat": 0.0}, {"is_disabled": 0, "lat": 38.906654333333336, "bike_id": "5e8dd61819efe19e312b812b6ef97d6d", "fusion_lon": 0.0, "is_reserved": 0, "type": "electric_scooter", "name": "5e8dd61819efe19e312b812b6ef97d6d", "lon": -77.02702933333333, "rental_uris": {"android": "https://dc.lft.to/lastmile_qr_scan", "ios": "https://dc.lft.to/lastmile_qr_scan"}, "fusion_lat": 0.0}, {"is_disabled": 0, "lat": 38.89968283333333, "bike_id": "de32c3f85087d7aca30cdf5568d001d9", "fusion_lon": 0.0, "is_reserved": 0, "type": "electric_scooter", "name": "de32c3f85087d7aca30cdf5568d001d9", "lon": -77.0418975, "rental_uris": {"android": "https://dc.lft.to/lastmile_qr_scan", "ios": "https://dc.lft.to/lastmile_qr_scan"}, "fusion_lat": 0.0}, {"is_disabled": 0, "lat": 39.00001916666667, "bike_id": "66735ea202e9eeb4dc507c112280d765", "fusion_lon": 0.0, "is_reserved": 0, "type": "electric_bike", "name": "66735ea202e9eeb4dc507c112280d765", "lon": -76.91805233333334, "rental_uris": {"android": "https://dc.lft.to/lastmile_qr_scan", "ios": "https://dc.lft.to/lastmile_qr_scan"}, "fusion_lat": 0.0}, {"is_disabled": 0, "lat": 38.8982635, "bike_id": "fecdf5c443d6c3065e50a987f4b121bb", "fusion_lon": 0.0, "is_reserved": 0, "type": "electric_scooter", "name": "fecdf5c443d6c3065e50a987f4b121bb", "lon": -77.029539, "rental_uris": {"android": "https://dc.lft.to/lastmile_qr_scan", "ios": "https://dc.lft.to/lastmile_qr_scan"}, "fusion_lat": 0.0}, {"is_disabled": 0, "lat": 38.90537116666667, "bike_id": "f33a86970e2ea476223cb6afe65d1a3a", "fusion_lon": 0.0, "is_reserved": 0, "type": "electric_scooter", "name": "f33a86970e2ea476223cb6afe65d1a3a", "lon": -77.05059566666667, "rental_uris": {"android": "https://dc.lft.to/lastmile_qr_scan", "ios": "https://dc.lft.to/lastmile_qr_scan"}, "fusion_lat": 0.0}, {"is_disabled": 0, "lat": 38.90152483333333, "bike_id": "8c7e452bc57b77885ce7d6732faa84c0", "fusion_lon": 0.0, "is_reserved": 0, "type": "electric_scooter", "name": "8c7e452bc57b77885ce7d6732faa84c0", "lon": -77.05917633333334, "rental_uris": {"android": "https://dc.lft.to/lastmile_qr_scan", "ios": "https://dc.lft.to/lastmile_qr_scan"}, "fusion_lat": 0.0}, {"is_disabled": 0, "lat": 38.87920883333334, "bike_id": "a05e976667e6d087a3e3956ae3d475f3", "fusion_lon": 0.0, "is_reserved": 0, "type": "electric_scooter", "name": "a05e976667e6d087a3e3956ae3d475f3", "lon": -77.0215635, "rental_uris": {"android": "https://dc.lft.to/lastmile_qr_scan", "ios": "https://dc.lft.to/lastmile_qr_scan"}, "fusion_lat": 0.0}, {"is_disabled": 0, "lat": 38.90552383333333, "bike_id": "227ea15b10513c5cc2092ff59fccfe6e", "fusion_lon": 0.0, "is_reserved": 0, "type": "electric_scooter", "name": "227ea15b10513c5cc2092ff59fccfe6e", "lon": -77.00707383333334, "rental_uris": {"android": "https://dc.lft.to/lastmile_qr_scan", "ios": "https://dc.lft.to/lastmile_qr_scan"}, "fusion_lat": 0.0}, {"is_disabled": 0, "lat": 38.90757216666667, "bike_id": "b1810bf0d2c984efc2d293549046c444", "fusion_lon": 0.0, "is_reserved": 0, "type": "electric_scooter", "name": "b1810bf0d2c984efc2d293549046c444", "lon": -77.03579116666667, "rental_uris": {"android": "https://dc.lft.to/lastmile_qr_scan", "ios": "https://dc.lft.to/lastmile_qr_scan"}, "fusion_lat": 0.0}, {"is_disabled": 0, "lat": 38.8973095, "bike_id": "be7f216d0e915a2154005c5b6fe64aee", "fusion_lon": 0.0, "is_reserved": 0, "type": "electric_scooter", "name": "be7f216d0e915a2154005c5b6fe64aee", "lon": -77.00373766666667, "rental_uris": {"android": "https://dc.lft.to/lastmile_qr_scan", "ios": "https://dc.lft.to/lastmile_qr_scan"}, "fusion_lat": 0.0}, {"is_disabled": 0, "lat": 38.95634783333333, "bike_id": "20b5abfb2978c7a74036fcf635050d67", "fusion_lon": 0.0, "is_reserved": 0, "type": "electric_bike", "name": "20b5abfb2978c7a74036fcf635050d67", "lon": -76.93873983333333, "rental_uris": {"android": "https://dc.lft.to/lastmile_qr_scan", "ios": "https://dc.lft.to/lastmile_qr_scan"}, "fusion_lat": 0.0}, {"is_disabled": 0, "lat": 38.88033, "bike_id": "d88dc81827dbdfbb53fddf0a925fa573", "fusion_lon": 0.0, "is_reserved": 0, "type": "electric_scooter", "name": "d88dc81827dbdfbb53fddf0a925fa573", "lon": -77.01135433333333, "rental_uris": {"android": "https://dc.lft.to/lastmile_qr_scan", "ios": "https://dc.lft.to/lastmile_qr_scan"}, "fusion_lat": 0.0}, {"is_disabled": 0, "lat": 38.87294133333333, "bike_id": "6e9494e83234b7accc7e1478de7ce425", "fusion_lon": 0.0, "is_reserved": 0, "type": "electric_scooter", "name": "6e9494e83234b7accc7e1478de7ce425", "lon": -77.00985016666667, "rental_uris": {"android": "https://dc.lft.to/lastmile_qr_scan", "ios": "https://dc.lft.to/lastmile_qr_scan"}, "fusion_lat": 0.0}, {"is_disabled": 0, "lat": 38.897928666666665, "bike_id": "e95b3b273090c4d0ba85356ad540c22a", "fusion_lon": 0.0, "is_reserved": 0, "type": "electric_scooter", "name": "e95b3b273090c4d0ba85356ad540c22a", "lon": -77.02651366666667, "rental_uris": {"android": "https://dc.lft.to/lastmile_qr_scan", "ios": "https://dc.lft.to/lastmile_qr_scan"}, "fusion_lat": 0.0}, {"is_disabled": 0, "lat": 38.9174485, "bike_id": "bf31ee24be4d31c2fe946635948d45b7", "fusion_lon": 0.0, "is_reserved": 0, "type": "electric_scooter", "name": "bf31ee24be4d31c2fe946635948d45b7", "lon": -77.04152916666666, "rental_uris": {"android": "https://dc.lft.to/lastmile_qr_scan", "ios": "https://dc.lft.to/lastmile_qr_scan"}, "fusion_lat": 0.0}, {"is_disabled": 0, "lat": 38.909680333333334, "bike_id": "60503def90a13873fc2698a8a3ee9f9a", "fusion_lon": 0.0, "is_reserved": 0, "type": "electric_scooter", "name": "60503def90a13873fc2698a8a3ee9f9a", "lon": -77.01804983333334, "rental_uris": {"android": "https://dc.lft.to/lastmile_qr_scan", "ios": "https://dc.lft.to/lastmile_qr_scan"}, "fusion_lat": 0.0}, {"is_disabled": 0, "lat": 38.87667616666667, "bike_id": "16281073fd1fca8378dcae32c1113ff1", "fusion_lon": 0.0, "is_reserved": 0, "type": "electric_bike", "name": "16281073fd1fca8378dcae32c1113ff1", "lon": -77.020874, "rental_uris": {"android": "https://dc.lft.to/lastmile_qr_scan", "ios": "https://dc.lft.to/lastmile_qr_scan"}, "fusion_lat": 0.0}, {"is_disabled": 0, "lat": 38.90375383333333, "bike_id": "3d96be357cf430cf8bd3f58618bed345", "fusion_lon": 0.0, "is_reserved": 0, "type": "electric_scooter", "name": "3d96be357cf430cf8bd3f58618bed345", "lon": -77.0343705, "rental_uris": {"android": "https://dc.lft.to/lastmile_qr_scan", "ios": "https://dc.lft.to/lastmile_qr_scan"}, "fusion_lat": 0.0}, {"is_disabled": 0, "lat": 38.89535883333333, "bike_id": "eb73ee629cf0dde1647609859e0c9478", "fusion_lon": 0.0, "is_reserved": 0, "type": "electric_scooter", "name": "eb73ee629cf0dde1647609859e0c9478", "lon": -77.01987283333334, "rental_uris": {"android": "https://dc.lft.to/lastmile_qr_scan", "ios": "https://dc.lft.to/lastmile_qr_scan"}, "fusion_lat": 0.0}, {"is_disabled": 0, "lat": 38.91529083333333, "bike_id": "8a6e8dfbcc78e9bf9a8b49d6a7615010", "fusion_lon": 0.0, "is_reserved": 0, "type": "electric_scooter", "name": "8a6e8dfbcc78e9bf9a8b49d6a7615010", "lon": -77.0320715, "rental_uris": {"android": "https://dc.lft.to/lastmile_qr_scan", "ios": "https://dc.lft.to/lastmile_qr_scan"}, "fusion_lat": 0.0}, {"is_disabled": 0, "lat": 38.9180885, "bike_id": "473ff20f898aca6bf2a420105dc1c134", "fusion_lon": 0.0, "is_reserved": 0, "type": "electric_scooter", "name": "473ff20f898aca6bf2a420105dc1c134", "lon": -77.03190216666667, "rental_uris": {"android": "https://dc.lft.to/lastmile_qr_scan", "ios": "https://dc.lft.to/lastmile_qr_scan"}, "fusion_lat": 0.0}, {"is_disabled": 0, "lat": 38.89242566666667, "bike_id": "76af52660f7ac911a0de102397ae93f6", "fusion_lon": 0.0, "is_reserved": 0, "type": "electric_scooter", "name": "76af52660f7ac911a0de102397ae93f6", "lon": -77.01258933333334, "rental_uris": {"android": "https://dc.lft.to/lastmile_qr_scan", "ios": "https://dc.lft.to/lastmile_qr_scan"}, "fusion_lat": 0.0}, {"is_disabled": 0, "lat": 38.90530916666667, "bike_id": "ce0259904eda295fb231fbe318e84374", "fusion_lon": 0.0, "is_reserved": 0, "type": "electric_bike", "name": "ce0259904eda295fb231fbe318e84374", "lon": -77.00583566666667, "rental_uris": {"android": "https://dc.lft.to/lastmile_qr_scan", "ios": "https://dc.lft.to/lastmile_qr_scan"}, "fusion_lat": 0.0}, {"is_disabled": 0, "lat": 38.896192666666664, "bike_id": "b7c922569694c8de3a0973ff41753a8c", "fusion_lon": 0.0, "is_reserved": 0, "type": "electric_scooter", "name": "b7c922569694c8de3a0973ff41753a8c", "lon": -77.02661883333333, "rental_uris": {"android": "https://dc.lft.to/lastmile_qr_scan", "ios": "https://dc.lft.to/lastmile_qr_scan"}, "fusion_lat": 0.0}, {"is_disabled": 0, "lat": 38.906742, "bike_id": "fa3d466c3011f698b135627d6eefcb53", "fusion_lon": 0.0, "is_reserved": 0, "type": "electric_scooter", "name": "fa3d466c3011f698b135627d6eefcb53", "lon": -77.03881916666667, "rental_uris": {"android": "https://dc.lft.to/lastmile_qr_scan", "ios": "https://dc.lft.to/lastmile_qr_scan"}, "fusion_lat": 0.0}, {"is_disabled": 0, "lat": 38.9386925, "bike_id": "61b523e9a31f594df4d9de59391e0d45", "fusion_lon": 0.0, "is_reserved": 0, "type": "electric_scooter", "name": "61b523e9a31f594df4d9de59391e0d45", "lon": -77.02490933333333, "rental_uris": {"android": "https://dc.lft.to/lastmile_qr_scan", "ios": "https://dc.lft.to/lastmile_qr_scan"}, "fusion_lat": 0.0}, {"is_disabled": 0, "lat": 38.897791833333336, "bike_id": "f8417f96522d1122d98575554d17a9ff", "fusion_lon": 0.0, "is_reserved": 0, "type": "electric_scooter", "name": "f8417f96522d1122d98575554d17a9ff", "lon": -77.031693, "rental_uris": {"android": "https://dc.lft.to/lastmile_qr_scan", "ios": "https://dc.lft.to/lastmile_qr_scan"}, "fusion_lat": 0.0}, {"is_disabled": 0, "lat": 38.9171345, "bike_id": "14706ee0c28d72f3fc13c209378dcc5f", "fusion_lon": 0.0, "is_reserved": 0, "type": "electric_scooter", "name": "14706ee0c28d72f3fc13c209378dcc5f", "lon": -77.03466666666667, "rental_uris": {"android": "https://dc.lft.to/lastmile_qr_scan", "ios": "https://dc.lft.to/lastmile_qr_scan"}, "fusion_lat": 0.0}, {"is_disabled": 0, "lat": 38.909178, "bike_id": "89e69310d576f1609dad526466186973", "fusion_lon": 0.0, "is_reserved": 0, "type": "electric_scooter", "name": "89e69310d576f1609dad526466186973", "lon": -77.0439975, "rental_uris": {"android": "https://dc.lft.to/lastmile_qr_scan", "ios": "https://dc.lft.to/lastmile_qr_scan"}, "fusion_lat": 0.0}, {"is_disabled": 0, "lat": 38.925081666666664, "bike_id": "19e9259c49d56afc677db555064aa7f2", "fusion_lon": 0.0, "is_reserved": 0, "type": "electric_scooter", "name": "19e9259c49d56afc677db555064aa7f2", "lon": -77.05230466666667, "rental_uris": {"android": "https://dc.lft.to/lastmile_qr_scan", "ios": "https://dc.lft.to/lastmile_qr_scan"}, "fusion_lat": 0.0}, {"is_disabled": 0, "lat": 38.900151666666666, "bike_id": "748fa319fffce6dc8c06cb8478610994", "fusion_lon": 0.0, "is_reserved": 0, "type": "electric_scooter", "name": "748fa319fffce6dc8c06cb8478610994", "lon": -76.99927966666667, "rental_uris": {"android": "https://dc.lft.to/lastmile_qr_scan", "ios": "https://dc.lft.to/lastmile_qr_scan"}, "fusion_lat": 0.0}, {"is_disabled": 0, "lat": 38.955216, "bike_id": "92d90ebb31ba5445100a70cd44cf5383", "fusion_lon": 0.0, "is_reserved": 0, "type": "electric_scooter", "name": "92d90ebb31ba5445100a70cd44cf5383", "lon": -77.0231715, "rental_uris": {"android": "https://dc.lft.to/lastmile_qr_scan", "ios": "https://dc.lft.to/lastmile_qr_scan"}, "fusion_lat": 0.0}, {"is_disabled": 0, "lat": 38.9374185, "bike_id": "76393e1de9508e9b3a3964d6a6009896", "fusion_lon": 0.0, "is_reserved": 0, "type": "electric_bike", "name": "76393e1de9508e9b3a3964d6a6009896", "lon": -76.94565, "rental_uris": {"android": "https://dc.lft.to/lastmile_qr_scan", "ios": "https://dc.lft.to/lastmile_qr_scan"}, "fusion_lat": 0.0}, {"is_disabled": 0, "lat": 38.89242866666667, "bike_id": "c48217635c121e5dadb261f8aa99309a", "fusion_lon": 0.0, "is_reserved": 0, "type": "electric_scooter", "name": "c48217635c121e5dadb261f8aa99309a", "lon": -77.03955333333333, "rental_uris": {"android": "https://dc.lft.to/lastmile_qr_scan", "ios": "https://dc.lft.to/lastmile_qr_scan"}, "fusion_lat": 0.0}, {"is_disabled": 0, "lat": 38.93071966666667, "bike_id": "525d3262b564aaa995c154ba4b664163", "fusion_lon": 0.0, "is_reserved": 0, "type": "electric_scooter", "name": "525d3262b564aaa995c154ba4b664163", "lon": -77.0727315, "rental_uris": {"android": "https://dc.lft.to/lastmile_qr_scan", "ios": "https://dc.lft.to/lastmile_qr_scan"}, "fusion_lat": 0.0}, {"is_disabled": 0, "lat": 38.917222333333335, "bike_id": "3679fc36113f6e6254c08d486451f9e5", "fusion_lon": 0.0, "is_reserved": 0, "type": "electric_scooter", "name": "3679fc36113f6e6254c08d486451f9e5", "lon": -77.03614883333333, "rental_uris": {"android": "https://dc.lft.to/lastmile_qr_scan", "ios": "https://dc.lft.to/lastmile_qr_scan"}, "fusion_lat": 0.0}, {"is_disabled": 0, "lat": 38.88103316666667, "bike_id": "031dcab646ff060482f219fbd927a952", "fusion_lon": 0.0, "is_reserved": 0, "type": "electric_scooter", "name": "031dcab646ff060482f219fbd927a952", "lon": -76.99506683333334, "rental_uris": {"android": "https://dc.lft.to/lastmile_qr_scan", "ios": "https://dc.lft.to/lastmile_qr_scan"}, "fusion_lat": 0.0}, {"is_disabled": 0, "lat": 38.91064133333333, "bike_id": "19a48c129fdd450bc048324e74146d4c", "fusion_lon": 0.0, "is_reserved": 0, "type": "electric_scooter", "name": "19a48c129fdd450bc048324e74146d4c", "lon": -77.05477166666667, "rental_uris": {"android": "https://dc.lft.to/lastmile_qr_scan", "ios": "https://dc.lft.to/lastmile_qr_scan"}, "fusion_lat": 0.0}, {"is_disabled": 0, "lat": 38.962262333333335, "bike_id": "a7f3eb0e414c32230a57a983c3290118", "fusion_lon": 0.0, "is_reserved": 0, "type": "electric_bike", "name": "a7f3eb0e414c32230a57a983c3290118", "lon": -77.02626966666666, "rental_uris": {"android": "https://dc.lft.to/lastmile_qr_scan", "ios": "https://dc.lft.to/lastmile_qr_scan"}, "fusion_lat": 0.0}, {"is_disabled": 0, "lat": 38.949709666666664, "bike_id": "ce95d2aa0343e429b6f057fd8b6f3fb4", "fusion_lon": 0.0, "is_reserved": 0, "type": "electric_scooter", "name": "ce95d2aa0343e429b6f057fd8b6f3fb4", "lon": -77.06653233333333, "rental_uris": {"android": "https://dc.lft.to/lastmile_qr_scan", "ios": "https://dc.lft.to/lastmile_qr_scan"}, "fusion_lat": 0.0}, {"is_disabled": 0, "lat": 38.91685733333333, "bike_id": "493a9e2065014f5eabc15bb0404f51ec", "fusion_lon": 0.0, "is_reserved": 0, "type": "electric_scooter", "name": "493a9e2065014f5eabc15bb0404f51ec", "lon": -77.02966316666667, "rental_uris": {"android": "https://dc.lft.to/lastmile_qr_scan", "ios": "https://dc.lft.to/lastmile_qr_scan"}, "fusion_lat": 0.0}, {"is_disabled": 0, "lat": 38.917082666666666, "bike_id": "24bd2e35fd543cbc367ab37806c34c49", "fusion_lon": 0.0, "is_reserved": 0, "type": "electric_scooter", "name": "24bd2e35fd543cbc367ab37806c34c49", "lon": -77.02416933333333, "rental_uris": {"android": "https://dc.lft.to/lastmile_qr_scan", "ios": "https://dc.lft.to/lastmile_qr_scan"}, "fusion_lat": 0.0}, {"is_disabled": 0, "lat": 38.892746833333334, "bike_id": "e5a4e3012826fd6ec8b76d28010ad60c", "fusion_lon": 0.0, "is_reserved": 0, "type": "electric_bike", "name": "e5a4e3012826fd6ec8b76d28010ad60c", "lon": -77.0019625, "rental_uris": {"android": "https://dc.lft.to/lastmile_qr_scan", "ios": "https://dc.lft.to/lastmile_qr_scan"}, "fusion_lat": 0.0}, {"is_disabled": 0, "lat": 38.871127333333334, "bike_id": "e0a77e812b81149a9fbb78d6da1ffef6", "fusion_lon": 0.0, "is_reserved": 0, "type": "electric_scooter", "name": "e0a77e812b81149a9fbb78d6da1ffef6", "lon": -76.96600116666667, "rental_uris": {"android": "https://dc.lft.to/lastmile_qr_scan", "ios": "https://dc.lft.to/lastmile_qr_scan"}, "fusion_lat": 0.0}, {"is_disabled": 0, "lat": 38.9387035, "bike_id": "eaa7e61c9997f589d3c8e30570dd5f8c", "fusion_lon": 0.0, "is_reserved": 0, "type": "electric_scooter", "name": "eaa7e61c9997f589d3c8e30570dd5f8c", "lon": -77.024906, "rental_uris": {"android": "https://dc.lft.to/lastmile_qr_scan", "ios": "https://dc.lft.to/lastmile_qr_scan"}, "fusion_lat": 0.0}, {"is_disabled": 0, "lat": 38.95424216666667, "bike_id": "5c4768256d3b217f14fecae16daac788", "fusion_lon": 0.0, "is_reserved": 0, "type": "electric_scooter", "name": "5c4768256d3b217f14fecae16daac788", "lon": -77.0277045, "rental_uris": {"android": "https://dc.lft.to/lastmile_qr_scan", "ios": "https://dc.lft.to/lastmile_qr_scan"}, "fusion_lat": 0.0}, {"is_disabled": 0, "lat": 38.9215465, "bike_id": "178576dc6aa8b48a3bee6a1d5af321b9", "fusion_lon": 0.0, "is_reserved": 0, "type": "electric_scooter", "name": "178576dc6aa8b48a3bee6a1d5af321b9", "lon": -77.03872, "rental_uris": {"android": "https://dc.lft.to/lastmile_qr_scan", "ios": "https://dc.lft.to/lastmile_qr_scan"}, "fusion_lat": 0.0}, {"is_disabled": 0, "lat": 38.896191, "bike_id": "c98e2d4a68739e10828ab44319e356fe", "fusion_lon": 0.0, "is_reserved": 0, "type": "electric_scooter", "name": "c98e2d4a68739e10828ab44319e356fe", "lon": -77.02401833333333, "rental_uris": {"android": "https://dc.lft.to/lastmile_qr_scan", "ios": "https://dc.lft.to/lastmile_qr_scan"}, "fusion_lat": 0.0}, {"is_disabled": 0, "lat": 38.92068033333334, "bike_id": "e1beed657d12a0179bf49ca4a6a808ab", "fusion_lon": 0.0, "is_reserved": 0, "type": "electric_scooter", "name": "e1beed657d12a0179bf49ca4a6a808ab", "lon": -77.043585, "rental_uris": {"android": "https://dc.lft.to/lastmile_qr_scan", "ios": "https://dc.lft.to/lastmile_qr_scan"}, "fusion_lat": 0.0}, {"is_disabled": 0, "lat": 38.876551666666664, "bike_id": "404f1e6e13a28c336bab630992abd79f", "fusion_lon": 0.0, "is_reserved": 0, "type": "electric_scooter", "name": "404f1e6e13a28c336bab630992abd79f", "lon": -77.000558, "rental_uris": {"android": "https://dc.lft.to/lastmile_qr_scan", "ios": "https://dc.lft.to/lastmile_qr_scan"}, "fusion_lat": 0.0}, {"is_disabled": 0, "lat": 38.9180705, "bike_id": "0201a886ff37fa92c57be43b3dac79ab", "fusion_lon": 0.0, "is_reserved": 0, "type": "electric_scooter", "name": "0201a886ff37fa92c57be43b3dac79ab", "lon": -77.0343575, "rental_uris": {"android": "https://dc.lft.to/lastmile_qr_scan", "ios": "https://dc.lft.to/lastmile_qr_scan"}, "fusion_lat": 0.0}, {"is_disabled": 0, "lat": 38.92489166666667, "bike_id": "49e65d140868796fbfac875f92575131", "fusion_lon": 0.0, "is_reserved": 0, "type": "electric_scooter", "name": "49e65d140868796fbfac875f92575131", "lon": -77.034926, "rental_uris": {"android": "https://dc.lft.to/lastmile_qr_scan", "ios": "https://dc.lft.to/lastmile_qr_scan"}, "fusion_lat": 0.0}, {"is_disabled": 0, "lat": 38.91488416666667, "bike_id": "c1d77c657ee4f463614f9e3504a08a8b", "fusion_lon": 0.0, "is_reserved": 0, "type": "electric_scooter", "name": "c1d77c657ee4f463614f9e3504a08a8b", "lon": -76.98349916666666, "rental_uris": {"android": "https://dc.lft.to/lastmile_qr_scan", "ios": "https://dc.lft.to/lastmile_qr_scan"}, "fusion_lat": 0.0}, {"is_disabled": 0, "lat": 38.9170915, "bike_id": "41ea977c153c212f280601a10aaa00f8", "fusion_lon": 0.0, "is_reserved": 0, "type": "electric_scooter", "name": "41ea977c153c212f280601a10aaa00f8", "lon": -77.0371875, "rental_uris": {"android": "https://dc.lft.to/lastmile_qr_scan", "ios": "https://dc.lft.to/lastmile_qr_scan"}, "fusion_lat": 0.0}, {"is_disabled": 0, "lat": 38.93060366666667, "bike_id": "87fbaccc194e009a147405b89c9d1575", "fusion_lon": 0.0, "is_reserved": 0, "type": "electric_scooter", "name": "87fbaccc194e009a147405b89c9d1575", "lon": -77.03666683333333, "rental_uris": {"android": "https://dc.lft.to/lastmile_qr_scan", "ios": "https://dc.lft.to/lastmile_qr_scan"}, "fusion_lat": 0.0}, {"is_disabled": 0, "lat": 38.886155333333335, "bike_id": "6cb24f090bb667334a5ff413cda4a656", "fusion_lon": 0.0, "is_reserved": 0, "type": "electric_scooter", "name": "6cb24f090bb667334a5ff413cda4a656", "lon": -77.01585416666667, "rental_uris": {"android": "https://dc.lft.to/lastmile_qr_scan", "ios": "https://dc.lft.to/lastmile_qr_scan"}, "fusion_lat": 0.0}, {"is_disabled": 0, "lat": 39.023920333333336, "bike_id": "ff51200b950cf7d8b257dfd472ca4005", "fusion_lon": 0.0, "is_reserved": 0, "type": "electric_bike", "name": "ff51200b950cf7d8b257dfd472ca4005", "lon": -77.0469255, "rental_uris": {"android": "https://dc.lft.to/lastmile_qr_scan", "ios": "https://dc.lft.to/lastmile_qr_scan"}, "fusion_lat": 0.0}, {"is_disabled": 0, "lat": 38.855097666666666, "bike_id": "e01894808c8d65211f30e75dc2f69925", "fusion_lon": 0.0, "is_reserved": 0, "type": "electric_bike", "name": "e01894808c8d65211f30e75dc2f69925", "lon": -77.111522, "rental_uris": {"android": "https://dc.lft.to/lastmile_qr_scan", "ios": "https://dc.lft.to/lastmile_qr_scan"}, "fusion_lat": 0.0}, {"is_disabled": 0, "lat": 38.8874895, "bike_id": "2f4cb6936f0d2ecc2f10b7ee5330e22d", "fusion_lon": 0.0, "is_reserved": 0, "type": "electric_scooter", "name": "2f4cb6936f0d2ecc2f10b7ee5330e22d", "lon": -77.02864183333334, "rental_uris": {"android": "https://dc.lft.to/lastmile_qr_scan", "ios": "https://dc.lft.to/lastmile_qr_scan"}, "fusion_lat": 0.0}, {"is_disabled": 0, "lat": 38.893517833333334, "bike_id": "8f394ac8eec86b5ed55a94a94be6a998", "fusion_lon": 0.0, "is_reserved": 0, "type": "electric_bike", "name": "8f394ac8eec86b5ed55a94a94be6a998", "lon": -77.18741816666666, "rental_uris": {"android": "https://dc.lft.to/lastmile_qr_scan", "ios": "https://dc.lft.to/lastmile_qr_scan"}, "fusion_lat": 0.0}, {"is_disabled": 0, "lat": 38.90452783333333, "bike_id": "a99d1b82c37d5b481593cda16c4cd089", "fusion_lon": 0.0, "is_reserved": 0, "type": "electric_scooter", "name": "a99d1b82c37d5b481593cda16c4cd089", "lon": -77.05331283333334, "rental_uris": {"android": "https://dc.lft.to/lastmile_qr_scan", "ios": "https://dc.lft.to/lastmile_qr_scan"}, "fusion_lat": 0.0}, {"is_disabled": 0, "lat": 38.92745433333333, "bike_id": "a63448d90d5496af0eba4474c6e466c4", "fusion_lon": 0.0, "is_reserved": 0, "type": "electric_scooter", "name": "a63448d90d5496af0eba4474c6e466c4", "lon": -77.06463566666666, "rental_uris": {"android": "https://dc.lft.to/lastmile_qr_scan", "ios": "https://dc.lft.to/lastmile_qr_scan"}, "fusion_lat": 0.0}, {"is_disabled": 0, "lat": 38.8864645, "bike_id": "c6d91756988cc3699b8cddb3afcb248b", "fusion_lon": 0.0, "is_reserved": 0, "type": "electric_scooter", "name": "c6d91756988cc3699b8cddb3afcb248b", "lon": -76.98229466666666, "rental_uris": {"android": "https://dc.lft.to/lastmile_qr_scan", "ios": "https://dc.lft.to/lastmile_qr_scan"}, "fusion_lat": 0.0}, {"is_disabled": 0, "lat": 38.86574016666667, "bike_id": "b0c34ff394417969a4cf91f7814a72a2", "fusion_lon": 0.0, "is_reserved": 0, "type": "electric_scooter", "name": "b0c34ff394417969a4cf91f7814a72a2", "lon": -76.97365833333333, "rental_uris": {"android": "https://dc.lft.to/lastmile_qr_scan", "ios": "https://dc.lft.to/lastmile_qr_scan"}, "fusion_lat": 0.0}, {"is_disabled": 0, "lat": 38.90436483333333, "bike_id": "30da2142b412fc334bfac8a0c195ea4b", "fusion_lon": 0.0, "is_reserved": 0, "type": "electric_scooter", "name": "30da2142b412fc334bfac8a0c195ea4b", "lon": -77.062911, "rental_uris": {"android": "https://dc.lft.to/lastmile_qr_scan", "ios": "https://dc.lft.to/lastmile_qr_scan"}, "fusion_lat": 0.0}, {"is_disabled": 0, "lat": 38.917473, "bike_id": "38b65b3ce67b3c33c35f0a50e580dc33", "fusion_lon": 0.0, "is_reserved": 0, "type": "electric_scooter", "name": "38b65b3ce67b3c33c35f0a50e580dc33", "lon": -77.031935, "rental_uris": {"android": "https://dc.lft.to/lastmile_qr_scan", "ios": "https://dc.lft.to/lastmile_qr_scan"}, "fusion_lat": 0.0}, {"is_disabled": 0, "lat": 38.871856333333334, "bike_id": "7e7b73a94791b99b38d26733c869fa14", "fusion_lon": 0.0, "is_reserved": 0, "type": "electric_scooter", "name": "7e7b73a94791b99b38d26733c869fa14", "lon": -77.01222216666666, "rental_uris": {"android": "https://dc.lft.to/lastmile_qr_scan", "ios": "https://dc.lft.to/lastmile_qr_scan"}, "fusion_lat": 0.0}, {"is_disabled": 0, "lat": 38.892496333333334, "bike_id": "442022992dde3a15e7644992fba2a26a", "fusion_lon": 0.0, "is_reserved": 0, "type": "electric_scooter", "name": "442022992dde3a15e7644992fba2a26a", "lon": -77.03956283333333, "rental_uris": {"android": "https://dc.lft.to/lastmile_qr_scan", "ios": "https://dc.lft.to/lastmile_qr_scan"}, "fusion_lat": 0.0}, {"is_disabled": 0, "lat": 38.927055, "bike_id": "53d9410372c48b1a9c0cc715049be08a", "fusion_lon": 0.0, "is_reserved": 0, "type": "electric_scooter", "name": "53d9410372c48b1a9c0cc715049be08a", "lon": -77.02306766666666, "rental_uris": {"android": "https://dc.lft.to/lastmile_qr_scan", "ios": "https://dc.lft.to/lastmile_qr_scan"}, "fusion_lat": 0.0}, {"is_disabled": 0, "lat": 38.921536833333334, "bike_id": "18d24fcfd37d494b0766a56aa55dbbff", "fusion_lon": 0.0, "is_reserved": 0, "type": "electric_scooter", "name": "18d24fcfd37d494b0766a56aa55dbbff", "lon": -77.03873716666666, "rental_uris": {"android": "https://dc.lft.to/lastmile_qr_scan", "ios": "https://dc.lft.to/lastmile_qr_scan"}, "fusion_lat": 0.0}, {"is_disabled": 0, "lat": 38.908756333333336, "bike_id": "816ca185a632c0297196880c72107957", "fusion_lon": 0.0, "is_reserved": 0, "type": "electric_scooter", "name": "816ca185a632c0297196880c72107957", "lon": -77.0227475, "rental_uris": {"android": "https://dc.lft.to/lastmile_qr_scan", "ios": "https://dc.lft.to/lastmile_qr_scan"}, "fusion_lat": 0.0}, {"is_disabled": 0, "lat": 38.89412433333333, "bike_id": "9afed68b362829365b39451f891471b6", "fusion_lon": 0.0, "is_reserved": 0, "type": "electric_scooter", "name": "9afed68b362829365b39451f891471b6", "lon": -76.998604, "rental_uris": {"android": "https://dc.lft.to/lastmile_qr_scan", "ios": "https://dc.lft.to/lastmile_qr_scan"}, "fusion_lat": 0.0}, {"is_disabled": 0, "lat": 38.9050215, "bike_id": "6456970c1b2692b76b0c090bb0fd3428", "fusion_lon": 0.0, "is_reserved": 0, "type": "electric_scooter", "name": "6456970c1b2692b76b0c090bb0fd3428", "lon": -77.0012395, "rental_uris": {"android": "https://dc.lft.to/lastmile_qr_scan", "ios": "https://dc.lft.to/lastmile_qr_scan"}, "fusion_lat": 0.0}, {"is_disabled": 0, "lat": 38.92597766666667, "bike_id": "03dd8d233518def9fe8b9a225efcb874", "fusion_lon": 0.0, "is_reserved": 0, "type": "electric_scooter", "name": "03dd8d233518def9fe8b9a225efcb874", "lon": -77.0355195, "rental_uris": {"android": "https://dc.lft.to/lastmile_qr_scan", "ios": "https://dc.lft.to/lastmile_qr_scan"}, "fusion_lat": 0.0}, {"is_disabled": 0, "lat": 38.864855666666664, "bike_id": "4f31faeeb9da3d311c9f07b38a682fee", "fusion_lon": 0.0, "is_reserved": 0, "type": "electric_bike", "name": "4f31faeeb9da3d311c9f07b38a682fee", "lon": -76.94506866666667, "rental_uris": {"android": "https://dc.lft.to/lastmile_qr_scan", "ios": "https://dc.lft.to/lastmile_qr_scan"}, "fusion_lat": 0.0}, {"is_disabled": 0, "lat": 38.946078166666666, "bike_id": "dce813532e429e6dc533095e894eff13", "fusion_lon": 0.0, "is_reserved": 0, "type": "electric_scooter", "name": "dce813532e429e6dc533095e894eff13", "lon": -76.99015216666666, "rental_uris": {"android": "https://dc.lft.to/lastmile_qr_scan", "ios": "https://dc.lft.to/lastmile_qr_scan"}, "fusion_lat": 0.0}, {"is_disabled": 0, "lat": 39.062944333333334, "bike_id": "a274cf14d591bfbcade19b62bd8fe066", "fusion_lon": 0.0, "is_reserved": 0, "type": "electric_bike", "name": "a274cf14d591bfbcade19b62bd8fe066", "lon": -77.049781, "rental_uris": {"android": "https://dc.lft.to/lastmile_qr_scan", "ios": "https://dc.lft.to/lastmile_qr_scan"}, "fusion_lat": 0.0}, {"is_disabled": 0, "lat": 38.8961195, "bike_id": "a0c3094777a6da5eda8ffbd66538debc", "fusion_lon": 0.0, "is_reserved": 0, "type": "electric_scooter", "name": "a0c3094777a6da5eda8ffbd66538debc", "lon": -77.04597916666667, "rental_uris": {"android": "https://dc.lft.to/lastmile_qr_scan", "ios": "https://dc.lft.to/lastmile_qr_scan"}, "fusion_lat": 0.0}, {"is_disabled": 0, "lat": 38.9037505, "bike_id": "b8682613c81625e8aed60f9f7230241b", "fusion_lon": 0.0, "is_reserved": 0, "type": "electric_scooter", "name": "b8682613c81625e8aed60f9f7230241b", "lon": -77.0452505, "rental_uris": {"android": "https://dc.lft.to/lastmile_qr_scan", "ios": "https://dc.lft.to/lastmile_qr_scan"}, "fusion_lat": 0.0}, {"is_disabled": 0, "lat": 38.878578166666664, "bike_id": "2ef8277cceeca6df4a4fa77da4c8cd20", "fusion_lon": 0.0, "is_reserved": 0, "type": "electric_scooter", "name": "2ef8277cceeca6df4a4fa77da4c8cd20", "lon": -76.93764983333334, "rental_uris": {"android": "https://dc.lft.to/lastmile_qr_scan", "ios": "https://dc.lft.to/lastmile_qr_scan"}, "fusion_lat": 0.0}, {"is_disabled": 0, "lat": 38.89825066666667, "bike_id": "5f8dd2d330810bf1c30f5d7bec09e6a8", "fusion_lon": 0.0, "is_reserved": 0, "type": "electric_scooter", "name": "5f8dd2d330810bf1c30f5d7bec09e6a8", "lon": -77.030523, "rental_uris": {"android": "https://dc.lft.to/lastmile_qr_scan", "ios": "https://dc.lft.to/lastmile_qr_scan"}, "fusion_lat": 0.0}, {"is_disabled": 0, "lat": 38.91565666666666, "bike_id": "26dfdbccb09d54693b23f187e589136e", "fusion_lon": 0.0, "is_reserved": 0, "type": "electric_scooter", "name": "26dfdbccb09d54693b23f187e589136e", "lon": -77.03015466666666, "rental_uris": {"android": "https://dc.lft.to/lastmile_qr_scan", "ios": "https://dc.lft.to/lastmile_qr_scan"}, "fusion_lat": 0.0}, {"is_disabled": 0, "lat": 38.917837666666664, "bike_id": "e2dc23249e5df749fac4c987b7a7c588", "fusion_lon": 0.0, "is_reserved": 0, "type": "electric_scooter", "name": "e2dc23249e5df749fac4c987b7a7c588", "lon": -77.02314866666667, "rental_uris": {"android": "https://dc.lft.to/lastmile_qr_scan", "ios": "https://dc.lft.to/lastmile_qr_scan"}, "fusion_lat": 0.0}, {"is_disabled": 0, "lat": 38.86116166666667, "bike_id": "766bd57e44285ada19e2ba1ec60f63c4", "fusion_lon": 0.0, "is_reserved": 0, "type": "electric_scooter", "name": "766bd57e44285ada19e2ba1ec60f63c4", "lon": -76.98379483333333, "rental_uris": {"android": "https://dc.lft.to/lastmile_qr_scan", "ios": "https://dc.lft.to/lastmile_qr_scan"}, "fusion_lat": 0.0}, {"is_disabled": 0, "lat": 38.883040666666666, "bike_id": "b2db14b1e61c277106cd515ea0cfa30d", "fusion_lon": 0.0, "is_reserved": 0, "type": "electric_scooter", "name": "b2db14b1e61c277106cd515ea0cfa30d", "lon": -76.97869666666666, "rental_uris": {"android": "https://dc.lft.to/lastmile_qr_scan", "ios": "https://dc.lft.to/lastmile_qr_scan"}, "fusion_lat": 0.0}, {"is_disabled": 0, "lat": 38.83900766666667, "bike_id": "4c5bbf83a0b88c3754699017238699a7", "fusion_lon": 0.0, "is_reserved": 0, "type": "electric_bike", "name": "4c5bbf83a0b88c3754699017238699a7", "lon": -77.08775716666666, "rental_uris": {"android": "https://dc.lft.to/lastmile_qr_scan", "ios": "https://dc.lft.to/lastmile_qr_scan"}, "fusion_lat": 0.0}, {"is_disabled": 0, "lat": 38.9781145, "bike_id": "0d7caa8a39abaae644cb592e22114e01", "fusion_lon": 0.0, "is_reserved": 0, "type": "electric_scooter", "name": "0d7caa8a39abaae644cb592e22114e01", "lon": -77.026503, "rental_uris": {"android": "https://dc.lft.to/lastmile_qr_scan", "ios": "https://dc.lft.to/lastmile_qr_scan"}, "fusion_lat": 0.0}, {"is_disabled": 0, "lat": 38.9010235, "bike_id": "c9b427b6c907b0141cb492d94b112249", "fusion_lon": 0.0, "is_reserved": 0, "type": "electric_scooter", "name": "c9b427b6c907b0141cb492d94b112249", "lon": -77.04862983333334, "rental_uris": {"android": "https://dc.lft.to/lastmile_qr_scan", "ios": "https://dc.lft.to/lastmile_qr_scan"}, "fusion_lat": 0.0}, {"is_disabled": 0, "lat": 38.90179216666667, "bike_id": "e0fdbc2379437dff4734a1630074e116", "fusion_lon": 0.0, "is_reserved": 0, "type": "electric_bike", "name": "e0fdbc2379437dff4734a1630074e116", "lon": -77.05112283333334, "rental_uris": {"android": "https://dc.lft.to/lastmile_qr_scan", "ios": "https://dc.lft.to/lastmile_qr_scan"}, "fusion_lat": 0.0}, {"is_disabled": 0, "lat": 38.928334, "bike_id": "1f195404b99d28664fd90650484f2cac", "fusion_lon": 0.0, "is_reserved": 0, "type": "electric_scooter", "name": "1f195404b99d28664fd90650484f2cac", "lon": -77.03280816666667, "rental_uris": {"android": "https://dc.lft.to/lastmile_qr_scan", "ios": "https://dc.lft.to/lastmile_qr_scan"}, "fusion_lat": 0.0}, {"is_disabled": 0, "lat": 38.885557, "bike_id": "b2734b0c9a7571b932416765637d65d7", "fusion_lon": 0.0, "is_reserved": 0, "type": "electric_scooter", "name": "b2734b0c9a7571b932416765637d65d7", "lon": -76.99632683333333, "rental_uris": {"android": "https://dc.lft.to/lastmile_qr_scan", "ios": "https://dc.lft.to/lastmile_qr_scan"}, "fusion_lat": 0.0}, {"is_disabled": 0, "lat": 38.894646333333334, "bike_id": "2c06849cbdf0286e862fe3969be59075", "fusion_lon": 0.0, "is_reserved": 0, "type": "electric_scooter", "name": "2c06849cbdf0286e862fe3969be59075", "lon": -76.9884305, "rental_uris": {"android": "https://dc.lft.to/lastmile_qr_scan", "ios": "https://dc.lft.to/lastmile_qr_scan"}, "fusion_lat": 0.0}, {"is_disabled": 0, "lat": 38.935235, "bike_id": "3c6e75ec372d7a4db9e4fbeac86a5bd1", "fusion_lon": 0.0, "is_reserved": 0, "type": "electric_scooter", "name": "3c6e75ec372d7a4db9e4fbeac86a5bd1", "lon": -77.03268466666667, "rental_uris": {"android": "https://dc.lft.to/lastmile_qr_scan", "ios": "https://dc.lft.to/lastmile_qr_scan"}, "fusion_lat": 0.0}, {"is_disabled": 0, "lat": 38.859217, "bike_id": "f811bd314896450e45b4d24efaee14a7", "fusion_lon": 0.0, "is_reserved": 0, "type": "electric_scooter", "name": "f811bd314896450e45b4d24efaee14a7", "lon": -76.96770666666667, "rental_uris": {"android": "https://dc.lft.to/lastmile_qr_scan", "ios": "https://dc.lft.to/lastmile_qr_scan"}, "fusion_lat": 0.0}, {"is_disabled": 0, "lat": 38.906106333333334, "bike_id": "cc9f89e36b53381cb570276f73f612af", "fusion_lon": 0.0, "is_reserved": 0, "type": "electric_scooter", "name": "cc9f89e36b53381cb570276f73f612af", "lon": -76.98654183333333, "rental_uris": {"android": "https://dc.lft.to/lastmile_qr_scan", "ios": "https://dc.lft.to/lastmile_qr_scan"}, "fusion_lat": 0.0}, {"is_disabled": 0, "lat": 38.88778166666667, "bike_id": "cb8dc177b1460f4d17075ab7157a4f77", "fusion_lon": 0.0, "is_reserved": 0, "type": "electric_scooter", "name": "cb8dc177b1460f4d17075ab7157a4f77", "lon": -76.97712333333334, "rental_uris": {"android": "https://dc.lft.to/lastmile_qr_scan", "ios": "https://dc.lft.to/lastmile_qr_scan"}, "fusion_lat": 0.0},