{"data": {"bikes": [{"is_disabled": 0, "is_reserved": 0, "fusion_lat": 0.0, "lat": 38.905241333333336, "fusion_lon": 0.0, "rental_uris": {"ios": "https://dc.lft.to/lastmile_qr_scan", "android": "https://dc.lft.to/lastmile_qr_scan"}, "lon": -77.06739916666666, "bike_id": "aaa8685a8e70aee9baabe93f95248edd", "type": "electric_scooter", "name": "aaa8685a8e70aee9baabe93f95248edd"}, {"is_disabled": 0, "is_reserved": 0, "fusion_lat": 0.0, "lat": 38.905024833333336, "fusion_lon": 0.0, "rental_uris": {"ios": "https://dc.lft.to/lastmile_qr_scan", "android": "https://dc.lft.to/lastmile_qr_scan"}, "lon": -76.99011816666666, "bike_id": "613cfe4d2eb66364046492c4c2ac04d4", "type": "electric_scooter", "name": "613cfe4d2eb66364046492c4c2ac04d4"}, {"is_disabled": 0, "is_reserved": 0, "fusion_lat": 0.0, "lat": 38.89198866666667, "fusion_lon": 0.0, "rental_uris": {"ios": "https://dc.lft.to/lastmile_qr_scan", "android": "https://dc.lft.to/lastmile_qr_scan"}, "lon": -76.99857966666667, "bike_id": "66d9eeb8c0c522f650e3b9327f5dab01", "type": "electric_scooter", "name": "66d9eeb8c0c522f650e3b9327f5dab01"}, {"is_disabled": 0, "is_reserved": 0, "fusion_lat": 0.0, "lat": 38.911869333333335, "fusion_lon": 0.0, "rental_uris": {"ios": "https://dc.lft.to/lastmile_qr_scan", "android": "https://dc.lft.to/lastmile_qr_scan"}, "lon": -77.002643, "bike_id": "bdd2d65faceef828657721465d1160b8", "type": "electric_scooter", "name": "bdd2d65faceef828657721465d1160b8"}, {"is_disabled": 0, "is_reserved": 0, "fusion_lat": 0.0, "lat": 38.95091883333333, "fusion_lon": 0.0, "rental_uris": {"ios": "https://dc.lft.to/lastmile_qr_scan", "android": "https://dc.lft.to/lastmile_qr_scan"}, "lon": -76.99790133333333, "bike_id": "ec9a328f8f19cc70634b47affc1da60c", "type": "electric_bike", "name": "ec9a328f8f19cc70634b47affc1da60c"}, {"is_disabled": 0, "is_reserved": 0, "fusion_lat": 0.0, "lat": 38.929794666666666, "fusion_lon": 0.0, "rental_uris": {"ios": "https://dc.lft.to/lastmile_qr_scan", "android": "https://dc.lft.to/lastmile_qr_scan"}, "lon": -77.03267333333334, "bike_id": "4af4e4ec21c3e35446c44e0bfcf55479", "type": "electric_scooter", "name": "4af4e4ec21c3e35446c44e0bfcf55479"}, {"is_disabled": 0, "is_reserved": 0, "fusion_lat": 0.0, "lat": 38.9208785, "fusion_lon": 0.0, "rental_uris": {"ios": "https://dc.lft.to/lastmile_qr_scan", "android": "https://dc.lft.to/lastmile_qr_scan"}, "lon": -77.02250833333333, "bike_id": "643a62bb9b597a6ddd857c9432425a68", "type": "electric_scooter", "name": "643a62bb9b597a6ddd857c9432425a68"}, {"is_disabled": 0, "is_reserved": 0, "fusion_lat": 0.0, "lat": 39.04235366666666, "fusion_lon": 0.0, "rental_uris": {"ios": "https://dc.lft.to/lastmile_qr_scan", "android": "https://dc.lft.to/lastmile_qr_scan"}, "lon": -76.997356, "bike_id": "78ebd6e92b1e35f54b78548573a33e75", "type": "electric_bike", "name": "78ebd6e92b1e35f54b78548573a33e75"}, {"is_disabled": 0, "is_reserved": 0, "fusion_lat": 0.0, "lat": 38.9200695, "fusion_lon": 0.0, "rental_uris": {"ios": "https://dc.lft.to/lastmile_qr_scan", "android": "https://dc.lft.to/lastmile_qr_scan"}, "lon": -76.9849935, "bike_id": "6107027ab2e1a2639f201604f158a75e", "type": "electric_scooter", "name": "6107027ab2e1a2639f201604f158a75e"}, {"is_disabled": 0, "is_reserved": 0, "fusion_lat": 0.0, "lat": 38.91800883333333, "fusion_lon": 0.0, "rental_uris": {"ios": "https://dc.lft.to/lastmile_qr_scan", "android": "https://dc.lft.to/lastmile_qr_scan"}, "lon": -77.031819, "bike_id": "2d604c3f8b4230529b1e9cf3c2b86dc4", "type": "electric_scooter", "name": "2d604c3f8b4230529b1e9cf3c2b86dc4"}, {"is_disabled": 0, "is_reserved": 0, "fusion_lat": 0.0, "lat": 38.9985255, "fusion_lon": 0.0, "rental_uris": {"ios": "https://dc.lft.to/lastmile_qr_scan", "android": "https://dc.lft.to/lastmile_qr_scan"}, "lon": -77.00248266666667, "bike_id": "01aac618432ea03561420da701bb70d5", "type": "electric_bike", "name": "01aac618432ea03561420da701bb70d5"}, {"is_disabled": 0, "is_reserved": 0, "fusion_lat": 0.0, "lat": 38.874348833333336, "fusion_lon": 0.0, "rental_uris": {"ios": "https://dc.lft.to/lastmile_qr_scan", "android": "https://dc.lft.to/lastmile_qr_scan"}, "lon": -77.000589, "bike_id": "89f4bb1c7cec3758a7db39014a9dafd0", "type": "electric_scooter", "name": "89f4bb1c7cec3758a7db39014a9dafd0"}, {"is_disabled": 0, "is_reserved": 0, "fusion_lat": 0.0, "lat": 38.908484666666666, "fusion_lon": 0.0, "rental_uris": {"ios": "https://dc.lft.to/lastmile_qr_scan", "android": "https://dc.lft.to/lastmile_qr_scan"}, "lon": -76.997983, "bike_id": "2ac734a4f2ff814200b1525d9e5d24bf", "type": "electric_scooter", "name": "2ac734a4f2ff814200b1525d9e5d24bf"}, {"is_disabled": 0, "is_reserved": 0, "fusion_lat": 0.0, "lat": 38.83497033333333, "fusion_lon": 0.0, "rental_uris": {"ios": "https://dc.lft.to/lastmile_qr_scan", "android": "https://dc.lft.to/lastmile_qr_scan"}, "lon": -77.00438566666666, "bike_id": "706950635f5a98a8cdee9c7e91f93b10", "type": "electric_bike", "name": "706950635f5a98a8cdee9c7e91f93b10"}, {"is_disabled": 0, "is_reserved": 0, "fusion_lat": 0.0, "lat": 38.905859, "fusion_lon": 0.0, "rental_uris": {"ios": "https://dc.lft.to/lastmile_qr_scan", "android": "https://dc.lft.to/lastmile_qr_scan"}, "lon": -76.988992, "bike_id": "f99621c816fa1cec86447051d9153e9f", "type": "electric_scooter", "name": "f99621c816fa1cec86447051d9153e9f"}, {"is_disabled": 0, "is_reserved": 0, "fusion_lat": 0.0, "lat": 39.029307333333335, "fusion_lon": 0.0, "rental_uris": {"ios": "https://dc.lft.to/lastmile_qr_scan", "android": "https://dc.lft.to/lastmile_qr_scan"}, "lon": -77.01354933333333, "bike_id": "ba32ba74873c813187d7cf352ae39aea", "type": "electric_bike", "name": "ba32ba74873c813187d7cf352ae39aea"}, {"is_disabled": 0, "is_reserved": 0, "fusion_lat": 0.0, "lat": 38.887146, "fusion_lon": 0.0, "rental_uris": {"ios": "https://dc.lft.to/lastmile_qr_scan", "android": "https://dc.lft.to/lastmile_qr_scan"}, "lon": -76.99606433333334, "bike_id": "2e61facc7fc553b68db7615f9b943752", "type": "electric_scooter", "name": "2e61facc7fc553b68db7615f9b943752"}, {"is_disabled": 0, "is_reserved": 0, "fusion_lat": 0.0, "lat": 38.92200183333333, "fusion_lon": 0.0, "rental_uris": {"ios": "https://dc.lft.to/lastmile_qr_scan", "android": "https://dc.lft.to/lastmile_qr_scan"}, "lon": -77.04259516666667, "bike_id": "66bf4faf9f0cd045b056495ca8e400f8", "type": "electric_scooter", "name": "66bf4faf9f0cd045b056495ca8e400f8"}, {"is_disabled": 0, "is_reserved": 0, "fusion_lat": 0.0, "lat": 38.846309, "fusion_lon": 0.0, "rental_uris": {"ios": "https://dc.lft.to/lastmile_qr_scan", "android": "https://dc.lft.to/lastmile_qr_scan"}, "lon": -76.96910833333334, "bike_id": "0728b47da1ad3d67d1b84205f2930b8a", "type": "electric_bike", "name": "0728b47da1ad3d67d1b84205f2930b8a"}, {"is_disabled": 0, "is_reserved": 0, "fusion_lat": 0.0, "lat": 38.90864066666666, "fusion_lon": 0.0, "rental_uris": {"ios": "https://dc.lft.to/lastmile_qr_scan", "android": "https://dc.lft.to/lastmile_qr_scan"}, "lon": -77.04737033333333, "bike_id": "0a2d695c84fd35dc8a1328b4292a771d", "type": "electric_scooter", "name": "0a2d695c84fd35dc8a1328b4292a771d"}, {"is_disabled": 0, "is_reserved": 0, "fusion_lat": 0.0, "lat": 38.908583166666666, "fusion_lon": 0.0, "rental_uris": {"ios": "https://dc.lft.to/lastmile_qr_scan", "android": "https://dc.lft.to/lastmile_qr_scan"}, "lon": -77.04821483333333, "bike_id": "45c974dfe3d13102f8b0982eade997b7", "type": "electric_scooter", "name": "45c974dfe3d13102f8b0982eade997b7"}, {"is_disabled": 0, "is_reserved": 0, "fusion_lat": 0.0, "lat": 38.97474716666667, "fusion_lon": 0.0, "rental_uris": {"ios": "https://dc.lft.to/lastmile_qr_scan", "android": "https://dc.lft.to/lastmile_qr_scan"}, "lon": -76.98661833333334, "bike_id": "9b6338aa3fd3fa358a85752052dbbde6", "type": "electric_bike", "name": "9b6338aa3fd3fa358a85752052dbbde6"}, {"is_disabled": 0, "is_reserved": 0, "fusion_lat": 0.0, "lat": 38.898297, "fusion_lon": 0.0, "rental_uris": {"ios": "https://dc.lft.to/lastmile_qr_scan", "android": "https://dc.lft.to/lastmile_qr_scan"}, "lon": -77.02944283333333, "bike_id": "4a6f5c57c8a16c9f571f98de90a412bc", "type": "electric_scooter", "name": "4a6f5c57c8a16c9f571f98de90a412bc"}, {"is_disabled": 0, "is_reserved": 0, "fusion_lat": 0.0, "lat": 38.95589866666667, "fusion_lon": 0.0, "rental_uris": {"ios": "https://dc.lft.to/lastmile_qr_scan", "android": "https://dc.lft.to/lastmile_qr_scan"}, "lon": -77.02806933333333, "bike_id": "6d0b0232f68c93c5c0a5d4c9e4ea2cb1", "type": "electric_scooter", "name": "6d0b0232f68c93c5c0a5d4c9e4ea2cb1"}, {"is_disabled": 0, "is_reserved": 0, "fusion_lat": 0.0, "lat": 38.9072345, "fusion_lon": 0.0, "rental_uris": {"ios": "https://dc.lft.to/lastmile_qr_scan", "android": "https://dc.lft.to/lastmile_qr_scan"}, "lon": -77.02722966666667, "bike_id": "1c4c518bf9d01aa801a50b0fabf80d88", "type": "electric_scooter", "name": "1c4c518bf9d01aa801a50b0fabf80d88"}, {"is_disabled": 0, "is_reserved": 0, "fusion_lat": 0.0, "lat": 38.95140833333333, "fusion_lon": 0.0, "rental_uris": {"ios": "https://dc.lft.to/lastmile_qr_scan", "android": "https://dc.lft.to/lastmile_qr_scan"}, "lon": -76.96622716666667, "bike_id": "0d8203923fa38cca0d9788e4d945a182", "type": "electric_bike", "name": "0d8203923fa38cca0d9788e4d945a182"}, {"is_disabled": 0, "is_reserved": 0, "fusion_lat": 0.0, "lat": 38.85789966666667, "fusion_lon": 0.0, "rental_uris": {"ios": "https://dc.lft.to/lastmile_qr_scan", "android": "https://dc.lft.to/lastmile_qr_scan"}, "lon": -77.09961183333333, "bike_id": "9b6aae9d129edf817b9b596b54c11e8c", "type": "electric_bike", "name": "9b6aae9d129edf817b9b596b54c11e8c"}, {"is_disabled": 0, "is_reserved": 0, "fusion_lat": 0.0, "lat": 38.90680366666667, "fusion_lon": 0.0, "rental_uris": {"ios": "https://dc.lft.to/lastmile_qr_scan", "android": "https://dc.lft.to/lastmile_qr_scan"}, "lon": -77.02716266666667, "bike_id": "de8925193b49dc0a403f4be1abdd34cb", "type": "electric_scooter", "name": "de8925193b49dc0a403f4be1abdd34cb"}, {"is_disabled": 0, "is_reserved": 0, "fusion_lat": 0.0, "lat": 38.923306, "fusion_lon": 0.0, "rental_uris": {"ios": "https://dc.lft.to/lastmile_qr_scan", "android": "https://dc.lft.to/lastmile_qr_scan"}, "lon": -77.03922233333333, "bike_id": "4aff0717582331344ba85162a4b45877", "type": "electric_scooter", "name": "4aff0717582331344ba85162a4b45877"}, {"is_disabled": 0, "is_reserved": 0, "fusion_lat": 0.0, "lat": 38.90681766666667, "fusion_lon": 0.0, "rental_uris": {"ios": "https://dc.lft.to/lastmile_qr_scan", "android": "https://dc.lft.to/lastmile_qr_scan"}, "lon": -76.97927416666667, "bike_id": "0d0870fb713c89db3649066823d40cd5", "type": "electric_scooter", "name": "0d0870fb713c89db3649066823d40cd5"}, {"is_disabled": 0, "is_reserved": 0, "fusion_lat": 0.0, "lat": 38.838632833333335, "fusion_lon": 0.0, "rental_uris": {"ios": "https://dc.lft.to/lastmile_qr_scan", "android": "https://dc.lft.to/lastmile_qr_scan"}, "lon": -76.99696233333333, "bike_id": "b270ece9561785ca8030e75ea8647929", "type": "electric_bike", "name": "b270ece9561785ca8030e75ea8647929"}, {"is_disabled": 0, "is_reserved": 0, "fusion_lat": 0.0, "lat": 38.90799833333333, "fusion_lon": 0.0, "rental_uris": {"ios": "https://dc.lft.to/lastmile_qr_scan", "android": "https://dc.lft.to/lastmile_qr_scan"}, "lon": -77.00242883333334, "bike_id": "2c180f780f12cf198a5b1981efa1bfdb", "type": "electric_scooter", "name": "2c180f780f12cf198a5b1981efa1bfdb"}, {"is_disabled": 0, "is_reserved": 0, "fusion_lat": 0.0, "lat": 38.9022225, "fusion_lon": 0.0, "rental_uris": {"ios": "https://dc.lft.to/lastmile_qr_scan", "android": "https://dc.lft.to/lastmile_qr_scan"}, "lon": -76.9317975, "bike_id": "aa61d4c994f1408ced804a71d6dc4a10", "type": "electric_bike", "name": "aa61d4c994f1408ced804a71d6dc4a10"}, {"is_disabled": 0, "is_reserved": 0, "fusion_lat": 0.0, "lat": 38.918188, "fusion_lon": 0.0, "rental_uris": {"ios": "https://dc.lft.to/lastmile_qr_scan", "android": "https://dc.lft.to/lastmile_qr_scan"}, "lon": -77.0400265, "bike_id": "e05cec1e44ab33d55725c67ffe8142d5", "type": "electric_scooter", "name": "e05cec1e44ab33d55725c67ffe8142d5"}, {"is_disabled": 0, "is_reserved": 0, "fusion_lat": 0.0, "lat": 38.91132566666667, "fusion_lon": 0.0, "rental_uris": {"ios": "https://dc.lft.to/lastmile_qr_scan", "android": "https://dc.lft.to/lastmile_qr_scan"}, "lon": -77.00256033333334, "bike_id": "70c685c454fef27fec11a1559907a9a0", "type": "electric_bike", "name": "70c685c454fef27fec11a1559907a9a0"}, {"is_disabled": 0, "is_reserved": 0, "fusion_lat": 0.0, "lat": 38.94098616666667, "fusion_lon": 0.0, "rental_uris": {"ios": "https://dc.lft.to/lastmile_qr_scan", "android": "https://dc.lft.to/lastmile_qr_scan"}, "lon": -77.032779, "bike_id": "9385eaf0c293117a3d01997942d6e989", "type": "electric_scooter", "name": "9385eaf0c293117a3d01997942d6e989"}, {"is_disabled": 0, "is_reserved": 0, "fusion_lat": 0.0, "lat": 38.91817733333333, "fusion_lon": 0.0, "rental_uris": {"ios": "https://dc.lft.to/lastmile_qr_scan", "android": "https://dc.lft.to/lastmile_qr_scan"}, "lon": -77.04001583333333, "bike_id": "0f54c5421bf5a50e24bf3611055d7163", "type": "electric_scooter", "name": "0f54c5421bf5a50e24bf3611055d7163"}, {"is_disabled": 0, "is_reserved": 0, "fusion_lat": 0.0, "lat": 38.87999166666667, "fusion_lon": 0.0, "rental_uris": {"ios": "https://dc.lft.to/lastmile_qr_scan", "android": "https://dc.lft.to/lastmile_qr_scan"}, "lon": -77.0373915, "bike_id": "c5c0b6f032bd187395afe93a83e4c284", "type": "electric_scooter", "name": "c5c0b6f032bd187395afe93a83e4c284"}, {"is_disabled": 0, "is_reserved": 0, "fusion_lat": 0.0, "lat": 38.9179855, "fusion_lon": 0.0, "rental_uris": {"ios": "https://dc.lft.to/lastmile_qr_scan", "android": "https://dc.lft.to/lastmile_qr_scan"}, "lon": -77.0318185, "bike_id": "f0493af0ddc84201f45145e664d2e074", "type": "electric_scooter", "name": "f0493af0ddc84201f45145e664d2e074"}, {"is_disabled": 0, "is_reserved": 0, "fusion_lat": 0.0, "lat": 38.896674, "fusion_lon": 0.0, "rental_uris": {"ios": "https://dc.lft.to/lastmile_qr_scan", "android": "https://dc.lft.to/lastmile_qr_scan"}, "lon": -76.9491295, "bike_id": "6dfaaccd6f28f37a2f9de0ea30bc500b", "type": "electric_scooter", "name": "6dfaaccd6f28f37a2f9de0ea30bc500b"}, {"is_disabled": 0, "is_reserved": 0, "fusion_lat": 0.0, "lat": 38.90949166666667, "fusion_lon": 0.0, "rental_uris": {"ios": "https://dc.lft.to/lastmile_qr_scan", "android": "https://dc.lft.to/lastmile_qr_scan"}, "lon": -77.04728183333333, "bike_id": "3672496ed76310966a0566ca6cc03b8f", "type": "electric_scooter", "name": "3672496ed76310966a0566ca6cc03b8f"}, {"is_disabled": 0, "is_reserved": 0, "fusion_lat": 0.0, "lat": 38.909806333333336, "fusion_lon": 0.0, "rental_uris": {"ios": "https://dc.lft.to/lastmile_qr_scan", "android": "https://dc.lft.to/lastmile_qr_scan"}, "lon": -77.02415433333333, "bike_id": "48b9e5cdf8f6780d8b9b29876f32e722", "type": "electric_scooter", "name": "48b9e5cdf8f6780d8b9b29876f32e722"}, {"is_disabled": 0, "is_reserved": 0, "fusion_lat": 0.0, "lat": 38.9417785, "fusion_lon": 0.0, "rental_uris": {"ios": "https://dc.lft.to/lastmile_qr_scan", "android": "https://dc.lft.to/lastmile_qr_scan"}, "lon": -77.01533966666666, "bike_id": "761c8e9a1c85e2318396091428d856b0", "type": "electric_scooter", "name": "761c8e9a1c85e2318396091428d856b0"}, {"is_disabled": 0, "is_reserved": 0, "fusion_lat": 0.0, "lat": 38.91548066666667, "fusion_lon": 0.0, "rental_uris": {"ios": "https://dc.lft.to/lastmile_qr_scan", "android": "https://dc.lft.to/lastmile_qr_scan"}, "lon": -77.04453183333334, "bike_id": "265006a22a6dd895360117f1d4a53b42", "type": "electric_scooter", "name": "265006a22a6dd895360117f1d4a53b42"}, {"is_disabled": 0, "is_reserved": 0, "fusion_lat": 0.0, "lat": 38.91483516666667, "fusion_lon": 0.0, "rental_uris": {"ios": "https://dc.lft.to/lastmile_qr_scan", "android": "https://dc.lft.to/lastmile_qr_scan"}, "lon": -77.018912, "bike_id": "7b047f7a72d37dfbe63c75efddd61017", "type": "electric_scooter", "name": "7b047f7a72d37dfbe63c75efddd61017"}, {"is_disabled": 0, "is_reserved": 0, "fusion_lat": 0.0, "lat": 38.94285283333333, "fusion_lon": 0.0, "rental_uris": {"ios": "https://dc.lft.to/lastmile_qr_scan", "android": "https://dc.lft.to/lastmile_qr_scan"}, "lon": -77.02169083333334, "bike_id": "6bc70a690419018739f19a089b412f67", "type": "electric_scooter", "name": "6bc70a690419018739f19a089b412f67"}, {"is_disabled": 0, "is_reserved": 0, "fusion_lat": 0.0, "lat": 38.92169083333334, "fusion_lon": 0.0, "rental_uris": {"ios": "https://dc.lft.to/lastmile_qr_scan", "android": "https://dc.lft.to/lastmile_qr_scan"}, "lon": -77.0422805, "bike_id": "db933ce676fa41ef97b2235b2f37ada1", "type": "electric_scooter", "name": "db933ce676fa41ef97b2235b2f37ada1"}, {"is_disabled": 0, "is_reserved": 0, "fusion_lat": 0.0, "lat": 38.91419916666667, "fusion_lon": 0.0, "rental_uris": {"ios": "https://dc.lft.to/lastmile_qr_scan", "android": "https://dc.lft.to/lastmile_qr_scan"}, "lon": -77.03175633333333, "bike_id": "cc5efc32da8a14157393a38f53f41b86", "type": "electric_scooter", "name": "cc5efc32da8a14157393a38f53f41b86"}, {"is_disabled": 0, "is_reserved": 0, "fusion_lat": 0.0, "lat": 38.922302333333334, "fusion_lon": 0.0, "rental_uris": {"ios": "https://dc.lft.to/lastmile_qr_scan", "android": "https://dc.lft.to/lastmile_qr_scan"}, "lon": -77.0388235, "bike_id": "d41e6451bbcb15f813703e47786d43df", "type": "electric_scooter", "name": "d41e6451bbcb15f813703e47786d43df"}, {"is_disabled": 0, "is_reserved": 0, "fusion_lat": 0.0, "lat": 38.932606666666665, "fusion_lon": 0.0, "rental_uris": {"ios": "https://dc.lft.to/lastmile_qr_scan", "android": "https://dc.lft.to/lastmile_qr_scan"}, "lon": -77.02098266666667, "bike_id": "dbd0b8dc3566b86344594d551cc4e00d", "type": "electric_scooter", "name": "dbd0b8dc3566b86344594d551cc4e00d"}, {"is_disabled": 0, "is_reserved": 0, "fusion_lat": 0.0, "lat": 38.884913166666664, "fusion_lon": 0.0, "rental_uris": {"ios": "https://dc.lft.to/lastmile_qr_scan", "android": "https://dc.lft.to/lastmile_qr_scan"}, "lon": -77.03475983333334, "bike_id": "a738d7a147682fd909ab5f56e8c62fe5", "type": "electric_scooter", "name": "a738d7a147682fd909ab5f56e8c62fe5"}, {"is_disabled": 0, "is_reserved": 0, "fusion_lat": 0.0, "lat": 38.91997333333333, "fusion_lon": 0.0, "rental_uris": {"ios": "https://dc.lft.to/lastmile_qr_scan", "android": "https://dc.lft.to/lastmile_qr_scan"}, "lon": -77.02166816666667, "bike_id": "2fb9ded3f26dda47e9a257c541e7597d", "type": "electric_scooter", "name": "2fb9ded3f26dda47e9a257c541e7597d"}, {"is_disabled": 0, "is_reserved": 0, "fusion_lat": 0.0, "lat": 38.914696666666664, "fusion_lon": 0.0, "rental_uris": {"ios": "https://dc.lft.to/lastmile_qr_scan", "android": "https://dc.lft.to/lastmile_qr_scan"}, "lon": -77.017883, "bike_id": "167e30f5bbb05d62c249d214c4fb5450", "type": "electric_scooter", "name": "167e30f5bbb05d62c249d214c4fb5450"}, {"is_disabled": 0, "is_reserved": 0, "fusion_lat": 0.0, "lat": 38.84675166666667, "fusion_lon": 0.0, "rental_uris": {"ios": "https://dc.lft.to/lastmile_qr_scan", "android": "https://dc.lft.to/lastmile_qr_scan"}, "lon": -77.13932383333334, "bike_id": "6f88172363a66c0c2a3efbda294c4825", "type": "electric_bike", "name": "6f88172363a66c0c2a3efbda294c4825"}, {"is_disabled": 0, "is_reserved": 0, "fusion_lat": 0.0, "lat": 38.899641833333334, "fusion_lon": 0.0, "rental_uris": {"ios": "https://dc.lft.to/lastmile_qr_scan", "android": "https://dc.lft.to/lastmile_qr_scan"}, "lon": -77.023657, "bike_id": "8e2f0e34e738c739f6a623569dd9bb4f", "type": "electric_scooter", "name": "8e2f0e34e738c739f6a623569dd9bb4f"}, {"is_disabled": 0, "is_reserved": 0, "fusion_lat": 0.0, "lat": 38.914196833333335, "fusion_lon": 0.0, "rental_uris": {"ios": "https://dc.lft.to/lastmile_qr_scan", "android": "https://dc.lft.to/lastmile_qr_scan"}, "lon": -77.0222455, "bike_id": "8e96e9f6f14cb222498be5f7caa13702", "type": "electric_scooter", "name": "8e96e9f6f14cb222498be5f7caa13702"}, {"is_disabled": 0, "is_reserved": 0, "fusion_lat": 0.0, "lat": 38.9112375, "fusion_lon": 0.0, "rental_uris": {"ios": "https://dc.lft.to/lastmile_qr_scan", "android": "https://dc.lft.to/lastmile_qr_scan"}, "lon": -77.0382875, "bike_id": "f36843f902a141be96153f515331d125", "type": "electric_scooter", "name": "f36843f902a141be96153f515331d125"}, {"is_disabled": 0, "is_reserved": 0, "fusion_lat": 0.0, "lat": 38.915522333333335, "fusion_lon": 0.0, "rental_uris": {"ios": "https://dc.lft.to/lastmile_qr_scan", "android": "https://dc.lft.to/lastmile_qr_scan"}, "lon": -77.051036, "bike_id": "a28cd39c284c7d648f6ce7db7ff6c720", "type": "electric_scooter", "name": "a28cd39c284c7d648f6ce7db7ff6c720"}, {"is_disabled": 0, "is_reserved": 0, "fusion_lat": 0.0, "lat": 38.889704333333334, "fusion_lon": 0.0, "rental_uris": {"ios": "https://dc.lft.to/lastmile_qr_scan", "android": "https://dc.lft.to/lastmile_qr_scan"}, "lon": -76.98037033333334, "bike_id": "75806cc02b618b46037560999a46d39f", "type": "electric_scooter", "name": "75806cc02b618b46037560999a46d39f"}, {"is_disabled": 0, "is_reserved": 0, "fusion_lat": 0.0, "lat": 38.871628, "fusion_lon": 0.0, "rental_uris": {"ios": "https://dc.lft.to/lastmile_qr_scan", "android": "https://dc.lft.to/lastmile_qr_scan"}, "lon": -77.01356416666667, "bike_id": "aaa3e5a381a3423b0ca040b27f813b6f", "type": "electric_scooter", "name": "aaa3e5a381a3423b0ca040b27f813b6f"}, {"is_disabled": 0, "is_reserved": 0, "fusion_lat": 0.0, "lat": 38.88440933333333, "fusion_lon": 0.0, "rental_uris": {"ios": "https://dc.lft.to/lastmile_qr_scan", "android": "https://dc.lft.to/lastmile_qr_scan"}, "lon": -77.0292855, "bike_id": "8fa6ccf9b27646aa00fba9c2b4712fd5", "type": "electric_scooter", "name": "8fa6ccf9b27646aa00fba9c2b4712fd5"}, {"is_disabled": 0, "is_reserved": 0, "fusion_lat": 0.0, "lat": 38.9235155, "fusion_lon": 0.0, "rental_uris": {"ios": "https://dc.lft.to/lastmile_qr_scan", "android": "https://dc.lft.to/lastmile_qr_scan"}, "lon": -77.03370383333333, "bike_id": "921fb52d0c842bffe1a6370d7edbf5e3", "type": "electric_scooter", "name": "921fb52d0c842bffe1a6370d7edbf5e3"}, {"is_disabled": 0, "is_reserved": 0, "fusion_lat": 0.0, "lat": 38.91415116666667, "fusion_lon": 0.0, "rental_uris": {"ios": "https://dc.lft.to/lastmile_qr_scan", "android": "https://dc.lft.to/lastmile_qr_scan"}, "lon": -77.02216733333333, "bike_id": "f45ae740227354b19d16698abbac0576", "type": "electric_scooter", "name": "f45ae740227354b19d16698abbac0576"}, {"is_disabled": 0, "is_reserved": 0, "fusion_lat": 0.0, "lat": 38.906284, "fusion_lon": 0.0, "rental_uris": {"ios": "https://dc.lft.to/lastmile_qr_scan", "android": "https://dc.lft.to/lastmile_qr_scan"}, "lon": -76.98665116666666, "bike_id": "625f0d9dcd753c161f6e73da0f236934", "type": "electric_scooter", "name": "625f0d9dcd753c161f6e73da0f236934"}, {"is_disabled": 0, "is_reserved": 0, "fusion_lat": 0.0, "lat": 38.8990985, "fusion_lon": 0.0, "rental_uris": {"ios": "https://dc.lft.to/lastmile_qr_scan", "android": "https://dc.lft.to/lastmile_qr_scan"}, "lon": -77.03224416666667, "bike_id": "b529c5ca180b56d910b50ee81940c2db", "type": "electric_scooter", "name": "b529c5ca180b56d910b50ee81940c2db"}, {"is_disabled": 0, "is_reserved": 0, "fusion_lat": 0.0, "lat": 38.917562333333336, "fusion_lon": 0.0, "rental_uris": {"ios": "https://dc.lft.to/lastmile_qr_scan", "android": "https://dc.lft.to/lastmile_qr_scan"}, "lon": -77.03880733333334, "bike_id": "26dd58eeac2ccf79858caa4952b23b14", "type": "electric_scooter", "name": "26dd58eeac2ccf79858caa4952b23b14"}, {"is_disabled": 0, "is_reserved": 0, "fusion_lat": 0.0, "lat": 38.925052666666666, "fusion_lon": 0.0, "rental_uris": {"ios": "https://dc.lft.to/lastmile_qr_scan", "android": "https://dc.lft.to/lastmile_qr_scan"}, "lon": -77.02351633333333, "bike_id": "cf3f27a7c3a223fc7826908276c33e1f", "type": "electric_scooter", "name": "cf3f27a7c3a223fc7826908276c33e1f"}, {"is_disabled": 0, "is_reserved": 0, "fusion_lat": 0.0, "lat": 38.92172683333333, "fusion_lon": 0.0, "rental_uris": {"ios": "https://dc.lft.to/lastmile_qr_scan", "android": "https://dc.lft.to/lastmile_qr_scan"}, "lon": -77.04028033333333, "bike_id": "f4762e27913a460f0831baa381cd568a", "type": "electric_scooter", "name": "f4762e27913a460f0831baa381cd568a"}, {"is_disabled": 0, "is_reserved": 0, "fusion_lat": 0.0, "lat": 38.90237716666667, "fusion_lon": 0.0, "rental_uris": {"ios": "https://dc.lft.to/lastmile_qr_scan", "android": "https://dc.lft.to/lastmile_qr_scan"}, "lon": -77.02658483333333, "bike_id": "a4f75f4a6b8f96d21099c90abab9ced0", "type": "electric_scooter", "name": "a4f75f4a6b8f96d21099c90abab9ced0"}, {"is_disabled": 0, "is_reserved": 0, "fusion_lat": 0.0, "lat": 38.9215155, "fusion_lon": 0.0, "rental_uris": {"ios": "https://dc.lft.to/lastmile_qr_scan", "android": "https://dc.lft.to/lastmile_qr_scan"}, "lon": -77.035108, "bike_id": "00a4f89b52a9e58dafabe6f567cabee4", "type": "electric_scooter", "name": "00a4f89b52a9e58dafabe6f567cabee4"}, {"is_disabled": 0, "is_reserved": 0, "fusion_lat": 0.0, "lat": 38.91031366666667, "fusion_lon": 0.0, "rental_uris": {"ios": "https://dc.lft.to/lastmile_qr_scan", "android": "https://dc.lft.to/lastmile_qr_scan"}, "lon": -76.92334666666666, "bike_id": "1935cc3e92365387d9cc4e308b395400", "type": "electric_bike", "name": "1935cc3e92365387d9cc4e308b395400"}, {"is_disabled": 0, "is_reserved": 0, "fusion_lat": 0.0, "lat": 38.9335, "fusion_lon": 0.0, "rental_uris": {"ios": "https://dc.lft.to/lastmile_qr_scan", "android": "https://dc.lft.to/lastmile_qr_scan"}, "lon": -77.0593165, "bike_id": "a46d1f5213d791024afa1ca9b8aa9beb", "type": "electric_scooter", "name": "a46d1f5213d791024afa1ca9b8aa9beb"}, {"is_disabled": 0, "is_reserved": 0, "fusion_lat": 0.0, "lat": 38.899473666666665, "fusion_lon": 0.0, "rental_uris": {"ios": "https://dc.lft.to/lastmile_qr_scan", "android": "https://dc.lft.to/lastmile_qr_scan"}, "lon": -77.04783883333333, "bike_id": "9ad79f8f6fce4f083aee32ea8c9bd7bb", "type": "electric_scooter", "name": "9ad79f8f6fce4f083aee32ea8c9bd7bb"}, {"is_disabled": 0, "is_reserved": 0, "fusion_lat": 0.0, "lat": 38.9017135, "fusion_lon": 0.0, "rental_uris": {"ios": "https://dc.lft.to/lastmile_qr_scan", "android": "https://dc.lft.to/lastmile_qr_scan"}, "lon": -77.0240605, "bike_id": "3c8c7e605993b7767f5141f2fde451c9", "type": "electric_scooter", "name": "3c8c7e605993b7767f5141f2fde451c9"}, {"is_disabled": 0, "is_reserved": 0, "fusion_lat": 0.0, "lat": 38.92518716666667, "fusion_lon": 0.0, "rental_uris": {"ios": "https://dc.lft.to/lastmile_qr_scan", "android": "https://dc.lft.to/lastmile_qr_scan"}, "lon": -77.029735, "bike_id": "5aa82c3a83097df1eaec766c31c1d48c", "type": "electric_scooter", "name": "5aa82c3a83097df1eaec766c31c1d48c"}, {"is_disabled": 0, "is_reserved": 0, "fusion_lat": 0.0, "lat": 38.893355666666665, "fusion_lon": 0.0, "rental_uris": {"ios": "https://dc.lft.to/lastmile_qr_scan", "android": "https://dc.lft.to/lastmile_qr_scan"}, "lon": -76.92890566666667, "bike_id": "c222d5a8ac91d79d40eeb3cff1d07482", "type": "electric_scooter", "name": "c222d5a8ac91d79d40eeb3cff1d07482"}, {"is_disabled": 0, "is_reserved": 0, "fusion_lat": 0.0, "lat": 38.877068333333334, "fusion_lon": 0.0, "rental_uris": {"ios": "https://dc.lft.to/lastmile_qr_scan", "android": "https://dc.lft.to/lastmile_qr_scan"}, "lon": -77.016528, "bike_id": "026a2a9cd532c4e664ace3344d4ba444", "type": "electric_scooter", "name": "026a2a9cd532c4e664ace3344d4ba444"}, {"is_disabled": 0, "is_reserved": 0, "fusion_lat": 0.0, "lat": 38.89693833333333, "fusion_lon": 0.0, "rental_uris": {"ios": "https://dc.lft.to/lastmile_qr_scan", "android": "https://dc.lft.to/lastmile_qr_scan"}, "lon": -77.02410733333333, "bike_id": "f110eacfbf5d01129e9eb3a397983894", "type": "electric_scooter", "name": "f110eacfbf5d01129e9eb3a397983894"}, {"is_disabled": 0, "is_reserved": 0, "fusion_lat": 0.0, "lat": 38.96188866666667, "fusion_lon": 0.0, "rental_uris": {"ios": "https://dc.lft.to/lastmile_qr_scan", "android": "https://dc.lft.to/lastmile_qr_scan"}, "lon": -77.0989965, "bike_id": "de0d9e5317ddfa83fa60514b7047643b", "type": "electric_bike", "name": "de0d9e5317ddfa83fa60514b7047643b"}, {"is_disabled": 0, "is_reserved": 0, "fusion_lat": 0.0, "lat": 38.915567833333334, "fusion_lon": 0.0, "rental_uris": {"ios": "https://dc.lft.to/lastmile_qr_scan", "android": "https://dc.lft.to/lastmile_qr_scan"}, "lon": -77.0315085, "bike_id": "28104b49ed15133ab06c998eeb4368eb", "type": "electric_scooter", "name": "28104b49ed15133ab06c998eeb4368eb"}, {"is_disabled": 0, "is_reserved": 0, "fusion_lat": 0.0, "lat": 38.8922215, "fusion_lon": 0.0, "rental_uris": {"ios": "https://dc.lft.to/lastmile_qr_scan", "android": "https://dc.lft.to/lastmile_qr_scan"}, "lon": -77.04687116666666, "bike_id": "f618848160bfb980b6c3f019a47f2bef", "type": "electric_scooter", "name": "f618848160bfb980b6c3f019a47f2bef"}, {"is_disabled": 0, "is_reserved": 0, "fusion_lat": 0.0, "lat": 38.91782233333333, "fusion_lon": 0.0, "rental_uris": {"ios": "https://dc.lft.to/lastmile_qr_scan", "android": "https://dc.lft.to/lastmile_qr_scan"}, "lon": -77.0466685, "bike_id": "5cfb31ba1d42e50636cf5ede1680f5fc", "type": "electric_scooter", "name": "5cfb31ba1d42e50636cf5ede1680f5fc"}, {"is_disabled": 0, "is_reserved": 0, "fusion_lat": 0.0, "lat": 38.917811666666665, "fusion_lon": 0.0, "rental_uris": {"ios": "https://dc.lft.to/lastmile_qr_scan", "android": "https://dc.lft.to/lastmile_qr_scan"}, "lon": -77.031777, "bike_id": "68b77c3d2e812e56a123341cc60c3d7e", "type": "electric_bike", "name": "68b77c3d2e812e56a123341cc60c3d7e"}, {"is_disabled": 0, "is_reserved": 0, "fusion_lat": 0.0, "lat": 38.9171235, "fusion_lon": 0.0, "rental_uris": {"ios": "https://dc.lft.to/lastmile_qr_scan", "android": "https://dc.lft.to/lastmile_qr_scan"}, "lon": -77.03866083333334, "bike_id": "c1c0af4bd9b8e34bd0d9b2badf77d6d7", "type": "electric_scooter", "name": "c1c0af4bd9b8e34bd0d9b2badf77d6d7"}, {"is_disabled": 0, "is_reserved": 0, "fusion_lat": 0.0, "lat": 38.90496866666667, "fusion_lon": 0.0, "rental_uris": {"ios": "https://dc.lft.to/lastmile_qr_scan", "android": "https://dc.lft.to/lastmile_qr_scan"}, "lon": -77.0091205, "bike_id": "5c4b774470987b1d843d9a8716ce60b0", "type": "electric_scooter", "name": "5c4b774470987b1d843d9a8716ce60b0"}, {"is_disabled": 0, "is_reserved": 0, "fusion_lat": 0.0, "lat": 38.9274455, "fusion_lon": 0.0, "rental_uris": {"ios": "https://dc.lft.to/lastmile_qr_scan", "android": "https://dc.lft.to/lastmile_qr_scan"}, "lon": -77.06465516666667, "bike_id": "843e148737195bf6a7957b9fae93b3a5", "type": "electric_scooter", "name": "843e148737195bf6a7957b9fae93b3a5"}, {"is_disabled": 0, "is_reserved": 0, "fusion_lat": 0.0, "lat": 38.9268405, "fusion_lon": 0.0, "rental_uris": {"ios": "https://dc.lft.to/lastmile_qr_scan", "android": "https://dc.lft.to/lastmile_qr_scan"}, "lon": -77.01509483333334, "bike_id": "76a875ac9393536c0214c73f7ca9da14", "type": "electric_scooter", "name": "76a875ac9393536c0214c73f7ca9da14"}, {"is_disabled": 0, "is_reserved": 0, "fusion_lat": 0.0, "lat": 38.930210833333334, "fusion_lon": 0.0, "rental_uris": {"ios": "https://dc.lft.to/lastmile_qr_scan", "android": "https://dc.lft.to/lastmile_qr_scan"}, "lon": -77.02327633333333, "bike_id": "9ef9f9d8b588e1cb298e58b3b5ebab0e", "type": "electric_scooter", "name": "9ef9f9d8b588e1cb298e58b3b5ebab0e"}, {"is_disabled": 0, "is_reserved": 0, "fusion_lat": 0.0, "lat": 38.892755333333334, "fusion_lon": 0.0, "rental_uris": {"ios": "https://dc.lft.to/lastmile_qr_scan", "android": "https://dc.lft.to/lastmile_qr_scan"}, "lon": -77.05041183333333, "bike_id": "07b41d469132177b6668b285ae25c488", "type": "electric_scooter", "name": "07b41d469132177b6668b285ae25c488"}, {"is_disabled": 0, "is_reserved": 0, "fusion_lat": 0.0, "lat": 38.883731166666664, "fusion_lon": 0.0, "rental_uris": {"ios": "https://dc.lft.to/lastmile_qr_scan", "android": "https://dc.lft.to/lastmile_qr_scan"}, "lon": -76.99523066666667, "bike_id": "2ac321c0c7d23f214f36c5157663563a", "type": "electric_scooter", "name": "2ac321c0c7d23f214f36c5157663563a"}, {"is_disabled": 0, "is_reserved": 0, "fusion_lat": 0.0, "lat": 38.83053266666667, "fusion_lon": 0.0, "rental_uris": {"ios": "https://dc.lft.to/lastmile_qr_scan", "android": "https://dc.lft.to/lastmile_qr_scan"}, "lon": -77.00828133333333, "bike_id": "5f116a4496c6bd61c592994e4da3f35a", "type": "electric_bike", "name": "5f116a4496c6bd61c592994e4da3f35a"}, {"is_disabled": 0, "is_reserved": 0, "fusion_lat": 0.0, "lat": 38.90955566666667, "fusion_lon": 0.0, "rental_uris": {"ios": "https://dc.lft.to/lastmile_qr_scan", "android": "https://dc.lft.to/lastmile_qr_scan"}, "lon": -77.011361, "bike_id": "28fab0af8b80962cd50ec20c69fb27a9", "type": "electric_scooter", "name": "28fab0af8b80962cd50ec20c69fb27a9"}, {"is_disabled": 0, "is_reserved": 0, "fusion_lat": 0.0, "lat": 38.912583166666664, "fusion_lon": 0.0, "rental_uris": {"ios": "https://dc.lft.to/lastmile_qr_scan", "android": "https://dc.lft.to/lastmile_qr_scan"}, "lon": -77.03827533333333, "bike_id": "0a0042429bc7aa0b8fee2b2d4ce5a00b", "type": "electric_scooter", "name": "0a0042429bc7aa0b8fee2b2d4ce5a00b"}, {"is_disabled": 0, "is_reserved": 0, "fusion_lat": 0.0, "lat": 38.88985666666667, "fusion_lon": 0.0, "rental_uris": {"ios": "https://dc.lft.to/lastmile_qr_scan", "android": "https://dc.lft.to/lastmile_qr_scan"}, "lon": -77.00337016666667, "bike_id": "ba8ca0d34297e391d9621c5317a580ab", "type": "electric_scooter", "name": "ba8ca0d34297e391d9621c5317a580ab"}, {"is_disabled": 0, "is_reserved": 0, "fusion_lat": 0.0, "lat": 38.908897, "fusion_lon": 0.0, "rental_uris": {"ios": "https://dc.lft.to/lastmile_qr_scan", "android": "https://dc.lft.to/lastmile_qr_scan"}, "lon": -77.03397283333334, "bike_id": "fa3eae381dab058506ede95e3daaa961", "type": "electric_scooter", "name": "fa3eae381dab058506ede95e3daaa961"}, {"is_disabled": 0, "is_reserved": 0, "fusion_lat": 0.0, "lat": 38.892244833333336, "fusion_lon": 0.0, "rental_uris": {"ios": "https://dc.lft.to/lastmile_qr_scan", "android": "https://dc.lft.to/lastmile_qr_scan"}, "lon": -77.02351616666667, "bike_id": "137c96c8756bccb27124a9c0bd4c2dfd", "type": "electric_scooter", "name": "137c96c8756bccb27124a9c0bd4c2dfd"}, {"is_disabled": 0, "is_reserved": 0, "fusion_lat": 0.0, "lat": 38.904429666666665, "fusion_lon": 0.0, "rental_uris": {"ios": "https://dc.lft.to/lastmile_qr_scan", "android": "https://dc.lft.to/lastmile_qr_scan"}, "lon": -77.02687883333333, "bike_id": "7518689643cacf179175f98736df7270", "type": "electric_scooter", "name": "7518689643cacf179175f98736df7270"}, {"is_disabled": 0, "is_reserved": 0, "fusion_lat": 0.0, "lat": 38.915809833333334, "fusion_lon": 0.0, "rental_uris": {"ios": "https://dc.lft.to/lastmile_qr_scan", "android": "https://dc.lft.to/lastmile_qr_scan"}, "lon": -77.05031183333334, "bike_id": "db568e7d0aec5d72e28bf83f849eb073", "type": "electric_scooter", "name": "db568e7d0aec5d72e28bf83f849eb073"}, {"is_disabled": 0, "is_reserved": 0, "fusion_lat": 0.0, "lat": 38.875652333333335, "fusion_lon": 0.0, "rental_uris": {"ios": "https://dc.lft.to/lastmile_qr_scan", "android": "https://dc.lft.to/lastmile_qr_scan"}, "lon": -77.0059925, "bike_id": "9f8ed765ef5c5b85bdac3782b7004353", "type": "electric_scooter", "name": "9f8ed765ef5c5b85bdac3782b7004353"}, {"is_disabled": 0, "is_reserved": 0, "fusion_lat": 0.0, "lat": 38.868868166666665, "fusion_lon": 0.0, "rental_uris": {"ios": "https://dc.lft.to/lastmile_qr_scan", "android": "https://dc.lft.to/lastmile_qr_scan"}, "lon": -76.99000233333334, "bike_id": "1cb5e223a1b4f7e5c0808337087ec677", "type": "electric_scooter", "name": "1cb5e223a1b4f7e5c0808337087ec677"}, {"is_disabled": 0, "is_reserved": 0, "fusion_lat": 0.0, "lat": 38.886642333333334, "fusion_lon": 0.0, "rental_uris": {"ios": "https://dc.lft.to/lastmile_qr_scan", "android": "https://dc.lft.to/lastmile_qr_scan"}, "lon": -77.02807533333333, "bike_id": "81b501a9d95824406289f9fdcc0500c9", "type": "electric_scooter", "name": "81b501a9d95824406289f9fdcc0500c9"}, {"is_disabled": 0, "is_reserved": 0, "fusion_lat": 0.0, "lat": 38.89601916666667, "fusion_lon": 0.0, "rental_uris": {"ios": "https://dc.lft.to/lastmile_qr_scan", "android": "https://dc.lft.to/lastmile_qr_scan"}, "lon": -76.9832495, "bike_id": "227946be00aa0f950f7392f92973c367", "type": "electric_scooter", "name": "227946be00aa0f950f7392f92973c367"}, {"is_disabled": 0, "is_reserved": 0, "fusion_lat": 0.0, "lat": 38.916187666666666, "fusion_lon": 0.0, "rental_uris": {"ios": "https://dc.lft.to/lastmile_qr_scan", "android": "https://dc.lft.to/lastmile_qr_scan"}, "lon": -77.031401, "bike_id": "256d1fe6aab77fd5944ac2446b700f14", "type": "electric_scooter", "name": "256d1fe6aab77fd5944ac2446b700f14"}, {"is_disabled": 0, "is_reserved": 0, "fusion_lat": 0.0, "lat": 38.912885833333334, "fusion_lon": 0.0, "rental_uris": {"ios": "https://dc.lft.to/lastmile_qr_scan", "android": "https://dc.lft.to/lastmile_qr_scan"}, "lon": -77.02298183333333, "bike_id": "26a3d35f1d8ba61ab27b828ed26d43b9", "type": "electric_scooter", "name": "26a3d35f1d8ba61ab27b828ed26d43b9"}, {"is_disabled": 0, "is_reserved": 0, "fusion_lat": 0.0, "lat": 38.92047933333333, "fusion_lon": 0.0, "rental_uris": {"ios": "https://dc.lft.to/lastmile_qr_scan", "android": "https://dc.lft.to/lastmile_qr_scan"}, "lon": -77.0333245, "bike_id": "c8a3aed3b62d98d1e3c948c75f5428e5", "type": "electric_scooter", "name": "c8a3aed3b62d98d1e3c948c75f5428e5"}, {"is_disabled": 0, "is_reserved": 0, "fusion_lat": 0.0, "lat": 38.911082666666665, "fusion_lon": 0.0, "rental_uris": {"ios": "https://dc.lft.to/lastmile_qr_scan", "android": "https://dc.lft.to/lastmile_qr_scan"}, "lon": -77.03832683333333, "bike_id": "cb700da83c6e4c6cafb4f36ea46d77fd", "type": "electric_scooter", "name": "cb700da83c6e4c6cafb4f36ea46d77fd"}, {"is_disabled": 0, "is_reserved": 0, "fusion_lat": 0.0, "lat": 38.906401833333334, "fusion_lon": 0.0, "rental_uris": {"ios": "https://dc.lft.to/lastmile_qr_scan", "android": "https://dc.lft.to/lastmile_qr_scan"}, "lon": -77.04143916666666, "bike_id": "53253d4342ba75b55d2fe4072dd815c1", "type": "electric_scooter", "name": "53253d4342ba75b55d2fe4072dd815c1"}, {"is_disabled": 0, "is_reserved": 0, "fusion_lat": 0.0, "lat": 38.909277833333334, "fusion_lon": 0.0, "rental_uris": {"ios": "https://dc.lft.to/lastmile_qr_scan", "android": "https://dc.lft.to/lastmile_qr_scan"}, "lon": -76.999001, "bike_id": "c769b45178dfa28b69d0f4a24fcd2ee6", "type": "electric_scooter", "name": "c769b45178dfa28b69d0f4a24fcd2ee6"}, {"is_disabled": 0, "is_reserved": 0, "fusion_lat": 0.0, "lat": 38.90275116666667, "fusion_lon": 0.0, "rental_uris": {"ios": "https://dc.lft.to/lastmile_qr_scan", "android": "https://dc.lft.to/lastmile_qr_scan"}, "lon": -77.03069116666667, "bike_id": "85d879a83d586b5ff2ff00d43e1d9eff", "type": "electric_scooter", "name": "85d879a83d586b5ff2ff00d43e1d9eff"}, {"is_disabled": 0, "is_reserved": 0, "fusion_lat": 0.0, "lat": 38.9256525, "fusion_lon": 0.0, "rental_uris": {"ios": "https://dc.lft.to/lastmile_qr_scan", "android": "https://dc.lft.to/lastmile_qr_scan"}, "lon": -77.03138466666667, "bike_id": "751cbcb7c7395f0f6f103a2639332f2a", "type": "electric_scooter", "name": "751cbcb7c7395f0f6f103a2639332f2a"}, {"is_disabled": 0, "is_reserved": 0, "fusion_lat": 0.0, "lat": 38.909743, "fusion_lon": 0.0, "rental_uris": {"ios": "https://dc.lft.to/lastmile_qr_scan", "android": "https://dc.lft.to/lastmile_qr_scan"}, "lon": -77.0319035, "bike_id": "4954079eae6b091432c36d9f97c17e09", "type": "electric_scooter", "name": "4954079eae6b091432c36d9f97c17e09"}, {"is_disabled": 0, "is_reserved": 0, "fusion_lat": 0.0, "lat": 38.918152, "fusion_lon": 0.0, "rental_uris": {"ios": "https://dc.lft.to/lastmile_qr_scan", "android": "https://dc.lft.to/lastmile_qr_scan"}, "lon": -77.024781, "bike_id": "e194282025dccb27d15f1f7eb668c8fa", "type": "electric_scooter", "name": "e194282025dccb27d15f1f7eb668c8fa"}, {"is_disabled": 0, "is_reserved": 0, "fusion_lat": 0.0, "lat": 38.891774, "fusion_lon": 0.0, "rental_uris": {"ios": "https://dc.lft.to/lastmile_qr_scan", "android": "https://dc.lft.to/lastmile_qr_scan"}, "lon": -77.0156035, "bike_id": "a6653282b20bf75c9ca8151a7e5f0cc9", "type": "electric_scooter", "name": "a6653282b20bf75c9ca8151a7e5f0cc9"}, {"is_disabled": 0, "is_reserved": 0, "fusion_lat": 0.0, "lat": 38.891768666666664, "fusion_lon": 0.0, "rental_uris": {"ios": "https://dc.lft.to/lastmile_qr_scan", "android": "https://dc.lft.to/lastmile_qr_scan"}, "lon": -77.01555466666667, "bike_id": "f40a8668b244ec27fba65e148eb51b7a", "type": "electric_scooter", "name": "f40a8668b244ec27fba65e148eb51b7a"}, {"is_disabled": 0, "is_reserved": 0, "fusion_lat": 0.0, "lat": 38.910721, "fusion_lon": 0.0, "rental_uris": {"ios": "https://dc.lft.to/lastmile_qr_scan", "android": "https://dc.lft.to/lastmile_qr_scan"}, "lon": -77.01977266666667, "bike_id": "d8d473b360357a04f1a995f0c8ddd370", "type": "electric_scooter", "name": "d8d473b360357a04f1a995f0c8ddd370"}, {"is_disabled": 0, "is_reserved": 0, "fusion_lat": 0.0, "lat": 38.89717683333333, "fusion_lon": 0.0, "rental_uris": {"ios": "https://dc.lft.to/lastmile_qr_scan", "android": "https://dc.lft.to/lastmile_qr_scan"}, "lon": -77.031502, "bike_id": "249cb18c4ee9ae49cc93dd10bbdc5328", "type": "electric_scooter", "name": "249cb18c4ee9ae49cc93dd10bbdc5328"}, {"is_disabled": 0, "is_reserved": 0, "fusion_lat": 0.0, "lat": 38.929089, "fusion_lon": 0.0, "rental_uris": {"ios": "https://dc.lft.to/lastmile_qr_scan", "android": "https://dc.lft.to/lastmile_qr_scan"}, "lon": -77.05984733333334, "bike_id": "10efcf9866e8febdd563d8e095b7cea1", "type": "electric_scooter", "name": "10efcf9866e8febdd563d8e095b7cea1"}, {"is_disabled": 0, "is_reserved": 0, "fusion_lat": 0.0, "lat": 38.8919475, "fusion_lon": 0.0, "rental_uris": {"ios": "https://dc.lft.to/lastmile_qr_scan", "android": "https://dc.lft.to/lastmile_qr_scan"}, "lon": -77.02229366666667, "bike_id": "b6ecddbe15510a0ad70e812ab2c0fd2c", "type": "electric_scooter", "name": "b6ecddbe15510a0ad70e812ab2c0fd2c"}, {"is_disabled": 0, "is_reserved": 0, "fusion_lat": 0.0, "lat": 38.919220833333334, "fusion_lon": 0.0, "rental_uris": {"ios": "https://dc.lft.to/lastmile_qr_scan", "android": "https://dc.lft.to/lastmile_qr_scan"}, "lon": -77.02547366666667, "bike_id": "a1fc9d26b813378d30f301d0a214f7ff", "type": "electric_scooter", "name": "a1fc9d26b813378d30f301d0a214f7ff"}, {"is_disabled": 0, "is_reserved": 0, "fusion_lat": 0.0, "lat": 38.89955166666667, "fusion_lon": 0.0, "rental_uris": {"ios": "https://dc.lft.to/lastmile_qr_scan", "android": "https://dc.lft.to/lastmile_qr_scan"}, "lon": -77.01609616666667, "bike_id": "3cc20f669b3d6c2e8ec5d243f7928004", "type": "electric_scooter", "name": "3cc20f669b3d6c2e8ec5d243f7928004"}, {"is_disabled": 0, "is_reserved": 0, "fusion_lat": 0.0, "lat": 38.9156545, "fusion_lon": 0.0, "rental_uris": {"ios": "https://dc.lft.to/lastmile_qr_scan", "android": "https://dc.lft.to/lastmile_qr_scan"}, "lon": -77.021617, "bike_id": "c8c5d200bffe3e0842edc6213b8f261e", "type": "electric_scooter", "name": "c8c5d200bffe3e0842edc6213b8f261e"}, {"is_disabled": 0, "is_reserved": 0, "fusion_lat": 0.0, "lat": 38.926883833333335, "fusion_lon": 0.0, "rental_uris": {"ios": "https://dc.lft.to/lastmile_qr_scan", "android": "https://dc.lft.to/lastmile_qr_scan"}, "lon": -77.0228105, "bike_id": "f28ebe0bd2869431ff383f62577e00cc", "type": "electric_scooter", "name": "f28ebe0bd2869431ff383f62577e00cc"}, {"is_disabled": 0, "is_reserved": 0, "fusion_lat": 0.0, "lat": 38.91673683333333, "fusion_lon": 0.0, "rental_uris": {"ios": "https://dc.lft.to/lastmile_qr_scan", "android": "https://dc.lft.to/lastmile_qr_scan"}, "lon": -77.02968666666666, "bike_id": "9dd2289386e2413bfce4f854d0012c99", "type": "electric_scooter", "name": "9dd2289386e2413bfce4f854d0012c99"}, {"is_disabled": 0, "is_reserved": 0, "fusion_lat": 0.0, "lat": 38.892163833333335, "fusion_lon": 0.0, "rental_uris": {"ios": "https://dc.lft.to/lastmile_qr_scan", "android": "https://dc.lft.to/lastmile_qr_scan"}, "lon": -76.9992185, "bike_id": "2ad0531344df7c98fed948a1aa89367c", "type": "electric_scooter", "name": "2ad0531344df7c98fed948a1aa89367c"}, {"is_disabled": 0, "is_reserved": 0, "fusion_lat": 0.0, "lat": 38.92324266666667, "fusion_lon": 0.0, "rental_uris": {"ios": "https://dc.lft.to/lastmile_qr_scan", "android": "https://dc.lft.to/lastmile_qr_scan"}, "lon": -77.05676083333333, "bike_id": "2102e4add331cfd734d17d805a16868f", "type": "electric_scooter", "name": "2102e4add331cfd734d17d805a16868f"}, {"is_disabled": 0, "is_reserved": 0, "fusion_lat": 0.0, "lat": 38.923106, "fusion_lon": 0.0, "rental_uris": {"ios": "https://dc.lft.to/lastmile_qr_scan", "android": "https://dc.lft.to/lastmile_qr_scan"}, "lon": -77.02910216666666, "bike_id": "cf49cf407683117ab4a5604fa1e93415", "type": "electric_scooter", "name": "cf49cf407683117ab4a5604fa1e93415"}, {"is_disabled": 0, "is_reserved": 0, "fusion_lat": 0.0, "lat": 38.91918016666666, "fusion_lon": 0.0, "rental_uris": {"ios": "https://dc.lft.to/lastmile_qr_scan", "android": "https://dc.lft.to/lastmile_qr_scan"}, "lon": -77.03187466666667, "bike_id": "23ee02ab77b877ad00ae1356b231892d", "type": "electric_scooter", "name": "23ee02ab77b877ad00ae1356b231892d"}, {"is_disabled": 0, "is_reserved": 0, "fusion_lat": 0.0, "lat": 38.902261, "fusion_lon": 0.0, "rental_uris": {"ios": "https://dc.lft.to/lastmile_qr_scan", "android": "https://dc.lft.to/lastmile_qr_scan"}, "lon": -77.03255666666666, "bike_id": "124bc47d26229b9beaa84593240b2ccd", "type": "electric_scooter", "name": "124bc47d26229b9beaa84593240b2ccd"}, {"is_disabled": 0, "is_reserved": 0, "fusion_lat": 0.0, "lat": 38.920338666666666, "fusion_lon": 0.0, "rental_uris": {"ios": "https://dc.lft.to/lastmile_qr_scan", "android": "https://dc.lft.to/lastmile_qr_scan"}, "lon": -77.017219, "bike_id": "164bc3798a6b893a4f7fa438e3f43fac", "type": "electric_scooter", "name": "164bc3798a6b893a4f7fa438e3f43fac"}, {"is_disabled": 0, "is_reserved": 0, "fusion_lat": 0.0, "lat": 38.883019833333336, "fusion_lon": 0.0, "rental_uris": {"ios": "https://dc.lft.to/lastmile_qr_scan", "android": "https://dc.lft.to/lastmile_qr_scan"}, "lon": -76.93506416666666, "bike_id": "0f034b0060ec3703aa3937d676c5d509", "type": "electric_scooter", "name": "0f034b0060ec3703aa3937d676c5d509"}, {"is_disabled": 0, "is_reserved": 0, "fusion_lat": 0.0, "lat": 38.8923335, "fusion_lon": 0.0, "rental_uris": {"ios": "https://dc.lft.to/lastmile_qr_scan", "android": "https://dc.lft.to/lastmile_qr_scan"}, "lon": -77.04872833333333, "bike_id": "0cfd3d533a1740fafed62fd84ab454e6", "type": "electric_scooter", "name": "0cfd3d533a1740fafed62fd84ab454e6"}, {"is_disabled": 0, "is_reserved": 0, "fusion_lat": 0.0, "lat": 38.912555, "fusion_lon": 0.0, "rental_uris": {"ios": "https://dc.lft.to/lastmile_qr_scan", "android": "https://dc.lft.to/lastmile_qr_scan"}, "lon": -77.03866, "bike_id": "874d6cd6df50f6e79b28b9cbcf718937", "type": "electric_scooter", "name": "874d6cd6df50f6e79b28b9cbcf718937"}, {"is_disabled": 0, "is_reserved": 0, "fusion_lat": 0.0, "lat": 38.852482, "fusion_lon": 0.0, "rental_uris": {"ios": "https://dc.lft.to/lastmile_qr_scan", "android": "https://dc.lft.to/lastmile_qr_scan"}, "lon": -77.11410566666666, "bike_id": "13ac01ef8ad7cafa90edd8ab430b5363", "type": "electric_bike", "name": "13ac01ef8ad7cafa90edd8ab430b5363"}, {"is_disabled": 0, "is_reserved": 0, "fusion_lat": 0.0, "lat": 38.9157835, "fusion_lon": 0.0, "rental_uris": {"ios": "https://dc.lft.to/lastmile_qr_scan", "android": "https://dc.lft.to/lastmile_qr_scan"}, "lon": -77.03661, "bike_id": "1b9f0365b1ff6cd6cefef6687012b26c", "type": "electric_scooter", "name": "1b9f0365b1ff6cd6cefef6687012b26c"}, {"is_disabled": 0, "is_reserved": 0, "fusion_lat": 0.0, "lat": 38.931967, "fusion_lon": 0.0, "rental_uris": {"ios": "https://dc.lft.to/lastmile_qr_scan", "android": "https://dc.lft.to/lastmile_qr_scan"}, "lon": -77.0239025, "bike_id": "a3aa4f4219b25ae2ae33a5a1a3fb564b", "type": "electric_scooter", "name": "a3aa4f4219b25ae2ae33a5a1a3fb564b"}, {"is_disabled": 0, "is_reserved": 0, "fusion_lat": 0.0, "lat": 38.94653616666667, "fusion_lon": 0.0, "rental_uris": {"ios": "https://dc.lft.to/lastmile_qr_scan", "android": "https://dc.lft.to/lastmile_qr_scan"}, "lon": -77.06483766666666, "bike_id": "c35b1cc0aa8729da478612c6118bfc9d", "type": "electric_scooter", "name": "c35b1cc0aa8729da478612c6118bfc9d"}, {"is_disabled": 0, "is_reserved": 0, "fusion_lat": 0.0, "lat": 38.904628333333335, "fusion_lon": 0.0, "rental_uris": {"ios": "https://dc.lft.to/lastmile_qr_scan", "android": "https://dc.lft.to/lastmile_qr_scan"}, "lon": -77.066029, "bike_id": "52234f97841649823901f09c085660a4", "type": "electric_scooter", "name": "52234f97841649823901f09c085660a4"}, {"is_disabled": 0, "is_reserved": 0, "fusion_lat": 0.0, "lat": 38.904668, "fusion_lon": 0.0, "rental_uris": {"ios": "https://dc.lft.to/lastmile_qr_scan", "android": "https://dc.lft.to/lastmile_qr_scan"}, "lon": -77.04334983333334, "bike_id": "43d56faead58f00b146e9f6f98826e97", "type": "electric_scooter", "name": "43d56faead58f00b146e9f6f98826e97"}, {"is_disabled": 0, "is_reserved": 0, "fusion_lat": 0.0, "lat": 38.93061466666666, "fusion_lon": 0.0, "rental_uris": {"ios": "https://dc.lft.to/lastmile_qr_scan", "android": "https://dc.lft.to/lastmile_qr_scan"}, "lon": -77.04053083333334, "bike_id": "be82ba092f78223b5c57c54e5aa7d7d7", "type": "electric_scooter", "name": "be82ba092f78223b5c57c54e5aa7d7d7"}, {"is_disabled": 0, "is_reserved": 0, "fusion_lat": 0.0, "lat": 38.925983, "fusion_lon": 0.0, "rental_uris": {"ios": "https://dc.lft.to/lastmile_qr_scan", "android": "https://dc.lft.to/lastmile_qr_scan"}, "lon": -77.0529525, "bike_id": "01e20260cdec0db75aef44d68d87d865", "type": "electric_scooter", "name": "01e20260cdec0db75aef44d68d87d865"}, {"is_disabled": 0, "is_reserved": 0, "fusion_lat": 0.0, "lat": 38.914703833333334, "fusion_lon": 0.0, "rental_uris": {"ios": "https://dc.lft.to/lastmile_qr_scan", "android": "https://dc.lft.to/lastmile_qr_scan"}, "lon": -77.00922583333333, "bike_id": "c9b166433f838999b3b747fbac92e260", "type": "electric_scooter", "name": "c9b166433f838999b3b747fbac92e260"}, {"is_disabled": 0, "is_reserved": 0, "fusion_lat": 0.0, "lat": 38.91465733333333, "fusion_lon": 0.0, "rental_uris": {"ios": "https://dc.lft.to/lastmile_qr_scan", "android": "https://dc.lft.to/lastmile_qr_scan"}, "lon": -77.031966, "bike_id": "4f60276f6a152bd0f3d5c71f8e56dfbb", "type": "electric_scooter", "name": "4f60276f6a152bd0f3d5c71f8e56dfbb"}, {"is_disabled": 0, "is_reserved": 0, "fusion_lat": 0.0, "lat": 39.0264575, "fusion_lon": 0.0, "rental_uris": {"ios": "https://dc.lft.to/lastmile_qr_scan", "android": "https://dc.lft.to/lastmile_qr_scan"}, "lon": -77.03687016666667, "bike_id": "6b157d86c00eddc842d757e97513ac02", "type": "electric_bike", "name": "6b157d86c00eddc842d757e97513ac02"}, {"is_disabled": 0, "is_reserved": 0, "fusion_lat": 0.0, "lat": 38.93023633333333, "fusion_lon": 0.0, "rental_uris": {"ios": "https://dc.lft.to/lastmile_qr_scan", "android": "https://dc.lft.to/lastmile_qr_scan"}, "lon": -77.02325633333334, "bike_id": "675b3a6d8813544517c374eda7c1760c", "type": "electric_scooter", "name": "675b3a6d8813544517c374eda7c1760c"}, {"is_disabled": 0, "is_reserved": 0, "fusion_lat": 0.0, "lat": 38.943301166666664, "fusion_lon": 0.0, "rental_uris": {"ios": "https://dc.lft.to/lastmile_qr_scan", "android": "https://dc.lft.to/lastmile_qr_scan"}, "lon": -77.02691516666667, "bike_id": "1d4b06a1ac74a76c1cdd389c0f685ef3", "type": "electric_scooter", "name": "1d4b06a1ac74a76c1cdd389c0f685ef3"}, {"is_disabled": 0, "is_reserved": 0, "fusion_lat": 0.0, "lat": 38.90509383333333, "fusion_lon": 0.0, "rental_uris": {"ios": "https://dc.lft.to/lastmile_qr_scan", "android": "https://dc.lft.to/lastmile_qr_scan"}, "lon": -76.95202183333333, "bike_id": "80b531df49ce4d1c92bc0fa01be04c83", "type": "electric_scooter", "name": "80b531df49ce4d1c92bc0fa01be04c83"}, {"is_disabled": 0, "is_reserved": 0, "fusion_lat": 0.0, "lat": 38.914187, "fusion_lon": 0.0, "rental_uris": {"ios": "https://dc.lft.to/lastmile_qr_scan", "android": "https://dc.lft.to/lastmile_qr_scan"}, "lon": -77.0521125, "bike_id": "c76d3dc7e8e67491846277437155cc45", "type": "electric_scooter", "name": "c76d3dc7e8e67491846277437155cc45"}, {"is_disabled": 0, "is_reserved": 0, "fusion_lat": 0.0, "lat": 38.88618866666667, "fusion_lon": 0.0, "rental_uris": {"ios": "https://dc.lft.to/lastmile_qr_scan", "android": "https://dc.lft.to/lastmile_qr_scan"}, "lon": -76.92633616666667, "bike_id": "0d4dec11c3fc80727de7616df28474b2", "type": "electric_scooter", "name": "0d4dec11c3fc80727de7616df28474b2"}, {"is_disabled": 0, "is_reserved": 0, "fusion_lat": 0.0, "lat": 38.92362283333333, "fusion_lon": 0.0, "rental_uris": {"ios": "https://dc.lft.to/lastmile_qr_scan", "android": "https://dc.lft.to/lastmile_qr_scan"}, "lon": -77.02135966666667, "bike_id": "7dcdd30e1b2475ad8ce65ea0c19568e0", "type": "electric_scooter", "name": "7dcdd30e1b2475ad8ce65ea0c19568e0"}, {"is_disabled": 0, "is_reserved": 0, "fusion_lat": 0.0, "lat": 38.899962333333335, "fusion_lon": 0.0, "rental_uris": {"ios": "https://dc.lft.to/lastmile_qr_scan", "android": "https://dc.lft.to/lastmile_qr_scan"}, "lon": -77.0271515, "bike_id": "acd7016da4c5e626f7035cd3daa7122f", "type": "electric_scooter", "name": "acd7016da4c5e626f7035cd3daa7122f"}, {"is_disabled": 0, "is_reserved": 0, "fusion_lat": 0.0, "lat": 38.919612, "fusion_lon": 0.0, "rental_uris": {"ios": "https://dc.lft.to/lastmile_qr_scan", "android": "https://dc.lft.to/lastmile_qr_scan"}, "lon": -77.0424175, "bike_id": "f83e8912d7b5e2d825240b7befa8dc25", "type": "electric_scooter", "name": "f83e8912d7b5e2d825240b7befa8dc25"}, {"is_disabled": 0, "is_reserved": 0, "fusion_lat": 0.0, "lat": 38.91122166666667, "fusion_lon": 0.0, "rental_uris": {"ios": "https://dc.lft.to/lastmile_qr_scan", "android": "https://dc.lft.to/lastmile_qr_scan"}, "lon": -77.03870566666667, "bike_id": "0c22d75b0489dc8ed6c8a5c76ab83a00", "type": "electric_scooter", "name": "0c22d75b0489dc8ed6c8a5c76ab83a00"}, {"is_disabled": 0, "is_reserved": 0, "fusion_lat": 0.0, "lat": 38.914519, "fusion_lon": 0.0, "rental_uris": {"ios": "https://dc.lft.to/lastmile_qr_scan", "android": "https://dc.lft.to/lastmile_qr_scan"}, "lon": -77.02185366666667, "bike_id": "c4f4e4049fa564e66d2aef53b9ef089b", "type": "electric_scooter", "name": "c4f4e4049fa564e66d2aef53b9ef089b"}, {"is_disabled": 0, "is_reserved": 0, "fusion_lat": 0.0, "lat": 38.80482, "fusion_lon": 0.0, "rental_uris": {"ios": "https://dc.lft.to/lastmile_qr_scan", "android": "https://dc.lft.to/lastmile_qr_scan"}, "lon": -76.99103883333333, "bike_id": "0eb1f750234542712c3a9f6a7cc48893", "type": "electric_bike", "name": "0eb1f750234542712c3a9f6a7cc48893"}, {"is_disabled": 0, "is_reserved": 0, "fusion_lat": 0.0, "lat": 38.90068183333333, "fusion_lon": 0.0, "rental_uris": {"ios": "https://dc.lft.to/lastmile_qr_scan", "android": "https://dc.lft.to/lastmile_qr_scan"}, "lon": -77.05049133333333, "bike_id": "913564a069b66699e398060638202faa", "type": "electric_scooter", "name": "913564a069b66699e398060638202faa"}, {"is_disabled": 0, "is_reserved": 0, "fusion_lat": 0.0, "lat": 38.913524333333335, "fusion_lon": 0.0, "rental_uris": {"ios": "https://dc.lft.to/lastmile_qr_scan", "android": "https://dc.lft.to/lastmile_qr_scan"}, "lon": -77.03206933333334, "bike_id": "3a2e5f3b150817f0a130b46067bbfa0b", "type": "electric_scooter", "name": "3a2e5f3b150817f0a130b46067bbfa0b"}, {"is_disabled": 0, "is_reserved": 0, "fusion_lat": 0.0, "lat": 38.95887183333333, "fusion_lon": 0.0, "rental_uris": {"ios": "https://dc.lft.to/lastmile_qr_scan", "android": "https://dc.lft.to/lastmile_qr_scan"}, "lon": -76.980965, "bike_id": "31f47ac54ca6635cce76c57123b0f2d9", "type": "electric_bike", "name": "31f47ac54ca6635cce76c57123b0f2d9"}, {"is_disabled": 0, "is_reserved": 0, "fusion_lat": 0.0, "lat": 38.84255733333333, "fusion_lon": 0.0, "rental_uris": {"ios": "https://dc.lft.to/lastmile_qr_scan", "android": "https://dc.lft.to/lastmile_qr_scan"}, "lon": -76.98834483333333, "bike_id": "73bf109d040c344989f2562e8bf5d4e5", "type": "electric_scooter", "name": "73bf109d040c344989f2562e8bf5d4e5"}, {"is_disabled": 0, "is_reserved": 0, "fusion_lat": 0.0, "lat": 38.90444316666667, "fusion_lon": 0.0, "rental_uris": {"ios": "https://dc.lft.to/lastmile_qr_scan", "android": "https://dc.lft.to/lastmile_qr_scan"}, "lon": -76.97310533333334, "bike_id": "90fc9ec1af15cb64a286032691d8eab2", "type": "electric_scooter", "name": "90fc9ec1af15cb64a286032691d8eab2"}, {"is_disabled": 0, "is_reserved": 0, "fusion_lat": 0.0, "lat": 38.8764655, "fusion_lon": 0.0, "rental_uris": {"ios": "https://dc.lft.to/lastmile_qr_scan", "android": "https://dc.lft.to/lastmile_qr_scan"}, "lon": -77.01577466666667, "bike_id": "2b02994413ee127ff5d6aad0fce0b14b", "type": "electric_scooter", "name": "2b02994413ee127ff5d6aad0fce0b14b"}, {"is_disabled": 0, "is_reserved": 0, "fusion_lat": 0.0, "lat": 38.96355633333334, "fusion_lon": 0.0, "rental_uris": {"ios": "https://dc.lft.to/lastmile_qr_scan", "android": "https://dc.lft.to/lastmile_qr_scan"}, "lon": -77.0344395, "bike_id": "5fd85cb165c0bc785b2a589fac1fe296", "type": "electric_scooter", "name": "5fd85cb165c0bc785b2a589fac1fe296"}, {"is_disabled": 0, "is_reserved": 0, "fusion_lat": 0.0, "lat": 38.903725333333334, "fusion_lon": 0.0, "rental_uris": {"ios": "https://dc.lft.to/lastmile_qr_scan", "android": "https://dc.lft.to/lastmile_qr_scan"}, "lon": -77.0600255, "bike_id": "301613824720f6b6fa027eed319a45ff", "type": "electric_scooter", "name": "301613824720f6b6fa027eed319a45ff"}, {"is_disabled": 0, "is_reserved": 0, "fusion_lat": 0.0, "lat": 38.91682733333333, "fusion_lon": 0.0, "rental_uris": {"ios": "https://dc.lft.to/lastmile_qr_scan", "android": "https://dc.lft.to/lastmile_qr_scan"}, "lon": -77.02974516666667, "bike_id": "a0d8a7963e344febe2cebaa7a42acf9e", "type": "electric_scooter", "name": "a0d8a7963e344febe2cebaa7a42acf9e"}, {"is_disabled": 0, "is_reserved": 0, "fusion_lat": 0.0, "lat": 38.916948833333336, "fusion_lon": 0.0, "rental_uris": {"ios": "https://dc.lft.to/lastmile_qr_scan", "android": "https://dc.lft.to/lastmile_qr_scan"}, "lon": -77.0316045, "bike_id": "d351423bf0135750cd40f7d68777ee34", "type": "electric_scooter", "name": "d351423bf0135750cd40f7d68777ee34"}, {"is_disabled": 0, "is_reserved": 0, "fusion_lat": 0.0, "lat": 38.87287416666667, "fusion_lon": 0.0, "rental_uris": {"ios": "https://dc.lft.to/lastmile_qr_scan", "android": "https://dc.lft.to/lastmile_qr_scan"}, "lon": -77.00986116666667, "bike_id": "2614f1fe0d7a305bea85ebedf56070f2", "type": "electric_scooter", "name": "2614f1fe0d7a305bea85ebedf56070f2"}, {"is_disabled": 0, "is_reserved": 0, "fusion_lat": 0.0, "lat": 38.9398325, "fusion_lon": 0.0, "rental_uris": {"ios": "https://dc.lft.to/lastmile_qr_scan", "android": "https://dc.lft.to/lastmile_qr_scan"}, "lon": -77.030659, "bike_id": "bd8259c4fffe7a88175d8bce63c55cbd", "type": "electric_scooter", "name": "bd8259c4fffe7a88175d8bce63c55cbd"}, {"is_disabled": 0, "is_reserved": 0, "fusion_lat": 0.0, "lat": 38.9191715, "fusion_lon": 0.0, "rental_uris": {"ios": "https://dc.lft.to/lastmile_qr_scan", "android": "https://dc.lft.to/lastmile_qr_scan"}, "lon": -77.02313916666667, "bike_id": "30a6894eaa67dd7f1153dd35400e3fe2", "type": "electric_scooter", "name": "30a6894eaa67dd7f1153dd35400e3fe2"}, {"is_disabled": 0, "is_reserved": 0, "fusion_lat": 0.0, "lat": 38.862840166666665, "fusion_lon": 0.0, "rental_uris": {"ios": "https://dc.lft.to/lastmile_qr_scan", "android": "https://dc.lft.to/lastmile_qr_scan"}, "lon": -76.94521383333333, "bike_id": "1bc18f51d93302290d4e8cfa0b79e609", "type": "electric_bike", "name": "1bc18f51d93302290d4e8cfa0b79e609"}, {"is_disabled": 0, "is_reserved": 0, "fusion_lat": 0.0, "lat": 38.9234855, "fusion_lon": 0.0, "rental_uris": {"ios": "https://dc.lft.to/lastmile_qr_scan", "android": "https://dc.lft.to/lastmile_qr_scan"}, "lon": -77.033933, "bike_id": "40f519f66cd68345247ffb650078efaa", "type": "electric_scooter", "name": "40f519f66cd68345247ffb650078efaa"}, {"is_disabled": 0, "is_reserved": 0, "fusion_lat": 0.0, "lat": 38.90221866666667, "fusion_lon": 0.0, "rental_uris": {"ios": "https://dc.lft.to/lastmile_qr_scan", "android": "https://dc.lft.to/lastmile_qr_scan"}, "lon": -77.0236615, "bike_id": "90b45fe20adce4928d9846088610777a", "type": "electric_scooter", "name": "90b45fe20adce4928d9846088610777a"}, {"is_disabled": 0, "is_reserved": 0, "fusion_lat": 0.0, "lat": 38.90290533333334, "fusion_lon": 0.0, "rental_uris": {"ios": "https://dc.lft.to/lastmile_qr_scan", "android": "https://dc.lft.to/lastmile_qr_scan"}, "lon": -77.05017, "bike_id": "515c6ed77cd92cc0e474b147bc4ae78b", "type": "electric_scooter", "name": "515c6ed77cd92cc0e474b147bc4ae78b"}, {"is_disabled": 0, "is_reserved": 0, "fusion_lat": 0.0, "lat": 38.911365833333335, "fusion_lon": 0.0, "rental_uris": {"ios": "https://dc.lft.to/lastmile_qr_scan", "android": "https://dc.lft.to/lastmile_qr_scan"}, "lon": -77.04863716666667, "bike_id": "f9f94bf235310947347898226695a066", "type": "electric_scooter", "name": "f9f94bf235310947347898226695a066"}, {"is_disabled": 0, "is_reserved": 0, "fusion_lat": 0.0, "lat": 38.918167333333336, "fusion_lon": 0.0, "rental_uris": {"ios": "https://dc.lft.to/lastmile_qr_scan", "android": "https://dc.lft.to/lastmile_qr_scan"}, "lon": -77.024781, "bike_id": "44f2fda842dea7c6a39055d5f880fe5e", "type": "electric_scooter", "name": "44f2fda842dea7c6a39055d5f880fe5e"}, {"is_disabled": 0, "is_reserved": 0, "fusion_lat": 0.0, "lat": 38.92077333333334, "fusion_lon": 0.0, "rental_uris": {"ios": "https://dc.lft.to/lastmile_qr_scan", "android": "https://dc.lft.to/lastmile_qr_scan"}, "lon": -77.02308133333334, "bike_id": "aa2117a830af04cef858dcf34353a176", "type": "electric_scooter", "name": "aa2117a830af04cef858dcf34353a176"}, {"is_disabled": 0, "is_reserved": 0, "fusion_lat": 0.0, "lat": 38.89623016666667, "fusion_lon": 0.0, "rental_uris": {"ios": "https://dc.lft.to/lastmile_qr_scan", "android": "https://dc.lft.to/lastmile_qr_scan"}, "lon": -77.0433575, "bike_id": "57d77a0ab7625c8dcfb513197fb8fbfc", "type": "electric_scooter", "name": "57d77a0ab7625c8dcfb513197fb8fbfc"}, {"is_disabled": 0, "is_reserved": 0, "fusion_lat": 0.0, "lat": 38.891987666666665, "fusion_lon": 0.0, "rental_uris": {"ios": "https://dc.lft.to/lastmile_qr_scan", "android": "https://dc.lft.to/lastmile_qr_scan"}, "lon": -77.04385983333333, "bike_id": "9360122834d48b7e244c3b2259f23467", "type": "electric_scooter", "name": "9360122834d48b7e244c3b2259f23467"}, {"is_disabled": 0, "is_reserved": 0, "fusion_lat": 0.0, "lat": 38.82765066666666, "fusion_lon": 0.0, "rental_uris": {"ios": "https://dc.lft.to/lastmile_qr_scan", "android": "https://dc.lft.to/lastmile_qr_scan"}, "lon": -77.05035266666667, "bike_id": "8d367a9d0d36d82efb5295da60cc3984", "type": "electric_bike", "name": "8d367a9d0d36d82efb5295da60cc3984"}, {"is_disabled": 0, "is_reserved": 0, "fusion_lat": 0.0, "lat": 38.93705166666667, "fusion_lon": 0.0, "rental_uris": {"ios": "https://dc.lft.to/lastmile_qr_scan", "android": "https://dc.lft.to/lastmile_qr_scan"}, "lon": -77.02404933333334, "bike_id": "6218c466d0ac00ee635471cc5989954c", "type": "electric_scooter", "name": "6218c466d0ac00ee635471cc5989954c"}, {"is_disabled": 0, "is_reserved": 0, "fusion_lat": 0.0, "lat": 38.9007805, "fusion_lon": 0.0, "rental_uris": {"ios": "https://dc.lft.to/lastmile_qr_scan", "android": "https://dc.lft.to/lastmile_qr_scan"}, "lon": -77.0478405, "bike_id": "602a231e095e63a3524f243b3bb80614", "type": "electric_scooter", "name": "602a231e095e63a3524f243b3bb80614"}, {"is_disabled": 0, "is_reserved": 0, "fusion_lat": 0.0, "lat": 38.884024, "fusion_lon": 0.0, "rental_uris": {"ios": "https://dc.lft.to/lastmile_qr_scan", "android": "https://dc.lft.to/lastmile_qr_scan"}, "lon": -76.98587183333333, "bike_id": "51e01e9fecc236db0c82a60c3503fa6f", "type": "electric_bike", "name": "51e01e9fecc236db0c82a60c3503fa6f"}, {"is_disabled": 0, "is_reserved": 0, "fusion_lat": 0.0, "lat": 38.93173766666666, "fusion_lon": 0.0, "rental_uris": {"ios": "https://dc.lft.to/lastmile_qr_scan", "android": "https://dc.lft.to/lastmile_qr_scan"}, "lon": -77.028124, "bike_id": "ce2d201f17902e67b5c8ca74210508ac", "type": "electric_scooter", "name": "ce2d201f17902e67b5c8ca74210508ac"}, {"is_disabled": 0, "is_reserved": 0, "fusion_lat": 0.0, "lat": 38.917014, "fusion_lon": 0.0, "rental_uris": {"ios": "https://dc.lft.to/lastmile_qr_scan", "android": "https://dc.lft.to/lastmile_qr_scan"}, "lon": -77.03466483333334, "bike_id": "b1416deef3d3a351984264bddf6efa9d", "type": "electric_scooter", "name": "b1416deef3d3a351984264bddf6efa9d"}, {"is_disabled": 0, "is_reserved": 0, "fusion_lat": 0.0, "lat": 38.9319555, "fusion_lon": 0.0, "rental_uris": {"ios": "https://dc.lft.to/lastmile_qr_scan", "android": "https://dc.lft.to/lastmile_qr_scan"}, "lon": -77.02355616666667, "bike_id": "7c37957601d2a892874ab9270c5850f3", "type": "electric_scooter", "name": "7c37957601d2a892874ab9270c5850f3"}, {"is_disabled": 0, "is_reserved": 0, "fusion_lat": 0.0, "lat": 38.917993333333335, "fusion_lon": 0.0, "rental_uris": {"ios": "https://dc.lft.to/lastmile_qr_scan", "android": "https://dc.lft.to/lastmile_qr_scan"}, "lon": -77.02317316666667, "bike_id": "c948063e57d1df2079b810c890830c5b", "type": "electric_scooter", "name": "c948063e57d1df2079b810c890830c5b"}, {"is_disabled": 0, "is_reserved": 0, "fusion_lat": 0.0, "lat": 38.919054333333335, "fusion_lon": 0.0, "rental_uris": {"ios": "https://dc.lft.to/lastmile_qr_scan", "android": "https://dc.lft.to/lastmile_qr_scan"}, "lon": -77.01182016666667, "bike_id": "db729c3a421a0a16c2a41b7fee86d0ca", "type": "electric_scooter", "name": "db729c3a421a0a16c2a41b7fee86d0ca"}, {"is_disabled": 0, "is_reserved": 0, "fusion_lat": 0.0, "lat": 38.89621966666667, "fusion_lon": 0.0, "rental_uris": {"ios": "https://dc.lft.to/lastmile_qr_scan", "android": "https://dc.lft.to/lastmile_qr_scan"}, "lon": -76.90753366666667, "bike_id": "480debf541c358a5773d9b37d92ca473", "type": "electric_bike", "name": "480debf541c358a5773d9b37d92ca473"}, {"is_disabled": 0, "is_reserved": 0, "fusion_lat": 0.0, "lat": 38.92255466666667, "fusion_lon": 0.0, "rental_uris": {"ios": "https://dc.lft.to/lastmile_qr_scan", "android": "https://dc.lft.to/lastmile_qr_scan"}, "lon": -77.03389333333334, "bike_id": "972eefe97553c8f2aa3640bd8d7331b6", "type": "electric_scooter", "name": "972eefe97553c8f2aa3640bd8d7331b6"}, {"is_disabled": 0, "is_reserved": 0, "fusion_lat": 0.0, "lat": 38.923210166666664, "fusion_lon": 0.0, "rental_uris": {"ios": "https://dc.lft.to/lastmile_qr_scan", "android": "https://dc.lft.to/lastmile_qr_scan"}, "lon": -77.03667466666667, "bike_id": "2f865f1c010c01e288bc8d2f51a479ca", "type": "electric_scooter", "name": "2f865f1c010c01e288bc8d2f51a479ca"}, {"is_disabled": 0, "is_reserved": 0, "fusion_lat": 0.0, "lat": 38.9568965, "fusion_lon": 0.0, "rental_uris": {"ios": "https://dc.lft.to/lastmile_qr_scan", "android": "https://dc.lft.to/lastmile_qr_scan"}, "lon": -77.02231516666667, "bike_id": "695e489112c0c0ffb46a6a320c20bb52", "type": "electric_scooter", "name": "695e489112c0c0ffb46a6a320c20bb52"}, {"is_disabled": 0, "is_reserved": 0, "fusion_lat": 0.0, "lat": 38.90160233333334, "fusion_lon": 0.0, "rental_uris": {"ios": "https://dc.lft.to/lastmile_qr_scan", "android": "https://dc.lft.to/lastmile_qr_scan"}, "lon": -77.05329816666666, "bike_id": "c68010e5c77d0236e817fcd368025f3e", "type": "electric_scooter", "name": "c68010e5c77d0236e817fcd368025f3e"}, {"is_disabled": 0, "is_reserved": 0, "fusion_lat": 0.0, "lat": 38.95878533333333, "fusion_lon": 0.0, "rental_uris": {"ios": "https://dc.lft.to/lastmile_qr_scan", "android": "https://dc.lft.to/lastmile_qr_scan"}, "lon": -77.01406183333333, "bike_id": "867f8bc842f633a2e910ddcb704abe3e", "type": "electric_bike", "name": "867f8bc842f633a2e910ddcb704abe3e"}, {"is_disabled": 0, "is_reserved": 0, "fusion_lat": 0.0, "lat": 38.8788715, "fusion_lon": 0.0, "rental_uris": {"ios": "https://dc.lft.to/lastmile_qr_scan", "android": "https://dc.lft.to/lastmile_qr_scan"}, "lon": -76.96546366666666, "bike_id": "e90033539c9fb95da828040771bfd383", "type": "electric_scooter", "name": "e90033539c9fb95da828040771bfd383"}, {"is_disabled": 0, "is_reserved": 0, "fusion_lat": 0.0, "lat": 38.919874166666666, "fusion_lon": 0.0, "rental_uris": {"ios": "https://dc.lft.to/lastmile_qr_scan", "android": "https://dc.lft.to/lastmile_qr_scan"}, "lon": -77.01786983333334, "bike_id": "91783a1f40636be1f0f0a15458924d50", "type": "electric_scooter", "name": "91783a1f40636be1f0f0a15458924d50"}, {"is_disabled": 0, "is_reserved": 0, "fusion_lat": 0.0, "lat": 38.91350883333333, "fusion_lon": 0.0, "rental_uris": {"ios": "https://dc.lft.to/lastmile_qr_scan", "android": "https://dc.lft.to/lastmile_qr_scan"}, "lon": -77.0320525, "bike_id": "82a88830c10de1e954c5408dfb223fe9", "type": "electric_scooter", "name": "82a88830c10de1e954c5408dfb223fe9"}, {"is_disabled": 0, "is_reserved": 0, "fusion_lat": 0.0, "lat": 38.90868016666667, "fusion_lon": 0.0, "rental_uris": {"ios": "https://dc.lft.to/lastmile_qr_scan", "android": "https://dc.lft.to/lastmile_qr_scan"}, "lon": -77.08590066666666, "bike_id": "8c174cb3caac7b10dc1449d1cb3ad264", "type": "electric_scooter", "name": "8c174cb3caac7b10dc1449d1cb3ad264"}, {"is_disabled": 0, "is_reserved": 0, "fusion_lat": 0.0, "lat": 38.92961233333333, "fusion_lon": 0.0, "rental_uris": {"ios": "https://dc.lft.to/lastmile_qr_scan", "android": "https://dc.lft.to/lastmile_qr_scan"}, "lon": -77.04202166666667, "bike_id": "46f1d6e3ab0e5c7db23bb9637ec488c6", "type": "electric_scooter", "name": "46f1d6e3ab0e5c7db23bb9637ec488c6"}, {"is_disabled": 0, "is_reserved": 0, "fusion_lat": 0.0, "lat": 38.9472325, "fusion_lon": 0.0, "rental_uris": {"ios": "https://dc.lft.to/lastmile_qr_scan", "android": "https://dc.lft.to/lastmile_qr_scan"}, "lon": -77.02352866666666, "bike_id": "bfa392090f4263ffe98d3f9cc0868042", "type": "electric_scooter", "name": "bfa392090f4263ffe98d3f9cc0868042"}, {"is_disabled": 0, "is_reserved": 0, "fusion_lat": 0.0, "lat": 38.917867333333334, "fusion_lon": 0.0, "rental_uris": {"ios": "https://dc.lft.to/lastmile_qr_scan", "android": "https://dc.lft.to/lastmile_qr_scan"}, "lon": -77.024726, "bike_id": "cf7901d2f0fe0c67a5cb18a3d2044444", "type": "electric_scooter", "name": "cf7901d2f0fe0c67a5cb18a3d2044444"}, {"is_disabled": 0, "is_reserved": 0, "fusion_lat": 0.0, "lat": 38.89595683333334, "fusion_lon": 0.0, "rental_uris": {"ios": "https://dc.lft.to/lastmile_qr_scan", "android": "https://dc.lft.to/lastmile_qr_scan"}, "lon": -77.02511266666667, "bike_id": "25a4e57cbad76af854c9c519ec93db4b", "type": "electric_scooter", "name": "25a4e57cbad76af854c9c519ec93db4b"}, {"is_disabled": 0, "is_reserved": 0, "fusion_lat": 0.0, "lat": 38.920872833333334, "fusion_lon": 0.0, "rental_uris": {"ios": "https://dc.lft.to/lastmile_qr_scan", "android": "https://dc.lft.to/lastmile_qr_scan"}, "lon": -77.02250016666666, "bike_id": "10b91b92f8a58d0343e7fc778f6c4ee1", "type": "electric_scooter", "name": "10b91b92f8a58d0343e7fc778f6c4ee1"}, {"is_disabled": 0, "is_reserved": 0, "fusion_lat": 0.0, "lat": 38.9085865, "fusion_lon": 0.0, "rental_uris": {"ios": "https://dc.lft.to/lastmile_qr_scan", "android": "https://dc.lft.to/lastmile_qr_scan"}, "lon": -77.04829866666667, "bike_id": "0cb58590bca251b0e4f7ed0d2f78c85f", "type": "electric_scooter", "name": "0cb58590bca251b0e4f7ed0d2f78c85f"}, {"is_disabled": 0, "is_reserved": 0, "fusion_lat": 0.0, "lat": 38.901881333333336, "fusion_lon": 0.0, "rental_uris": {"ios": "https://dc.lft.to/lastmile_qr_scan", "android": "https://dc.lft.to/lastmile_qr_scan"}, "lon": -77.05080566666666, "bike_id": "07fda70d223ff915af7edb529edc57c4", "type": "electric_scooter", "name": "07fda70d223ff915af7edb529edc57c4"}, {"is_disabled": 0, "is_reserved": 0, "fusion_lat": 0.0, "lat": 38.92522733333333, "fusion_lon": 0.0, "rental_uris": {"ios": "https://dc.lft.to/lastmile_qr_scan", "android": "https://dc.lft.to/lastmile_qr_scan"}, "lon": -77.0384825, "bike_id": "045a064439330db9eda5e8c278deb5b9", "type": "electric_scooter", "name": "045a064439330db9eda5e8c278deb5b9"}, {"is_disabled": 0, "is_reserved": 0, "fusion_lat": 0.0, "lat": 38.92706066666667, "fusion_lon": 0.0, "rental_uris": {"ios": "https://dc.lft.to/lastmile_qr_scan", "android": "https://dc.lft.to/lastmile_qr_scan"}, "lon": -76.96078533333333, "bike_id": "f3a49796a68a8a31d55c6cf6e6c2bdab", "type": "electric_scooter", "name": "f3a49796a68a8a31d55c6cf6e6c2bdab"}, {"is_disabled": 0, "is_reserved": 0, "fusion_lat": 0.0, "lat": 38.918174, "fusion_lon": 0.0, "rental_uris": {"ios": "https://dc.lft.to/lastmile_qr_scan", "android": "https://dc.lft.to/lastmile_qr_scan"}, "lon": -77.02531, "bike_id": "f7796011384b0714ef8a83e4ea95040a", "type": "electric_scooter", "name": "f7796011384b0714ef8a83e4ea95040a"}, {"is_disabled": 0, "is_reserved": 0, "fusion_lat": 0.0, "lat": 38.94914883333333, "fusion_lon": 0.0, "rental_uris": {"ios": "https://dc.lft.to/lastmile_qr_scan", "android": "https://dc.lft.to/lastmile_qr_scan"}, "lon": -77.02081583333333, "bike_id": "fb09c3674f4698b76a90056ab19b67bc", "type": "electric_scooter", "name": "fb09c3674f4698b76a90056ab19b67bc"}, {"is_disabled": 0, "is_reserved": 0, "fusion_lat": 0.0, "lat": 38.87523183333333, "fusion_lon": 0.0, "rental_uris": {"ios": "https://dc.lft.to/lastmile_qr_scan", "android": "https://dc.lft.to/lastmile_qr_scan"}, "lon": -77.01229083333334, "bike_id": "5589055da090c23d8714fcf47eb7e1ad", "type": "electric_scooter", "name": "5589055da090c23d8714fcf47eb7e1ad"}, {"is_disabled": 0, "is_reserved": 0, "fusion_lat": 0.0, "lat": 38.88076066666667, "fusion_lon": 0.0, "rental_uris": {"ios": "https://dc.lft.to/lastmile_qr_scan", "android": "https://dc.lft.to/lastmile_qr_scan"}, "lon": -76.9853505, "bike_id": "4df5d99ea1e153eff85e283e4e434690", "type": "electric_bike", "name": "4df5d99ea1e153eff85e283e4e434690"}, {"is_disabled": 0, "is_reserved": 0, "fusion_lat": 0.0, "lat": 38.9155335, "fusion_lon": 0.0, "rental_uris": {"ios": "https://dc.lft.to/lastmile_qr_scan", "android": "https://dc.lft.to/lastmile_qr_scan"}, "lon": -77.00360966666666, "bike_id": "2159c4729b865047ed3c764b53bd5210", "type": "electric_scooter", "name": "2159c4729b865047ed3c764b53bd5210"}, {"is_disabled": 0, "is_reserved": 0, "fusion_lat": 0.0, "lat": 38.9017325, "fusion_lon": 0.0, "rental_uris": {"ios": "https://dc.lft.to/lastmile_qr_scan", "android": "https://dc.lft.to/lastmile_qr_scan"}, "lon": -77.02398416666666, "bike_id": "a8ff180960fedd26ed8f89068293d454", "type": "electric_scooter", "name": "a8ff180960fedd26ed8f89068293d454"}, {"is_disabled": 0, "is_reserved": 0, "fusion_lat": 0.0, "lat": 38.91619683333333, "fusion_lon": 0.0, "rental_uris": {"ios": "https://dc.lft.to/lastmile_qr_scan", "android": "https://dc.lft.to/lastmile_qr_scan"}, "lon": -77.02107116666667, "bike_id": "8063465f3ef3cd3698589417f2727e4c", "type": "electric_scooter", "name": "8063465f3ef3cd3698589417f2727e4c"}, {"is_disabled": 0, "is_reserved": 0, "fusion_lat": 0.0, "lat": 38.8935965, "fusion_lon": 0.0, "rental_uris": {"ios": "https://dc.lft.to/lastmile_qr_scan", "android": "https://dc.lft.to/lastmile_qr_scan"}, "lon": -77.01976933333333, "bike_id": "3821218e438629124fde62f256259348", "type": "electric_scooter", "name": "3821218e438629124fde62f256259348"}, {"is_disabled": 0, "is_reserved": 0, "fusion_lat": 0.0, "lat": 38.91659383333333, "fusion_lon": 0.0, "rental_uris": {"ios": "https://dc.lft.to/lastmile_qr_scan", "android": "https://dc.lft.to/lastmile_qr_scan"}, "lon": -77.02392316666666, "bike_id": "1e4dce37e24cca58dfeee176b1a2ac17", "type": "electric_scooter", "name": "1e4dce37e24cca58dfeee176b1a2ac17"}, {"is_disabled": 0, "is_reserved": 0, "fusion_lat": 0.0, "lat": 38.92102516666667, "fusion_lon": 0.0, "rental_uris": {"ios": "https://dc.lft.to/lastmile_qr_scan", "android": "https://dc.lft.to/lastmile_qr_scan"}, "lon": -77.02526, "bike_id": "397e7bfbbc9ef1c1246e2c44bb850d1f", "type": "electric_scooter", "name": "397e7bfbbc9ef1c1246e2c44bb850d1f"}, {"is_disabled": 0, "is_reserved": 0, "fusion_lat": 0.0, "lat": 38.881029166666664, "fusion_lon": 0.0, "rental_uris": {"ios": "https://dc.lft.to/lastmile_qr_scan", "android": "https://dc.lft.to/lastmile_qr_scan"}, "lon": -77.0166025, "bike_id": "9769cd61100a517560f9d3885113e63b", "type": "electric_bike", "name": "9769cd61100a517560f9d3885113e63b"}, {"is_disabled": 0, "is_reserved": 0, "fusion_lat": 0.0, "lat": 38.918013, "fusion_lon": 0.0, "rental_uris": {"ios": "https://dc.lft.to/lastmile_qr_scan", "android": "https://dc.lft.to/lastmile_qr_scan"}, "lon": -77.03432916666667, "bike_id": "3d3a8e4145b2b48bcacdb95959b44065", "type": "electric_scooter", "name": "3d3a8e4145b2b48bcacdb95959b44065"}, {"is_disabled": 0, "is_reserved": 0, "fusion_lat": 0.0, "lat": 38.923810333333336, "fusion_lon": 0.0, "rental_uris": {"ios": "https://dc.lft.to/lastmile_qr_scan", "android": "https://dc.lft.to/lastmile_qr_scan"}, "lon": -77.02741266666666, "bike_id": "88012b6465c0ed598e7959c18ac05c90", "type": "electric_scooter", "name": "88012b6465c0ed598e7959c18ac05c90"}, {"is_disabled": 0, "is_reserved": 0, "fusion_lat": 0.0, "lat": 38.92392433333333, "fusion_lon": 0.0, "rental_uris": {"ios": "https://dc.lft.to/lastmile_qr_scan", "android": "https://dc.lft.to/lastmile_qr_scan"}, "lon": -77.00002833333333, "bike_id": "eb2f00c6dc598c61e8510f2d936476de", "type": "electric_bike", "name": "eb2f00c6dc598c61e8510f2d936476de"}, {"is_disabled": 0, "is_reserved": 0, "fusion_lat": 0.0, "lat": 38.925215666666666, "fusion_lon": 0.0, "rental_uris": {"ios": "https://dc.lft.to/lastmile_qr_scan", "android": "https://dc.lft.to/lastmile_qr_scan"}, "lon": -77.07711483333334, "bike_id": "79cf190c911a481b858f348fdec26b14", "type": "electric_scooter", "name": "79cf190c911a481b858f348fdec26b14"}, {"is_disabled": 0, "is_reserved": 0, "fusion_lat": 0.0, "lat": 38.932453333333335, "fusion_lon": 0.0, "rental_uris": {"ios": "https://dc.lft.to/lastmile_qr_scan", "android": "https://dc.lft.to/lastmile_qr_scan"}, "lon": -77.03838933333333, "bike_id": "df571429f9ea4ceffadea78fbd85e334", "type": "electric_scooter", "name": "df571429f9ea4ceffadea78fbd85e334"}, {"is_disabled": 0, "is_reserved": 0, "fusion_lat": 0.0, "lat": 38.862860166666664, "fusion_lon": 0.0, "rental_uris": {"ios": "https://dc.lft.to/lastmile_qr_scan", "android": "https://dc.lft.to/lastmile_qr_scan"}, "lon": -76.94517683333333, "bike_id": "c2866158b833f5019a6d40788cc77e12", "type": "electric_bike", "name": "c2866158b833f5019a6d40788cc77e12"}, {"is_disabled": 0, "is_reserved": 0, "fusion_lat": 0.0, "lat": 38.909588666666664, "fusion_lon": 0.0, "rental_uris": {"ios": "https://dc.lft.to/lastmile_qr_scan", "android": "https://dc.lft.to/lastmile_qr_scan"}, "lon": -77.04863316666666, "bike_id": "9e842a6e4dccea3ad2676ef8f4857e53", "type": "electric_scooter", "name": "9e842a6e4dccea3ad2676ef8f4857e53"}, {"is_disabled": 0, "is_reserved": 0, "fusion_lat": 0.0, "lat": 38.90731816666667, "fusion_lon": 0.0, "rental_uris": {"ios": "https://dc.lft.to/lastmile_qr_scan", "android": "https://dc.lft.to/lastmile_qr_scan"}, "lon": -77.07609733333334, "bike_id": "029ee61d9a1f188d6996c8362ef1ba9e", "type": "electric_scooter", "name": "029ee61d9a1f188d6996c8362ef1ba9e"}, {"is_disabled": 0, "is_reserved": 0, "fusion_lat": 0.0, "lat": 38.912551666666666, "fusion_lon": 0.0, "rental_uris": {"ios": "https://dc.lft.to/lastmile_qr_scan", "android": "https://dc.lft.to/lastmile_qr_scan"}, "lon": -77.03868133333333, "bike_id": "fa6810a884a89342bf6e5b582a01e599", "type": "electric_scooter", "name": "fa6810a884a89342bf6e5b582a01e599"}, {"is_disabled": 0, "is_reserved": 0, "fusion_lat": 0.0, "lat": 38.92486783333333, "fusion_lon": 0.0, "rental_uris": {"ios": "https://dc.lft.to/lastmile_qr_scan", "android": "https://dc.lft.to/lastmile_qr_scan"}, "lon": -77.0251895, "bike_id": "0614a35e6ffbbc72122084f4b6ddac47", "type": "electric_scooter", "name": "0614a35e6ffbbc72122084f4b6ddac47"}, {"is_disabled": 0, "is_reserved": 0, "fusion_lat": 0.0, "lat": 38.90656583333333, "fusion_lon": 0.0, "rental_uris": {"ios": "https://dc.lft.to/lastmile_qr_scan", "android": "https://dc.lft.to/lastmile_qr_scan"}, "lon": -76.97938583333334, "bike_id": "23a4fa0c24f4ef9a4e81953a456e69e0", "type": "electric_scooter", "name": "23a4fa0c24f4ef9a4e81953a456e69e0"}, {"is_disabled": 0, "is_reserved": 0, "fusion_lat": 0.0, "lat": 38.8871605, "fusion_lon": 0.0, "rental_uris": {"ios": "https://dc.lft.to/lastmile_qr_scan", "android": "https://dc.lft.to/lastmile_qr_scan"}, "lon": -76.99626666666667, "bike_id": "1f0b492dc09401409125bf82922b9127", "type": "electric_scooter", "name": "1f0b492dc09401409125bf82922b9127"}, {"is_disabled": 0, "is_reserved": 0, "fusion_lat": 0.0, "lat": 38.905145166666664, "fusion_lon": 0.0, "rental_uris": {"ios": "https://dc.lft.to/lastmile_qr_scan", "android": "https://dc.lft.to/lastmile_qr_scan"}, "lon": -77.029512, "bike_id": "31548580b319d6b5d390b252e8e8c88a", "type": "electric_scooter", "name": "31548580b319d6b5d390b252e8e8c88a"}, {"is_disabled": 0, "is_reserved": 0, "fusion_lat": 0.0, "lat": 38.890565, "fusion_lon": 0.0, "rental_uris": {"ios": "https://dc.lft.to/lastmile_qr_scan", "android": "https://dc.lft.to/lastmile_qr_scan"}, "lon": -77.019683, "bike_id": "d4ca7ea9b1cf58142e2e714461258b88", "type": "electric_scooter", "name": "d4ca7ea9b1cf58142e2e714461258b88"}, {"is_disabled": 0, "is_reserved": 0, "fusion_lat": 0.0, "lat": 38.9235995, "fusion_lon": 0.0, "rental_uris": {"ios": "https://dc.lft.to/lastmile_qr_scan", "android": "https://dc.lft.to/lastmile_qr_scan"}, "lon": -77.05275516666667, "bike_id": "5f5deb3e1a40633a9c7a0a1467bc197f", "type": "electric_scooter", "name": "5f5deb3e1a40633a9c7a0a1467bc197f"}, {"is_disabled": 0, "is_reserved": 0, "fusion_lat": 0.0, "lat": 38.868304333333334, "fusion_lon": 0.0, "rental_uris": {"ios": "https://dc.lft.to/lastmile_qr_scan", "android": "https://dc.lft.to/lastmile_qr_scan"}, "lon": -76.980131, "bike_id": "35b8a45a8cf6d6b2fdaaebca74258b03", "type": "electric_bike", "name": "35b8a45a8cf6d6b2fdaaebca74258b03"}, {"is_disabled": 0, "is_reserved": 0, "fusion_lat": 0.0, "lat": 38.937553666666666, "fusion_lon": 0.0, "rental_uris": {"ios": "https://dc.lft.to/lastmile_qr_scan", "android": "https://dc.lft.to/lastmile_qr_scan"}, "lon": -77.03437233333334, "bike_id": "a5ff78574da7c9bc3de89909648b2bcc", "type": "electric_scooter", "name": "a5ff78574da7c9bc3de89909648b2bcc"}, {"is_disabled": 0, "is_reserved": 0, "fusion_lat": 0.0, "lat": 38.923861333333335, "fusion_lon": 0.0, "rental_uris": {"ios": "https://dc.lft.to/lastmile_qr_scan", "android": "https://dc.lft.to/lastmile_qr_scan"}, "lon": -77.04309233333333, "bike_id": "a00a501a50db89b40c73dbbd5c22c4f0", "type": "electric_scooter", "name": "a00a501a50db89b40c73dbbd5c22c4f0"}, {"is_disabled": 0, "is_reserved": 0, "fusion_lat": 0.0, "lat": 38.939171333333334, "fusion_lon": 0.0, "rental_uris": {"ios": "https://dc.lft.to/lastmile_qr_scan", "android": "https://dc.lft.to/lastmile_qr_scan"}, "lon": -77.032618, "bike_id": "83512507b40879b750e152881845313b", "type": "electric_scooter", "name": "83512507b40879b750e152881845313b"}, {"is_disabled": 0, "is_reserved": 0, "fusion_lat": 0.0, "lat": 38.897324166666664, "fusion_lon": 0.0, "rental_uris": {"ios": "https://dc.lft.to/lastmile_qr_scan", "android": "https://dc.lft.to/lastmile_qr_scan"}, "lon": -77.049912, "bike_id": "a66025f23290a4fc39fb5b0dd1237ab5", "type": "electric_scooter", "name": "a66025f23290a4fc39fb5b0dd1237ab5"}, {"is_disabled": 0, "is_reserved": 0, "fusion_lat": 0.0, "lat": 38.878686, "fusion_lon": 0.0, "rental_uris": {"ios": "https://dc.lft.to/lastmile_qr_scan", "android": "https://dc.lft.to/lastmile_qr_scan"}, "lon": -77.01760816666666, "bike_id": "8e1b156f62a4e3ffafaa009468f76dfb", "type": "electric_scooter", "name": "8e1b156f62a4e3ffafaa009468f76dfb"}, {"is_disabled": 0, "is_reserved": 0, "fusion_lat": 0.0, "lat": 38.92383383333333, "fusion_lon": 0.0, "rental_uris": {"ios": "https://dc.lft.to/lastmile_qr_scan", "android": "https://dc.lft.to/lastmile_qr_scan"}, "lon": -77.03663, "bike_id": "486c718ffc7edfa299ec16d8b49b53b0", "type": "electric_scooter", "name": "486c718ffc7edfa299ec16d8b49b53b0"}, {"is_disabled": 0, "is_reserved": 0, "fusion_lat": 0.0, "lat": 38.918070666666665, "fusion_lon": 0.0, "rental_uris": {"ios": "https://dc.lft.to/lastmile_qr_scan", "android": "https://dc.lft.to/lastmile_qr_scan"}, "lon": -77.03570033333334, "bike_id": "c45f31ead795b12d28d9b7c89cd7765d", "type": "electric_scooter", "name": "c45f31ead795b12d28d9b7c89cd7765d"}, {"is_disabled": 0, "is_reserved": 0, "fusion_lat": 0.0, "lat": 38.8706725, "fusion_lon": 0.0, "rental_uris": {"ios": "https://dc.lft.to/lastmile_qr_scan", "android": "https://dc.lft.to/lastmile_qr_scan"}, "lon": -77.11032633333333, "bike_id": "c3322a1825e8460f4e04cd1f0240b3b3", "type": "electric_bike", "name": "c3322a1825e8460f4e04cd1f0240b3b3"}, {"is_disabled": 0, "is_reserved": 0, "fusion_lat": 0.0, "lat": 38.921024, "fusion_lon": 0.0, "rental_uris": {"ios": "https://dc.lft.to/lastmile_qr_scan", "android": "https://dc.lft.to/lastmile_qr_scan"}, "lon": -77.032516, "bike_id": "56f8ef84afb728088d7e8cd102c6aaa0", "type": "electric_scooter", "name": "56f8ef84afb728088d7e8cd102c6aaa0"}, {"is_disabled": 0, "is_reserved": 0, "fusion_lat": 0.0, "lat": 38.9279055, "fusion_lon": 0.0, "rental_uris": {"ios": "https://dc.lft.to/lastmile_qr_scan", "android": "https://dc.lft.to/lastmile_qr_scan"}, "lon": -77.0558275, "bike_id": "6303946e19f01322fb108872c0566ca3", "type": "electric_scooter", "name": "6303946e19f01322fb108872c0566ca3"}, {"is_disabled": 0, "is_reserved": 0, "fusion_lat": 0.0, "lat": 38.898263166666666, "fusion_lon": 0.0, "rental_uris": {"ios": "https://dc.lft.to/lastmile_qr_scan", "android": "https://dc.lft.to/lastmile_qr_scan"}, "lon": -77.02944033333333, "bike_id": "c0485fa8f0deca3ccdcc7df14164ec28", "type": "electric_scooter", "name": "c0485fa8f0deca3ccdcc7df14164ec28"}, {"is_disabled": 0, "is_reserved": 0, "fusion_lat": 0.0, "lat": 38.9169625, "fusion_lon": 0.0, "rental_uris": {"ios": "https://dc.lft.to/lastmile_qr_scan", "android": "https://dc.lft.to/lastmile_qr_scan"}, "lon": -77.03464516666666, "bike_id": "88b8a7b8da971d31164b94b663363c06", "type": "electric_scooter", "name": "88b8a7b8da971d31164b94b663363c06"}, {"is_disabled": 0, "is_reserved": 0, "fusion_lat": 0.0, "lat": 38.920642, "fusion_lon": 0.0, "rental_uris": {"ios": "https://dc.lft.to/lastmile_qr_scan", "android": "https://dc.lft.to/lastmile_qr_scan"}, "lon": -77.043583, "bike_id": "b08affa53e11644bb41bc30e12035876", "type": "electric_scooter", "name": "b08affa53e11644bb41bc30e12035876"}, {"is_disabled": 0, "is_reserved": 0, "fusion_lat": 0.0, "lat": 38.915648833333336, "fusion_lon": 0.0, "rental_uris": {"ios": "https://dc.lft.to/lastmile_qr_scan", "android": "https://dc.lft.to/lastmile_qr_scan"}, "lon": -77.03938066666667, "bike_id": "ddc014cff90ce914ae996cfa135fff30", "type": "electric_scooter", "name": "ddc014cff90ce914ae996cfa135fff30"}, {"is_disabled": 0, "is_reserved": 0, "fusion_lat": 0.0, "lat": 38.91709183333333, "fusion_lon": 0.0, "rental_uris": {"ios": "https://dc.lft.to/lastmile_qr_scan", "android": "https://dc.lft.to/lastmile_qr_scan"}, "lon": -77.04125133333334, "bike_id": "e06b92182e8c1bc2ba94fc2f091d48f1", "type": "electric_scooter", "name": "e06b92182e8c1bc2ba94fc2f091d48f1"}, {"is_disabled": 0, "is_reserved": 0, "fusion_lat": 0.0, "lat": 38.87724166666667, "fusion_lon": 0.0, "rental_uris": {"ios": "https://dc.lft.to/lastmile_qr_scan", "android": "https://dc.lft.to/lastmile_qr_scan"}, "lon": -77.00706116666667, "bike_id": "e74dd6daf6c6f941873c24da58e21453", "type": "electric_scooter", "name": "e74dd6daf6c6f941873c24da58e21453"}, {"is_disabled": 0, "is_reserved": 0, "fusion_lat": 0.0, "lat": 38.9314715, "fusion_lon": 0.0, "rental_uris": {"ios": "https://dc.lft.to/lastmile_qr_scan", "android": "https://dc.lft.to/lastmile_qr_scan"}, "lon": -77.0237525, "bike_id": "76d54bca6e4a85f18e8c6af80965a891", "type": "electric_scooter", "name": "76d54bca6e4a85f18e8c6af80965a891"}, {"is_disabled": 0, "is_reserved": 0, "fusion_lat": 0.0, "lat": 38.934467833333336, "fusion_lon": 0.0, "rental_uris": {"ios": "https://dc.lft.to/lastmile_qr_scan", "android": "https://dc.lft.to/lastmile_qr_scan"}, "lon": -77.02972416666667, "bike_id": "3c62bd487d8e2100d5aed2e48dc2821b", "type": "electric_scooter", "name": "3c62bd487d8e2100d5aed2e48dc2821b"}, {"is_disabled": 0, "is_reserved": 0, "fusion_lat": 0.0, "lat": 38.919240333333335, "fusion_lon": 0.0, "rental_uris": {"ios": "https://dc.lft.to/lastmile_qr_scan", "android": "https://dc.lft.to/lastmile_qr_scan"}, "lon": -77.03421333333333, "bike_id": "9a13650b05b9644735d1f23f7bd66b65", "type": "electric_scooter", "name": "9a13650b05b9644735d1f23f7bd66b65"}, {"is_disabled": 0, "is_reserved": 0, "fusion_lat": 0.0, "lat": 38.85557133333333, "fusion_lon": 0.0, "rental_uris": {"ios": "https://dc.lft.to/lastmile_qr_scan", "android": "https://dc.lft.to/lastmile_qr_scan"}, "lon": -77.0640135, "bike_id": "52c4cd93849da5bf6559758598246bf1", "type": "electric_bike", "name": "52c4cd93849da5bf6559758598246bf1"}, {"is_disabled": 0, "is_reserved": 0, "fusion_lat": 0.0, "lat": 38.9225275, "fusion_lon": 0.0, "rental_uris": {"ios": "https://dc.lft.to/lastmile_qr_scan", "android": "https://dc.lft.to/lastmile_qr_scan"}, "lon": -77.03652033333333, "bike_id": "4b4a5e47e722ca87bb0778078f37540e", "type": "electric_scooter", "name": "4b4a5e47e722ca87bb0778078f37540e"}, {"is_disabled": 0, "is_reserved": 0, "fusion_lat": 0.0, "lat": 38.8422515, "fusion_lon": 0.0, "rental_uris": {"ios": "https://dc.lft.to/lastmile_qr_scan", "android": "https://dc.lft.to/lastmile_qr_scan"}, "lon": -76.94895266666667, "bike_id": "be839960cdcd6c6e520b1751b7a052a6", "type": "electric_bike", "name": "be839960cdcd6c6e520b1751b7a052a6"}, {"is_disabled": 0, "is_reserved": 0, "fusion_lat": 0.0, "lat": 38.90248233333333, "fusion_lon": 0.0, "rental_uris": {"ios": "https://dc.lft.to/lastmile_qr_scan", "android": "https://dc.lft.to/lastmile_qr_scan"}, "lon": -77.01750333333334, "bike_id": "f61a0d03d01514a24d9342de4e1c05ed", "type": "electric_scooter", "name": "f61a0d03d01514a24d9342de4e1c05ed"}, {"is_disabled": 0, "is_reserved": 0, "fusion_lat": 0.0, "lat": 38.92824433333333, "fusion_lon": 0.0, "rental_uris": {"ios": "https://dc.lft.to/lastmile_qr_scan", "android": "https://dc.lft.to/lastmile_qr_scan"}, "lon": -77.02257016666667, "bike_id": "af510d547b08f2666acd061e8615faf4", "type": "electric_scooter", "name": "af510d547b08f2666acd061e8615faf4"}, {"is_disabled": 0, "is_reserved": 0, "fusion_lat": 0.0, "lat": 38.914066166666665, "fusion_lon": 0.0, "rental_uris": {"ios": "https://dc.lft.to/lastmile_qr_scan", "android": "https://dc.lft.to/lastmile_qr_scan"}, "lon": -77.032583, "bike_id": "acb3e47550b566c5e240ac3535c8b8a5", "type": "electric_scooter", "name": "acb3e47550b566c5e240ac3535c8b8a5"}, {"is_disabled": 0, "is_reserved": 0, "fusion_lat": 0.0, "lat": 38.927123, "fusion_lon": 0.0, "rental_uris": {"ios": "https://dc.lft.to/lastmile_qr_scan", "android": "https://dc.lft.to/lastmile_qr_scan"}, "lon": -77.03819383333334, "bike_id": "06805c0c92eda1c6007d7de2e81f02ea", "type": "electric_scooter", "name": "06805c0c92eda1c6007d7de2e81f02ea"}, {"is_disabled": 0, "is_reserved": 0, "fusion_lat": 0.0, "lat": 38.95743516666667, "fusion_lon": 0.0, "rental_uris": {"ios": "https://dc.lft.to/lastmile_qr_scan", "android": "https://dc.lft.to/lastmile_qr_scan"}, "lon": -77.02067316666667, "bike_id": "4f7ec801ef52fbd9fe847360a6224723", "type": "electric_scooter", "name": "4f7ec801ef52fbd9fe847360a6224723"}, {"is_disabled": 0, "is_reserved": 0, "fusion_lat": 0.0, "lat": 38.98368466666667, "fusion_lon": 0.0, "rental_uris": {"ios": "https://dc.lft.to/lastmile_qr_scan", "android": "https://dc.lft.to/lastmile_qr_scan"}, "lon": -76.98852033333333, "bike_id": "b2e1c0f0fbc5d6c53bf428c89e094516", "type": "electric_bike", "name": "b2e1c0f0fbc5d6c53bf428c89e094516"}, {"is_disabled": 0, "is_reserved": 0, "fusion_lat": 0.0, "lat": 38.92334533333333, "fusion_lon": 0.0, "rental_uris": {"ios": "https://dc.lft.to/lastmile_qr_scan", "android": "https://dc.lft.to/lastmile_qr_scan"}, "lon": -77.05684716666667, "bike_id": "b193d9c72f067f128daad2b9982ae496", "type": "electric_scooter", "name": "b193d9c72f067f128daad2b9982ae496"}, {"is_disabled": 0, "is_reserved": 0, "fusion_lat": 0.0, "lat": 38.8558735, "fusion_lon": 0.0, "rental_uris": {"ios": "https://dc.lft.to/lastmile_qr_scan", "android": "https://dc.lft.to/lastmile_qr_scan"}, "lon": -76.98566483333333, "bike_id": "dac565850e3c63e0eb69fe084dac0eaa", "type": "electric_scooter", "name": "dac565850e3c63e0eb69fe084dac0eaa"}, {"is_disabled": 0, "is_reserved": 0, "fusion_lat": 0.0, "lat": 38.894848333333336, "fusion_lon": 0.0, "rental_uris": {"ios": "https://dc.lft.to/lastmile_qr_scan", "android": "https://dc.lft.to/lastmile_qr_scan"}, "lon": -77.04164816666666, "bike_id": "b86bc79361c1fa7c0aeced19cadd7f86", "type": "electric_scooter", "name": "b86bc79361c1fa7c0aeced19cadd7f86"}, {"is_disabled": 0, "is_reserved": 0, "fusion_lat": 0.0, "lat": 38.8751485, "fusion_lon": 0.0, "rental_uris": {"ios": "https://dc.lft.to/lastmile_qr_scan", "android": "https://dc.lft.to/lastmile_qr_scan"}, "lon": -77.11756733333333, "bike_id": "590579a306d9e9ed3bda2fb84406e0ac", "type": "electric_bike", "name": "590579a306d9e9ed3bda2fb84406e0ac"}, {"is_disabled": 0, "is_reserved": 0, "fusion_lat": 0.0, "lat": 38.900256166666665, "fusion_lon": 0.0, "rental_uris": {"ios": "https://dc.lft.to/lastmile_qr_scan", "android": "https://dc.lft.to/lastmile_qr_scan"}, "lon": -77.01197483333333, "bike_id": "3b67f9d92ba2408d940b5369545fd393", "type": "electric_scooter", "name": "3b67f9d92ba2408d940b5369545fd393"}, {"is_disabled": 0, "is_reserved": 0, "fusion_lat": 0.0, "lat": 38.884858666666666, "fusion_lon": 0.0, "rental_uris": {"ios": "https://dc.lft.to/lastmile_qr_scan", "android": "https://dc.lft.to/lastmile_qr_scan"}, "lon": -77.03477383333333, "bike_id": "d6808f5cf839fc6a30988c9a416191cd", "type": "electric_scooter", "name": "d6808f5cf839fc6a30988c9a416191cd"}, {"is_disabled": 0, "is_reserved": 0, "fusion_lat": 0.0, "lat": 38.90711133333333, "fusion_lon": 0.0, "rental_uris": {"ios": "https://dc.lft.to/lastmile_qr_scan", "android": "https://dc.lft.to/lastmile_qr_scan"}, "lon": -77.03204366666667, "bike_id": "443dc2efc514ca194243b9bc6ace6838", "type": "electric_scooter", "name": "443dc2efc514ca194243b9bc6ace6838"}, {"is_disabled": 0, "is_reserved": 0, "fusion_lat": 0.0, "lat": 38.91994433333333, "fusion_lon": 0.0, "rental_uris": {"ios": "https://dc.lft.to/lastmile_qr_scan", "android": "https://dc.lft.to/lastmile_qr_scan"}, "lon": -77.04172833333334, "bike_id": "38864f4d8cda332949737903ed9d553b", "type": "electric_scooter", "name": "38864f4d8cda332949737903ed9d553b"}, {"is_disabled": 0, "is_reserved": 0, "fusion_lat": 0.0, "lat": 38.9113195, "fusion_lon": 0.0, "rental_uris": {"ios": "https://dc.lft.to/lastmile_qr_scan", "android": "https://dc.lft.to/lastmile_qr_scan"}, "lon": -77.02096783333333, "bike_id": "c0029fcbf6dbfa3227f6bf87a8eaf9c9", "type": "electric_scooter", "name": "c0029fcbf6dbfa3227f6bf87a8eaf9c9"}, {"is_disabled": 0, "is_reserved": 0, "fusion_lat": 0.0, "lat": 38.904727333333334, "fusion_lon": 0.0, "rental_uris": {"ios": "https://dc.lft.to/lastmile_qr_scan", "android": "https://dc.lft.to/lastmile_qr_scan"}, "lon": -76.950554, "bike_id": "84d5d9ab747e5497941476c525fbc0e8", "type": "electric_scooter", "name": "84d5d9ab747e5497941476c525fbc0e8"}, {"is_disabled": 0, "is_reserved": 0, "fusion_lat": 0.0, "lat": 38.904758333333334, "fusion_lon": 0.0, "rental_uris": {"ios": "https://dc.lft.to/lastmile_qr_scan", "android": "https://dc.lft.to/lastmile_qr_scan"}, "lon": -77.04858516666667, "bike_id": "d0f8c5ca1fa39bd11dc8b9a5c752e3d0", "type": "electric_scooter", "name": "d0f8c5ca1fa39bd11dc8b9a5c752e3d0"}, {"is_disabled": 0, "is_reserved": 0, "fusion_lat": 0.0, "lat": 38.90892066666667, "fusion_lon": 0.0, "rental_uris": {"ios": "https://dc.lft.to/lastmile_qr_scan", "android": "https://dc.lft.to/lastmile_qr_scan"}, "lon": -77.04404033333333, "bike_id": "7935511e3f7483816c86b354ba6ac462", "type": "electric_scooter", "name": "7935511e3f7483816c86b354ba6ac462"}, {"is_disabled": 0, "is_reserved": 0, "fusion_lat": 0.0, "lat": 38.930799, "fusion_lon": 0.0, "rental_uris": {"ios": "https://dc.lft.to/lastmile_qr_scan", "android": "https://dc.lft.to/lastmile_qr_scan"}, "lon": -77.02806216666667, "bike_id": "98752382a323e65ed9425b7e2e25b9a5", "type": "electric_scooter", "name": "98752382a323e65ed9425b7e2e25b9a5"}, {"is_disabled": 0, "is_reserved": 0, "fusion_lat": 0.0, "lat": 38.855321, "fusion_lon": 0.0, "rental_uris": {"ios": "https://dc.lft.to/lastmile_qr_scan", "android": "https://dc.lft.to/lastmile_qr_scan"}, "lon": -76.9918625, "bike_id": "27c7323563ae8e97fe5b14a78230447a", "type": "electric_scooter", "name": "27c7323563ae8e97fe5b14a78230447a"}, {"is_disabled": 0, "is_reserved": 0, "fusion_lat": 0.0, "lat": 38.9260045, "fusion_lon": 0.0, "rental_uris": {"ios": "https://dc.lft.to/lastmile_qr_scan", "android": "https://dc.lft.to/lastmile_qr_scan"}, "lon": -77.02154116666667, "bike_id": "efbee513db49c4d93f8b0528e6ff6853", "type": "electric_scooter", "name": "efbee513db49c4d93f8b0528e6ff6853"}, {"is_disabled": 0, "is_reserved": 0, "fusion_lat": 0.0, "lat": 38.892237, "fusion_lon": 0.0, "rental_uris": {"ios": "https://dc.lft.to/lastmile_qr_scan", "android": "https://dc.lft.to/lastmile_qr_scan"}, "lon": -77.02780883333334, "bike_id": "22e3bf6dd97e8aa00baf4c0a10f7c21a", "type": "electric_scooter", "name": "22e3bf6dd97e8aa00baf4c0a10f7c21a"}, {"is_disabled": 0, "is_reserved": 0, "fusion_lat": 0.0, "lat": 38.900233666666665, "fusion_lon": 0.0, "rental_uris": {"ios": "https://dc.lft.to/lastmile_qr_scan", "android": "https://dc.lft.to/lastmile_qr_scan"}, "lon": -76.99875033333333, "bike_id": "e3783a0980e46ba9dab6453db0c91bfc", "type": "electric_scooter", "name": "e3783a0980e46ba9dab6453db0c91bfc"}, {"is_disabled": 0, "is_reserved": 0, "fusion_lat": 0.0, "lat": 38.918164166666664, "fusion_lon": 0.0, "rental_uris": {"ios": "https://dc.lft.to/lastmile_qr_scan", "android": "https://dc.lft.to/lastmile_qr_scan"}, "lon": -77.03441783333334, "bike_id": "8a01b6b56f0f4bbe12c2bad6dbff43af", "type": "electric_scooter", "name": "8a01b6b56f0f4bbe12c2bad6dbff43af"}, {"is_disabled": 0, "is_reserved": 0, "fusion_lat": 0.0, "lat": 38.9233995, "fusion_lon": 0.0, "rental_uris": {"ios": "https://dc.lft.to/lastmile_qr_scan", "android": "https://dc.lft.to/lastmile_qr_scan"}, "lon": -76.9987495, "bike_id": "343fbb08288323064fda334e5d1d06f6", "type": "electric_scooter", "name": "343fbb08288323064fda334e5d1d06f6"}, {"is_disabled": 0, "is_reserved": 0, "fusion_lat": 0.0, "lat": 38.8744185, "fusion_lon": 0.0, "rental_uris": {"ios": "https://dc.lft.to/lastmile_qr_scan", "android": "https://dc.lft.to/lastmile_qr_scan"}, "lon": -77.0005515, "bike_id": "8d8c59b25fda4d9ee260b6ff84f105af", "type": "electric_scooter", "name": "8d8c59b25fda4d9ee260b6ff84f105af"}, {"is_disabled": 0, "is_reserved": 0, "fusion_lat": 0.0, "lat": 38.89990433333333, "fusion_lon": 0.0, "rental_uris": {"ios": "https://dc.lft.to/lastmile_qr_scan", "android": "https://dc.lft.to/lastmile_qr_scan"}, "lon": -77.02716833333334, "bike_id": "9c8c3a54673b38003c0b8f0942bdc345", "type": "electric_bike", "name": "9c8c3a54673b38003c0b8f0942bdc345"}, {"is_disabled": 0, "is_reserved": 0, "fusion_lat": 0.0, "lat": 38.89809416666667, "fusion_lon": 0.0, "rental_uris": {"ios": "https://dc.lft.to/lastmile_qr_scan", "android": "https://dc.lft.to/lastmile_qr_scan"}, "lon": -76.97947233333333, "bike_id": "cd7c76d87e4b6d0b1d99c589bcc01596", "type": "electric_scooter", "name": "cd7c76d87e4b6d0b1d99c589bcc01596"}, {"is_disabled": 0, "is_reserved": 0, "fusion_lat": 0.0, "lat": 38.8923855, "fusion_lon": 0.0, "rental_uris": {"ios": "https://dc.lft.to/lastmile_qr_scan", "android": "https://dc.lft.to/lastmile_qr_scan"}, "lon": -77.03208633333334, "bike_id": "5d7ec9165cf07523bc54157d3f6444ff", "type": "electric_scooter", "name": "5d7ec9165cf07523bc54157d3f6444ff"},