{"data": {"bikes": [{"is_disabled": 0, "fusion_lon": 0.0, "fusion_lat": 0.0, "lat": 38.90012566666667, "type": "electric_scooter", "lon": -77.03967683333333, "bike_id": "f46d5e19f0599ae865ae9cca25bf3f05", "rental_uris": {"android": "https://dc.lft.to/lastmile_qr_scan", "ios": "https://dc.lft.to/lastmile_qr_scan"}, "name": "f46d5e19f0599ae865ae9cca25bf3f05", "is_reserved": 0}, {"is_disabled": 0, "fusion_lon": 0.0, "fusion_lat": 0.0, "lat": 38.90507083333333, "type": "electric_bike", "lon": -77.05682183333333, "bike_id": "33bf43d2207f7ef565512b97f0fec2db", "rental_uris": {"android": "https://dc.lft.to/lastmile_qr_scan", "ios": "https://dc.lft.to/lastmile_qr_scan"}, "name": "33bf43d2207f7ef565512b97f0fec2db", "is_reserved": 0}, {"is_disabled": 0, "fusion_lon": 0.0, "fusion_lat": 0.0, "lat": 38.94492866666667, "type": "electric_bike", "lon": -76.9866265, "bike_id": "24ed6c4378e885f34d84b97df5cf2665", "rental_uris": {"android": "https://dc.lft.to/lastmile_qr_scan", "ios": "https://dc.lft.to/lastmile_qr_scan"}, "name": "24ed6c4378e885f34d84b97df5cf2665", "is_reserved": 0}, {"is_disabled": 0, "fusion_lon": 0.0, "fusion_lat": 0.0, "lat": 38.89369683333334, "type": "electric_scooter", "lon": -77.00324816666667, "bike_id": "dec6cc51ab2b7445f6e683de4226be67", "rental_uris": {"android": "https://dc.lft.to/lastmile_qr_scan", "ios": "https://dc.lft.to/lastmile_qr_scan"}, "name": "dec6cc51ab2b7445f6e683de4226be67", "is_reserved": 0}, {"is_disabled": 0, "fusion_lon": 0.0, "fusion_lat": 0.0, "lat": 38.916424666666664, "type": "electric_scooter", "lon": -77.023802, "bike_id": "a23052fdddaa909e3244d78c059d081e", "rental_uris": {"android": "https://dc.lft.to/lastmile_qr_scan", "ios": "https://dc.lft.to/lastmile_qr_scan"}, "name": "a23052fdddaa909e3244d78c059d081e", "is_reserved": 0}, {"is_disabled": 0, "fusion_lon": 0.0, "fusion_lat": 0.0, "lat": 38.93139166666667, "type": "electric_scooter", "lon": -77.0325235, "bike_id": "8853a54f9395e50a98745ab464867dbc", "rental_uris": {"android": "https://dc.lft.to/lastmile_qr_scan", "ios": "https://dc.lft.to/lastmile_qr_scan"}, "name": "8853a54f9395e50a98745ab464867dbc", "is_reserved": 0}, {"is_disabled": 0, "fusion_lon": 0.0, "fusion_lat": 0.0, "lat": 38.927919, "type": "electric_scooter", "lon": -77.02550183333334, "bike_id": "a6185aede7966f17a72b35f6e41ef7b6", "rental_uris": {"android": "https://dc.lft.to/lastmile_qr_scan", "ios": "https://dc.lft.to/lastmile_qr_scan"}, "name": "a6185aede7966f17a72b35f6e41ef7b6", "is_reserved": 0}, {"is_disabled": 0, "fusion_lon": 0.0, "fusion_lat": 0.0, "lat": 38.88104166666667, "type": "electric_scooter", "lon": -77.026456, "bike_id": "20ec074c7211251a971c8343f529d46e", "rental_uris": {"android": "https://dc.lft.to/lastmile_qr_scan", "ios": "https://dc.lft.to/lastmile_qr_scan"}, "name": "20ec074c7211251a971c8343f529d46e", "is_reserved": 0}, {"is_disabled": 0, "fusion_lon": 0.0, "fusion_lat": 0.0, "lat": 38.9284855, "type": "electric_scooter", "lon": -77.01409283333334, "bike_id": "186dc5d294f1fe08bf8ae48d5abeaa45", "rental_uris": {"android": "https://dc.lft.to/lastmile_qr_scan", "ios": "https://dc.lft.to/lastmile_qr_scan"}, "name": "186dc5d294f1fe08bf8ae48d5abeaa45", "is_reserved": 0}, {"is_disabled": 0, "fusion_lon": 0.0, "fusion_lat": 0.0, "lat": 38.923077, "type": "electric_scooter", "lon": -77.047381, "bike_id": "49714a1bca2f83b4f240d5486e26a85a", "rental_uris": {"android": "https://dc.lft.to/lastmile_qr_scan", "ios": "https://dc.lft.to/lastmile_qr_scan"}, "name": "49714a1bca2f83b4f240d5486e26a85a", "is_reserved": 0}, {"is_disabled": 0, "fusion_lon": 0.0, "fusion_lat": 0.0, "lat": 38.88146016666666, "type": "electric_scooter", "lon": -77.02711816666667, "bike_id": "981396b75c3baa71a5a8fe5877af4d12", "rental_uris": {"android": "https://dc.lft.to/lastmile_qr_scan", "ios": "https://dc.lft.to/lastmile_qr_scan"}, "name": "981396b75c3baa71a5a8fe5877af4d12", "is_reserved": 0}, {"is_disabled": 0, "fusion_lon": 0.0, "fusion_lat": 0.0, "lat": 38.88688033333333, "type": "electric_scooter", "lon": -77.01372583333334, "bike_id": "760c85fd7f0475d7f04bb84f0dd55d17", "rental_uris": {"android": "https://dc.lft.to/lastmile_qr_scan", "ios": "https://dc.lft.to/lastmile_qr_scan"}, "name": "760c85fd7f0475d7f04bb84f0dd55d17", "is_reserved": 0}, {"is_disabled": 0, "fusion_lon": 0.0, "fusion_lat": 0.0, "lat": 38.91875616666667, "type": "electric_scooter", "lon": -77.02476116666666, "bike_id": "727b3f47f13957a6437e1ab2f57db74e", "rental_uris": {"android": "https://dc.lft.to/lastmile_qr_scan", "ios": "https://dc.lft.to/lastmile_qr_scan"}, "name": "727b3f47f13957a6437e1ab2f57db74e", "is_reserved": 0}, {"is_disabled": 0, "fusion_lon": 0.0, "fusion_lat": 0.0, "lat": 38.9351005, "type": "electric_scooter", "lon": -77.082241, "bike_id": "09dbc85868a7efd6cf787ed9de38e0b4", "rental_uris": {"android": "https://dc.lft.to/lastmile_qr_scan", "ios": "https://dc.lft.to/lastmile_qr_scan"}, "name": "09dbc85868a7efd6cf787ed9de38e0b4", "is_reserved": 0}, {"is_disabled": 0, "fusion_lon": 0.0, "fusion_lat": 0.0, "lat": 38.8443285, "type": "electric_scooter", "lon": -76.99786233333333, "bike_id": "bbb21807cc530a4816252522ba07ce84", "rental_uris": {"android": "https://dc.lft.to/lastmile_qr_scan", "ios": "https://dc.lft.to/lastmile_qr_scan"}, "name": "bbb21807cc530a4816252522ba07ce84", "is_reserved": 0}, {"is_disabled": 0, "fusion_lon": 0.0, "fusion_lat": 0.0, "lat": 38.8972005, "type": "electric_scooter", "lon": -77.02421833333334, "bike_id": "e8fe2c94872cc97b068e085f2a06eedd", "rental_uris": {"android": "https://dc.lft.to/lastmile_qr_scan", "ios": "https://dc.lft.to/lastmile_qr_scan"}, "name": "e8fe2c94872cc97b068e085f2a06eedd", "is_reserved": 0}, {"is_disabled": 0, "fusion_lon": 0.0, "fusion_lat": 0.0, "lat": 38.911871166666664, "type": "electric_scooter", "lon": -77.0380585, "bike_id": "b56f28586712e51860871576813ce19c", "rental_uris": {"android": "https://dc.lft.to/lastmile_qr_scan", "ios": "https://dc.lft.to/lastmile_qr_scan"}, "name": "b56f28586712e51860871576813ce19c", "is_reserved": 0}, {"is_disabled": 0, "fusion_lon": 0.0, "fusion_lat": 0.0, "lat": 38.9144825, "type": "electric_scooter", "lon": -77.0217365, "bike_id": "c2a780a96012e4b8dc36524c569d28fe", "rental_uris": {"android": "https://dc.lft.to/lastmile_qr_scan", "ios": "https://dc.lft.to/lastmile_qr_scan"}, "name": "c2a780a96012e4b8dc36524c569d28fe", "is_reserved": 0}, {"is_disabled": 0, "fusion_lon": 0.0, "fusion_lat": 0.0, "lat": 38.913024166666666, "type": "electric_scooter", "lon": -77.03190583333334, "bike_id": "fab9d9bf56c07136858bf9db378c024e", "rental_uris": {"android": "https://dc.lft.to/lastmile_qr_scan", "ios": "https://dc.lft.to/lastmile_qr_scan"}, "name": "fab9d9bf56c07136858bf9db378c024e", "is_reserved": 0}, {"is_disabled": 0, "fusion_lon": 0.0, "fusion_lat": 0.0, "lat": 38.919155333333336, "type": "electric_scooter", "lon": -77.03379216666667, "bike_id": "82e82328bc0e10d82f91a5c2698127a3", "rental_uris": {"android": "https://dc.lft.to/lastmile_qr_scan", "ios": "https://dc.lft.to/lastmile_qr_scan"}, "name": "82e82328bc0e10d82f91a5c2698127a3", "is_reserved": 0}, {"is_disabled": 0, "fusion_lon": 0.0, "fusion_lat": 0.0, "lat": 38.907936, "type": "electric_scooter", "lon": -77.04243516666666, "bike_id": "c299a4ba89cdfd16a647c8c365e1fbba", "rental_uris": {"android": "https://dc.lft.to/lastmile_qr_scan", "ios": "https://dc.lft.to/lastmile_qr_scan"}, "name": "c299a4ba89cdfd16a647c8c365e1fbba", "is_reserved": 0}, {"is_disabled": 0, "fusion_lon": 0.0, "fusion_lat": 0.0, "lat": 38.922663166666666, "type": "electric_scooter", "lon": -77.04207233333334, "bike_id": "12de6822175e45ec0db5739d67cdfae9", "rental_uris": {"android": "https://dc.lft.to/lastmile_qr_scan", "ios": "https://dc.lft.to/lastmile_qr_scan"}, "name": "12de6822175e45ec0db5739d67cdfae9", "is_reserved": 0}, {"is_disabled": 0, "fusion_lon": 0.0, "fusion_lat": 0.0, "lat": 38.970528, "type": "electric_bike", "lon": -77.0307935, "bike_id": "b7acb9d01e85d03ddcb6dac65ab24747", "rental_uris": {"android": "https://dc.lft.to/lastmile_qr_scan", "ios": "https://dc.lft.to/lastmile_qr_scan"}, "name": "b7acb9d01e85d03ddcb6dac65ab24747", "is_reserved": 0}, {"is_disabled": 0, "fusion_lon": 0.0, "fusion_lat": 0.0, "lat": 38.87623766666667, "type": "electric_scooter", "lon": -76.9653735, "bike_id": "e05d91b784e25ab86f2dfcce69ac0a91", "rental_uris": {"android": "https://dc.lft.to/lastmile_qr_scan", "ios": "https://dc.lft.to/lastmile_qr_scan"}, "name": "e05d91b784e25ab86f2dfcce69ac0a91", "is_reserved": 0}, {"is_disabled": 0, "fusion_lon": 0.0, "fusion_lat": 0.0, "lat": 38.9139985, "type": "electric_scooter", "lon": -77.029704, "bike_id": "56e432f32814c6300f8b4c9606273fcd", "rental_uris": {"android": "https://dc.lft.to/lastmile_qr_scan", "ios": "https://dc.lft.to/lastmile_qr_scan"}, "name": "56e432f32814c6300f8b4c9606273fcd", "is_reserved": 0}, {"is_disabled": 0, "fusion_lon": 0.0, "fusion_lat": 0.0, "lat": 38.914934, "type": "electric_scooter", "lon": -77.0282165, "bike_id": "4853007123af887a77c2368a595f6750", "rental_uris": {"android": "https://dc.lft.to/lastmile_qr_scan", "ios": "https://dc.lft.to/lastmile_qr_scan"}, "name": "4853007123af887a77c2368a595f6750", "is_reserved": 0}, {"is_disabled": 0, "fusion_lon": 0.0, "fusion_lat": 0.0, "lat": 38.902466833333335, "type": "electric_bike", "lon": -76.9701425, "bike_id": "82ce34c7a81f1a5b0d74585c3406513e", "rental_uris": {"android": "https://dc.lft.to/lastmile_qr_scan", "ios": "https://dc.lft.to/lastmile_qr_scan"}, "name": "82ce34c7a81f1a5b0d74585c3406513e", "is_reserved": 0}, {"is_disabled": 0, "fusion_lon": 0.0, "fusion_lat": 0.0, "lat": 38.909863, "type": "electric_scooter", "lon": -77.042764, "bike_id": "9d6c3756085de70dc759ba27b001152a", "rental_uris": {"android": "https://dc.lft.to/lastmile_qr_scan", "ios": "https://dc.lft.to/lastmile_qr_scan"}, "name": "9d6c3756085de70dc759ba27b001152a", "is_reserved": 0}, {"is_disabled": 0, "fusion_lon": 0.0, "fusion_lat": 0.0, "lat": 38.91366083333333, "type": "electric_scooter", "lon": -77.02589, "bike_id": "ecda56875253eb6df7903ca3f3e789ca", "rental_uris": {"android": "https://dc.lft.to/lastmile_qr_scan", "ios": "https://dc.lft.to/lastmile_qr_scan"}, "name": "ecda56875253eb6df7903ca3f3e789ca", "is_reserved": 0}, {"is_disabled": 0, "fusion_lon": 0.0, "fusion_lat": 0.0, "lat": 38.89398033333333, "type": "electric_scooter", "lon": -76.94993466666666, "bike_id": "7a6ef290774ac91207c05d4bc8390925", "rental_uris": {"android": "https://dc.lft.to/lastmile_qr_scan", "ios": "https://dc.lft.to/lastmile_qr_scan"}, "name": "7a6ef290774ac91207c05d4bc8390925", "is_reserved": 0}, {"is_disabled": 0, "fusion_lon": 0.0, "fusion_lat": 0.0, "lat": 38.9050445, "type": "electric_scooter", "lon": -76.99624616666667, "bike_id": "70c5b476a4141badd399ad1db10e23c2", "rental_uris": {"android": "https://dc.lft.to/lastmile_qr_scan", "ios": "https://dc.lft.to/lastmile_qr_scan"}, "name": "70c5b476a4141badd399ad1db10e23c2", "is_reserved": 0}, {"is_disabled": 0, "fusion_lon": 0.0, "fusion_lat": 0.0, "lat": 38.922169333333336, "type": "electric_scooter", "lon": -77.04237483333333, "bike_id": "1eb074fcc075c410c31b41912ec887f5", "rental_uris": {"android": "https://dc.lft.to/lastmile_qr_scan", "ios": "https://dc.lft.to/lastmile_qr_scan"}, "name": "1eb074fcc075c410c31b41912ec887f5", "is_reserved": 0}, {"is_disabled": 0, "fusion_lon": 0.0, "fusion_lat": 0.0, "lat": 38.912049833333334, "type": "electric_scooter", "lon": -77.03715216666667, "bike_id": "33942338ea0d249ad1a132b0c757f295", "rental_uris": {"android": "https://dc.lft.to/lastmile_qr_scan", "ios": "https://dc.lft.to/lastmile_qr_scan"}, "name": "33942338ea0d249ad1a132b0c757f295", "is_reserved": 0}, {"is_disabled": 0, "fusion_lon": 0.0, "fusion_lat": 0.0, "lat": 38.917977666666665, "type": "electric_scooter", "lon": -77.027108, "bike_id": "c1fd5bfba33b8ba11ee8f5cd4dc9338d", "rental_uris": {"android": "https://dc.lft.to/lastmile_qr_scan", "ios": "https://dc.lft.to/lastmile_qr_scan"}, "name": "c1fd5bfba33b8ba11ee8f5cd4dc9338d", "is_reserved": 0}, {"is_disabled": 0, "fusion_lon": 0.0, "fusion_lat": 0.0, "lat": 38.898926333333335, "type": "electric_scooter", "lon": -77.0332, "bike_id": "2da837306cdc9b6ffbe6da6e14aee675", "rental_uris": {"android": "https://dc.lft.to/lastmile_qr_scan", "ios": "https://dc.lft.to/lastmile_qr_scan"}, "name": "2da837306cdc9b6ffbe6da6e14aee675", "is_reserved": 0}, {"is_disabled": 0, "fusion_lon": 0.0, "fusion_lat": 0.0, "lat": 38.91858033333333, "type": "electric_bike", "lon": -76.96087666666666, "bike_id": "008ca6ffbbb03801e2808e69b9d2cb1f", "rental_uris": {"android": "https://dc.lft.to/lastmile_qr_scan", "ios": "https://dc.lft.to/lastmile_qr_scan"}, "name": "008ca6ffbbb03801e2808e69b9d2cb1f", "is_reserved": 0}, {"is_disabled": 0, "fusion_lon": 0.0, "fusion_lat": 0.0, "lat": 38.929616833333334, "type": "electric_scooter", "lon": -77.02345533333333, "bike_id": "37c6dcae056021ef9a5ee152b57f2714", "rental_uris": {"android": "https://dc.lft.to/lastmile_qr_scan", "ios": "https://dc.lft.to/lastmile_qr_scan"}, "name": "37c6dcae056021ef9a5ee152b57f2714", "is_reserved": 0}, {"is_disabled": 0, "fusion_lon": 0.0, "fusion_lat": 0.0, "lat": 38.94549266666667, "type": "electric_scooter", "lon": -77.04241333333333, "bike_id": "ebebd69f230629220a12879deb46bb49", "rental_uris": {"android": "https://dc.lft.to/lastmile_qr_scan", "ios": "https://dc.lft.to/lastmile_qr_scan"}, "name": "ebebd69f230629220a12879deb46bb49", "is_reserved": 0}, {"is_disabled": 0, "fusion_lon": 0.0, "fusion_lat": 0.0, "lat": 38.91882116666667, "type": "electric_scooter", "lon": -77.04310616666666, "bike_id": "061d587adbdb23413ae4d6cdc52f48d4", "rental_uris": {"android": "https://dc.lft.to/lastmile_qr_scan", "ios": "https://dc.lft.to/lastmile_qr_scan"}, "name": "061d587adbdb23413ae4d6cdc52f48d4", "is_reserved": 0}, {"is_disabled": 0, "fusion_lon": 0.0, "fusion_lat": 0.0, "lat": 38.926683, "type": "electric_scooter", "lon": -77.04304433333333, "bike_id": "3c6cdc91ae772df20a7ea5d6d56a2c93", "rental_uris": {"android": "https://dc.lft.to/lastmile_qr_scan", "ios": "https://dc.lft.to/lastmile_qr_scan"}, "name": "3c6cdc91ae772df20a7ea5d6d56a2c93", "is_reserved": 0}, {"is_disabled": 0, "fusion_lon": 0.0, "fusion_lat": 0.0, "lat": 38.934824, "type": "electric_scooter", "lon": -77.07266983333334, "bike_id": "6159171ff4aef8c93449644ef1bec7bb", "rental_uris": {"android": "https://dc.lft.to/lastmile_qr_scan", "ios": "https://dc.lft.to/lastmile_qr_scan"}, "name": "6159171ff4aef8c93449644ef1bec7bb", "is_reserved": 0}, {"is_disabled": 0, "fusion_lon": 0.0, "fusion_lat": 0.0, "lat": 38.862473333333334, "type": "electric_scooter", "lon": -76.9950065, "bike_id": "ef855dbbc9ce572c1ce16ba8d6b82b28", "rental_uris": {"android": "https://dc.lft.to/lastmile_qr_scan", "ios": "https://dc.lft.to/lastmile_qr_scan"}, "name": "ef855dbbc9ce572c1ce16ba8d6b82b28", "is_reserved": 0}, {"is_disabled": 0, "fusion_lon": 0.0, "fusion_lat": 0.0, "lat": 38.93891216666667, "type": "electric_scooter", "lon": -77.07764933333333, "bike_id": "4ad4561da513fc2c4af150cb5c00870f", "rental_uris": {"android": "https://dc.lft.to/lastmile_qr_scan", "ios": "https://dc.lft.to/lastmile_qr_scan"}, "name": "4ad4561da513fc2c4af150cb5c00870f", "is_reserved": 0}, {"is_disabled": 0, "fusion_lon": 0.0, "fusion_lat": 0.0, "lat": 38.911323333333335, "type": "electric_scooter", "lon": -77.044157, "bike_id": "633ea9f594862f3332b5f60ebf552f41", "rental_uris": {"android": "https://dc.lft.to/lastmile_qr_scan", "ios": "https://dc.lft.to/lastmile_qr_scan"}, "name": "633ea9f594862f3332b5f60ebf552f41", "is_reserved": 0}, {"is_disabled": 0, "fusion_lon": 0.0, "fusion_lat": 0.0, "lat": 38.90529883333333, "type": "electric_scooter", "lon": -77.0582575, "bike_id": "c4657fa586c3ebf644651e4439f8e7d7", "rental_uris": {"android": "https://dc.lft.to/lastmile_qr_scan", "ios": "https://dc.lft.to/lastmile_qr_scan"}, "name": "c4657fa586c3ebf644651e4439f8e7d7", "is_reserved": 0}, {"is_disabled": 0, "fusion_lon": 0.0, "fusion_lat": 0.0, "lat": 38.84108283333333, "type": "electric_bike", "lon": -77.0893635, "bike_id": "6b3a48f0816dc2a725d87e0ef4dcde61", "rental_uris": {"android": "https://dc.lft.to/lastmile_qr_scan", "ios": "https://dc.lft.to/lastmile_qr_scan"}, "name": "6b3a48f0816dc2a725d87e0ef4dcde61", "is_reserved": 0}, {"is_disabled": 0, "fusion_lon": 0.0, "fusion_lat": 0.0, "lat": 38.901687833333334, "type": "electric_scooter", "lon": -77.02585866666666, "bike_id": "886d575db305afe32fc5d27649c64167", "rental_uris": {"android": "https://dc.lft.to/lastmile_qr_scan", "ios": "https://dc.lft.to/lastmile_qr_scan"}, "name": "886d575db305afe32fc5d27649c64167", "is_reserved": 0}, {"is_disabled": 0, "fusion_lon": 0.0, "fusion_lat": 0.0, "lat": 38.929610333333336, "type": "electric_scooter", "lon": -77.05515633333333, "bike_id": "de5fd5e1a5fd472d59550cc3ef976aa6", "rental_uris": {"android": "https://dc.lft.to/lastmile_qr_scan", "ios": "https://dc.lft.to/lastmile_qr_scan"}, "name": "de5fd5e1a5fd472d59550cc3ef976aa6", "is_reserved": 0}, {"is_disabled": 0, "fusion_lon": 0.0, "fusion_lat": 0.0, "lat": 38.905879666666664, "type": "electric_scooter", "lon": -77.0410545, "bike_id": "8e96778dff60e8e91cfb26b13fe8124e", "rental_uris": {"android": "https://dc.lft.to/lastmile_qr_scan", "ios": "https://dc.lft.to/lastmile_qr_scan"}, "name": "8e96778dff60e8e91cfb26b13fe8124e", "is_reserved": 0}, {"is_disabled": 0, "fusion_lon": 0.0, "fusion_lat": 0.0, "lat": 38.90973683333333, "type": "electric_scooter", "lon": -77.067645, "bike_id": "88f9fa1dc3ae3e30a3035fe2db507346", "rental_uris": {"android": "https://dc.lft.to/lastmile_qr_scan", "ios": "https://dc.lft.to/lastmile_qr_scan"}, "name": "88f9fa1dc3ae3e30a3035fe2db507346", "is_reserved": 0}, {"is_disabled": 0, "fusion_lon": 0.0, "fusion_lat": 0.0, "lat": 38.885883166666666, "type": "electric_scooter", "lon": -77.01981716666667, "bike_id": "3b357137a462a1bfda85df43c9314041", "rental_uris": {"android": "https://dc.lft.to/lastmile_qr_scan", "ios": "https://dc.lft.to/lastmile_qr_scan"}, "name": "3b357137a462a1bfda85df43c9314041", "is_reserved": 0}, {"is_disabled": 0, "fusion_lon": 0.0, "fusion_lat": 0.0, "lat": 38.990908, "type": "electric_bike", "lon": -76.8749335, "bike_id": "50dbab6c9a7c0fbbc5c892c45b0f6c2c", "rental_uris": {"android": "https://dc.lft.to/lastmile_qr_scan", "ios": "https://dc.lft.to/lastmile_qr_scan"}, "name": "50dbab6c9a7c0fbbc5c892c45b0f6c2c", "is_reserved": 0}, {"is_disabled": 0, "fusion_lon": 0.0, "fusion_lat": 0.0, "lat": 38.896764166666664, "type": "electric_scooter", "lon": -77.05082666666667, "bike_id": "c38e7c1f073d5fc6db740c3ea4cf6018", "rental_uris": {"android": "https://dc.lft.to/lastmile_qr_scan", "ios": "https://dc.lft.to/lastmile_qr_scan"}, "name": "c38e7c1f073d5fc6db740c3ea4cf6018", "is_reserved": 0}, {"is_disabled": 0, "fusion_lon": 0.0, "fusion_lat": 0.0, "lat": 38.909560166666665, "type": "electric_scooter", "lon": -77.04726883333333, "bike_id": "f6b972fd21ebd0df06a6743c19b935ac", "rental_uris": {"android": "https://dc.lft.to/lastmile_qr_scan", "ios": "https://dc.lft.to/lastmile_qr_scan"}, "name": "f6b972fd21ebd0df06a6743c19b935ac", "is_reserved": 0}, {"is_disabled": 0, "fusion_lon": 0.0, "fusion_lat": 0.0, "lat": 38.91186416666667, "type": "electric_scooter", "lon": -77.038297, "bike_id": "4bb38193b1f053e782d4ac8b30dcbb4d", "rental_uris": {"android": "https://dc.lft.to/lastmile_qr_scan", "ios": "https://dc.lft.to/lastmile_qr_scan"}, "name": "4bb38193b1f053e782d4ac8b30dcbb4d", "is_reserved": 0}, {"is_disabled": 0, "fusion_lon": 0.0, "fusion_lat": 0.0, "lat": 38.86527183333333, "type": "electric_scooter", "lon": -76.98966666666666, "bike_id": "e87e8425b4c72b65a727dd67449bfc10", "rental_uris": {"android": "https://dc.lft.to/lastmile_qr_scan", "ios": "https://dc.lft.to/lastmile_qr_scan"}, "name": "e87e8425b4c72b65a727dd67449bfc10", "is_reserved": 0}, {"is_disabled": 0, "fusion_lon": 0.0, "fusion_lat": 0.0, "lat": 38.93183166666667, "type": "electric_scooter", "lon": -77.04140216666667, "bike_id": "77aa0c7c53326a9e767cb616954986b1", "rental_uris": {"android": "https://dc.lft.to/lastmile_qr_scan", "ios": "https://dc.lft.to/lastmile_qr_scan"}, "name": "77aa0c7c53326a9e767cb616954986b1", "is_reserved": 0}, {"is_disabled": 0, "fusion_lon": 0.0, "fusion_lat": 0.0, "lat": 38.898472166666664, "type": "electric_scooter", "lon": -76.94495083333334, "bike_id": "762d32af4ba1b341b9f6bb5784d0729c", "rental_uris": {"android": "https://dc.lft.to/lastmile_qr_scan", "ios": "https://dc.lft.to/lastmile_qr_scan"}, "name": "762d32af4ba1b341b9f6bb5784d0729c", "is_reserved": 0}, {"is_disabled": 0, "fusion_lon": 0.0, "fusion_lat": 0.0, "lat": 38.894976166666666, "type": "electric_scooter", "lon": -77.02282283333334, "bike_id": "eaa658573f5d71f7f91bfc52b1ca08fd", "rental_uris": {"android": "https://dc.lft.to/lastmile_qr_scan", "ios": "https://dc.lft.to/lastmile_qr_scan"}, "name": "eaa658573f5d71f7f91bfc52b1ca08fd", "is_reserved": 0}, {"is_disabled": 0, "fusion_lon": 0.0, "fusion_lat": 0.0, "lat": 38.89608333333334, "type": "electric_scooter", "lon": -77.026219, "bike_id": "622a19077ce56877a3d04c6ca850fca1", "rental_uris": {"android": "https://dc.lft.to/lastmile_qr_scan", "ios": "https://dc.lft.to/lastmile_qr_scan"}, "name": "622a19077ce56877a3d04c6ca850fca1", "is_reserved": 0}, {"is_disabled": 0, "fusion_lon": 0.0, "fusion_lat": 0.0, "lat": 38.935549, "type": "electric_scooter", "lon": -77.059035, "bike_id": "b7a9414b5ef85f7ecc77003c7a435ac9", "rental_uris": {"android": "https://dc.lft.to/lastmile_qr_scan", "ios": "https://dc.lft.to/lastmile_qr_scan"}, "name": "b7a9414b5ef85f7ecc77003c7a435ac9", "is_reserved": 0}, {"is_disabled": 0, "fusion_lon": 0.0, "fusion_lat": 0.0, "lat": 38.88120716666667, "type": "electric_scooter", "lon": -77.01665083333333, "bike_id": "fd815840ddb4dee0af233f0633de84aa", "rental_uris": {"android": "https://dc.lft.to/lastmile_qr_scan", "ios": "https://dc.lft.to/lastmile_qr_scan"}, "name": "fd815840ddb4dee0af233f0633de84aa", "is_reserved": 0}, {"is_disabled": 0, "fusion_lon": 0.0, "fusion_lat": 0.0, "lat": 39.0229695, "type": "electric_bike", "lon": -77.021016, "bike_id": "d53e0b2538f382d9800e9bcedcf42425", "rental_uris": {"android": "https://dc.lft.to/lastmile_qr_scan", "ios": "https://dc.lft.to/lastmile_qr_scan"}, "name": "d53e0b2538f382d9800e9bcedcf42425", "is_reserved": 0}, {"is_disabled": 0, "fusion_lon": 0.0, "fusion_lat": 0.0, "lat": 38.902338666666665, "type": "electric_scooter", "lon": -77.04701616666667, "bike_id": "36b23eb7aa9ca2659d222d62c213cdeb", "rental_uris": {"android": "https://dc.lft.to/lastmile_qr_scan", "ios": "https://dc.lft.to/lastmile_qr_scan"}, "name": "36b23eb7aa9ca2659d222d62c213cdeb", "is_reserved": 0}, {"is_disabled": 0, "fusion_lon": 0.0, "fusion_lat": 0.0, "lat": 38.95631983333333, "type": "electric_scooter", "lon": -77.02296266666667, "bike_id": "3530228f90ff7b59cf694d1b1334cbad", "rental_uris": {"android": "https://dc.lft.to/lastmile_qr_scan", "ios": "https://dc.lft.to/lastmile_qr_scan"}, "name": "3530228f90ff7b59cf694d1b1334cbad", "is_reserved": 0}, {"is_disabled": 0, "fusion_lon": 0.0, "fusion_lat": 0.0, "lat": 38.900116833333335, "type": "electric_scooter", "lon": -77.0449405, "bike_id": "6d99c74c9b8c8923739ac0d364df6e2f", "rental_uris": {"android": "https://dc.lft.to/lastmile_qr_scan", "ios": "https://dc.lft.to/lastmile_qr_scan"}, "name": "6d99c74c9b8c8923739ac0d364df6e2f", "is_reserved": 0}, {"is_disabled": 0, "fusion_lon": 0.0, "fusion_lat": 0.0, "lat": 38.895569333333334, "type": "electric_scooter", "lon": -76.94876383333333, "bike_id": "b57c36ac7b4f90dca60315040add83d3", "rental_uris": {"android": "https://dc.lft.to/lastmile_qr_scan", "ios": "https://dc.lft.to/lastmile_qr_scan"}, "name": "b57c36ac7b4f90dca60315040add83d3", "is_reserved": 0}, {"is_disabled": 0, "fusion_lon": 0.0, "fusion_lat": 0.0, "lat": 38.904413166666664, "type": "electric_scooter", "lon": -77.0514245, "bike_id": "716028137dbc51f830fe54fbc7ea37f7", "rental_uris": {"android": "https://dc.lft.to/lastmile_qr_scan", "ios": "https://dc.lft.to/lastmile_qr_scan"}, "name": "716028137dbc51f830fe54fbc7ea37f7", "is_reserved": 0}, {"is_disabled": 0, "fusion_lon": 0.0, "fusion_lat": 0.0, "lat": 38.886631, "type": "electric_bike", "lon": -77.16234766666666, "bike_id": "44bf4561d5dcfc3feb678f88cb4e3353", "rental_uris": {"android": "https://dc.lft.to/lastmile_qr_scan", "ios": "https://dc.lft.to/lastmile_qr_scan"}, "name": "44bf4561d5dcfc3feb678f88cb4e3353", "is_reserved": 0}, {"is_disabled": 0, "fusion_lon": 0.0, "fusion_lat": 0.0, "lat": 38.922582, "type": "electric_scooter", "lon": -77.04140433333333, "bike_id": "09cc66dbeb83ecf2041154fc26caf69c", "rental_uris": {"android": "https://dc.lft.to/lastmile_qr_scan", "ios": "https://dc.lft.to/lastmile_qr_scan"}, "name": "09cc66dbeb83ecf2041154fc26caf69c", "is_reserved": 0}, {"is_disabled": 0, "fusion_lon": 0.0, "fusion_lat": 0.0, "lat": 38.961102, "type": "electric_scooter", "lon": -77.0853745, "bike_id": "6537bfdbf674e23b5d7c62ac3880e6f0", "rental_uris": {"android": "https://dc.lft.to/lastmile_qr_scan", "ios": "https://dc.lft.to/lastmile_qr_scan"}, "name": "6537bfdbf674e23b5d7c62ac3880e6f0", "is_reserved": 0}, {"is_disabled": 0, "fusion_lon": 0.0, "fusion_lat": 0.0, "lat": 38.926055166666664, "type": "electric_scooter", "lon": -77.02311616666667, "bike_id": "3325712aa814c1576b266c8beb729c6c", "rental_uris": {"android": "https://dc.lft.to/lastmile_qr_scan", "ios": "https://dc.lft.to/lastmile_qr_scan"}, "name": "3325712aa814c1576b266c8beb729c6c", "is_reserved": 0}, {"is_disabled": 0, "fusion_lon": 0.0, "fusion_lat": 0.0, "lat": 38.93783033333333, "type": "electric_scooter", "lon": -77.018812, "bike_id": "55fab6a2c14bd606b02b0bd769b4547e", "rental_uris": {"android": "https://dc.lft.to/lastmile_qr_scan", "ios": "https://dc.lft.to/lastmile_qr_scan"}, "name": "55fab6a2c14bd606b02b0bd769b4547e", "is_reserved": 0}, {"is_disabled": 0, "fusion_lon": 0.0, "fusion_lat": 0.0, "lat": 38.963080833333336, "type": "electric_bike", "lon": -77.01102183333333, "bike_id": "457ff2f72e2762b7c477522359c9c5b3", "rental_uris": {"android": "https://dc.lft.to/lastmile_qr_scan", "ios": "https://dc.lft.to/lastmile_qr_scan"}, "name": "457ff2f72e2762b7c477522359c9c5b3", "is_reserved": 0}, {"is_disabled": 0, "fusion_lon": 0.0, "fusion_lat": 0.0, "lat": 38.88747716666666, "type": "electric_scooter", "lon": -77.0153725, "bike_id": "3ad14d236f5629f9c78fc65f878350b5", "rental_uris": {"android": "https://dc.lft.to/lastmile_qr_scan", "ios": "https://dc.lft.to/lastmile_qr_scan"}, "name": "3ad14d236f5629f9c78fc65f878350b5", "is_reserved": 0}, {"is_disabled": 0, "fusion_lon": 0.0, "fusion_lat": 0.0, "lat": 38.88742116666667, "type": "electric_scooter", "lon": -77.016044, "bike_id": "f9e281b3cefe3b20aed1d4b1cf1d0f11", "rental_uris": {"android": "https://dc.lft.to/lastmile_qr_scan", "ios": "https://dc.lft.to/lastmile_qr_scan"}, "name": "f9e281b3cefe3b20aed1d4b1cf1d0f11", "is_reserved": 0}, {"is_disabled": 0, "fusion_lon": 0.0, "fusion_lat": 0.0, "lat": 38.908377333333334, "type": "electric_scooter", "lon": -76.99696933333334, "bike_id": "a6c2f2a47f95ba4932c33defefed1e1d", "rental_uris": {"android": "https://dc.lft.to/lastmile_qr_scan", "ios": "https://dc.lft.to/lastmile_qr_scan"}, "name": "a6c2f2a47f95ba4932c33defefed1e1d", "is_reserved": 0}, {"is_disabled": 0, "fusion_lon": 0.0, "fusion_lat": 0.0, "lat": 38.90112833333333, "type": "electric_scooter", "lon": -77.0259995, "bike_id": "8fcb546f81bb5def1ba27d008fb17250", "rental_uris": {"android": "https://dc.lft.to/lastmile_qr_scan", "ios": "https://dc.lft.to/lastmile_qr_scan"}, "name": "8fcb546f81bb5def1ba27d008fb17250", "is_reserved": 0}, {"is_disabled": 0, "fusion_lon": 0.0, "fusion_lat": 0.0, "lat": 38.949645333333336, "type": "electric_scooter", "lon": -77.066979, "bike_id": "778862e3088d73af6ec89b7129c94af4", "rental_uris": {"android": "https://dc.lft.to/lastmile_qr_scan", "ios": "https://dc.lft.to/lastmile_qr_scan"}, "name": "778862e3088d73af6ec89b7129c94af4", "is_reserved": 0}, {"is_disabled": 0, "fusion_lon": 0.0, "fusion_lat": 0.0, "lat": 38.927981, "type": "electric_bike", "lon": -77.0324255, "bike_id": "02e3b89f83359e5979a178ada106b17b", "rental_uris": {"android": "https://dc.lft.to/lastmile_qr_scan", "ios": "https://dc.lft.to/lastmile_qr_scan"}, "name": "02e3b89f83359e5979a178ada106b17b", "is_reserved": 0}, {"is_disabled": 0, "fusion_lon": 0.0, "fusion_lat": 0.0, "lat": 38.899105666666664, "type": "electric_scooter", "lon": -76.93391983333333, "bike_id": "a8adb91f34dd5215bd700da0b833e981", "rental_uris": {"android": "https://dc.lft.to/lastmile_qr_scan", "ios": "https://dc.lft.to/lastmile_qr_scan"}, "name": "a8adb91f34dd5215bd700da0b833e981", "is_reserved": 0}, {"is_disabled": 0, "fusion_lon": 0.0, "fusion_lat": 0.0, "lat": 38.90018666666667, "type": "electric_scooter", "lon": -77.00471466666667, "bike_id": "2fe9f4c487d5c950d9630dff97a8640e", "rental_uris": {"android": "https://dc.lft.to/lastmile_qr_scan", "ios": "https://dc.lft.to/lastmile_qr_scan"}, "name": "2fe9f4c487d5c950d9630dff97a8640e", "is_reserved": 0}, {"is_disabled": 0, "fusion_lon": 0.0, "fusion_lat": 0.0, "lat": 38.9520725, "type": "electric_scooter", "lon": -77.0273425, "bike_id": "76ca3d55be1e733c5c05594c106aadf2", "rental_uris": {"android": "https://dc.lft.to/lastmile_qr_scan", "ios": "https://dc.lft.to/lastmile_qr_scan"}, "name": "76ca3d55be1e733c5c05594c106aadf2", "is_reserved": 0}, {"is_disabled": 0, "fusion_lon": 0.0, "fusion_lat": 0.0, "lat": 39.03003966666667, "type": "electric_bike", "lon": -77.1064935, "bike_id": "fcb4c29eb8378baaa32d35e7f8693684", "rental_uris": {"android": "https://dc.lft.to/lastmile_qr_scan", "ios": "https://dc.lft.to/lastmile_qr_scan"}, "name": "fcb4c29eb8378baaa32d35e7f8693684", "is_reserved": 0}, {"is_disabled": 0, "fusion_lon": 0.0, "fusion_lat": 0.0, "lat": 38.8429385, "type": "electric_scooter", "lon": -76.99947683333333, "bike_id": "c2493ae810eae115836e89b366785bb6", "rental_uris": {"android": "https://dc.lft.to/lastmile_qr_scan", "ios": "https://dc.lft.to/lastmile_qr_scan"}, "name": "c2493ae810eae115836e89b366785bb6", "is_reserved": 0}, {"is_disabled": 0, "fusion_lon": 0.0, "fusion_lat": 0.0, "lat": 38.96453666666667, "type": "electric_bike", "lon": -76.9772695, "bike_id": "4d53f75e2df4d6a3511bc8c4faa6709d", "rental_uris": {"android": "https://dc.lft.to/lastmile_qr_scan", "ios": "https://dc.lft.to/lastmile_qr_scan"}, "name": "4d53f75e2df4d6a3511bc8c4faa6709d", "is_reserved": 0}, {"is_disabled": 0, "fusion_lon": 0.0, "fusion_lat": 0.0, "lat": 38.920177833333334, "type": "electric_scooter", "lon": -77.031183, "bike_id": "d590c02fd6cb1d6037f644c6ec3cc72a", "rental_uris": {"android": "https://dc.lft.to/lastmile_qr_scan", "ios": "https://dc.lft.to/lastmile_qr_scan"}, "name": "d590c02fd6cb1d6037f644c6ec3cc72a", "is_reserved": 0}, {"is_disabled": 0, "fusion_lon": 0.0, "fusion_lat": 0.0, "lat": 38.94274683333333, "type": "electric_scooter", "lon": -77.03259633333333, "bike_id": "c640d7c359df7430a1083d4a4eab5355", "rental_uris": {"android": "https://dc.lft.to/lastmile_qr_scan", "ios": "https://dc.lft.to/lastmile_qr_scan"}, "name": "c640d7c359df7430a1083d4a4eab5355", "is_reserved": 0}, {"is_disabled": 0, "fusion_lon": 0.0, "fusion_lat": 0.0, "lat": 38.887466, "type": "electric_scooter", "lon": -77.016055, "bike_id": "a76b37071e98a527d6e80868636fd76c", "rental_uris": {"android": "https://dc.lft.to/lastmile_qr_scan", "ios": "https://dc.lft.to/lastmile_qr_scan"}, "name": "a76b37071e98a527d6e80868636fd76c", "is_reserved": 0}, {"is_disabled": 0, "fusion_lon": 0.0, "fusion_lat": 0.0, "lat": 38.906879333333336, "type": "electric_scooter", "lon": -77.0381655, "bike_id": "97ccda83657952a1bfab344969ebfc30", "rental_uris": {"android": "https://dc.lft.to/lastmile_qr_scan", "ios": "https://dc.lft.to/lastmile_qr_scan"}, "name": "97ccda83657952a1bfab344969ebfc30", "is_reserved": 0}, {"is_disabled": 0, "fusion_lon": 0.0, "fusion_lat": 0.0, "lat": 38.8509085, "type": "electric_bike", "lon": -76.9569545, "bike_id": "3f254a19354bb9ddf69e6b8008d11a2f", "rental_uris": {"android": "https://dc.lft.to/lastmile_qr_scan", "ios": "https://dc.lft.to/lastmile_qr_scan"}, "name": "3f254a19354bb9ddf69e6b8008d11a2f", "is_reserved": 0}, {"is_disabled": 0, "fusion_lon": 0.0, "fusion_lat": 0.0, "lat": 38.9404585, "type": "electric_scooter", "lon": -77.0250405, "bike_id": "62035d346553789184c44d23a30b97ed", "rental_uris": {"android": "https://dc.lft.to/lastmile_qr_scan", "ios": "https://dc.lft.to/lastmile_qr_scan"}, "name": "62035d346553789184c44d23a30b97ed", "is_reserved": 0}, {"is_disabled": 0, "fusion_lon": 0.0, "fusion_lat": 0.0, "lat": 38.886301, "type": "electric_bike", "lon": -77.0924225, "bike_id": "e8fb6457d3dc1c990517d2aa542e563a", "rental_uris": {"android": "https://dc.lft.to/lastmile_qr_scan", "ios": "https://dc.lft.to/lastmile_qr_scan"}, "name": "e8fb6457d3dc1c990517d2aa542e563a", "is_reserved": 0}, {"is_disabled": 0, "fusion_lon": 0.0, "fusion_lat": 0.0, "lat": 39.0520745, "type": "electric_bike", "lon": -77.04409383333333, "bike_id": "8e252e605918031119beab461f63127e", "rental_uris": {"android": "https://dc.lft.to/lastmile_qr_scan", "ios": "https://dc.lft.to/lastmile_qr_scan"}, "name": "8e252e605918031119beab461f63127e", "is_reserved": 0}, {"is_disabled": 0, "fusion_lon": 0.0, "fusion_lat": 0.0, "lat": 38.9206435, "type": "electric_scooter", "lon": -77.04358383333333, "bike_id": "2d970be606931ea5ea01cbf2f3e099c9", "rental_uris": {"android": "https://dc.lft.to/lastmile_qr_scan", "ios": "https://dc.lft.to/lastmile_qr_scan"}, "name": "2d970be606931ea5ea01cbf2f3e099c9", "is_reserved": 0}, {"is_disabled": 0, "fusion_lon": 0.0, "fusion_lat": 0.0, "lat": 38.897307833333336, "type": "electric_bike", "lon": -76.905428, "bike_id": "5dc4854047fdf76e225edec9cabc14ce", "rental_uris": {"android": "https://dc.lft.to/lastmile_qr_scan", "ios": "https://dc.lft.to/lastmile_qr_scan"}, "name": "5dc4854047fdf76e225edec9cabc14ce", "is_reserved": 0}, {"is_disabled": 0, "fusion_lon": 0.0, "fusion_lat": 0.0, "lat": 38.897787, "type": "electric_scooter", "lon": -77.02379466666666, "bike_id": "43f7ce3ec6057c6e8f4894e1b8120a3e", "rental_uris": {"android": "https://dc.lft.to/lastmile_qr_scan", "ios": "https://dc.lft.to/lastmile_qr_scan"}, "name": "43f7ce3ec6057c6e8f4894e1b8120a3e", "is_reserved": 0}, {"is_disabled": 0, "fusion_lon": 0.0, "fusion_lat": 0.0, "lat": 38.9054245, "type": "electric_scooter", "lon": -77.02212233333333, "bike_id": "09c181100fe286db9db0d0e2e31718ed", "rental_uris": {"android": "https://dc.lft.to/lastmile_qr_scan", "ios": "https://dc.lft.to/lastmile_qr_scan"}, "name": "09c181100fe286db9db0d0e2e31718ed", "is_reserved": 0}, {"is_disabled": 0, "fusion_lon": 0.0, "fusion_lat": 0.0, "lat": 38.968198, "type": "electric_scooter", "lon": -77.00888383333333, "bike_id": "26d4d604b3db0244631e5a3a9e3e5e09", "rental_uris": {"android": "https://dc.lft.to/lastmile_qr_scan", "ios": "https://dc.lft.to/lastmile_qr_scan"}, "name": "26d4d604b3db0244631e5a3a9e3e5e09", "is_reserved": 0}, {"is_disabled": 0, "fusion_lon": 0.0, "fusion_lat": 0.0, "lat": 38.940966333333336, "type": "electric_scooter", "lon": -77.07733616666667, "bike_id": "f01ca855110fd49b04f07a1f71223950", "rental_uris": {"android": "https://dc.lft.to/lastmile_qr_scan", "ios": "https://dc.lft.to/lastmile_qr_scan"}, "name": "f01ca855110fd49b04f07a1f71223950", "is_reserved": 0}, {"is_disabled": 0, "fusion_lon": 0.0, "fusion_lat": 0.0, "lat": 38.90392766666667, "type": "electric_scooter", "lon": -77.00473466666666, "bike_id": "89feb6fea0cf286369fd460572dd6a09", "rental_uris": {"android": "https://dc.lft.to/lastmile_qr_scan", "ios": "https://dc.lft.to/lastmile_qr_scan"}, "name": "89feb6fea0cf286369fd460572dd6a09", "is_reserved": 0}, {"is_disabled": 0, "fusion_lon": 0.0, "fusion_lat": 0.0, "lat": 38.9322935, "type": "electric_scooter", "lon": -76.99534333333334, "bike_id": "8d9327655e3935f6ab6d56f39c91752a", "rental_uris": {"android": "https://dc.lft.to/lastmile_qr_scan", "ios": "https://dc.lft.to/lastmile_qr_scan"}, "name": "8d9327655e3935f6ab6d56f39c91752a", "is_reserved": 0}, {"is_disabled": 0, "fusion_lon": 0.0, "fusion_lat": 0.0, "lat": 38.889953, "type": "electric_scooter", "lon": -77.000514, "bike_id": "cf793cdc09bbcb8aed2b22f4c0bafd49", "rental_uris": {"android": "https://dc.lft.to/lastmile_qr_scan", "ios": "https://dc.lft.to/lastmile_qr_scan"}, "name": "cf793cdc09bbcb8aed2b22f4c0bafd49", "is_reserved": 0}, {"is_disabled": 0, "fusion_lon": 0.0, "fusion_lat": 0.0, "lat": 38.9311655, "type": "electric_scooter", "lon": -77.02038933333333, "bike_id": "4c6e5ec08b3b6259b60854a2f088168a", "rental_uris": {"android": "https://dc.lft.to/lastmile_qr_scan", "ios": "https://dc.lft.to/lastmile_qr_scan"}, "name": "4c6e5ec08b3b6259b60854a2f088168a", "is_reserved": 0}, {"is_disabled": 0, "fusion_lon": 0.0, "fusion_lat": 0.0, "lat": 38.92194166666667, "type": "electric_scooter", "lon": -76.99759366666666, "bike_id": "ace5dd53d4532feaa26d7aa021092517", "rental_uris": {"android": "https://dc.lft.to/lastmile_qr_scan", "ios": "https://dc.lft.to/lastmile_qr_scan"}, "name": "ace5dd53d4532feaa26d7aa021092517", "is_reserved": 0}, {"is_disabled": 0, "fusion_lon": 0.0, "fusion_lat": 0.0, "lat": 39.060647833333334, "type": "electric_bike", "lon": -77.06466583333334, "bike_id": "210ade5482007d246a9f38de5f19775e", "rental_uris": {"android": "https://dc.lft.to/lastmile_qr_scan", "ios": "https://dc.lft.to/lastmile_qr_scan"}, "name": "210ade5482007d246a9f38de5f19775e", "is_reserved": 0}, {"is_disabled": 0, "fusion_lon": 0.0, "fusion_lat": 0.0, "lat": 38.90420983333333, "type": "electric_scooter", "lon": -76.98550966666667, "bike_id": "44d08d9c13c1ad6b0e52c2228555e413", "rental_uris": {"android": "https://dc.lft.to/lastmile_qr_scan", "ios": "https://dc.lft.to/lastmile_qr_scan"}, "name": "44d08d9c13c1ad6b0e52c2228555e413", "is_reserved": 0}, {"is_disabled": 0, "fusion_lon": 0.0, "fusion_lat": 0.0, "lat": 38.83814266666667, "type": "electric_scooter", "lon": -77.00437, "bike_id": "fcd1327b0e20dd55c276a223f0f47976", "rental_uris": {"android": "https://dc.lft.to/lastmile_qr_scan", "ios": "https://dc.lft.to/lastmile_qr_scan"}, "name": "fcd1327b0e20dd55c276a223f0f47976", "is_reserved": 0}, {"is_disabled": 0, "fusion_lon": 0.0, "fusion_lat": 0.0, "lat": 38.918532, "type": "electric_bike", "lon": -76.96086683333333, "bike_id": "ce262990849a1a5de5615f609cbda5aa", "rental_uris": {"android": "https://dc.lft.to/lastmile_qr_scan", "ios": "https://dc.lft.to/lastmile_qr_scan"}, "name": "ce262990849a1a5de5615f609cbda5aa", "is_reserved": 0}, {"is_disabled": 0, "fusion_lon": 0.0, "fusion_lat": 0.0, "lat": 38.887465666666664, "type": "electric_scooter", "lon": -77.01734683333333, "bike_id": "c73fd0f762a01db22277fb10b1979ca5", "rental_uris": {"android": "https://dc.lft.to/lastmile_qr_scan", "ios": "https://dc.lft.to/lastmile_qr_scan"}, "name": "c73fd0f762a01db22277fb10b1979ca5", "is_reserved": 0}, {"is_disabled": 0, "fusion_lon": 0.0, "fusion_lat": 0.0, "lat": 38.908556, "type": "electric_scooter", "lon": -77.032556, "bike_id": "b5bb8731f3794a90bcddd96d38951939", "rental_uris": {"android": "https://dc.lft.to/lastmile_qr_scan", "ios": "https://dc.lft.to/lastmile_qr_scan"}, "name": "b5bb8731f3794a90bcddd96d38951939", "is_reserved": 0}, {"is_disabled": 0, "fusion_lon": 0.0, "fusion_lat": 0.0, "lat": 38.9048415, "type": "electric_scooter", "lon": -76.9732745, "bike_id": "4a11d27611cd074fbeb7bf666a7dbadb", "rental_uris": {"android": "https://dc.lft.to/lastmile_qr_scan", "ios": "https://dc.lft.to/lastmile_qr_scan"}, "name": "4a11d27611cd074fbeb7bf666a7dbadb", "is_reserved": 0}, {"is_disabled": 0, "fusion_lon": 0.0, "fusion_lat": 0.0, "lat": 38.92174133333333, "type": "electric_scooter", "lon": -77.038416, "bike_id": "b8df26a6784ba0d8f4b4248e7f9a68e4", "rental_uris": {"android": "https://dc.lft.to/lastmile_qr_scan", "ios": "https://dc.lft.to/lastmile_qr_scan"}, "name": "b8df26a6784ba0d8f4b4248e7f9a68e4", "is_reserved": 0}, {"is_disabled": 0, "fusion_lon": 0.0, "fusion_lat": 0.0, "lat": 38.87970833333333, "type": "electric_scooter", "lon": -76.99371866666667, "bike_id": "29020ecf62b955cca79b4466addf38fe", "rental_uris": {"android": "https://dc.lft.to/lastmile_qr_scan", "ios": "https://dc.lft.to/lastmile_qr_scan"}, "name": "29020ecf62b955cca79b4466addf38fe", "is_reserved": 0}, {"is_disabled": 0, "fusion_lon": 0.0, "fusion_lat": 0.0, "lat": 38.984975666666664, "type": "electric_bike", "lon": -76.98191716666666, "bike_id": "50914ef97e7d19d5f5e3a75888760a35", "rental_uris": {"android": "https://dc.lft.to/lastmile_qr_scan", "ios": "https://dc.lft.to/lastmile_qr_scan"}, "name": "50914ef97e7d19d5f5e3a75888760a35", "is_reserved": 0}, {"is_disabled": 0, "fusion_lon": 0.0, "fusion_lat": 0.0, "lat": 38.91462716666667, "type": "electric_scooter", "lon": -77.03184266666666, "bike_id": "811f9a48e0ba93e78ab27197d7123d6a", "rental_uris": {"android": "https://dc.lft.to/lastmile_qr_scan", "ios": "https://dc.lft.to/lastmile_qr_scan"}, "name": "811f9a48e0ba93e78ab27197d7123d6a", "is_reserved": 0}, {"is_disabled": 0, "fusion_lon": 0.0, "fusion_lat": 0.0, "lat": 38.91706533333333, "type": "electric_scooter", "lon": -77.00113533333334, "bike_id": "3cbdb2a7b2a9f45379bada3984c9b28e", "rental_uris": {"android": "https://dc.lft.to/lastmile_qr_scan", "ios": "https://dc.lft.to/lastmile_qr_scan"}, "name": "3cbdb2a7b2a9f45379bada3984c9b28e", "is_reserved": 0}, {"is_disabled": 0, "fusion_lon": 0.0, "fusion_lat": 0.0, "lat": 38.92554366666667, "type": "electric_scooter", "lon": -77.037813, "bike_id": "4a41b4db28c2057c1e72033285bff38b", "rental_uris": {"android": "https://dc.lft.to/lastmile_qr_scan", "ios": "https://dc.lft.to/lastmile_qr_scan"}, "name": "4a41b4db28c2057c1e72033285bff38b", "is_reserved": 0}, {"is_disabled": 0, "fusion_lon": 0.0, "fusion_lat": 0.0, "lat": 38.8923155, "type": "electric_scooter", "lon": -77.046462, "bike_id": "6ec6f1210b13f8c271bcfb1ab3ca7b05", "rental_uris": {"android": "https://dc.lft.to/lastmile_qr_scan", "ios": "https://dc.lft.to/lastmile_qr_scan"}, "name": "6ec6f1210b13f8c271bcfb1ab3ca7b05", "is_reserved": 0}, {"is_disabled": 0, "fusion_lon": 0.0, "fusion_lat": 0.0, "lat": 38.92446983333333, "type": "electric_bike", "lon": -76.96830433333334, "bike_id": "e07831d5115d70b1ac1870755e48347d", "rental_uris": {"android": "https://dc.lft.to/lastmile_qr_scan", "ios": "https://dc.lft.to/lastmile_qr_scan"}, "name": "e07831d5115d70b1ac1870755e48347d", "is_reserved": 0}, {"is_disabled": 0, "fusion_lon": 0.0, "fusion_lat": 0.0, "lat": 38.92155133333333, "type": "electric_scooter", "lon": -77.0344175, "bike_id": "42c829b75cb07af92a3b4309e2ad2afe", "rental_uris": {"android": "https://dc.lft.to/lastmile_qr_scan", "ios": "https://dc.lft.to/lastmile_qr_scan"}, "name": "42c829b75cb07af92a3b4309e2ad2afe", "is_reserved": 0}, {"is_disabled": 0, "fusion_lon": 0.0, "fusion_lat": 0.0, "lat": 38.90599066666667, "type": "electric_scooter", "lon": -77.06298966666667, "bike_id": "279c8e8e87fc0533976af2468eb6a147", "rental_uris": {"android": "https://dc.lft.to/lastmile_qr_scan", "ios": "https://dc.lft.to/lastmile_qr_scan"}, "name": "279c8e8e87fc0533976af2468eb6a147", "is_reserved": 0}, {"is_disabled": 0, "fusion_lon": 0.0, "fusion_lat": 0.0, "lat": 38.92185833333333, "type": "electric_scooter", "lon": -76.99752933333333, "bike_id": "e8ac365a74f1fbd6b3a196158d33d8ca", "rental_uris": {"android": "https://dc.lft.to/lastmile_qr_scan", "ios": "https://dc.lft.to/lastmile_qr_scan"}, "name": "e8ac365a74f1fbd6b3a196158d33d8ca", "is_reserved": 0}, {"is_disabled": 0, "fusion_lon": 0.0, "fusion_lat": 0.0, "lat": 38.89376133333333, "type": "electric_scooter", "lon": -76.94996966666666, "bike_id": "4a90993e9518921e5ed5b54cdf42a6e9", "rental_uris": {"android": "https://dc.lft.to/lastmile_qr_scan", "ios": "https://dc.lft.to/lastmile_qr_scan"}, "name": "4a90993e9518921e5ed5b54cdf42a6e9", "is_reserved": 0}, {"is_disabled": 0, "fusion_lon": 0.0, "fusion_lat": 0.0, "lat": 38.89877833333333, "type": "electric_scooter", "lon": -76.93159533333333, "bike_id": "5e7178cde8e1a4a3004ad58b83d1236f", "rental_uris": {"android": "https://dc.lft.to/lastmile_qr_scan", "ios": "https://dc.lft.to/lastmile_qr_scan"}, "name": "5e7178cde8e1a4a3004ad58b83d1236f", "is_reserved": 0}, {"is_disabled": 0, "fusion_lon": 0.0, "fusion_lat": 0.0, "lat": 38.91200833333333, "type": "electric_scooter", "lon": -77.0453485, "bike_id": "2866e8e07cb598ea75177cd9828d9768", "rental_uris": {"android": "https://dc.lft.to/lastmile_qr_scan", "ios": "https://dc.lft.to/lastmile_qr_scan"}, "name": "2866e8e07cb598ea75177cd9828d9768", "is_reserved": 0}, {"is_disabled": 0, "fusion_lon": 0.0, "fusion_lat": 0.0, "lat": 38.916911, "type": "electric_scooter", "lon": -77.03758233333333, "bike_id": "1a7cb6c7416da8ccc8327e19ebd68aa7", "rental_uris": {"android": "https://dc.lft.to/lastmile_qr_scan", "ios": "https://dc.lft.to/lastmile_qr_scan"}, "name": "1a7cb6c7416da8ccc8327e19ebd68aa7", "is_reserved": 0}, {"is_disabled": 0, "fusion_lon": 0.0, "fusion_lat": 0.0, "lat": 38.9289515, "type": "electric_scooter", "lon": -76.98451316666667, "bike_id": "de07d09efd53ba5c16d2cc3278e69bcb", "rental_uris": {"android": "https://dc.lft.to/lastmile_qr_scan", "ios": "https://dc.lft.to/lastmile_qr_scan"}, "name": "de07d09efd53ba5c16d2cc3278e69bcb", "is_reserved": 0}, {"is_disabled": 0, "fusion_lon": 0.0, "fusion_lat": 0.0, "lat": 39.105664166666664, "type": "electric_bike", "lon": -77.15266866666667, "bike_id": "759d8fe393097b9a77da47db7dafcbb5", "rental_uris": {"android": "https://dc.lft.to/lastmile_qr_scan", "ios": "https://dc.lft.to/lastmile_qr_scan"}, "name": "759d8fe393097b9a77da47db7dafcbb5", "is_reserved": 0}, {"is_disabled": 0, "fusion_lon": 0.0, "fusion_lat": 0.0, "lat": 38.9133205, "type": "electric_scooter", "lon": -77.04864533333334, "bike_id": "38c982144f491ad59e5af9e70ff75693", "rental_uris": {"android": "https://dc.lft.to/lastmile_qr_scan", "ios": "https://dc.lft.to/lastmile_qr_scan"}, "name": "38c982144f491ad59e5af9e70ff75693", "is_reserved": 0}, {"is_disabled": 0, "fusion_lon": 0.0, "fusion_lat": 0.0, "lat": 38.955627, "type": "electric_scooter", "lon": -77.07027866666667, "bike_id": "3dc13eec0cb7f345eb3dc6cbd0475652", "rental_uris": {"android": "https://dc.lft.to/lastmile_qr_scan", "ios": "https://dc.lft.to/lastmile_qr_scan"}, "name": "3dc13eec0cb7f345eb3dc6cbd0475652", "is_reserved": 0}, {"is_disabled": 0, "fusion_lon": 0.0, "fusion_lat": 0.0, "lat": 38.916088, "type": "electric_scooter", "lon": -77.0313425, "bike_id": "7b35abf2bebc8c8557320bfb286cb1d7", "rental_uris": {"android": "https://dc.lft.to/lastmile_qr_scan", "ios": "https://dc.lft.to/lastmile_qr_scan"}, "name": "7b35abf2bebc8c8557320bfb286cb1d7", "is_reserved": 0}, {"is_disabled": 0, "fusion_lon": 0.0, "fusion_lat": 0.0, "lat": 38.92771333333334, "type": "electric_scooter", "lon": -77.028522, "bike_id": "29a3b48d3c4e761454668fcbf4313879", "rental_uris": {"android": "https://dc.lft.to/lastmile_qr_scan", "ios": "https://dc.lft.to/lastmile_qr_scan"}, "name": "29a3b48d3c4e761454668fcbf4313879", "is_reserved": 0}, {"is_disabled": 0, "fusion_lon": 0.0, "fusion_lat": 0.0, "lat": 38.959588833333335, "type": "electric_bike", "lon": -77.02517666666667, "bike_id": "f7524da881d4714983be162e1af8302f", "rental_uris": {"android": "https://dc.lft.to/lastmile_qr_scan", "ios": "https://dc.lft.to/lastmile_qr_scan"}, "name": "f7524da881d4714983be162e1af8302f", "is_reserved": 0}, {"is_disabled": 0, "fusion_lon": 0.0, "fusion_lat": 0.0, "lat": 38.858064166666665, "type": "electric_scooter", "lon": -76.986553, "bike_id": "7c57282bc08a137adda9c3544fbab806", "rental_uris": {"android": "https://dc.lft.to/lastmile_qr_scan", "ios": "https://dc.lft.to/lastmile_qr_scan"}, "name": "7c57282bc08a137adda9c3544fbab806", "is_reserved": 0}, {"is_disabled": 0, "fusion_lon": 0.0, "fusion_lat": 0.0, "lat": 38.9118405, "type": "electric_scooter", "lon": -77.03499233333334, "bike_id": "90b381e2016f6388b9104bb2af1b10e7", "rental_uris": {"android": "https://dc.lft.to/lastmile_qr_scan", "ios": "https://dc.lft.to/lastmile_qr_scan"}, "name": "90b381e2016f6388b9104bb2af1b10e7", "is_reserved": 0}, {"is_disabled": 0, "fusion_lon": 0.0, "fusion_lat": 0.0, "lat": 38.926024166666664, "type": "electric_scooter", "lon": -77.0570315, "bike_id": "6cfb1abc2bb92122dc2b97a626cae948", "rental_uris": {"android": "https://dc.lft.to/lastmile_qr_scan", "ios": "https://dc.lft.to/lastmile_qr_scan"}, "name": "6cfb1abc2bb92122dc2b97a626cae948", "is_reserved": 0}, {"is_disabled": 0, "fusion_lon": 0.0, "fusion_lat": 0.0, "lat": 38.895470833333334, "type": "electric_scooter", "lon": -77.01112933333333, "bike_id": "c0805966873cd5c52ff55f9849c86520", "rental_uris": {"android": "https://dc.lft.to/lastmile_qr_scan", "ios": "https://dc.lft.to/lastmile_qr_scan"}, "name": "c0805966873cd5c52ff55f9849c86520", "is_reserved": 0}, {"is_disabled": 0, "fusion_lon": 0.0, "fusion_lat": 0.0, "lat": 38.90682283333334, "type": "electric_scooter", "lon": -76.97998733333333, "bike_id": "5faa598619584d21ef5d1cacc5f22cb1", "rental_uris": {"android": "https://dc.lft.to/lastmile_qr_scan", "ios": "https://dc.lft.to/lastmile_qr_scan"}, "name": "5faa598619584d21ef5d1cacc5f22cb1", "is_reserved": 0}, {"is_disabled": 0, "fusion_lon": 0.0, "fusion_lat": 0.0, "lat": 38.908796833333334, "type": "electric_scooter", "lon": -77.03539566666667, "bike_id": "7c2a8f52dd4eb28dbc62e3a5fc763e11", "rental_uris": {"android": "https://dc.lft.to/lastmile_qr_scan", "ios": "https://dc.lft.to/lastmile_qr_scan"}, "name": "7c2a8f52dd4eb28dbc62e3a5fc763e11", "is_reserved": 0}, {"is_disabled": 0, "fusion_lon": 0.0, "fusion_lat": 0.0, "lat": 38.92239716666667, "type": "electric_scooter", "lon": -77.03899883333334, "bike_id": "eea57c2e33733fec7940f80c116b39c1", "rental_uris": {"android": "https://dc.lft.to/lastmile_qr_scan", "ios": "https://dc.lft.to/lastmile_qr_scan"}, "name": "eea57c2e33733fec7940f80c116b39c1", "is_reserved": 0}, {"is_disabled": 0, "fusion_lon": 0.0, "fusion_lat": 0.0, "lat": 38.90156866666667, "type": "electric_scooter", "lon": -77.02286366666667, "bike_id": "062af1bd2934c24e20f35b7274ce8f4b", "rental_uris": {"android": "https://dc.lft.to/lastmile_qr_scan", "ios": "https://dc.lft.to/lastmile_qr_scan"}, "name": "062af1bd2934c24e20f35b7274ce8f4b", "is_reserved": 0}, {"is_disabled": 0, "fusion_lon": 0.0, "fusion_lat": 0.0, "lat": 38.86526383333333, "type": "electric_scooter", "lon": -76.9896685, "bike_id": "16dbc079acdd9d5ac93f046a25a17c4e", "rental_uris": {"android": "https://dc.lft.to/lastmile_qr_scan", "ios": "https://dc.lft.to/lastmile_qr_scan"}, "name": "16dbc079acdd9d5ac93f046a25a17c4e", "is_reserved": 0}, {"is_disabled": 0, "fusion_lon": 0.0, "fusion_lat": 0.0, "lat": 38.911568833333334, "type": "electric_scooter", "lon": -77.00455483333333, "bike_id": "c70e367b56de92f53983c072a8ebd64d", "rental_uris": {"android": "https://dc.lft.to/lastmile_qr_scan", "ios": "https://dc.lft.to/lastmile_qr_scan"}, "name": "c70e367b56de92f53983c072a8ebd64d", "is_reserved": 0}, {"is_disabled": 0, "fusion_lon": 0.0, "fusion_lat": 0.0, "lat": 38.942024, "type": "electric_scooter", "lon": -77.0258645, "bike_id": "c80b52a399595a797c124841dfc1d8f3", "rental_uris": {"android": "https://dc.lft.to/lastmile_qr_scan", "ios": "https://dc.lft.to/lastmile_qr_scan"}, "name": "c80b52a399595a797c124841dfc1d8f3", "is_reserved": 0}, {"is_disabled": 0, "fusion_lon": 0.0, "fusion_lat": 0.0, "lat": 38.8960825, "type": "electric_scooter", "lon": -77.00929483333333, "bike_id": "2df094a1d91ddd053cbea49c4670e5d7", "rental_uris": {"android": "https://dc.lft.to/lastmile_qr_scan", "ios": "https://dc.lft.to/lastmile_qr_scan"}, "name": "2df094a1d91ddd053cbea49c4670e5d7", "is_reserved": 0}, {"is_disabled": 0, "fusion_lon": 0.0, "fusion_lat": 0.0, "lat": 38.9135285, "type": "electric_scooter", "lon": -77.04165866666666, "bike_id": "ecb2fe92840eb3b84b61ff3b9fe75d07", "rental_uris": {"android": "https://dc.lft.to/lastmile_qr_scan", "ios": "https://dc.lft.to/lastmile_qr_scan"}, "name": "ecb2fe92840eb3b84b61ff3b9fe75d07", "is_reserved": 0}, {"is_disabled": 0, "fusion_lon": 0.0, "fusion_lat": 0.0, "lat": 38.9419925, "type": "electric_scooter", "lon": -77.02575966666667, "bike_id": "82a3300150611eacdc1833e24075e967", "rental_uris": {"android": "https://dc.lft.to/lastmile_qr_scan", "ios": "https://dc.lft.to/lastmile_qr_scan"}, "name": "82a3300150611eacdc1833e24075e967", "is_reserved": 0}, {"is_disabled": 0, "fusion_lon": 0.0, "fusion_lat": 0.0, "lat": 38.988268833333336, "type": "electric_bike", "lon": -76.98755016666667, "bike_id": "e78f47269044c2b59a66717eedca2f85", "rental_uris": {"android": "https://dc.lft.to/lastmile_qr_scan", "ios": "https://dc.lft.to/lastmile_qr_scan"}, "name": "e78f47269044c2b59a66717eedca2f85", "is_reserved": 0}, {"is_disabled": 0, "fusion_lon": 0.0, "fusion_lat": 0.0, "lat": 38.882803333333335, "type": "electric_scooter", "lon": -76.987767, "bike_id": "35175a60d5ce653ba4f8a50a5785f398", "rental_uris": {"android": "https://dc.lft.to/lastmile_qr_scan", "ios": "https://dc.lft.to/lastmile_qr_scan"}, "name": "35175a60d5ce653ba4f8a50a5785f398", "is_reserved": 0}, {"is_disabled": 0, "fusion_lon": 0.0, "fusion_lat": 0.0, "lat": 38.908999666666666, "type": "electric_scooter", "lon": -76.99862, "bike_id": "4e3cc74dc7117b58e67050f442879ecc", "rental_uris": {"android": "https://dc.lft.to/lastmile_qr_scan", "ios": "https://dc.lft.to/lastmile_qr_scan"}, "name": "4e3cc74dc7117b58e67050f442879ecc", "is_reserved": 0}, {"is_disabled": 0, "fusion_lon": 0.0, "fusion_lat": 0.0, "lat": 38.905607333333336, "type": "electric_scooter", "lon": -77.027191, "bike_id": "98769c02ca9e315810f4a38a73d5bbc4", "rental_uris": {"android": "https://dc.lft.to/lastmile_qr_scan", "ios": "https://dc.lft.to/lastmile_qr_scan"}, "name": "98769c02ca9e315810f4a38a73d5bbc4", "is_reserved": 0}, {"is_disabled": 0, "fusion_lon": 0.0, "fusion_lat": 0.0, "lat": 38.9257965, "type": "electric_scooter", "lon": -76.9948825, "bike_id": "31fc12662794eb95574535f0086834af", "rental_uris": {"android": "https://dc.lft.to/lastmile_qr_scan", "ios": "https://dc.lft.to/lastmile_qr_scan"}, "name": "31fc12662794eb95574535f0086834af", "is_reserved": 0}, {"is_disabled": 0, "fusion_lon": 0.0, "fusion_lat": 0.0, "lat": 38.92753883333334, "type": "electric_scooter", "lon": -77.03352616666666, "bike_id": "26d252c11f8ae4c886ef03762b5bf400", "rental_uris": {"android": "https://dc.lft.to/lastmile_qr_scan", "ios": "https://dc.lft.to/lastmile_qr_scan"}, "name": "26d252c11f8ae4c886ef03762b5bf400", "is_reserved": 0}, {"is_disabled": 0, "fusion_lon": 0.0, "fusion_lat": 0.0, "lat": 38.91278583333333, "type": "electric_scooter", "lon": -77.03846016666667, "bike_id": "5e2e3dca29d88de21888f9cf8bce64e8", "rental_uris": {"android": "https://dc.lft.to/lastmile_qr_scan", "ios": "https://dc.lft.to/lastmile_qr_scan"}, "name": "5e2e3dca29d88de21888f9cf8bce64e8", "is_reserved": 0}, {"is_disabled": 0, "fusion_lon": 0.0, "fusion_lat": 0.0, "lat": 38.90504816666667, "type": "electric_scooter", "lon": -77.056845, "bike_id": "fd98399bc9c31a33e954dd792e939920", "rental_uris": {"android": "https://dc.lft.to/lastmile_qr_scan", "ios": "https://dc.lft.to/lastmile_qr_scan"}, "name": "fd98399bc9c31a33e954dd792e939920", "is_reserved": 0}, {"is_disabled": 0, "fusion_lon": 0.0, "fusion_lat": 0.0, "lat": 38.90157833333333, "type": "electric_scooter", "lon": -77.05317783333334, "bike_id": "2761c2c2b67419bbd0acb38a5a38718d", "rental_uris": {"android": "https://dc.lft.to/lastmile_qr_scan", "ios": "https://dc.lft.to/lastmile_qr_scan"}, "name": "2761c2c2b67419bbd0acb38a5a38718d", "is_reserved": 0}, {"is_disabled": 0, "fusion_lon": 0.0, "fusion_lat": 0.0, "lat": 38.89742183333333, "type": "electric_scooter", "lon": -77.00045016666667, "bike_id": "c0ce04d72d8b3a86f3f7364453014662", "rental_uris": {"android": "https://dc.lft.to/lastmile_qr_scan", "ios": "https://dc.lft.to/lastmile_qr_scan"}, "name": "c0ce04d72d8b3a86f3f7364453014662", "is_reserved": 0}, {"is_disabled": 0, "fusion_lon": 0.0, "fusion_lat": 0.0, "lat": 38.89835133333333, "type": "electric_scooter", "lon": -76.94630283333333, "bike_id": "4702d91faa8bdae2d43382df27466ba3", "rental_uris": {"android": "https://dc.lft.to/lastmile_qr_scan", "ios": "https://dc.lft.to/lastmile_qr_scan"}, "name": "4702d91faa8bdae2d43382df27466ba3", "is_reserved": 0}, {"is_disabled": 0, "fusion_lon": 0.0, "fusion_lat": 0.0, "lat": 38.934821666666664, "type": "electric_scooter", "lon": -77.05794483333334, "bike_id": "bf1804684df7e4e80ad24c718f18cbff", "rental_uris": {"android": "https://dc.lft.to/lastmile_qr_scan", "ios": "https://dc.lft.to/lastmile_qr_scan"}, "name": "bf1804684df7e4e80ad24c718f18cbff", "is_reserved": 0}, {"is_disabled": 0, "fusion_lon": 0.0, "fusion_lat": 0.0, "lat": 38.827805166666664, "type": "electric_bike", "lon": -77.110754, "bike_id": "31578c4f89815402c0abd43dfbde16f3", "rental_uris": {"android": "https://dc.lft.to/lastmile_qr_scan", "ios": "https://dc.lft.to/lastmile_qr_scan"}, "name": "31578c4f89815402c0abd43dfbde16f3", "is_reserved": 0}, {"is_disabled": 0, "fusion_lon": 0.0, "fusion_lat": 0.0, "lat": 38.930304166666666, "type": "electric_scooter", "lon": -77.034526, "bike_id": "9015830167de57ab6cf32fc095661001", "rental_uris": {"android": "https://dc.lft.to/lastmile_qr_scan", "ios": "https://dc.lft.to/lastmile_qr_scan"}, "name": "9015830167de57ab6cf32fc095661001", "is_reserved": 0}, {"is_disabled": 0, "fusion_lon": 0.0, "fusion_lat": 0.0, "lat": 38.90288566666667, "type": "electric_scooter", "lon": -77.024273, "bike_id": "b98520207f183e4cb60cf50fc3c5525d", "rental_uris": {"android": "https://dc.lft.to/lastmile_qr_scan", "ios": "https://dc.lft.to/lastmile_qr_scan"}, "name": "b98520207f183e4cb60cf50fc3c5525d", "is_reserved": 0}, {"is_disabled": 0, "fusion_lon": 0.0, "fusion_lat": 0.0, "lat": 38.93964666666667, "type": "electric_scooter", "lon": -77.03283783333333, "bike_id": "c2ceb8be5bf25346f1796245b2371943", "rental_uris": {"android": "https://dc.lft.to/lastmile_qr_scan", "ios": "https://dc.lft.to/lastmile_qr_scan"}, "name": "c2ceb8be5bf25346f1796245b2371943", "is_reserved": 0}, {"is_disabled": 0, "fusion_lon": 0.0, "fusion_lat": 0.0, "lat": 38.95613183333333, "type": "electric_scooter", "lon": -77.027603, "bike_id": "ca806ad86763776c243daa743cd48097", "rental_uris": {"android": "https://dc.lft.to/lastmile_qr_scan", "ios": "https://dc.lft.to/lastmile_qr_scan"}, "name": "ca806ad86763776c243daa743cd48097", "is_reserved": 0}, {"is_disabled": 0, "fusion_lon": 0.0, "fusion_lat": 0.0, "lat": 38.82445, "type": "electric_bike", "lon": -77.07044083333334, "bike_id": "8e266af35b4c2bee5cc9c213a9a92f12", "rental_uris": {"android": "https://dc.lft.to/lastmile_qr_scan", "ios": "https://dc.lft.to/lastmile_qr_scan"}, "name": "8e266af35b4c2bee5cc9c213a9a92f12", "is_reserved": 0}, {"is_disabled": 0, "fusion_lon": 0.0, "fusion_lat": 0.0, "lat": 38.895066166666666, "type": "electric_scooter", "lon": -77.01610583333333, "bike_id": "864b47b5eb36dc52b56de808d9d99c94", "rental_uris": {"android": "https://dc.lft.to/lastmile_qr_scan", "ios": "https://dc.lft.to/lastmile_qr_scan"}, "name": "864b47b5eb36dc52b56de808d9d99c94", "is_reserved": 0}, {"is_disabled": 0, "fusion_lon": 0.0, "fusion_lat": 0.0, "lat": 38.88388166666667, "type": "electric_bike", "lon": -77.030736, "bike_id": "ce2084495969631d1ba59b0ad8aabeb2", "rental_uris": {"android": "https://dc.lft.to/lastmile_qr_scan", "ios": "https://dc.lft.to/lastmile_qr_scan"}, "name": "ce2084495969631d1ba59b0ad8aabeb2", "is_reserved": 0}, {"is_disabled": 0, "fusion_lon": 0.0, "fusion_lat": 0.0, "lat": 38.8991, "type": "electric_scooter", "lon": -76.93388966666667, "bike_id": "f329e9e5893b580cfac77870af19e2b2", "rental_uris": {"android": "https://dc.lft.to/lastmile_qr_scan", "ios": "https://dc.lft.to/lastmile_qr_scan"}, "name": "f329e9e5893b580cfac77870af19e2b2", "is_reserved": 0}, {"is_disabled": 0, "fusion_lon": 0.0, "fusion_lat": 0.0, "lat": 38.9596205, "type": "electric_scooter", "lon": -77.02110916666666, "bike_id": "d460c6828af80064d5d549d91f0906fe", "rental_uris": {"android": "https://dc.lft.to/lastmile_qr_scan", "ios": "https://dc.lft.to/lastmile_qr_scan"}, "name": "d460c6828af80064d5d549d91f0906fe", "is_reserved": 0}, {"is_disabled": 0, "fusion_lon": 0.0, "fusion_lat": 0.0, "lat": 38.88077033333333, "type": "electric_scooter", "lon": -76.99502783333334, "bike_id": "14354d5ea34559e1eea2a8b72b9826f1", "rental_uris": {"android": "https://dc.lft.to/lastmile_qr_scan", "ios": "https://dc.lft.to/lastmile_qr_scan"}, "name": "14354d5ea34559e1eea2a8b72b9826f1", "is_reserved": 0}, {"is_disabled": 0, "fusion_lon": 0.0, "fusion_lat": 0.0, "lat": 38.92930966666667, "type": "electric_scooter", "lon": -77.03278533333334, "bike_id": "48133fbcb678cbd42284ca992a28ab49", "rental_uris": {"android": "https://dc.lft.to/lastmile_qr_scan", "ios": "https://dc.lft.to/lastmile_qr_scan"}, "name": "48133fbcb678cbd42284ca992a28ab49", "is_reserved": 0}, {"is_disabled": 0, "fusion_lon": 0.0, "fusion_lat": 0.0, "lat": 38.93562583333333, "type": "electric_scooter", "lon": -77.08196316666667, "bike_id": "21c5394c34ee94468855cb0ad6b2cae2", "rental_uris": {"android": "https://dc.lft.to/lastmile_qr_scan", "ios": "https://dc.lft.to/lastmile_qr_scan"}, "name": "21c5394c34ee94468855cb0ad6b2cae2", "is_reserved": 0}, {"is_disabled": 0, "fusion_lon": 0.0, "fusion_lat": 0.0, "lat": 38.9540565, "type": "electric_scooter", "lon": -77.02750416666667, "bike_id": "a40a25d7d6593bff586bb4d93aa39402", "rental_uris": {"android": "https://dc.lft.to/lastmile_qr_scan", "ios": "https://dc.lft.to/lastmile_qr_scan"}, "name": "a40a25d7d6593bff586bb4d93aa39402", "is_reserved": 0}, {"is_disabled": 0, "fusion_lon": 0.0, "fusion_lat": 0.0, "lat": 38.89866083333333, "type": "electric_scooter", "lon": -77.027145, "bike_id": "719dfc517a921b7ca689d4e687f483bf", "rental_uris": {"android": "https://dc.lft.to/lastmile_qr_scan", "ios": "https://dc.lft.to/lastmile_qr_scan"}, "name": "719dfc517a921b7ca689d4e687f483bf", "is_reserved": 0}, {"is_disabled": 0, "fusion_lon": 0.0, "fusion_lat": 0.0, "lat": 38.84597333333333, "type": "electric_bike", "lon": -76.968843, "bike_id": "8c2558d6c2618e704e43d55f03029a86", "rental_uris": {"android": "https://dc.lft.to/lastmile_qr_scan", "ios": "https://dc.lft.to/lastmile_qr_scan"}, "name": "8c2558d6c2618e704e43d55f03029a86", "is_reserved": 0}, {"is_disabled": 0, "fusion_lon": 0.0, "fusion_lat": 0.0, "lat": 38.91406033333333, "type": "electric_scooter", "lon": -77.02666383333333, "bike_id": "be1d41873cf8def668b35dfbfdf26f8a", "rental_uris": {"android": "https://dc.lft.to/lastmile_qr_scan", "ios": "https://dc.lft.to/lastmile_qr_scan"}, "name": "be1d41873cf8def668b35dfbfdf26f8a", "is_reserved": 0}, {"is_disabled": 0, "fusion_lon": 0.0, "fusion_lat": 0.0, "lat": 39.09591733333333, "type": "electric_bike", "lon": -77.14777533333333, "bike_id": "ba668bc889ace0008fc2404fb1d7dd8b", "rental_uris": {"android": "https://dc.lft.to/lastmile_qr_scan", "ios": "https://dc.lft.to/lastmile_qr_scan"}, "name": "ba668bc889ace0008fc2404fb1d7dd8b", "is_reserved": 0}, {"is_disabled": 0, "fusion_lon": 0.0, "fusion_lat": 0.0, "lat": 38.855388166666664, "type": "electric_bike", "lon": -77.1072055, "bike_id": "e66ecdb635ab2d571f21bff36f946d31", "rental_uris": {"android": "https://dc.lft.to/lastmile_qr_scan", "ios": "https://dc.lft.to/lastmile_qr_scan"}, "name": "e66ecdb635ab2d571f21bff36f946d31", "is_reserved": 0}, {"is_disabled": 0, "fusion_lon": 0.0, "fusion_lat": 0.0, "lat": 38.99935266666667, "type": "electric_bike", "lon": -77.0012285, "bike_id": "c3734e58f438cd6ce12a04e1ea90a930", "rental_uris": {"android": "https://dc.lft.to/lastmile_qr_scan", "ios": "https://dc.lft.to/lastmile_qr_scan"}, "name": "c3734e58f438cd6ce12a04e1ea90a930", "is_reserved": 0}, {"is_disabled": 0, "fusion_lon": 0.0, "fusion_lat": 0.0, "lat": 38.88013383333333, "type": "electric_scooter", "lon": -76.93117883333333, "bike_id": "fcdaffe9f3256bc93a2167f4d7b6ae2b", "rental_uris": {"android": "https://dc.lft.to/lastmile_qr_scan", "ios": "https://dc.lft.to/lastmile_qr_scan"}, "name": "fcdaffe9f3256bc93a2167f4d7b6ae2b", "is_reserved": 0}, {"is_disabled": 0, "fusion_lon": 0.0, "fusion_lat": 0.0, "lat": 38.895010666666664, "type": "electric_scooter", "lon": -76.94879433333334, "bike_id": "1e69b4695ff73b62a87c3b7ec70d0d7f", "rental_uris": {"android": "https://dc.lft.to/lastmile_qr_scan", "ios": "https://dc.lft.to/lastmile_qr_scan"}, "name": "1e69b4695ff73b62a87c3b7ec70d0d7f", "is_reserved": 0}, {"is_disabled": 0, "fusion_lon": 0.0, "fusion_lat": 0.0, "lat": 38.91938583333334, "type": "electric_scooter", "lon": -77.0812935, "bike_id": "1df3c47761de4935cb31ee87aaa9d2d6", "rental_uris": {"android": "https://dc.lft.to/lastmile_qr_scan", "ios": "https://dc.lft.to/lastmile_qr_scan"}, "name": "1df3c47761de4935cb31ee87aaa9d2d6", "is_reserved": 0}, {"is_disabled": 0, "fusion_lon": 0.0, "fusion_lat": 0.0, "lat": 38.863549166666665, "type": "electric_scooter", "lon": -76.99065783333333, "bike_id": "c2689636f9e66ee0c59da5bb4b227d5a", "rental_uris": {"android": "https://dc.lft.to/lastmile_qr_scan", "ios": "https://dc.lft.to/lastmile_qr_scan"}, "name": "c2689636f9e66ee0c59da5bb4b227d5a", "is_reserved": 0}, {"is_disabled": 0, "fusion_lon": 0.0, "fusion_lat": 0.0, "lat": 38.90566283333333, "type": "electric_scooter", "lon": -77.00767566666667, "bike_id": "43b06fb05dc2c3489bc29f5d4889548e", "rental_uris": {"android": "https://dc.lft.to/lastmile_qr_scan", "ios": "https://dc.lft.to/lastmile_qr_scan"}, "name": "43b06fb05dc2c3489bc29f5d4889548e", "is_reserved": 0}, {"is_disabled": 0, "fusion_lon": 0.0, "fusion_lat": 0.0, "lat": 39.00652016666667, "type": "electric_bike", "lon": -76.90030133333333, "bike_id": "a985931020b738dfd1ea1115f289c402", "rental_uris": {"android": "https://dc.lft.to/lastmile_qr_scan", "ios": "https://dc.lft.to/lastmile_qr_scan"}, "name": "a985931020b738dfd1ea1115f289c402", "is_reserved": 0}, {"is_disabled": 0, "fusion_lon": 0.0, "fusion_lat": 0.0, "lat": 38.950778, "type": "electric_scooter", "lon": -77.02871166666667, "bike_id": "049fc9a3e31117aaa3b2abc66ca5fe71", "rental_uris": {"android": "https://dc.lft.to/lastmile_qr_scan", "ios": "https://dc.lft.to/lastmile_qr_scan"}, "name": "049fc9a3e31117aaa3b2abc66ca5fe71", "is_reserved": 0}, {"is_disabled": 0, "fusion_lon": 0.0, "fusion_lat": 0.0, "lat": 38.88375, "type": "electric_scooter", "lon": -76.92650333333333, "bike_id": "aeac8bf843a04db15f9f9e8849dc30f2", "rental_uris": {"android": "https://dc.lft.to/lastmile_qr_scan", "ios": "https://dc.lft.to/lastmile_qr_scan"}, "name": "aeac8bf843a04db15f9f9e8849dc30f2", "is_reserved": 0}, {"is_disabled": 0, "fusion_lon": 0.0, "fusion_lat": 0.0, "lat": 38.89621666666667, "type": "electric_scooter", "lon": -76.956367, "bike_id": "4bfe73ded32c54aebc4b51a7f2950fbf", "rental_uris": {"android": "https://dc.lft.to/lastmile_qr_scan", "ios": "https://dc.lft.to/lastmile_qr_scan"}, "name": "4bfe73ded32c54aebc4b51a7f2950fbf", "is_reserved": 0}, {"is_disabled": 0, "fusion_lon": 0.0, "fusion_lat": 0.0, "lat": 38.9025485, "type": "electric_scooter", "lon": -77.02200583333334, "bike_id": "3b6729ad940d6cb9ef4b9e83404c94ef", "rental_uris": {"android": "https://dc.lft.to/lastmile_qr_scan", "ios": "https://dc.lft.to/lastmile_qr_scan"}, "name": "3b6729ad940d6cb9ef4b9e83404c94ef", "is_reserved": 0}, {"is_disabled": 0, "fusion_lon": 0.0, "fusion_lat": 0.0, "lat": 38.918843333333335, "type": "electric_scooter", "lon": -77.01592166666667, "bike_id": "b5cbed2246cd945dfe4b6e96caaa187d", "rental_uris": {"android": "https://dc.lft.to/lastmile_qr_scan", "ios": "https://dc.lft.to/lastmile_qr_scan"}, "name": "b5cbed2246cd945dfe4b6e96caaa187d", "is_reserved": 0}, {"is_disabled": 0, "fusion_lon": 0.0, "fusion_lat": 0.0, "lat": 38.9123625, "type": "electric_scooter", "lon": -77.0447885, "bike_id": "0366417b2be566137120056f1387a18a", "rental_uris": {"android": "https://dc.lft.to/lastmile_qr_scan", "ios": "https://dc.lft.to/lastmile_qr_scan"}, "name": "0366417b2be566137120056f1387a18a", "is_reserved": 0}, {"is_disabled": 0, "fusion_lon": 0.0, "fusion_lat": 0.0, "lat": 38.921574, "type": "electric_scooter", "lon": -77.04287783333334, "bike_id": "f6076fcc0189319c97864d2aa80d6cf4", "rental_uris": {"android": "https://dc.lft.to/lastmile_qr_scan", "ios": "https://dc.lft.to/lastmile_qr_scan"}, "name": "f6076fcc0189319c97864d2aa80d6cf4", "is_reserved": 0}, {"is_disabled": 0, "fusion_lon": 0.0, "fusion_lat": 0.0, "lat": 38.931927, "type": "electric_bike", "lon": -77.229347, "bike_id": "53dd4843273daf10aa5647fc0eb905d2", "rental_uris": {"android": "https://dc.lft.to/lastmile_qr_scan", "ios": "https://dc.lft.to/lastmile_qr_scan"}, "name": "53dd4843273daf10aa5647fc0eb905d2", "is_reserved": 0}, {"is_disabled": 0, "fusion_lon": 0.0, "fusion_lat": 0.0, "lat": 38.959916666666665, "type": "electric_bike", "lon": -76.99871949999999, "bike_id": "7982b6544ccb876eaeb8ce74e25138da", "rental_uris": {"android": "https://dc.lft.to/lastmile_qr_scan", "ios": "https://dc.lft.to/lastmile_qr_scan"}, "name": "7982b6544ccb876eaeb8ce74e25138da", "is_reserved": 0}, {"is_disabled": 0, "fusion_lon": 0.0, "fusion_lat": 0.0, "lat": 38.99252366666666, "type": "electric_bike", "lon": -77.04995783333334, "bike_id": "f5a414de0dcc3083c948075977e6cfe0", "rental_uris": {"android": "https://dc.lft.to/lastmile_qr_scan", "ios": "https://dc.lft.to/lastmile_qr_scan"}, "name": "f5a414de0dcc3083c948075977e6cfe0", "is_reserved": 0}, {"is_disabled": 0, "fusion_lon": 0.0, "fusion_lat": 0.0, "lat": 38.91265633333333, "type": "electric_scooter", "lon": -77.04098116666667, "bike_id": "19569121a2fc347df988b60008e5442d", "rental_uris": {"android": "https://dc.lft.to/lastmile_qr_scan", "ios": "https://dc.lft.to/lastmile_qr_scan"}, "name": "19569121a2fc347df988b60008e5442d", "is_reserved": 0}, {"is_disabled": 0, "fusion_lon": 0.0, "fusion_lat": 0.0, "lat": 38.899313166666666, "type": "electric_scooter", "lon": -77.02159416666667, "bike_id": "485b0979b833685ce3db6a89803e05c8", "rental_uris": {"android": "https://dc.lft.to/lastmile_qr_scan", "ios": "https://dc.lft.to/lastmile_qr_scan"}, "name": "485b0979b833685ce3db6a89803e05c8", "is_reserved": 0}, {"is_disabled": 0, "fusion_lon": 0.0, "fusion_lat": 0.0, "lat": 38.89673716666667, "type": "electric_scooter", "lon": -77.02670166666667, "bike_id": "298d8092691f933b274f5430f3e2e768", "rental_uris": {"android": "https://dc.lft.to/lastmile_qr_scan", "ios": "https://dc.lft.to/lastmile_qr_scan"}, "name": "298d8092691f933b274f5430f3e2e768", "is_reserved": 0}, {"is_disabled": 0, "fusion_lon": 0.0, "fusion_lat": 0.0, "lat": 38.945598, "type": "electric_bike", "lon": -77.0512445, "bike_id": "379ecc85dda0cf017ac4c8ba32143ebd", "rental_uris": {"android": "https://dc.lft.to/lastmile_qr_scan", "ios": "https://dc.lft.to/lastmile_qr_scan"}, "name": "379ecc85dda0cf017ac4c8ba32143ebd", "is_reserved": 0}, {"is_disabled": 0, "fusion_lon": 0.0, "fusion_lat": 0.0, "lat": 38.920640666666664, "type": "electric_scooter", "lon": -77.04335116666667, "bike_id": "aa17abafc1fea252e0c5dbb0ddf67b7e", "rental_uris": {"android": "https://dc.lft.to/lastmile_qr_scan", "ios": "https://dc.lft.to/lastmile_qr_scan"}, "name": "aa17abafc1fea252e0c5dbb0ddf67b7e", "is_reserved": 0}, {"is_disabled": 0, "fusion_lon": 0.0, "fusion_lat": 0.0, "lat": 38.90671016666667, "type": "electric_scooter", "lon": -77.03758083333334, "bike_id": "debaf125686d485f8edf60ec99ab39d7", "rental_uris": {"android": "https://dc.lft.to/lastmile_qr_scan", "ios": "https://dc.lft.to/lastmile_qr_scan"}, "name": "debaf125686d485f8edf60ec99ab39d7", "is_reserved": 0}, {"is_disabled": 0, "fusion_lon": 0.0, "fusion_lat": 0.0, "lat": 38.9198265, "type": "electric_scooter", "lon": -77.038749, "bike_id": "425781614b9d5dd7c8279ba2ea3ce464", "rental_uris": {"android": "https://dc.lft.to/lastmile_qr_scan", "ios": "https://dc.lft.to/lastmile_qr_scan"}, "name": "425781614b9d5dd7c8279ba2ea3ce464", "is_reserved": 0}, {"is_disabled": 0, "fusion_lon": 0.0, "fusion_lat": 0.0, "lat": 38.917003333333334, "type": "electric_scooter", "lon": -77.00524, "bike_id": "46940ffe3994c8615c6e53530eba1231", "rental_uris": {"android": "https://dc.lft.to/lastmile_qr_scan", "ios": "https://dc.lft.to/lastmile_qr_scan"}, "name": "46940ffe3994c8615c6e53530eba1231", "is_reserved": 0}, {"is_disabled": 0, "fusion_lon": 0.0, "fusion_lat": 0.0, "lat": 38.9050405, "type": "electric_scooter", "lon": -77.029494, "bike_id": "7215f772273b822e36b087f17be58c6c", "rental_uris": {"android": "https://dc.lft.to/lastmile_qr_scan", "ios": "https://dc.lft.to/lastmile_qr_scan"}, "name": "7215f772273b822e36b087f17be58c6c", "is_reserved": 0}, {"is_disabled": 0, "fusion_lon": 0.0, "fusion_lat": 0.0, "lat": 38.929036333333336, "type": "electric_scooter", "lon": -77.0324825, "bike_id": "f85c0535b53fb79deb362cd234c8cf68", "rental_uris": {"android": "https://dc.lft.to/lastmile_qr_scan", "ios": "https://dc.lft.to/lastmile_qr_scan"}, "name": "f85c0535b53fb79deb362cd234c8cf68", "is_reserved": 0}, {"is_disabled": 0, "fusion_lon": 0.0, "fusion_lat": 0.0, "lat": 38.9444765, "type": "electric_scooter", "lon": -77.061673, "bike_id": "82df523a2c42172805ceb1fd218e8ba5", "rental_uris": {"android": "https://dc.lft.to/lastmile_qr_scan", "ios": "https://dc.lft.to/lastmile_qr_scan"}, "name": "82df523a2c42172805ceb1fd218e8ba5", "is_reserved": 0}, {"is_disabled": 0, "fusion_lon": 0.0, "fusion_lat": 0.0, "lat": 38.91013783333333, "type": "electric_scooter", "lon": -77.02718583333333, "bike_id": "ce013131a9351ad3796ccd9d185e326d", "rental_uris": {"android": "https://dc.lft.to/lastmile_qr_scan", "ios": "https://dc.lft.to/lastmile_qr_scan"}, "name": "ce013131a9351ad3796ccd9d185e326d", "is_reserved": 0}, {"is_disabled": 0, "fusion_lon": 0.0, "fusion_lat": 0.0, "lat": 38.9067675, "type": "electric_scooter", "lon": -77.0364415, "bike_id": "3930d6db931a55478c7b149eb5dbcf44", "rental_uris": {"android": "https://dc.lft.to/lastmile_qr_scan", "ios": "https://dc.lft.to/lastmile_qr_scan"}, "name": "3930d6db931a55478c7b149eb5dbcf44", "is_reserved": 0}, {"is_disabled": 0, "fusion_lon": 0.0, "fusion_lat": 0.0, "lat": 38.903373333333334, "type": "electric_scooter", "lon": -77.028831, "bike_id": "c961ecf7497ded8cb01c962aa660b6c6", "rental_uris": {"android": "https://dc.lft.to/lastmile_qr_scan", "ios": "https://dc.lft.to/lastmile_qr_scan"}, "name": "c961ecf7497ded8cb01c962aa660b6c6", "is_reserved": 0}, {"is_disabled": 0, "fusion_lon": 0.0, "fusion_lat": 0.0, "lat": 38.9655805, "type": "electric_bike", "lon": -77.02294316666666, "bike_id": "f87e22b941bd804519afed8dd95e3060", "rental_uris": {"android": "https://dc.lft.to/lastmile_qr_scan", "ios": "https://dc.lft.to/lastmile_qr_scan"}, "name": "f87e22b941bd804519afed8dd95e3060", "is_reserved": 0}, {"is_disabled": 0, "fusion_lon": 0.0, "fusion_lat": 0.0, "lat": 38.89406983333333, "type": "electric_scooter", "lon": -77.02155483333334, "bike_id": "b209300367ee219161ca00334c124ba9", "rental_uris": {"android": "https://dc.lft.to/lastmile_qr_scan", "ios": "https://dc.lft.to/lastmile_qr_scan"}, "name": "b209300367ee219161ca00334c124ba9", "is_reserved": 0}, {"is_disabled": 0, "fusion_lon": 0.0, "fusion_lat": 0.0, "lat": 38.90391, "type": "electric_bike", "lon": -77.053672, "bike_id": "67f7e5040bb0f4512752ae89d8aa93d0", "rental_uris": {"android": "https://dc.lft.to/lastmile_qr_scan", "ios": "https://dc.lft.to/lastmile_qr_scan"}, "name": "67f7e5040bb0f4512752ae89d8aa93d0", "is_reserved": 0}, {"is_disabled": 0, "fusion_lon": 0.0, "fusion_lat": 0.0, "lat": 38.923689833333334, "type": "electric_scooter", "lon": -77.05031466666667, "bike_id": "6c3460bbe4316e1a837155d35615e080", "rental_uris": {"android": "https://dc.lft.to/lastmile_qr_scan", "ios": "https://dc.lft.to/lastmile_qr_scan"}, "name": "6c3460bbe4316e1a837155d35615e080", "is_reserved": 0}, {"is_disabled": 0, "fusion_lon": 0.0, "fusion_lat": 0.0, "lat": 38.9072935, "type": "electric_scooter", "lon": -77.00221983333333, "bike_id": "73d1b6c35f43ad6f53ae6a440df00e12", "rental_uris": {"android": "https://dc.lft.to/lastmile_qr_scan", "ios": "https://dc.lft.to/lastmile_qr_scan"}, "name": "73d1b6c35f43ad6f53ae6a440df00e12", "is_reserved": 0}, {"is_disabled": 0, "fusion_lon": 0.0, "fusion_lat": 0.0, "lat": 38.923079, "type": "electric_scooter", "lon": -77.03103983333334, "bike_id": "5dcc26ab465f886c30770176b799fb50", "rental_uris": {"android": "https://dc.lft.to/lastmile_qr_scan", "ios": "https://dc.lft.to/lastmile_qr_scan"}, "name": "5dcc26ab465f886c30770176b799fb50", "is_reserved": 0}, {"is_disabled": 0, "fusion_lon": 0.0, "fusion_lat": 0.0, "lat": 38.923803166666666, "type": "electric_scooter", "lon": -77.030559, "bike_id": "cad0565435074e212473e5bd0ee6da5f", "rental_uris": {"android": "https://dc.lft.to/lastmile_qr_scan", "ios": "https://dc.lft.to/lastmile_qr_scan"}, "name": "cad0565435074e212473e5bd0ee6da5f", "is_reserved": 0}, {"is_disabled": 0, "fusion_lon": 0.0, "fusion_lat": 0.0, "lat": 38.92267016666667, "type": "electric_scooter", "lon": -77.0296395, "bike_id": "7ba1fe9f9704b8da1f39f892fb9eb35e", "rental_uris": {"android": "https://dc.lft.to/lastmile_qr_scan", "ios": "https://dc.lft.to/lastmile_qr_scan"}, "name": "7ba1fe9f9704b8da1f39f892fb9eb35e", "is_reserved": 0}, {"is_disabled": 0, "fusion_lon": 0.0, "fusion_lat": 0.0, "lat": 38.901841, "type": "electric_scooter", "lon": -77.05960583333334, "bike_id": "cc60e0e4e4649bc3821c5d3f25e3c9ad", "rental_uris": {"android": "https://dc.lft.to/lastmile_qr_scan", "ios": "https://dc.lft.to/lastmile_qr_scan"}, "name": "cc60e0e4e4649bc3821c5d3f25e3c9ad", "is_reserved": 0}, {"is_disabled": 0, "fusion_lon": 0.0, "fusion_lat": 0.0, "lat": 38.838115, "type": "electric_scooter", "lon": -77.00434233333333, "bike_id": "46930ce9e72cbe9f7f24ac32a93df16c", "rental_uris": {"android": "https://dc.lft.to/lastmile_qr_scan", "ios": "https://dc.lft.to/lastmile_qr_scan"}, "name": "46930ce9e72cbe9f7f24ac32a93df16c", "is_reserved": 0}, {"is_disabled": 0, "fusion_lon": 0.0, "fusion_lat": 0.0, "lat": 38.935016, "type": "electric_bike", "lon": -76.94954116666666, "bike_id": "5701e32f281a9d9c13c59d936b8db575", "rental_uris": {"android": "https://dc.lft.to/lastmile_qr_scan", "ios": "https://dc.lft.to/lastmile_qr_scan"}, "name": "5701e32f281a9d9c13c59d936b8db575", "is_reserved": 0}, {"is_disabled": 0, "fusion_lon": 0.0, "fusion_lat": 0.0, "lat": 38.927990333333334, "type": "electric_scooter", "lon": -77.05424716666667, "bike_id": "63fa2b19b8876c9bf74a8f0d03eb7ff0", "rental_uris": {"android": "https://dc.lft.to/lastmile_qr_scan", "ios": "https://dc.lft.to/lastmile_qr_scan"}, "name": "63fa2b19b8876c9bf74a8f0d03eb7ff0", "is_reserved": 0}, {"is_disabled": 0, "fusion_lon": 0.0, "fusion_lat": 0.0, "lat": 38.886301333333336, "type": "electric_scooter", "lon": -76.99849316666666, "bike_id": "8fe7b693df0a0c1521bada6fdfade651", "rental_uris": {"android": "https://dc.lft.to/lastmile_qr_scan", "ios": "https://dc.lft.to/lastmile_qr_scan"}, "name": "8fe7b693df0a0c1521bada6fdfade651", "is_reserved": 0}, {"is_disabled": 0, "fusion_lon": 0.0, "fusion_lat": 0.0, "lat": 39.09945533333333, "type": "electric_bike", "lon": -77.187871, "bike_id": "70fe9c26d1962c7b88e8be0856eb0556", "rental_uris": {"android": "https://dc.lft.to/lastmile_qr_scan", "ios": "https://dc.lft.to/lastmile_qr_scan"}, "name": "70fe9c26d1962c7b88e8be0856eb0556", "is_reserved": 0}, {"is_disabled": 0, "fusion_lon": 0.0, "fusion_lat": 0.0, "lat": 38.84290416666666, "type": "electric_scooter", "lon": -76.99947933333334, "bike_id": "76bfdd2a578e1acd5274e78ac8a55896", "rental_uris": {"android": "https://dc.lft.to/lastmile_qr_scan", "ios": "https://dc.lft.to/lastmile_qr_scan"}, "name": "76bfdd2a578e1acd5274e78ac8a55896", "is_reserved": 0}, {"is_disabled": 0, "fusion_lon": 0.0, "fusion_lat": 0.0, "lat": 38.90561483333333, "type": "electric_scooter", "lon": -77.04852833333334, "bike_id": "9c6bf34ba8ea8120005af135e7f14c08", "rental_uris": {"android": "https://dc.lft.to/lastmile_qr_scan", "ios": "https://dc.lft.to/lastmile_qr_scan"}, "name": "9c6bf34ba8ea8120005af135e7f14c08", "is_reserved": 0}, {"is_disabled": 0, "fusion_lon": 0.0, "fusion_lat": 0.0, "lat": 38.89235866666667, "type": "electric_scooter", "lon": -77.04358083333334, "bike_id": "bd57011298c274e906cc9297d3819960", "rental_uris": {"android": "https://dc.lft.to/lastmile_qr_scan", "ios": "https://dc.lft.to/lastmile_qr_scan"}, "name": "bd57011298c274e906cc9297d3819960", "is_reserved": 0}, {"is_disabled": 0, "fusion_lon": 0.0, "fusion_lat": 0.0, "lat": 38.907963, "type": "electric_scooter", "lon": -77.04982283333334, "bike_id": "cb9ed9bfb4e0cccf4f78e9ef35e097bd", "rental_uris": {"android": "https://dc.lft.to/lastmile_qr_scan", "ios": "https://dc.lft.to/lastmile_qr_scan"}, "name": "cb9ed9bfb4e0cccf4f78e9ef35e097bd", "is_reserved": 0}, {"is_disabled": 0, "fusion_lon": 0.0, "fusion_lat": 0.0, "lat": 38.908726, "type": "electric_scooter", "lon": -77.0022185, "bike_id": "70358036b40241a64b3f16135d499de9", "rental_uris": {"android": "https://dc.lft.to/lastmile_qr_scan", "ios": "https://dc.lft.to/lastmile_qr_scan"}, "name": "70358036b40241a64b3f16135d499de9", "is_reserved": 0}, {"is_disabled": 0, "fusion_lon": 0.0, "fusion_lat": 0.0, "lat": 38.933598833333335, "type": "electric_scooter", "lon": -77.072058, "bike_id": "e19d62a9633ecaa1ae8399f8dc99d9ba", "rental_uris": {"android": "https://dc.lft.to/lastmile_qr_scan", "ios": "https://dc.lft.to/lastmile_qr_scan"}, "name": "e19d62a9633ecaa1ae8399f8dc99d9ba", "is_reserved": 0}, {"is_disabled": 0, "fusion_lon": 0.0, "fusion_lat": 0.0, "lat": 38.89466916666667, "type": "electric_scooter", "lon": -76.99487283333333, "bike_id": "dc8a9ba1e5e43f09295972904f3dbd16", "rental_uris": {"android": "https://dc.lft.to/lastmile_qr_scan", "ios": "https://dc.lft.to/lastmile_qr_scan"}, "name": "dc8a9ba1e5e43f09295972904f3dbd16", "is_reserved": 0}, {"is_disabled": 0, "fusion_lon": 0.0, "fusion_lat": 0.0, "lat": 38.96623566666667, "type": "electric_bike", "lon": -77.03433766666667, "bike_id": "5f257b402677d1e4957f5be26d058420", "rental_uris": {"android": "https://dc.lft.to/lastmile_qr_scan", "ios": "https://dc.lft.to/lastmile_qr_scan"}, "name": "5f257b402677d1e4957f5be26d058420", "is_reserved": 0}, {"is_disabled": 0, "fusion_lon": 0.0, "fusion_lat": 0.0, "lat": 38.889671, "type": "electric_scooter", "lon": -76.9273675, "bike_id": "86f9c7bd519a37119cc9c7dc49ed1b71", "rental_uris": {"android": "https://dc.lft.to/lastmile_qr_scan", "ios": "https://dc.lft.to/lastmile_qr_scan"}, "name": "86f9c7bd519a37119cc9c7dc49ed1b71", "is_reserved": 0}, {"is_disabled": 0, "fusion_lon": 0.0, "fusion_lat": 0.0, "lat": 38.8809805, "type": "electric_scooter", "lon": -77.02588233333333, "bike_id": "d57fdda5e57e6ad61c13bd050d53eebd", "rental_uris": {"android": "https://dc.lft.to/lastmile_qr_scan", "ios": "https://dc.lft.to/lastmile_qr_scan"}, "name": "d57fdda5e57e6ad61c13bd050d53eebd", "is_reserved": 0}, {"is_disabled": 0, "fusion_lon": 0.0, "fusion_lat": 0.0, "lat": 38.919796166666664, "type": "electric_scooter", "lon": -77.02496616666667, "bike_id": "899377cae93b1176a9b0c3abb4342f4a", "rental_uris": {"android": "https://dc.lft.to/lastmile_qr_scan", "ios": "https://dc.lft.to/lastmile_qr_scan"}, "name": "899377cae93b1176a9b0c3abb4342f4a", "is_reserved": 0}, {"is_disabled": 0, "fusion_lon": 0.0, "fusion_lat": 0.0, "lat": 38.8451645, "type": "electric_scooter", "lon": -76.98787966666667, "bike_id": "543d7ac3d57dfd8ce84ae925484e8f29", "rental_uris": {"android": "https://dc.lft.to/lastmile_qr_scan", "ios": "https://dc.lft.to/lastmile_qr_scan"}, "name": "543d7ac3d57dfd8ce84ae925484e8f29", "is_reserved": 0}, {"is_disabled": 0, "fusion_lon": 0.0, "fusion_lat": 0.0, "lat": 38.8872285, "type": "electric_scooter", "lon": -77.02205083333334, "bike_id": "f18404d91d30c260f0c141d056a43d0f", "rental_uris": {"android": "https://dc.lft.to/lastmile_qr_scan", "ios": "https://dc.lft.to/lastmile_qr_scan"}, "name": "f18404d91d30c260f0c141d056a43d0f", "is_reserved": 0}, {"is_disabled": 0, "fusion_lon": 0.0, "fusion_lat": 0.0, "lat": 38.900616666666664, "type": "electric_scooter", "lon": -77.01292, "bike_id": "2569039eaebe4dbf3c21ccb5989a22f0", "rental_uris": {"android": "https://dc.lft.to/lastmile_qr_scan", "ios": "https://dc.lft.to/lastmile_qr_scan"}, "name": "2569039eaebe4dbf3c21ccb5989a22f0", "is_reserved": 0}, {"is_disabled": 0, "fusion_lon": 0.0, "fusion_lat": 0.0, "lat": 38.897487, "type": "electric_scooter", "lon": -77.02385483333333, "bike_id": "b2dffdfdfa0169ab9e4a0cfbee9ef9f5", "rental_uris": {"android": "https://dc.lft.to/lastmile_qr_scan", "ios": "https://dc.lft.to/lastmile_qr_scan"}, "name": "b2dffdfdfa0169ab9e4a0cfbee9ef9f5", "is_reserved": 0}, {"is_disabled": 0, "fusion_lon": 0.0, "fusion_lat": 0.0, "lat": 38.95955416666666, "type": "electric_scooter", "lon": -77.072337, "bike_id": "2a1b9f5f63c37028b36ef5bbbc2db5c2", "rental_uris": {"android": "https://dc.lft.to/lastmile_qr_scan", "ios": "https://dc.lft.to/lastmile_qr_scan"}, "name": "2a1b9f5f63c37028b36ef5bbbc2db5c2", "is_reserved": 0}, {"is_disabled": 0, "fusion_lon": 0.0, "fusion_lat": 0.0, "lat": 38.887986833333336, "type": "electric_bike", "lon": -76.92995466666666, "bike_id": "3e51bab02d63f741c4b4af4c0e29e535", "rental_uris": {"android": "https://dc.lft.to/lastmile_qr_scan", "ios": "https://dc.lft.to/lastmile_qr_scan"}, "name": "3e51bab02d63f741c4b4af4c0e29e535", "is_reserved": 0}, {"is_disabled": 0, "fusion_lon": 0.0, "fusion_lat": 0.0, "lat": 38.827444166666666, "type": "electric_bike", "lon": -77.008484, "bike_id": "d9309e723ab6991c0fa9cc6d1c18b9b3", "rental_uris": {"android": "https://dc.lft.to/lastmile_qr_scan", "ios": "https://dc.lft.to/lastmile_qr_scan"}, "name": "d9309e723ab6991c0fa9cc6d1c18b9b3", "is_reserved": 0}, {"is_disabled": 0, "fusion_lon": 0.0, "fusion_lat": 0.0, "lat": 38.910320666666664, "type": "electric_scooter", "lon": -77.04803466666667, "bike_id": "fce408906e9fd10913362723949907bc", "rental_uris": {"android": "https://dc.lft.to/lastmile_qr_scan", "ios": "https://dc.lft.to/lastmile_qr_scan"}, "name": "fce408906e9fd10913362723949907bc", "is_reserved": 0}, {"is_disabled": 0, "fusion_lon": 0.0, "fusion_lat": 0.0, "lat": 38.92796333333333, "type": "electric_scooter", "lon": -77.02298183333333, "bike_id": "587f2c921dfbcaab22d0f3f708e604b3", "rental_uris": {"android": "https://dc.lft.to/lastmile_qr_scan", "ios": "https://dc.lft.to/lastmile_qr_scan"}, "name": "587f2c921dfbcaab22d0f3f708e604b3", "is_reserved": 0}, {"is_disabled": 0, "fusion_lon": 0.0, "fusion_lat": 0.0, "lat": 38.89834316666666, "type": "electric_scooter", "lon": -76.98049916666666, "bike_id": "aeb34980039f102542eb42dee5f98ba8", "rental_uris": {"android": "https://dc.lft.to/lastmile_qr_scan", "ios": "https://dc.lft.to/lastmile_qr_scan"}, "name": "aeb34980039f102542eb42dee5f98ba8", "is_reserved": 0}, {"is_disabled": 0, "fusion_lon": 0.0, "fusion_lat": 0.0, "lat": 38.893719, "type": "electric_scooter", "lon": -76.94997983333333, "bike_id": "a1583f0c8bfc0897dbee80c43174ffa1", "rental_uris": {"android": "https://dc.lft.to/lastmile_qr_scan", "ios": "https://dc.lft.to/lastmile_qr_scan"}, "name": "a1583f0c8bfc0897dbee80c43174ffa1", "is_reserved": 0}, {"is_disabled": 0, "fusion_lon": 0.0, "fusion_lat": 0.0, "lat": 38.9111875, "type": "electric_scooter", "lon": -77.04500283333333, "bike_id": "9ac30798011ce54911d8aeb8151ba2e5", "rental_uris": {"android": "https://dc.lft.to/lastmile_qr_scan", "ios": "https://dc.lft.to/lastmile_qr_scan"}, "name": "9ac30798011ce54911d8aeb8151ba2e5", "is_reserved": 0}, {"is_disabled": 0, "fusion_lon": 0.0, "fusion_lat": 0.0, "lat": 38.90566416666667, "type": "electric_scooter", "lon": -77.00539733333333, "bike_id": "ce94c76998bfa4c8035837c7ea86cdef", "rental_uris": {"android": "https://dc.lft.to/lastmile_qr_scan", "ios": "https://dc.lft.to/lastmile_qr_scan"}, "name": "ce94c76998bfa4c8035837c7ea86cdef", "is_reserved": 0}, {"is_disabled": 0, "fusion_lon": 0.0, "fusion_lat": 0.0, "lat": 38.90370266666667, "type": "electric_scooter", "lon": -77.02370266666667, "bike_id": "21e73137207320fdeb8d9a8501519483", "rental_uris": {"android": "https://dc.lft.to/lastmile_qr_scan", "ios": "https://dc.lft.to/lastmile_qr_scan"}, "name": "21e73137207320fdeb8d9a8501519483", "is_reserved": 0}, {"is_disabled": 0, "fusion_lon": 0.0, "fusion_lat": 0.0, "lat": 38.940832666666665, "type": "electric_bike", "lon": -77.04651916666667, "bike_id": "ed5d5fc465076acaee2ec5bdd3ad41d9", "rental_uris": {"android": "https://dc.lft.to/lastmile_qr_scan", "ios": "https://dc.lft.to/lastmile_qr_scan"}, "name": "ed5d5fc465076acaee2ec5bdd3ad41d9", "is_reserved": 0}, {"is_disabled": 0, "fusion_lon": 0.0, "fusion_lat": 0.0, "lat": 38.89234866666666, "type": "electric_bike", "lon": -76.952217, "bike_id": "7d560063d836b3be392ba4dcd45861e6", "rental_uris": {"android": "https://dc.lft.to/lastmile_qr_scan", "ios": "https://dc.lft.to/lastmile_qr_scan"}, "name": "7d560063d836b3be392ba4dcd45861e6", "is_reserved": 0}, {"is_disabled": 0, "fusion_lon": 0.0, "fusion_lat": 0.0, "lat": 38.920532, "type": "electric_scooter", "lon": -77.042644, "bike_id": "9d808834555d6869b6efa178a19cc3c3", "rental_uris": {"android": "https://dc.lft.to/lastmile_qr_scan", "ios": "https://dc.lft.to/lastmile_qr_scan"}, "name": "9d808834555d6869b6efa178a19cc3c3", "is_reserved": 0}, {"is_disabled": 0, "fusion_lon": 0.0, "fusion_lat": 0.0, "lat": 38.88742083333333, "type": "electric_scooter", "lon": -77.01540166666666, "bike_id": "0117673830ee0a5533750cea780705d7", "rental_uris": {"android": "https://dc.lft.to/lastmile_qr_scan", "ios": "https://dc.lft.to/lastmile_qr_scan"}, "name": "0117673830ee0a5533750cea780705d7", "is_reserved": 0}, {"is_disabled": 0, "fusion_lon": 0.0, "fusion_lat": 0.0, "lat": 38.914171833333334, "type": "electric_scooter", "lon": -77.03094233333333, "bike_id": "4a53213ca1bb15cdb75e4e2780329dbb", "rental_uris": {"android": "https://dc.lft.to/lastmile_qr_scan", "ios": "https://dc.lft.to/lastmile_qr_scan"}, "name": "4a53213ca1bb15cdb75e4e2780329dbb", "is_reserved": 0}, {"is_disabled": 0, "fusion_lon": 0.0, "fusion_lat": 0.0, "lat": 38.87287766666667, "type": "electric_scooter", "lon": -76.9772895, "bike_id": "ed9503fee5da0c10b0e8334e0561e15f", "rental_uris": {"android": "https://dc.lft.to/lastmile_qr_scan", "ios": "https://dc.lft.to/lastmile_qr_scan"}, "name": "ed9503fee5da0c10b0e8334e0561e15f", "is_reserved": 0}, {"is_disabled": 0, "fusion_lon": 0.0, "fusion_lat": 0.0, "lat": 38.92594883333334, "type": "electric_bike", "lon": -76.8890295, "bike_id": "b1bd6fba2d97e5347c75674b001d7597", "rental_uris": {"android": "https://dc.lft.to/lastmile_qr_scan", "ios": "https://dc.lft.to/lastmile_qr_scan"}, "name": "b1bd6fba2d97e5347c75674b001d7597", "is_reserved": 0}, {"is_disabled": 0, "fusion_lon": 0.0, "fusion_lat": 0.0, "lat": 38.824710833333334, "type": "electric_bike", "lon": -77.0707805, "bike_id": "3e6028c96ab88cd0e95b98b4ebcd8a4b", "rental_uris": {"android": "https://dc.lft.to/lastmile_qr_scan", "ios": "https://dc.lft.to/lastmile_qr_scan"}, "name": "3e6028c96ab88cd0e95b98b4ebcd8a4b", "is_reserved": 0}, {"is_disabled": 0, "fusion_lon": 0.0, "fusion_lat": 0.0, "lat": 38.938596833333335, "type": "electric_scooter", "lon": -77.02651116666667, "bike_id": "641deb10c7efeb009bf90e2dab297bca", "rental_uris": {"android": "https://dc.lft.to/lastmile_qr_scan", "ios": "https://dc.lft.to/lastmile_qr_scan"}, "name": "641deb10c7efeb009bf90e2dab297bca", "is_reserved": 0}, {"is_disabled": 0, "fusion_lon": 0.0, "fusion_lat": 0.0, "lat": 38.89459866666667, "type": "electric_scooter", "lon": -77.02115483333333, "bike_id": "c41ffeca5f01ee2ba274688546baab4c", "rental_uris": {"android": "https://dc.lft.to/lastmile_qr_scan", "ios": "https://dc.lft.to/lastmile_qr_scan"}, "name": "c41ffeca5f01ee2ba274688546baab4c", "is_reserved": 0}, {"is_disabled": 0, "fusion_lon": 0.0, "fusion_lat": 0.0, "lat": 38.9225125, "type": "electric_scooter", "lon": -77.0297535, "bike_id": "dd9e89fa964083b8b13d61537c996bc8", "rental_uris": {"android": "https://dc.lft.to/lastmile_qr_scan", "ios": "https://dc.lft.to/lastmile_qr_scan"}, "name": "dd9e89fa964083b8b13d61537c996bc8", "is_reserved": 0}, {"is_disabled": 0, "fusion_lon": 0.0, "fusion_lat": 0.0, "lat": 38.90855483333333, "type": "electric_scooter", "lon": -77.07157333333333, "bike_id": "063fd8ddbfe2b2eceab7bf6bb02162c0", "rental_uris": {"android": "https://dc.lft.to/lastmile_qr_scan", "ios": "https://dc.lft.to/lastmile_qr_scan"}, "name": "063fd8ddbfe2b2eceab7bf6bb02162c0", "is_reserved": 0}, {"is_disabled": 0, "fusion_lon": 0.0, "fusion_lat": 0.0, "lat": 38.9154785, "type": "electric_scooter", "lon": -77.03857683333334, "bike_id": "dc086f8ac36e153c13e7541cc0cfac75", "rental_uris": {"android": "https://dc.lft.to/lastmile_qr_scan", "ios": "https://dc.lft.to/lastmile_qr_scan"}, "name": "dc086f8ac36e153c13e7541cc0cfac75", "is_reserved": 0}, {"is_disabled": 0, "fusion_lon": 0.0, "fusion_lat": 0.0, "lat": 38.910348, "type": "electric_scooter", "lon": -77.04261683333333, "bike_id": "b17b953e08e603a73587635f2165ad67", "rental_uris": {"android": "https://dc.lft.to/lastmile_qr_scan", "ios": "https://dc.lft.to/lastmile_qr_scan"}, "name": "b17b953e08e603a73587635f2165ad67", "is_reserved": 0}, {"is_disabled": 0, "fusion_lon": 0.0, "fusion_lat": 0.0, "lat": 38.925780833333334, "type": "electric_scooter", "lon": -77.04016216666666, "bike_id": "6ff79edac062fae95c39ae7e1bb2c9fb", "rental_uris": {"android": "https://dc.lft.to/lastmile_qr_scan", "ios": "https://dc.lft.to/lastmile_qr_scan"}, "name": "6ff79edac062fae95c39ae7e1bb2c9fb", "is_reserved": 0}, {"is_disabled": 0, "fusion_lon": 0.0, "fusion_lat": 0.0, "lat": 38.905378166666665, "type": "electric_scooter", "lon": -77.05706633333334, "bike_id": "07ee4708d90649513950fda9bdb50fc7", "rental_uris": {"android": "https://dc.lft.to/lastmile_qr_scan", "ios": "https://dc.lft.to/lastmile_qr_scan"}, "name": "07ee4708d90649513950fda9bdb50fc7", "is_reserved": 0}, {"is_disabled": 0, "fusion_lon": 0.0, "fusion_lat": 0.0, "lat": 38.90955666666667, "type": "electric_scooter", "lon": -77.04723566666667, "bike_id": "3e8af1052c0f59c42516d60cfe2243c1", "rental_uris": {"android": "https://dc.lft.to/lastmile_qr_scan", "ios": "https://dc.lft.to/lastmile_qr_scan"}, "name": "3e8af1052c0f59c42516d60cfe2243c1", "is_reserved": 0}, {"is_disabled": 0, "fusion_lon": 0.0, "fusion_lat": 0.0, "lat": 38.992651333333335, "type": "electric_scooter", "lon": -77.03608433333333, "bike_id": "c5c21fde0b60b332796f70850bd528a4", "rental_uris": {"android": "https://dc.lft.to/lastmile_qr_scan", "ios": "https://dc.lft.to/lastmile_qr_scan"}, "name": "c5c21fde0b60b332796f70850bd528a4", "is_reserved": 0}, {"is_disabled": 0, "fusion_lon": 0.0, "fusion_lat": 0.0, "lat": 38.88577183333334, "type": "electric_scooter", "lon": -76.91910216666666, "bike_id": "4852e78a98cb3c5981d9d99e88f0e132", "rental_uris": {"android": "https://dc.lft.to/lastmile_qr_scan", "ios": "https://dc.lft.to/lastmile_qr_scan"}, "name": "4852e78a98cb3c5981d9d99e88f0e132", "is_reserved": 0}, {"is_disabled": 0, "fusion_lon": 0.0, "fusion_lat": 0.0, "lat": 39.0388375, "type": "electric_bike", "lon": -77.10908483333333, "bike_id": "700709601c20c60c2fe96f4681cc5ed9", "rental_uris": {"android": "https://dc.lft.to/lastmile_qr_scan", "ios": "https://dc.lft.to/lastmile_qr_scan"}, "name": "700709601c20c60c2fe96f4681cc5ed9", "is_reserved": 0}, {"is_disabled": 0, "fusion_lon": 0.0, "fusion_lat": 0.0, "lat": 38.897452666666666, "type": "electric_scooter", "lon": -77.048116, "bike_id": "aa5ec38ac7f4becaabb1b2abf7fee451", "rental_uris": {"android": "https://dc.lft.to/lastmile_qr_scan", "ios": "https://dc.lft.to/lastmile_qr_scan"}, "name": "aa5ec38ac7f4becaabb1b2abf7fee451", "is_reserved": 0}, {"is_disabled": 0, "fusion_lon": 0.0, "fusion_lat": 0.0, "lat": 38.9348435, "type": "electric_scooter", "lon": -77.072676, "bike_id": "78fa5044a31217081dd3bfc52608a097", "rental_uris": {"android": "https://dc.lft.to/lastmile_qr_scan", "ios": "https://dc.lft.to/lastmile_qr_scan"}, "name": "78fa5044a31217081dd3bfc52608a097", "is_reserved": 0}, {"is_disabled": 0, "fusion_lon": 0.0, "fusion_lat": 0.0, "lat": 38.91707183333333, "type": "electric_scooter", "lon": -77.051268, "bike_id": "9bab6c74f84432f1c4f56b19c6e44fc1", "rental_uris": {"android": "https://dc.lft.to/lastmile_qr_scan", "ios": "https://dc.lft.to/lastmile_qr_scan"}, "name": "9bab6c74f84432f1c4f56b19c6e44fc1", "is_reserved": 0}, {"is_disabled": 0, "fusion_lon": 0.0, "fusion_lat": 0.0, "lat": 38.936680833333334, "type": "electric_bike", "lon": -76.95204816666667, "bike_id": "9509432edd61aef0af1c23f4999fcdd9", "rental_uris": {"android": "https://dc.lft.to/lastmile_qr_scan", "ios": "https://dc.lft.to/lastmile_qr_scan"}, "name": "9509432edd61aef0af1c23f4999fcdd9", "is_reserved": 0}, {"is_disabled": 0, "fusion_lon": 0.0, "fusion_lat": 0.0, "lat": 38.882090833333336, "type": "electric_scooter", "lon": -76.92703233333333, "bike_id": "874a936555c0e11b914294e8fea8e99f", "rental_uris": {"android": "https://dc.lft.to/lastmile_qr_scan", "ios": "https://dc.lft.to/lastmile_qr_scan"}, "name": "874a936555c0e11b914294e8fea8e99f", "is_reserved": 0}, {"is_disabled": 0, "fusion_lon": 0.0, "fusion_lat": 0.0, "lat": 38.924220166666665, "type": "electric_scooter", "lon": -77.03529916666666, "bike_id": "b81d338a3bf3106b0f450b747efeb0a8", "rental_uris": {"android": "https://dc.lft.to/lastmile_qr_scan", "ios": "https://dc.lft.to/lastmile_qr_scan"}, "name": "b81d338a3bf3106b0f450b747efeb0a8", "is_reserved": 0}, {"is_disabled": 0, "fusion_lon": 0.0, "fusion_lat": 0.0, "lat": 38.90342533333333, "type": "electric_scooter", "lon": -76.97571466666666, "bike_id": "27a9269a4ea21a10cbeb9cec54a5afc1", "rental_uris": {"android": "https://dc.lft.to/lastmile_qr_scan", "ios": "https://dc.lft.to/lastmile_qr_scan"}, "name": "27a9269a4ea21a10cbeb9cec54a5afc1", "is_reserved": 0}, {"is_disabled": 0, "fusion_lon": 0.0, "fusion_lat": 0.0, "lat": 38.911219333333335, "type": "electric_scooter", "lon": -77.01878883333333, "bike_id": "eca598495ff7d42e2ec69b31919455b9", "rental_uris": {"android": "https://dc.lft.to/lastmile_qr_scan", "ios": "https://dc.lft.to/lastmile_qr_scan"}, "name": "eca598495ff7d42e2ec69b31919455b9", "is_reserved": 0}, {"is_disabled": 0, "fusion_lon": 0.0, "fusion_lat": 0.0, "lat": 38.93093416666667, "type": "electric_scooter", "lon": -77.0726615, "bike_id": "56af25409beed5573bd103edfa1bddc0", "rental_uris": {"android": "https://dc.lft.to/lastmile_qr_scan", "ios": "https://dc.lft.to/lastmile_qr_scan"}, "name": "56af25409beed5573bd103edfa1bddc0", "is_reserved": 0}, {"is_disabled": 0, "fusion_lon": 0.0, "fusion_lat": 0.0, "lat": 39.088446166666664, "type": "electric_bike", "lon": -77.17802433333334, "bike_id": "56f67025bd3d124de593a164df7997c9", "rental_uris": {"android": "https://dc.lft.to/lastmile_qr_scan", "ios": "https://dc.lft.to/lastmile_qr_scan"}, "name": "56f67025bd3d124de593a164df7997c9", "is_reserved": 0}, {"is_disabled": 0, "fusion_lon": 0.0, "fusion_lat": 0.0, "lat": 38.884259, "type": "electric_scooter", "lon": -76.95419016666666, "bike_id": "eac332cee69892e05915b3e536cd182a", "rental_uris": {"android": "https://dc.lft.to/lastmile_qr_scan", "ios": "https://dc.lft.to/lastmile_qr_scan"}, "name": "eac332cee69892e05915b3e536cd182a", "is_reserved": 0}, {"is_disabled": 0, "fusion_lon": 0.0, "fusion_lat": 0.0, "lat": 38.87659333333333, "type": "electric_scooter", "lon": -77.00904716666666, "bike_id": "572755cc999d88f75813d3da46479c3c", "rental_uris": {"android": "https://dc.lft.to/lastmile_qr_scan", "ios": "https://dc.lft.to/lastmile_qr_scan"}, "name": "572755cc999d88f75813d3da46479c3c", "is_reserved": 0}, {"is_disabled": 0, "fusion_lon": 0.0, "fusion_lat": 0.0, "lat": 38.88736216666667, "type": "electric_scooter", "lon": -77.03223466666667, "bike_id": "36c5cf737011b5df059ced240cec73d4", "rental_uris": {"android": "https://dc.lft.to/lastmile_qr_scan", "ios": "https://dc.lft.to/lastmile_qr_scan"}, "name": "36c5cf737011b5df059ced240cec73d4", "is_reserved": 0}, {"is_disabled": 0, "fusion_lon": 0.0, "fusion_lat": 0.0, "lat": 38.90006433333333, "type": "electric_scooter", "lon": -76.99610116666666, "bike_id": "498d02364e7980de96f32dd758f9a862", "rental_uris": {"android": "https://dc.lft.to/lastmile_qr_scan", "ios": "https://dc.lft.to/lastmile_qr_scan"},