{"data": {"bikes": [{"name": "60174803312516faf62a3e474f8ae97c", "is_reserved": 0, "is_disabled": 0, "lon": -77.03186283333334, "rental_uris": {"android": "https://dc.lft.to/lastmile_qr_scan", "ios": "https://dc.lft.to/lastmile_qr_scan"}, "fusion_lon": 0.0, "lat": 38.919287, "type": "electric_scooter", "fusion_lat": 0.0, "bike_id": "60174803312516faf62a3e474f8ae97c"}, {"name": "32cd3891544b3f1cde084a68c259e922", "is_reserved": 0, "is_disabled": 0, "lon": -77.021841, "rental_uris": {"android": "https://dc.lft.to/lastmile_qr_scan", "ios": "https://dc.lft.to/lastmile_qr_scan"}, "fusion_lon": 0.0, "lat": 38.89230416666667, "type": "electric_scooter", "fusion_lat": 0.0, "bike_id": "32cd3891544b3f1cde084a68c259e922"}, {"name": "e4f7d063078a106564539c6d379c4b27", "is_reserved": 0, "is_disabled": 0, "lon": -77.35303583333334, "rental_uris": {"android": "https://dc.lft.to/lastmile_qr_scan", "ios": "https://dc.lft.to/lastmile_qr_scan"}, "fusion_lon": 0.0, "lat": 38.950038, "type": "electric_bike", "fusion_lat": 0.0, "bike_id": "e4f7d063078a106564539c6d379c4b27"}, {"name": "1893c9e72e805be6482b9ae9ca80d52d", "is_reserved": 0, "is_disabled": 0, "lon": -77.03330483333333, "rental_uris": {"android": "https://dc.lft.to/lastmile_qr_scan", "ios": "https://dc.lft.to/lastmile_qr_scan"}, "fusion_lon": 0.0, "lat": 38.9569695, "type": "electric_bike", "fusion_lat": 0.0, "bike_id": "1893c9e72e805be6482b9ae9ca80d52d"}, {"name": "df2a8e9bf8d933663804b1dc6c49f4a8", "is_reserved": 0, "is_disabled": 0, "lon": -76.99716116666667, "rental_uris": {"android": "https://dc.lft.to/lastmile_qr_scan", "ios": "https://dc.lft.to/lastmile_qr_scan"}, "fusion_lon": 0.0, "lat": 38.91120183333334, "type": "electric_scooter", "fusion_lat": 0.0, "bike_id": "df2a8e9bf8d933663804b1dc6c49f4a8"}, {"name": "b10b261297d3f614d31d8e6a2bc096b8", "is_reserved": 0, "is_disabled": 0, "lon": -76.946528, "rental_uris": {"android": "https://dc.lft.to/lastmile_qr_scan", "ios": "https://dc.lft.to/lastmile_qr_scan"}, "fusion_lon": 0.0, "lat": 38.8982705, "type": "electric_scooter", "fusion_lat": 0.0, "bike_id": "b10b261297d3f614d31d8e6a2bc096b8"}, {"name": "25cd6cee384e8767f58dcb016e5e769a", "is_reserved": 0, "is_disabled": 0, "lon": -77.0634785, "rental_uris": {"android": "https://dc.lft.to/lastmile_qr_scan", "ios": "https://dc.lft.to/lastmile_qr_scan"}, "fusion_lon": 0.0, "lat": 38.913371, "type": "electric_scooter", "fusion_lat": 0.0, "bike_id": "25cd6cee384e8767f58dcb016e5e769a"}, {"name": "ec3a246de07cfb93bc585423e33c5347", "is_reserved": 0, "is_disabled": 0, "lon": -77.04320533333333, "rental_uris": {"android": "https://dc.lft.to/lastmile_qr_scan", "ios": "https://dc.lft.to/lastmile_qr_scan"}, "fusion_lon": 0.0, "lat": 38.90875416666667, "type": "electric_scooter", "fusion_lat": 0.0, "bike_id": "ec3a246de07cfb93bc585423e33c5347"}, {"name": "9c1f7553280ce0da05f35a5fbda7cd90", "is_reserved": 0, "is_disabled": 0, "lon": -77.04828516666667, "rental_uris": {"android": "https://dc.lft.to/lastmile_qr_scan", "ios": "https://dc.lft.to/lastmile_qr_scan"}, "fusion_lon": 0.0, "lat": 38.8984505, "type": "electric_scooter", "fusion_lat": 0.0, "bike_id": "9c1f7553280ce0da05f35a5fbda7cd90"}, {"name": "4098737df4a9f932988ed9ab47b7d6d6", "is_reserved": 0, "is_disabled": 0, "lon": -77.02492666666667, "rental_uris": {"android": "https://dc.lft.to/lastmile_qr_scan", "ios": "https://dc.lft.to/lastmile_qr_scan"}, "fusion_lon": 0.0, "lat": 38.941855, "type": "electric_scooter", "fusion_lat": 0.0, "bike_id": "4098737df4a9f932988ed9ab47b7d6d6"}, {"name": "a3faf299072d1266bdd5f77aa074265b", "is_reserved": 0, "is_disabled": 0, "lon": -77.00061116666667, "rental_uris": {"android": "https://dc.lft.to/lastmile_qr_scan", "ios": "https://dc.lft.to/lastmile_qr_scan"}, "fusion_lon": 0.0, "lat": 38.874365166666664, "type": "electric_scooter", "fusion_lat": 0.0, "bike_id": "a3faf299072d1266bdd5f77aa074265b"}, {"name": "33dff574efda71777b5046f25a09f887", "is_reserved": 0, "is_disabled": 0, "lon": -77.045505, "rental_uris": {"android": "https://dc.lft.to/lastmile_qr_scan", "ios": "https://dc.lft.to/lastmile_qr_scan"}, "fusion_lon": 0.0, "lat": 38.90740016666667, "type": "electric_scooter", "fusion_lat": 0.0, "bike_id": "33dff574efda71777b5046f25a09f887"}, {"name": "5f68561853ec60cf2cc85c1941be9b17", "is_reserved": 0, "is_disabled": 0, "lon": -77.002869, "rental_uris": {"android": "https://dc.lft.to/lastmile_qr_scan", "ios": "https://dc.lft.to/lastmile_qr_scan"}, "fusion_lon": 0.0, "lat": 38.9089945, "type": "electric_scooter", "fusion_lat": 0.0, "bike_id": "5f68561853ec60cf2cc85c1941be9b17"}, {"name": "f45677385a3323badb542f4f99eb9d8c", "is_reserved": 0, "is_disabled": 0, "lon": -77.02637616666667, "rental_uris": {"android": "https://dc.lft.to/lastmile_qr_scan", "ios": "https://dc.lft.to/lastmile_qr_scan"}, "fusion_lon": 0.0, "lat": 38.881126333333334, "type": "electric_scooter", "fusion_lat": 0.0, "bike_id": "f45677385a3323badb542f4f99eb9d8c"}, {"name": "ad0dc4c5b9fcbceb22a5348ec2938684", "is_reserved": 0, "is_disabled": 0, "lon": -77.04669916666667, "rental_uris": {"android": "https://dc.lft.to/lastmile_qr_scan", "ios": "https://dc.lft.to/lastmile_qr_scan"}, "fusion_lon": 0.0, "lat": 38.903793, "type": "electric_scooter", "fusion_lat": 0.0, "bike_id": "ad0dc4c5b9fcbceb22a5348ec2938684"}, {"name": "66b1a72c9438cda5aeb988535123f9b1", "is_reserved": 0, "is_disabled": 0, "lon": -77.046409, "rental_uris": {"android": "https://dc.lft.to/lastmile_qr_scan", "ios": "https://dc.lft.to/lastmile_qr_scan"}, "fusion_lon": 0.0, "lat": 38.897486666666666, "type": "electric_scooter", "fusion_lat": 0.0, "bike_id": "66b1a72c9438cda5aeb988535123f9b1"}, {"name": "451b6e943bd9f2f96c6e9a66c0f1c258", "is_reserved": 0, "is_disabled": 0, "lon": -77.06494533333333, "rental_uris": {"android": "https://dc.lft.to/lastmile_qr_scan", "ios": "https://dc.lft.to/lastmile_qr_scan"}, "fusion_lon": 0.0, "lat": 38.90520166666667, "type": "electric_scooter", "fusion_lat": 0.0, "bike_id": "451b6e943bd9f2f96c6e9a66c0f1c258"}, {"name": "dbd8dac87b4128e46bc163b8b3e35e5e", "is_reserved": 0, "is_disabled": 0, "lon": -77.025492, "rental_uris": {"android": "https://dc.lft.to/lastmile_qr_scan", "ios": "https://dc.lft.to/lastmile_qr_scan"}, "fusion_lon": 0.0, "lat": 38.89222183333333, "type": "electric_scooter", "fusion_lat": 0.0, "bike_id": "dbd8dac87b4128e46bc163b8b3e35e5e"}, {"name": "b0eef4a4dbb2bb14bbcb72bab2aba902", "is_reserved": 0, "is_disabled": 0, "lon": -76.94630083333334, "rental_uris": {"android": "https://dc.lft.to/lastmile_qr_scan", "ios": "https://dc.lft.to/lastmile_qr_scan"}, "fusion_lon": 0.0, "lat": 38.89848683333334, "type": "electric_scooter", "fusion_lat": 0.0, "bike_id": "b0eef4a4dbb2bb14bbcb72bab2aba902"}, {"name": "d8a71a6ce84643523df1e4d1f476b963", "is_reserved": 0, "is_disabled": 0, "lon": -77.02604166666667, "rental_uris": {"android": "https://dc.lft.to/lastmile_qr_scan", "ios": "https://dc.lft.to/lastmile_qr_scan"}, "fusion_lon": 0.0, "lat": 38.914262, "type": "electric_scooter", "fusion_lat": 0.0, "bike_id": "d8a71a6ce84643523df1e4d1f476b963"}, {"name": "acf10d57b8a17547c5f4d4925939cb98", "is_reserved": 0, "is_disabled": 0, "lon": -77.035459, "rental_uris": {"android": "https://dc.lft.to/lastmile_qr_scan", "ios": "https://dc.lft.to/lastmile_qr_scan"}, "fusion_lon": 0.0, "lat": 38.917064, "type": "electric_scooter", "fusion_lat": 0.0, "bike_id": "acf10d57b8a17547c5f4d4925939cb98"}, {"name": "8e932e2fc238f99c271e26aa47b076d2", "is_reserved": 0, "is_disabled": 0, "lon": -77.0230345, "rental_uris": {"android": "https://dc.lft.to/lastmile_qr_scan", "ios": "https://dc.lft.to/lastmile_qr_scan"}, "fusion_lon": 0.0, "lat": 38.90147366666667, "type": "electric_scooter", "fusion_lat": 0.0, "bike_id": "8e932e2fc238f99c271e26aa47b076d2"}, {"name": "3dcaa8eeb81b46fc1b2908b1d64cf88f", "is_reserved": 0, "is_disabled": 0, "lon": -77.02711416666666, "rental_uris": {"android": "https://dc.lft.to/lastmile_qr_scan", "ios": "https://dc.lft.to/lastmile_qr_scan"}, "fusion_lon": 0.0, "lat": 38.906697333333334, "type": "electric_scooter", "fusion_lat": 0.0, "bike_id": "3dcaa8eeb81b46fc1b2908b1d64cf88f"}, {"name": "2dcc8120acb2962f9fad8ff39c6948b3", "is_reserved": 0, "is_disabled": 0, "lon": -76.994484, "rental_uris": {"android": "https://dc.lft.to/lastmile_qr_scan", "ios": "https://dc.lft.to/lastmile_qr_scan"}, "fusion_lon": 0.0, "lat": 38.9051095, "type": "electric_scooter", "fusion_lat": 0.0, "bike_id": "2dcc8120acb2962f9fad8ff39c6948b3"}, {"name": "6c1afbc6425dcfca74fe17ebf5575094", "is_reserved": 0, "is_disabled": 0, "lon": -76.95519383333334, "rental_uris": {"android": "https://dc.lft.to/lastmile_qr_scan", "ios": "https://dc.lft.to/lastmile_qr_scan"}, "fusion_lon": 0.0, "lat": 38.890579333333335, "type": "electric_scooter", "fusion_lat": 0.0, "bike_id": "6c1afbc6425dcfca74fe17ebf5575094"}, {"name": "bb016122be460bf80aea5cd9970663a8", "is_reserved": 0, "is_disabled": 0, "lon": -77.03195033333333, "rental_uris": {"android": "https://dc.lft.to/lastmile_qr_scan", "ios": "https://dc.lft.to/lastmile_qr_scan"}, "fusion_lon": 0.0, "lat": 38.90798183333333, "type": "electric_scooter", "fusion_lat": 0.0, "bike_id": "bb016122be460bf80aea5cd9970663a8"}, {"name": "7aa91d4c604d677c785b86fcbe950e3f", "is_reserved": 0, "is_disabled": 0, "lon": -77.0212825, "rental_uris": {"android": "https://dc.lft.to/lastmile_qr_scan", "ios": "https://dc.lft.to/lastmile_qr_scan"}, "fusion_lon": 0.0, "lat": 38.93572066666667, "type": "electric_scooter", "fusion_lat": 0.0, "bike_id": "7aa91d4c604d677c785b86fcbe950e3f"}, {"name": "73e6f7d34a2c3320431854714ad765cf", "is_reserved": 0, "is_disabled": 0, "lon": -76.92918916666666, "rental_uris": {"android": "https://dc.lft.to/lastmile_qr_scan", "ios": "https://dc.lft.to/lastmile_qr_scan"}, "fusion_lon": 0.0, "lat": 38.98029583333334, "type": "electric_bike", "fusion_lat": 0.0, "bike_id": "73e6f7d34a2c3320431854714ad765cf"}, {"name": "659b35675893042e6036d77fa8911587", "is_reserved": 0, "is_disabled": 0, "lon": -76.96925933333333, "rental_uris": {"android": "https://dc.lft.to/lastmile_qr_scan", "ios": "https://dc.lft.to/lastmile_qr_scan"}, "fusion_lon": 0.0, "lat": 38.930299833333336, "type": "electric_scooter", "fusion_lat": 0.0, "bike_id": "659b35675893042e6036d77fa8911587"}, {"name": "56fdbde206c6b3ab5c3321a00dfa6726", "is_reserved": 0, "is_disabled": 0, "lon": -77.019494, "rental_uris": {"android": "https://dc.lft.to/lastmile_qr_scan", "ios": "https://dc.lft.to/lastmile_qr_scan"}, "fusion_lon": 0.0, "lat": 38.92272783333333, "type": "electric_scooter", "fusion_lat": 0.0, "bike_id": "56fdbde206c6b3ab5c3321a00dfa6726"}, {"name": "f17dd553d1a9fc5e3ee10d300e9dcd3f", "is_reserved": 0, "is_disabled": 0, "lon": -76.92775133333333, "rental_uris": {"android": "https://dc.lft.to/lastmile_qr_scan", "ios": "https://dc.lft.to/lastmile_qr_scan"}, "fusion_lon": 0.0, "lat": 38.90275833333333, "type": "electric_scooter", "fusion_lat": 0.0, "bike_id": "f17dd553d1a9fc5e3ee10d300e9dcd3f"}, {"name": "62c72ebbeda763ede0e1c804b62bf51e", "is_reserved": 0, "is_disabled": 0, "lon": -77.03657816666667, "rental_uris": {"android": "https://dc.lft.to/lastmile_qr_scan", "ios": "https://dc.lft.to/lastmile_qr_scan"}, "fusion_lon": 0.0, "lat": 38.912760166666665, "type": "electric_scooter", "fusion_lat": 0.0, "bike_id": "62c72ebbeda763ede0e1c804b62bf51e"}, {"name": "a240200ad1b5327ace54f2ad41a75304", "is_reserved": 0, "is_disabled": 0, "lon": -76.98730616666667, "rental_uris": {"android": "https://dc.lft.to/lastmile_qr_scan", "ios": "https://dc.lft.to/lastmile_qr_scan"}, "fusion_lon": 0.0, "lat": 38.86712566666667, "type": "electric_scooter", "fusion_lat": 0.0, "bike_id": "a240200ad1b5327ace54f2ad41a75304"}, {"name": "784b3b5512e0440ad43d6155964a8d9b", "is_reserved": 0, "is_disabled": 0, "lon": -76.94987783333333, "rental_uris": {"android": "https://dc.lft.to/lastmile_qr_scan", "ios": "https://dc.lft.to/lastmile_qr_scan"}, "fusion_lon": 0.0, "lat": 38.894352, "type": "electric_scooter", "fusion_lat": 0.0, "bike_id": "784b3b5512e0440ad43d6155964a8d9b"}, {"name": "76d12c9b633f281a2a24bbbd4b812140", "is_reserved": 0, "is_disabled": 0, "lon": -77.02814233333334, "rental_uris": {"android": "https://dc.lft.to/lastmile_qr_scan", "ios": "https://dc.lft.to/lastmile_qr_scan"}, "fusion_lon": 0.0, "lat": 38.914215, "type": "electric_scooter", "fusion_lat": 0.0, "bike_id": "76d12c9b633f281a2a24bbbd4b812140"}, {"name": "8d5ee590c64539450d8c0524a7be7dd4", "is_reserved": 0, "is_disabled": 0, "lon": -77.024849, "rental_uris": {"android": "https://dc.lft.to/lastmile_qr_scan", "ios": "https://dc.lft.to/lastmile_qr_scan"}, "fusion_lon": 0.0, "lat": 38.9329145, "type": "electric_scooter", "fusion_lat": 0.0, "bike_id": "8d5ee590c64539450d8c0524a7be7dd4"}, {"name": "2af5710cf39877b8b189b8b87082939b", "is_reserved": 0, "is_disabled": 0, "lon": -77.022929, "rental_uris": {"android": "https://dc.lft.to/lastmile_qr_scan", "ios": "https://dc.lft.to/lastmile_qr_scan"}, "fusion_lon": 0.0, "lat": 38.908962333333335, "type": "electric_scooter", "fusion_lat": 0.0, "bike_id": "2af5710cf39877b8b189b8b87082939b"}, {"name": "4d9b92db07497448872be65ec121d4db", "is_reserved": 0, "is_disabled": 0, "lon": -76.996172, "rental_uris": {"android": "https://dc.lft.to/lastmile_qr_scan", "ios": "https://dc.lft.to/lastmile_qr_scan"}, "fusion_lon": 0.0, "lat": 38.903302833333335, "type": "electric_scooter", "fusion_lat": 0.0, "bike_id": "4d9b92db07497448872be65ec121d4db"}, {"name": "b09546a01ad25156d411726fc43bc2ff", "is_reserved": 0, "is_disabled": 0, "lon": -77.02970366666666, "rental_uris": {"android": "https://dc.lft.to/lastmile_qr_scan", "ios": "https://dc.lft.to/lastmile_qr_scan"}, "fusion_lon": 0.0, "lat": 38.92545766666667, "type": "electric_scooter", "fusion_lat": 0.0, "bike_id": "b09546a01ad25156d411726fc43bc2ff"}, {"name": "e5d23ea4451c8e65cf0a5cf9cf11e31d", "is_reserved": 0, "is_disabled": 0, "lon": -76.98096133333334, "rental_uris": {"android": "https://dc.lft.to/lastmile_qr_scan", "ios": "https://dc.lft.to/lastmile_qr_scan"}, "fusion_lon": 0.0, "lat": 38.8572095, "type": "electric_scooter", "fusion_lat": 0.0, "bike_id": "e5d23ea4451c8e65cf0a5cf9cf11e31d"}, {"name": "7d9fc8e1a877f17c44b6fe5a22e288d7", "is_reserved": 0, "is_disabled": 0, "lon": -76.9908365, "rental_uris": {"android": "https://dc.lft.to/lastmile_qr_scan", "ios": "https://dc.lft.to/lastmile_qr_scan"}, "fusion_lon": 0.0, "lat": 38.862374333333335, "type": "electric_scooter", "fusion_lat": 0.0, "bike_id": "7d9fc8e1a877f17c44b6fe5a22e288d7"}, {"name": "a86395f0328f0ea910525d2275f560bb", "is_reserved": 0, "is_disabled": 0, "lon": -77.0277505, "rental_uris": {"android": "https://dc.lft.to/lastmile_qr_scan", "ios": "https://dc.lft.to/lastmile_qr_scan"}, "fusion_lon": 0.0, "lat": 38.8922125, "type": "electric_scooter", "fusion_lat": 0.0, "bike_id": "a86395f0328f0ea910525d2275f560bb"}, {"name": "32a39760c99b3ce7946d5ce5ddea6877", "is_reserved": 0, "is_disabled": 0, "lon": -77.18296383333333, "rental_uris": {"android": "https://dc.lft.to/lastmile_qr_scan", "ios": "https://dc.lft.to/lastmile_qr_scan"}, "fusion_lon": 0.0, "lat": 38.88346, "type": "electric_bike", "fusion_lat": 0.0, "bike_id": "32a39760c99b3ce7946d5ce5ddea6877"}, {"name": "b1930337a5a427f83a82eb9c9a0e8a48", "is_reserved": 0, "is_disabled": 0, "lon": -77.02484283333334, "rental_uris": {"android": "https://dc.lft.to/lastmile_qr_scan", "ios": "https://dc.lft.to/lastmile_qr_scan"}, "fusion_lon": 0.0, "lat": 38.93905983333333, "type": "electric_scooter", "fusion_lat": 0.0, "bike_id": "b1930337a5a427f83a82eb9c9a0e8a48"}, {"name": "cf1d8e04e6c8081d03920920cce4c3da", "is_reserved": 0, "is_disabled": 0, "lon": -76.994818, "rental_uris": {"android": "https://dc.lft.to/lastmile_qr_scan", "ios": "https://dc.lft.to/lastmile_qr_scan"}, "fusion_lon": 0.0, "lat": 38.8623335, "type": "electric_scooter", "fusion_lat": 0.0, "bike_id": "cf1d8e04e6c8081d03920920cce4c3da"}, {"name": "a25a40c886ab2daf70923d4d8477d9bc", "is_reserved": 0, "is_disabled": 0, "lon": -77.02548983333334, "rental_uris": {"android": "https://dc.lft.to/lastmile_qr_scan", "ios": "https://dc.lft.to/lastmile_qr_scan"}, "fusion_lon": 0.0, "lat": 38.892227, "type": "electric_scooter", "fusion_lat": 0.0, "bike_id": "a25a40c886ab2daf70923d4d8477d9bc"}, {"name": "a0f075bdcec1856db60ca44f3d0a50c7", "is_reserved": 0, "is_disabled": 0, "lon": -76.93749633333333, "rental_uris": {"android": "https://dc.lft.to/lastmile_qr_scan", "ios": "https://dc.lft.to/lastmile_qr_scan"}, "fusion_lon": 0.0, "lat": 38.89017533333333, "type": "electric_scooter", "fusion_lat": 0.0, "bike_id": "a0f075bdcec1856db60ca44f3d0a50c7"}, {"name": "2ff3d651b0db668cbd478ffbeb997bda", "is_reserved": 0, "is_disabled": 0, "lon": -76.9902275, "rental_uris": {"android": "https://dc.lft.to/lastmile_qr_scan", "ios": "https://dc.lft.to/lastmile_qr_scan"}, "fusion_lon": 0.0, "lat": 38.858690833333334, "type": "electric_scooter", "fusion_lat": 0.0, "bike_id": "2ff3d651b0db668cbd478ffbeb997bda"}, {"name": "f8b2f5fc13357b28e4fd6dc96a8afbcb", "is_reserved": 0, "is_disabled": 0, "lon": -77.06163666666667, "rental_uris": {"android": "https://dc.lft.to/lastmile_qr_scan", "ios": "https://dc.lft.to/lastmile_qr_scan"}, "fusion_lon": 0.0, "lat": 38.90526783333333, "type": "electric_scooter", "fusion_lat": 0.0, "bike_id": "f8b2f5fc13357b28e4fd6dc96a8afbcb"}, {"name": "6b9e5ced91c8687d1ee434c29a755618", "is_reserved": 0, "is_disabled": 0, "lon": -77.00573966666667, "rental_uris": {"android": "https://dc.lft.to/lastmile_qr_scan", "ios": "https://dc.lft.to/lastmile_qr_scan"}, "fusion_lon": 0.0, "lat": 38.90556516666667, "type": "electric_scooter", "fusion_lat": 0.0, "bike_id": "6b9e5ced91c8687d1ee434c29a755618"}, {"name": "c09265ffd39d4fbd2346541d8b1c19f7", "is_reserved": 0, "is_disabled": 0, "lon": -77.0610675, "rental_uris": {"android": "https://dc.lft.to/lastmile_qr_scan", "ios": "https://dc.lft.to/lastmile_qr_scan"}, "fusion_lon": 0.0, "lat": 38.943209, "type": "electric_scooter", "fusion_lat": 0.0, "bike_id": "c09265ffd39d4fbd2346541d8b1c19f7"}, {"name": "ab771fea3cf0ae8dd71d164779f317dd", "is_reserved": 0, "is_disabled": 0, "lon": -77.0170395, "rental_uris": {"android": "https://dc.lft.to/lastmile_qr_scan", "ios": "https://dc.lft.to/lastmile_qr_scan"}, "fusion_lon": 0.0, "lat": 38.907272, "type": "electric_scooter", "fusion_lat": 0.0, "bike_id": "ab771fea3cf0ae8dd71d164779f317dd"}, {"name": "b03c4326e58b29242c66370bc88a3483", "is_reserved": 0, "is_disabled": 0, "lon": -77.047414, "rental_uris": {"android": "https://dc.lft.to/lastmile_qr_scan", "ios": "https://dc.lft.to/lastmile_qr_scan"}, "fusion_lon": 0.0, "lat": 38.905393333333336, "type": "electric_scooter", "fusion_lat": 0.0, "bike_id": "b03c4326e58b29242c66370bc88a3483"}, {"name": "d9c0514b5c70f244365e34190974c611", "is_reserved": 0, "is_disabled": 0, "lon": -77.02037566666667, "rental_uris": {"android": "https://dc.lft.to/lastmile_qr_scan", "ios": "https://dc.lft.to/lastmile_qr_scan"}, "fusion_lon": 0.0, "lat": 38.89274066666667, "type": "electric_scooter", "fusion_lat": 0.0, "bike_id": "d9c0514b5c70f244365e34190974c611"}, {"name": "3fea9095d1349458f5bdc92d3382d49e", "is_reserved": 0, "is_disabled": 0, "lon": -77.06535666666667, "rental_uris": {"android": "https://dc.lft.to/lastmile_qr_scan", "ios": "https://dc.lft.to/lastmile_qr_scan"}, "fusion_lon": 0.0, "lat": 38.95069766666667, "type": "electric_scooter", "fusion_lat": 0.0, "bike_id": "3fea9095d1349458f5bdc92d3382d49e"}, {"name": "0b495e9e57dd0c94864c3441cae4b166", "is_reserved": 0, "is_disabled": 0, "lon": -77.04354716666667, "rental_uris": {"android": "https://dc.lft.to/lastmile_qr_scan", "ios": "https://dc.lft.to/lastmile_qr_scan"}, "fusion_lon": 0.0, "lat": 38.904674166666666, "type": "electric_scooter", "fusion_lat": 0.0, "bike_id": "0b495e9e57dd0c94864c3441cae4b166"}, {"name": "d70096cc821f030b7a16c3665de2b2d4", "is_reserved": 0, "is_disabled": 0, "lon": -77.17805266666667, "rental_uris": {"android": "https://dc.lft.to/lastmile_qr_scan", "ios": "https://dc.lft.to/lastmile_qr_scan"}, "fusion_lon": 0.0, "lat": 39.088428666666665, "type": "electric_bike", "fusion_lat": 0.0, "bike_id": "d70096cc821f030b7a16c3665de2b2d4"}, {"name": "650d947057eae1ef0d2f900ed925008f", "is_reserved": 0, "is_disabled": 0, "lon": -77.07252966666667, "rental_uris": {"android": "https://dc.lft.to/lastmile_qr_scan", "ios": "https://dc.lft.to/lastmile_qr_scan"}, "fusion_lon": 0.0, "lat": 38.907861, "type": "electric_scooter", "fusion_lat": 0.0, "bike_id": "650d947057eae1ef0d2f900ed925008f"}, {"name": "e90255a306654403b3d5ed0da94f40a6", "is_reserved": 0, "is_disabled": 0, "lon": -76.9865585, "rental_uris": {"android": "https://dc.lft.to/lastmile_qr_scan", "ios": "https://dc.lft.to/lastmile_qr_scan"}, "fusion_lon": 0.0, "lat": 38.902732666666665, "type": "electric_scooter", "fusion_lat": 0.0, "bike_id": "e90255a306654403b3d5ed0da94f40a6"}, {"name": "8e11ec0d739624edd018a4c8ad49e1e6", "is_reserved": 0, "is_disabled": 0, "lon": -76.9876585, "rental_uris": {"android": "https://dc.lft.to/lastmile_qr_scan", "ios": "https://dc.lft.to/lastmile_qr_scan"}, "fusion_lon": 0.0, "lat": 38.84459016666667, "type": "electric_scooter", "fusion_lat": 0.0, "bike_id": "8e11ec0d739624edd018a4c8ad49e1e6"}, {"name": "8feacf47395f7cf73e1385dd66a18447", "is_reserved": 0, "is_disabled": 0, "lon": -76.98862516666667, "rental_uris": {"android": "https://dc.lft.to/lastmile_qr_scan", "ios": "https://dc.lft.to/lastmile_qr_scan"}, "fusion_lon": 0.0, "lat": 38.866809333333336, "type": "electric_scooter", "fusion_lat": 0.0, "bike_id": "8feacf47395f7cf73e1385dd66a18447"}, {"name": "b5a81fcc9aa4bb9f04a7134fee582065", "is_reserved": 0, "is_disabled": 0, "lon": -77.0487285, "rental_uris": {"android": "https://dc.lft.to/lastmile_qr_scan", "ios": "https://dc.lft.to/lastmile_qr_scan"}, "fusion_lon": 0.0, "lat": 38.89233766666667, "type": "electric_scooter", "fusion_lat": 0.0, "bike_id": "b5a81fcc9aa4bb9f04a7134fee582065"}, {"name": "d274610445c5d26fb3c3719488efd9b6", "is_reserved": 0, "is_disabled": 0, "lon": -76.99502566666666, "rental_uris": {"android": "https://dc.lft.to/lastmile_qr_scan", "ios": "https://dc.lft.to/lastmile_qr_scan"}, "fusion_lon": 0.0, "lat": 38.88582816666667, "type": "electric_scooter", "fusion_lat": 0.0, "bike_id": "d274610445c5d26fb3c3719488efd9b6"}, {"name": "2e8a7210a9b26ed0983f870a384bad38", "is_reserved": 0, "is_disabled": 0, "lon": -76.99941283333334, "rental_uris": {"android": "https://dc.lft.to/lastmile_qr_scan", "ios": "https://dc.lft.to/lastmile_qr_scan"}, "fusion_lon": 0.0, "lat": 38.84317883333333, "type": "electric_scooter", "fusion_lat": 0.0, "bike_id": "2e8a7210a9b26ed0983f870a384bad38"}, {"name": "f6deabf39386123e6baeacce22f4a302", "is_reserved": 0, "is_disabled": 0, "lon": -77.03199, "rental_uris": {"android": "https://dc.lft.to/lastmile_qr_scan", "ios": "https://dc.lft.to/lastmile_qr_scan"}, "fusion_lon": 0.0, "lat": 38.917442, "type": "electric_scooter", "fusion_lat": 0.0, "bike_id": "f6deabf39386123e6baeacce22f4a302"}, {"name": "e435fc09720dbf9c12bf2be44bc90a94", "is_reserved": 0, "is_disabled": 0, "lon": -77.0241985, "rental_uris": {"android": "https://dc.lft.to/lastmile_qr_scan", "ios": "https://dc.lft.to/lastmile_qr_scan"}, "fusion_lon": 0.0, "lat": 38.8922665, "type": "electric_scooter", "fusion_lat": 0.0, "bike_id": "e435fc09720dbf9c12bf2be44bc90a94"}, {"name": "10adc7e53a2434f94c778bd6fbc6ccba", "is_reserved": 0, "is_disabled": 0, "lon": -77.0250885, "rental_uris": {"android": "https://dc.lft.to/lastmile_qr_scan", "ios": "https://dc.lft.to/lastmile_qr_scan"}, "fusion_lon": 0.0, "lat": 38.921019, "type": "electric_scooter", "fusion_lat": 0.0, "bike_id": "10adc7e53a2434f94c778bd6fbc6ccba"}, {"name": "55eb936e970573e4f00112579592f160", "is_reserved": 0, "is_disabled": 0, "lon": -77.02613216666667, "rental_uris": {"android": "https://dc.lft.to/lastmile_qr_scan", "ios": "https://dc.lft.to/lastmile_qr_scan"}, "fusion_lon": 0.0, "lat": 38.9000405, "type": "electric_scooter", "fusion_lat": 0.0, "bike_id": "55eb936e970573e4f00112579592f160"}, {"name": "7c605a8dbacbe0ec2d866447d872bc0d", "is_reserved": 0, "is_disabled": 0, "lon": -77.03847816666666, "rental_uris": {"android": "https://dc.lft.to/lastmile_qr_scan", "ios": "https://dc.lft.to/lastmile_qr_scan"}, "fusion_lon": 0.0, "lat": 38.912119, "type": "electric_scooter", "fusion_lat": 0.0, "bike_id": "7c605a8dbacbe0ec2d866447d872bc0d"}, {"name": "5a9cded05bf209fcd650cc7b17617798", "is_reserved": 0, "is_disabled": 0, "lon": -77.02707233333334, "rental_uris": {"android": "https://dc.lft.to/lastmile_qr_scan", "ios": "https://dc.lft.to/lastmile_qr_scan"}, "fusion_lon": 0.0, "lat": 38.906715166666665, "type": "electric_scooter", "fusion_lat": 0.0, "bike_id": "5a9cded05bf209fcd650cc7b17617798"}, {"name": "4a593d6d57e469ef5c8274c81ed908f3", "is_reserved": 0, "is_disabled": 0, "lon": -77.04305816666667, "rental_uris": {"android": "https://dc.lft.to/lastmile_qr_scan", "ios": "https://dc.lft.to/lastmile_qr_scan"}, "fusion_lon": 0.0, "lat": 39.05445516666666, "type": "electric_bike", "fusion_lat": 0.0, "bike_id": "4a593d6d57e469ef5c8274c81ed908f3"}, {"name": "89caaa24964de3d1e60da14b09987ee1", "is_reserved": 0, "is_disabled": 0, "lon": -77.17848616666667, "rental_uris": {"android": "https://dc.lft.to/lastmile_qr_scan", "ios": "https://dc.lft.to/lastmile_qr_scan"}, "fusion_lon": 0.0, "lat": 39.089029833333335, "type": "electric_bike", "fusion_lat": 0.0, "bike_id": "89caaa24964de3d1e60da14b09987ee1"}, {"name": "6b46bd02e66c750b73eba62c221d128a", "is_reserved": 0, "is_disabled": 0, "lon": -76.99858783333333, "rental_uris": {"android": "https://dc.lft.to/lastmile_qr_scan", "ios": "https://dc.lft.to/lastmile_qr_scan"}, "fusion_lon": 0.0, "lat": 38.908957, "type": "electric_scooter", "fusion_lat": 0.0, "bike_id": "6b46bd02e66c750b73eba62c221d128a"}, {"name": "0a82613f34e46deb7e6ea9a077e1114b", "is_reserved": 0, "is_disabled": 0, "lon": -77.03294383333333, "rental_uris": {"android": "https://dc.lft.to/lastmile_qr_scan", "ios": "https://dc.lft.to/lastmile_qr_scan"}, "fusion_lon": 0.0, "lat": 38.909715166666665, "type": "electric_scooter", "fusion_lat": 0.0, "bike_id": "0a82613f34e46deb7e6ea9a077e1114b"}, {"name": "5a3f87a073ffe1407a38c546a421689d", "is_reserved": 0, "is_disabled": 0, "lon": -76.9866085, "rental_uris": {"android": "https://dc.lft.to/lastmile_qr_scan", "ios": "https://dc.lft.to/lastmile_qr_scan"}, "fusion_lon": 0.0, "lat": 38.90149266666667, "type": "electric_scooter", "fusion_lat": 0.0, "bike_id": "5a3f87a073ffe1407a38c546a421689d"}, {"name": "a57e6a4ec714b6004ab234d2639db14b", "is_reserved": 0, "is_disabled": 0, "lon": -77.03446166666667, "rental_uris": {"android": "https://dc.lft.to/lastmile_qr_scan", "ios": "https://dc.lft.to/lastmile_qr_scan"}, "fusion_lon": 0.0, "lat": 38.90345383333333, "type": "electric_scooter", "fusion_lat": 0.0, "bike_id": "a57e6a4ec714b6004ab234d2639db14b"}, {"name": "43bcffb5d54dd78040e462b2d3c3814f", "is_reserved": 0, "is_disabled": 0, "lon": -77.08215333333334, "rental_uris": {"android": "https://dc.lft.to/lastmile_qr_scan", "ios": "https://dc.lft.to/lastmile_qr_scan"}, "fusion_lon": 0.0, "lat": 38.9355625, "type": "electric_scooter", "fusion_lat": 0.0, "bike_id": "43bcffb5d54dd78040e462b2d3c3814f"}, {"name": "523314cfe4ffb4e1fd050917655b6377", "is_reserved": 0, "is_disabled": 0, "lon": -76.99538916666667, "rental_uris": {"android": "https://dc.lft.to/lastmile_qr_scan", "ios": "https://dc.lft.to/lastmile_qr_scan"}, "fusion_lon": 0.0, "lat": 38.85767083333333, "type": "electric_scooter", "fusion_lat": 0.0, "bike_id": "523314cfe4ffb4e1fd050917655b6377"}, {"name": "d2e66df7b1262d492dd2a5643a779f4e", "is_reserved": 0, "is_disabled": 0, "lon": -77.01700033333333, "rental_uris": {"android": "https://dc.lft.to/lastmile_qr_scan", "ios": "https://dc.lft.to/lastmile_qr_scan"}, "fusion_lon": 0.0, "lat": 38.9203875, "type": "electric_scooter", "fusion_lat": 0.0, "bike_id": "d2e66df7b1262d492dd2a5643a779f4e"}, {"name": "ed25b97df8d6c4f53fffe83d30c7d344", "is_reserved": 0, "is_disabled": 0, "lon": -76.99518016666667, "rental_uris": {"android": "https://dc.lft.to/lastmile_qr_scan", "ios": "https://dc.lft.to/lastmile_qr_scan"}, "fusion_lon": 0.0, "lat": 38.86258933333333, "type": "electric_scooter", "fusion_lat": 0.0, "bike_id": "ed25b97df8d6c4f53fffe83d30c7d344"}, {"name": "f130a4e84fb8cfae93cd1ba411cab900", "is_reserved": 0, "is_disabled": 0, "lon": -77.06403916666666, "rental_uris": {"android": "https://dc.lft.to/lastmile_qr_scan", "ios": "https://dc.lft.to/lastmile_qr_scan"}, "fusion_lon": 0.0, "lat": 38.90931583333333, "type": "electric_scooter", "fusion_lat": 0.0, "bike_id": "f130a4e84fb8cfae93cd1ba411cab900"}, {"name": "9c66928e6bef671af255b3d86a99336e", "is_reserved": 0, "is_disabled": 0, "lon": -76.983338, "rental_uris": {"android": "https://dc.lft.to/lastmile_qr_scan", "ios": "https://dc.lft.to/lastmile_qr_scan"}, "fusion_lon": 0.0, "lat": 38.88989466666666, "type": "electric_scooter", "fusion_lat": 0.0, "bike_id": "9c66928e6bef671af255b3d86a99336e"}, {"name": "f1a042ca2228cf0172ebc191abbfd76e", "is_reserved": 0, "is_disabled": 0, "lon": -77.0476935, "rental_uris": {"android": "https://dc.lft.to/lastmile_qr_scan", "ios": "https://dc.lft.to/lastmile_qr_scan"}, "fusion_lon": 0.0, "lat": 38.9176865, "type": "electric_scooter", "fusion_lat": 0.0, "bike_id": "f1a042ca2228cf0172ebc191abbfd76e"}, {"name": "a166a021559aefec1392176a59d9bbfc", "is_reserved": 0, "is_disabled": 0, "lon": -77.03411933333334, "rental_uris": {"android": "https://dc.lft.to/lastmile_qr_scan", "ios": "https://dc.lft.to/lastmile_qr_scan"}, "fusion_lon": 0.0, "lat": 38.931806, "type": "electric_scooter", "fusion_lat": 0.0, "bike_id": "a166a021559aefec1392176a59d9bbfc"}, {"name": "6c5cbb2321333c7deb4e7a96be907387", "is_reserved": 0, "is_disabled": 0, "lon": -77.02967266666667, "rental_uris": {"android": "https://dc.lft.to/lastmile_qr_scan", "ios": "https://dc.lft.to/lastmile_qr_scan"}, "fusion_lon": 0.0, "lat": 38.896282166666666, "type": "electric_scooter", "fusion_lat": 0.0, "bike_id": "6c5cbb2321333c7deb4e7a96be907387"}, {"name": "1cd7e377e64def2ba89faaca7c796652", "is_reserved": 0, "is_disabled": 0, "lon": -77.0033395, "rental_uris": {"android": "https://dc.lft.to/lastmile_qr_scan", "ios": "https://dc.lft.to/lastmile_qr_scan"}, "fusion_lon": 0.0, "lat": 38.893683333333335, "type": "electric_scooter", "fusion_lat": 0.0, "bike_id": "1cd7e377e64def2ba89faaca7c796652"}, {"name": "f448950bd7b15a244527311df83f53e0", "is_reserved": 0, "is_disabled": 0, "lon": -77.00020883333333, "rental_uris": {"android": "https://dc.lft.to/lastmile_qr_scan", "ios": "https://dc.lft.to/lastmile_qr_scan"}, "fusion_lon": 0.0, "lat": 38.90021266666667, "type": "electric_scooter", "fusion_lat": 0.0, "bike_id": "f448950bd7b15a244527311df83f53e0"}, {"name": "a948dd4f077ffc09ffc456b70e5b528b", "is_reserved": 0, "is_disabled": 0, "lon": -77.02442966666666, "rental_uris": {"android": "https://dc.lft.to/lastmile_qr_scan", "ios": "https://dc.lft.to/lastmile_qr_scan"}, "fusion_lon": 0.0, "lat": 38.920433333333335, "type": "electric_scooter", "fusion_lat": 0.0, "bike_id": "a948dd4f077ffc09ffc456b70e5b528b"}, {"name": "b2390b4100c6dd38da6b111a43c3cb2d", "is_reserved": 0, "is_disabled": 0, "lon": -77.0844235, "rental_uris": {"android": "https://dc.lft.to/lastmile_qr_scan", "ios": "https://dc.lft.to/lastmile_qr_scan"}, "fusion_lon": 0.0, "lat": 38.911762, "type": "electric_scooter", "fusion_lat": 0.0, "bike_id": "b2390b4100c6dd38da6b111a43c3cb2d"}, {"name": "5bc6a5db6a984143c21b3227418bee78", "is_reserved": 0, "is_disabled": 0, "lon": -77.04488683333334, "rental_uris": {"android": "https://dc.lft.to/lastmile_qr_scan", "ios": "https://dc.lft.to/lastmile_qr_scan"}, "fusion_lon": 0.0, "lat": 38.90377, "type": "electric_scooter", "fusion_lat": 0.0, "bike_id": "5bc6a5db6a984143c21b3227418bee78"}, {"name": "45f5577f54b5dcb6e943b389ebad8e9a", "is_reserved": 0, "is_disabled": 0, "lon": -77.03985, "rental_uris": {"android": "https://dc.lft.to/lastmile_qr_scan", "ios": "https://dc.lft.to/lastmile_qr_scan"}, "fusion_lon": 0.0, "lat": 38.902662, "type": "electric_scooter", "fusion_lat": 0.0, "bike_id": "45f5577f54b5dcb6e943b389ebad8e9a"}, {"name": "ab69b2127c3087c731a2b5963ca610cc", "is_reserved": 0, "is_disabled": 0, "lon": -77.03520283333333, "rental_uris": {"android": "https://dc.lft.to/lastmile_qr_scan", "ios": "https://dc.lft.to/lastmile_qr_scan"}, "fusion_lon": 0.0, "lat": 38.93278683333333, "type": "electric_scooter", "fusion_lat": 0.0, "bike_id": "ab69b2127c3087c731a2b5963ca610cc"}, {"name": "a2fccbb4cf08d26afb2f02f1ede19c1a", "is_reserved": 0, "is_disabled": 0, "lon": -77.03801066666666, "rental_uris": {"android": "https://dc.lft.to/lastmile_qr_scan", "ios": "https://dc.lft.to/lastmile_qr_scan"}, "fusion_lon": 0.0, "lat": 38.910383, "type": "electric_scooter", "fusion_lat": 0.0, "bike_id": "a2fccbb4cf08d26afb2f02f1ede19c1a"}, {"name": "0d46a3c173ac4840b48b0dad4cfc9c1e", "is_reserved": 0, "is_disabled": 0, "lon": -76.9949885, "rental_uris": {"android": "https://dc.lft.to/lastmile_qr_scan", "ios": "https://dc.lft.to/lastmile_qr_scan"}, "fusion_lon": 0.0, "lat": 38.862236, "type": "electric_scooter", "fusion_lat": 0.0, "bike_id": "0d46a3c173ac4840b48b0dad4cfc9c1e"}, {"name": "e874e34fe6b4242855f35eaa01481318", "is_reserved": 0, "is_disabled": 0, "lon": -77.03348966666667, "rental_uris": {"android": "https://dc.lft.to/lastmile_qr_scan", "ios": "https://dc.lft.to/lastmile_qr_scan"}, "fusion_lon": 0.0, "lat": 38.89838483333333, "type": "electric_scooter", "fusion_lat": 0.0, "bike_id": "e874e34fe6b4242855f35eaa01481318"}, {"name": "fd287aca90280943310448afbda0f284", "is_reserved": 0, "is_disabled": 0, "lon": -77.0199405, "rental_uris": {"android": "https://dc.lft.to/lastmile_qr_scan", "ios": "https://dc.lft.to/lastmile_qr_scan"}, "fusion_lon": 0.0, "lat": 38.902299, "type": "electric_scooter", "fusion_lat": 0.0, "bike_id": "fd287aca90280943310448afbda0f284"}, {"name": "212388737501b5e87a641f08b8bc06bf", "is_reserved": 0, "is_disabled": 0, "lon": -77.00235933333333, "rental_uris": {"android": "https://dc.lft.to/lastmile_qr_scan", "ios": "https://dc.lft.to/lastmile_qr_scan"}, "fusion_lon": 0.0, "lat": 38.90020033333333, "type": "electric_scooter", "fusion_lat": 0.0, "bike_id": "212388737501b5e87a641f08b8bc06bf"}, {"name": "eba1fe2030c90259f590358d16fbb005", "is_reserved": 0, "is_disabled": 0, "lon": -77.10125916666667, "rental_uris": {"android": "https://dc.lft.to/lastmile_qr_scan", "ios": "https://dc.lft.to/lastmile_qr_scan"}, "fusion_lon": 0.0, "lat": 38.85208133333333, "type": "electric_bike", "fusion_lat": 0.0, "bike_id": "eba1fe2030c90259f590358d16fbb005"}, {"name": "f84de591c3651ce0422b1a8ec84f7349", "is_reserved": 0, "is_disabled": 0, "lon": -77.02377166666666, "rental_uris": {"android": "https://dc.lft.to/lastmile_qr_scan", "ios": "https://dc.lft.to/lastmile_qr_scan"}, "fusion_lon": 0.0, "lat": 38.933591166666666, "type": "electric_scooter", "fusion_lat": 0.0, "bike_id": "f84de591c3651ce0422b1a8ec84f7349"}, {"name": "0462c14a45519422859949cff15f86ba", "is_reserved": 0, "is_disabled": 0, "lon": -77.02973166666666, "rental_uris": {"android": "https://dc.lft.to/lastmile_qr_scan", "ios": "https://dc.lft.to/lastmile_qr_scan"}, "fusion_lon": 0.0, "lat": 38.916843666666665, "type": "electric_scooter", "fusion_lat": 0.0, "bike_id": "0462c14a45519422859949cff15f86ba"}, {"name": "5df4783bbcb08a538d68cb9ea624302c", "is_reserved": 0, "is_disabled": 0, "lon": -77.03896033333334, "rental_uris": {"android": "https://dc.lft.to/lastmile_qr_scan", "ios": "https://dc.lft.to/lastmile_qr_scan"}, "fusion_lon": 0.0, "lat": 38.90477083333333, "type": "electric_scooter", "fusion_lat": 0.0, "bike_id": "5df4783bbcb08a538d68cb9ea624302c"}, {"name": "1721a8d2320b3193311e395d80df58d9", "is_reserved": 0, "is_disabled": 0, "lon": -77.04408366666667, "rental_uris": {"android": "https://dc.lft.to/lastmile_qr_scan", "ios": "https://dc.lft.to/lastmile_qr_scan"}, "fusion_lon": 0.0, "lat": 38.8939575, "type": "electric_scooter", "fusion_lat": 0.0, "bike_id": "1721a8d2320b3193311e395d80df58d9"}, {"name": "e35d9a9cb16baee3d76647f9c0c79c6c", "is_reserved": 0, "is_disabled": 0, "lon": -77.02371933333333, "rental_uris": {"android": "https://dc.lft.to/lastmile_qr_scan", "ios": "https://dc.lft.to/lastmile_qr_scan"}, "fusion_lon": 0.0, "lat": 38.9206175, "type": "electric_scooter", "fusion_lat": 0.0, "bike_id": "e35d9a9cb16baee3d76647f9c0c79c6c"}, {"name": "1ef4fe882759c7d0daad53fcafc8a3df", "is_reserved": 0, "is_disabled": 0, "lon": -77.032858, "rental_uris": {"android": "https://dc.lft.to/lastmile_qr_scan", "ios": "https://dc.lft.to/lastmile_qr_scan"}, "fusion_lon": 0.0, "lat": 38.93441966666666, "type": "electric_scooter", "fusion_lat": 0.0, "bike_id": "1ef4fe882759c7d0daad53fcafc8a3df"}, {"name": "a406d3708640ff0bd4e2475b2f3356db", "is_reserved": 0, "is_disabled": 0, "lon": -77.03184233333333, "rental_uris": {"android": "https://dc.lft.to/lastmile_qr_scan", "ios": "https://dc.lft.to/lastmile_qr_scan"}, "fusion_lon": 0.0, "lat": 38.909519333333336, "type": "electric_scooter", "fusion_lat": 0.0, "bike_id": "a406d3708640ff0bd4e2475b2f3356db"}, {"name": "68e69afc0e5a35e25e8f5e28bb174969", "is_reserved": 0, "is_disabled": 0, "lon": -76.9719435, "rental_uris": {"android": "https://dc.lft.to/lastmile_qr_scan", "ios": "https://dc.lft.to/lastmile_qr_scan"}, "fusion_lon": 0.0, "lat": 38.8925035, "type": "electric_bike", "fusion_lat": 0.0, "bike_id": "68e69afc0e5a35e25e8f5e28bb174969"}, {"name": "23d69002c320c2b9f6fea0086b0c299e", "is_reserved": 0, "is_disabled": 0, "lon": -76.9868585, "rental_uris": {"android": "https://dc.lft.to/lastmile_qr_scan", "ios": "https://dc.lft.to/lastmile_qr_scan"}, "fusion_lon": 0.0, "lat": 38.885329666666664, "type": "electric_scooter", "fusion_lat": 0.0, "bike_id": "23d69002c320c2b9f6fea0086b0c299e"}, {"name": "8f72e7ecf140cf4f022f738e823deda0", "is_reserved": 0, "is_disabled": 0, "lon": -77.020606, "rental_uris": {"android": "https://dc.lft.to/lastmile_qr_scan", "ios": "https://dc.lft.to/lastmile_qr_scan"}, "fusion_lon": 0.0, "lat": 38.903987666666666, "type": "electric_scooter", "fusion_lat": 0.0, "bike_id": "8f72e7ecf140cf4f022f738e823deda0"}, {"name": "dd5c645227eda86d4276a49b12b6a1d4", "is_reserved": 0, "is_disabled": 0, "lon": -77.0388675, "rental_uris": {"android": "https://dc.lft.to/lastmile_qr_scan", "ios": "https://dc.lft.to/lastmile_qr_scan"}, "fusion_lon": 0.0, "lat": 38.9336585, "type": "electric_scooter", "fusion_lat": 0.0, "bike_id": "dd5c645227eda86d4276a49b12b6a1d4"}, {"name": "53544ef9f4fb772078928a10d0311be2", "is_reserved": 0, "is_disabled": 0, "lon": -77.01368016666666, "rental_uris": {"android": "https://dc.lft.to/lastmile_qr_scan", "ios": "https://dc.lft.to/lastmile_qr_scan"}, "fusion_lon": 0.0, "lat": 38.89231266666667, "type": "electric_scooter", "fusion_lat": 0.0, "bike_id": "53544ef9f4fb772078928a10d0311be2"}, {"name": "b85933cb4cb8df149490a5ed9fcf444b", "is_reserved": 0, "is_disabled": 0, "lon": -77.04346683333333, "rental_uris": {"android": "https://dc.lft.to/lastmile_qr_scan", "ios": "https://dc.lft.to/lastmile_qr_scan"}, "fusion_lon": 0.0, "lat": 38.91064033333333, "type": "electric_scooter", "fusion_lat": 0.0, "bike_id": "b85933cb4cb8df149490a5ed9fcf444b"}, {"name": "611288e7df7d53f2af6c549f167b85e8", "is_reserved": 0, "is_disabled": 0, "lon": -77.00565716666667, "rental_uris": {"android": "https://dc.lft.to/lastmile_qr_scan", "ios": "https://dc.lft.to/lastmile_qr_scan"}, "fusion_lon": 0.0, "lat": 38.885019, "type": "electric_scooter", "fusion_lat": 0.0, "bike_id": "611288e7df7d53f2af6c549f167b85e8"}, {"name": "f223f34d274e49d2ace73d74d9b343cd", "is_reserved": 0, "is_disabled": 0, "lon": -77.06173283333334, "rental_uris": {"android": "https://dc.lft.to/lastmile_qr_scan", "ios": "https://dc.lft.to/lastmile_qr_scan"}, "fusion_lon": 0.0, "lat": 38.905219333333335, "type": "electric_scooter", "fusion_lat": 0.0, "bike_id": "f223f34d274e49d2ace73d74d9b343cd"}, {"name": "aa1d9b3e7cf80dee6add2032da999166", "is_reserved": 0, "is_disabled": 0, "lon": -77.02931666666667, "rental_uris": {"android": "https://dc.lft.to/lastmile_qr_scan", "ios": "https://dc.lft.to/lastmile_qr_scan"}, "fusion_lon": 0.0, "lat": 38.89546566666667, "type": "electric_scooter", "fusion_lat": 0.0, "bike_id": "aa1d9b3e7cf80dee6add2032da999166"}, {"name": "548d1a8cb74e0304244b8a26ff0b301b", "is_reserved": 0, "is_disabled": 0, "lon": -77.04473183333333, "rental_uris": {"android": "https://dc.lft.to/lastmile_qr_scan", "ios": "https://dc.lft.to/lastmile_qr_scan"}, "fusion_lon": 0.0, "lat": 38.9055695, "type": "electric_scooter", "fusion_lat": 0.0, "bike_id": "548d1a8cb74e0304244b8a26ff0b301b"}, {"name": "b38fdaffcabf1d546d1c5d985275e5e4", "is_reserved": 0, "is_disabled": 0, "lon": -77.024794, "rental_uris": {"android": "https://dc.lft.to/lastmile_qr_scan", "ios": "https://dc.lft.to/lastmile_qr_scan"}, "fusion_lon": 0.0, "lat": 38.93883783333333, "type": "electric_scooter", "fusion_lat": 0.0, "bike_id": "b38fdaffcabf1d546d1c5d985275e5e4"}, {"name": "a707ec343faf0d88d02d424fb8a2bbea", "is_reserved": 0, "is_disabled": 0, "lon": -77.041772, "rental_uris": {"android": "https://dc.lft.to/lastmile_qr_scan", "ios": "https://dc.lft.to/lastmile_qr_scan"}, "fusion_lon": 0.0, "lat": 38.91271166666667, "type": "electric_scooter", "fusion_lat": 0.0, "bike_id": "a707ec343faf0d88d02d424fb8a2bbea"}, {"name": "0b40dd375d7868219b9eb4203970e222", "is_reserved": 0, "is_disabled": 0, "lon": -77.0238305, "rental_uris": {"android": "https://dc.lft.to/lastmile_qr_scan", "ios": "https://dc.lft.to/lastmile_qr_scan"}, "fusion_lon": 0.0, "lat": 38.89234283333333, "type": "electric_scooter", "fusion_lat": 0.0, "bike_id": "0b40dd375d7868219b9eb4203970e222"}, {"name": "c0cfdd4bddb56831f7cba65081a8030a", "is_reserved": 0, "is_disabled": 0, "lon": -77.03615133333334, "rental_uris": {"android": "https://dc.lft.to/lastmile_qr_scan", "ios": "https://dc.lft.to/lastmile_qr_scan"}, "fusion_lon": 0.0, "lat": 38.91691133333333, "type": "electric_scooter", "fusion_lat": 0.0, "bike_id": "c0cfdd4bddb56831f7cba65081a8030a"}, {"name": "e5d8f1f9157cd99f820b6a7d748fcada", "is_reserved": 0, "is_disabled": 0, "lon": -77.04519166666667, "rental_uris": {"android": "https://dc.lft.to/lastmile_qr_scan", "ios": "https://dc.lft.to/lastmile_qr_scan"}, "fusion_lon": 0.0, "lat": 38.9069835, "type": "electric_scooter", "fusion_lat": 0.0, "bike_id": "e5d8f1f9157cd99f820b6a7d748fcada"}, {"name": "0e4788ca2657ad5510f82f7699aa150d", "is_reserved": 0, "is_disabled": 0, "lon": -77.0419235, "rental_uris": {"android": "https://dc.lft.to/lastmile_qr_scan", "ios": "https://dc.lft.to/lastmile_qr_scan"}, "fusion_lon": 0.0, "lat": 38.9230445, "type": "electric_scooter", "fusion_lat": 0.0, "bike_id": "0e4788ca2657ad5510f82f7699aa150d"}, {"name": "6a936dae7f8d4c3bc34094e3b638dab2", "is_reserved": 0, "is_disabled": 0, "lon": -77.02500633333334, "rental_uris": {"android": "https://dc.lft.to/lastmile_qr_scan", "ios": "https://dc.lft.to/lastmile_qr_scan"}, "fusion_lon": 0.0, "lat": 38.904065833333334, "type": "electric_scooter", "fusion_lat": 0.0, "bike_id": "6a936dae7f8d4c3bc34094e3b638dab2"}, {"name": "fe00dd6f70f5bb0335be32bf3b932859", "is_reserved": 0, "is_disabled": 0, "lon": -77.00744983333334, "rental_uris": {"android": "https://dc.lft.to/lastmile_qr_scan", "ios": "https://dc.lft.to/lastmile_qr_scan"}, "fusion_lon": 0.0, "lat": 38.89792033333333, "type": "electric_scooter", "fusion_lat": 0.0, "bike_id": "fe00dd6f70f5bb0335be32bf3b932859"}, {"name": "550fd01444c59c8308ae9701384a868b", "is_reserved": 0, "is_disabled": 0, "lon": -77.01759233333334, "rental_uris": {"android": "https://dc.lft.to/lastmile_qr_scan", "ios": "https://dc.lft.to/lastmile_qr_scan"}, "fusion_lon": 0.0, "lat": 38.92108533333333, "type": "electric_scooter", "fusion_lat": 0.0, "bike_id": "550fd01444c59c8308ae9701384a868b"}, {"name": "08ed4c7d9e1188bcaff441739b99b2d5", "is_reserved": 0, "is_disabled": 0, "lon": -77.1622745, "rental_uris": {"android": "https://dc.lft.to/lastmile_qr_scan", "ios": "https://dc.lft.to/lastmile_qr_scan"}, "fusion_lon": 0.0, "lat": 38.886600666666666, "type": "electric_bike", "fusion_lat": 0.0, "bike_id": "08ed4c7d9e1188bcaff441739b99b2d5"}, {"name": "a2af18d36e6ecaf7a83e8c0ab3757cea", "is_reserved": 0, "is_disabled": 0, "lon": -76.98924933333333, "rental_uris": {"android": "https://dc.lft.to/lastmile_qr_scan", "ios": "https://dc.lft.to/lastmile_qr_scan"}, "fusion_lon": 0.0, "lat": 38.8820375, "type": "electric_scooter", "fusion_lat": 0.0, "bike_id": "a2af18d36e6ecaf7a83e8c0ab3757cea"}, {"name": "53884fb84e9e34276fec31a1a724d08f", "is_reserved": 0, "is_disabled": 0, "lon": -77.01058416666666, "rental_uris": {"android": "https://dc.lft.to/lastmile_qr_scan", "ios": "https://dc.lft.to/lastmile_qr_scan"}, "fusion_lon": 0.0, "lat": 38.87245816666667, "type": "electric_scooter", "fusion_lat": 0.0, "bike_id": "53884fb84e9e34276fec31a1a724d08f"}, {"name": "c60c9c9f26201fa777622a6f12fc9fb5", "is_reserved": 0, "is_disabled": 0, "lon": -77.0157515, "rental_uris": {"android": "https://dc.lft.to/lastmile_qr_scan", "ios": "https://dc.lft.to/lastmile_qr_scan"}, "fusion_lon": 0.0, "lat": 38.92847283333333, "type": "electric_scooter", "fusion_lat": 0.0, "bike_id": "c60c9c9f26201fa777622a6f12fc9fb5"}, {"name": "8cd2b9351eb0ceab5fef5aed794c312f", "is_reserved": 0, "is_disabled": 0, "lon": -77.02691566666667, "rental_uris": {"android": "https://dc.lft.to/lastmile_qr_scan", "ios": "https://dc.lft.to/lastmile_qr_scan"}, "fusion_lon": 0.0, "lat": 38.9068445, "type": "electric_scooter", "fusion_lat": 0.0, "bike_id": "8cd2b9351eb0ceab5fef5aed794c312f"}, {"name": "790a028a0711f1ff0a593055538eebfb", "is_reserved": 0, "is_disabled": 0, "lon": -76.98522383333334, "rental_uris": {"android": "https://dc.lft.to/lastmile_qr_scan", "ios": "https://dc.lft.to/lastmile_qr_scan"}, "fusion_lon": 0.0, "lat": 38.920008, "type": "electric_bike", "fusion_lat": 0.0, "bike_id": "790a028a0711f1ff0a593055538eebfb"}, {"name": "9367c708afbfc33a68d8d1d3d3080f27", "is_reserved": 0, "is_disabled": 0, "lon": -76.9486695, "rental_uris": {"android": "https://dc.lft.to/lastmile_qr_scan", "ios": "https://dc.lft.to/lastmile_qr_scan"}, "fusion_lon": 0.0, "lat": 38.889691666666664, "type": "electric_bike", "fusion_lat": 0.0, "bike_id": "9367c708afbfc33a68d8d1d3d3080f27"}, {"name": "c0619795d45a5cb1b6de85ab53c22921", "is_reserved": 0, "is_disabled": 0, "lon": -76.94216416666667, "rental_uris": {"android": "https://dc.lft.to/lastmile_qr_scan", "ios": "https://dc.lft.to/lastmile_qr_scan"}, "fusion_lon": 0.0, "lat": 38.89685733333334, "type": "electric_scooter", "fusion_lat": 0.0, "bike_id": "c0619795d45a5cb1b6de85ab53c22921"}, {"name": "bcb9a9a1c9ecc18436c216b0cbdecd7a", "is_reserved": 0, "is_disabled": 0, "lon": -76.87773316666667, "rental_uris": {"android": "https://dc.lft.to/lastmile_qr_scan", "ios": "https://dc.lft.to/lastmile_qr_scan"}, "fusion_lon": 0.0, "lat": 38.9922955, "type": "electric_bike", "fusion_lat": 0.0, "bike_id": "bcb9a9a1c9ecc18436c216b0cbdecd7a"}, {"name": "ca49cf8f888028a107e88df9038bf7e6", "is_reserved": 0, "is_disabled": 0, "lon": -77.107136, "rental_uris": {"android": "https://dc.lft.to/lastmile_qr_scan", "ios": "https://dc.lft.to/lastmile_qr_scan"}, "fusion_lon": 0.0, "lat": 38.85525233333333, "type": "electric_bike", "fusion_lat": 0.0, "bike_id": "ca49cf8f888028a107e88df9038bf7e6"}, {"name": "c8f7439f84990b367de42ea0a49375fd", "is_reserved": 0, "is_disabled": 0, "lon": -77.02376266666667, "rental_uris": {"android": "https://dc.lft.to/lastmile_qr_scan", "ios": "https://dc.lft.to/lastmile_qr_scan"}, "fusion_lon": 0.0, "lat": 38.904375333333334, "type": "electric_scooter", "fusion_lat": 0.0, "bike_id": "c8f7439f84990b367de42ea0a49375fd"}, {"name": "0c1c5434df595e0ccade41c0f413da39", "is_reserved": 0, "is_disabled": 0, "lon": -76.963873, "rental_uris": {"android": "https://dc.lft.to/lastmile_qr_scan", "ios": "https://dc.lft.to/lastmile_qr_scan"}, "fusion_lon": 0.0, "lat": 38.97581016666667, "type": "electric_bike", "fusion_lat": 0.0, "bike_id": "0c1c5434df595e0ccade41c0f413da39"}, {"name": "4411592e1558f30549a2023fe9b26c0f", "is_reserved": 0, "is_disabled": 0, "lon": -77.03278483333334, "rental_uris": {"android": "https://dc.lft.to/lastmile_qr_scan", "ios": "https://dc.lft.to/lastmile_qr_scan"}, "fusion_lon": 0.0, "lat": 38.89886166666667, "type": "electric_scooter", "fusion_lat": 0.0, "bike_id": "4411592e1558f30549a2023fe9b26c0f"}, {"name": "345072703077979b313d5b9ac9bc4617", "is_reserved": 0, "is_disabled": 0, "lon": -77.03303066666666, "rental_uris": {"android": "https://dc.lft.to/lastmile_qr_scan", "ios": "https://dc.lft.to/lastmile_qr_scan"}, "fusion_lon": 0.0, "lat": 38.896458, "type": "electric_scooter", "fusion_lat": 0.0, "bike_id": "345072703077979b313d5b9ac9bc4617"}, {"name": "c4c5a1be126b6c0ecae10e2f86caa281", "is_reserved": 0, "is_disabled": 0, "lon": -77.04165816666666, "rental_uris": {"android": "https://dc.lft.to/lastmile_qr_scan", "ios": "https://dc.lft.to/lastmile_qr_scan"}, "fusion_lon": 0.0, "lat": 38.914614, "type": "electric_scooter", "fusion_lat": 0.0, "bike_id": "c4c5a1be126b6c0ecae10e2f86caa281"}, {"name": "bf8046d9a5e5c76d01c58b5b13a14d47", "is_reserved": 0, "is_disabled": 0, "lon": -76.98364, "rental_uris": {"android": "https://dc.lft.to/lastmile_qr_scan", "ios": "https://dc.lft.to/lastmile_qr_scan"}, "fusion_lon": 0.0, "lat": 38.9148205, "type": "electric_scooter", "fusion_lat": 0.0, "bike_id": "bf8046d9a5e5c76d01c58b5b13a14d47"}, {"name": "ffc66db4b8318a36afe398fe536d95a1", "is_reserved": 0, "is_disabled": 0, "lon": -77.19547683333333, "rental_uris": {"android": "https://dc.lft.to/lastmile_qr_scan", "ios": "https://dc.lft.to/lastmile_qr_scan"}, "fusion_lon": 0.0, "lat": 39.115079333333334, "type": "electric_bike", "fusion_lat": 0.0, "bike_id": "ffc66db4b8318a36afe398fe536d95a1"}, {"name": "e385dda679c3a83cceaedbd7c95bf644", "is_reserved": 0, "is_disabled": 0, "lon": -77.04986333333333, "rental_uris": {"android": "https://dc.lft.to/lastmile_qr_scan", "ios": "https://dc.lft.to/lastmile_qr_scan"}, "fusion_lon": 0.0, "lat": 38.992435, "type": "electric_bike", "fusion_lat": 0.0, "bike_id": "e385dda679c3a83cceaedbd7c95bf644"}, {"name": "b54fca4e220c35f0c4fe5587ec41291d", "is_reserved": 0, "is_disabled": 0, "lon": -77.01581216666666, "rental_uris": {"android": "https://dc.lft.to/lastmile_qr_scan", "ios": "https://dc.lft.to/lastmile_qr_scan"}, "fusion_lon": 0.0, "lat": 38.953239833333335, "type": "electric_bike", "fusion_lat": 0.0, "bike_id": "b54fca4e220c35f0c4fe5587ec41291d"}, {"name": "2258b3b6d3ab6fa92fbcfa8018980fa6", "is_reserved": 0, "is_disabled": 0, "lon": -77.00920683333334, "rental_uris": {"android": "https://dc.lft.to/lastmile_qr_scan", "ios": "https://dc.lft.to/lastmile_qr_scan"}, "fusion_lon": 0.0, "lat": 38.87637383333333, "type": "electric_scooter", "fusion_lat": 0.0, "bike_id": "2258b3b6d3ab6fa92fbcfa8018980fa6"}, {"name": "82b115e8f5fa1f22aac6c475aa99322d", "is_reserved": 0, "is_disabled": 0, "lon": -76.98337183333334, "rental_uris": {"android": "https://dc.lft.to/lastmile_qr_scan", "ios": "https://dc.lft.to/lastmile_qr_scan"}, "fusion_lon": 0.0, "lat": 38.895476333333335, "type": "electric_scooter", "fusion_lat": 0.0, "bike_id": "82b115e8f5fa1f22aac6c475aa99322d"}, {"name": "4976ba83fc203132161217d6ab6ae204", "is_reserved": 0, "is_disabled": 0, "lon": -77.07255483333333, "rental_uris": {"android": "https://dc.lft.to/lastmile_qr_scan", "ios": "https://dc.lft.to/lastmile_qr_scan"}, "fusion_lon": 0.0, "lat": 38.934393666666665, "type": "electric_scooter", "fusion_lat": 0.0, "bike_id": "4976ba83fc203132161217d6ab6ae204"}, {"name": "66ab1275348c4a2b1cee91b27ec029dd", "is_reserved": 0, "is_disabled": 0, "lon": -76.96700216666666, "rental_uris": {"android": "https://dc.lft.to/lastmile_qr_scan", "ios": "https://dc.lft.to/lastmile_qr_scan"}, "fusion_lon": 0.0, "lat": 38.86863, "type": "electric_bike", "fusion_lat": 0.0, "bike_id": "66ab1275348c4a2b1cee91b27ec029dd"}, {"name": "8d93cb7f650e4a70630475b6d93a6183", "is_reserved": 0, "is_disabled": 0, "lon": -77.04681166666667, "rental_uris": {"android": "https://dc.lft.to/lastmile_qr_scan", "ios": "https://dc.lft.to/lastmile_qr_scan"}, "fusion_lon": 0.0, "lat": 38.915622666666664, "type": "electric_scooter", "fusion_lat": 0.0, "bike_id": "8d93cb7f650e4a70630475b6d93a6183"}, {"name": "45415d2ceef0a19dab5a054fe58a2d25", "is_reserved": 0, "is_disabled": 0, "lon": -76.95537916666666, "rental_uris": {"android": "https://dc.lft.to/lastmile_qr_scan", "ios": "https://dc.lft.to/lastmile_qr_scan"}, "fusion_lon": 0.0, "lat": 38.8876545, "type": "electric_scooter", "fusion_lat": 0.0, "bike_id": "45415d2ceef0a19dab5a054fe58a2d25"}, {"name": "fdccec9e0728d1667647a858b8ade035", "is_reserved": 0, "is_disabled": 0, "lon": -77.03039083333333, "rental_uris": {"android": "https://dc.lft.to/lastmile_qr_scan", "ios": "https://dc.lft.to/lastmile_qr_scan"}, "fusion_lon": 0.0, "lat": 38.922481, "type": "electric_scooter", "fusion_lat": 0.0, "bike_id": "fdccec9e0728d1667647a858b8ade035"}, {"name": "093be29acab411f6a5cef95a4be8450b", "is_reserved": 0, "is_disabled": 0, "lon": -77.0247835, "rental_uris": {"android": "https://dc.lft.to/lastmile_qr_scan", "ios": "https://dc.lft.to/lastmile_qr_scan"}, "fusion_lon": 0.0, "lat": 38.938818166666664, "type": "electric_scooter", "fusion_lat": 0.0, "bike_id": "093be29acab411f6a5cef95a4be8450b"}, {"name": "c293a9b22f7c049d8c09474577546be2", "is_reserved": 0, "is_disabled": 0, "lon": -77.02711283333333, "rental_uris": {"android": "https://dc.lft.to/lastmile_qr_scan", "ios": "https://dc.lft.to/lastmile_qr_scan"}, "fusion_lon": 0.0, "lat": 38.907535, "type": "electric_scooter", "fusion_lat": 0.0, "bike_id": "c293a9b22f7c049d8c09474577546be2"}, {"name": "3154d85f0775d3e36c78ee37c2c643c6", "is_reserved": 0, "is_disabled": 0, "lon": -76.908162, "rental_uris": {"android": "https://dc.lft.to/lastmile_qr_scan", "ios": "https://dc.lft.to/lastmile_qr_scan"}, "fusion_lon": 0.0, "lat": 38.99454266666667, "type": "electric_bike", "fusion_lat": 0.0, "bike_id": "3154d85f0775d3e36c78ee37c2c643c6"}, {"name": "23397d3f4b5e11d4ab12bb5cfc0f840f", "is_reserved": 0, "is_disabled": 0, "lon": -77.0624045, "rental_uris": {"android": "https://dc.lft.to/lastmile_qr_scan", "ios": "https://dc.lft.to/lastmile_qr_scan"}, "fusion_lon": 0.0, "lat": 38.90528416666667, "type": "electric_scooter", "fusion_lat": 0.0, "bike_id": "23397d3f4b5e11d4ab12bb5cfc0f840f"}, {"name": "96a203ec9ed3a0e2c9622023543ea6b9", "is_reserved": 0, "is_disabled": 0, "lon": -76.97892466666667, "rental_uris": {"android": "https://dc.lft.to/lastmile_qr_scan", "ios": "https://dc.lft.to/lastmile_qr_scan"}, "fusion_lon": 0.0, "lat": 38.85494333333333, "type": "electric_bike", "fusion_lat": 0.0, "bike_id": "96a203ec9ed3a0e2c9622023543ea6b9"}, {"name": "50d32833cdc57718cbeb4752689d87be", "is_reserved": 0, "is_disabled": 0, "lon": -77.03623283333333, "rental_uris": {"android": "https://dc.lft.to/lastmile_qr_scan", "ios": "https://dc.lft.to/lastmile_qr_scan"}, "fusion_lon": 0.0, "lat": 38.95288016666667, "type": "electric_scooter", "fusion_lat": 0.0, "bike_id": "50d32833cdc57718cbeb4752689d87be"}, {"name": "397cd6719950067fd1c1338f0552cc05", "is_reserved": 0, "is_disabled": 0, "lon": -77.10172766666666, "rental_uris": {"android": "https://dc.lft.to/lastmile_qr_scan", "ios": "https://dc.lft.to/lastmile_qr_scan"}, "fusion_lon": 0.0, "lat": 38.925483, "type": "electric_scooter", "fusion_lat": 0.0, "bike_id": "397cd6719950067fd1c1338f0552cc05"}, {"name": "e0038429ae683909c5efc2aead08b58e", "is_reserved": 0, "is_disabled": 0, "lon": -76.99460233333333, "rental_uris": {"android": "https://dc.lft.to/lastmile_qr_scan", "ios": "https://dc.lft.to/lastmile_qr_scan"}, "fusion_lon": 0.0, "lat": 38.862257666666665, "type": "electric_scooter", "fusion_lat": 0.0, "bike_id": "e0038429ae683909c5efc2aead08b58e"}, {"name": "4e4f95c2ee17432bf8d50dbc4b20ff6f", "is_reserved": 0, "is_disabled": 0, "lon": -76.98717966666666, "rental_uris": {"android": "https://dc.lft.to/lastmile_qr_scan", "ios": "https://dc.lft.to/lastmile_qr_scan"}, "fusion_lon": 0.0, "lat": 38.89927016666667, "type": "electric_scooter", "fusion_lat": 0.0, "bike_id": "4e4f95c2ee17432bf8d50dbc4b20ff6f"}, {"name": "5ca31b531fd12a630dbdd374e02c9a2c", "is_reserved": 0, "is_disabled": 0, "lon": -77.03294916666667, "rental_uris": {"android": "https://dc.lft.to/lastmile_qr_scan", "ios": "https://dc.lft.to/lastmile_qr_scan"}, "fusion_lon": 0.0, "lat": 38.95645233333333, "type": "electric_scooter", "fusion_lat": 0.0, "bike_id": "5ca31b531fd12a630dbdd374e02c9a2c"}, {"name": "3741a609373069c3a583f9a7fb188ce6", "is_reserved": 0, "is_disabled": 0, "lon": -77.19907933333333, "rental_uris": {"android": "https://dc.lft.to/lastmile_qr_scan", "ios": "https://dc.lft.to/lastmile_qr_scan"}, "fusion_lon": 0.0, "lat": 38.87533083333334, "type": "electric_bike", "fusion_lat": 0.0, "bike_id": "3741a609373069c3a583f9a7fb188ce6"}, {"name": "5f93bc1156c22d0881c21b5be84d5a49", "is_reserved": 0, "is_disabled": 0, "lon": -77.14986966666666, "rental_uris": {"android": "https://dc.lft.to/lastmile_qr_scan", "ios": "https://dc.lft.to/lastmile_qr_scan"}, "fusion_lon": 0.0, "lat": 39.09467316666667, "type": "electric_bike", "fusion_lat": 0.0, "bike_id": "5f93bc1156c22d0881c21b5be84d5a49"}, {"name": "07370be684e0cf58c2b23e8bea481676", "is_reserved": 0, "is_disabled": 0, "lon": -77.04091883333334, "rental_uris": {"android": "https://dc.lft.to/lastmile_qr_scan", "ios": "https://dc.lft.to/lastmile_qr_scan"}, "fusion_lon": 0.0, "lat": 38.9240105, "type": "electric_scooter", "fusion_lat": 0.0, "bike_id": "07370be684e0cf58c2b23e8bea481676"}, {"name": "4dd85dd41a93d09505b7810d33a85d90", "is_reserved": 0, "is_disabled": 0, "lon": -77.01854783333333, "rental_uris": {"android": "https://dc.lft.to/lastmile_qr_scan", "ios": "https://dc.lft.to/lastmile_qr_scan"}, "fusion_lon": 0.0, "lat": 38.90397883333333, "type": "electric_scooter", "fusion_lat": 0.0, "bike_id": "4dd85dd41a93d09505b7810d33a85d90"}, {"name": "d127ec71bec39a107cd12a57da481b51", "is_reserved": 0, "is_disabled": 0, "lon": -77.090279, "rental_uris": {"android": "https://dc.lft.to/lastmile_qr_scan", "ios": "https://dc.lft.to/lastmile_qr_scan"}, "fusion_lon": 0.0, "lat": 38.8411305, "type": "electric_bike", "fusion_lat": 0.0, "bike_id": "d127ec71bec39a107cd12a57da481b51"}, {"name": "2f29628d33a73e73461a92e6f6a7d940", "is_reserved": 0, "is_disabled": 0, "lon": -76.948864, "rental_uris": {"android": "https://dc.lft.to/lastmile_qr_scan", "ios": "https://dc.lft.to/lastmile_qr_scan"}, "fusion_lon": 0.0, "lat": 38.895142666666665, "type": "electric_scooter", "fusion_lat": 0.0, "bike_id": "2f29628d33a73e73461a92e6f6a7d940"}, {"name": "2200dc5da5d6168fd16f33a6ef39f623", "is_reserved": 0, "is_disabled": 0, "lon": -76.992229, "rental_uris": {"android": "https://dc.lft.to/lastmile_qr_scan", "ios": "https://dc.lft.to/lastmile_qr_scan"}, "fusion_lon": 0.0, "lat": 38.89893433333334, "type": "electric_scooter", "fusion_lat": 0.0, "bike_id": "2200dc5da5d6168fd16f33a6ef39f623"}, {"name": "3c4655f24e608ef0897e8445cb76433d", "is_reserved": 0, "is_disabled": 0, "lon": -77.0408, "rental_uris": {"android": "https://dc.lft.to/lastmile_qr_scan", "ios": "https://dc.lft.to/lastmile_qr_scan"}, "fusion_lon": 0.0, "lat": 38.911186666666666, "type": "electric_scooter", "fusion_lat": 0.0, "bike_id": "3c4655f24e608ef0897e8445cb76433d"}, {"name": "913f75c588dbf356b2cdcbbd9d1cc356", "is_reserved": 0, "is_disabled": 0, "lon": -77.03834083333334, "rental_uris": {"android": "https://dc.lft.to/lastmile_qr_scan", "ios": "https://dc.lft.to/lastmile_qr_scan"}, "fusion_lon": 0.0, "lat": 38.90396633333334, "type": "electric_scooter", "fusion_lat": 0.0, "bike_id": "913f75c588dbf356b2cdcbbd9d1cc356"}, {"name": "015b12d44f7b02144a3e449ed65f5ccb", "is_reserved": 0, "is_disabled": 0, "lon": -77.073119, "rental_uris": {"android": "https://dc.lft.to/lastmile_qr_scan", "ios": "https://dc.lft.to/lastmile_qr_scan"}, "fusion_lon": 0.0, "lat": 38.91204533333333, "type": "electric_scooter", "fusion_lat": 0.0, "bike_id": "015b12d44f7b02144a3e449ed65f5ccb"}, {"name": "0d416354c28acf2efc11ba1dc3c66707", "is_reserved": 0, "is_disabled": 0, "lon": -77.0466745, "rental_uris": {"android": "https://dc.lft.to/lastmile_qr_scan", "ios": "https://dc.lft.to/lastmile_qr_scan"}, "fusion_lon": 0.0, "lat": 38.9043515, "type": "electric_scooter", "fusion_lat": 0.0, "bike_id": "0d416354c28acf2efc11ba1dc3c66707"}, {"name": "b3390493118abbf2641e5bae2ba945a1", "is_reserved": 0, "is_disabled": 0, "lon": -77.02705816666666, "rental_uris": {"android": "https://dc.lft.to/lastmile_qr_scan", "ios": "https://dc.lft.to/lastmile_qr_scan"}, "fusion_lon": 0.0, "lat": 38.881401833333335, "type": "electric_scooter", "fusion_lat": 0.0, "bike_id": "b3390493118abbf2641e5bae2ba945a1"}, {"name": "48301a7263278e2a091568335e428192", "is_reserved": 0, "is_disabled": 0, "lon": -77.05042666666667, "rental_uris": {"android": "https://dc.lft.to/lastmile_qr_scan", "ios": "https://dc.lft.to/lastmile_qr_scan"}, "fusion_lon": 0.0, "lat": 38.92359733333333, "type": "electric_scooter", "fusion_lat": 0.0, "bike_id": "48301a7263278e2a091568335e428192"}, {"name": "7af91dd4180a996555ed008339135a12", "is_reserved": 0, "is_disabled": 0, "lon": -77.12632233333333, "rental_uris": {"android": "https://dc.lft.to/lastmile_qr_scan", "ios": "https://dc.lft.to/lastmile_qr_scan"}, "fusion_lon": 0.0, "lat": 39.05812933333333, "type": "electric_bike", "fusion_lat": 0.0, "bike_id": "7af91dd4180a996555ed008339135a12"}, {"name": "3c1e34b8b237ff58c82c1139c8115822", "is_reserved": 0, "is_disabled": 0, "lon": -77.02960416666667, "rental_uris": {"android": "https://dc.lft.to/lastmile_qr_scan", "ios": "https://dc.lft.to/lastmile_qr_scan"}, "fusion_lon": 0.0, "lat": 38.89223883333333, "type": "electric_scooter", "fusion_lat": 0.0, "bike_id": "3c1e34b8b237ff58c82c1139c8115822"}, {"name": "6b3e1b7618b9cdbea2e7f29381672799", "is_reserved": 0, "is_disabled": 0, "lon": -77.04804616666667, "rental_uris": {"android": "https://dc.lft.to/lastmile_qr_scan", "ios": "https://dc.lft.to/lastmile_qr_scan"}, "fusion_lon": 0.0, "lat": 38.91922683333333, "type": "electric_scooter", "fusion_lat": 0.0, "bike_id": "6b3e1b7618b9cdbea2e7f29381672799"}, {"name": "768e7159cb7d521d29b5b9fa896cd006", "is_reserved": 0, "is_disabled": 0, "lon": -76.9981725, "rental_uris": {"android": "https://dc.lft.to/lastmile_qr_scan", "ios": "https://dc.lft.to/lastmile_qr_scan"}, "fusion_lon": 0.0, "lat": 38.8443615, "type": "electric_scooter", "fusion_lat": 0.0, "bike_id": "768e7159cb7d521d29b5b9fa896cd006"}, {"name": "35bcf189db87ce4a286e0786897cfbb9", "is_reserved": 0, "is_disabled": 0, "lon": -76.98819666666667, "rental_uris": {"android": "https://dc.lft.to/lastmile_qr_scan", "ios": "https://dc.lft.to/lastmile_qr_scan"}, "fusion_lon": 0.0, "lat": 38.8426965, "type": "electric_bike", "fusion_lat": 0.0, "bike_id": "35bcf189db87ce4a286e0786897cfbb9"}, {"name": "a32be6a98e7e5d9d81094bc67d1340f7", "is_reserved": 0, "is_disabled": 0, "lon": -77.05342283333333, "rental_uris": {"android": "https://dc.lft.to/lastmile_qr_scan", "ios": "https://dc.lft.to/lastmile_qr_scan"}, "fusion_lon": 0.0, "lat": 38.90240083333333, "type": "electric_scooter", "fusion_lat": 0.0, "bike_id": "a32be6a98e7e5d9d81094bc67d1340f7"}, {"name": "f51a620e168b01b5ac8e5d956c90d7b3", "is_reserved": 0, "is_disabled": 0, "lon": -77.01736016666666, "rental_uris": {"android": "https://dc.lft.to/lastmile_qr_scan", "ios": "https://dc.lft.to/lastmile_qr_scan"}, "fusion_lon": 0.0, "lat": 38.94209, "type": "electric_scooter", "fusion_lat": 0.0, "bike_id": "f51a620e168b01b5ac8e5d956c90d7b3"}, {"name": "b5462b8474afb94af71d97308cbf8e6d", "is_reserved": 0, "is_disabled": 0, "lon": -77.00585133333334, "rental_uris": {"android": "https://dc.lft.to/lastmile_qr_scan", "ios": "https://dc.lft.to/lastmile_qr_scan"}, "fusion_lon": 0.0, "lat": 38.87660016666667, "type": "electric_scooter", "fusion_lat": 0.0, "bike_id": "b5462b8474afb94af71d97308cbf8e6d"}, {"name": "9111a296c83d7b77b68f1237f38cddec", "is_reserved": 0, "is_disabled": 0, "lon": -77.00759116666667, "rental_uris": {"android": "https://dc.lft.to/lastmile_qr_scan", "ios": "https://dc.lft.to/lastmile_qr_scan"}, "fusion_lon": 0.0, "lat": 38.915559333333334, "type": "electric_scooter", "fusion_lat": 0.0, "bike_id": "9111a296c83d7b77b68f1237f38cddec"}, {"name": "c51f14476e4b6fb4f0f33d22858c89fb", "is_reserved": 0, "is_disabled": 0, "lon": -77.03355916666666, "rental_uris": {"android": "https://dc.lft.to/lastmile_qr_scan", "ios": "https://dc.lft.to/lastmile_qr_scan"}, "fusion_lon": 0.0, "lat": 38.9224345, "type": "electric_scooter", "fusion_lat": 0.0, "bike_id": "c51f14476e4b6fb4f0f33d22858c89fb"}, {"name": "0005e70caa2b53fb00e8ba62593d1f07", "is_reserved": 0, "is_disabled": 0, "lon": -77.026188, "rental_uris": {"android": "https://dc.lft.to/lastmile_qr_scan", "ios": "https://dc.lft.to/lastmile_qr_scan"}, "fusion_lon": 0.0, "lat": 38.885979666666664, "type": "electric_scooter", "fusion_lat": 0.0, "bike_id": "0005e70caa2b53fb00e8ba62593d1f07"}, {"name": "4cc0b8b7c2afd5b70c6c5540e2b9fd4b", "is_reserved": 0, "is_disabled": 0, "lon": -76.98096283333334, "rental_uris": {"android": "https://dc.lft.to/lastmile_qr_scan", "ios": "https://dc.lft.to/lastmile_qr_scan"}, "fusion_lon": 0.0, "lat": 38.95358383333333, "type": "electric_bike", "fusion_lat": 0.0, "bike_id": "4cc0b8b7c2afd5b70c6c5540e2b9fd4b"}, {"name": "7090a89870b56279e311291bbc2a8c49", "is_reserved": 0, "is_disabled": 0, "lon": -77.03640233333333, "rental_uris": {"android": "https://dc.lft.to/lastmile_qr_scan", "ios": "https://dc.lft.to/lastmile_qr_scan"}, "fusion_lon": 0.0, "lat": 38.91221866666667, "type": "electric_scooter", "fusion_lat": 0.0, "bike_id": "7090a89870b56279e311291bbc2a8c49"}, {"name": "b16442e96ccb512e0197c18f01e21655", "is_reserved": 0, "is_disabled": 0, "lon": -77.0107215, "rental_uris": {"android": "https://dc.lft.to/lastmile_qr_scan", "ios": "https://dc.lft.to/lastmile_qr_scan"}, "fusion_lon": 0.0, "lat": 38.96267133333333, "type": "electric_bike", "fusion_lat": 0.0, "bike_id": "b16442e96ccb512e0197c18f01e21655"}, {"name": "21266286996fa97a21a345f77452869a", "is_reserved": 0, "is_disabled": 0, "lon": -77.01462433333333, "rental_uris": {"android": "https://dc.lft.to/lastmile_qr_scan", "ios": "https://dc.lft.to/lastmile_qr_scan"}, "fusion_lon": 0.0, "lat": 38.91039, "type": "electric_scooter", "fusion_lat": 0.0, "bike_id": "21266286996fa97a21a345f77452869a"}, {"name": "fa1d865bd379a79e591c9b29931166f0", "is_reserved": 0, "is_disabled": 0, "lon": -77.02581316666667, "rental_uris": {"android": "https://dc.lft.to/lastmile_qr_scan", "ios": "https://dc.lft.to/lastmile_qr_scan"}, "fusion_lon": 0.0, "lat": 38.89611583333333, "type": "electric_bike", "fusion_lat": 0.0, "bike_id": "fa1d865bd379a79e591c9b29931166f0"}, {"name": "35a51d24706db75d14c97d9bb66a9b4f", "is_reserved": 0, "is_disabled": 0, "lon": -77.02882866666667, "rental_uris": {"android": "https://dc.lft.to/lastmile_qr_scan", "ios": "https://dc.lft.to/lastmile_qr_scan"}, "fusion_lon": 0.0, "lat": 38.914156166666665, "type": "electric_scooter", "fusion_lat": 0.0, "bike_id": "35a51d24706db75d14c97d9bb66a9b4f"}, {"name": "93fb4107e62f860035c671469e3fc69d", "is_reserved": 0, "is_disabled": 0, "lon": -77.01994883333333, "rental_uris": {"android": "https://dc.lft.to/lastmile_qr_scan", "ios": "https://dc.lft.to/lastmile_qr_scan"}, "fusion_lon": 0.0, "lat": 38.966283833333335, "type": "electric_scooter", "fusion_lat": 0.0, "bike_id": "93fb4107e62f860035c671469e3fc69d"}, {"name": "5b5b9448c19d1d77256b32cf90815405", "is_reserved": 0, "is_disabled": 0, "lon": -77.00400183333333, "rental_uris": {"android": "https://dc.lft.to/lastmile_qr_scan", "ios": "https://dc.lft.to/lastmile_qr_scan"}, "fusion_lon": 0.0, "lat": 38.9112315, "type": "electric_scooter", "fusion_lat": 0.0, "bike_id": "5b5b9448c19d1d77256b32cf90815405"}, {"name": "41766987073e34877f938cc1c05c7a73", "is_reserved": 0, "is_disabled": 0, "lon": -76.99164666666667, "rental_uris": {"android": "https://dc.lft.to/lastmile_qr_scan", "ios": "https://dc.lft.to/lastmile_qr_scan"}, "fusion_lon": 0.0, "lat": 38.873477333333334, "type": "electric_scooter", "fusion_lat": 0.0, "bike_id": "41766987073e34877f938cc1c05c7a73"}, {"name": "3793275427c1d09c49dff24614dbef67", "is_reserved": 0, "is_disabled": 0, "lon": -76.99833216666667, "rental_uris": {"android": "https://dc.lft.to/lastmile_qr_scan", "ios": "https://dc.lft.to/lastmile_qr_scan"}, "fusion_lon": 0.0, "lat": 38.839163, "type": "electric_bike", "fusion_lat": 0.0, "bike_id": "3793275427c1d09c49dff24614dbef67"}, {"name": "fd6e72c9b54d9361adebf315bc59612c", "is_reserved": 0, "is_disabled": 0, "lon": -76.99791733333333, "rental_uris": {"android": "https://dc.lft.to/lastmile_qr_scan", "ios": "https://dc.lft.to/lastmile_qr_scan"}, "fusion_lon": 0.0, "lat": 38.905648166666666, "type": "electric_scooter", "fusion_lat": 0.0, "bike_id": "fd6e72c9b54d9361adebf315bc59612c"}, {"name": "0a9766c71730d2bad12854cebd8ee75c", "is_reserved": 0, "is_disabled": 0, "lon": -76.94572833333334, "rental_uris": {"android": "https://dc.lft.to/lastmile_qr_scan", "ios": "https://dc.lft.to/lastmile_qr_scan"}, "fusion_lon": 0.0, "lat": 38.8662185, "type": "electric_bike", "fusion_lat": 0.0, "bike_id": "0a9766c71730d2bad12854cebd8ee75c"}, {"name": "8945b1f53fc736ebc8ad308cabf7f480", "is_reserved": 0, "is_disabled": 0, "lon": -77.06210516666667, "rental_uris": {"android": "https://dc.lft.to/lastmile_qr_scan", "ios": "https://dc.lft.to/lastmile_qr_scan"}, "fusion_lon": 0.0, "lat": 38.905222, "type": "electric_scooter", "fusion_lat": 0.0, "bike_id": "8945b1f53fc736ebc8ad308cabf7f480"}, {"name": "fe92c66dbf46126ad4df9848611e5da1", "is_reserved": 0, "is_disabled": 0, "lon": -77.0398875, "rental_uris": {"android": "https://dc.lft.to/lastmile_qr_scan", "ios": "https://dc.lft.to/lastmile_qr_scan"}, "fusion_lon": 0.0, "lat": 38.93342416666667, "type": "electric_scooter", "fusion_lat": 0.0, "bike_id": "fe92c66dbf46126ad4df9848611e5da1"}, {"name": "1ab1fe2f38bf7fa49652a98abb4b4909", "is_reserved": 0, "is_disabled": 0, "lon": -77.04320966666667, "rental_uris": {"android": "https://dc.lft.to/lastmile_qr_scan", "ios": "https://dc.lft.to/lastmile_qr_scan"}, "fusion_lon": 0.0, "lat": 38.892271, "type": "electric_scooter", "fusion_lat": 0.0, "bike_id": "1ab1fe2f38bf7fa49652a98abb4b4909"}, {"name": "18c4a68968435b426e186a10fac0e285", "is_reserved": 0, "is_disabled": 0, "lon": -77.02656466666667, "rental_uris": {"android": "https://dc.lft.to/lastmile_qr_scan", "ios": "https://dc.lft.to/lastmile_qr_scan"}, "fusion_lon": 0.0, "lat": 38.88111683333333, "type": "electric_scooter", "fusion_lat": 0.0, "bike_id": "18c4a68968435b426e186a10fac0e285"}, {"name": "a7955c3843439dba0ff4bf1c111394df", "is_reserved": 0, "is_disabled": 0, "lon": -77.02163583333333, "rental_uris": {"android": "https://dc.lft.to/lastmile_qr_scan", "ios": "https://dc.lft.to/lastmile_qr_scan"}, "fusion_lon": 0.0, "lat": 38.8874605, "type": "electric_scooter", "fusion_lat": 0.0, "bike_id": "a7955c3843439dba0ff4bf1c111394df"}, {"name": "a1a3b06d55ea0aa16aeda5bf2062ba31", "is_reserved": 0, "is_disabled": 0, "lon": -77.06885883333334, "rental_uris": {"android": "https://dc.lft.to/lastmile_qr_scan", "ios": "https://dc.lft.to/lastmile_qr_scan"}, "fusion_lon": 0.0, "lat": 38.905185333333336, "type": "electric_scooter", "fusion_lat": 0.0, "bike_id": "a1a3b06d55ea0aa16aeda5bf2062ba31"}, {"name": "a9f54d4f1fc97626c64f57b1d47596da", "is_reserved": 0, "is_disabled": 0, "lon": -77.04530683333333, "rental_uris": {"android": "https://dc.lft.to/lastmile_qr_scan", "ios": "https://dc.lft.to/lastmile_qr_scan"}, "fusion_lon": 0.0, "lat": 38.91799316666667, "type": "electric_scooter", "fusion_lat": 0.0, "bike_id": "a9f54d4f1fc97626c64f57b1d47596da"}, {"name": "a972b63f5210dd9ba2e4af6248b63870", "is_reserved": 0, "is_disabled": 0, "lon": -76.9968025, "rental_uris": {"android": "https://dc.lft.to/lastmile_qr_scan", "ios": "https://dc.lft.to/lastmile_qr_scan"}, "fusion_lon": 0.0, "lat": 38.886992, "type": "electric_scooter", "fusion_lat": 0.0, "bike_id": "a972b63f5210dd9ba2e4af6248b63870"}, {"name": "be0da2ee47e8cb6fe4a46560fb1e61c0", "is_reserved": 0, "is_disabled": 0, "lon": -77.01731716666667, "rental_uris": {"android": "https://dc.lft.to/lastmile_qr_scan", "ios": "https://dc.lft.to/lastmile_qr_scan"}, "fusion_lon": 0.0, "lat": 38.920533166666665, "type": "electric_scooter", "fusion_lat": 0.0, "bike_id": "be0da2ee47e8cb6fe4a46560fb1e61c0"}, {"name": "ac2bbc35c3962fb44ba0e2da39dcf2b8", "is_reserved": 0, "is_disabled": 0, "lon": -77.05208633333334, "rental_uris": {"android": "https://dc.lft.to/lastmile_qr_scan", "ios": "https://dc.lft.to/lastmile_qr_scan"}, "fusion_lon": 0.0, "lat": 38.92463216666667, "type": "electric_scooter", "fusion_lat": 0.0, "bike_id": "ac2bbc35c3962fb44ba0e2da39dcf2b8"}, {"name": "786ec18453a4a78689468c58f891cc65", "is_reserved": 0, "is_disabled": 0, "lon": -77.02270766666666, "rental_uris": {"android": "https://dc.lft.to/lastmile_qr_scan", "ios": "https://dc.lft.to/lastmile_qr_scan"}, "fusion_lon": 0.0, "lat": 38.9009395, "type": "electric_scooter", "fusion_lat": 0.0, "bike_id": "786ec18453a4a78689468c58f891cc65"}, {"name": "97370b12d57056c679f2408b09c3429d", "is_reserved": 0, "is_disabled": 0, "lon": -77.0380865, "rental_uris": {"android": "https://dc.lft.to/lastmile_qr_scan", "ios": "https://dc.lft.to/lastmile_qr_scan"}, "fusion_lon": 0.0, "lat": 38.92543383333334, "type": "electric_scooter", "fusion_lat": 0.0, "bike_id": "97370b12d57056c679f2408b09c3429d"}, {"name": "96d341e9da6ecc3549f0328f7ff33e08", "is_reserved": 0, "is_disabled": 0, "lon": -77.04081983333333, "rental_uris": {"android": "https://dc.lft.to/lastmile_qr_scan", "ios": "https://dc.lft.to/lastmile_qr_scan"}, "fusion_lon": 0.0, "lat": 38.908135, "type": "electric_scooter", "fusion_lat": 0.0, "bike_id": "96d341e9da6ecc3549f0328f7ff33e08"}, {"name": "80394c1d2ae737fc2ad162a955e085e9", "is_reserved": 0, "is_disabled": 0, "lon": -77.048963, "rental_uris": {"android": "https://dc.lft.to/lastmile_qr_scan", "ios": "https://dc.lft.to/lastmile_qr_scan"}, "fusion_lon": 0.0, "lat": 38.89235266666667, "type": "electric_scooter", "fusion_lat": 0.0, "bike_id": "80394c1d2ae737fc2ad162a955e085e9"}, {"name": "a1ae9ac282eb6bae2971d5f89be9d9f5", "is_reserved": 0, "is_disabled": 0, "lon": -76.96560933333333, "rental_uris": {"android": "https://dc.lft.to/lastmile_qr_scan", "ios": "https://dc.lft.to/lastmile_qr_scan"}, "fusion_lon": 0.0, "lat": 38.95089083333333, "type": "electric_bike", "fusion_lat": 0.0, "bike_id": "a1ae9ac282eb6bae2971d5f89be9d9f5"}, {"name": "8b13f5175e955b511996bcc2228b1703", "is_reserved": 0, "is_disabled": 0, "lon": -77.04589133333333, "rental_uris": {"android": "https://dc.lft.to/lastmile_qr_scan", "ios": "https://dc.lft.to/lastmile_qr_scan"}, "fusion_lon": 0.0, "lat": 38.90002366666667, "type": "electric_scooter", "fusion_lat": 0.0, "bike_id": "8b13f5175e955b511996bcc2228b1703"}, {"name": "971ac59e37a8bdd078390262132677c0", "is_reserved": 0, "is_disabled": 0, "lon": -76.983621, "rental_uris": {"android": "https://dc.lft.to/lastmile_qr_scan", "ios": "https://dc.lft.to/lastmile_qr_scan"}, "fusion_lon": 0.0, "lat": 38.8610445, "type": "electric_scooter", "fusion_lat": 0.0, "bike_id": "971ac59e37a8bdd078390262132677c0"}, {"name": "7833c7a710df5e6b042305e57c140320", "is_reserved": 0, "is_disabled": 0, "lon": -77.07897883333334, "rental_uris": {"android": "https://dc.lft.to/lastmile_qr_scan", "ios": "https://dc.lft.to/lastmile_qr_scan"}, "fusion_lon": 0.0, "lat": 38.8393625, "type": "electric_bike", "fusion_lat": 0.0, "bike_id": "7833c7a710df5e6b042305e57c140320"}, {"name": "a98b712b6b9c86edc458da4abbd41dfc", "is_reserved": 0, "is_disabled": 0, "lon": -77.02352716666667, "rental_uris": {"android": "https://dc.lft.to/lastmile_qr_scan", "ios": "https://dc.lft.to/lastmile_qr_scan"}, "fusion_lon": 0.0, "lat": 38.8922425, "type": "electric_scooter", "fusion_lat": 0.0, "bike_id": "a98b712b6b9c86edc458da4abbd41dfc"}, {"name": "15580a6bffe2002484ac01fe648dfe0f", "is_reserved": 0, "is_disabled": 0, "lon": -76.94473666666667, "rental_uris": {"android": "https://dc.lft.to/lastmile_qr_scan", "ios": "https://dc.lft.to/lastmile_qr_scan"}, "fusion_lon": 0.0, "lat": 38.94559266666667, "type": "electric_bike", "fusion_lat": 0.0, "bike_id": "15580a6bffe2002484ac01fe648dfe0f"}, {"name": "1b97760ecef4ae8c7103f32bdf4ac76c", "is_reserved": 0, "is_disabled": 0, "lon": -77.00834016666667, "rental_uris": {"android": "https://dc.lft.to/lastmile_qr_scan", "ios": "https://dc.lft.to/lastmile_qr_scan"}, "fusion_lon": 0.0, "lat": 38.8796125, "type": "electric_scooter", "fusion_lat": 0.0, "bike_id": "1b97760ecef4ae8c7103f32bdf4ac76c"}, {"name": "fba6a6c1e52aa1ad0a36780923c8c76d", "is_reserved": 0, "is_disabled": 0, "lon": -77.04164716666666, "rental_uris": {"android": "https://dc.lft.to/lastmile_qr_scan", "ios": "https://dc.lft.to/lastmile_qr_scan"}, "fusion_lon": 0.0, "lat": 38.90932683333333, "type": "electric_scooter", "fusion_lat": 0.0, "bike_id": "fba6a6c1e52aa1ad0a36780923c8c76d"}, {"name": "16163b843c685d9291e6d633cae1392d", "is_reserved": 0, "is_disabled": 0, "lon": -77.06896833333333, "rental_uris": {"android": "https://dc.lft.to/lastmile_qr_scan", "ios": "https://dc.lft.to/lastmile_qr_scan"}, "fusion_lon": 0.0, "lat": 38.90731516666666, "type": "electric_scooter", "fusion_lat": 0.0, "bike_id": "16163b843c685d9291e6d633cae1392d"}, {"name": "0de9e5915804153f10248b932f5de75a", "is_reserved": 0, "is_disabled": 0, "lon": -77.1141055, "rental_uris": {"android": "https://dc.lft.to/lastmile_qr_scan", "ios": "https://dc.lft.to/lastmile_qr_scan"}, "fusion_lon": 0.0, "lat": 38.842855166666666, "type": "electric_bike", "fusion_lat": 0.0, "bike_id": "0de9e5915804153f10248b932f5de75a"}, {"name": "298ba51a4d27a59c5289686d12a866ed", "is_reserved": 0, "is_disabled": 0, "lon": -77.03397833333334, "rental_uris": {"android": "https://dc.lft.to/lastmile_qr_scan", "ios": "https://dc.lft.to/lastmile_qr_scan"}, "fusion_lon": 0.0, "lat": 38.9196535, "type": "electric_scooter", "fusion_lat": 0.0, "bike_id": "298ba51a4d27a59c5289686d12a866ed"}, {"name": "55e22499fc5672cd9d46e9cbcf4fc5ed", "is_reserved": 0, "is_disabled": 0, "lon": -77.05081866666667, "rental_uris": {"android": "https://dc.lft.to/lastmile_qr_scan", "ios": "https://dc.lft.to/lastmile_qr_scan"}, "fusion_lon": 0.0, "lat": 38.81331, "type": "electric_bike", "fusion_lat": 0.0, "bike_id": "55e22499fc5672cd9d46e9cbcf4fc5ed"}, {"name": "ef22972e4ea626c382ff3a313dcef67e", "is_reserved": 0, "is_disabled": 0, "lon": -77.01558283333334, "rental_uris": {"android": "https://dc.lft.to/lastmile_qr_scan", "ios": "https://dc.lft.to/lastmile_qr_scan"}, "fusion_lon": 0.0, "lat": 38.91372666666667, "type": "electric_scooter", "fusion_lat": 0.0, "bike_id": "ef22972e4ea626c382ff3a313dcef67e"}, {"name": "3f23f3515a1c5e53480c3f19c83e161e", "is_reserved": 0, "is_disabled": 0, "lon": -77.0318525, "rental_uris": {"android": "https://dc.lft.to/lastmile_qr_scan", "ios": "https://dc.lft.to/lastmile_qr_scan"}, "fusion_lon": 0.0, "lat": 38.88663416666667, "type": "electric_scooter", "fusion_lat": 0.0, "bike_id": "3f23f3515a1c5e53480c3f19c83e161e"}, {"name": "24f2ac364953e8a30f7c149f1e196b0a", "is_reserved": 0, "is_disabled": 0, "lon": -77.00759, "rental_uris": {"android": "https://dc.lft.to/lastmile_qr_scan", "ios": "https://dc.lft.to/lastmile_qr_scan"}, "fusion_lon": 0.0, "lat": 38.90058766666667, "type": "electric_scooter", "fusion_lat": 0.0, "bike_id": "24f2ac364953e8a30f7c149f1e196b0a"}, {"name": "3bc5c148b73ecba20e5b564df92c4761", "is_reserved": 0, "is_disabled": 0, "lon": -77.02156566666666, "rental_uris": {"android": "https://dc.lft.to/lastmile_qr_scan", "ios": "https://dc.lft.to/lastmile_qr_scan"}, "fusion_lon": 0.0, "lat": 38.926046, "type": "electric_scooter", "fusion_lat": 0.0, "bike_id": "3bc5c148b73ecba20e5b564df92c4761"}, {"name": "f5f49c0e5c9b70fcc82662cee6813584", "is_reserved": 0, "is_disabled": 0, "lon": -77.040373, "rental_uris": {"android": "https://dc.lft.to/lastmile_qr_scan", "ios": "https://dc.lft.to/lastmile_qr_scan"}, "fusion_lon": 0.0, "lat": 38.905957666666666, "type": "electric_scooter", "fusion_lat": 0.0, "bike_id": "f5f49c0e5c9b70fcc82662cee6813584"}, {"name": "42ad26cda458440f2829a9eb1ae73785", "is_reserved": 0, "is_disabled": 0, "lon": -76.992084, "rental_uris": {"android": "https://dc.lft.to/lastmile_qr_scan", "ios": "https://dc.lft.to/lastmile_qr_scan"}, "fusion_lon": 0.0, "lat": 38.895293833333334, "type": "electric_scooter", "fusion_lat": 0.0, "bike_id": "42ad26cda458440f2829a9eb1ae73785"}, {"name": "0d2a8de1838f94491f2088b3dae66cf2", "is_reserved": 0, "is_disabled": 0, "lon": -77.00577116666666, "rental_uris": {"android": "https://dc.lft.to/lastmile_qr_scan", "ios": "https://dc.lft.to/lastmile_qr_scan"}, "fusion_lon": 0.0, "lat": 38.885337166666666, "type": "electric_scooter", "fusion_lat": 0.0, "bike_id": "0d2a8de1838f94491f2088b3dae66cf2"}, {"name": "378182a69d0a15f77a655cb8e83da576", "is_reserved": 0, "is_disabled": 0, "lon": -77.00607333333333, "rental_uris": {"android": "https://dc.lft.to/lastmile_qr_scan", "ios": "https://dc.lft.to/lastmile_qr_scan"}, "fusion_lon": 0.0, "lat": 38.88377233333333, "type": "electric_scooter", "fusion_lat": 0.0, "bike_id": "378182a69d0a15f77a655cb8e83da576"}, {"name": "870cd2326b99e2ef3337e1bab34ba602", "is_reserved": 0, "is_disabled": 0, "lon": -77.07441866666667, "rental_uris": {"android": "https://dc.lft.to/lastmile_qr_scan", "ios": "https://dc.lft.to/lastmile_qr_scan"}, "fusion_lon": 0.0, "lat": 38.910954, "type": "electric_scooter", "fusion_lat": 0.0, "bike_id": "870cd2326b99e2ef3337e1bab34ba602"}, {"name": "61e37f2cef527468759431ec3afe20d8", "is_reserved": 0, "is_disabled": 0, "lon": -76.99389533333333, "rental_uris": {"android": "https://dc.lft.to/lastmile_qr_scan", "ios": "https://dc.lft.to/lastmile_qr_scan"}, "fusion_lon": 0.0, "lat": 38.8845285, "type": "electric_scooter", "fusion_lat": 0.0, "bike_id": "61e37f2cef527468759431ec3afe20d8"}, {"name": "8673b35aca6727fc887934b0051198be", "is_reserved": 0, "is_disabled": 0, "lon": -77.06253466666666, "rental_uris": {"android": "https://dc.lft.to/lastmile_qr_scan", "ios": "https://dc.lft.to/lastmile_qr_scan"}, "fusion_lon": 0.0, "lat": 38.9052075, "type": "electric_scooter", "fusion_lat": 0.0, "bike_id": "8673b35aca6727fc887934b0051198be"}, {"name": "e452394e317b8cce050ec31c6e52f6ae", "is_reserved": 0, "is_disabled": 0, "lon": -77.02229566666666, "rental_uris": {"android": "https://dc.lft.to/lastmile_qr_scan", "ios": "https://dc.lft.to/lastmile_qr_scan"}, "fusion_lon": 0.0, "lat": 38.88770533333334, "type": "electric_scooter", "fusion_lat": 0.0, "bike_id": "e452394e317b8cce050ec31c6e52f6ae"}, {"name": "3b8bf67420f6a1adb1464aa2397e22ce", "is_reserved": 0, "is_disabled": 0, "lon": -77.02896183333333, "rental_uris": {"android": "https://dc.lft.to/lastmile_qr_scan", "ios": "https://dc.lft.to/lastmile_qr_scan"}, "fusion_lon": 0.0, "lat": 38.918151333333334, "type": "electric_scooter", "fusion_lat": 0.0, "bike_id": "3b8bf67420f6a1adb1464aa2397e22ce"}, {"name": "fd959d6bb483c76ba3e13e7f512ac764", "is_reserved": 0, "is_disabled": 0, "lon": -77.03652166666667, "rental_uris": {"android": "https://dc.lft.to/lastmile_qr_scan", "ios": "https://dc.lft.to/lastmile_qr_scan"}, "fusion_lon": 0.0, "lat": 38.93579866666666, "type": "electric_scooter", "fusion_lat": 0.0, "bike_id": "fd959d6bb483c76ba3e13e7f512ac764"}, {"name": "b905105f7929c5792d8d599bcbd16bdf", "is_reserved": 0, "is_disabled": 0, "lon": -77.021082, "rental_uris": {"android": "https://dc.lft.to/lastmile_qr_scan", "ios": "https://dc.lft.to/lastmile_qr_scan"}, "fusion_lon": 0.0, "lat": 39.02297883333333, "type": "electric_bike", "fusion_lat": 0.0, "bike_id": "b905105f7929c5792d8d599bcbd16bdf"}, {"name": "730bec0017c752a8c93eb236c41199bd", "is_reserved": 0, "is_disabled": 0, "lon": -77.04241166666667, "rental_uris": {"android": "https://dc.lft.to/lastmile_qr_scan", "ios": "https://dc.lft.to/lastmile_qr_scan"}, "fusion_lon": 0.0, "lat": 38.90971716666667, "type": "electric_scooter", "fusion_lat": 0.0, "bike_id": "730bec0017c752a8c93eb236c41199bd"}, {"name": "da569eb123627ce3b7c3f295687bbc08", "is_reserved": 0, "is_disabled": 0, "lon": -77.06031766666666, "rental_uris": {"android": "https://dc.lft.to/lastmile_qr_scan", "ios": "https://dc.lft.to/lastmile_qr_scan"}, "fusion_lon": 0.0, "lat": 38.93911833333333, "type": "electric_scooter", "fusion_lat": 0.0, "bike_id": "da569eb123627ce3b7c3f295687bbc08"}, {"name": "c46239abd1db2fbff6fc1fbdad63f3d9", "is_reserved": 0, "is_disabled": 0, "lon": -77.04673416666667, "rental_uris": {"android": "https://dc.lft.to/lastmile_qr_scan", "ios": "https://dc.lft.to/lastmile_qr_scan"}, "fusion_lon": 0.0, "lat": 38.89559233333333, "type": "electric_scooter", "fusion_lat": 0.0, "bike_id": "c46239abd1db2fbff6fc1fbdad63f3d9"}, {"name": "20f04afd78c72832a262ba1cbb2b8bfd", "is_reserved": 0, "is_disabled": 0, "lon": -77.0399265, "rental_uris": {"android": "https://dc.lft.to/lastmile_qr_scan", "ios": "https://dc.lft.to/lastmile_qr_scan"}, "fusion_lon": 0.0, "lat": 38.909243000000004, "type": "electric_scooter", "fusion_lat": 0.0, "bike_id": "20f04afd78c72832a262ba1cbb2b8bfd"}, {"name": "bce9966e88242fdd69df3d9221ff9b95", "is_reserved": 0, "is_disabled": 0, "lon": -77.12901333333333, "rental_uris": {"android": "https://dc.lft.to/lastmile_qr_scan", "ios": "https://dc.lft.to/lastmile_qr_scan"}, "fusion_lon": 0.0, "lat": 38.86377516666667, "type": "electric_bike", "fusion_lat": 0.0, "bike_id": "bce9966e88242fdd69df3d9221ff9b95"}, {"name": "261de784303403b6bbde4977b5fb5028", "is_reserved": 0, "is_disabled": 0, "lon": -77.0290625, "rental_uris": {"android": "https://dc.lft.to/lastmile_qr_scan", "ios": "https://dc.lft.to/lastmile_qr_scan"}, "fusion_lon": 0.0, "lat": 38.9171625, "type": "electric_scooter", "fusion_lat": 0.0, "bike_id": "261de784303403b6bbde4977b5fb5028"}, {"name": "827ad38e461e1ca345fe041fdfe6f30d", "is_reserved": 0, "is_disabled": 0, "lon": -77.03348616666666, "rental_uris": {"android": "https://dc.lft.to/lastmile_qr_scan", "ios": "https://dc.lft.to/lastmile_qr_scan"}, "fusion_lon": 0.0, "lat": 38.9225195, "type": "electric_scooter", "fusion_lat": 0.0, "bike_id": "827ad38e461e1ca345fe041fdfe6f30d"}, {"name": "f504550b2692e0228c50163c7adcd797", "is_reserved": 0, "is_disabled": 0, "lon": -76.96693633333334, "rental_uris": {"android": "https://dc.lft.to/lastmile_qr_scan", "ios": "https://dc.lft.to/lastmile_qr_scan"}, "fusion_lon": 0.0, "lat": 38.8589885, "type": "electric_scooter", "fusion_lat": 0.0, "bike_id": "f504550b2692e0228c50163c7adcd797"}, {"name": "ee4910f3666a1676337a1c55be192de3", "is_reserved": 0, "is_disabled": 0, "lon": -77.09158366666666, "rental_uris": {"android": "https://dc.lft.to/lastmile_qr_scan", "ios": "https://dc.lft.to/lastmile_qr_scan"}, "fusion_lon": 0.0, "lat": 38.967600833333336, "type": "electric_bike", "fusion_lat": 0.0, "bike_id": "ee4910f3666a1676337a1c55be192de3"}, {"name": "2cfa3d932c2d3a94745c136d3039c048", "is_reserved": 0, "is_disabled": 0, "lon": -77.03733533333333, "rental_uris": {"android": "https://dc.lft.to/lastmile_qr_scan", "ios": "https://dc.lft.to/lastmile_qr_scan"}, "fusion_lon": 0.0, "lat": 38.918176, "type": "electric_scooter", "fusion_lat": 0.0, "bike_id": "2cfa3d932c2d3a94745c136d3039c048"}, {"name": "e602f59b02a4843176b939e6b84668f9", "is_reserved": 0, "is_disabled": 0, "lon": -77.0422635, "rental_uris": {"android": "https://dc.lft.to/lastmile_qr_scan", "ios": "https://dc.lft.to/lastmile_qr_scan"}, "fusion_lon": 0.0, "lat": 38.921242166666666, "type": "electric_scooter", "fusion_lat": 0.0, "bike_id": "e602f59b02a4843176b939e6b84668f9"}, {"name": "94a60546c44afcb1362d8c00baf5e301", "is_reserved": 0, "is_disabled": 0, "lon": -77.016887, "rental_uris": {"android": "https://dc.lft.to/lastmile_qr_scan", "ios": "https://dc.lft.to/lastmile_qr_scan"}, "fusion_lon": 0.0, "lat": 38.97533883333333, "type": "electric_scooter", "fusion_lat": 0.0, "bike_id": "94a60546c44afcb1362d8c00baf5e301"}, {"name": "e7f41cb0d636333300ab79bfe08ccf5b", "is_reserved": 0, "is_disabled": 0, "lon": -77.0051915, "rental_uris": {"android": "https://dc.lft.to/lastmile_qr_scan", "ios": "https://dc.lft.to/lastmile_qr_scan"}, "fusion_lon": 0.0, "lat": 38.874706833333335, "type": "electric_scooter", "fusion_lat": 0.0, "bike_id": "e7f41cb0d636333300ab79bfe08ccf5b"}, {"name": "0875a416c05302bfd41022927853f334", "is_reserved": 0, "is_disabled": 0, "lon": -77.04650983333333, "rental_uris": {"android": "https://dc.lft.to/lastmile_qr_scan", "ios": "https://dc.lft.to/lastmile_qr_scan"}, "fusion_lon": 0.0, "lat": 38.89299366666667, "type": "electric_scooter", "fusion_lat": 0.0, "bike_id": "0875a416c05302bfd41022927853f334"}, {"name": "7c23108dcea54269cf05e8cc09c0a139", "is_reserved": 0, "is_disabled": 0, "lon": -77.04425166666667, "rental_uris": {"android": "https://dc.lft.to/lastmile_qr_scan", "ios": "https://dc.lft.to/lastmile_qr_scan"}, "fusion_lon": 0.0, "lat": 38.874361666666665, "type": "electric_scooter", "fusion_lat": 0.0, "bike_id": "7c23108dcea54269cf05e8cc09c0a139"}, {"name": "e5f56adecc64af12ccb6b9b31fe74912", "is_reserved": 0, "is_disabled": 0, "lon": -77.050531, "rental_uris": {"android": "https://dc.lft.to/lastmile_qr_scan", "ios": "https://dc.lft.to/lastmile_qr_scan"}, "fusion_lon": 0.0, "lat": 38.92419233333333, "type": "electric_bike", "fusion_lat": 0.0, "bike_id": "e5f56adecc64af12ccb6b9b31fe74912"}, {"name": "c9649f2a057145759b9a32d067d2952b", "is_reserved": 0, "is_disabled": 0, "lon": -77.07045166666667, "rental_uris": {"android": "https://dc.lft.to/lastmile_qr_scan", "ios": "https://dc.lft.to/lastmile_qr_scan"}, "fusion_lon": 0.0, "lat": 38.824461666666664, "type": "electric_bike", "fusion_lat": 0.0, "bike_id": "c9649f2a057145759b9a32d067d2952b"}, {"name": "ac5b892573e8c8137104056821df693f", "is_reserved": 0, "is_disabled": 0, "lon": -77.03650516666667, "rental_uris": {"android": "https://dc.lft.to/lastmile_qr_scan", "ios": "https://dc.lft.to/lastmile_qr_scan"}, "fusion_lon": 0.0, "lat": 38.95024816666667, "type": "electric_bike", "fusion_lat": 0.0, "bike_id": "ac5b892573e8c8137104056821df693f"}, {"name": "54b0e0b315a7917716337b6c9a19f0c2", "is_reserved": 0, "is_disabled": 0, "lon": -77.02749933333334, "rental_uris": {"android": "https://dc.lft.to/lastmile_qr_scan", "ios": "https://dc.lft.to/lastmile_qr_scan"}, "fusion_lon": 0.0, "lat": 38.92898266666667, "type": "electric_scooter", "fusion_lat": 0.0, "bike_id": "54b0e0b315a7917716337b6c9a19f0c2"}, {"name": "efebcc50f61fdc7034b901be39c54df8", "is_reserved": 0, "is_disabled": 0, "lon": -76.994494, "rental_uris": {"android": "https://dc.lft.to/lastmile_qr_scan", "ios": "https://dc.lft.to/lastmile_qr_scan"}, "fusion_lon": 0.0, "lat": 38.90506883333333, "type": "electric_scooter", "fusion_lat": 0.0, "bike_id": "efebcc50f61fdc7034b901be39c54df8"}, {"name": "5a4966f09c531025279030f892a285ce", "is_reserved": 0, "is_disabled": 0, "lon": -76.94653433333333, "rental_uris": {"android": "https://dc.lft.to/lastmile_qr_scan", "ios": "https://dc.lft.to/lastmile_qr_scan"}, "fusion_lon": 0.0, "lat": 38.898282, "type": "electric_scooter", "fusion_lat": 0.0, "bike_id": "5a4966f09c531025279030f892a285ce"}, {"name": "718d09b1936d5c188e3281e00a53087a", "is_reserved": 0, "is_disabled": 0, "lon": -77.12815716666667, "rental_uris": {"android": "https://dc.lft.to/lastmile_qr_scan", "ios": "https://dc.lft.to/lastmile_qr_scan"}, "fusion_lon": 0.0, "lat": 38.865304, "type": "electric_bike", "fusion_lat": 0.0, "bike_id": "718d09b1936d5c188e3281e00a53087a"}, {"name": "69de98513a2dcf518a12bad91549b911", "is_reserved": 0, "is_disabled": 0, "lon": -77.001337, "rental_uris": {"android": "https://dc.lft.to/lastmile_qr_scan", "ios": "https://dc.lft.to/lastmile_qr_scan"}, "fusion_lon": 0.0, "lat": 38.89487716666667, "type": "electric_scooter", "fusion_lat": 0.0, "bike_id": "69de98513a2dcf518a12bad91549b911"}, {"name": "4015196bea0aee2f60718e3d41ad321a", "is_reserved": 0, "is_disabled": 0, "lon": -76.900855, "rental_uris": {"android": "https://dc.lft.to/lastmile_qr_scan", "ios": "https://dc.lft.to/lastmile_qr_scan"}, "fusion_lon": 0.0, "lat": 38.887515, "type": "electric_bike", "fusion_lat": 0.0, "bike_id": "4015196bea0aee2f60718e3d41ad321a"}, {"name": "f9f94576148d6bbb453e45a6ecb7c4e2", "is_reserved": 0, "is_disabled": 0, "lon": -77.042225, "rental_uris": {"android": "https://dc.lft.to/lastmile_qr_scan", "ios": "https://dc.lft.to/lastmile_qr_scan"}, "fusion_lon": 0.0, "lat": 38.921649333333335, "type": "electric_scooter", "fusion_lat": 0.0, "bike_id": "f9f94576148d6bbb453e45a6ecb7c4e2"}, {"name": "6509796c1d70f14b8e03f79ab9721a07", "is_reserved": 0, "is_disabled": 0, "lon": -77.03282216666666, "rental_uris": {"android": "https://dc.lft.to/lastmile_qr_scan", "ios": "https://dc.lft.to/lastmile_qr_scan"}, "fusion_lon": 0.0, "lat": 38.94662966666667, "type": "electric_scooter", "fusion_lat": 0.0, "bike_id": "6509796c1d70f14b8e03f79ab9721a07"}, {"name": "8733e63b44c30df68e2d7e7893c994a6", "is_reserved": 0, "is_disabled": 0, "lon": -77.00188916666667, "rental_uris": {"android": "https://dc.lft.to/lastmile_qr_scan", "ios": "https://dc.lft.to/lastmile_qr_scan"}, "fusion_lon": 0.0, "lat": 38.903800833333335, "type": "electric_scooter", "fusion_lat": 0.0, "bike_id": "8733e63b44c30df68e2d7e7893c994a6"}, {"name": "bddf6061ec4a87696fdd1fc4b683ca20", "is_reserved": 0, "is_disabled": 0, "lon": -76.95469333333334, "rental_uris": {"android": "https://dc.lft.to/lastmile_qr_scan", "ios": "https://dc.lft.to/lastmile_qr_scan"}, "fusion_lon": 0.0, "lat": 38.88811233333333, "type": "electric_scooter", "fusion_lat": 0.0, "bike_id": "bddf6061ec4a87696fdd1fc4b683ca20"}, {"name": "67d9fc80d91b1bea28e5fc002c750ec9", "is_reserved": 0, "is_disabled": 0, "lon": -76.9870925, "rental_uris": {"android": "https://dc.lft.to/lastmile_qr_scan", "ios": "https://dc.lft.to/lastmile_qr_scan"}, "fusion_lon": 0.0, "lat": 38.865453, "type": "electric_scooter", "fusion_lat": 0.0, "bike_id": "67d9fc80d91b1bea28e5fc002c750ec9"}, {"name": "14f544e9b3227a6e426d20aa2e19aba0", "is_reserved": 0, "is_disabled": 0, "lon": -77.12978683333333, "rental_uris": {"android": "https://dc.lft.to/lastmile_qr_scan", "ios": "https://dc.lft.to/lastmile_qr_scan"}, "fusion_lon": 0.0, "lat": 38.799919333333335, "type": "electric_bike", "fusion_lat": 0.0, "bike_id": "14f544e9b3227a6e426d20aa2e19aba0"}, {"name": "8be93865ab6fb8e87233471c85cf9fad", "is_reserved": 0, "is_disabled": 0, "lon": -77.07297183333333, "rental_uris": {"android": "https://dc.lft.to/lastmile_qr_scan", "ios": "https://dc.lft.to/lastmile_qr_scan"}, "fusion_lon": 0.0, "lat": 38.924685333333336, "type": "electric_bike", "fusion_lat": 0.0, "bike_id": "8be93865ab6fb8e87233471c85cf9fad"}, {"name": "ffe7af9ad132dc6baee63cc23b25274f", "is_reserved": 0, "is_disabled": 0, "lon": -77.06393416666667, "rental_uris": {"android": "https://dc.lft.to/lastmile_qr_scan", "ios": "https://dc.lft.to/lastmile_qr_scan"}, "fusion_lon": 0.0, "lat": 38.929105, "type": "electric_scooter", "fusion_lat": 0.0, "bike_id": "ffe7af9ad132dc6baee63cc23b25274f"}, {"name": "f07ccac291063b20ddb89f618ed6b6d4", "is_reserved": 0, "is_disabled": 0, "lon": -77.0627565, "rental_uris": {"android": "https://dc.lft.to/lastmile_qr_scan", "ios": "https://dc.lft.to/lastmile_qr_scan"}, "fusion_lon": 0.0, "lat": 38.9068685, "type": "electric_scooter", "fusion_lat": 0.0, "bike_id": "f07ccac291063b20ddb89f618ed6b6d4"}, {"name": "8debd8d916b0358182cfce25fded5fc2", "is_reserved": 0, "is_disabled": 0, "lon": -77.04260233333333, "rental_uris": {"android": "https://dc.lft.to/lastmile_qr_scan", "ios": "https://dc.lft.to/lastmile_qr_scan"}, "fusion_lon": 0.0, "lat": 38.9205935, "type": "electric_scooter", "fusion_lat": 0.0, "bike_id": "8debd8d916b0358182cfce25fded5fc2"}, {"name": "c0b8f700ce13577f624987d233af50a8", "is_reserved": 0, "is_disabled": 0, "lon": -76.93199116666666, "rental_uris": {"android": "https://dc.lft.to/lastmile_qr_scan", "ios": "https://dc.lft.to/lastmile_qr_scan"}, "fusion_lon": 0.0, "lat": 38.87234466666666, "type": "electric_bike", "fusion_lat": 0.0, "bike_id": "c0b8f700ce13577f624987d233af50a8"}, {"name": "c4594da3143c662bdbe2d8b9cb44118a", "is_reserved": 0, "is_disabled": 0, "lon": -77.09960883333333, "rental_uris": {"android": "https://dc.lft.to/lastmile_qr_scan", "ios": "https://dc.lft.to/lastmile_qr_scan"}, "fusion_lon": 0.0, "lat": 38.857924833333335, "type": "electric_bike", "fusion_lat": 0.0, "bike_id": "c4594da3143c662bdbe2d8b9cb44118a"}, {"name": "6f512b4d5f3381048cbf99b7d2fc7c33", "is_reserved": 0, "is_disabled": 0, "lon": -77.07660166666666, "rental_uris": {"android": "https://dc.lft.to/lastmile_qr_scan", "ios": "https://dc.lft.to/lastmile_qr_scan"}, "fusion_lon": 0.0, "lat": 38.910845333333334, "type": "electric_scooter", "fusion_lat": 0.0, "bike_id": "6f512b4d5f3381048cbf99b7d2fc7c33"}, {"name": "22fd2a16eba5852930bd640519834a4b", "is_reserved": 0, "is_disabled": 0, "lon": -76.94196166666667, "rental_uris": {"android": "https://dc.lft.to/lastmile_qr_scan", "ios": "https://dc.lft.to/lastmile_qr_scan"}, "fusion_lon": 0.0, "lat": 38.893760666666665, "type": "electric_scooter", "fusion_lat": 0.0, "bike_id": "22fd2a16eba5852930bd640519834a4b"}, {"name": "06257baa9e34037572a48215643b48e1", "is_reserved": 0, "is_disabled": 0, "lon": -77.036556, "rental_uris": {"android": "https://dc.lft.to/lastmile_qr_scan", "ios": "https://dc.lft.to/lastmile_qr_scan"}, "fusion_lon": 0.0, "lat": 38.9564355, "type": "electric_scooter", "fusion_lat": 0.0, "bike_id": "06257baa9e34037572a48215643b48e1"}, {"name": "a1ce4011f76a5d5151131e5733325bda", "is_reserved": 0, "is_disabled": 0, "lon": -77.02620833333333, "rental_uris": {"android": "https://dc.lft.to/lastmile_qr_scan", "ios": "https://dc.lft.to/lastmile_qr_scan"}, "fusion_lon": 0.0, "lat": 38.887404333333336, "type": "electric_scooter", "fusion_lat": 0.0, "bike_id": "a1ce4011f76a5d5151131e5733325bda"}, {"name": "d682ecc51462771b418d8d008a17150f", "is_reserved": 0, "is_disabled": 0, "lon": -77.0474385, "rental_uris": {"android": "https://dc.lft.to/lastmile_qr_scan", "ios": "https://dc.lft.to/lastmile_qr_scan"}, "fusion_lon": 0.0, "lat": 38.90533533333333, "type": "electric_scooter", "fusion_lat": 0.0, "bike_id": "d682ecc51462771b418d8d008a17150f"}, {"name": "70e79853b826482417b608ab1cc2b808", "is_reserved": 0, "is_disabled": 0, "lon": -77.02775783333334, "rental_uris": {"android": "https://dc.lft.to/lastmile_qr_scan", "ios": "https://dc.lft.to/lastmile_qr_scan"}, "fusion_lon": 0.0, "lat": 38.892224, "type": "electric_scooter", "fusion_lat": 0.0, "bike_id": "70e79853b826482417b608ab1cc2b808"}, {"name": "a84f4dd6d50a26b0e5912094aa4c3e5b", "is_reserved": 0, "is_disabled": 0, "lon": -77.02605133333333, "rental_uris": {"android": "https://dc.lft.to/lastmile_qr_scan", "ios": "https://dc.lft.to/lastmile_qr_scan"}, "fusion_lon": 0.0, "lat": 38.916182666666664, "type": "electric_scooter", "fusion_lat": 0.0, "bike_id": "a84f4dd6d50a26b0e5912094aa4c3e5b"}, {"name": "929aae48907206a438def84ed14b574e", "is_reserved": 0, "is_disabled": 0, "lon": -77.04625, "rental_uris": {"android": "https://dc.lft.to/lastmile_qr_scan", "ios": "https://dc.lft.to/lastmile_qr_scan"}, "fusion_lon": 0.0, "lat": 38.90556866666667, "type": "electric_scooter", "fusion_lat": 0.0, "bike_id": "929aae48907206a438def84ed14b574e"}, {"name": "0c8f2157d1b8439ff463a6936d7b8db0", "is_reserved": 0, "is_disabled": 0, "lon": -77.03214933333334, "rental_uris": {"android": "https://dc.lft.to/lastmile_qr_scan", "ios": "https://dc.lft.to/lastmile_qr_scan"}, "fusion_lon": 0.0, "lat": 38.914286833333335, "type": "electric_scooter", "fusion_lat": 0.0, "bike_id": "0c8f2157d1b8439ff463a6936d7b8db0"}, {"name": "d42e17a21b9b6e5d913a8bb82bc98da9", "is_reserved": 0, "is_disabled": 0, "lon": -77.02753316666667, "rental_uris": {"android": "https://dc.lft.to/lastmile_qr_scan", "ios": "https://dc.lft.to/lastmile_qr_scan"},