{"data": {"bikes": [{"lat": 38.905775, "is_disabled": 0, "type": "electric_scooter", "lon": -77.02987716666667, "bike_id": "ef48efdf348b8e9b47921ae17ad27edf", "fusion_lat": 0.0, "name": "ef48efdf348b8e9b47921ae17ad27edf", "is_reserved": 0, "rental_uris": {"android": "https://dc.lft.to/lastmile_qr_scan", "ios": "https://dc.lft.to/lastmile_qr_scan"}, "fusion_lon": 0.0}, {"lat": 38.9105355, "is_disabled": 0, "type": "electric_scooter", "lon": -77.05579683333333, "bike_id": "761827de38c10eefae05b2a52387807e", "fusion_lat": 0.0, "name": "761827de38c10eefae05b2a52387807e", "is_reserved": 0, "rental_uris": {"android": "https://dc.lft.to/lastmile_qr_scan", "ios": "https://dc.lft.to/lastmile_qr_scan"}, "fusion_lon": 0.0}, {"lat": 38.900997833333335, "is_disabled": 0, "type": "electric_scooter", "lon": -76.984841, "bike_id": "96b703f7720d1e96b2eedf1aaa7afb00", "fusion_lat": 0.0, "name": "96b703f7720d1e96b2eedf1aaa7afb00", "is_reserved": 0, "rental_uris": {"android": "https://dc.lft.to/lastmile_qr_scan", "ios": "https://dc.lft.to/lastmile_qr_scan"}, "fusion_lon": 0.0}, {"lat": 38.9086055, "is_disabled": 0, "type": "electric_scooter", "lon": -77.04589166666666, "bike_id": "6e9e893fe5aac393a0065ab9a0ea4c89", "fusion_lat": 0.0, "name": "6e9e893fe5aac393a0065ab9a0ea4c89", "is_reserved": 0, "rental_uris": {"android": "https://dc.lft.to/lastmile_qr_scan", "ios": "https://dc.lft.to/lastmile_qr_scan"}, "fusion_lon": 0.0}, {"lat": 38.9082855, "is_disabled": 0, "type": "electric_scooter", "lon": -77.01798533333333, "bike_id": "e759b468a8cb8c0aa2a93e1de7af0fd9", "fusion_lat": 0.0, "name": "e759b468a8cb8c0aa2a93e1de7af0fd9", "is_reserved": 0, "rental_uris": {"android": "https://dc.lft.to/lastmile_qr_scan", "ios": "https://dc.lft.to/lastmile_qr_scan"}, "fusion_lon": 0.0}, {"lat": 38.9182385, "is_disabled": 0, "type": "electric_scooter", "lon": -77.03165316666667, "bike_id": "d329e8d37991f7d600e2ae8d66d8009c", "fusion_lat": 0.0, "name": "d329e8d37991f7d600e2ae8d66d8009c", "is_reserved": 0, "rental_uris": {"android": "https://dc.lft.to/lastmile_qr_scan", "ios": "https://dc.lft.to/lastmile_qr_scan"}, "fusion_lon": 0.0}, {"lat": 38.836763, "is_disabled": 0, "type": "electric_scooter", "lon": -77.00571533333333, "bike_id": "97bde2cd9267e774404f92abe690b051", "fusion_lat": 0.0, "name": "97bde2cd9267e774404f92abe690b051", "is_reserved": 0, "rental_uris": {"android": "https://dc.lft.to/lastmile_qr_scan", "ios": "https://dc.lft.to/lastmile_qr_scan"}, "fusion_lon": 0.0}, {"lat": 38.91556933333333, "is_disabled": 0, "type": "electric_scooter", "lon": -77.02052416666666, "bike_id": "67bb088eff3640b15e7bad4537456cdc", "fusion_lat": 0.0, "name": "67bb088eff3640b15e7bad4537456cdc", "is_reserved": 0, "rental_uris": {"android": "https://dc.lft.to/lastmile_qr_scan", "ios": "https://dc.lft.to/lastmile_qr_scan"}, "fusion_lon": 0.0}, {"lat": 38.912563166666665, "is_disabled": 0, "type": "electric_scooter", "lon": -77.02213633333334, "bike_id": "1f524d2c5cfb5a375525f03f39771d9c", "fusion_lat": 0.0, "name": "1f524d2c5cfb5a375525f03f39771d9c", "is_reserved": 0, "rental_uris": {"android": "https://dc.lft.to/lastmile_qr_scan", "ios": "https://dc.lft.to/lastmile_qr_scan"}, "fusion_lon": 0.0}, {"lat": 38.90057266666667, "is_disabled": 0, "type": "electric_scooter", "lon": -77.00207083333333, "bike_id": "e894aa65ccedc659e9fb2f89ccdc4885", "fusion_lat": 0.0, "name": "e894aa65ccedc659e9fb2f89ccdc4885", "is_reserved": 0, "rental_uris": {"android": "https://dc.lft.to/lastmile_qr_scan", "ios": "https://dc.lft.to/lastmile_qr_scan"}, "fusion_lon": 0.0}, {"lat": 38.902385, "is_disabled": 0, "type": "electric_scooter", "lon": -77.00197983333334, "bike_id": "283d718a5311c37ae8135aa6eb50a3b5", "fusion_lat": 0.0, "name": "283d718a5311c37ae8135aa6eb50a3b5", "is_reserved": 0, "rental_uris": {"android": "https://dc.lft.to/lastmile_qr_scan", "ios": "https://dc.lft.to/lastmile_qr_scan"}, "fusion_lon": 0.0}, {"lat": 38.895525666666664, "is_disabled": 0, "type": "electric_scooter", "lon": -77.0091575, "bike_id": "a0ef28c5b756eb4f16668ff69e8ff040", "fusion_lat": 0.0, "name": "a0ef28c5b756eb4f16668ff69e8ff040", "is_reserved": 0, "rental_uris": {"android": "https://dc.lft.to/lastmile_qr_scan", "ios": "https://dc.lft.to/lastmile_qr_scan"}, "fusion_lon": 0.0}, {"lat": 38.92578116666667, "is_disabled": 0, "type": "electric_scooter", "lon": -77.02833416666667, "bike_id": "0961d1e4a1547aa5a34fdc793b5feb32", "fusion_lat": 0.0, "name": "0961d1e4a1547aa5a34fdc793b5feb32", "is_reserved": 0, "rental_uris": {"android": "https://dc.lft.to/lastmile_qr_scan", "ios": "https://dc.lft.to/lastmile_qr_scan"}, "fusion_lon": 0.0}, {"lat": 38.93262033333333, "is_disabled": 0, "type": "electric_scooter", "lon": -77.03461483333334, "bike_id": "6e00ee4667d7ffeb907d69d2438ea4f5", "fusion_lat": 0.0, "name": "6e00ee4667d7ffeb907d69d2438ea4f5", "is_reserved": 0, "rental_uris": {"android": "https://dc.lft.to/lastmile_qr_scan", "ios": "https://dc.lft.to/lastmile_qr_scan"}, "fusion_lon": 0.0}, {"lat": 38.921572166666664, "is_disabled": 0, "type": "electric_scooter", "lon": -77.03514383333334, "bike_id": "e010892a7ca4125a54e3ae58713ead80", "fusion_lat": 0.0, "name": "e010892a7ca4125a54e3ae58713ead80", "is_reserved": 0, "rental_uris": {"android": "https://dc.lft.to/lastmile_qr_scan", "ios": "https://dc.lft.to/lastmile_qr_scan"}, "fusion_lon": 0.0}, {"lat": 38.9302435, "is_disabled": 0, "type": "electric_scooter", "lon": -77.04449133333334, "bike_id": "2e27313672daace087a735f5e155018d", "fusion_lat": 0.0, "name": "2e27313672daace087a735f5e155018d", "is_reserved": 0, "rental_uris": {"android": "https://dc.lft.to/lastmile_qr_scan", "ios": "https://dc.lft.to/lastmile_qr_scan"}, "fusion_lon": 0.0}, {"lat": 38.91407733333333, "is_disabled": 0, "type": "electric_scooter", "lon": -77.03159066666667, "bike_id": "3d6d58d2cffdf861e7947b56be1b81f1", "fusion_lat": 0.0, "name": "3d6d58d2cffdf861e7947b56be1b81f1", "is_reserved": 0, "rental_uris": {"android": "https://dc.lft.to/lastmile_qr_scan", "ios": "https://dc.lft.to/lastmile_qr_scan"}, "fusion_lon": 0.0}, {"lat": 38.9435195, "is_disabled": 0, "type": "electric_scooter", "lon": -77.00216733333333, "bike_id": "5e91125473c8e948385f0b0c8539b3b8", "fusion_lat": 0.0, "name": "5e91125473c8e948385f0b0c8539b3b8", "is_reserved": 0, "rental_uris": {"android": "https://dc.lft.to/lastmile_qr_scan", "ios": "https://dc.lft.to/lastmile_qr_scan"}, "fusion_lon": 0.0}, {"lat": 38.8971275, "is_disabled": 0, "type": "electric_scooter", "lon": -77.00839866666666, "bike_id": "38a96e4adf35d50723c53aacb95d42cb", "fusion_lat": 0.0, "name": "38a96e4adf35d50723c53aacb95d42cb", "is_reserved": 0, "rental_uris": {"android": "https://dc.lft.to/lastmile_qr_scan", "ios": "https://dc.lft.to/lastmile_qr_scan"}, "fusion_lon": 0.0}, {"lat": 38.897134, "is_disabled": 0, "type": "electric_scooter", "lon": -77.0489735, "bike_id": "ff80a861a28aefe477707116ee6db73d", "fusion_lat": 0.0, "name": "ff80a861a28aefe477707116ee6db73d", "is_reserved": 0, "rental_uris": {"android": "https://dc.lft.to/lastmile_qr_scan", "ios": "https://dc.lft.to/lastmile_qr_scan"}, "fusion_lon": 0.0}, {"lat": 38.91918166666667, "is_disabled": 0, "type": "electric_scooter", "lon": -77.03180916666666, "bike_id": "21cbf06de7efafd4cd4e2f277c374d42", "fusion_lat": 0.0, "name": "21cbf06de7efafd4cd4e2f277c374d42", "is_reserved": 0, "rental_uris": {"android": "https://dc.lft.to/lastmile_qr_scan", "ios": "https://dc.lft.to/lastmile_qr_scan"}, "fusion_lon": 0.0}, {"lat": 38.899088166666665, "is_disabled": 0, "type": "electric_scooter", "lon": -76.933472, "bike_id": "ef0b715d6265562bc92c326fdeb26abc", "fusion_lat": 0.0, "name": "ef0b715d6265562bc92c326fdeb26abc", "is_reserved": 0, "rental_uris": {"android": "https://dc.lft.to/lastmile_qr_scan", "ios": "https://dc.lft.to/lastmile_qr_scan"}, "fusion_lon": 0.0}, {"lat": 38.922529833333336, "is_disabled": 0, "type": "electric_scooter", "lon": -77.0313915, "bike_id": "0d224601c38355e93d7b0789365b9c3b", "fusion_lat": 0.0, "name": "0d224601c38355e93d7b0789365b9c3b", "is_reserved": 0, "rental_uris": {"android": "https://dc.lft.to/lastmile_qr_scan", "ios": "https://dc.lft.to/lastmile_qr_scan"}, "fusion_lon": 0.0}, {"lat": 38.911970833333335, "is_disabled": 0, "type": "electric_scooter", "lon": -77.01086533333333, "bike_id": "75b6043abff49fda5e2bb031e24386a3", "fusion_lat": 0.0, "name": "75b6043abff49fda5e2bb031e24386a3", "is_reserved": 0, "rental_uris": {"android": "https://dc.lft.to/lastmile_qr_scan", "ios": "https://dc.lft.to/lastmile_qr_scan"}, "fusion_lon": 0.0}, {"lat": 39.004811833333335, "is_disabled": 0, "type": "electric_bike", "lon": -76.90132583333333, "bike_id": "8330a967e84220921caf91e1d0a2a50e", "fusion_lat": 0.0, "name": "8330a967e84220921caf91e1d0a2a50e", "is_reserved": 0, "rental_uris": {"android": "https://dc.lft.to/lastmile_qr_scan", "ios": "https://dc.lft.to/lastmile_qr_scan"}, "fusion_lon": 0.0}, {"lat": 38.90072983333334, "is_disabled": 0, "type": "electric_scooter", "lon": -77.00200533333333, "bike_id": "68745e84a74d18ce71eb04d492412fb2", "fusion_lat": 0.0, "name": "68745e84a74d18ce71eb04d492412fb2", "is_reserved": 0, "rental_uris": {"android": "https://dc.lft.to/lastmile_qr_scan", "ios": "https://dc.lft.to/lastmile_qr_scan"}, "fusion_lon": 0.0}, {"lat": 38.892253333333336, "is_disabled": 0, "type": "electric_scooter", "lon": -77.03165, "bike_id": "f8af8273c3213f18fe522f6d177825b0", "fusion_lat": 0.0, "name": "f8af8273c3213f18fe522f6d177825b0", "is_reserved": 0, "rental_uris": {"android": "https://dc.lft.to/lastmile_qr_scan", "ios": "https://dc.lft.to/lastmile_qr_scan"}, "fusion_lon": 0.0}, {"lat": 38.93158916666667, "is_disabled": 0, "type": "electric_scooter", "lon": -77.03631316666667, "bike_id": "e27718cc15f6b9f44087259bd2d5a48a", "fusion_lat": 0.0, "name": "e27718cc15f6b9f44087259bd2d5a48a", "is_reserved": 0, "rental_uris": {"android": "https://dc.lft.to/lastmile_qr_scan", "ios": "https://dc.lft.to/lastmile_qr_scan"}, "fusion_lon": 0.0}, {"lat": 38.8287565, "is_disabled": 0, "type": "electric_bike", "lon": -77.11221433333333, "bike_id": "e06537e40317b96d9b0d21b9372f6553", "fusion_lat": 0.0, "name": "e06537e40317b96d9b0d21b9372f6553", "is_reserved": 0, "rental_uris": {"android": "https://dc.lft.to/lastmile_qr_scan", "ios": "https://dc.lft.to/lastmile_qr_scan"}, "fusion_lon": 0.0}, {"lat": 38.93021983333333, "is_disabled": 0, "type": "electric_scooter", "lon": -77.044562, "bike_id": "b4703b2990f81a482cd40de03b7841af", "fusion_lat": 0.0, "name": "b4703b2990f81a482cd40de03b7841af", "is_reserved": 0, "rental_uris": {"android": "https://dc.lft.to/lastmile_qr_scan", "ios": "https://dc.lft.to/lastmile_qr_scan"}, "fusion_lon": 0.0}, {"lat": 38.9099155, "is_disabled": 0, "type": "electric_scooter", "lon": -76.99738433333333, "bike_id": "3b8005001f680d08bbac393e0d33fa86", "fusion_lat": 0.0, "name": "3b8005001f680d08bbac393e0d33fa86", "is_reserved": 0, "rental_uris": {"android": "https://dc.lft.to/lastmile_qr_scan", "ios": "https://dc.lft.to/lastmile_qr_scan"}, "fusion_lon": 0.0}, {"lat": 38.935983, "is_disabled": 0, "type": "electric_scooter", "lon": -77.03656266666667, "bike_id": "c100458691bbb6e5c97d375673325bc9", "fusion_lat": 0.0, "name": "c100458691bbb6e5c97d375673325bc9", "is_reserved": 0, "rental_uris": {"android": "https://dc.lft.to/lastmile_qr_scan", "ios": "https://dc.lft.to/lastmile_qr_scan"}, "fusion_lon": 0.0}, {"lat": 38.9025, "is_disabled": 0, "type": "electric_scooter", "lon": -77.0179105, "bike_id": "346e216b5a6689139682be863c8fb399", "fusion_lat": 0.0, "name": "346e216b5a6689139682be863c8fb399", "is_reserved": 0, "rental_uris": {"android": "https://dc.lft.to/lastmile_qr_scan", "ios": "https://dc.lft.to/lastmile_qr_scan"}, "fusion_lon": 0.0}, {"lat": 38.923932, "is_disabled": 0, "type": "electric_scooter", "lon": -77.03226933333333, "bike_id": "50479d511cdf8d437dc9aa2e639f886c", "fusion_lat": 0.0, "name": "50479d511cdf8d437dc9aa2e639f886c", "is_reserved": 0, "rental_uris": {"android": "https://dc.lft.to/lastmile_qr_scan", "ios": "https://dc.lft.to/lastmile_qr_scan"}, "fusion_lon": 0.0}, {"lat": 38.8996805, "is_disabled": 0, "type": "electric_scooter", "lon": -77.05180616666667, "bike_id": "e48d8694e3d879d5a930b5a90d4c223f", "fusion_lat": 0.0, "name": "e48d8694e3d879d5a930b5a90d4c223f", "is_reserved": 0, "rental_uris": {"android": "https://dc.lft.to/lastmile_qr_scan", "ios": "https://dc.lft.to/lastmile_qr_scan"}, "fusion_lon": 0.0}, {"lat": 38.985076, "is_disabled": 0, "type": "electric_bike", "lon": -76.98206416666666, "bike_id": "c03cb557dcc7b374aad5b4c5a0e2a403", "fusion_lat": 0.0, "name": "c03cb557dcc7b374aad5b4c5a0e2a403", "is_reserved": 0, "rental_uris": {"android": "https://dc.lft.to/lastmile_qr_scan", "ios": "https://dc.lft.to/lastmile_qr_scan"}, "fusion_lon": 0.0}, {"lat": 38.9199015, "is_disabled": 0, "type": "electric_scooter", "lon": -77.02526166666667, "bike_id": "9e31438756354586777566801da05864", "fusion_lat": 0.0, "name": "9e31438756354586777566801da05864", "is_reserved": 0, "rental_uris": {"android": "https://dc.lft.to/lastmile_qr_scan", "ios": "https://dc.lft.to/lastmile_qr_scan"}, "fusion_lon": 0.0}, {"lat": 38.89221833333333, "is_disabled": 0, "type": "electric_scooter", "lon": -77.02211616666666, "bike_id": "fabce27577cda58d79b4f925ada22324", "fusion_lat": 0.0, "name": "fabce27577cda58d79b4f925ada22324", "is_reserved": 0, "rental_uris": {"android": "https://dc.lft.to/lastmile_qr_scan", "ios": "https://dc.lft.to/lastmile_qr_scan"}, "fusion_lon": 0.0}, {"lat": 38.916710333333334, "is_disabled": 0, "type": "electric_scooter", "lon": -77.02282733333334, "bike_id": "0d1deebb85ae28d746f18455e574fd6f", "fusion_lat": 0.0, "name": "0d1deebb85ae28d746f18455e574fd6f", "is_reserved": 0, "rental_uris": {"android": "https://dc.lft.to/lastmile_qr_scan", "ios": "https://dc.lft.to/lastmile_qr_scan"}, "fusion_lon": 0.0}, {"lat": 38.9099055, "is_disabled": 0, "type": "electric_scooter", "lon": -77.04156, "bike_id": "f2d138264eceb33cb557705f9248f128", "fusion_lat": 0.0, "name": "f2d138264eceb33cb557705f9248f128", "is_reserved": 0, "rental_uris": {"android": "https://dc.lft.to/lastmile_qr_scan", "ios": "https://dc.lft.to/lastmile_qr_scan"}, "fusion_lon": 0.0}, {"lat": 38.805774166666666, "is_disabled": 0, "type": "electric_bike", "lon": -77.06861183333334, "bike_id": "0cb256e8420c0965c5dcb8ca8a65e14e", "fusion_lat": 0.0, "name": "0cb256e8420c0965c5dcb8ca8a65e14e", "is_reserved": 0, "rental_uris": {"android": "https://dc.lft.to/lastmile_qr_scan", "ios": "https://dc.lft.to/lastmile_qr_scan"}, "fusion_lon": 0.0}, {"lat": 38.90249433333334, "is_disabled": 0, "type": "electric_scooter", "lon": -77.02643283333333, "bike_id": "0e9d7d9b5f7f0ee233c8c6f9a827771e", "fusion_lat": 0.0, "name": "0e9d7d9b5f7f0ee233c8c6f9a827771e", "is_reserved": 0, "rental_uris": {"android": "https://dc.lft.to/lastmile_qr_scan", "ios": "https://dc.lft.to/lastmile_qr_scan"}, "fusion_lon": 0.0}, {"lat": 38.8883165, "is_disabled": 0, "type": "electric_scooter", "lon": -76.99413383333334, "bike_id": "c9c8894d7a3bf5d66ff8d54da3422afa", "fusion_lat": 0.0, "name": "c9c8894d7a3bf5d66ff8d54da3422afa", "is_reserved": 0, "rental_uris": {"android": "https://dc.lft.to/lastmile_qr_scan", "ios": "https://dc.lft.to/lastmile_qr_scan"}, "fusion_lon": 0.0}, {"lat": 38.9095905, "is_disabled": 0, "type": "electric_scooter", "lon": -77.03834766666667, "bike_id": "861b6eefb289dffd2ff7f2502e1407b3", "fusion_lat": 0.0, "name": "861b6eefb289dffd2ff7f2502e1407b3", "is_reserved": 0, "rental_uris": {"android": "https://dc.lft.to/lastmile_qr_scan", "ios": "https://dc.lft.to/lastmile_qr_scan"}, "fusion_lon": 0.0}, {"lat": 38.92131933333334, "is_disabled": 0, "type": "electric_scooter", "lon": -77.0117025, "bike_id": "422b50ffbb5d5bfe56ecd97b34ff7ace", "fusion_lat": 0.0, "name": "422b50ffbb5d5bfe56ecd97b34ff7ace", "is_reserved": 0, "rental_uris": {"android": "https://dc.lft.to/lastmile_qr_scan", "ios": "https://dc.lft.to/lastmile_qr_scan"}, "fusion_lon": 0.0}, {"lat": 38.98273366666667, "is_disabled": 0, "type": "electric_bike", "lon": -77.01777966666667, "bike_id": "9b70fb54c5d8b78ba462273d4f95a88e", "fusion_lat": 0.0, "name": "9b70fb54c5d8b78ba462273d4f95a88e", "is_reserved": 0, "rental_uris": {"android": "https://dc.lft.to/lastmile_qr_scan", "ios": "https://dc.lft.to/lastmile_qr_scan"}, "fusion_lon": 0.0}, {"lat": 38.917493, "is_disabled": 0, "type": "electric_scooter", "lon": -77.03209066666666, "bike_id": "9c4a015002fb968274d6d316f90f4ad8", "fusion_lat": 0.0, "name": "9c4a015002fb968274d6d316f90f4ad8", "is_reserved": 0, "rental_uris": {"android": "https://dc.lft.to/lastmile_qr_scan", "ios": "https://dc.lft.to/lastmile_qr_scan"}, "fusion_lon": 0.0}, {"lat": 38.90104816666667, "is_disabled": 0, "type": "electric_bike", "lon": -77.04877616666667, "bike_id": "f4d2228f834fa8bf53c6dc7004084fa4", "fusion_lat": 0.0, "name": "f4d2228f834fa8bf53c6dc7004084fa4", "is_reserved": 0, "rental_uris": {"android": "https://dc.lft.to/lastmile_qr_scan", "ios": "https://dc.lft.to/lastmile_qr_scan"}, "fusion_lon": 0.0}, {"lat": 38.91817783333333, "is_disabled": 0, "type": "electric_scooter", "lon": -77.02487766666667, "bike_id": "f1dcd620107d16ed0ecc4b39ffa5596a", "fusion_lat": 0.0, "name": "f1dcd620107d16ed0ecc4b39ffa5596a", "is_reserved": 0, "rental_uris": {"android": "https://dc.lft.to/lastmile_qr_scan", "ios": "https://dc.lft.to/lastmile_qr_scan"}, "fusion_lon": 0.0}, {"lat": 38.96611016666667, "is_disabled": 0, "type": "electric_scooter", "lon": -77.02056183333333, "bike_id": "25f24772f50fbed035ba86ba7da22491", "fusion_lat": 0.0, "name": "25f24772f50fbed035ba86ba7da22491", "is_reserved": 0, "rental_uris": {"android": "https://dc.lft.to/lastmile_qr_scan", "ios": "https://dc.lft.to/lastmile_qr_scan"}, "fusion_lon": 0.0}, {"lat": 38.89629983333333, "is_disabled": 0, "type": "electric_scooter", "lon": -77.03169066666666, "bike_id": "0581cbeda12ec4a75ddf071ad5c78b00", "fusion_lat": 0.0, "name": "0581cbeda12ec4a75ddf071ad5c78b00", "is_reserved": 0, "rental_uris": {"android": "https://dc.lft.to/lastmile_qr_scan", "ios": "https://dc.lft.to/lastmile_qr_scan"}, "fusion_lon": 0.0}, {"lat": 38.905073333333334, "is_disabled": 0, "type": "electric_scooter", "lon": -77.02947633333333, "bike_id": "f14a035a99de66590115661f15d27b5d", "fusion_lat": 0.0, "name": "f14a035a99de66590115661f15d27b5d", "is_reserved": 0, "rental_uris": {"android": "https://dc.lft.to/lastmile_qr_scan", "ios": "https://dc.lft.to/lastmile_qr_scan"}, "fusion_lon": 0.0}, {"lat": 38.89631883333333, "is_disabled": 0, "type": "electric_scooter", "lon": -77.031683, "bike_id": "575e38c970aa8be25ae8314c9b7109dd", "fusion_lat": 0.0, "name": "575e38c970aa8be25ae8314c9b7109dd", "is_reserved": 0, "rental_uris": {"android": "https://dc.lft.to/lastmile_qr_scan", "ios": "https://dc.lft.to/lastmile_qr_scan"}, "fusion_lon": 0.0}, {"lat": 38.9207945, "is_disabled": 0, "type": "electric_scooter", "lon": -77.0251645, "bike_id": "df5485f8f778c0a547b99d34e20ed598", "fusion_lat": 0.0, "name": "df5485f8f778c0a547b99d34e20ed598", "is_reserved": 0, "rental_uris": {"android": "https://dc.lft.to/lastmile_qr_scan", "ios": "https://dc.lft.to/lastmile_qr_scan"}, "fusion_lon": 0.0}, {"lat": 38.917581166666665, "is_disabled": 0, "type": "electric_scooter", "lon": -77.01161266666666, "bike_id": "1ae704366895229ef61ee38f331fe641", "fusion_lat": 0.0, "name": "1ae704366895229ef61ee38f331fe641", "is_reserved": 0, "rental_uris": {"android": "https://dc.lft.to/lastmile_qr_scan", "ios": "https://dc.lft.to/lastmile_qr_scan"}, "fusion_lon": 0.0}, {"lat": 38.901476333333335, "is_disabled": 0, "type": "electric_scooter", "lon": -77.03271066666667, "bike_id": "66499cebaa0ab0438567e0f9fbbc94a4", "fusion_lat": 0.0, "name": "66499cebaa0ab0438567e0f9fbbc94a4", "is_reserved": 0, "rental_uris": {"android": "https://dc.lft.to/lastmile_qr_scan", "ios": "https://dc.lft.to/lastmile_qr_scan"}, "fusion_lon": 0.0}, {"lat": 38.90724183333333, "is_disabled": 0, "type": "electric_scooter", "lon": -77.02980366666667, "bike_id": "647eb02b42f1246ab7857ece7b9dcb86", "fusion_lat": 0.0, "name": "647eb02b42f1246ab7857ece7b9dcb86", "is_reserved": 0, "rental_uris": {"android": "https://dc.lft.to/lastmile_qr_scan", "ios": "https://dc.lft.to/lastmile_qr_scan"}, "fusion_lon": 0.0}, {"lat": 38.90730516666667, "is_disabled": 0, "type": "electric_bike", "lon": -77.0106645, "bike_id": "a50417a8df0f982885a2bbdbf819dc1d", "fusion_lat": 0.0, "name": "a50417a8df0f982885a2bbdbf819dc1d", "is_reserved": 0, "rental_uris": {"android": "https://dc.lft.to/lastmile_qr_scan", "ios": "https://dc.lft.to/lastmile_qr_scan"}, "fusion_lon": 0.0}, {"lat": 38.861046, "is_disabled": 0, "type": "electric_scooter", "lon": -76.98884066666666, "bike_id": "84ca7b2f1b94f31bcff0b1dfad9e00d7", "fusion_lat": 0.0, "name": "84ca7b2f1b94f31bcff0b1dfad9e00d7", "is_reserved": 0, "rental_uris": {"android": "https://dc.lft.to/lastmile_qr_scan", "ios": "https://dc.lft.to/lastmile_qr_scan"}, "fusion_lon": 0.0}, {"lat": 38.9196325, "is_disabled": 0, "type": "electric_scooter", "lon": -77.014374, "bike_id": "f182d10a7847c056757093184441107e", "fusion_lat": 0.0, "name": "f182d10a7847c056757093184441107e", "is_reserved": 0, "rental_uris": {"android": "https://dc.lft.to/lastmile_qr_scan", "ios": "https://dc.lft.to/lastmile_qr_scan"}, "fusion_lon": 0.0}, {"lat": 38.90628233333333, "is_disabled": 0, "type": "electric_bike", "lon": -76.98604733333333, "bike_id": "834b21031943503110239d1258fe01a7", "fusion_lat": 0.0, "name": "834b21031943503110239d1258fe01a7", "is_reserved": 0, "rental_uris": {"android": "https://dc.lft.to/lastmile_qr_scan", "ios": "https://dc.lft.to/lastmile_qr_scan"}, "fusion_lon": 0.0}, {"lat": 38.886805, "is_disabled": 0, "type": "electric_bike", "lon": -77.16236166666667, "bike_id": "5a880757f00a267ec0fef1be9bc6dbd4", "fusion_lat": 0.0, "name": "5a880757f00a267ec0fef1be9bc6dbd4", "is_reserved": 0, "rental_uris": {"android": "https://dc.lft.to/lastmile_qr_scan", "ios": "https://dc.lft.to/lastmile_qr_scan"}, "fusion_lon": 0.0}, {"lat": 38.9041095, "is_disabled": 0, "type": "electric_scooter", "lon": -77.0507495, "bike_id": "afaceb47153b865532c4c75d758e5b14", "fusion_lat": 0.0, "name": "afaceb47153b865532c4c75d758e5b14", "is_reserved": 0, "rental_uris": {"android": "https://dc.lft.to/lastmile_qr_scan", "ios": "https://dc.lft.to/lastmile_qr_scan"}, "fusion_lon": 0.0}, {"lat": 38.87721883333333, "is_disabled": 0, "type": "electric_scooter", "lon": -77.01764416666667, "bike_id": "eafe9f2d3bc28a7a3a7627f7f5726304", "fusion_lat": 0.0, "name": "eafe9f2d3bc28a7a3a7627f7f5726304", "is_reserved": 0, "rental_uris": {"android": "https://dc.lft.to/lastmile_qr_scan", "ios": "https://dc.lft.to/lastmile_qr_scan"}, "fusion_lon": 0.0}, {"lat": 38.9039505, "is_disabled": 0, "type": "electric_scooter", "lon": -76.990075, "bike_id": "e16118f4bd32c1f20684f6be9d15367b", "fusion_lat": 0.0, "name": "e16118f4bd32c1f20684f6be9d15367b", "is_reserved": 0, "rental_uris": {"android": "https://dc.lft.to/lastmile_qr_scan", "ios": "https://dc.lft.to/lastmile_qr_scan"}, "fusion_lon": 0.0}, {"lat": 38.885511666666666, "is_disabled": 0, "type": "electric_bike", "lon": -77.11786583333334, "bike_id": "0fddcfbca3eee8b03d419a99c090e204", "fusion_lat": 0.0, "name": "0fddcfbca3eee8b03d419a99c090e204", "is_reserved": 0, "rental_uris": {"android": "https://dc.lft.to/lastmile_qr_scan", "ios": "https://dc.lft.to/lastmile_qr_scan"}, "fusion_lon": 0.0}, {"lat": 38.948236, "is_disabled": 0, "type": "electric_scooter", "lon": -76.99904016666666, "bike_id": "015df3a1e389e68984c115a95d6e2b27", "fusion_lat": 0.0, "name": "015df3a1e389e68984c115a95d6e2b27", "is_reserved": 0, "rental_uris": {"android": "https://dc.lft.to/lastmile_qr_scan", "ios": "https://dc.lft.to/lastmile_qr_scan"}, "fusion_lon": 0.0}, {"lat": 38.88598916666667, "is_disabled": 0, "type": "electric_scooter", "lon": -77.01892716666667, "bike_id": "597d4bed46ea37e1983dc68dcf4183f6", "fusion_lat": 0.0, "name": "597d4bed46ea37e1983dc68dcf4183f6", "is_reserved": 0, "rental_uris": {"android": "https://dc.lft.to/lastmile_qr_scan", "ios": "https://dc.lft.to/lastmile_qr_scan"}, "fusion_lon": 0.0}, {"lat": 38.91715833333333, "is_disabled": 0, "type": "electric_scooter", "lon": -76.97928, "bike_id": "aba39b3b051bcb6c699eae7e5b601c09", "fusion_lat": 0.0, "name": "aba39b3b051bcb6c699eae7e5b601c09", "is_reserved": 0, "rental_uris": {"android": "https://dc.lft.to/lastmile_qr_scan", "ios": "https://dc.lft.to/lastmile_qr_scan"}, "fusion_lon": 0.0}, {"lat": 38.922089, "is_disabled": 0, "type": "electric_bike", "lon": -77.0818525, "bike_id": "f1cb07f823504f535814f0461b2f793d", "fusion_lat": 0.0, "name": "f1cb07f823504f535814f0461b2f793d", "is_reserved": 0, "rental_uris": {"android": "https://dc.lft.to/lastmile_qr_scan", "ios": "https://dc.lft.to/lastmile_qr_scan"}, "fusion_lon": 0.0}, {"lat": 38.90825983333333, "is_disabled": 0, "type": "electric_scooter", "lon": -77.020096, "bike_id": "8828fd06dfa2c641c0ecdf5c39a04266", "fusion_lat": 0.0, "name": "8828fd06dfa2c641c0ecdf5c39a04266", "is_reserved": 0, "rental_uris": {"android": "https://dc.lft.to/lastmile_qr_scan", "ios": "https://dc.lft.to/lastmile_qr_scan"}, "fusion_lon": 0.0}, {"lat": 38.91596233333333, "is_disabled": 0, "type": "electric_scooter", "lon": -77.015845, "bike_id": "50e9250a8302f1b193235a4e5e25d050", "fusion_lat": 0.0, "name": "50e9250a8302f1b193235a4e5e25d050", "is_reserved": 0, "rental_uris": {"android": "https://dc.lft.to/lastmile_qr_scan", "ios": "https://dc.lft.to/lastmile_qr_scan"}, "fusion_lon": 0.0}, {"lat": 38.892213, "is_disabled": 0, "type": "electric_scooter", "lon": -77.0262495, "bike_id": "eb9c633ffd62ab191c609b81020a7844", "fusion_lat": 0.0, "name": "eb9c633ffd62ab191c609b81020a7844", "is_reserved": 0, "rental_uris": {"android": "https://dc.lft.to/lastmile_qr_scan", "ios": "https://dc.lft.to/lastmile_qr_scan"}, "fusion_lon": 0.0}, {"lat": 38.917618166666664, "is_disabled": 0, "type": "electric_scooter", "lon": -77.00450766666667, "bike_id": "d18ba9dc4d88431309cd2cfd5b9c6f09", "fusion_lat": 0.0, "name": "d18ba9dc4d88431309cd2cfd5b9c6f09", "is_reserved": 0, "rental_uris": {"android": "https://dc.lft.to/lastmile_qr_scan", "ios": "https://dc.lft.to/lastmile_qr_scan"}, "fusion_lon": 0.0}, {"lat": 38.89219, "is_disabled": 0, "type": "electric_scooter", "lon": -77.02626716666667, "bike_id": "7fccacd59efc447cf02af452fc8e61c3", "fusion_lat": 0.0, "name": "7fccacd59efc447cf02af452fc8e61c3", "is_reserved": 0, "rental_uris": {"android": "https://dc.lft.to/lastmile_qr_scan", "ios": "https://dc.lft.to/lastmile_qr_scan"}, "fusion_lon": 0.0}, {"lat": 38.932287, "is_disabled": 0, "type": "electric_scooter", "lon": -77.0441005, "bike_id": "4fb7f29c288dabeb74bd170fa17f5317", "fusion_lat": 0.0, "name": "4fb7f29c288dabeb74bd170fa17f5317", "is_reserved": 0, "rental_uris": {"android": "https://dc.lft.to/lastmile_qr_scan", "ios": "https://dc.lft.to/lastmile_qr_scan"}, "fusion_lon": 0.0}, {"lat": 38.86600133333334, "is_disabled": 0, "type": "electric_bike", "lon": -76.932278, "bike_id": "bbf970785192f7363a25f09a6c9e04f9", "fusion_lat": 0.0, "name": "bbf970785192f7363a25f09a6c9e04f9", "is_reserved": 0, "rental_uris": {"android": "https://dc.lft.to/lastmile_qr_scan", "ios": "https://dc.lft.to/lastmile_qr_scan"}, "fusion_lon": 0.0}, {"lat": 38.852222166666664, "is_disabled": 0, "type": "electric_bike", "lon": -77.12963816666667, "bike_id": "99e38494ecb517f660f1ea589d03a85d", "fusion_lat": 0.0, "name": "99e38494ecb517f660f1ea589d03a85d", "is_reserved": 0, "rental_uris": {"android": "https://dc.lft.to/lastmile_qr_scan", "ios": "https://dc.lft.to/lastmile_qr_scan"}, "fusion_lon": 0.0}, {"lat": 38.885287, "is_disabled": 0, "type": "electric_scooter", "lon": -77.01512666666666, "bike_id": "96aa66e99751fa7055ab453007b2ac11", "fusion_lat": 0.0, "name": "96aa66e99751fa7055ab453007b2ac11", "is_reserved": 0, "rental_uris": {"android": "https://dc.lft.to/lastmile_qr_scan", "ios": "https://dc.lft.to/lastmile_qr_scan"}, "fusion_lon": 0.0}, {"lat": 38.820105833333336, "is_disabled": 0, "type": "electric_bike", "lon": -77.057635, "bike_id": "e971e7a78d9bfa1625c4978cc96858b7", "fusion_lat": 0.0, "name": "e971e7a78d9bfa1625c4978cc96858b7", "is_reserved": 0, "rental_uris": {"android": "https://dc.lft.to/lastmile_qr_scan", "ios": "https://dc.lft.to/lastmile_qr_scan"}, "fusion_lon": 0.0}, {"lat": 38.9056955, "is_disabled": 0, "type": "electric_scooter", "lon": -77.021775, "bike_id": "229c39a20c4837075d989cfafda6aacf", "fusion_lat": 0.0, "name": "229c39a20c4837075d989cfafda6aacf", "is_reserved": 0, "rental_uris": {"android": "https://dc.lft.to/lastmile_qr_scan", "ios": "https://dc.lft.to/lastmile_qr_scan"}, "fusion_lon": 0.0}, {"lat": 38.91921516666667, "is_disabled": 0, "type": "electric_scooter", "lon": -77.0318145, "bike_id": "db75d3cde5e60285f9db29e22241c036", "fusion_lat": 0.0, "name": "db75d3cde5e60285f9db29e22241c036", "is_reserved": 0, "rental_uris": {"android": "https://dc.lft.to/lastmile_qr_scan", "ios": "https://dc.lft.to/lastmile_qr_scan"}, "fusion_lon": 0.0}, {"lat": 38.924738833333336, "is_disabled": 0, "type": "electric_scooter", "lon": -77.0353205, "bike_id": "4170b477e8ecb8e62e1b7d463daaf0c5", "fusion_lat": 0.0, "name": "4170b477e8ecb8e62e1b7d463daaf0c5", "is_reserved": 0, "rental_uris": {"android": "https://dc.lft.to/lastmile_qr_scan", "ios": "https://dc.lft.to/lastmile_qr_scan"}, "fusion_lon": 0.0}, {"lat": 38.86520983333333, "is_disabled": 0, "type": "electric_scooter", "lon": -76.99031233333334, "bike_id": "a235c840af704718da2d2d1d6b82cab0", "fusion_lat": 0.0, "name": "a235c840af704718da2d2d1d6b82cab0", "is_reserved": 0, "rental_uris": {"android": "https://dc.lft.to/lastmile_qr_scan", "ios": "https://dc.lft.to/lastmile_qr_scan"}, "fusion_lon": 0.0}, {"lat": 38.91003516666667, "is_disabled": 0, "type": "electric_scooter", "lon": -77.040111, "bike_id": "2251a9ddc12154f55a24af7746db853a", "fusion_lat": 0.0, "name": "2251a9ddc12154f55a24af7746db853a", "is_reserved": 0, "rental_uris": {"android": "https://dc.lft.to/lastmile_qr_scan", "ios": "https://dc.lft.to/lastmile_qr_scan"}, "fusion_lon": 0.0}, {"lat": 38.914024166666664, "is_disabled": 0, "type": "electric_scooter", "lon": -77.03183983333334, "bike_id": "58b40b88ed4b18ccaec1bf46c3598fe6", "fusion_lat": 0.0, "name": "58b40b88ed4b18ccaec1bf46c3598fe6", "is_reserved": 0, "rental_uris": {"android": "https://dc.lft.to/lastmile_qr_scan", "ios": "https://dc.lft.to/lastmile_qr_scan"}, "fusion_lon": 0.0}, {"lat": 38.92170183333333, "is_disabled": 0, "type": "electric_scooter", "lon": -77.0401835, "bike_id": "e229ea581f3a1c2ea02ec4d5ca4219cc", "fusion_lat": 0.0, "name": "e229ea581f3a1c2ea02ec4d5ca4219cc", "is_reserved": 0, "rental_uris": {"android": "https://dc.lft.to/lastmile_qr_scan", "ios": "https://dc.lft.to/lastmile_qr_scan"}, "fusion_lon": 0.0}, {"lat": 38.89225733333333, "is_disabled": 0, "type": "electric_scooter", "lon": -77.048646, "bike_id": "ffe6deeaba2c7958b555fcd268a012aa", "fusion_lat": 0.0, "name": "ffe6deeaba2c7958b555fcd268a012aa", "is_reserved": 0, "rental_uris": {"android": "https://dc.lft.to/lastmile_qr_scan", "ios": "https://dc.lft.to/lastmile_qr_scan"}, "fusion_lon": 0.0}, {"lat": 38.957428166666666, "is_disabled": 0, "type": "electric_bike", "lon": -77.02172983333334, "bike_id": "0f3db74166e320e8249f20470a361232", "fusion_lat": 0.0, "name": "0f3db74166e320e8249f20470a361232", "is_reserved": 0, "rental_uris": {"android": "https://dc.lft.to/lastmile_qr_scan", "ios": "https://dc.lft.to/lastmile_qr_scan"}, "fusion_lon": 0.0}, {"lat": 38.867019666666664, "is_disabled": 0, "type": "electric_scooter", "lon": -76.9871235, "bike_id": "766b426b17c064ee6c7d89fc40f402f4", "fusion_lat": 0.0, "name": "766b426b17c064ee6c7d89fc40f402f4", "is_reserved": 0, "rental_uris": {"android": "https://dc.lft.to/lastmile_qr_scan", "ios": "https://dc.lft.to/lastmile_qr_scan"}, "fusion_lon": 0.0}, {"lat": 38.893922833333335, "is_disabled": 0, "type": "electric_scooter", "lon": -76.9499845, "bike_id": "2e1e46d57417602b4054b6cebdca06aa", "fusion_lat": 0.0, "name": "2e1e46d57417602b4054b6cebdca06aa", "is_reserved": 0, "rental_uris": {"android": "https://dc.lft.to/lastmile_qr_scan", "ios": "https://dc.lft.to/lastmile_qr_scan"}, "fusion_lon": 0.0}, {"lat": 38.899840166666664, "is_disabled": 0, "type": "electric_scooter", "lon": -77.02157966666667, "bike_id": "cf79b100d907154fcc1d475dbb642f12", "fusion_lat": 0.0, "name": "cf79b100d907154fcc1d475dbb642f12", "is_reserved": 0, "rental_uris": {"android": "https://dc.lft.to/lastmile_qr_scan", "ios": "https://dc.lft.to/lastmile_qr_scan"}, "fusion_lon": 0.0}, {"lat": 38.928696, "is_disabled": 0, "type": "electric_scooter", "lon": -76.990326, "bike_id": "2d937785d5362aedc830e82d73b0363f", "fusion_lat": 0.0, "name": "2d937785d5362aedc830e82d73b0363f", "is_reserved": 0, "rental_uris": {"android": "https://dc.lft.to/lastmile_qr_scan", "ios": "https://dc.lft.to/lastmile_qr_scan"}, "fusion_lon": 0.0}, {"lat": 38.9155625, "is_disabled": 0, "type": "electric_scooter", "lon": -77.04180383333333, "bike_id": "6743943e86ccf7b63da8ecb9e564aa79", "fusion_lat": 0.0, "name": "6743943e86ccf7b63da8ecb9e564aa79", "is_reserved": 0, "rental_uris": {"android": "https://dc.lft.to/lastmile_qr_scan", "ios": "https://dc.lft.to/lastmile_qr_scan"}, "fusion_lon": 0.0}, {"lat": 38.91689133333333, "is_disabled": 0, "type": "electric_scooter", "lon": -77.02945833333334, "bike_id": "d7d394b8c610fcb0a1b0caa8839bf725", "fusion_lat": 0.0, "name": "d7d394b8c610fcb0a1b0caa8839bf725", "is_reserved": 0, "rental_uris": {"android": "https://dc.lft.to/lastmile_qr_scan", "ios": "https://dc.lft.to/lastmile_qr_scan"}, "fusion_lon": 0.0}, {"lat": 38.884460833333335, "is_disabled": 0, "type": "electric_scooter", "lon": -77.00053533333333, "bike_id": "b40add32282061b06482648f33269470", "fusion_lat": 0.0, "name": "b40add32282061b06482648f33269470", "is_reserved": 0, "rental_uris": {"android": "https://dc.lft.to/lastmile_qr_scan", "ios": "https://dc.lft.to/lastmile_qr_scan"}, "fusion_lon": 0.0}, {"lat": 38.90516616666667, "is_disabled": 0, "type": "electric_scooter", "lon": -77.06449066666667, "bike_id": "760107be81aa6d907d17807702522bfc", "fusion_lat": 0.0, "name": "760107be81aa6d907d17807702522bfc", "is_reserved": 0, "rental_uris": {"android": "https://dc.lft.to/lastmile_qr_scan", "ios": "https://dc.lft.to/lastmile_qr_scan"}, "fusion_lon": 0.0}, {"lat": 38.9220845, "is_disabled": 0, "type": "electric_scooter", "lon": -77.03773433333333, "bike_id": "af779c335450bf1de962d14d68ea1377", "fusion_lat": 0.0, "name": "af779c335450bf1de962d14d68ea1377", "is_reserved": 0, "rental_uris": {"android": "https://dc.lft.to/lastmile_qr_scan", "ios": "https://dc.lft.to/lastmile_qr_scan"}, "fusion_lon": 0.0}, {"lat": 38.884521, "is_disabled": 0, "type": "electric_scooter", "lon": -76.95098866666666, "bike_id": "1268e8c3fa7369576657e7fd104a7541", "fusion_lat": 0.0, "name": "1268e8c3fa7369576657e7fd104a7541", "is_reserved": 0, "rental_uris": {"android": "https://dc.lft.to/lastmile_qr_scan", "ios": "https://dc.lft.to/lastmile_qr_scan"}, "fusion_lon": 0.0}, {"lat": 38.944539666666664, "is_disabled": 0, "type": "electric_scooter", "lon": -77.060297, "bike_id": "e5609efc2438ee0c5b604d67bb218091", "fusion_lat": 0.0, "name": "e5609efc2438ee0c5b604d67bb218091", "is_reserved": 0, "rental_uris": {"android": "https://dc.lft.to/lastmile_qr_scan", "ios": "https://dc.lft.to/lastmile_qr_scan"}, "fusion_lon": 0.0}, {"lat": 38.91747733333333, "is_disabled": 0, "type": "electric_scooter", "lon": -77.03186316666667, "bike_id": "9536cdfb3b2875c7805116da2243fcc2", "fusion_lat": 0.0, "name": "9536cdfb3b2875c7805116da2243fcc2", "is_reserved": 0, "rental_uris": {"android": "https://dc.lft.to/lastmile_qr_scan", "ios": "https://dc.lft.to/lastmile_qr_scan"}, "fusion_lon": 0.0}, {"lat": 38.896856, "is_disabled": 0, "type": "electric_scooter", "lon": -76.93608216666667, "bike_id": "1602f6dd21b1d47f8c49a211d89912b3", "fusion_lat": 0.0, "name": "1602f6dd21b1d47f8c49a211d89912b3", "is_reserved": 0, "rental_uris": {"android": "https://dc.lft.to/lastmile_qr_scan", "ios": "https://dc.lft.to/lastmile_qr_scan"}, "fusion_lon": 0.0}, {"lat": 38.9482695, "is_disabled": 0, "type": "electric_scooter", "lon": -76.99905383333333, "bike_id": "ff2d1a3324bb8f0df956fd1d8746f57c", "fusion_lat": 0.0, "name": "ff2d1a3324bb8f0df956fd1d8746f57c", "is_reserved": 0, "rental_uris": {"android": "https://dc.lft.to/lastmile_qr_scan", "ios": "https://dc.lft.to/lastmile_qr_scan"}, "fusion_lon": 0.0}, {"lat": 38.9212325, "is_disabled": 0, "type": "electric_scooter", "lon": -77.041663, "bike_id": "17610bcba4e6920d47229a91524660b8", "fusion_lat": 0.0, "name": "17610bcba4e6920d47229a91524660b8", "is_reserved": 0, "rental_uris": {"android": "https://dc.lft.to/lastmile_qr_scan", "ios": "https://dc.lft.to/lastmile_qr_scan"}, "fusion_lon": 0.0}, {"lat": 38.91821566666667, "is_disabled": 0, "type": "electric_scooter", "lon": -77.03179783333333, "bike_id": "b453868008202d56faf6ba5a17765028", "fusion_lat": 0.0, "name": "b453868008202d56faf6ba5a17765028", "is_reserved": 0, "rental_uris": {"android": "https://dc.lft.to/lastmile_qr_scan", "ios": "https://dc.lft.to/lastmile_qr_scan"}, "fusion_lon": 0.0}, {"lat": 38.908475333333335, "is_disabled": 0, "type": "electric_scooter", "lon": -77.02066, "bike_id": "7c097d47ea47b783a4553673e4102315", "fusion_lat": 0.0, "name": "7c097d47ea47b783a4553673e4102315", "is_reserved": 0, "rental_uris": {"android": "https://dc.lft.to/lastmile_qr_scan", "ios": "https://dc.lft.to/lastmile_qr_scan"}, "fusion_lon": 0.0}, {"lat": 38.93062483333333, "is_disabled": 0, "type": "electric_scooter", "lon": -77.03383433333333, "bike_id": "f5de899fc8b1b510c8ad78897494f5ad", "fusion_lat": 0.0, "name": "f5de899fc8b1b510c8ad78897494f5ad", "is_reserved": 0, "rental_uris": {"android": "https://dc.lft.to/lastmile_qr_scan", "ios": "https://dc.lft.to/lastmile_qr_scan"}, "fusion_lon": 0.0}, {"lat": 38.90241116666667, "is_disabled": 0, "type": "electric_scooter", "lon": -77.0605305, "bike_id": "b23df83209a2ba8f1aa5f1793b3230f4", "fusion_lat": 0.0, "name": "b23df83209a2ba8f1aa5f1793b3230f4", "is_reserved": 0, "rental_uris": {"android": "https://dc.lft.to/lastmile_qr_scan", "ios": "https://dc.lft.to/lastmile_qr_scan"}, "fusion_lon": 0.0}, {"lat": 38.9304315, "is_disabled": 0, "type": "electric_bike", "lon": -77.073058, "bike_id": "4d55d771acd40d31f6a4f4f96b534905", "fusion_lat": 0.0, "name": "4d55d771acd40d31f6a4f4f96b534905", "is_reserved": 0, "rental_uris": {"android": "https://dc.lft.to/lastmile_qr_scan", "ios": "https://dc.lft.to/lastmile_qr_scan"}, "fusion_lon": 0.0}, {"lat": 38.92452683333333, "is_disabled": 0, "type": "electric_scooter", "lon": -77.04200283333333, "bike_id": "d421fde6af5f324de8c9bd60399a1e4d", "fusion_lat": 0.0, "name": "d421fde6af5f324de8c9bd60399a1e4d", "is_reserved": 0, "rental_uris": {"android": "https://dc.lft.to/lastmile_qr_scan", "ios": "https://dc.lft.to/lastmile_qr_scan"}, "fusion_lon": 0.0}, {"lat": 38.91999216666667, "is_disabled": 0, "type": "electric_scooter", "lon": -77.0323445, "bike_id": "c28037e9d767ed7a3d365c731a1e8bbf", "fusion_lat": 0.0, "name": "c28037e9d767ed7a3d365c731a1e8bbf", "is_reserved": 0, "rental_uris": {"android": "https://dc.lft.to/lastmile_qr_scan", "ios": "https://dc.lft.to/lastmile_qr_scan"}, "fusion_lon": 0.0}, {"lat": 38.8992305, "is_disabled": 0, "type": "electric_scooter", "lon": -76.93372333333333, "bike_id": "eef4aea90c98de3ea0dbda943c4b7ab3", "fusion_lat": 0.0, "name": "eef4aea90c98de3ea0dbda943c4b7ab3", "is_reserved": 0, "rental_uris": {"android": "https://dc.lft.to/lastmile_qr_scan", "ios": "https://dc.lft.to/lastmile_qr_scan"}, "fusion_lon": 0.0}, {"lat": 38.948383, "is_disabled": 0, "type": "electric_bike", "lon": -77.03887983333334, "bike_id": "19be47457dcdb63e631bd6db893b3618", "fusion_lat": 0.0, "name": "19be47457dcdb63e631bd6db893b3618", "is_reserved": 0, "rental_uris": {"android": "https://dc.lft.to/lastmile_qr_scan", "ios": "https://dc.lft.to/lastmile_qr_scan"}, "fusion_lon": 0.0}, {"lat": 38.93207816666666, "is_disabled": 0, "type": "electric_scooter", "lon": -77.036804, "bike_id": "2cbde257179fbeba631deddfbf6766dc", "fusion_lat": 0.0, "name": "2cbde257179fbeba631deddfbf6766dc", "is_reserved": 0, "rental_uris": {"android": "https://dc.lft.to/lastmile_qr_scan", "ios": "https://dc.lft.to/lastmile_qr_scan"}, "fusion_lon": 0.0}, {"lat": 38.898798166666666, "is_disabled": 0, "type": "electric_scooter", "lon": -77.05338233333333, "bike_id": "69c155ed5f7e751b542e39f261055c96", "fusion_lat": 0.0, "name": "69c155ed5f7e751b542e39f261055c96", "is_reserved": 0, "rental_uris": {"android": "https://dc.lft.to/lastmile_qr_scan", "ios": "https://dc.lft.to/lastmile_qr_scan"}, "fusion_lon": 0.0}, {"lat": 38.92279216666667, "is_disabled": 0, "type": "electric_scooter", "lon": -77.02976, "bike_id": "81db24302cc6a95c96db2d88a7c9a4d0", "fusion_lat": 0.0, "name": "81db24302cc6a95c96db2d88a7c9a4d0", "is_reserved": 0, "rental_uris": {"android": "https://dc.lft.to/lastmile_qr_scan", "ios": "https://dc.lft.to/lastmile_qr_scan"}, "fusion_lon": 0.0}, {"lat": 38.90679433333333, "is_disabled": 0, "type": "electric_scooter", "lon": -77.02714533333334, "bike_id": "f462a258023b52dc083687aabbc88061", "fusion_lat": 0.0, "name": "f462a258023b52dc083687aabbc88061", "is_reserved": 0, "rental_uris": {"android": "https://dc.lft.to/lastmile_qr_scan", "ios": "https://dc.lft.to/lastmile_qr_scan"}, "fusion_lon": 0.0}, {"lat": 38.86346283333334, "is_disabled": 0, "type": "electric_scooter", "lon": -76.99002383333334, "bike_id": "d632aa53674fa1377e638b25380fbec9", "fusion_lat": 0.0, "name": "d632aa53674fa1377e638b25380fbec9", "is_reserved": 0, "rental_uris": {"android": "https://dc.lft.to/lastmile_qr_scan", "ios": "https://dc.lft.to/lastmile_qr_scan"}, "fusion_lon": 0.0}, {"lat": 38.955548666666665, "is_disabled": 0, "type": "electric_bike", "lon": -76.93548316666667, "bike_id": "068bc89f9584dcd6755c91f2a55552ff", "fusion_lat": 0.0, "name": "068bc89f9584dcd6755c91f2a55552ff", "is_reserved": 0, "rental_uris": {"android": "https://dc.lft.to/lastmile_qr_scan", "ios": "https://dc.lft.to/lastmile_qr_scan"}, "fusion_lon": 0.0}, {"lat": 38.92238583333334, "is_disabled": 0, "type": "electric_scooter", "lon": -77.042457, "bike_id": "076decde1c64dead4829db7bf29ed52e", "fusion_lat": 0.0, "name": "076decde1c64dead4829db7bf29ed52e", "is_reserved": 0, "rental_uris": {"android": "https://dc.lft.to/lastmile_qr_scan", "ios": "https://dc.lft.to/lastmile_qr_scan"}, "fusion_lon": 0.0}, {"lat": 38.86666316666667, "is_disabled": 0, "type": "electric_scooter", "lon": -77.01054933333333, "bike_id": "0c32226ae187229d43607233f2012d15", "fusion_lat": 0.0, "name": "0c32226ae187229d43607233f2012d15", "is_reserved": 0, "rental_uris": {"android": "https://dc.lft.to/lastmile_qr_scan", "ios": "https://dc.lft.to/lastmile_qr_scan"}, "fusion_lon": 0.0}, {"lat": 38.8662005, "is_disabled": 0, "type": "electric_scooter", "lon": -76.98640266666666, "bike_id": "ffafaf37faa224bda51a13c18ed52775", "fusion_lat": 0.0, "name": "ffafaf37faa224bda51a13c18ed52775", "is_reserved": 0, "rental_uris": {"android": "https://dc.lft.to/lastmile_qr_scan", "ios": "https://dc.lft.to/lastmile_qr_scan"}, "fusion_lon": 0.0}, {"lat": 38.90217466666667, "is_disabled": 0, "type": "electric_scooter", "lon": -77.02374583333334, "bike_id": "00ba40a804851fa6eb7e757b116594f0", "fusion_lat": 0.0, "name": "00ba40a804851fa6eb7e757b116594f0", "is_reserved": 0, "rental_uris": {"android": "https://dc.lft.to/lastmile_qr_scan", "ios": "https://dc.lft.to/lastmile_qr_scan"}, "fusion_lon": 0.0}, {"lat": 38.91822366666667, "is_disabled": 0, "type": "electric_scooter", "lon": -77.02526216666666, "bike_id": "7a5ee9b2a99fd42bb2038ae01f02e4ef", "fusion_lat": 0.0, "name": "7a5ee9b2a99fd42bb2038ae01f02e4ef", "is_reserved": 0, "rental_uris": {"android": "https://dc.lft.to/lastmile_qr_scan", "ios": "https://dc.lft.to/lastmile_qr_scan"}, "fusion_lon": 0.0}, {"lat": 38.805024, "is_disabled": 0, "type": "electric_bike", "lon": -77.04137066666667, "bike_id": "540680209864394ae115ade0aff5f2fa", "fusion_lat": 0.0, "name": "540680209864394ae115ade0aff5f2fa", "is_reserved": 0, "rental_uris": {"android": "https://dc.lft.to/lastmile_qr_scan", "ios": "https://dc.lft.to/lastmile_qr_scan"}, "fusion_lon": 0.0}, {"lat": 38.84547633333333, "is_disabled": 0, "type": "electric_bike", "lon": -76.990655, "bike_id": "8d4b235518ea0559280974088bf44890", "fusion_lat": 0.0, "name": "8d4b235518ea0559280974088bf44890", "is_reserved": 0, "rental_uris": {"android": "https://dc.lft.to/lastmile_qr_scan", "ios": "https://dc.lft.to/lastmile_qr_scan"}, "fusion_lon": 0.0}, {"lat": 38.91710366666667, "is_disabled": 0, "type": "electric_scooter", "lon": -77.03733166666666, "bike_id": "e2a3003328a8a425970e66b6d9fff706", "fusion_lat": 0.0, "name": "e2a3003328a8a425970e66b6d9fff706", "is_reserved": 0, "rental_uris": {"android": "https://dc.lft.to/lastmile_qr_scan", "ios": "https://dc.lft.to/lastmile_qr_scan"}, "fusion_lon": 0.0}, {"lat": 38.91128333333333, "is_disabled": 0, "type": "electric_scooter", "lon": -77.0220225, "bike_id": "175e345d64af53858803e94436355645", "fusion_lat": 0.0, "name": "175e345d64af53858803e94436355645", "is_reserved": 0, "rental_uris": {"android": "https://dc.lft.to/lastmile_qr_scan", "ios": "https://dc.lft.to/lastmile_qr_scan"}, "fusion_lon": 0.0}, {"lat": 38.917737333333335, "is_disabled": 0, "type": "electric_scooter", "lon": -77.03186283333334, "bike_id": "935613a650644370f1e59da25f36e826", "fusion_lat": 0.0, "name": "935613a650644370f1e59da25f36e826", "is_reserved": 0, "rental_uris": {"android": "https://dc.lft.to/lastmile_qr_scan", "ios": "https://dc.lft.to/lastmile_qr_scan"}, "fusion_lon": 0.0}, {"lat": 38.9111325, "is_disabled": 0, "type": "electric_scooter", "lon": -76.99713483333333, "bike_id": "cc6e9d43d2d6693db361cf69596b4a8f", "fusion_lat": 0.0, "name": "cc6e9d43d2d6693db361cf69596b4a8f", "is_reserved": 0, "rental_uris": {"android": "https://dc.lft.to/lastmile_qr_scan", "ios": "https://dc.lft.to/lastmile_qr_scan"}, "fusion_lon": 0.0}, {"lat": 38.937433166666665, "is_disabled": 0, "type": "electric_scooter", "lon": -77.03454183333334, "bike_id": "2fc77cade02f4faabf4bc404cbf74b97", "fusion_lat": 0.0, "name": "2fc77cade02f4faabf4bc404cbf74b97", "is_reserved": 0, "rental_uris": {"android": "https://dc.lft.to/lastmile_qr_scan", "ios": "https://dc.lft.to/lastmile_qr_scan"}, "fusion_lon": 0.0}, {"lat": 38.897613666666665, "is_disabled": 0, "type": "electric_scooter", "lon": -77.05499783333333, "bike_id": "480900e5c8c843c0b2795198dfa90d50", "fusion_lat": 0.0, "name": "480900e5c8c843c0b2795198dfa90d50", "is_reserved": 0, "rental_uris": {"android": "https://dc.lft.to/lastmile_qr_scan", "ios": "https://dc.lft.to/lastmile_qr_scan"}, "fusion_lon": 0.0}, {"lat": 38.906197666666664, "is_disabled": 0, "type": "electric_scooter", "lon": -77.02609, "bike_id": "8513d5e69616c880c1a62d05f509d6a9", "fusion_lat": 0.0, "name": "8513d5e69616c880c1a62d05f509d6a9", "is_reserved": 0, "rental_uris": {"android": "https://dc.lft.to/lastmile_qr_scan", "ios": "https://dc.lft.to/lastmile_qr_scan"}, "fusion_lon": 0.0}, {"lat": 38.92546566666667, "is_disabled": 0, "type": "electric_scooter", "lon": -77.0344735, "bike_id": "8c1a878e0fedad9eff16cd520c17c059", "fusion_lat": 0.0, "name": "8c1a878e0fedad9eff16cd520c17c059", "is_reserved": 0, "rental_uris": {"android": "https://dc.lft.to/lastmile_qr_scan", "ios": "https://dc.lft.to/lastmile_qr_scan"}, "fusion_lon": 0.0}, {"lat": 38.9055325, "is_disabled": 0, "type": "electric_scooter", "lon": -77.05707416666667, "bike_id": "b71dc8fb77a276d53be15a9e3bc982ce", "fusion_lat": 0.0, "name": "b71dc8fb77a276d53be15a9e3bc982ce", "is_reserved": 0, "rental_uris": {"android": "https://dc.lft.to/lastmile_qr_scan", "ios": "https://dc.lft.to/lastmile_qr_scan"}, "fusion_lon": 0.0}, {"lat": 38.91412966666667, "is_disabled": 0, "type": "electric_scooter", "lon": -77.025683, "bike_id": "1601a903a636837db263d95d9bd851e7", "fusion_lat": 0.0, "name": "1601a903a636837db263d95d9bd851e7", "is_reserved": 0, "rental_uris": {"android": "https://dc.lft.to/lastmile_qr_scan", "ios": "https://dc.lft.to/lastmile_qr_scan"}, "fusion_lon": 0.0}, {"lat": 38.95408716666667, "is_disabled": 0, "type": "electric_scooter", "lon": -77.03634583333333, "bike_id": "773943f34beae2283cc7521193981589", "fusion_lat": 0.0, "name": "773943f34beae2283cc7521193981589", "is_reserved": 0, "rental_uris": {"android": "https://dc.lft.to/lastmile_qr_scan", "ios": "https://dc.lft.to/lastmile_qr_scan"}, "fusion_lon": 0.0}, {"lat": 38.899285166666665, "is_disabled": 0, "type": "electric_scooter", "lon": -77.03291383333334, "bike_id": "db091a3483e165a6c2f48def005dfa88", "fusion_lat": 0.0, "name": "db091a3483e165a6c2f48def005dfa88", "is_reserved": 0, "rental_uris": {"android": "https://dc.lft.to/lastmile_qr_scan", "ios": "https://dc.lft.to/lastmile_qr_scan"}, "fusion_lon": 0.0}, {"lat": 38.9121495, "is_disabled": 0, "type": "electric_scooter", "lon": -77.04471916666667, "bike_id": "198fdf674221b1f7c2887de243692767", "fusion_lat": 0.0, "name": "198fdf674221b1f7c2887de243692767", "is_reserved": 0, "rental_uris": {"android": "https://dc.lft.to/lastmile_qr_scan", "ios": "https://dc.lft.to/lastmile_qr_scan"}, "fusion_lon": 0.0}, {"lat": 38.86900983333334, "is_disabled": 0, "type": "electric_bike", "lon": -77.13173983333333, "bike_id": "be7a93e81e57d6d793884fae6e513ae1", "fusion_lat": 0.0, "name": "be7a93e81e57d6d793884fae6e513ae1", "is_reserved": 0, "rental_uris": {"android": "https://dc.lft.to/lastmile_qr_scan", "ios": "https://dc.lft.to/lastmile_qr_scan"}, "fusion_lon": 0.0}, {"lat": 38.804485166666666, "is_disabled": 0, "type": "electric_bike", "lon": -77.06087916666667, "bike_id": "d438cee2b4db9b37aba83ebaf508c33f", "fusion_lat": 0.0, "name": "d438cee2b4db9b37aba83ebaf508c33f", "is_reserved": 0, "rental_uris": {"android": "https://dc.lft.to/lastmile_qr_scan", "ios": "https://dc.lft.to/lastmile_qr_scan"}, "fusion_lon": 0.0}, {"lat": 38.907884833333334, "is_disabled": 0, "type": "electric_scooter", "lon": -77.04223566666667, "bike_id": "73b230254529018ce2a6b7bfe48155a8", "fusion_lat": 0.0, "name": "73b230254529018ce2a6b7bfe48155a8", "is_reserved": 0, "rental_uris": {"android": "https://dc.lft.to/lastmile_qr_scan", "ios": "https://dc.lft.to/lastmile_qr_scan"}, "fusion_lon": 0.0}, {"lat": 38.89845183333333, "is_disabled": 0, "type": "electric_scooter", "lon": -76.94633516666667, "bike_id": "7169712ff8e0b24f3fcd7a48af8c3451", "fusion_lat": 0.0, "name": "7169712ff8e0b24f3fcd7a48af8c3451", "is_reserved": 0, "rental_uris": {"android": "https://dc.lft.to/lastmile_qr_scan", "ios": "https://dc.lft.to/lastmile_qr_scan"}, "fusion_lon": 0.0}, {"lat": 38.904947166666666, "is_disabled": 0, "type": "electric_scooter", "lon": -77.0281345, "bike_id": "4e9baf8bdbffda05ebe2dd12c7c835fa", "fusion_lat": 0.0, "name": "4e9baf8bdbffda05ebe2dd12c7c835fa", "is_reserved": 0, "rental_uris": {"android": "https://dc.lft.to/lastmile_qr_scan", "ios": "https://dc.lft.to/lastmile_qr_scan"}, "fusion_lon": 0.0}, {"lat": 38.955780833333336, "is_disabled": 0, "type": "electric_scooter", "lon": -77.07009666666667, "bike_id": "b425ae9340e6518676f07509147e78c7", "fusion_lat": 0.0, "name": "b425ae9340e6518676f07509147e78c7", "is_reserved": 0, "rental_uris": {"android": "https://dc.lft.to/lastmile_qr_scan", "ios": "https://dc.lft.to/lastmile_qr_scan"}, "fusion_lon": 0.0}, {"lat": 39.01578166666667, "is_disabled": 0, "type": "electric_bike", "lon": -77.0423805, "bike_id": "848c3560439fba407f3edc49cb37a268", "fusion_lat": 0.0, "name": "848c3560439fba407f3edc49cb37a268", "is_reserved": 0, "rental_uris": {"android": "https://dc.lft.to/lastmile_qr_scan", "ios": "https://dc.lft.to/lastmile_qr_scan"}, "fusion_lon": 0.0}, {"lat": 38.910513, "is_disabled": 0, "type": "electric_scooter", "lon": -77.01511666666667, "bike_id": "1ebec6d567e7ebcf6436fedff2a1efb8", "fusion_lat": 0.0, "name": "1ebec6d567e7ebcf6436fedff2a1efb8", "is_reserved": 0, "rental_uris": {"android": "https://dc.lft.to/lastmile_qr_scan", "ios": "https://dc.lft.to/lastmile_qr_scan"}, "fusion_lon": 0.0}, {"lat": 38.88124583333333, "is_disabled": 0, "type": "electric_scooter", "lon": -77.0140745, "bike_id": "899f0aae7814aaf511a963dc4555b108", "fusion_lat": 0.0, "name": "899f0aae7814aaf511a963dc4555b108", "is_reserved": 0, "rental_uris": {"android": "https://dc.lft.to/lastmile_qr_scan", "ios": "https://dc.lft.to/lastmile_qr_scan"}, "fusion_lon": 0.0}, {"lat": 38.89738033333333, "is_disabled": 0, "type": "electric_scooter", "lon": -77.02159633333333, "bike_id": "fed9f270f03f08b830f2f0f4f67aa3b9", "fusion_lat": 0.0, "name": "fed9f270f03f08b830f2f0f4f67aa3b9", "is_reserved": 0, "rental_uris": {"android": "https://dc.lft.to/lastmile_qr_scan", "ios": "https://dc.lft.to/lastmile_qr_scan"}, "fusion_lon": 0.0}, {"lat": 38.922035, "is_disabled": 0, "type": "electric_scooter", "lon": -77.04019533333333, "bike_id": "18626a105d180b1ec051946eee6f47cc", "fusion_lat": 0.0, "name": "18626a105d180b1ec051946eee6f47cc", "is_reserved": 0, "rental_uris": {"android": "https://dc.lft.to/lastmile_qr_scan", "ios": "https://dc.lft.to/lastmile_qr_scan"}, "fusion_lon": 0.0}, {"lat": 38.9588125, "is_disabled": 0, "type": "electric_bike", "lon": -77.010279, "bike_id": "c735fd236a21bb32022af7f0516866e8", "fusion_lat": 0.0, "name": "c735fd236a21bb32022af7f0516866e8", "is_reserved": 0, "rental_uris": {"android": "https://dc.lft.to/lastmile_qr_scan", "ios": "https://dc.lft.to/lastmile_qr_scan"}, "fusion_lon": 0.0}, {"lat": 38.90734616666667, "is_disabled": 0, "type": "electric_scooter", "lon": -77.02975483333333, "bike_id": "b0c279809c9623491cb53c6d6772ebd5", "fusion_lat": 0.0, "name": "b0c279809c9623491cb53c6d6772ebd5", "is_reserved": 0, "rental_uris": {"android": "https://dc.lft.to/lastmile_qr_scan", "ios": "https://dc.lft.to/lastmile_qr_scan"}, "fusion_lon": 0.0}, {"lat": 38.920699, "is_disabled": 0, "type": "electric_scooter", "lon": -77.032114, "bike_id": "80449f9d922308f4cb7501a231550678", "fusion_lat": 0.0, "name": "80449f9d922308f4cb7501a231550678", "is_reserved": 0, "rental_uris": {"android": "https://dc.lft.to/lastmile_qr_scan", "ios": "https://dc.lft.to/lastmile_qr_scan"}, "fusion_lon": 0.0}, {"lat": 38.9142175, "is_disabled": 0, "type": "electric_scooter", "lon": -77.031839, "bike_id": "973d42f068e76b68009cbffc33ccef6f", "fusion_lat": 0.0, "name": "973d42f068e76b68009cbffc33ccef6f", "is_reserved": 0, "rental_uris": {"android": "https://dc.lft.to/lastmile_qr_scan", "ios": "https://dc.lft.to/lastmile_qr_scan"}, "fusion_lon": 0.0}, {"lat": 38.89250216666667, "is_disabled": 0, "type": "electric_scooter", "lon": -77.03958933333334, "bike_id": "ab99cd183edc83cb1d8b6e91cc5419eb", "fusion_lat": 0.0, "name": "ab99cd183edc83cb1d8b6e91cc5419eb", "is_reserved": 0, "rental_uris": {"android": "https://dc.lft.to/lastmile_qr_scan", "ios": "https://dc.lft.to/lastmile_qr_scan"}, "fusion_lon": 0.0}, {"lat": 38.902922833333335, "is_disabled": 0, "type": "electric_scooter", "lon": -77.063538, "bike_id": "d963a4dacf73388f032f06888603b9e9", "fusion_lat": 0.0, "name": "d963a4dacf73388f032f06888603b9e9", "is_reserved": 0, "rental_uris": {"android": "https://dc.lft.to/lastmile_qr_scan", "ios": "https://dc.lft.to/lastmile_qr_scan"}, "fusion_lon": 0.0}, {"lat": 38.9310895, "is_disabled": 0, "type": "electric_scooter", "lon": -77.03402316666667, "bike_id": "d46307062f8786f957afa18512c4dc7d", "fusion_lat": 0.0, "name": "d46307062f8786f957afa18512c4dc7d", "is_reserved": 0, "rental_uris": {"android": "https://dc.lft.to/lastmile_qr_scan", "ios": "https://dc.lft.to/lastmile_qr_scan"}, "fusion_lon": 0.0}, {"lat": 38.95064266666667, "is_disabled": 0, "type": "electric_bike", "lon": -77.00724766666667, "bike_id": "f12722e92e8dd2abb25541cf14608e6a", "fusion_lat": 0.0, "name": "f12722e92e8dd2abb25541cf14608e6a", "is_reserved": 0, "rental_uris": {"android": "https://dc.lft.to/lastmile_qr_scan", "ios": "https://dc.lft.to/lastmile_qr_scan"}, "fusion_lon": 0.0}, {"lat": 38.916533, "is_disabled": 0, "type": "electric_scooter", "lon": -77.02273716666667, "bike_id": "d7c36bd38289b527a98501f692d7a61b", "fusion_lat": 0.0, "name": "d7c36bd38289b527a98501f692d7a61b", "is_reserved": 0, "rental_uris": {"android": "https://dc.lft.to/lastmile_qr_scan", "ios": "https://dc.lft.to/lastmile_qr_scan"}, "fusion_lon": 0.0}, {"lat": 38.89222616666667, "is_disabled": 0, "type": "electric_scooter", "lon": -77.04860466666666, "bike_id": "0db09657ce6768dc8a0c18e837e9aca4", "fusion_lat": 0.0, "name": "0db09657ce6768dc8a0c18e837e9aca4", "is_reserved": 0, "rental_uris": {"android": "https://dc.lft.to/lastmile_qr_scan", "ios": "https://dc.lft.to/lastmile_qr_scan"}, "fusion_lon": 0.0}, {"lat": 38.89908833333333, "is_disabled": 0, "type": "electric_scooter", "lon": -76.93353733333333, "bike_id": "ef1dd27e1a461ec543c84534df88cd88", "fusion_lat": 0.0, "name": "ef1dd27e1a461ec543c84534df88cd88", "is_reserved": 0, "rental_uris": {"android": "https://dc.lft.to/lastmile_qr_scan", "ios": "https://dc.lft.to/lastmile_qr_scan"}, "fusion_lon": 0.0}, {"lat": 38.94075483333334, "is_disabled": 0, "type": "electric_scooter", "lon": -77.02394333333334, "bike_id": "c8b6839ec2e369aa4d432613a4953633", "fusion_lat": 0.0, "name": "c8b6839ec2e369aa4d432613a4953633", "is_reserved": 0, "rental_uris": {"android": "https://dc.lft.to/lastmile_qr_scan", "ios": "https://dc.lft.to/lastmile_qr_scan"}, "fusion_lon": 0.0}, {"lat": 38.9336235, "is_disabled": 0, "type": "electric_scooter", "lon": -77.07352266666666, "bike_id": "2a4e6bf62ce100fd6a533d0a889d2a8a", "fusion_lat": 0.0, "name": "2a4e6bf62ce100fd6a533d0a889d2a8a", "is_reserved": 0, "rental_uris": {"android": "https://dc.lft.to/lastmile_qr_scan", "ios": "https://dc.lft.to/lastmile_qr_scan"}, "fusion_lon": 0.0}, {"lat": 38.95897733333334, "is_disabled": 0, "type": "electric_bike", "lon": -76.924903, "bike_id": "7452caf9469a960e6450f8073da79e36", "fusion_lat": 0.0, "name": "7452caf9469a960e6450f8073da79e36", "is_reserved": 0, "rental_uris": {"android": "https://dc.lft.to/lastmile_qr_scan", "ios": "https://dc.lft.to/lastmile_qr_scan"}, "fusion_lon": 0.0}, {"lat": 38.90787866666667, "is_disabled": 0, "type": "electric_scooter", "lon": -77.04006116666666, "bike_id": "5926d86ef113f4004ad14f6ba3426ef1", "fusion_lat": 0.0, "name": "5926d86ef113f4004ad14f6ba3426ef1", "is_reserved": 0, "rental_uris": {"android": "https://dc.lft.to/lastmile_qr_scan", "ios": "https://dc.lft.to/lastmile_qr_scan"}, "fusion_lon": 0.0}, {"lat": 38.91711183333334, "is_disabled": 0, "type": "electric_scooter", "lon": -77.0356265, "bike_id": "73dcdbd5db62a8f89a10ad38366f69b6", "fusion_lat": 0.0, "name": "73dcdbd5db62a8f89a10ad38366f69b6", "is_reserved": 0, "rental_uris": {"android": "https://dc.lft.to/lastmile_qr_scan", "ios": "https://dc.lft.to/lastmile_qr_scan"}, "fusion_lon": 0.0}, {"lat": 38.85307316666667, "is_disabled": 0, "type": "electric_bike", "lon": -77.131266, "bike_id": "b39f833efca0f64d107f3342b7ff38da", "fusion_lat": 0.0, "name": "b39f833efca0f64d107f3342b7ff38da", "is_reserved": 0, "rental_uris": {"android": "https://dc.lft.to/lastmile_qr_scan", "ios": "https://dc.lft.to/lastmile_qr_scan"}, "fusion_lon": 0.0}, {"lat": 38.91190983333333, "is_disabled": 0, "type": "electric_scooter", "lon": -77.04330616666667, "bike_id": "66208b60711089c1fb9a76b67b432ca0", "fusion_lat": 0.0, "name": "66208b60711089c1fb9a76b67b432ca0", "is_reserved": 0, "rental_uris": {"android": "https://dc.lft.to/lastmile_qr_scan", "ios": "https://dc.lft.to/lastmile_qr_scan"}, "fusion_lon": 0.0}, {"lat": 38.920761, "is_disabled": 0, "type": "electric_scooter", "lon": -77.01424033333333, "bike_id": "1a698057ec03992a6d65083390f8e218", "fusion_lat": 0.0, "name": "1a698057ec03992a6d65083390f8e218", "is_reserved": 0, "rental_uris": {"android": "https://dc.lft.to/lastmile_qr_scan", "ios": "https://dc.lft.to/lastmile_qr_scan"}, "fusion_lon": 0.0}, {"lat": 38.9300965, "is_disabled": 0, "type": "electric_scooter", "lon": -77.0208295, "bike_id": "505b0f8d8ca59e3d185b46f70e7b450c", "fusion_lat": 0.0, "name": "505b0f8d8ca59e3d185b46f70e7b450c", "is_reserved": 0, "rental_uris": {"android": "https://dc.lft.to/lastmile_qr_scan", "ios": "https://dc.lft.to/lastmile_qr_scan"}, "fusion_lon": 0.0}, {"lat": 38.922865, "is_disabled": 0, "type": "electric_scooter", "lon": -77.03658816666666, "bike_id": "b96b48966888f3817486b6e76edbe77c", "fusion_lat": 0.0, "name": "b96b48966888f3817486b6e76edbe77c", "is_reserved": 0, "rental_uris": {"android": "https://dc.lft.to/lastmile_qr_scan", "ios": "https://dc.lft.to/lastmile_qr_scan"}, "fusion_lon": 0.0}, {"lat": 38.90996716666667, "is_disabled": 0, "type": "electric_scooter", "lon": -77.04011416666667, "bike_id": "5bc14f44c6b3deb384438488fb1a455d", "fusion_lat": 0.0, "name": "5bc14f44c6b3deb384438488fb1a455d", "is_reserved": 0, "rental_uris": {"android": "https://dc.lft.to/lastmile_qr_scan", "ios": "https://dc.lft.to/lastmile_qr_scan"}, "fusion_lon": 0.0}, {"lat": 38.921185, "is_disabled": 0, "type": "electric_bike", "lon": -76.98576116666666, "bike_id": "8e5135912d0d2b83085d0af52a68488e", "fusion_lat": 0.0, "name": "8e5135912d0d2b83085d0af52a68488e", "is_reserved": 0, "rental_uris": {"android": "https://dc.lft.to/lastmile_qr_scan", "ios": "https://dc.lft.to/lastmile_qr_scan"}, "fusion_lon": 0.0}, {"lat": 38.87413383333333, "is_disabled": 0, "type": "electric_bike", "lon": -76.9657255, "bike_id": "1539cd46ceba68b887be70c71ee73499", "fusion_lat": 0.0, "name": "1539cd46ceba68b887be70c71ee73499", "is_reserved": 0, "rental_uris": {"android": "https://dc.lft.to/lastmile_qr_scan", "ios": "https://dc.lft.to/lastmile_qr_scan"}, "fusion_lon": 0.0}, {"lat": 38.90562633333333, "is_disabled": 0, "type": "electric_scooter", "lon": -77.01679816666666, "bike_id": "53ca5d8e280f0639ce4b792ff6b47504", "fusion_lat": 0.0, "name": "53ca5d8e280f0639ce4b792ff6b47504", "is_reserved": 0, "rental_uris": {"android": "https://dc.lft.to/lastmile_qr_scan", "ios": "https://dc.lft.to/lastmile_qr_scan"}, "fusion_lon": 0.0}, {"lat": 38.902802666666666, "is_disabled": 0, "type": "electric_scooter", "lon": -77.05804166666667, "bike_id": "1e3f52ed4ed9500d4fb982de0c5ead39", "fusion_lat": 0.0, "name": "1e3f52ed4ed9500d4fb982de0c5ead39", "is_reserved": 0, "rental_uris": {"android": "https://dc.lft.to/lastmile_qr_scan", "ios": "https://dc.lft.to/lastmile_qr_scan"}, "fusion_lon": 0.0}, {"lat": 38.93090333333333, "is_disabled": 0, "type": "electric_scooter", "lon": -77.07750833333333, "bike_id": "bbe192800b2b2266eb86b2e8582dcaf7", "fusion_lat": 0.0, "name": "bbe192800b2b2266eb86b2e8582dcaf7", "is_reserved": 0, "rental_uris": {"android": "https://dc.lft.to/lastmile_qr_scan", "ios": "https://dc.lft.to/lastmile_qr_scan"}, "fusion_lon": 0.0}, {"lat": 38.84033433333333, "is_disabled": 0, "type": "electric_bike", "lon": -76.97586516666667, "bike_id": "e80c041e25e23519457edbfe490dc22c", "fusion_lat": 0.0, "name": "e80c041e25e23519457edbfe490dc22c", "is_reserved": 0, "rental_uris": {"android": "https://dc.lft.to/lastmile_qr_scan", "ios": "https://dc.lft.to/lastmile_qr_scan"}, "fusion_lon": 0.0}, {"lat": 38.90945133333334, "is_disabled": 0, "type": "electric_scooter", "lon": -76.98962666666667, "bike_id": "9e0f676b9934e64919e80ca04e4bf2b7", "fusion_lat": 0.0, "name": "9e0f676b9934e64919e80ca04e4bf2b7", "is_reserved": 0, "rental_uris": {"android": "https://dc.lft.to/lastmile_qr_scan", "ios": "https://dc.lft.to/lastmile_qr_scan"}, "fusion_lon": 0.0}, {"lat": 38.95637266666667, "is_disabled": 0, "type": "electric_bike", "lon": -77.01958566666667, "bike_id": "6c8b0e37535ab00f26dfe6d2032dcc7c", "fusion_lat": 0.0, "name": "6c8b0e37535ab00f26dfe6d2032dcc7c", "is_reserved": 0, "rental_uris": {"android": "https://dc.lft.to/lastmile_qr_scan", "ios": "https://dc.lft.to/lastmile_qr_scan"}, "fusion_lon": 0.0}, {"lat": 38.903634, "is_disabled": 0, "type": "electric_scooter", "lon": -77.01108916666666, "bike_id": "2fbb85356b9ff5656464c81909b51d27", "fusion_lat": 0.0, "name": "2fbb85356b9ff5656464c81909b51d27", "is_reserved": 0, "rental_uris": {"android": "https://dc.lft.to/lastmile_qr_scan", "ios": "https://dc.lft.to/lastmile_qr_scan"}, "fusion_lon": 0.0}, {"lat": 38.90076366666667, "is_disabled": 0, "type": "electric_scooter", "lon": -77.02717183333333, "bike_id": "a738e0878bfebf3353366ecd3b63e3c1", "fusion_lat": 0.0, "name": "a738e0878bfebf3353366ecd3b63e3c1", "is_reserved": 0, "rental_uris": {"android": "https://dc.lft.to/lastmile_qr_scan", "ios": "https://dc.lft.to/lastmile_qr_scan"}, "fusion_lon": 0.0}, {"lat": 38.898797, "is_disabled": 0, "type": "electric_scooter", "lon": -76.93188516666666, "bike_id": "a150854a28d993a27866f0de4d05c4f3", "fusion_lat": 0.0, "name": "a150854a28d993a27866f0de4d05c4f3", "is_reserved": 0, "rental_uris": {"android": "https://dc.lft.to/lastmile_qr_scan", "ios": "https://dc.lft.to/lastmile_qr_scan"}, "fusion_lon": 0.0}, {"lat": 38.88745433333333, "is_disabled": 0, "type": "electric_scooter", "lon": -76.983607, "bike_id": "1a57073bb40ebde01bc70fd67771005b", "fusion_lat": 0.0, "name": "1a57073bb40ebde01bc70fd67771005b", "is_reserved": 0, "rental_uris": {"android": "https://dc.lft.to/lastmile_qr_scan", "ios": "https://dc.lft.to/lastmile_qr_scan"}, "fusion_lon": 0.0}, {"lat": 38.86701583333333, "is_disabled": 0, "type": "electric_scooter", "lon": -76.9871555, "bike_id": "6e60992678e02555134e76dbc445ec01", "fusion_lat": 0.0, "name": "6e60992678e02555134e76dbc445ec01", "is_reserved": 0, "rental_uris": {"android": "https://dc.lft.to/lastmile_qr_scan", "ios": "https://dc.lft.to/lastmile_qr_scan"}, "fusion_lon": 0.0}, {"lat": 38.935329333333335, "is_disabled": 0, "type": "electric_scooter", "lon": -77.0729035, "bike_id": "28d950ec16e53f71acfb10e6c946c406", "fusion_lat": 0.0, "name": "28d950ec16e53f71acfb10e6c946c406", "is_reserved": 0, "rental_uris": {"android": "https://dc.lft.to/lastmile_qr_scan", "ios": "https://dc.lft.to/lastmile_qr_scan"}, "fusion_lon": 0.0}, {"lat": 38.89529666666667, "is_disabled": 0, "type": "electric_scooter", "lon": -76.94888933333333, "bike_id": "150b91503e7826996864bdd26a6a3df5", "fusion_lat": 0.0, "name": "150b91503e7826996864bdd26a6a3df5", "is_reserved": 0, "rental_uris": {"android": "https://dc.lft.to/lastmile_qr_scan", "ios": "https://dc.lft.to/lastmile_qr_scan"}, "fusion_lon": 0.0}, {"lat": 38.905049, "is_disabled": 0, "type": "electric_scooter", "lon": -77.02945483333333, "bike_id": "0282bbd7b71006a9787608802e195596", "fusion_lat": 0.0, "name": "0282bbd7b71006a9787608802e195596", "is_reserved": 0, "rental_uris": {"android": "https://dc.lft.to/lastmile_qr_scan", "ios": "https://dc.lft.to/lastmile_qr_scan"}, "fusion_lon": 0.0}, {"lat": 38.90219066666667, "is_disabled": 0, "type": "electric_scooter", "lon": -77.04880466666667, "bike_id": "84cef1f0045cce963e9f637e2fb2768f", "fusion_lat": 0.0, "name": "84cef1f0045cce963e9f637e2fb2768f", "is_reserved": 0, "rental_uris": {"android": "https://dc.lft.to/lastmile_qr_scan", "ios": "https://dc.lft.to/lastmile_qr_scan"}, "fusion_lon": 0.0}, {"lat": 38.93405116666667, "is_disabled": 0, "type": "electric_scooter", "lon": -77.04125, "bike_id": "b7016d3f38014761b1316f8229d87b1b", "fusion_lat": 0.0, "name": "b7016d3f38014761b1316f8229d87b1b", "is_reserved": 0, "rental_uris": {"android": "https://dc.lft.to/lastmile_qr_scan", "ios": "https://dc.lft.to/lastmile_qr_scan"}, "fusion_lon": 0.0}, {"lat": 38.96094683333333, "is_disabled": 0, "type": "electric_scooter", "lon": -77.08289716666667, "bike_id": "8a3c281d63d91d21ab417136c1e5b05c", "fusion_lat": 0.0, "name": "8a3c281d63d91d21ab417136c1e5b05c", "is_reserved": 0, "rental_uris": {"android": "https://dc.lft.to/lastmile_qr_scan", "ios": "https://dc.lft.to/lastmile_qr_scan"}, "fusion_lon": 0.0}, {"lat": 38.92102916666666, "is_disabled": 0, "type": "electric_bike", "lon": -77.03932133333333, "bike_id": "f2edbfe9e45afc84d75966f6b55616fd", "fusion_lat": 0.0, "name": "f2edbfe9e45afc84d75966f6b55616fd", "is_reserved": 0, "rental_uris": {"android": "https://dc.lft.to/lastmile_qr_scan", "ios": "https://dc.lft.to/lastmile_qr_scan"}, "fusion_lon": 0.0}, {"lat": 38.92205216666667, "is_disabled": 0, "type": "electric_scooter", "lon": -77.03287866666666, "bike_id": "452d08a8e0907596ce25ccbba46e1d22", "fusion_lat": 0.0, "name": "452d08a8e0907596ce25ccbba46e1d22", "is_reserved": 0, "rental_uris": {"android": "https://dc.lft.to/lastmile_qr_scan", "ios": "https://dc.lft.to/lastmile_qr_scan"}, "fusion_lon": 0.0}, {"lat": 38.918313, "is_disabled": 0, "type": "electric_scooter", "lon": -77.02267716666667, "bike_id": "b8a0f49e9f1feef14d5cd7d9c17b2922", "fusion_lat": 0.0, "name": "b8a0f49e9f1feef14d5cd7d9c17b2922", "is_reserved": 0, "rental_uris": {"android": "https://dc.lft.to/lastmile_qr_scan", "ios": "https://dc.lft.to/lastmile_qr_scan"}, "fusion_lon": 0.0}, {"lat": 38.916204666666665, "is_disabled": 0, "type": "electric_scooter", "lon": -77.04864033333334, "bike_id": "c1c7f546bc2437e5c771a7f6e3aeb2cd", "fusion_lat": 0.0, "name": "c1c7f546bc2437e5c771a7f6e3aeb2cd", "is_reserved": 0, "rental_uris": {"android": "https://dc.lft.to/lastmile_qr_scan", "ios": "https://dc.lft.to/lastmile_qr_scan"}, "fusion_lon": 0.0}, {"lat": 38.916148166666666, "is_disabled": 0, "type": "electric_bike", "lon": -77.0029535, "bike_id": "9935bd9b27f7887bcacb36484c2ac4bc", "fusion_lat": 0.0, "name": "9935bd9b27f7887bcacb36484c2ac4bc", "is_reserved": 0, "rental_uris": {"android": "https://dc.lft.to/lastmile_qr_scan", "ios": "https://dc.lft.to/lastmile_qr_scan"}, "fusion_lon": 0.0}, {"lat": 38.900863333333334, "is_disabled": 0, "type": "electric_scooter", "lon": -77.05071683333334, "bike_id": "2c8e61057e73c03841ff0f534f6f19ad", "fusion_lat": 0.0, "name": "2c8e61057e73c03841ff0f534f6f19ad", "is_reserved": 0, "rental_uris": {"android": "https://dc.lft.to/lastmile_qr_scan", "ios": "https://dc.lft.to/lastmile_qr_scan"}, "fusion_lon": 0.0}, {"lat": 38.924699333333336, "is_disabled": 0, "type": "electric_scooter", "lon": -77.02716333333333, "bike_id": "c957d71cfd94d8158b527f488e0d76ef", "fusion_lat": 0.0, "name": "c957d71cfd94d8158b527f488e0d76ef", "is_reserved": 0, "rental_uris": {"android": "https://dc.lft.to/lastmile_qr_scan", "ios": "https://dc.lft.to/lastmile_qr_scan"}, "fusion_lon": 0.0}, {"lat": 38.9063685, "is_disabled": 0, "type": "electric_scooter", "lon": -77.02503983333334, "bike_id": "4e27ecf63df50091c685366703fa1763", "fusion_lat": 0.0, "name": "4e27ecf63df50091c685366703fa1763", "is_reserved": 0, "rental_uris": {"android": "https://dc.lft.to/lastmile_qr_scan", "ios": "https://dc.lft.to/lastmile_qr_scan"}, "fusion_lon": 0.0}, {"lat": 38.914236333333335, "is_disabled": 0, "type": "electric_scooter", "lon": -77.0464785, "bike_id": "5a23df83eeb44dad0a037262436e2312", "fusion_lat": 0.0, "name": "5a23df83eeb44dad0a037262436e2312", "is_reserved": 0, "rental_uris": {"android": "https://dc.lft.to/lastmile_qr_scan", "ios": "https://dc.lft.to/lastmile_qr_scan"}, "fusion_lon": 0.0}, {"lat": 38.92868, "is_disabled": 0, "type": "electric_scooter", "lon": -77.03323366666666, "bike_id": "0a9733d429384cb668f1e43f9ea85a4c", "fusion_lat": 0.0, "name": "0a9733d429384cb668f1e43f9ea85a4c", "is_reserved": 0, "rental_uris": {"android": "https://dc.lft.to/lastmile_qr_scan", "ios": "https://dc.lft.to/lastmile_qr_scan"}, "fusion_lon": 0.0}, {"lat": 38.91253716666667, "is_disabled": 0, "type": "electric_scooter", "lon": -77.03872983333333, "bike_id": "d44141dee6d0b277ebc300323270453e", "fusion_lat": 0.0, "name": "d44141dee6d0b277ebc300323270453e", "is_reserved": 0, "rental_uris": {"android": "https://dc.lft.to/lastmile_qr_scan", "ios": "https://dc.lft.to/lastmile_qr_scan"}, "fusion_lon": 0.0}, {"lat": 38.8714485, "is_disabled": 0, "type": "electric_bike", "lon": -76.93705483333333, "bike_id": "ad0c9d106133a54ce85bbf90c843936f", "fusion_lat": 0.0, "name": "ad0c9d106133a54ce85bbf90c843936f", "is_reserved": 0, "rental_uris": {"android": "https://dc.lft.to/lastmile_qr_scan", "ios": "https://dc.lft.to/lastmile_qr_scan"}, "fusion_lon": 0.0}, {"lat": 38.91624916666667, "is_disabled": 0, "type": "electric_scooter", "lon": -77.0329345, "bike_id": "9ea0ab390c292d6134bb1242fb6b4be5", "fusion_lat": 0.0, "name": "9ea0ab390c292d6134bb1242fb6b4be5", "is_reserved": 0, "rental_uris": {"android": "https://dc.lft.to/lastmile_qr_scan", "ios": "https://dc.lft.to/lastmile_qr_scan"}, "fusion_lon": 0.0}, {"lat": 38.89225066666667, "is_disabled": 0, "type": "electric_scooter", "lon": -77.031621, "bike_id": "ac4be30778f2c851dd00525dfe3885d7", "fusion_lat": 0.0, "name": "ac4be30778f2c851dd00525dfe3885d7", "is_reserved": 0, "rental_uris": {"android": "https://dc.lft.to/lastmile_qr_scan", "ios": "https://dc.lft.to/lastmile_qr_scan"}, "fusion_lon": 0.0}, {"lat": 38.887431, "is_disabled": 0, "type": "electric_scooter", "lon": -77.0220865, "bike_id": "e70642e28d847ee88054228861056033", "fusion_lat": 0.0, "name": "e70642e28d847ee88054228861056033", "is_reserved": 0, "rental_uris": {"android": "https://dc.lft.to/lastmile_qr_scan", "ios": "https://dc.lft.to/lastmile_qr_scan"}, "fusion_lon": 0.0}, {"lat": 38.868361666666665, "is_disabled": 0, "type": "electric_scooter", "lon": -76.97740933333333, "bike_id": "56f933d6583a9d0810888dfb787876a7", "fusion_lat": 0.0, "name": "56f933d6583a9d0810888dfb787876a7", "is_reserved": 0, "rental_uris": {"android": "https://dc.lft.to/lastmile_qr_scan", "ios": "https://dc.lft.to/lastmile_qr_scan"}, "fusion_lon": 0.0}, {"lat": 38.892242, "is_disabled": 0, "type": "electric_scooter", "lon": -77.04368516666666, "bike_id": "287bb24763b6fb465d11bd2b3439e9e8", "fusion_lat": 0.0, "name": "287bb24763b6fb465d11bd2b3439e9e8", "is_reserved": 0, "rental_uris": {"android": "https://dc.lft.to/lastmile_qr_scan", "ios": "https://dc.lft.to/lastmile_qr_scan"}, "fusion_lon": 0.0}, {"lat": 38.913267166666664, "is_disabled": 0, "type": "electric_scooter", "lon": -77.03276916666667, "bike_id": "a0f7e923b5ae45f2e381693e71860462", "fusion_lat": 0.0, "name": "a0f7e923b5ae45f2e381693e71860462", "is_reserved": 0, "rental_uris": {"android": "https://dc.lft.to/lastmile_qr_scan", "ios": "https://dc.lft.to/lastmile_qr_scan"}, "fusion_lon": 0.0}, {"lat": 38.89227316666667, "is_disabled": 0, "type": "electric_scooter", "lon": -77.0468895, "bike_id": "69304cef9f7927d6c4884a13475ea130", "fusion_lat": 0.0, "name": "69304cef9f7927d6c4884a13475ea130", "is_reserved": 0, "rental_uris": {"android": "https://dc.lft.to/lastmile_qr_scan", "ios": "https://dc.lft.to/lastmile_qr_scan"}, "fusion_lon": 0.0}, {"lat": 38.91806166666667, "is_disabled": 0, "type": "electric_scooter", "lon": -77.03199066666667, "bike_id": "7adcb5822b4758236d3c8f8351619f72", "fusion_lat": 0.0, "name": "7adcb5822b4758236d3c8f8351619f72", "is_reserved": 0, "rental_uris": {"android": "https://dc.lft.to/lastmile_qr_scan", "ios": "https://dc.lft.to/lastmile_qr_scan"}, "fusion_lon": 0.0}, {"lat": 38.923473, "is_disabled": 0, "type": "electric_scooter", "lon": -77.03513, "bike_id": "1f6810dbff75a28bf5d371fd6b843d1f", "fusion_lat": 0.0, "name": "1f6810dbff75a28bf5d371fd6b843d1f", "is_reserved": 0, "rental_uris": {"android": "https://dc.lft.to/lastmile_qr_scan", "ios": "https://dc.lft.to/lastmile_qr_scan"}, "fusion_lon": 0.0}, {"lat": 38.91916466666667, "is_disabled": 0, "type": "electric_scooter", "lon": -77.04812983333333, "bike_id": "220d40fbb6c95ec468a500f89d91bdfc", "fusion_lat": 0.0, "name": "220d40fbb6c95ec468a500f89d91bdfc", "is_reserved": 0, "rental_uris": {"android": "https://dc.lft.to/lastmile_qr_scan", "ios": "https://dc.lft.to/lastmile_qr_scan"}, "fusion_lon": 0.0}, {"lat": 38.95959166666667, "is_disabled": 0, "type": "electric_scooter", "lon": -77.03316883333333, "bike_id": "1d3c33cc14316b83ad8bc2b4c2979911", "fusion_lat": 0.0, "name": "1d3c33cc14316b83ad8bc2b4c2979911", "is_reserved": 0, "rental_uris": {"android": "https://dc.lft.to/lastmile_qr_scan", "ios": "https://dc.lft.to/lastmile_qr_scan"}, "fusion_lon": 0.0}, {"lat": 38.871935666666666, "is_disabled": 0, "type": "electric_bike", "lon": -77.0122035, "bike_id": "45fe8decfc31704922a7884dfb43c0b7", "fusion_lat": 0.0, "name": "45fe8decfc31704922a7884dfb43c0b7", "is_reserved": 0, "rental_uris": {"android": "https://dc.lft.to/lastmile_qr_scan", "ios": "https://dc.lft.to/lastmile_qr_scan"}, "fusion_lon": 0.0}, {"lat": 38.9005305, "is_disabled": 0, "type": "electric_scooter", "lon": -77.01878433333333, "bike_id": "a69aa356f74985f1318cf6fbb45efd32", "fusion_lat": 0.0, "name": "a69aa356f74985f1318cf6fbb45efd32", "is_reserved": 0, "rental_uris": {"android": "https://dc.lft.to/lastmile_qr_scan", "ios": "https://dc.lft.to/lastmile_qr_scan"}, "fusion_lon": 0.0}, {"lat": 38.92499983333333, "is_disabled": 0, "type": "electric_scooter", "lon": -77.0216055, "bike_id": "4f592e36cd3ed0c0e931d5beb3a8b648", "fusion_lat": 0.0, "name": "4f592e36cd3ed0c0e931d5beb3a8b648", "is_reserved": 0, "rental_uris": {"android": "https://dc.lft.to/lastmile_qr_scan", "ios": "https://dc.lft.to/lastmile_qr_scan"}, "fusion_lon": 0.0}, {"lat": 38.884873, "is_disabled": 0, "type": "electric_scooter", "lon": -77.03473716666667, "bike_id": "ea87a7e59e540b201b4a21600929c563", "fusion_lat": 0.0, "name": "ea87a7e59e540b201b4a21600929c563", "is_reserved": 0, "rental_uris": {"android": "https://dc.lft.to/lastmile_qr_scan", "ios": "https://dc.lft.to/lastmile_qr_scan"}, "fusion_lon": 0.0}, {"lat": 38.95959416666667, "is_disabled": 0, "type": "electric_bike", "lon": -77.100935, "bike_id": "3c27f89c2a8e2d718d27ec2f76dd6447", "fusion_lat": 0.0, "name": "3c27f89c2a8e2d718d27ec2f76dd6447", "is_reserved": 0, "rental_uris": {"android": "https://dc.lft.to/lastmile_qr_scan", "ios": "https://dc.lft.to/lastmile_qr_scan"}, "fusion_lon": 0.0}, {"lat": 38.91619383333333, "is_disabled": 0, "type": "electric_bike", "lon": -77.00296833333333, "bike_id": "533b6a068b886db4d25e933f51880580", "fusion_lat": 0.0, "name": "533b6a068b886db4d25e933f51880580", "is_reserved": 0, "rental_uris": {"android": "https://dc.lft.to/lastmile_qr_scan", "ios": "https://dc.lft.to/lastmile_qr_scan"}, "fusion_lon": 0.0}, {"lat": 38.905484666666666, "is_disabled": 0, "type": "electric_scooter", "lon": -77.05709183333333, "bike_id": "0ca4e5d0580a6fdb513cc47e5c35c073", "fusion_lat": 0.0, "name": "0ca4e5d0580a6fdb513cc47e5c35c073", "is_reserved": 0, "rental_uris": {"android": "https://dc.lft.to/lastmile_qr_scan", "ios": "https://dc.lft.to/lastmile_qr_scan"}, "fusion_lon": 0.0}, {"lat": 38.920750166666664, "is_disabled": 0, "type": "electric_scooter", "lon": -77.02536733333334, "bike_id": "776fbda7a7638e7fd326952d0678bc80", "fusion_lat": 0.0, "name": "776fbda7a7638e7fd326952d0678bc80", "is_reserved": 0, "rental_uris": {"android": "https://dc.lft.to/lastmile_qr_scan", "ios": "https://dc.lft.to/lastmile_qr_scan"}, "fusion_lon": 0.0}, {"lat": 38.866481, "is_disabled": 0, "type": "electric_scooter", "lon": -76.9888375, "bike_id": "bc8fd4a3dfac377671d206731d910f39", "fusion_lat": 0.0, "name": "bc8fd4a3dfac377671d206731d910f39", "is_reserved": 0, "rental_uris": {"android": "https://dc.lft.to/lastmile_qr_scan", "ios": "https://dc.lft.to/lastmile_qr_scan"}, "fusion_lon": 0.0}, {"lat": 38.8849265, "is_disabled": 0, "type": "electric_scooter", "lon": -77.0070785, "bike_id": "ad8abde3fe534118637be49d337153d9", "fusion_lat": 0.0, "name": "ad8abde3fe534118637be49d337153d9", "is_reserved": 0, "rental_uris": {"android": "https://dc.lft.to/lastmile_qr_scan", "ios": "https://dc.lft.to/lastmile_qr_scan"}, "fusion_lon": 0.0}, {"lat": 38.91269916666667, "is_disabled": 0, "type": "electric_scooter", "lon": -77.01841916666666, "bike_id": "269c37757e72f89b79bee2627146204e", "fusion_lat": 0.0, "name": "269c37757e72f89b79bee2627146204e", "is_reserved": 0, "rental_uris": {"android": "https://dc.lft.to/lastmile_qr_scan", "ios": "https://dc.lft.to/lastmile_qr_scan"}, "fusion_lon": 0.0}, {"lat": 38.914280166666664, "is_disabled": 0, "type": "electric_scooter", "lon": -77.03209816666667, "bike_id": "d70df835416a77540cad120a3efad262", "fusion_lat": 0.0, "name": "d70df835416a77540cad120a3efad262", "is_reserved": 0, "rental_uris": {"android": "https://dc.lft.to/lastmile_qr_scan", "ios": "https://dc.lft.to/lastmile_qr_scan"}, "fusion_lon": 0.0}, {"lat": 38.90849033333333, "is_disabled": 0, "type": "electric_scooter", "lon": -77.02066716666667, "bike_id": "bffe01b749b98cfd913179b8eb3ff7dd", "fusion_lat": 0.0, "name": "bffe01b749b98cfd913179b8eb3ff7dd", "is_reserved": 0, "rental_uris": {"android": "https://dc.lft.to/lastmile_qr_scan", "ios": "https://dc.lft.to/lastmile_qr_scan"}, "fusion_lon": 0.0}, {"lat": 38.9039255, "is_disabled": 0, "type": "electric_scooter", "lon": -76.9900955, "bike_id": "d38070fbde326089280ef48cf2312971", "fusion_lat": 0.0, "name": "d38070fbde326089280ef48cf2312971", "is_reserved": 0, "rental_uris": {"android": "https://dc.lft.to/lastmile_qr_scan", "ios": "https://dc.lft.to/lastmile_qr_scan"}, "fusion_lon": 0.0}, {"lat": 38.94040783333333, "is_disabled": 0, "type": "electric_bike", "lon": -76.98820583333334, "bike_id": "57243bea217bb6be103b64af373e6896", "fusion_lat": 0.0, "name": "57243bea217bb6be103b64af373e6896", "is_reserved": 0, "rental_uris": {"android": "https://dc.lft.to/lastmile_qr_scan", "ios": "https://dc.lft.to/lastmile_qr_scan"}, "fusion_lon": 0.0}, {"lat": 38.800692, "is_disabled": 0, "type": "electric_bike", "lon": -77.07121, "bike_id": "de10840ed4f324af846e9b1b533147d7", "fusion_lat": 0.0, "name": "de10840ed4f324af846e9b1b533147d7", "is_reserved": 0, "rental_uris": {"android": "https://dc.lft.to/lastmile_qr_scan", "ios": "https://dc.lft.to/lastmile_qr_scan"}, "fusion_lon": 0.0}, {"lat": 38.956304333333335, "is_disabled": 0, "type": "electric_bike", "lon": -77.02296166666666, "bike_id": "7aa2d9dc45be7526c8b1efcd330ea34c", "fusion_lat": 0.0, "name": "7aa2d9dc45be7526c8b1efcd330ea34c", "is_reserved": 0, "rental_uris": {"android": "https://dc.lft.to/lastmile_qr_scan", "ios": "https://dc.lft.to/lastmile_qr_scan"}, "fusion_lon": 0.0}, {"lat": 38.9197965, "is_disabled": 0, "type": "electric_bike", "lon": -77.00324983333333, "bike_id": "00faae57ae1dda64633f08d1a87e58ad", "fusion_lat": 0.0, "name": "00faae57ae1dda64633f08d1a87e58ad", "is_reserved": 0, "rental_uris": {"android": "https://dc.lft.to/lastmile_qr_scan", "ios": "https://dc.lft.to/lastmile_qr_scan"}, "fusion_lon": 0.0}, {"lat": 38.9074115, "is_disabled": 0, "type": "electric_scooter", "lon": -77.02715366666666, "bike_id": "fe6924a92a193c7fea9608dc73076c58", "fusion_lat": 0.0, "name": "fe6924a92a193c7fea9608dc73076c58", "is_reserved": 0, "rental_uris": {"android": "https://dc.lft.to/lastmile_qr_scan", "ios": "https://dc.lft.to/lastmile_qr_scan"}, "fusion_lon": 0.0}, {"lat": 38.903674, "is_disabled": 0, "type": "electric_scooter", "lon": -77.04007766666666, "bike_id": "96e5a3ee45be2a91f31a8fa5da59aa67", "fusion_lat": 0.0, "name": "96e5a3ee45be2a91f31a8fa5da59aa67", "is_reserved": 0, "rental_uris": {"android": "https://dc.lft.to/lastmile_qr_scan", "ios": "https://dc.lft.to/lastmile_qr_scan"}, "fusion_lon": 0.0}, {"lat": 38.91812, "is_disabled": 0, "type": "electric_scooter", "lon": -77.03915583333334, "bike_id": "e3da8bf885ed2e62d69ce64ac170fca0", "fusion_lat": 0.0, "name": "e3da8bf885ed2e62d69ce64ac170fca0", "is_reserved": 0, "rental_uris": {"android": "https://dc.lft.to/lastmile_qr_scan", "ios": "https://dc.lft.to/lastmile_qr_scan"}, "fusion_lon": 0.0}, {"lat": 38.915632333333335, "is_disabled": 0, "type": "electric_scooter", "lon": -77.02978766666666, "bike_id": "8ced46336b8967b86ed00f6d170ee483", "fusion_lat": 0.0, "name": "8ced46336b8967b86ed00f6d170ee483", "is_reserved": 0, "rental_uris": {"android": "https://dc.lft.to/lastmile_qr_scan", "ios": "https://dc.lft.to/lastmile_qr_scan"}, "fusion_lon": 0.0}, {"lat": 38.907363333333336, "is_disabled": 0, "type": "electric_scooter", "lon": -77.02806816666667, "bike_id": "f706ed7bdc9ba370f734d848c0ecaa41", "fusion_lat": 0.0, "name": "f706ed7bdc9ba370f734d848c0ecaa41", "is_reserved": 0, "rental_uris": {"android": "https://dc.lft.to/lastmile_qr_scan", "ios": "https://dc.lft.to/lastmile_qr_scan"}, "fusion_lon": 0.0}, {"lat": 38.9053335, "is_disabled": 0, "type": "electric_bike", "lon": -77.050297, "bike_id": "3cd9930fa958f92a1e8873aa3d7ab0d8", "fusion_lat": 0.0, "name": "3cd9930fa958f92a1e8873aa3d7ab0d8", "is_reserved": 0, "rental_uris": {"android": "https://dc.lft.to/lastmile_qr_scan", "ios": "https://dc.lft.to/lastmile_qr_scan"}, "fusion_lon": 0.0}, {"lat": 38.90569566666667, "is_disabled": 0, "type": "electric_scooter", "lon": -77.02175883333334, "bike_id": "127a6c413f64d964cb665230b8598f41", "fusion_lat": 0.0, "name": "127a6c413f64d964cb665230b8598f41", "is_reserved": 0, "rental_uris": {"android": "https://dc.lft.to/lastmile_qr_scan", "ios": "https://dc.lft.to/lastmile_qr_scan"}, "fusion_lon": 0.0}, {"lat": 38.9173635, "is_disabled": 0, "type": "electric_scooter", "lon": -77.03660816666667, "bike_id": "b6cb6e04d8708fe45169361e6fd16461", "fusion_lat": 0.0, "name": "b6cb6e04d8708fe45169361e6fd16461", "is_reserved": 0, "rental_uris": {"android": "https://dc.lft.to/lastmile_qr_scan", "ios": "https://dc.lft.to/lastmile_qr_scan"}, "fusion_lon": 0.0}, {"lat": 38.920434166666666, "is_disabled": 0, "type": "electric_scooter", "lon": -77.024506, "bike_id": "415449c26484e0719bc881d5f2cbaef7", "fusion_lat": 0.0, "name": "415449c26484e0719bc881d5f2cbaef7", "is_reserved": 0, "rental_uris": {"android": "https://dc.lft.to/lastmile_qr_scan", "ios": "https://dc.lft.to/lastmile_qr_scan"}, "fusion_lon": 0.0}, {"lat": 38.9963105, "is_disabled": 0, "type": "electric_bike", "lon": -77.02966333333333, "bike_id": "843b7c20e6bba422d7c8de8160b93f67", "fusion_lat": 0.0, "name": "843b7c20e6bba422d7c8de8160b93f67", "is_reserved": 0, "rental_uris": {"android": "https://dc.lft.to/lastmile_qr_scan", "ios": "https://dc.lft.to/lastmile_qr_scan"}, "fusion_lon": 0.0}, {"lat": 38.9142295, "is_disabled": 0, "type": "electric_scooter", "lon": -77.02202666666666, "bike_id": "674bef31d39c26f648cbb50913c94c3b", "fusion_lat": 0.0, "name": "674bef31d39c26f648cbb50913c94c3b", "is_reserved": 0, "rental_uris": {"android": "https://dc.lft.to/lastmile_qr_scan", "ios": "https://dc.lft.to/lastmile_qr_scan"}, "fusion_lon": 0.0}, {"lat": 38.90813816666667, "is_disabled": 0, "type": "electric_scooter", "lon": -77.04352366666667, "bike_id": "f4fff9ad729057834d348a2e8597b476", "fusion_lat": 0.0, "name": "f4fff9ad729057834d348a2e8597b476", "is_reserved": 0, "rental_uris": {"android": "https://dc.lft.to/lastmile_qr_scan", "ios": "https://dc.lft.to/lastmile_qr_scan"}, "fusion_lon": 0.0}, {"lat": 38.908882166666665, "is_disabled": 0, "type": "electric_scooter", "lon": -77.02299633333334, "bike_id": "e6211e32bac4576909bfb9778dafa35e", "fusion_lat": 0.0, "name": "e6211e32bac4576909bfb9778dafa35e", "is_reserved": 0, "rental_uris": {"android": "https://dc.lft.to/lastmile_qr_scan", "ios": "https://dc.lft.to/lastmile_qr_scan"}, "fusion_lon": 0.0}, {"lat": 38.96228, "is_disabled": 0, "type": "electric_bike", "lon": -77.02627416666667, "bike_id": "d611d257bb9950aaef12ab416f4b1f23", "fusion_lat": 0.0, "name": "d611d257bb9950aaef12ab416f4b1f23", "is_reserved": 0, "rental_uris": {"android": "https://dc.lft.to/lastmile_qr_scan", "ios": "https://dc.lft.to/lastmile_qr_scan"}, "fusion_lon": 0.0}, {"lat": 38.92386333333334, "is_disabled": 0, "type": "electric_scooter", "lon": -77.05756583333333, "bike_id": "53d187360af7827b7eb23d782cca9228", "fusion_lat": 0.0, "name": "53d187360af7827b7eb23d782cca9228", "is_reserved": 0, "rental_uris": {"android": "https://dc.lft.to/lastmile_qr_scan", "ios": "https://dc.lft.to/lastmile_qr_scan"}, "fusion_lon": 0.0}, {"lat": 38.92079916666667, "is_disabled": 0, "type": "electric_scooter", "lon": -77.02395166666666, "bike_id": "a885e5fd3e03753bac81c59e54d0aa78", "fusion_lat": 0.0, "name": "a885e5fd3e03753bac81c59e54d0aa78", "is_reserved": 0, "rental_uris": {"android": "https://dc.lft.to/lastmile_qr_scan", "ios": "https://dc.lft.to/lastmile_qr_scan"}, "fusion_lon": 0.0}, {"lat": 38.902613333333335, "is_disabled": 0, "type": "electric_scooter", "lon": -77.0436295, "bike_id": "f96f939100dad2cf98bd9d6e3b1bc238", "fusion_lat": 0.0, "name": "f96f939100dad2cf98bd9d6e3b1bc238", "is_reserved": 0, "rental_uris": {"android": "https://dc.lft.to/lastmile_qr_scan", "ios": "https://dc.lft.to/lastmile_qr_scan"}, "fusion_lon": 0.0}, {"lat": 38.89222766666666, "is_disabled": 0, "type": "electric_bike", "lon": -77.10778316666666, "bike_id": "6bd4d1be00e879ad5c324280f2eb2d5a", "fusion_lat": 0.0, "name": "6bd4d1be00e879ad5c324280f2eb2d5a", "is_reserved": 0, "rental_uris": {"android": "https://dc.lft.to/lastmile_qr_scan", "ios": "https://dc.lft.to/lastmile_qr_scan"}, "fusion_lon": 0.0}, {"lat": 38.9037395, "is_disabled": 0, "type": "electric_scooter", "lon": -77.00752816666666, "bike_id": "5bd50f1872a8eff484df4be7bded31a2", "fusion_lat": 0.0, "name": "5bd50f1872a8eff484df4be7bded31a2", "is_reserved": 0, "rental_uris": {"android": "https://dc.lft.to/lastmile_qr_scan", "ios": "https://dc.lft.to/lastmile_qr_scan"}, "fusion_lon": 0.0}, {"lat": 38.90238316666667, "is_disabled": 0, "type": "electric_scooter", "lon": -77.019482, "bike_id": "441fc89ab7d5db6fb327a41dac41fffc", "fusion_lat": 0.0, "name": "441fc89ab7d5db6fb327a41dac41fffc", "is_reserved": 0, "rental_uris": {"android": "https://dc.lft.to/lastmile_qr_scan", "ios": "https://dc.lft.to/lastmile_qr_scan"}, "fusion_lon": 0.0}, {"lat": 38.90859233333333, "is_disabled": 0, "type": "electric_scooter", "lon": -77.00364116666667, "bike_id": "a09bccfe987078292660e9d091beee7c", "fusion_lat": 0.0, "name": "a09bccfe987078292660e9d091beee7c", "is_reserved": 0, "rental_uris": {"android": "https://dc.lft.to/lastmile_qr_scan", "ios": "https://dc.lft.to/lastmile_qr_scan"}, "fusion_lon": 0.0}, {"lat": 38.89493733333333, "is_disabled": 0, "type": "electric_bike", "lon": -77.07349833333333, "bike_id": "80af25aa9514b946f59b1255d27cdc50", "fusion_lat": 0.0, "name": "80af25aa9514b946f59b1255d27cdc50", "is_reserved": 0, "rental_uris": {"android": "https://dc.lft.to/lastmile_qr_scan", "ios": "https://dc.lft.to/lastmile_qr_scan"}, "fusion_lon": 0.0}, {"lat": 38.969437, "is_disabled": 0, "type": "electric_bike", "lon": -77.03350016666667, "bike_id": "40e6405d17463c7fd7246e760726c310", "fusion_lat": 0.0, "name": "40e6405d17463c7fd7246e760726c310", "is_reserved": 0, "rental_uris": {"android": "https://dc.lft.to/lastmile_qr_scan", "ios": "https://dc.lft.to/lastmile_qr_scan"}, "fusion_lon": 0.0}, {"lat": 38.89840083333333, "is_disabled": 0, "type": "electric_scooter", "lon": -76.99504866666666, "bike_id": "e1549f84ef88a6f2cb6f49d7fb99a54b", "fusion_lat": 0.0, "name": "e1549f84ef88a6f2cb6f49d7fb99a54b", "is_reserved": 0, "rental_uris": {"android": "https://dc.lft.to/lastmile_qr_scan", "ios": "https://dc.lft.to/lastmile_qr_scan"}, "fusion_lon": 0.0}, {"lat": 38.8866205, "is_disabled": 0, "type": "electric_scooter", "lon": -77.01285283333333, "bike_id": "0ba1ae14770c4e878b61dc8d29bb49b8", "fusion_lat": 0.0, "name": "0ba1ae14770c4e878b61dc8d29bb49b8", "is_reserved": 0, "rental_uris": {"android": "https://dc.lft.to/lastmile_qr_scan", "ios": "https://dc.lft.to/lastmile_qr_scan"}, "fusion_lon": 0.0}, {"lat": 38.89221883333333, "is_disabled": 0, "type": "electric_scooter", "lon": -77.04370483333334, "bike_id": "931fa5751a4e8d5ce664ca4cb2ef150b", "fusion_lat": 0.0, "name": "931fa5751a4e8d5ce664ca4cb2ef150b", "is_reserved": 0, "rental_uris": {"android": "https://dc.lft.to/lastmile_qr_scan", "ios": "https://dc.lft.to/lastmile_qr_scan"}, "fusion_lon": 0.0}, {"lat": 38.885279833333335, "is_disabled": 0, "type": "electric_scooter", "lon": -77.01135066666667, "bike_id": "7d85fe0d6b542a2acac3aee64bfa80c6", "fusion_lat": 0.0, "name": "7d85fe0d6b542a2acac3aee64bfa80c6", "is_reserved": 0, "rental_uris": {"android": "https://dc.lft.to/lastmile_qr_scan", "ios": "https://dc.lft.to/lastmile_qr_scan"}, "fusion_lon": 0.0}, {"lat": 38.93608583333334, "is_disabled": 0, "type": "electric_scooter", "lon": -77.0585865, "bike_id": "a277357b6fc09d568cc91d3a8e2b9a2b", "fusion_lat": 0.0, "name": "a277357b6fc09d568cc91d3a8e2b9a2b", "is_reserved": 0, "rental_uris": {"android": "https://dc.lft.to/lastmile_qr_scan", "ios": "https://dc.lft.to/lastmile_qr_scan"}, "fusion_lon": 0.0}, {"lat": 38.93327283333333, "is_disabled": 0, "type": "electric_scooter", "lon": -77.043727, "bike_id": "11dafc54a8645b0394de72b1d7c64fdb", "fusion_lat": 0.0, "name": "11dafc54a8645b0394de72b1d7c64fdb", "is_reserved": 0, "rental_uris": {"android": "https://dc.lft.to/lastmile_qr_scan", "ios": "https://dc.lft.to/lastmile_qr_scan"}, "fusion_lon": 0.0}, {"lat": 38.90234733333333, "is_disabled": 0, "type": "electric_scooter", "lon": -77.06053983333334, "bike_id": "0d6a32c5da720a664e8e97402376a01b", "fusion_lat": 0.0, "name": "0d6a32c5da720a664e8e97402376a01b", "is_reserved": 0, "rental_uris": {"android": "https://dc.lft.to/lastmile_qr_scan", "ios": "https://dc.lft.to/lastmile_qr_scan"}, "fusion_lon": 0.0}, {"lat": 38.91950216666667, "is_disabled": 0, "type": "electric_scooter", "lon": -76.98073833333333, "bike_id": "c095d24cd8c5ff6f0f5f84c50ade5b47", "fusion_lat": 0.0, "name": "c095d24cd8c5ff6f0f5f84c50ade5b47", "is_reserved": 0, "rental_uris": {"android": "https://dc.lft.to/lastmile_qr_scan", "ios": "https://dc.lft.to/lastmile_qr_scan"}, "fusion_lon": 0.0}, {"lat": 38.92489783333333, "is_disabled": 0, "type": "electric_scooter", "lon": -77.05758066666667, "bike_id": "2a75687d7eed35f0636ee724aca25a5c", "fusion_lat": 0.0, "name": "2a75687d7eed35f0636ee724aca25a5c", "is_reserved": 0, "rental_uris": {"android": "https://dc.lft.to/lastmile_qr_scan", "ios": "https://dc.lft.to/lastmile_qr_scan"}, "fusion_lon": 0.0}, {"lat": 38.8637205, "is_disabled": 0, "type": "electric_scooter", "lon": -76.99029033333333, "bike_id": "d2b32fefa6d0b294c1dedd218e90b90a", "fusion_lat": 0.0, "name": "d2b32fefa6d0b294c1dedd218e90b90a", "is_reserved": 0, "rental_uris": {"android": "https://dc.lft.to/lastmile_qr_scan", "ios": "https://dc.lft.to/lastmile_qr_scan"}, "fusion_lon": 0.0}, {"lat": 38.9224725, "is_disabled": 0, "type": "electric_scooter", "lon": -77.03085333333334, "bike_id": "757b0578a9bbcd44d5fabb287e2e4e4c", "fusion_lat": 0.0, "name": "757b0578a9bbcd44d5fabb287e2e4e4c", "is_reserved": 0, "rental_uris": {"android": "https://dc.lft.to/lastmile_qr_scan", "ios": "https://dc.lft.to/lastmile_qr_scan"}, "fusion_lon": 0.0}, {"lat": 38.92304883333333, "is_disabled": 0, "type": "electric_scooter", "lon": -77.04215583333334, "bike_id": "ddc7b520c2d8269bdb556b0379dd7b18", "fusion_lat": 0.0, "name": "ddc7b520c2d8269bdb556b0379dd7b18", "is_reserved": 0, "rental_uris": {"android": "https://dc.lft.to/lastmile_qr_scan", "ios": "https://dc.lft.to/lastmile_qr_scan"}, "fusion_lon": 0.0}, {"lat": 38.917058, "is_disabled": 0, "type": "electric_scooter", "lon": -77.00963416666667, "bike_id": "6c20bae3f02363fc345009e525abb5b7", "fusion_lat": 0.0, "name": "6c20bae3f02363fc345009e525abb5b7", "is_reserved": 0, "rental_uris": {"android": "https://dc.lft.to/lastmile_qr_scan", "ios": "https://dc.lft.to/lastmile_qr_scan"}, "fusion_lon": 0.0}, {"lat": 38.929746333333334, "is_disabled": 0, "type": "electric_scooter", "lon": -77.02929466666667, "bike_id": "d03baedaa8369a3a0856c07dff3930df", "fusion_lat": 0.0, "name": "d03baedaa8369a3a0856c07dff3930df", "is_reserved": 0, "rental_uris": {"android": "https://dc.lft.to/lastmile_qr_scan", "ios": "https://dc.lft.to/lastmile_qr_scan"}, "fusion_lon": 0.0}, {"lat": 38.93091966666667, "is_disabled": 0, "type": "electric_scooter", "lon": -77.02366666666667, "bike_id": "12bc50977ea827be991fbf367055d635", "fusion_lat": 0.0, "name": "12bc50977ea827be991fbf367055d635", "is_reserved": 0, "rental_uris": {"android": "https://dc.lft.to/lastmile_qr_scan", "ios": "https://dc.lft.to/lastmile_qr_scan"}, "fusion_lon": 0.0}, {"lat": 38.92126016666667, "is_disabled": 0, "type": "electric_scooter", "lon": -77.03657966666667, "bike_id": "8e65c4f9b44796007ea5d008b07b6936", "fusion_lat": 0.0, "name": "8e65c4f9b44796007ea5d008b07b6936", "is_reserved": 0, "rental_uris": {"android": "https://dc.lft.to/lastmile_qr_scan", "ios": "https://dc.lft.to/lastmile_qr_scan"}, "fusion_lon": 0.0}, {"lat": 38.911243666666664, "is_disabled": 0, "type": "electric_scooter", "lon": -77.038414, "bike_id": "e45a7ffe1f68ceb80b4fa412e0c7826f", "fusion_lat": 0.0, "name": "e45a7ffe1f68ceb80b4fa412e0c7826f", "is_reserved": 0, "rental_uris": {"android": "https://dc.lft.to/lastmile_qr_scan", "ios": "https://dc.lft.to/lastmile_qr_scan"}, "fusion_lon": 0.0}, {"lat": 38.917458333333336, "is_disabled": 0, "type": "electric_scooter", "lon": -77.03183266666667, "bike_id": "62d79b85b47e364e5a567b20544efd74", "fusion_lat": 0.0, "name": "62d79b85b47e364e5a567b20544efd74", "is_reserved": 0, "rental_uris": {"android": "https://dc.lft.to/lastmile_qr_scan", "ios": "https://dc.lft.to/lastmile_qr_scan"}, "fusion_lon": 0.0}, {"lat": 38.93585233333334, "is_disabled": 0, "type": "electric_bike", "lon": -77.10686266666667, "bike_id": "3cef652dec353372f3ae606789554c46", "fusion_lat": 0.0, "name": "3cef652dec353372f3ae606789554c46", "is_reserved": 0, "rental_uris": {"android": "https://dc.lft.to/lastmile_qr_scan", "ios": "https://dc.lft.to/lastmile_qr_scan"}, "fusion_lon": 0.0}, {"lat": 38.89490383333333, "is_disabled": 0, "type": "electric_scooter", "lon": -76.99506266666667, "bike_id": "a6986ab193e44ac188c55c6c307c4778", "fusion_lat": 0.0, "name": "a6986ab193e44ac188c55c6c307c4778", "is_reserved": 0, "rental_uris": {"android": "https://dc.lft.to/lastmile_qr_scan", "ios": "https://dc.lft.to/lastmile_qr_scan"}, "fusion_lon": 0.0}, {"lat": 38.90947933333333, "is_disabled": 0, "type": "electric_scooter", "lon": -77.04658333333333, "bike_id": "aa795388510eeff1a813b4d804c9ee4d", "fusion_lat": 0.0, "name": "aa795388510eeff1a813b4d804c9ee4d", "is_reserved": 0, "rental_uris": {"android": "https://dc.lft.to/lastmile_qr_scan", "ios": "https://dc.lft.to/lastmile_qr_scan"}, "fusion_lon": 0.0}, {"lat": 38.8922205, "is_disabled": 0, "type": "electric_scooter", "lon": -77.045145, "bike_id": "7e6c0efcfe828a7c317ab1856b5e9e67", "fusion_lat": 0.0, "name": "7e6c0efcfe828a7c317ab1856b5e9e67", "is_reserved": 0, "rental_uris": {"android": "https://dc.lft.to/lastmile_qr_scan", "ios": "https://dc.lft.to/lastmile_qr_scan"}, "fusion_lon": 0.0}, {"lat": 38.959091666666666, "is_disabled": 0, "type": "electric_scooter", "lon": -77.0807145, "bike_id": "0cb34e42fec78393a9a82288ea05e099", "fusion_lat": 0.0, "name": "0cb34e42fec78393a9a82288ea05e099", "is_reserved": 0, "rental_uris": {"android": "https://dc.lft.to/lastmile_qr_scan", "ios": "https://dc.lft.to/lastmile_qr_scan"}, "fusion_lon": 0.0}, {"lat": 38.88102416666667, "is_disabled": 0, "type": "electric_scooter", "lon": -77.01661133333333, "bike_id": "b1cb31bd579a4b175b389f594a5dc637", "fusion_lat": 0.0, "name": "b1cb31bd579a4b175b389f594a5dc637", "is_reserved": 0, "rental_uris": {"android": "https://dc.lft.to/lastmile_qr_scan", "ios": "https://dc.lft.to/lastmile_qr_scan"}, "fusion_lon": 0.0}, {"lat": 38.9053275, "is_disabled": 0, "type": "electric_scooter", "lon": -77.029502, "bike_id": "7d96eaee0836185f55340d87fad43218", "fusion_lat": 0.0, "name": "7d96eaee0836185f55340d87fad43218", "is_reserved": 0, "rental_uris": {"android": "https://dc.lft.to/lastmile_qr_scan", "ios": "https://dc.lft.to/lastmile_qr_scan"}, "fusion_lon": 0.0}, {"lat": 38.8940375, "is_disabled": 0, "type": "electric_scooter", "lon": -77.0221065, "bike_id": "4d237334d2f9912d92efc40850843f89", "fusion_lat": 0.0, "name": "4d237334d2f9912d92efc40850843f89", "is_reserved": 0, "rental_uris": {"android": "https://dc.lft.to/lastmile_qr_scan", "ios": "https://dc.lft.to/lastmile_qr_scan"}, "fusion_lon": 0.0}, {"lat": 38.89221633333333, "is_disabled": 0, "type": "electric_scooter", "lon": -77.03216983333333, "bike_id": "67930f17f0b32b2cfebe6cca8e92c032", "fusion_lat": 0.0, "name": "67930f17f0b32b2cfebe6cca8e92c032", "is_reserved": 0, "rental_uris": {"android": "https://dc.lft.to/lastmile_qr_scan", "ios": "https://dc.lft.to/lastmile_qr_scan"}, "fusion_lon": 0.0},