{"data": {"bikes": [{"is_reserved": 0, "type": "electric_scooter", "bike_id": "3d306eb9c7a287255e9bfefad56c6426", "lat": 38.90391233333333, "lon": -77.03156933333334, "rental_uris": {"android": "https://dc.lft.to/lastmile_qr_scan", "ios": "https://dc.lft.to/lastmile_qr_scan"}, "is_disabled": 0, "fusion_lat": 0.0, "name": "3d306eb9c7a287255e9bfefad56c6426", "fusion_lon": 0.0}, {"is_reserved": 0, "type": "electric_scooter", "bike_id": "32325c5b4111c8819af3cf1fe99f1489", "lat": 38.9254705, "lon": -76.9995695, "rental_uris": {"android": "https://dc.lft.to/lastmile_qr_scan", "ios": "https://dc.lft.to/lastmile_qr_scan"}, "is_disabled": 0, "fusion_lat": 0.0, "name": "32325c5b4111c8819af3cf1fe99f1489", "fusion_lon": 0.0}, {"is_reserved": 0, "type": "electric_scooter", "bike_id": "033eea399bebec1a82bd4924297eab91", "lat": 38.917957666666666, "lon": -77.02708083333333, "rental_uris": {"android": "https://dc.lft.to/lastmile_qr_scan", "ios": "https://dc.lft.to/lastmile_qr_scan"}, "is_disabled": 0, "fusion_lat": 0.0, "name": "033eea399bebec1a82bd4924297eab91", "fusion_lon": 0.0}, {"is_reserved": 0, "type": "electric_scooter", "bike_id": "aca90e61244f1c529eddde0e8d5aff85", "lat": 38.920056833333334, "lon": -77.031805, "rental_uris": {"android": "https://dc.lft.to/lastmile_qr_scan", "ios": "https://dc.lft.to/lastmile_qr_scan"}, "is_disabled": 0, "fusion_lat": 0.0, "name": "aca90e61244f1c529eddde0e8d5aff85", "fusion_lon": 0.0}, {"is_reserved": 0, "type": "electric_scooter", "bike_id": "38f0422e3a37590908395e27b6eb4360", "lat": 38.900866666666666, "lon": -77.01611666666666, "rental_uris": {"android": "https://dc.lft.to/lastmile_qr_scan", "ios": "https://dc.lft.to/lastmile_qr_scan"}, "is_disabled": 0, "fusion_lat": 0.0, "name": "38f0422e3a37590908395e27b6eb4360", "fusion_lon": 0.0}, {"is_reserved": 0, "type": "electric_scooter", "bike_id": "d5ffd7bba0b7b6cf4b4992eff6340381", "lat": 38.919521833333334, "lon": -77.04455283333333, "rental_uris": {"android": "https://dc.lft.to/lastmile_qr_scan", "ios": "https://dc.lft.to/lastmile_qr_scan"}, "is_disabled": 0, "fusion_lat": 0.0, "name": "d5ffd7bba0b7b6cf4b4992eff6340381", "fusion_lon": 0.0}, {"is_reserved": 0, "type": "electric_scooter", "bike_id": "8ccdcb935eed72fb08e94584c465ef50", "lat": 38.89220183333333, "lon": -77.03151583333333, "rental_uris": {"android": "https://dc.lft.to/lastmile_qr_scan", "ios": "https://dc.lft.to/lastmile_qr_scan"}, "is_disabled": 0, "fusion_lat": 0.0, "name": "8ccdcb935eed72fb08e94584c465ef50", "fusion_lon": 0.0}, {"is_reserved": 0, "type": "electric_scooter", "bike_id": "58ca38c468b14023c8c5b83bdb27ee8f", "lat": 38.89678166666667, "lon": -77.01195116666666, "rental_uris": {"android": "https://dc.lft.to/lastmile_qr_scan", "ios": "https://dc.lft.to/lastmile_qr_scan"}, "is_disabled": 0, "fusion_lat": 0.0, "name": "58ca38c468b14023c8c5b83bdb27ee8f", "fusion_lon": 0.0}, {"is_reserved": 0, "type": "electric_scooter", "bike_id": "1132d630cb81dc05207314b4f085cfd4", "lat": 38.919509833333336, "lon": -77.02887916666667, "rental_uris": {"android": "https://dc.lft.to/lastmile_qr_scan", "ios": "https://dc.lft.to/lastmile_qr_scan"}, "is_disabled": 0, "fusion_lat": 0.0, "name": "1132d630cb81dc05207314b4f085cfd4", "fusion_lon": 0.0}, {"is_reserved": 0, "type": "electric_scooter", "bike_id": "719e955bbff808cbebce5d504d514216", "lat": 38.92128966666667, "lon": -77.03168133333334, "rental_uris": {"android": "https://dc.lft.to/lastmile_qr_scan", "ios": "https://dc.lft.to/lastmile_qr_scan"}, "is_disabled": 0, "fusion_lat": 0.0, "name": "719e955bbff808cbebce5d504d514216", "fusion_lon": 0.0}, {"is_reserved": 0, "type": "electric_bike", "bike_id": "497aaa2459dc0df23284d3f904900462", "lat": 38.9069265, "lon": -76.9525485, "rental_uris": {"android": "https://dc.lft.to/lastmile_qr_scan", "ios": "https://dc.lft.to/lastmile_qr_scan"}, "is_disabled": 0, "fusion_lat": 0.0, "name": "497aaa2459dc0df23284d3f904900462", "fusion_lon": 0.0}, {"is_reserved": 0, "type": "electric_scooter", "bike_id": "ed289dfd68b61ff33937554a87ecd021", "lat": 38.940325, "lon": -77.02517766666666, "rental_uris": {"android": "https://dc.lft.to/lastmile_qr_scan", "ios": "https://dc.lft.to/lastmile_qr_scan"}, "is_disabled": 0, "fusion_lat": 0.0, "name": "ed289dfd68b61ff33937554a87ecd021", "fusion_lon": 0.0}, {"is_reserved": 0, "type": "electric_scooter", "bike_id": "51af755e98615af9ef92740b1de14633", "lat": 38.939780666666664, "lon": -77.05473383333333, "rental_uris": {"android": "https://dc.lft.to/lastmile_qr_scan", "ios": "https://dc.lft.to/lastmile_qr_scan"}, "is_disabled": 0, "fusion_lat": 0.0, "name": "51af755e98615af9ef92740b1de14633", "fusion_lon": 0.0}, {"is_reserved": 0, "type": "electric_scooter", "bike_id": "11c8970fed4dbcaa091362735b721431", "lat": 38.91676366666667, "lon": -77.03188783333333, "rental_uris": {"android": "https://dc.lft.to/lastmile_qr_scan", "ios": "https://dc.lft.to/lastmile_qr_scan"}, "is_disabled": 0, "fusion_lat": 0.0, "name": "11c8970fed4dbcaa091362735b721431", "fusion_lon": 0.0}, {"is_reserved": 0, "type": "electric_scooter", "bike_id": "d06eeffa1e23f3928c0b066583e3abde", "lat": 38.928734, "lon": -77.0566705, "rental_uris": {"android": "https://dc.lft.to/lastmile_qr_scan", "ios": "https://dc.lft.to/lastmile_qr_scan"}, "is_disabled": 0, "fusion_lat": 0.0, "name": "d06eeffa1e23f3928c0b066583e3abde", "fusion_lon": 0.0}, {"is_reserved": 0, "type": "electric_scooter", "bike_id": "49661acf75e644f97bf00254df882235", "lat": 38.91794683333333, "lon": -77.02708733333333, "rental_uris": {"android": "https://dc.lft.to/lastmile_qr_scan", "ios": "https://dc.lft.to/lastmile_qr_scan"}, "is_disabled": 0, "fusion_lat": 0.0, "name": "49661acf75e644f97bf00254df882235", "fusion_lon": 0.0}, {"is_reserved": 0, "type": "electric_scooter", "bike_id": "c152d9071540a3eb3c6b9799eea71089", "lat": 38.9264625, "lon": -77.02719383333333, "rental_uris": {"android": "https://dc.lft.to/lastmile_qr_scan", "ios": "https://dc.lft.to/lastmile_qr_scan"}, "is_disabled": 0, "fusion_lat": 0.0, "name": "c152d9071540a3eb3c6b9799eea71089", "fusion_lon": 0.0}, {"is_reserved": 0, "type": "electric_scooter", "bike_id": "ac9ab3d0c7f0acbb388d31f28cb39a5f", "lat": 38.91993, "lon": -77.0180685, "rental_uris": {"android": "https://dc.lft.to/lastmile_qr_scan", "ios": "https://dc.lft.to/lastmile_qr_scan"}, "is_disabled": 0, "fusion_lat": 0.0, "name": "ac9ab3d0c7f0acbb388d31f28cb39a5f", "fusion_lon": 0.0}, {"is_reserved": 0, "type": "electric_scooter", "bike_id": "72fced0f3488f4d15b1c43f8bda46de4", "lat": 38.91713283333333, "lon": -77.038562, "rental_uris": {"android": "https://dc.lft.to/lastmile_qr_scan", "ios": "https://dc.lft.to/lastmile_qr_scan"}, "is_disabled": 0, "fusion_lat": 0.0, "name": "72fced0f3488f4d15b1c43f8bda46de4", "fusion_lon": 0.0}, {"is_reserved": 0, "type": "electric_scooter", "bike_id": "66ec89a0e6de98a19820833a247b20a2", "lat": 38.920272833333335, "lon": -77.018524, "rental_uris": {"android": "https://dc.lft.to/lastmile_qr_scan", "ios": "https://dc.lft.to/lastmile_qr_scan"}, "is_disabled": 0, "fusion_lat": 0.0, "name": "66ec89a0e6de98a19820833a247b20a2", "fusion_lon": 0.0}, {"is_reserved": 0, "type": "electric_scooter", "bike_id": "934eeee20d7e07e26b0af8eaa597d417", "lat": 38.87500383333333, "lon": -77.000476, "rental_uris": {"android": "https://dc.lft.to/lastmile_qr_scan", "ios": "https://dc.lft.to/lastmile_qr_scan"}, "is_disabled": 0, "fusion_lat": 0.0, "name": "934eeee20d7e07e26b0af8eaa597d417", "fusion_lon": 0.0}, {"is_reserved": 0, "type": "electric_scooter", "bike_id": "b26b88bd01fa24e211e99c8f0630aa98", "lat": 38.895459333333335, "lon": -76.98337733333334, "rental_uris": {"android": "https://dc.lft.to/lastmile_qr_scan", "ios": "https://dc.lft.to/lastmile_qr_scan"}, "is_disabled": 0, "fusion_lat": 0.0, "name": "b26b88bd01fa24e211e99c8f0630aa98", "fusion_lon": 0.0}, {"is_reserved": 0, "type": "electric_scooter", "bike_id": "25eade41c7c8132da3f7d1d9536837a2", "lat": 38.90404616666667, "lon": -77.00432233333333, "rental_uris": {"android": "https://dc.lft.to/lastmile_qr_scan", "ios": "https://dc.lft.to/lastmile_qr_scan"}, "is_disabled": 0, "fusion_lat": 0.0, "name": "25eade41c7c8132da3f7d1d9536837a2", "fusion_lon": 0.0}, {"is_reserved": 0, "type": "electric_scooter", "bike_id": "92305042946583f948e42ca2c9babfb9", "lat": 38.9289735, "lon": -77.02210616666666, "rental_uris": {"android": "https://dc.lft.to/lastmile_qr_scan", "ios": "https://dc.lft.to/lastmile_qr_scan"}, "is_disabled": 0, "fusion_lat": 0.0, "name": "92305042946583f948e42ca2c9babfb9", "fusion_lon": 0.0}, {"is_reserved": 0, "type": "electric_scooter", "bike_id": "e7475f33835ca4d36bd0ca1d18275892", "lat": 38.904972, "lon": -77.029593, "rental_uris": {"android": "https://dc.lft.to/lastmile_qr_scan", "ios": "https://dc.lft.to/lastmile_qr_scan"}, "is_disabled": 0, "fusion_lat": 0.0, "name": "e7475f33835ca4d36bd0ca1d18275892", "fusion_lon": 0.0}, {"is_reserved": 0, "type": "electric_scooter", "bike_id": "681b22ec8e365298ff1c1e44fd8dffeb", "lat": 38.92024516666667, "lon": -77.02712433333333, "rental_uris": {"android": "https://dc.lft.to/lastmile_qr_scan", "ios": "https://dc.lft.to/lastmile_qr_scan"}, "is_disabled": 0, "fusion_lat": 0.0, "name": "681b22ec8e365298ff1c1e44fd8dffeb", "fusion_lon": 0.0}, {"is_reserved": 0, "type": "electric_scooter", "bike_id": "938ae13431b31ddc1c0f595de7227286", "lat": 38.9303725, "lon": -77.02961166666667, "rental_uris": {"android": "https://dc.lft.to/lastmile_qr_scan", "ios": "https://dc.lft.to/lastmile_qr_scan"}, "is_disabled": 0, "fusion_lat": 0.0, "name": "938ae13431b31ddc1c0f595de7227286", "fusion_lon": 0.0}, {"is_reserved": 0, "type": "electric_scooter", "bike_id": "b89133da408dcef85f6db066030c3515", "lat": 38.917703, "lon": -77.04750583333333, "rental_uris": {"android": "https://dc.lft.to/lastmile_qr_scan", "ios": "https://dc.lft.to/lastmile_qr_scan"}, "is_disabled": 0, "fusion_lat": 0.0, "name": "b89133da408dcef85f6db066030c3515", "fusion_lon": 0.0}, {"is_reserved": 0, "type": "electric_scooter", "bike_id": "62b1ba214d3761fc009929ff7a2a1be6", "lat": 38.882816166666665, "lon": -76.99485966666667, "rental_uris": {"android": "https://dc.lft.to/lastmile_qr_scan", "ios": "https://dc.lft.to/lastmile_qr_scan"}, "is_disabled": 0, "fusion_lat": 0.0, "name": "62b1ba214d3761fc009929ff7a2a1be6", "fusion_lon": 0.0}, {"is_reserved": 0, "type": "electric_bike", "bike_id": "ecd294450f2b93b7511a16c235cff961", "lat": 38.94539483333333, "lon": -77.344582, "rental_uris": {"android": "https://dc.lft.to/lastmile_qr_scan", "ios": "https://dc.lft.to/lastmile_qr_scan"}, "is_disabled": 0, "fusion_lat": 0.0, "name": "ecd294450f2b93b7511a16c235cff961", "fusion_lon": 0.0}, {"is_reserved": 0, "type": "electric_scooter", "bike_id": "5be7ed21b14c7f0bdd196f7554d49130", "lat": 38.900784333333334, "lon": -76.92573266666666, "rental_uris": {"android": "https://dc.lft.to/lastmile_qr_scan", "ios": "https://dc.lft.to/lastmile_qr_scan"}, "is_disabled": 0, "fusion_lat": 0.0, "name": "5be7ed21b14c7f0bdd196f7554d49130", "fusion_lon": 0.0}, {"is_reserved": 0, "type": "electric_bike", "bike_id": "d4dd8fdbaf5ddef9072af9c22aeaa94b", "lat": 39.084330666666666, "lon": -76.95150233333334, "rental_uris": {"android": "https://dc.lft.to/lastmile_qr_scan", "ios": "https://dc.lft.to/lastmile_qr_scan"}, "is_disabled": 0, "fusion_lat": 0.0, "name": "d4dd8fdbaf5ddef9072af9c22aeaa94b", "fusion_lon": 0.0}, {"is_reserved": 0, "type": "electric_scooter", "bike_id": "b76e46ed788983ccd3dc29e4e66c61b1", "lat": 38.90866966666667, "lon": -77.04743233333333, "rental_uris": {"android": "https://dc.lft.to/lastmile_qr_scan", "ios": "https://dc.lft.to/lastmile_qr_scan"}, "is_disabled": 0, "fusion_lat": 0.0, "name": "b76e46ed788983ccd3dc29e4e66c61b1", "fusion_lon": 0.0}, {"is_reserved": 0, "type": "electric_bike", "bike_id": "2643ed8ec3d5dd37aa5a77ec261fdb81", "lat": 38.81941416666667, "lon": -77.00204766666667, "rental_uris": {"android": "https://dc.lft.to/lastmile_qr_scan", "ios": "https://dc.lft.to/lastmile_qr_scan"}, "is_disabled": 0, "fusion_lat": 0.0, "name": "2643ed8ec3d5dd37aa5a77ec261fdb81", "fusion_lon": 0.0}, {"is_reserved": 0, "type": "electric_scooter", "bike_id": "888466596340e68d7a3d090ef0968045", "lat": 38.90796983333333, "lon": -77.0450175, "rental_uris": {"android": "https://dc.lft.to/lastmile_qr_scan", "ios": "https://dc.lft.to/lastmile_qr_scan"}, "is_disabled": 0, "fusion_lat": 0.0, "name": "888466596340e68d7a3d090ef0968045", "fusion_lon": 0.0}, {"is_reserved": 0, "type": "electric_scooter", "bike_id": "8a09ec4109b04e28a0b758d3b5d693dc", "lat": 38.934587666666665, "lon": -77.02094266666667, "rental_uris": {"android": "https://dc.lft.to/lastmile_qr_scan", "ios": "https://dc.lft.to/lastmile_qr_scan"}, "is_disabled": 0, "fusion_lat": 0.0, "name": "8a09ec4109b04e28a0b758d3b5d693dc", "fusion_lon": 0.0}, {"is_reserved": 0, "type": "electric_scooter", "bike_id": "5d934881b6618f0322b0c58dfd02976a", "lat": 38.88987733333333, "lon": -76.992972, "rental_uris": {"android": "https://dc.lft.to/lastmile_qr_scan", "ios": "https://dc.lft.to/lastmile_qr_scan"}, "is_disabled": 0, "fusion_lat": 0.0, "name": "5d934881b6618f0322b0c58dfd02976a", "fusion_lon": 0.0}, {"is_reserved": 0, "type": "electric_scooter", "bike_id": "3a5becd4ba8fc33030a68036fa3adfee", "lat": 38.903067666666665, "lon": -76.976565, "rental_uris": {"android": "https://dc.lft.to/lastmile_qr_scan", "ios": "https://dc.lft.to/lastmile_qr_scan"}, "is_disabled": 0, "fusion_lat": 0.0, "name": "3a5becd4ba8fc33030a68036fa3adfee", "fusion_lon": 0.0}, {"is_reserved": 0, "type": "electric_bike", "bike_id": "3da0194b23635d2bd7b5fda7145fb107", "lat": 38.97311216666667, "lon": -76.99499483333334, "rental_uris": {"android": "https://dc.lft.to/lastmile_qr_scan", "ios": "https://dc.lft.to/lastmile_qr_scan"}, "is_disabled": 0, "fusion_lat": 0.0, "name": "3da0194b23635d2bd7b5fda7145fb107", "fusion_lon": 0.0}, {"is_reserved": 0, "type": "electric_scooter", "bike_id": "b52caa59313b1b86996fcc6c8626764a", "lat": 38.91413566666667, "lon": -77.02249066666667, "rental_uris": {"android": "https://dc.lft.to/lastmile_qr_scan", "ios": "https://dc.lft.to/lastmile_qr_scan"}, "is_disabled": 0, "fusion_lat": 0.0, "name": "b52caa59313b1b86996fcc6c8626764a", "fusion_lon": 0.0}, {"is_reserved": 0, "type": "electric_scooter", "bike_id": "fa4176b54e6f72497e707bd260ac4f2d", "lat": 38.935922, "lon": -77.03369916666666, "rental_uris": {"android": "https://dc.lft.to/lastmile_qr_scan", "ios": "https://dc.lft.to/lastmile_qr_scan"}, "is_disabled": 0, "fusion_lat": 0.0, "name": "fa4176b54e6f72497e707bd260ac4f2d", "fusion_lon": 0.0}, {"is_reserved": 0, "type": "electric_scooter", "bike_id": "ea9579a69469b648f9137b020734e09e", "lat": 38.917067833333334, "lon": -77.04029166666666, "rental_uris": {"android": "https://dc.lft.to/lastmile_qr_scan", "ios": "https://dc.lft.to/lastmile_qr_scan"}, "is_disabled": 0, "fusion_lat": 0.0, "name": "ea9579a69469b648f9137b020734e09e", "fusion_lon": 0.0}, {"is_reserved": 0, "type": "electric_scooter", "bike_id": "bf10dfae0473e0900aec1ef4d9a1af50", "lat": 38.874734833333335, "lon": -77.00336516666667, "rental_uris": {"android": "https://dc.lft.to/lastmile_qr_scan", "ios": "https://dc.lft.to/lastmile_qr_scan"}, "is_disabled": 0, "fusion_lat": 0.0, "name": "bf10dfae0473e0900aec1ef4d9a1af50", "fusion_lon": 0.0}, {"is_reserved": 0, "type": "electric_scooter", "bike_id": "aa0d6f021add43093599b51476ba8846", "lat": 38.8989125, "lon": -76.98005633333334, "rental_uris": {"android": "https://dc.lft.to/lastmile_qr_scan", "ios": "https://dc.lft.to/lastmile_qr_scan"}, "is_disabled": 0, "fusion_lat": 0.0, "name": "aa0d6f021add43093599b51476ba8846", "fusion_lon": 0.0}, {"is_reserved": 0, "type": "electric_scooter", "bike_id": "31d76e84660abfe5d8f6765ac45c1563", "lat": 38.92231016666667, "lon": -77.02333866666666, "rental_uris": {"android": "https://dc.lft.to/lastmile_qr_scan", "ios": "https://dc.lft.to/lastmile_qr_scan"}, "is_disabled": 0, "fusion_lat": 0.0, "name": "31d76e84660abfe5d8f6765ac45c1563", "fusion_lon": 0.0}, {"is_reserved": 0, "type": "electric_scooter", "bike_id": "4acc3f618eb748fafe5be7016f44757b", "lat": 38.92484983333333, "lon": -77.02269933333334, "rental_uris": {"android": "https://dc.lft.to/lastmile_qr_scan", "ios": "https://dc.lft.to/lastmile_qr_scan"}, "is_disabled": 0, "fusion_lat": 0.0, "name": "4acc3f618eb748fafe5be7016f44757b", "fusion_lon": 0.0}, {"is_reserved": 0, "type": "electric_scooter", "bike_id": "ce7bc5b609e281067a40e70e01e2258e", "lat": 38.899451166666665, "lon": -76.98198433333333, "rental_uris": {"android": "https://dc.lft.to/lastmile_qr_scan", "ios": "https://dc.lft.to/lastmile_qr_scan"}, "is_disabled": 0, "fusion_lat": 0.0, "name": "ce7bc5b609e281067a40e70e01e2258e", "fusion_lon": 0.0}, {"is_reserved": 0, "type": "electric_scooter", "bike_id": "21ec66fc8abe92c3bb1bb2483c00a965", "lat": 38.913909, "lon": -77.01982083333333, "rental_uris": {"android": "https://dc.lft.to/lastmile_qr_scan", "ios": "https://dc.lft.to/lastmile_qr_scan"}, "is_disabled": 0, "fusion_lat": 0.0, "name": "21ec66fc8abe92c3bb1bb2483c00a965", "fusion_lon": 0.0}, {"is_reserved": 0, "type": "electric_scooter", "bike_id": "0b608d2eda1a278088656e8c898b147e", "lat": 38.904284833333335, "lon": -77.02606466666667, "rental_uris": {"android": "https://dc.lft.to/lastmile_qr_scan", "ios": "https://dc.lft.to/lastmile_qr_scan"}, "is_disabled": 0, "fusion_lat": 0.0, "name": "0b608d2eda1a278088656e8c898b147e", "fusion_lon": 0.0}, {"is_reserved": 0, "type": "electric_scooter", "bike_id": "0d049cd1e0ebbd3eccd908595733658b", "lat": 38.92137733333333, "lon": -77.04699433333333, "rental_uris": {"android": "https://dc.lft.to/lastmile_qr_scan", "ios": "https://dc.lft.to/lastmile_qr_scan"}, "is_disabled": 0, "fusion_lat": 0.0, "name": "0d049cd1e0ebbd3eccd908595733658b", "fusion_lon": 0.0}, {"is_reserved": 0, "type": "electric_scooter", "bike_id": "5537461a9fc37dc47aac283ce2f187a8", "lat": 38.90374816666667, "lon": -77.05393933333333, "rental_uris": {"android": "https://dc.lft.to/lastmile_qr_scan", "ios": "https://dc.lft.to/lastmile_qr_scan"}, "is_disabled": 0, "fusion_lat": 0.0, "name": "5537461a9fc37dc47aac283ce2f187a8", "fusion_lon": 0.0}, {"is_reserved": 0, "type": "electric_scooter", "bike_id": "86c42751d87028499998bd22ebce8ea7", "lat": 38.91923933333333, "lon": -77.03434316666667, "rental_uris": {"android": "https://dc.lft.to/lastmile_qr_scan", "ios": "https://dc.lft.to/lastmile_qr_scan"}, "is_disabled": 0, "fusion_lat": 0.0, "name": "86c42751d87028499998bd22ebce8ea7", "fusion_lon": 0.0}, {"is_reserved": 0, "type": "electric_scooter", "bike_id": "c43577aeb9d20789f1e4cb10c7dbe0e3", "lat": 38.980259333333336, "lon": -77.02666516666666, "rental_uris": {"android": "https://dc.lft.to/lastmile_qr_scan", "ios": "https://dc.lft.to/lastmile_qr_scan"}, "is_disabled": 0, "fusion_lat": 0.0, "name": "c43577aeb9d20789f1e4cb10c7dbe0e3", "fusion_lon": 0.0}, {"is_reserved": 0, "type": "electric_scooter", "bike_id": "16f74d97f0fff366e29172c1f5ec9f8d", "lat": 38.89557583333333, "lon": -77.01097366666667, "rental_uris": {"android": "https://dc.lft.to/lastmile_qr_scan", "ios": "https://dc.lft.to/lastmile_qr_scan"}, "is_disabled": 0, "fusion_lat": 0.0, "name": "16f74d97f0fff366e29172c1f5ec9f8d", "fusion_lon": 0.0}, {"is_reserved": 0, "type": "electric_scooter", "bike_id": "2bc77d9cce839e15c951175b6effbcfc", "lat": 38.89950433333333, "lon": -77.0510455, "rental_uris": {"android": "https://dc.lft.to/lastmile_qr_scan", "ios": "https://dc.lft.to/lastmile_qr_scan"}, "is_disabled": 0, "fusion_lat": 0.0, "name": "2bc77d9cce839e15c951175b6effbcfc", "fusion_lon": 0.0}, {"is_reserved": 0, "type": "electric_scooter", "bike_id": "e977710831ed3c74e29f38e2eba58cc9", "lat": 38.93340966666667, "lon": -77.08181366666666, "rental_uris": {"android": "https://dc.lft.to/lastmile_qr_scan", "ios": "https://dc.lft.to/lastmile_qr_scan"}, "is_disabled": 0, "fusion_lat": 0.0, "name": "e977710831ed3c74e29f38e2eba58cc9", "fusion_lon": 0.0}, {"is_reserved": 0, "type": "electric_bike", "bike_id": "199971b70237b8f9ff830db9ee11c5c4", "lat": 38.7841055, "lon": -77.12072783333333, "rental_uris": {"android": "https://dc.lft.to/lastmile_qr_scan", "ios": "https://dc.lft.to/lastmile_qr_scan"}, "is_disabled": 0, "fusion_lat": 0.0, "name": "199971b70237b8f9ff830db9ee11c5c4", "fusion_lon": 0.0}, {"is_reserved": 0, "type": "electric_scooter", "bike_id": "b86becb4307c922127dc2c46b49513cb", "lat": 38.9130575, "lon": -77.03644416666667, "rental_uris": {"android": "https://dc.lft.to/lastmile_qr_scan", "ios": "https://dc.lft.to/lastmile_qr_scan"}, "is_disabled": 0, "fusion_lat": 0.0, "name": "b86becb4307c922127dc2c46b49513cb", "fusion_lon": 0.0}, {"is_reserved": 0, "type": "electric_scooter", "bike_id": "ce04a12d63110a77c254250dea4a90b9", "lat": 38.88327833333334, "lon": -77.009599, "rental_uris": {"android": "https://dc.lft.to/lastmile_qr_scan", "ios": "https://dc.lft.to/lastmile_qr_scan"}, "is_disabled": 0, "fusion_lat": 0.0, "name": "ce04a12d63110a77c254250dea4a90b9", "fusion_lon": 0.0}, {"is_reserved": 0, "type": "electric_scooter", "bike_id": "6cba8d47f55a3e109eb31e6f7d2a63e6", "lat": 38.9155845, "lon": -77.03177183333334, "rental_uris": {"android": "https://dc.lft.to/lastmile_qr_scan", "ios": "https://dc.lft.to/lastmile_qr_scan"}, "is_disabled": 0, "fusion_lat": 0.0, "name": "6cba8d47f55a3e109eb31e6f7d2a63e6", "fusion_lon": 0.0}, {"is_reserved": 0, "type": "electric_scooter", "bike_id": "851b4edc2f9f5e472878c0ee00d2cf6e", "lat": 38.91266483333333, "lon": -77.00505983333333, "rental_uris": {"android": "https://dc.lft.to/lastmile_qr_scan", "ios": "https://dc.lft.to/lastmile_qr_scan"}, "is_disabled": 0, "fusion_lat": 0.0, "name": "851b4edc2f9f5e472878c0ee00d2cf6e", "fusion_lon": 0.0}, {"is_reserved": 0, "type": "electric_scooter", "bike_id": "f99ed4bc4af0104d657ec679716576d1", "lat": 38.903937666666664, "lon": -77.03145983333333, "rental_uris": {"android": "https://dc.lft.to/lastmile_qr_scan", "ios": "https://dc.lft.to/lastmile_qr_scan"}, "is_disabled": 0, "fusion_lat": 0.0, "name": "f99ed4bc4af0104d657ec679716576d1", "fusion_lon": 0.0}, {"is_reserved": 0, "type": "electric_scooter", "bike_id": "d73678845367eecefea8421254412558", "lat": 38.91415533333333, "lon": -77.01877416666666, "rental_uris": {"android": "https://dc.lft.to/lastmile_qr_scan", "ios": "https://dc.lft.to/lastmile_qr_scan"}, "is_disabled": 0, "fusion_lat": 0.0, "name": "d73678845367eecefea8421254412558", "fusion_lon": 0.0}, {"is_reserved": 0, "type": "electric_bike", "bike_id": "7f5f1527ce543dca30fff1c91030e3d6", "lat": 38.9491535, "lon": -77.02427866666666, "rental_uris": {"android": "https://dc.lft.to/lastmile_qr_scan", "ios": "https://dc.lft.to/lastmile_qr_scan"}, "is_disabled": 0, "fusion_lat": 0.0, "name": "7f5f1527ce543dca30fff1c91030e3d6", "fusion_lon": 0.0}, {"is_reserved": 0, "type": "electric_scooter", "bike_id": "7bac4f209d8b6ea210862f93d54f3b35", "lat": 38.925048333333336, "lon": -77.02163783333333, "rental_uris": {"android": "https://dc.lft.to/lastmile_qr_scan", "ios": "https://dc.lft.to/lastmile_qr_scan"}, "is_disabled": 0, "fusion_lat": 0.0, "name": "7bac4f209d8b6ea210862f93d54f3b35", "fusion_lon": 0.0}, {"is_reserved": 0, "type": "electric_bike", "bike_id": "6a248102e90e1d6ad6e68b81cd9217b9", "lat": 38.90981766666667, "lon": -76.98516733333334, "rental_uris": {"android": "https://dc.lft.to/lastmile_qr_scan", "ios": "https://dc.lft.to/lastmile_qr_scan"}, "is_disabled": 0, "fusion_lat": 0.0, "name": "6a248102e90e1d6ad6e68b81cd9217b9", "fusion_lon": 0.0}, {"is_reserved": 0, "type": "electric_scooter", "bike_id": "92431ec9f94f5411a44d6fa07f39e5bb", "lat": 38.915091333333336, "lon": -77.00345133333333, "rental_uris": {"android": "https://dc.lft.to/lastmile_qr_scan", "ios": "https://dc.lft.to/lastmile_qr_scan"}, "is_disabled": 0, "fusion_lat": 0.0, "name": "92431ec9f94f5411a44d6fa07f39e5bb", "fusion_lon": 0.0}, {"is_reserved": 0, "type": "electric_scooter", "bike_id": "1f44b861fa24d057c973302d2154f5a6", "lat": 38.895923833333335, "lon": -76.92988233333334, "rental_uris": {"android": "https://dc.lft.to/lastmile_qr_scan", "ios": "https://dc.lft.to/lastmile_qr_scan"}, "is_disabled": 0, "fusion_lat": 0.0, "name": "1f44b861fa24d057c973302d2154f5a6", "fusion_lon": 0.0}, {"is_reserved": 0, "type": "electric_scooter", "bike_id": "554516c57e6754296a618d0e6ca24fdc", "lat": 38.9053205, "lon": -76.988335, "rental_uris": {"android": "https://dc.lft.to/lastmile_qr_scan", "ios": "https://dc.lft.to/lastmile_qr_scan"}, "is_disabled": 0, "fusion_lat": 0.0, "name": "554516c57e6754296a618d0e6ca24fdc", "fusion_lon": 0.0}, {"is_reserved": 0, "type": "electric_scooter", "bike_id": "f4354b1145ffddd75765bc68606b2118", "lat": 38.90243483333333, "lon": -77.01718216666667, "rental_uris": {"android": "https://dc.lft.to/lastmile_qr_scan", "ios": "https://dc.lft.to/lastmile_qr_scan"}, "is_disabled": 0, "fusion_lat": 0.0, "name": "f4354b1145ffddd75765bc68606b2118", "fusion_lon": 0.0}, {"is_reserved": 0, "type": "electric_scooter", "bike_id": "456d1d22cb4d48b3aabed2b54cae7a6c", "lat": 38.918223, "lon": -77.0452495, "rental_uris": {"android": "https://dc.lft.to/lastmile_qr_scan", "ios": "https://dc.lft.to/lastmile_qr_scan"}, "is_disabled": 0, "fusion_lat": 0.0, "name": "456d1d22cb4d48b3aabed2b54cae7a6c", "fusion_lon": 0.0}, {"is_reserved": 0, "type": "electric_scooter", "bike_id": "ffc84ecfe761a96f362ba60be5cc30e9", "lat": 38.899611, "lon": -77.02619233333333, "rental_uris": {"android": "https://dc.lft.to/lastmile_qr_scan", "ios": "https://dc.lft.to/lastmile_qr_scan"}, "is_disabled": 0, "fusion_lat": 0.0, "name": "ffc84ecfe761a96f362ba60be5cc30e9", "fusion_lon": 0.0}, {"is_reserved": 0, "type": "electric_scooter", "bike_id": "35f1ff1744a271b5ee5eab5c283269e3", "lat": 38.89634933333333, "lon": -76.92801266666666, "rental_uris": {"android": "https://dc.lft.to/lastmile_qr_scan", "ios": "https://dc.lft.to/lastmile_qr_scan"}, "is_disabled": 0, "fusion_lat": 0.0, "name": "35f1ff1744a271b5ee5eab5c283269e3", "fusion_lon": 0.0}, {"is_reserved": 0, "type": "electric_bike", "bike_id": "96123bccc510e51f2ee179caf8664003", "lat": 38.942615, "lon": -76.99077666666666, "rental_uris": {"android": "https://dc.lft.to/lastmile_qr_scan", "ios": "https://dc.lft.to/lastmile_qr_scan"}, "is_disabled": 0, "fusion_lat": 0.0, "name": "96123bccc510e51f2ee179caf8664003", "fusion_lon": 0.0}, {"is_reserved": 0, "type": "electric_scooter", "bike_id": "471d9ee3270b6556ab07354dc7b271c2", "lat": 38.91264866666667, "lon": -77.0155785, "rental_uris": {"android": "https://dc.lft.to/lastmile_qr_scan", "ios": "https://dc.lft.to/lastmile_qr_scan"}, "is_disabled": 0, "fusion_lat": 0.0, "name": "471d9ee3270b6556ab07354dc7b271c2", "fusion_lon": 0.0}, {"is_reserved": 0, "type": "electric_scooter", "bike_id": "9f64bbc23d35710cab2be2b57699430b", "lat": 38.92750183333333, "lon": -77.02535016666667, "rental_uris": {"android": "https://dc.lft.to/lastmile_qr_scan", "ios": "https://dc.lft.to/lastmile_qr_scan"}, "is_disabled": 0, "fusion_lat": 0.0, "name": "9f64bbc23d35710cab2be2b57699430b", "fusion_lon": 0.0}, {"is_reserved": 0, "type": "electric_scooter", "bike_id": "3a9e1715d029a62dac19b01cb222ea4e", "lat": 38.9591295, "lon": -77.000172, "rental_uris": {"android": "https://dc.lft.to/lastmile_qr_scan", "ios": "https://dc.lft.to/lastmile_qr_scan"}, "is_disabled": 0, "fusion_lat": 0.0, "name": "3a9e1715d029a62dac19b01cb222ea4e", "fusion_lon": 0.0}, {"is_reserved": 0, "type": "electric_scooter", "bike_id": "ba2909dba2094f2e58a5054af43b5f78", "lat": 38.91480933333333, "lon": -77.04538883333333, "rental_uris": {"android": "https://dc.lft.to/lastmile_qr_scan", "ios": "https://dc.lft.to/lastmile_qr_scan"}, "is_disabled": 0, "fusion_lat": 0.0, "name": "ba2909dba2094f2e58a5054af43b5f78", "fusion_lon": 0.0}, {"is_reserved": 0, "type": "electric_bike", "bike_id": "6d06792d6a0e4fd78d0b6d615dfa2bf4", "lat": 38.928679333333335, "lon": -77.03365466666666, "rental_uris": {"android": "https://dc.lft.to/lastmile_qr_scan", "ios": "https://dc.lft.to/lastmile_qr_scan"}, "is_disabled": 0, "fusion_lat": 0.0, "name": "6d06792d6a0e4fd78d0b6d615dfa2bf4", "fusion_lon": 0.0}, {"is_reserved": 0, "type": "electric_scooter", "bike_id": "fc25b4751982496b1af05952ff82c4a6", "lat": 38.907256833333335, "lon": -77.01091916666667, "rental_uris": {"android": "https://dc.lft.to/lastmile_qr_scan", "ios": "https://dc.lft.to/lastmile_qr_scan"}, "is_disabled": 0, "fusion_lat": 0.0, "name": "fc25b4751982496b1af05952ff82c4a6", "fusion_lon": 0.0}, {"is_reserved": 0, "type": "electric_bike", "bike_id": "c4073aba291ee5c7da02bd408613226d", "lat": 38.924363166666666, "lon": -77.057414, "rental_uris": {"android": "https://dc.lft.to/lastmile_qr_scan", "ios": "https://dc.lft.to/lastmile_qr_scan"}, "is_disabled": 0, "fusion_lat": 0.0, "name": "c4073aba291ee5c7da02bd408613226d", "fusion_lon": 0.0}, {"is_reserved": 0, "type": "electric_scooter", "bike_id": "31c1eb462caf7d746a6f7e063641bb92", "lat": 38.929274, "lon": -77.02010533333333, "rental_uris": {"android": "https://dc.lft.to/lastmile_qr_scan", "ios": "https://dc.lft.to/lastmile_qr_scan"}, "is_disabled": 0, "fusion_lat": 0.0, "name": "31c1eb462caf7d746a6f7e063641bb92", "fusion_lon": 0.0}, {"is_reserved": 0, "type": "electric_scooter", "bike_id": "6cef8a35d9a5c6e11f7abb5a566660b1", "lat": 38.923822, "lon": -77.03653766666666, "rental_uris": {"android": "https://dc.lft.to/lastmile_qr_scan", "ios": "https://dc.lft.to/lastmile_qr_scan"}, "is_disabled": 0, "fusion_lat": 0.0, "name": "6cef8a35d9a5c6e11f7abb5a566660b1", "fusion_lon": 0.0}, {"is_reserved": 0, "type": "electric_scooter", "bike_id": "194212a754a15e419ef4ce6573af65b5", "lat": 38.887363666666666, "lon": -77.01356283333334, "rental_uris": {"android": "https://dc.lft.to/lastmile_qr_scan", "ios": "https://dc.lft.to/lastmile_qr_scan"}, "is_disabled": 0, "fusion_lat": 0.0, "name": "194212a754a15e419ef4ce6573af65b5", "fusion_lon": 0.0}, {"is_reserved": 0, "type": "electric_scooter", "bike_id": "354fdc3aaeb0af5ba29d44fe08a0b54c", "lat": 38.944406, "lon": -77.02917016666666, "rental_uris": {"android": "https://dc.lft.to/lastmile_qr_scan", "ios": "https://dc.lft.to/lastmile_qr_scan"}, "is_disabled": 0, "fusion_lat": 0.0, "name": "354fdc3aaeb0af5ba29d44fe08a0b54c", "fusion_lon": 0.0}, {"is_reserved": 0, "type": "electric_scooter", "bike_id": "1c205e3f92162c966827316ece8cea57", "lat": 38.90505066666667, "lon": -77.02949116666667, "rental_uris": {"android": "https://dc.lft.to/lastmile_qr_scan", "ios": "https://dc.lft.to/lastmile_qr_scan"}, "is_disabled": 0, "fusion_lat": 0.0, "name": "1c205e3f92162c966827316ece8cea57", "fusion_lon": 0.0}, {"is_reserved": 0, "type": "electric_scooter", "bike_id": "7d0b8af925ce31f3ecdb232f4d297fd1", "lat": 38.90013783333333, "lon": -77.006847, "rental_uris": {"android": "https://dc.lft.to/lastmile_qr_scan", "ios": "https://dc.lft.to/lastmile_qr_scan"}, "is_disabled": 0, "fusion_lat": 0.0, "name": "7d0b8af925ce31f3ecdb232f4d297fd1", "fusion_lon": 0.0}, {"is_reserved": 0, "type": "electric_scooter", "bike_id": "4a28fb77aca515a634d21fa55233db27", "lat": 38.903540666666665, "lon": -77.03171133333333, "rental_uris": {"android": "https://dc.lft.to/lastmile_qr_scan", "ios": "https://dc.lft.to/lastmile_qr_scan"}, "is_disabled": 0, "fusion_lat": 0.0, "name": "4a28fb77aca515a634d21fa55233db27", "fusion_lon": 0.0}, {"is_reserved": 0, "type": "electric_scooter", "bike_id": "83e5d217a55b87f3c52b472c9b4ff784", "lat": 38.922424, "lon": -77.02238366666667, "rental_uris": {"android": "https://dc.lft.to/lastmile_qr_scan", "ios": "https://dc.lft.to/lastmile_qr_scan"}, "is_disabled": 0, "fusion_lat": 0.0, "name": "83e5d217a55b87f3c52b472c9b4ff784", "fusion_lon": 0.0}, {"is_reserved": 0, "type": "electric_scooter", "bike_id": "3054df0ee4e40678ad388d0625beee9c", "lat": 38.91577183333333, "lon": -77.01234966666667, "rental_uris": {"android": "https://dc.lft.to/lastmile_qr_scan", "ios": "https://dc.lft.to/lastmile_qr_scan"}, "is_disabled": 0, "fusion_lat": 0.0, "name": "3054df0ee4e40678ad388d0625beee9c", "fusion_lon": 0.0}, {"is_reserved": 0, "type": "electric_scooter", "bike_id": "0d35786a42ab500c2289020533159af7", "lat": 38.88509483333333, "lon": -77.021007, "rental_uris": {"android": "https://dc.lft.to/lastmile_qr_scan", "ios": "https://dc.lft.to/lastmile_qr_scan"}, "is_disabled": 0, "fusion_lat": 0.0, "name": "0d35786a42ab500c2289020533159af7", "fusion_lon": 0.0}, {"is_reserved": 0, "type": "electric_scooter", "bike_id": "dcb16b8338eded9b423f4412359111e5", "lat": 38.92652, "lon": -77.04136583333333, "rental_uris": {"android": "https://dc.lft.to/lastmile_qr_scan", "ios": "https://dc.lft.to/lastmile_qr_scan"}, "is_disabled": 0, "fusion_lat": 0.0, "name": "dcb16b8338eded9b423f4412359111e5", "fusion_lon": 0.0}, {"is_reserved": 0, "type": "electric_scooter", "bike_id": "d501a0e83d1cc56dfcde3b0ab4343cf3", "lat": 38.92999, "lon": -77.02172816666666, "rental_uris": {"android": "https://dc.lft.to/lastmile_qr_scan", "ios": "https://dc.lft.to/lastmile_qr_scan"}, "is_disabled": 0, "fusion_lat": 0.0, "name": "d501a0e83d1cc56dfcde3b0ab4343cf3", "fusion_lon": 0.0}, {"is_reserved": 0, "type": "electric_scooter", "bike_id": "b32d3aeea271f0a304c697f1cc7b6568", "lat": 38.88634283333333, "lon": -77.012893, "rental_uris": {"android": "https://dc.lft.to/lastmile_qr_scan", "ios": "https://dc.lft.to/lastmile_qr_scan"}, "is_disabled": 0, "fusion_lat": 0.0, "name": "b32d3aeea271f0a304c697f1cc7b6568", "fusion_lon": 0.0}, {"is_reserved": 0, "type": "electric_bike", "bike_id": "b945c60125868b71ef1fd545c81e81e2", "lat": 38.862852, "lon": -76.98010366666666, "rental_uris": {"android": "https://dc.lft.to/lastmile_qr_scan", "ios": "https://dc.lft.to/lastmile_qr_scan"}, "is_disabled": 0, "fusion_lat": 0.0, "name": "b945c60125868b71ef1fd545c81e81e2", "fusion_lon": 0.0}, {"is_reserved": 0, "type": "electric_scooter", "bike_id": "0a13a2359f1a1098f7d240ffa156a91b", "lat": 38.900948666666665, "lon": -77.018794, "rental_uris": {"android": "https://dc.lft.to/lastmile_qr_scan", "ios": "https://dc.lft.to/lastmile_qr_scan"}, "is_disabled": 0, "fusion_lat": 0.0, "name": "0a13a2359f1a1098f7d240ffa156a91b", "fusion_lon": 0.0}, {"is_reserved": 0, "type": "electric_scooter", "bike_id": "5cd23f997e40e39a290407bcd051e8b0", "lat": 38.93624333333333, "lon": -77.05907166666667, "rental_uris": {"android": "https://dc.lft.to/lastmile_qr_scan", "ios": "https://dc.lft.to/lastmile_qr_scan"}, "is_disabled": 0, "fusion_lat": 0.0, "name": "5cd23f997e40e39a290407bcd051e8b0", "fusion_lon": 0.0}, {"is_reserved": 0, "type": "electric_scooter", "bike_id": "2361634a30102546ff67e32191b7d039", "lat": 38.900119833333335, "lon": -76.99168633333333, "rental_uris": {"android": "https://dc.lft.to/lastmile_qr_scan", "ios": "https://dc.lft.to/lastmile_qr_scan"}, "is_disabled": 0, "fusion_lat": 0.0, "name": "2361634a30102546ff67e32191b7d039", "fusion_lon": 0.0}, {"is_reserved": 0, "type": "electric_bike", "bike_id": "d0a3aa8136b2c492f2ba79bbeccfbc12", "lat": 38.958681166666665, "lon": -76.97053466666667, "rental_uris": {"android": "https://dc.lft.to/lastmile_qr_scan", "ios": "https://dc.lft.to/lastmile_qr_scan"}, "is_disabled": 0, "fusion_lat": 0.0, "name": "d0a3aa8136b2c492f2ba79bbeccfbc12", "fusion_lon": 0.0}, {"is_reserved": 0, "type": "electric_scooter", "bike_id": "194972ef98dadd14298def88f6be37a7", "lat": 38.90788716666667, "lon": -77.02818566666667, "rental_uris": {"android": "https://dc.lft.to/lastmile_qr_scan", "ios": "https://dc.lft.to/lastmile_qr_scan"}, "is_disabled": 0, "fusion_lat": 0.0, "name": "194972ef98dadd14298def88f6be37a7", "fusion_lon": 0.0}, {"is_reserved": 0, "type": "electric_scooter", "bike_id": "bddecea7866700fd8e719b45c1f3a203", "lat": 38.902153, "lon": -77.05117916666667, "rental_uris": {"android": "https://dc.lft.to/lastmile_qr_scan", "ios": "https://dc.lft.to/lastmile_qr_scan"}, "is_disabled": 0, "fusion_lat": 0.0, "name": "bddecea7866700fd8e719b45c1f3a203", "fusion_lon": 0.0}, {"is_reserved": 0, "type": "electric_scooter", "bike_id": "07ff63d7e69412de26523d2de45a6885", "lat": 38.879364, "lon": -77.01666933333334, "rental_uris": {"android": "https://dc.lft.to/lastmile_qr_scan", "ios": "https://dc.lft.to/lastmile_qr_scan"}, "is_disabled": 0, "fusion_lat": 0.0, "name": "07ff63d7e69412de26523d2de45a6885", "fusion_lon": 0.0}, {"is_reserved": 0, "type": "electric_bike", "bike_id": "f5a6c8abc5ee26abae15e8380efd011f", "lat": 38.8410465, "lon": -77.0894505, "rental_uris": {"android": "https://dc.lft.to/lastmile_qr_scan", "ios": "https://dc.lft.to/lastmile_qr_scan"}, "is_disabled": 0, "fusion_lat": 0.0, "name": "f5a6c8abc5ee26abae15e8380efd011f", "fusion_lon": 0.0}, {"is_reserved": 0, "type": "electric_scooter", "bike_id": "0f52629b638025dd1ac63ad1a6c73dc8", "lat": 38.9202005, "lon": -77.03182016666666, "rental_uris": {"android": "https://dc.lft.to/lastmile_qr_scan", "ios": "https://dc.lft.to/lastmile_qr_scan"}, "is_disabled": 0, "fusion_lat": 0.0, "name": "0f52629b638025dd1ac63ad1a6c73dc8", "fusion_lon": 0.0}, {"is_reserved": 0, "type": "electric_bike", "bike_id": "7d421c0a75188be431b82c3e95aaa3ec", "lat": 38.945647, "lon": -76.95840816666667, "rental_uris": {"android": "https://dc.lft.to/lastmile_qr_scan", "ios": "https://dc.lft.to/lastmile_qr_scan"}, "is_disabled": 0, "fusion_lat": 0.0, "name": "7d421c0a75188be431b82c3e95aaa3ec", "fusion_lon": 0.0}, {"is_reserved": 0, "type": "electric_scooter", "bike_id": "892a984f21e54ebb7c9c47154df78218", "lat": 38.93119033333333, "lon": -77.02320816666666, "rental_uris": {"android": "https://dc.lft.to/lastmile_qr_scan", "ios": "https://dc.lft.to/lastmile_qr_scan"}, "is_disabled": 0, "fusion_lat": 0.0, "name": "892a984f21e54ebb7c9c47154df78218", "fusion_lon": 0.0}, {"is_reserved": 0, "type": "electric_scooter", "bike_id": "3037a90a187741692e383f2f08a5c4d2", "lat": 38.88770566666667, "lon": -76.9916425, "rental_uris": {"android": "https://dc.lft.to/lastmile_qr_scan", "ios": "https://dc.lft.to/lastmile_qr_scan"}, "is_disabled": 0, "fusion_lat": 0.0, "name": "3037a90a187741692e383f2f08a5c4d2", "fusion_lon": 0.0}, {"is_reserved": 0, "type": "electric_scooter", "bike_id": "d7e510e701bfe0abef473fa451e8fa1a", "lat": 38.8746775, "lon": -77.00547433333334, "rental_uris": {"android": "https://dc.lft.to/lastmile_qr_scan", "ios": "https://dc.lft.to/lastmile_qr_scan"}, "is_disabled": 0, "fusion_lat": 0.0, "name": "d7e510e701bfe0abef473fa451e8fa1a", "fusion_lon": 0.0}, {"is_reserved": 0, "type": "electric_scooter", "bike_id": "6948381b5b6d64a28f6c21a6bed21fcd", "lat": 38.91005333333333, "lon": -76.99411783333333, "rental_uris": {"android": "https://dc.lft.to/lastmile_qr_scan", "ios": "https://dc.lft.to/lastmile_qr_scan"}, "is_disabled": 0, "fusion_lat": 0.0, "name": "6948381b5b6d64a28f6c21a6bed21fcd", "fusion_lon": 0.0}, {"is_reserved": 0, "type": "electric_scooter", "bike_id": "cbeacde29d0845acceac42027a76c5c1", "lat": 38.883013166666665, "lon": -76.94852283333333, "rental_uris": {"android": "https://dc.lft.to/lastmile_qr_scan", "ios": "https://dc.lft.to/lastmile_qr_scan"}, "is_disabled": 0, "fusion_lat": 0.0, "name": "cbeacde29d0845acceac42027a76c5c1", "fusion_lon": 0.0}, {"is_reserved": 0, "type": "electric_scooter", "bike_id": "f87258a9d918ff5a7fbc4271510d08ec", "lat": 38.91919466666667, "lon": -77.04630566666667, "rental_uris": {"android": "https://dc.lft.to/lastmile_qr_scan", "ios": "https://dc.lft.to/lastmile_qr_scan"}, "is_disabled": 0, "fusion_lat": 0.0, "name": "f87258a9d918ff5a7fbc4271510d08ec", "fusion_lon": 0.0}, {"is_reserved": 0, "type": "electric_scooter", "bike_id": "a9b5c897a097d04946501b3f90cb1fd6", "lat": 38.8994845, "lon": -77.05393283333333, "rental_uris": {"android": "https://dc.lft.to/lastmile_qr_scan", "ios": "https://dc.lft.to/lastmile_qr_scan"}, "is_disabled": 0, "fusion_lat": 0.0, "name": "a9b5c897a097d04946501b3f90cb1fd6", "fusion_lon": 0.0}, {"is_reserved": 0, "type": "electric_scooter", "bike_id": "f5a842e5a1048765e76446add382c84a", "lat": 38.923979, "lon": -77.05055966666667, "rental_uris": {"android": "https://dc.lft.to/lastmile_qr_scan", "ios": "https://dc.lft.to/lastmile_qr_scan"}, "is_disabled": 0, "fusion_lat": 0.0, "name": "f5a842e5a1048765e76446add382c84a", "fusion_lon": 0.0}, {"is_reserved": 0, "type": "electric_scooter", "bike_id": "9ce6cd7983df041bbf40dd38bcb39adb", "lat": 38.902357, "lon": -77.04143916666666, "rental_uris": {"android": "https://dc.lft.to/lastmile_qr_scan", "ios": "https://dc.lft.to/lastmile_qr_scan"}, "is_disabled": 0, "fusion_lat": 0.0, "name": "9ce6cd7983df041bbf40dd38bcb39adb", "fusion_lon": 0.0}, {"is_reserved": 0, "type": "electric_scooter", "bike_id": "d9e53b47ba85607f3284c255291f3316", "lat": 38.8973415, "lon": -77.02170433333333, "rental_uris": {"android": "https://dc.lft.to/lastmile_qr_scan", "ios": "https://dc.lft.to/lastmile_qr_scan"}, "is_disabled": 0, "fusion_lat": 0.0, "name": "d9e53b47ba85607f3284c255291f3316", "fusion_lon": 0.0}, {"is_reserved": 0, "type": "electric_scooter", "bike_id": "04e80725efd62a301d7f165b31e21e1c", "lat": 38.90097133333333, "lon": -76.981048, "rental_uris": {"android": "https://dc.lft.to/lastmile_qr_scan", "ios": "https://dc.lft.to/lastmile_qr_scan"}, "is_disabled": 0, "fusion_lat": 0.0, "name": "04e80725efd62a301d7f165b31e21e1c", "fusion_lon": 0.0}, {"is_reserved": 0, "type": "electric_scooter", "bike_id": "25bcb9d28f7defd00167fc6cf5a202b8", "lat": 38.923784833333336, "lon": -77.02886583333333, "rental_uris": {"android": "https://dc.lft.to/lastmile_qr_scan", "ios": "https://dc.lft.to/lastmile_qr_scan"}, "is_disabled": 0, "fusion_lat": 0.0, "name": "25bcb9d28f7defd00167fc6cf5a202b8", "fusion_lon": 0.0}, {"is_reserved": 0, "type": "electric_scooter", "bike_id": "b0485fb1f13b5646dd8d1fcbd14d20bd", "lat": 38.89621966666667, "lon": -76.99731883333334, "rental_uris": {"android": "https://dc.lft.to/lastmile_qr_scan", "ios": "https://dc.lft.to/lastmile_qr_scan"}, "is_disabled": 0, "fusion_lat": 0.0, "name": "b0485fb1f13b5646dd8d1fcbd14d20bd", "fusion_lon": 0.0}, {"is_reserved": 0, "type": "electric_scooter", "bike_id": "22ffefbea41d49a6badbb3582649880a", "lat": 38.90401416666667, "lon": -77.01635566666667, "rental_uris": {"android": "https://dc.lft.to/lastmile_qr_scan", "ios": "https://dc.lft.to/lastmile_qr_scan"}, "is_disabled": 0, "fusion_lat": 0.0, "name": "22ffefbea41d49a6badbb3582649880a", "fusion_lon": 0.0}, {"is_reserved": 0, "type": "electric_scooter", "bike_id": "1c6c0c4719e2261260b5a8b3272f5810", "lat": 38.898129, "lon": -77.02363816666667, "rental_uris": {"android": "https://dc.lft.to/lastmile_qr_scan", "ios": "https://dc.lft.to/lastmile_qr_scan"}, "is_disabled": 0, "fusion_lat": 0.0, "name": "1c6c0c4719e2261260b5a8b3272f5810", "fusion_lon": 0.0}, {"is_reserved": 0, "type": "electric_bike", "bike_id": "c021721e6bd161f8f0cc304ea4c0bee4", "lat": 38.8362905, "lon": -77.00277783333334, "rental_uris": {"android": "https://dc.lft.to/lastmile_qr_scan", "ios": "https://dc.lft.to/lastmile_qr_scan"}, "is_disabled": 0, "fusion_lat": 0.0, "name": "c021721e6bd161f8f0cc304ea4c0bee4", "fusion_lon": 0.0}, {"is_reserved": 0, "type": "electric_scooter", "bike_id": "e8ef8af15f76525b9e235bd6d2f8d2aa", "lat": 38.93130766666667, "lon": -77.02304666666667, "rental_uris": {"android": "https://dc.lft.to/lastmile_qr_scan", "ios": "https://dc.lft.to/lastmile_qr_scan"}, "is_disabled": 0, "fusion_lat": 0.0, "name": "e8ef8af15f76525b9e235bd6d2f8d2aa", "fusion_lon": 0.0}, {"is_reserved": 0, "type": "electric_scooter", "bike_id": "42166480816b924708e404fb52866311", "lat": 38.9603075, "lon": -77.07157366666667, "rental_uris": {"android": "https://dc.lft.to/lastmile_qr_scan", "ios": "https://dc.lft.to/lastmile_qr_scan"}, "is_disabled": 0, "fusion_lat": 0.0, "name": "42166480816b924708e404fb52866311", "fusion_lon": 0.0}, {"is_reserved": 0, "type": "electric_scooter", "bike_id": "77f83e4418d1e1b5099155bc9e50f1f5", "lat": 38.92332183333333, "lon": -77.05677633333333, "rental_uris": {"android": "https://dc.lft.to/lastmile_qr_scan", "ios": "https://dc.lft.to/lastmile_qr_scan"}, "is_disabled": 0, "fusion_lat": 0.0, "name": "77f83e4418d1e1b5099155bc9e50f1f5", "fusion_lon": 0.0}, {"is_reserved": 0, "type": "electric_scooter", "bike_id": "85c7d89683abf64de5eefe454ca8ad52", "lat": 38.93354383333333, "lon": -77.03425783333333, "rental_uris": {"android": "https://dc.lft.to/lastmile_qr_scan", "ios": "https://dc.lft.to/lastmile_qr_scan"}, "is_disabled": 0, "fusion_lat": 0.0, "name": "85c7d89683abf64de5eefe454ca8ad52", "fusion_lon": 0.0}, {"is_reserved": 0, "type": "electric_bike", "bike_id": "85cccaa05cab99e2cfb17d800acc2bee", "lat": 38.944724666666666, "lon": -76.9868775, "rental_uris": {"android": "https://dc.lft.to/lastmile_qr_scan", "ios": "https://dc.lft.to/lastmile_qr_scan"}, "is_disabled": 0, "fusion_lat": 0.0, "name": "85cccaa05cab99e2cfb17d800acc2bee", "fusion_lon": 0.0}, {"is_reserved": 0, "type": "electric_scooter", "bike_id": "1c7eedec4dcd93704c9257725a2fc2c4", "lat": 38.91914283333333, "lon": -77.04800016666667, "rental_uris": {"android": "https://dc.lft.to/lastmile_qr_scan", "ios": "https://dc.lft.to/lastmile_qr_scan"}, "is_disabled": 0, "fusion_lat": 0.0, "name": "1c7eedec4dcd93704c9257725a2fc2c4", "fusion_lon": 0.0}, {"is_reserved": 0, "type": "electric_scooter", "bike_id": "ba42573a0a7f984e501c16378c5101a3", "lat": 38.90582333333333, "lon": -77.00591666666666, "rental_uris": {"android": "https://dc.lft.to/lastmile_qr_scan", "ios": "https://dc.lft.to/lastmile_qr_scan"}, "is_disabled": 0, "fusion_lat": 0.0, "name": "ba42573a0a7f984e501c16378c5101a3", "fusion_lon": 0.0}, {"is_reserved": 0, "type": "electric_scooter", "bike_id": "0a8dfac7fc1f11ca7bd17048273f2e8f", "lat": 38.873005666666664, "lon": -77.01554866666666, "rental_uris": {"android": "https://dc.lft.to/lastmile_qr_scan", "ios": "https://dc.lft.to/lastmile_qr_scan"}, "is_disabled": 0, "fusion_lat": 0.0, "name": "0a8dfac7fc1f11ca7bd17048273f2e8f", "fusion_lon": 0.0}, {"is_reserved": 0, "type": "electric_scooter", "bike_id": "f9c342096f43f03c4a9fb53780aa96a4", "lat": 38.928540166666664, "lon": -77.0299695, "rental_uris": {"android": "https://dc.lft.to/lastmile_qr_scan", "ios": "https://dc.lft.to/lastmile_qr_scan"}, "is_disabled": 0, "fusion_lat": 0.0, "name": "f9c342096f43f03c4a9fb53780aa96a4", "fusion_lon": 0.0}, {"is_reserved": 0, "type": "electric_scooter", "bike_id": "1b3f4da551b22f15f4bd2a2c8fa91357", "lat": 38.88608116666666, "lon": -76.99654316666667, "rental_uris": {"android": "https://dc.lft.to/lastmile_qr_scan", "ios": "https://dc.lft.to/lastmile_qr_scan"}, "is_disabled": 0, "fusion_lat": 0.0, "name": "1b3f4da551b22f15f4bd2a2c8fa91357", "fusion_lon": 0.0}, {"is_reserved": 0, "type": "electric_scooter", "bike_id": "4bd768c97b21e8b8021b6de6778446d8", "lat": 38.9199925, "lon": -77.03227933333334, "rental_uris": {"android": "https://dc.lft.to/lastmile_qr_scan", "ios": "https://dc.lft.to/lastmile_qr_scan"}, "is_disabled": 0, "fusion_lat": 0.0, "name": "4bd768c97b21e8b8021b6de6778446d8", "fusion_lon": 0.0}, {"is_reserved": 0, "type": "electric_scooter", "bike_id": "214ac279bb51733c1244d5e97fb667e4", "lat": 38.892747666666665, "lon": -76.92925816666667, "rental_uris": {"android": "https://dc.lft.to/lastmile_qr_scan", "ios": "https://dc.lft.to/lastmile_qr_scan"}, "is_disabled": 0, "fusion_lat": 0.0, "name": "214ac279bb51733c1244d5e97fb667e4", "fusion_lon": 0.0}, {"is_reserved": 0, "type": "electric_scooter", "bike_id": "ec86d86bd9fb508cbd0428c9191115a7", "lat": 38.92369933333333, "lon": -77.0279615, "rental_uris": {"android": "https://dc.lft.to/lastmile_qr_scan", "ios": "https://dc.lft.to/lastmile_qr_scan"}, "is_disabled": 0, "fusion_lat": 0.0, "name": "ec86d86bd9fb508cbd0428c9191115a7", "fusion_lon": 0.0}, {"is_reserved": 0, "type": "electric_scooter", "bike_id": "2104112dab8e794194066181a6d6c15d", "lat": 38.8943615, "lon": -76.9799655, "rental_uris": {"android": "https://dc.lft.to/lastmile_qr_scan", "ios": "https://dc.lft.to/lastmile_qr_scan"}, "is_disabled": 0, "fusion_lat": 0.0, "name": "2104112dab8e794194066181a6d6c15d", "fusion_lon": 0.0}, {"is_reserved": 0, "type": "electric_scooter", "bike_id": "ee6ce511f89f9f9e7ee29bd7adf392be", "lat": 38.921442166666665, "lon": -77.0350875, "rental_uris": {"android": "https://dc.lft.to/lastmile_qr_scan", "ios": "https://dc.lft.to/lastmile_qr_scan"}, "is_disabled": 0, "fusion_lat": 0.0, "name": "ee6ce511f89f9f9e7ee29bd7adf392be", "fusion_lon": 0.0}, {"is_reserved": 0, "type": "electric_scooter", "bike_id": "47be54f1d43ba21d40bb4d3ce43e1cf3", "lat": 38.910967166666666, "lon": -77.04240733333333, "rental_uris": {"android": "https://dc.lft.to/lastmile_qr_scan", "ios": "https://dc.lft.to/lastmile_qr_scan"}, "is_disabled": 0, "fusion_lat": 0.0, "name": "47be54f1d43ba21d40bb4d3ce43e1cf3", "fusion_lon": 0.0}, {"is_reserved": 0, "type": "electric_scooter", "bike_id": "7a382c410b56af2972cfe33d8c485560", "lat": 38.92017116666667, "lon": -77.02948466666666, "rental_uris": {"android": "https://dc.lft.to/lastmile_qr_scan", "ios": "https://dc.lft.to/lastmile_qr_scan"}, "is_disabled": 0, "fusion_lat": 0.0, "name": "7a382c410b56af2972cfe33d8c485560", "fusion_lon": 0.0}, {"is_reserved": 0, "type": "electric_scooter", "bike_id": "2b87bd4a9d58bdaa927b7f603d8c83c2", "lat": 38.91987483333333, "lon": -77.03317383333334, "rental_uris": {"android": "https://dc.lft.to/lastmile_qr_scan", "ios": "https://dc.lft.to/lastmile_qr_scan"}, "is_disabled": 0, "fusion_lat": 0.0, "name": "2b87bd4a9d58bdaa927b7f603d8c83c2", "fusion_lon": 0.0}, {"is_reserved": 0, "type": "electric_scooter", "bike_id": "df927f6c19216cb3c97fac454f79e146", "lat": 38.89605566666667, "lon": -77.04705133333333, "rental_uris": {"android": "https://dc.lft.to/lastmile_qr_scan", "ios": "https://dc.lft.to/lastmile_qr_scan"}, "is_disabled": 0, "fusion_lat": 0.0, "name": "df927f6c19216cb3c97fac454f79e146", "fusion_lon": 0.0}, {"is_reserved": 0, "type": "electric_scooter", "bike_id": "bc0829dd482883362cb461d3cca581c4", "lat": 38.89274866666667, "lon": -76.9525885, "rental_uris": {"android": "https://dc.lft.to/lastmile_qr_scan", "ios": "https://dc.lft.to/lastmile_qr_scan"}, "is_disabled": 0, "fusion_lat": 0.0, "name": "bc0829dd482883362cb461d3cca581c4", "fusion_lon": 0.0}, {"is_reserved": 0, "type": "electric_scooter", "bike_id": "efc53401556971bcedabf055798d96f6", "lat": 38.89597216666667, "lon": -77.02588966666667, "rental_uris": {"android": "https://dc.lft.to/lastmile_qr_scan", "ios": "https://dc.lft.to/lastmile_qr_scan"}, "is_disabled": 0, "fusion_lat": 0.0, "name": "efc53401556971bcedabf055798d96f6", "fusion_lon": 0.0}, {"is_reserved": 0, "type": "electric_scooter", "bike_id": "c4895e6a4bffde960aa4202729ff3a2b", "lat": 38.8961835, "lon": -76.97681066666667, "rental_uris": {"android": "https://dc.lft.to/lastmile_qr_scan", "ios": "https://dc.lft.to/lastmile_qr_scan"}, "is_disabled": 0, "fusion_lat": 0.0, "name": "c4895e6a4bffde960aa4202729ff3a2b", "fusion_lon": 0.0}, {"is_reserved": 0, "type": "electric_scooter", "bike_id": "f1ad8c8cc464a0b941bd4d310dfb8339", "lat": 38.918518666666664, "lon": -77.02406683333334, "rental_uris": {"android": "https://dc.lft.to/lastmile_qr_scan", "ios": "https://dc.lft.to/lastmile_qr_scan"}, "is_disabled": 0, "fusion_lat": 0.0, "name": "f1ad8c8cc464a0b941bd4d310dfb8339", "fusion_lon": 0.0}, {"is_reserved": 0, "type": "electric_scooter", "bike_id": "fbdd608aec5bfd71ae6212f4593b143a", "lat": 38.88719966666667, "lon": -77.01980616666667, "rental_uris": {"android": "https://dc.lft.to/lastmile_qr_scan", "ios": "https://dc.lft.to/lastmile_qr_scan"}, "is_disabled": 0, "fusion_lat": 0.0, "name": "fbdd608aec5bfd71ae6212f4593b143a", "fusion_lon": 0.0}, {"is_reserved": 0, "type": "electric_scooter", "bike_id": "a64b05472777200e33efb00bdb613e5e", "lat": 38.8926685, "lon": -76.9299935, "rental_uris": {"android": "https://dc.lft.to/lastmile_qr_scan", "ios": "https://dc.lft.to/lastmile_qr_scan"}, "is_disabled": 0, "fusion_lat": 0.0, "name": "a64b05472777200e33efb00bdb613e5e", "fusion_lon": 0.0}, {"is_reserved": 0, "type": "electric_scooter", "bike_id": "63528078f86d078bbd281976283e5b5e", "lat": 38.903018833333334, "lon": -77.05315066666667, "rental_uris": {"android": "https://dc.lft.to/lastmile_qr_scan", "ios": "https://dc.lft.to/lastmile_qr_scan"}, "is_disabled": 0, "fusion_lat": 0.0, "name": "63528078f86d078bbd281976283e5b5e", "fusion_lon": 0.0}, {"is_reserved": 0, "type": "electric_scooter", "bike_id": "02075fb5305d2805d1280c2f914f705c", "lat": 38.91330816666667, "lon": -77.024446, "rental_uris": {"android": "https://dc.lft.to/lastmile_qr_scan", "ios": "https://dc.lft.to/lastmile_qr_scan"}, "is_disabled": 0, "fusion_lat": 0.0, "name": "02075fb5305d2805d1280c2f914f705c", "fusion_lon": 0.0}, {"is_reserved": 0, "type": "electric_scooter", "bike_id": "1cedd986b2ea876e2948471bf61a0ca2", "lat": 38.92116933333333, "lon": -77.01787266666666, "rental_uris": {"android": "https://dc.lft.to/lastmile_qr_scan", "ios": "https://dc.lft.to/lastmile_qr_scan"}, "is_disabled": 0, "fusion_lat": 0.0, "name": "1cedd986b2ea876e2948471bf61a0ca2", "fusion_lon": 0.0}, {"is_reserved": 0, "type": "electric_scooter", "bike_id": "15b0c2475a4cfe20bbdde0be3af9585d", "lat": 38.896451666666664, "lon": -76.9902935, "rental_uris": {"android": "https://dc.lft.to/lastmile_qr_scan", "ios": "https://dc.lft.to/lastmile_qr_scan"}, "is_disabled": 0, "fusion_lat": 0.0, "name": "15b0c2475a4cfe20bbdde0be3af9585d", "fusion_lon": 0.0}, {"is_reserved": 0, "type": "electric_scooter", "bike_id": "853429d378bec1951c86283cd51e6f5c", "lat": 38.88389266666667, "lon": -76.93045266666667, "rental_uris": {"android": "https://dc.lft.to/lastmile_qr_scan", "ios": "https://dc.lft.to/lastmile_qr_scan"}, "is_disabled": 0, "fusion_lat": 0.0, "name": "853429d378bec1951c86283cd51e6f5c", "fusion_lon": 0.0}, {"is_reserved": 0, "type": "electric_scooter", "bike_id": "d01bc61f37877a8c6d40987750f1a843", "lat": 38.897597166666664, "lon": -77.03037133333333, "rental_uris": {"android": "https://dc.lft.to/lastmile_qr_scan", "ios": "https://dc.lft.to/lastmile_qr_scan"}, "is_disabled": 0, "fusion_lat": 0.0, "name": "d01bc61f37877a8c6d40987750f1a843", "fusion_lon": 0.0}, {"is_reserved": 0, "type": "electric_scooter", "bike_id": "e5e7cf82eb1ea63fe404b0571627a4b6", "lat": 38.90089183333333, "lon": -77.05736616666667, "rental_uris": {"android": "https://dc.lft.to/lastmile_qr_scan", "ios": "https://dc.lft.to/lastmile_qr_scan"}, "is_disabled": 0, "fusion_lat": 0.0, "name": "e5e7cf82eb1ea63fe404b0571627a4b6", "fusion_lon": 0.0}, {"is_reserved": 0, "type": "electric_scooter", "bike_id": "c5814fe68a15847feaf1b02083bc786f", "lat": 38.9297215, "lon": -77.03933866666667, "rental_uris": {"android": "https://dc.lft.to/lastmile_qr_scan", "ios": "https://dc.lft.to/lastmile_qr_scan"}, "is_disabled": 0, "fusion_lat": 0.0, "name": "c5814fe68a15847feaf1b02083bc786f", "fusion_lon": 0.0}, {"is_reserved": 0, "type": "electric_scooter", "bike_id": "fa6fe1915bce69b88c3a4953d4657254", "lat": 38.90874316666667, "lon": -76.9910985, "rental_uris": {"android": "https://dc.lft.to/lastmile_qr_scan", "ios": "https://dc.lft.to/lastmile_qr_scan"}, "is_disabled": 0, "fusion_lat": 0.0, "name": "fa6fe1915bce69b88c3a4953d4657254", "fusion_lon": 0.0}, {"is_reserved": 0, "type": "electric_scooter", "bike_id": "b40aef03294a3fe468a152917fb5d582", "lat": 38.8968075, "lon": -76.93535266666666, "rental_uris": {"android": "https://dc.lft.to/lastmile_qr_scan", "ios": "https://dc.lft.to/lastmile_qr_scan"}, "is_disabled": 0, "fusion_lat": 0.0, "name": "b40aef03294a3fe468a152917fb5d582", "fusion_lon": 0.0}, {"is_reserved": 0, "type": "electric_scooter", "bike_id": "3aab468cce6a8e5b56b3fac84bde8bf9", "lat": 38.89223833333333, "lon": -77.04684666666667, "rental_uris": {"android": "https://dc.lft.to/lastmile_qr_scan", "ios": "https://dc.lft.to/lastmile_qr_scan"}, "is_disabled": 0, "fusion_lat": 0.0, "name": "3aab468cce6a8e5b56b3fac84bde8bf9", "fusion_lon": 0.0}, {"is_reserved": 0, "type": "electric_bike", "bike_id": "3b91cb4bdf5d79706a15f232155469fb", "lat": 38.845081666666665, "lon": -76.99352983333333, "rental_uris": {"android": "https://dc.lft.to/lastmile_qr_scan", "ios": "https://dc.lft.to/lastmile_qr_scan"}, "is_disabled": 0, "fusion_lat": 0.0, "name": "3b91cb4bdf5d79706a15f232155469fb", "fusion_lon": 0.0}, {"is_reserved": 0, "type": "electric_scooter", "bike_id": "b08019163e3991092f36dfdd335e6d24", "lat": 38.9346035, "lon": -77.034958, "rental_uris": {"android": "https://dc.lft.to/lastmile_qr_scan", "ios": "https://dc.lft.to/lastmile_qr_scan"}, "is_disabled": 0, "fusion_lat": 0.0, "name": "b08019163e3991092f36dfdd335e6d24", "fusion_lon": 0.0}, {"is_reserved": 0, "type": "electric_scooter", "bike_id": "dddf2d729d7977551436bf0475e1cc40", "lat": 38.923358, "lon": -77.03614483333334, "rental_uris": {"android": "https://dc.lft.to/lastmile_qr_scan", "ios": "https://dc.lft.to/lastmile_qr_scan"}, "is_disabled": 0, "fusion_lat": 0.0, "name": "dddf2d729d7977551436bf0475e1cc40", "fusion_lon": 0.0}, {"is_reserved": 0, "type": "electric_scooter", "bike_id": "368004192be3b7da9cd296705fbefc81", "lat": 38.90965383333333, "lon": -77.03253933333333, "rental_uris": {"android": "https://dc.lft.to/lastmile_qr_scan", "ios": "https://dc.lft.to/lastmile_qr_scan"}, "is_disabled": 0, "fusion_lat": 0.0, "name": "368004192be3b7da9cd296705fbefc81", "fusion_lon": 0.0}, {"is_reserved": 0, "type": "electric_scooter", "bike_id": "c6a26d24388f6959d285e6a0d65124a5", "lat": 38.920225, "lon": -77.02050283333334, "rental_uris": {"android": "https://dc.lft.to/lastmile_qr_scan", "ios": "https://dc.lft.to/lastmile_qr_scan"}, "is_disabled": 0, "fusion_lat": 0.0, "name": "c6a26d24388f6959d285e6a0d65124a5", "fusion_lon": 0.0}, {"is_reserved": 0, "type": "electric_scooter", "bike_id": "b8a102d2719de4af6bdb94e59f09a6af", "lat": 38.897264166666666, "lon": -76.9951575, "rental_uris": {"android": "https://dc.lft.to/lastmile_qr_scan", "ios": "https://dc.lft.to/lastmile_qr_scan"}, "is_disabled": 0, "fusion_lat": 0.0, "name": "b8a102d2719de4af6bdb94e59f09a6af", "fusion_lon": 0.0}, {"is_reserved": 0, "type": "electric_scooter", "bike_id": "eaec10415c2869fe6559d0bbec1886fc", "lat": 38.90727616666667, "lon": -77.00703433333334, "rental_uris": {"android": "https://dc.lft.to/lastmile_qr_scan", "ios": "https://dc.lft.to/lastmile_qr_scan"}, "is_disabled": 0, "fusion_lat": 0.0, "name": "eaec10415c2869fe6559d0bbec1886fc", "fusion_lon": 0.0}, {"is_reserved": 0, "type": "electric_bike", "bike_id": "60ede0a7896821cca1fcc58ed83b691c", "lat": 38.82430383333333, "lon": -77.12036466666666, "rental_uris": {"android": "https://dc.lft.to/lastmile_qr_scan", "ios": "https://dc.lft.to/lastmile_qr_scan"}, "is_disabled": 0, "fusion_lat": 0.0, "name": "60ede0a7896821cca1fcc58ed83b691c", "fusion_lon": 0.0}, {"is_reserved": 0, "type": "electric_bike", "bike_id": "0001816c2ec72feb231c1c5dcc43360b", "lat": 38.8632865, "lon": -76.98727116666667, "rental_uris": {"android": "https://dc.lft.to/lastmile_qr_scan", "ios": "https://dc.lft.to/lastmile_qr_scan"}, "is_disabled": 0, "fusion_lat": 0.0, "name": "0001816c2ec72feb231c1c5dcc43360b", "fusion_lon": 0.0}, {"is_reserved": 0, "type": "electric_scooter", "bike_id": "0e72b327e27030ba0385c3c0c4491410", "lat": 38.929850333333334, "lon": -77.03792433333334, "rental_uris": {"android": "https://dc.lft.to/lastmile_qr_scan", "ios": "https://dc.lft.to/lastmile_qr_scan"}, "is_disabled": 0, "fusion_lat": 0.0, "name": "0e72b327e27030ba0385c3c0c4491410", "fusion_lon": 0.0}, {"is_reserved": 0, "type": "electric_scooter", "bike_id": "a8c56ac1fcd534035b320d9720b9d692", "lat": 38.91829166666667, "lon": -77.03194183333333, "rental_uris": {"android": "https://dc.lft.to/lastmile_qr_scan", "ios": "https://dc.lft.to/lastmile_qr_scan"}, "is_disabled": 0, "fusion_lat": 0.0, "name": "a8c56ac1fcd534035b320d9720b9d692", "fusion_lon": 0.0}, {"is_reserved": 0, "type": "electric_scooter", "bike_id": "8e013cd25232913f8d81dbe6a5017105", "lat": 38.904931, "lon": -77.02958766666667, "rental_uris": {"android": "https://dc.lft.to/lastmile_qr_scan", "ios": "https://dc.lft.to/lastmile_qr_scan"}, "is_disabled": 0, "fusion_lat": 0.0, "name": "8e013cd25232913f8d81dbe6a5017105", "fusion_lon": 0.0}, {"is_reserved": 0, "type": "electric_bike", "bike_id": "0617fe27a2ea0efea2620f890bc891bd", "lat": 39.00000033333333, "lon": -76.9180605, "rental_uris": {"android": "https://dc.lft.to/lastmile_qr_scan", "ios": "https://dc.lft.to/lastmile_qr_scan"}, "is_disabled": 0, "fusion_lat": 0.0, "name": "0617fe27a2ea0efea2620f890bc891bd", "fusion_lon": 0.0}, {"is_reserved": 0, "type": "electric_scooter", "bike_id": "c2c4852f4e9ae8f074f36abaf841ca04", "lat": 38.90975616666667, "lon": -77.032479, "rental_uris": {"android": "https://dc.lft.to/lastmile_qr_scan", "ios": "https://dc.lft.to/lastmile_qr_scan"}, "is_disabled": 0, "fusion_lat": 0.0, "name": "c2c4852f4e9ae8f074f36abaf841ca04", "fusion_lon": 0.0}, {"is_reserved": 0, "type": "electric_scooter", "bike_id": "5024e656b6e3b6932a4789cba1b54ebd", "lat": 38.927669333333334, "lon": -77.026063, "rental_uris": {"android": "https://dc.lft.to/lastmile_qr_scan", "ios": "https://dc.lft.to/lastmile_qr_scan"}, "is_disabled": 0, "fusion_lat": 0.0, "name": "5024e656b6e3b6932a4789cba1b54ebd", "fusion_lon": 0.0}, {"is_reserved": 0, "type": "electric_bike", "bike_id": "696e80a0935518951ae65d63d4d00243", "lat": 38.92742116666667, "lon": -76.9936685, "rental_uris": {"android": "https://dc.lft.to/lastmile_qr_scan", "ios": "https://dc.lft.to/lastmile_qr_scan"}, "is_disabled": 0, "fusion_lat": 0.0, "name": "696e80a0935518951ae65d63d4d00243", "fusion_lon": 0.0}, {"is_reserved": 0, "type": "electric_scooter", "bike_id": "9a4439baf1294087a8af71318762c038", "lat": 38.90390516666667, "lon": -77.03030233333334, "rental_uris": {"android": "https://dc.lft.to/lastmile_qr_scan", "ios": "https://dc.lft.to/lastmile_qr_scan"}, "is_disabled": 0, "fusion_lat": 0.0, "name": "9a4439baf1294087a8af71318762c038", "fusion_lon": 0.0}, {"is_reserved": 0, "type": "electric_bike", "bike_id": "6e7742046a38abb65a652497075a971d", "lat": 39.010935, "lon": -77.04957316666666, "rental_uris": {"android": "https://dc.lft.to/lastmile_qr_scan", "ios": "https://dc.lft.to/lastmile_qr_scan"}, "is_disabled": 0, "fusion_lat": 0.0, "name": "6e7742046a38abb65a652497075a971d", "fusion_lon": 0.0}, {"is_reserved": 0, "type": "electric_bike", "bike_id": "47f2aa2a80665b06165550bb72050e55", "lat": 38.8742855, "lon": -77.08572683333334, "rental_uris": {"android": "https://dc.lft.to/lastmile_qr_scan", "ios": "https://dc.lft.to/lastmile_qr_scan"}, "is_disabled": 0, "fusion_lat": 0.0, "name": "47f2aa2a80665b06165550bb72050e55", "fusion_lon": 0.0}, {"is_reserved": 0, "type": "electric_scooter", "bike_id": "ce24f57fb9fc3a80556c109f8bb14531", "lat": 38.90400433333333, "lon": -77.06766633333334, "rental_uris": {"android": "https://dc.lft.to/lastmile_qr_scan", "ios": "https://dc.lft.to/lastmile_qr_scan"}, "is_disabled": 0, "fusion_lat": 0.0, "name": "ce24f57fb9fc3a80556c109f8bb14531", "fusion_lon": 0.0}, {"is_reserved": 0, "type": "electric_scooter", "bike_id": "d0ef99487a711d1d84d4770644dd647e", "lat": 38.90201833333333, "lon": -77.02169216666667, "rental_uris": {"android": "https://dc.lft.to/lastmile_qr_scan", "ios": "https://dc.lft.to/lastmile_qr_scan"}, "is_disabled": 0, "fusion_lat": 0.0, "name": "d0ef99487a711d1d84d4770644dd647e", "fusion_lon": 0.0}, {"is_reserved": 0, "type": "electric_scooter", "bike_id": "94fead66706c6de4a4564148784be006", "lat": 38.91615066666667, "lon": -77.04869383333333, "rental_uris": {"android": "https://dc.lft.to/lastmile_qr_scan", "ios": "https://dc.lft.to/lastmile_qr_scan"}, "is_disabled": 0, "fusion_lat": 0.0, "name": "94fead66706c6de4a4564148784be006", "fusion_lon": 0.0}, {"is_reserved": 0, "type": "electric_scooter", "bike_id": "9b31da3527b2efbe86bc32c81b0f14ad", "lat": 38.920851166666665, "lon": -77.01369383333333, "rental_uris": {"android": "https://dc.lft.to/lastmile_qr_scan", "ios": "https://dc.lft.to/lastmile_qr_scan"}, "is_disabled": 0, "fusion_lat": 0.0, "name": "9b31da3527b2efbe86bc32c81b0f14ad", "fusion_lon": 0.0}, {"is_reserved": 0, "type": "electric_scooter", "bike_id": "aad3532ff2652526363d1d9c6d952ef8", "lat": 38.923147166666666, "lon": -77.0412755, "rental_uris": {"android": "https://dc.lft.to/lastmile_qr_scan", "ios": "https://dc.lft.to/lastmile_qr_scan"}, "is_disabled": 0, "fusion_lat": 0.0, "name": "aad3532ff2652526363d1d9c6d952ef8", "fusion_lon": 0.0}, {"is_reserved": 0, "type": "electric_scooter", "bike_id": "3ebaf9da9bd3918dff1f29c2382fd898", "lat": 38.89937166666667, "lon": -77.02174666666667, "rental_uris": {"android": "https://dc.lft.to/lastmile_qr_scan", "ios": "https://dc.lft.to/lastmile_qr_scan"}, "is_disabled": 0, "fusion_lat": 0.0, "name": "3ebaf9da9bd3918dff1f29c2382fd898", "fusion_lon": 0.0}, {"is_reserved": 0, "type": "electric_scooter", "bike_id": "809b714a08b2b9ac457ea62c59c0a300", "lat": 38.88987933333333, "lon": -77.00074666666667, "rental_uris": {"android": "https://dc.lft.to/lastmile_qr_scan", "ios": "https://dc.lft.to/lastmile_qr_scan"}, "is_disabled": 0, "fusion_lat": 0.0, "name": "809b714a08b2b9ac457ea62c59c0a300", "fusion_lon": 0.0}, {"is_reserved": 0, "type": "electric_scooter", "bike_id": "664874a198c2ad5b2c462f8d20a7c750", "lat": 38.925755333333335, "lon": -76.995058, "rental_uris": {"android": "https://dc.lft.to/lastmile_qr_scan", "ios": "https://dc.lft.to/lastmile_qr_scan"}, "is_disabled": 0, "fusion_lat": 0.0, "name": "664874a198c2ad5b2c462f8d20a7c750", "fusion_lon": 0.0}, {"is_reserved": 0, "type": "electric_bike", "bike_id": "fb1f57953c98057fef13c9df2bfcb709", "lat": 38.90536516666667, "lon": -76.99817816666666, "rental_uris": {"android": "https://dc.lft.to/lastmile_qr_scan", "ios": "https://dc.lft.to/lastmile_qr_scan"}, "is_disabled": 0, "fusion_lat": 0.0, "name": "fb1f57953c98057fef13c9df2bfcb709", "fusion_lon": 0.0}, {"is_reserved": 0, "type": "electric_bike", "bike_id": "a1ca852a77cf3e4917c6b46ac51e7a98", "lat": 38.899559333333336, "lon": -76.98570366666667, "rental_uris": {"android": "https://dc.lft.to/lastmile_qr_scan", "ios": "https://dc.lft.to/lastmile_qr_scan"}, "is_disabled": 0, "fusion_lat": 0.0, "name": "a1ca852a77cf3e4917c6b46ac51e7a98", "fusion_lon": 0.0}, {"is_reserved": 0, "type": "electric_scooter", "bike_id": "1aa0e374cf7c3f1e9ecc9487be0825ae", "lat": 38.893553, "lon": -77.02829116666666, "rental_uris": {"android": "https://dc.lft.to/lastmile_qr_scan", "ios": "https://dc.lft.to/lastmile_qr_scan"}, "is_disabled": 0, "fusion_lat": 0.0, "name": "1aa0e374cf7c3f1e9ecc9487be0825ae", "fusion_lon": 0.0}, {"is_reserved": 0, "type": "electric_scooter", "bike_id": "e579f4485c2256556aa9fd4c8289eb74", "lat": 38.919886, "lon": -77.02879233333333, "rental_uris": {"android": "https://dc.lft.to/lastmile_qr_scan", "ios": "https://dc.lft.to/lastmile_qr_scan"}, "is_disabled": 0, "fusion_lat": 0.0, "name": "e579f4485c2256556aa9fd4c8289eb74", "fusion_lon": 0.0}, {"is_reserved": 0, "type": "electric_scooter", "bike_id": "670c89c473217b0b8bf511542e27cfd9", "lat": 38.9141835, "lon": -77.03813983333333, "rental_uris": {"android": "https://dc.lft.to/lastmile_qr_scan", "ios": "https://dc.lft.to/lastmile_qr_scan"}, "is_disabled": 0, "fusion_lat": 0.0, "name": "670c89c473217b0b8bf511542e27cfd9", "fusion_lon": 0.0}, {"is_reserved": 0, "type": "electric_scooter", "bike_id": "aee22e73d30bd18d21cc41324199d302", "lat": 38.884, "lon": -76.98984766666666, "rental_uris": {"android": "https://dc.lft.to/lastmile_qr_scan", "ios": "https://dc.lft.to/lastmile_qr_scan"}, "is_disabled": 0, "fusion_lat": 0.0, "name": "aee22e73d30bd18d21cc41324199d302", "fusion_lon": 0.0}, {"is_reserved": 0, "type": "electric_scooter", "bike_id": "fb735748feeeb52e92259ee21f61dac8", "lat": 38.940754, "lon": -77.03330783333334, "rental_uris": {"android": "https://dc.lft.to/lastmile_qr_scan", "ios": "https://dc.lft.to/lastmile_qr_scan"}, "is_disabled": 0, "fusion_lat": 0.0, "name": "fb735748feeeb52e92259ee21f61dac8", "fusion_lon": 0.0}, {"is_reserved": 0, "type": "electric_scooter", "bike_id": "cb70220392c2cd180ed4d9c71d8dc773", "lat": 38.91805733333333, "lon": -77.04029683333333, "rental_uris": {"android": "https://dc.lft.to/lastmile_qr_scan", "ios": "https://dc.lft.to/lastmile_qr_scan"}, "is_disabled": 0, "fusion_lat": 0.0, "name": "cb70220392c2cd180ed4d9c71d8dc773", "fusion_lon": 0.0}, {"is_reserved": 0, "type": "electric_scooter", "bike_id": "d94c0f21f5609ae13767328dd1450f1e", "lat": 38.9211435, "lon": -77.017554, "rental_uris": {"android": "https://dc.lft.to/lastmile_qr_scan", "ios": "https://dc.lft.to/lastmile_qr_scan"}, "is_disabled": 0, "fusion_lat": 0.0, "name": "d94c0f21f5609ae13767328dd1450f1e", "fusion_lon": 0.0}, {"is_reserved": 0, "type": "electric_scooter", "bike_id": "d26d69dcefa49213680e88f2d73108d7", "lat": 38.8776035, "lon": -76.99425016666666, "rental_uris": {"android": "https://dc.lft.to/lastmile_qr_scan", "ios": "https://dc.lft.to/lastmile_qr_scan"}, "is_disabled": 0, "fusion_lat": 0.0, "name": "d26d69dcefa49213680e88f2d73108d7", "fusion_lon": 0.0}, {"is_reserved": 0, "type": "electric_scooter", "bike_id": "0a254101b7778df25abcd486154ec9d6", "lat": 38.94239916666667, "lon": -77.03579866666666, "rental_uris": {"android": "https://dc.lft.to/lastmile_qr_scan", "ios": "https://dc.lft.to/lastmile_qr_scan"}, "is_disabled": 0, "fusion_lat": 0.0, "name": "0a254101b7778df25abcd486154ec9d6", "fusion_lon": 0.0}, {"is_reserved": 0, "type": "electric_scooter", "bike_id": "b6b5f9ae4f3a40d8b272a8847b388672", "lat": 38.898865666666666, "lon": -76.9317645, "rental_uris": {"android": "https://dc.lft.to/lastmile_qr_scan", "ios": "https://dc.lft.to/lastmile_qr_scan"}, "is_disabled": 0, "fusion_lat": 0.0, "name": "b6b5f9ae4f3a40d8b272a8847b388672", "fusion_lon": 0.0}, {"is_reserved": 0, "type": "electric_scooter", "bike_id": "07e534ee2531001f2b1cb7d0ee3d255c", "lat": 38.900678, "lon": -76.92744783333333, "rental_uris": {"android": "https://dc.lft.to/lastmile_qr_scan", "ios": "https://dc.lft.to/lastmile_qr_scan"}, "is_disabled": 0, "fusion_lat": 0.0, "name": "07e534ee2531001f2b1cb7d0ee3d255c", "fusion_lon": 0.0}, {"is_reserved": 0, "type": "electric_scooter", "bike_id": "fac8d14483431de8e9232f1530f24425", "lat": 38.91577616666667, "lon": -77.01231516666667, "rental_uris": {"android": "https://dc.lft.to/lastmile_qr_scan", "ios": "https://dc.lft.to/lastmile_qr_scan"}, "is_disabled": 0, "fusion_lat": 0.0, "name": "fac8d14483431de8e9232f1530f24425", "fusion_lon": 0.0}, {"is_reserved": 0, "type": "electric_bike", "bike_id": "6a623880a6e212c8c887babd615aeac4", "lat": 38.91131433333334, "lon": -77.06565083333334, "rental_uris": {"android": "https://dc.lft.to/lastmile_qr_scan", "ios": "https://dc.lft.to/lastmile_qr_scan"}, "is_disabled": 0, "fusion_lat": 0.0, "name": "6a623880a6e212c8c887babd615aeac4", "fusion_lon": 0.0}, {"is_reserved": 0, "type": "electric_scooter", "bike_id": "28b25cabc0ade430948bc79c8303356e", "lat": 38.899164666666664, "lon": -77.03366766666667, "rental_uris": {"android": "https://dc.lft.to/lastmile_qr_scan", "ios": "https://dc.lft.to/lastmile_qr_scan"}, "is_disabled": 0, "fusion_lat": 0.0, "name": "28b25cabc0ade430948bc79c8303356e", "fusion_lon": 0.0}, {"is_reserved": 0, "type": "electric_scooter", "bike_id": "20d01dc31d1e2741f05f88bd5f79ece8", "lat": 38.907562166666665, "lon": -77.0076085, "rental_uris": {"android": "https://dc.lft.to/lastmile_qr_scan", "ios": "https://dc.lft.to/lastmile_qr_scan"}, "is_disabled": 0, "fusion_lat": 0.0, "name": "20d01dc31d1e2741f05f88bd5f79ece8", "fusion_lon": 0.0}, {"is_reserved": 0, "type": "electric_scooter", "bike_id": "1a241502891f3fca0db2c8dbfa94f17b", "lat": 38.9352865, "lon": -77.02843333333334, "rental_uris": {"android": "https://dc.lft.to/lastmile_qr_scan", "ios": "https://dc.lft.to/lastmile_qr_scan"}, "is_disabled": 0, "fusion_lat": 0.0, "name": "1a241502891f3fca0db2c8dbfa94f17b", "fusion_lon": 0.0}, {"is_reserved": 0, "type": "electric_scooter", "bike_id": "a4fa2895b8f9f9e3cf1c3a1475200c71", "lat": 38.92150783333334, "lon": -77.03872583333333, "rental_uris": {"android": "https://dc.lft.to/lastmile_qr_scan", "ios": "https://dc.lft.to/lastmile_qr_scan"}, "is_disabled": 0, "fusion_lat": 0.0, "name": "a4fa2895b8f9f9e3cf1c3a1475200c71", "fusion_lon": 0.0}, {"is_reserved": 0, "type": "electric_scooter", "bike_id": "dff9ac00d94abbe22997421f7d56bf89", "lat": 38.923334833333335, "lon": -77.04518366666667, "rental_uris": {"android": "https://dc.lft.to/lastmile_qr_scan", "ios": "https://dc.lft.to/lastmile_qr_scan"}, "is_disabled": 0, "fusion_lat": 0.0, "name": "dff9ac00d94abbe22997421f7d56bf89", "fusion_lon": 0.0}, {"is_reserved": 0, "type": "electric_scooter", "bike_id": "9a7468d5c0aa50448b35a293087c9192", "lat": 38.920731833333335, "lon": -77.025054, "rental_uris": {"android": "https://dc.lft.to/lastmile_qr_scan", "ios": "https://dc.lft.to/lastmile_qr_scan"}, "is_disabled": 0, "fusion_lat": 0.0, "name": "9a7468d5c0aa50448b35a293087c9192", "fusion_lon": 0.0}, {"is_reserved": 0, "type": "electric_scooter", "bike_id": "a91a624300f93536fc0e1b401261f0ac", "lat": 38.9171325, "lon": -77.03860883333333, "rental_uris": {"android": "https://dc.lft.to/lastmile_qr_scan", "ios": "https://dc.lft.to/lastmile_qr_scan"}, "is_disabled": 0, "fusion_lat": 0.0, "name": "a91a624300f93536fc0e1b401261f0ac", "fusion_lon": 0.0}, {"is_reserved": 0, "type": "electric_scooter", "bike_id": "2b8068ed6e4abefa3ca8cf78e2f8fe9d", "lat": 38.9055945, "lon": -77.005897, "rental_uris": {"android": "https://dc.lft.to/lastmile_qr_scan", "ios": "https://dc.lft.to/lastmile_qr_scan"}, "is_disabled": 0, "fusion_lat": 0.0, "name": "2b8068ed6e4abefa3ca8cf78e2f8fe9d", "fusion_lon": 0.0}, {"is_reserved": 0, "type": "electric_scooter", "bike_id": "f284ab5f85283c59e8497616df3428a7", "lat": 38.92092066666667, "lon": -77.07190833333334, "rental_uris": {"android": "https://dc.lft.to/lastmile_qr_scan", "ios": "https://dc.lft.to/lastmile_qr_scan"}, "is_disabled": 0, "fusion_lat": 0.0, "name": "f284ab5f85283c59e8497616df3428a7", "fusion_lon": 0.0}, {"is_reserved": 0, "type": "electric_scooter", "bike_id": "b7d8af0e6ec78beb2c2393c0ccdb3eeb", "lat": 38.877601166666665, "lon": -76.99538216666667, "rental_uris": {"android": "https://dc.lft.to/lastmile_qr_scan", "ios": "https://dc.lft.to/lastmile_qr_scan"}, "is_disabled": 0, "fusion_lat": 0.0, "name": "b7d8af0e6ec78beb2c2393c0ccdb3eeb", "fusion_lon": 0.0}, {"is_reserved": 0, "type": "electric_scooter", "bike_id": "b5a99623c043f757f725ad0b420fbc02", "lat": 38.91602, "lon": -77.00268916666667, "rental_uris": {"android": "https://dc.lft.to/lastmile_qr_scan", "ios": "https://dc.lft.to/lastmile_qr_scan"}, "is_disabled": 0, "fusion_lat": 0.0, "name": "b5a99623c043f757f725ad0b420fbc02", "fusion_lon": 0.0}, {"is_reserved": 0, "type": "electric_scooter", "bike_id": "6834407fb8052bffadf15a24b67db3b4", "lat": 38.9528535, "lon": -77.0685835, "rental_uris": {"android": "https://dc.lft.to/lastmile_qr_scan", "ios": "https://dc.lft.to/lastmile_qr_scan"}, "is_disabled": 0, "fusion_lat": 0.0, "name": "6834407fb8052bffadf15a24b67db3b4", "fusion_lon": 0.0}, {"is_reserved": 0, "type": "electric_scooter", "bike_id": "f632141c728b68c1f0d4ed3f370a8d29", "lat": 38.91033316666667, "lon": -77.030857, "rental_uris": {"android": "https://dc.lft.to/lastmile_qr_scan", "ios": "https://dc.lft.to/lastmile_qr_scan"}, "is_disabled": 0, "fusion_lat": 0.0, "name": "f632141c728b68c1f0d4ed3f370a8d29", "fusion_lon": 0.0}, {"is_reserved": 0, "type": "electric_scooter", "bike_id": "23e18d22bcf9499e3aff9f16112b1310", "lat": 38.92455866666667, "lon": -77.00854433333333, "rental_uris": {"android": "https://dc.lft.to/lastmile_qr_scan", "ios": "https://dc.lft.to/lastmile_qr_scan"}, "is_disabled": 0, "fusion_lat": 0.0, "name": "23e18d22bcf9499e3aff9f16112b1310", "fusion_lon": 0.0}, {"is_reserved": 0, "type": "electric_scooter", "bike_id": "34113e398cc98b83fb94fa710f8ed471", "lat": 38.91971, "lon": -77.02715416666666, "rental_uris": {"android": "https://dc.lft.to/lastmile_qr_scan", "ios": "https://dc.lft.to/lastmile_qr_scan"}, "is_disabled": 0, "fusion_lat": 0.0, "name": "34113e398cc98b83fb94fa710f8ed471", "fusion_lon": 0.0}, {"is_reserved": 0, "type": "electric_scooter", "bike_id": "0206b2e54bea5c40718265af647ac80b", "lat": 38.905916166666664, "lon": -77.0642045, "rental_uris": {"android": "https://dc.lft.to/lastmile_qr_scan", "ios": "https://dc.lft.to/lastmile_qr_scan"}, "is_disabled": 0, "fusion_lat": 0.0, "name": "0206b2e54bea5c40718265af647ac80b", "fusion_lon": 0.0}, {"is_reserved": 0, "type": "electric_scooter", "bike_id": "022f39b1382044e40abcac9837d05bf1", "lat": 38.90838216666667, "lon": -77.0027035, "rental_uris": {"android": "https://dc.lft.to/lastmile_qr_scan", "ios": "https://dc.lft.to/lastmile_qr_scan"}, "is_disabled": 0, "fusion_lat": 0.0, "name": "022f39b1382044e40abcac9837d05bf1", "fusion_lon": 0.0}, {"is_reserved": 0, "type": "electric_scooter", "bike_id": "038050ea1d9bf1836ac18061f5c355f9", "lat": 38.89381983333333, "lon": -77.02980616666666, "rental_uris": {"android": "https://dc.lft.to/lastmile_qr_scan", "ios": "https://dc.lft.to/lastmile_qr_scan"}, "is_disabled": 0, "fusion_lat": 0.0, "name": "038050ea1d9bf1836ac18061f5c355f9", "fusion_lon": 0.0}, {"is_reserved": 0, "type": "electric_scooter", "bike_id": "30ee957c03a0bd5075a33bfae1c1caa2", "lat": 38.92153583333333, "lon": -77.03871083333334, "rental_uris": {"android": "https://dc.lft.to/lastmile_qr_scan", "ios": "https://dc.lft.to/lastmile_qr_scan"}, "is_disabled": 0, "fusion_lat": 0.0, "name": "30ee957c03a0bd5075a33bfae1c1caa2", "fusion_lon": 0.0}, {"is_reserved": 0, "type": "electric_scooter", "bike_id": "6618c3d0d130e64500caa4ab31afa4fa", "lat": 38.8972965, "lon": -77.02373383333334, "rental_uris": {"android": "https://dc.lft.to/lastmile_qr_scan", "ios": "https://dc.lft.to/lastmile_qr_scan"}, "is_disabled": 0, "fusion_lat": 0.0, "name": "6618c3d0d130e64500caa4ab31afa4fa", "fusion_lon": 0.0}, {"is_reserved": 0, "type": "electric_scooter", "bike_id": "1f15a5ae7630570ec8c85d91e3164ff2", "lat": 38.92079666666667, "lon": -77.07699183333334, "rental_uris": {"android": "https://dc.lft.to/lastmile_qr_scan", "ios": "https://dc.lft.to/lastmile_qr_scan"}, "is_disabled": 0, "fusion_lat": 0.0, "name": "1f15a5ae7630570ec8c85d91e3164ff2", "fusion_lon": 0.0}, {"is_reserved": 0, "type": "electric_scooter", "bike_id": "dd9a3eadd79a150f74df0cca6c7eeec7", "lat": 38.926414666666666, "lon": -77.04058083333334, "rental_uris": {"android": "https://dc.lft.to/lastmile_qr_scan", "ios": "https://dc.lft.to/lastmile_qr_scan"}, "is_disabled": 0, "fusion_lat": 0.0, "name": "dd9a3eadd79a150f74df0cca6c7eeec7", "fusion_lon": 0.0}, {"is_reserved": 0, "type": "electric_scooter", "bike_id": "f4c3bc9743052d46980ceae1de8ed973", "lat": 38.8938065, "lon": -76.97817716666667, "rental_uris": {"android": "https://dc.lft.to/lastmile_qr_scan", "ios": "https://dc.lft.to/lastmile_qr_scan"}, "is_disabled": 0, "fusion_lat": 0.0, "name": "f4c3bc9743052d46980ceae1de8ed973", "fusion_lon": 0.0}, {"is_reserved": 0, "type": "electric_scooter", "bike_id": "25743e5f9fc8a63ea8ec64736b5bd73d", "lat": 38.92751833333333, "lon": -77.024553, "rental_uris": {"android": "https://dc.lft.to/lastmile_qr_scan", "ios": "https://dc.lft.to/lastmile_qr_scan"}, "is_disabled": 0, "fusion_lat": 0.0, "name": "25743e5f9fc8a63ea8ec64736b5bd73d", "fusion_lon": 0.0}, {"is_reserved": 0, "type": "electric_scooter", "bike_id": "054a3c674a729e15ad4187de4541c136", "lat": 38.92628083333334, "lon": -77.03627166666666, "rental_uris": {"android": "https://dc.lft.to/lastmile_qr_scan", "ios": "https://dc.lft.to/lastmile_qr_scan"}, "is_disabled": 0, "fusion_lat": 0.0, "name": "054a3c674a729e15ad4187de4541c136", "fusion_lon": 0.0}, {"is_reserved": 0, "type": "electric_scooter", "bike_id": "76f1233666d49bc1886fa2e97ea8d966", "lat": 38.916296, "lon": -77.04530766666667, "rental_uris": {"android": "https://dc.lft.to/lastmile_qr_scan", "ios": "https://dc.lft.to/lastmile_qr_scan"}, "is_disabled": 0, "fusion_lat": 0.0, "name": "76f1233666d49bc1886fa2e97ea8d966", "fusion_lon": 0.0}, {"is_reserved": 0, "type": "electric_scooter", "bike_id": "b8d66215547f6152215d1c78a338ff30", "lat": 38.94225616666667, "lon": -77.07155983333334, "rental_uris": {"android": "https://dc.lft.to/lastmile_qr_scan", "ios": "https://dc.lft.to/lastmile_qr_scan"}, "is_disabled": 0, "fusion_lat": 0.0, "name": "b8d66215547f6152215d1c78a338ff30", "fusion_lon": 0.0}, {"is_reserved": 0, "type": "electric_scooter", "bike_id": "9e59f8e3b70a846747147a95b22c99de", "lat": 38.9194695, "lon": -77.0135095, "rental_uris": {"android": "https://dc.lft.to/lastmile_qr_scan", "ios": "https://dc.lft.to/lastmile_qr_scan"}, "is_disabled": 0, "fusion_lat": 0.0, "name": "9e59f8e3b70a846747147a95b22c99de", "fusion_lon": 0.0}, {"is_reserved": 0, "type": "electric_scooter", "bike_id": "24ad5695f862a0831607dd220e3992b9", "lat": 38.900856, "lon": -77.04873416666666, "rental_uris": {"android": "https://dc.lft.to/lastmile_qr_scan", "ios": "https://dc.lft.to/lastmile_qr_scan"}, "is_disabled": 0, "fusion_lat": 0.0, "name": "24ad5695f862a0831607dd220e3992b9", "fusion_lon": 0.0}, {"is_reserved": 0, "type": "electric_scooter", "bike_id": "d552fc9550ba28e3c6b58e40801b4e97", "lat": 38.94077583333333, "lon": -77.054965, "rental_uris": {"android": "https://dc.lft.to/lastmile_qr_scan", "ios": "https://dc.lft.to/lastmile_qr_scan"}, "is_disabled": 0, "fusion_lat": 0.0, "name": "d552fc9550ba28e3c6b58e40801b4e97", "fusion_lon": 0.0}, {"is_reserved": 0, "type": "electric_scooter", "bike_id": "85abb9f55600927c5bdef0fd34ba048b", "lat": 38.92838783333333, "lon": -77.05508416666666, "rental_uris": {"android": "https://dc.lft.to/lastmile_qr_scan", "ios": "https://dc.lft.to/lastmile_qr_scan"}, "is_disabled": 0, "fusion_lat": 0.0, "name": "85abb9f55600927c5bdef0fd34ba048b", "fusion_lon": 0.0}, {"is_reserved": 0, "type": "electric_scooter", "bike_id": "1fe8b7793293b9a34cee0fa5980beb07", "lat": 38.9174705, "lon": -77.02796933333333, "rental_uris": {"android": "https://dc.lft.to/lastmile_qr_scan", "ios": "https://dc.lft.to/lastmile_qr_scan"}, "is_disabled": 0, "fusion_lat": 0.0, "name": "1fe8b7793293b9a34cee0fa5980beb07", "fusion_lon": 0.0}, {"is_reserved": 0, "type": "electric_scooter", "bike_id": "2f6f1f048493ad49f8850491bb0ec036", "lat": 38.903593666666666, "lon": -77.03175266666666, "rental_uris": {"android": "https://dc.lft.to/lastmile_qr_scan", "ios": "https://dc.lft.to/lastmile_qr_scan"}, "is_disabled": 0, "fusion_lat": 0.0, "name": "2f6f1f048493ad49f8850491bb0ec036", "fusion_lon": 0.0}, {"is_reserved": 0, "type": "electric_scooter", "bike_id": "474acacab9fa461bdf6f6a72a2b78f37", "lat": 38.9219675, "lon": -77.04699166666667, "rental_uris": {"android": "https://dc.lft.to/lastmile_qr_scan", "ios": "https://dc.lft.to/lastmile_qr_scan"}, "is_disabled": 0, "fusion_lat": 0.0, "name": "474acacab9fa461bdf6f6a72a2b78f37", "fusion_lon": 0.0}, {"is_reserved": 0, "type": "electric_scooter", "bike_id": "18cc4bdec3de373a804053e271a2f11b", "lat": 38.92770383333333, "lon": -77.02783083333334, "rental_uris": {"android": "https://dc.lft.to/lastmile_qr_scan", "ios": "https://dc.lft.to/lastmile_qr_scan"}, "is_disabled": 0, "fusion_lat": 0.0, "name": "18cc4bdec3de373a804053e271a2f11b", "fusion_lon": 0.0}, {"is_reserved": 0, "type": "electric_scooter", "bike_id": "8439cbce5ffb9b047884f0eefec740e1", "lat": 38.9068815, "lon": -77.06261283333333, "rental_uris": {"android": "https://dc.lft.to/lastmile_qr_scan", "ios": "https://dc.lft.to/lastmile_qr_scan"}, "is_disabled": 0, "fusion_lat": 0.0, "name": "8439cbce5ffb9b047884f0eefec740e1", "fusion_lon": 0.0}, {"is_reserved": 0, "type": "electric_scooter", "bike_id": "cb0a281240cae830b60d50e3fbc0a7a7", "lat": 38.8987505, "lon": -76.93181633333333, "rental_uris": {"android": "https://dc.lft.to/lastmile_qr_scan", "ios": "https://dc.lft.to/lastmile_qr_scan"}, "is_disabled": 0, "fusion_lat": 0.0, "name": "cb0a281240cae830b60d50e3fbc0a7a7", "fusion_lon": 0.0}, {"is_reserved": 0, "type": "electric_scooter", "bike_id": "535e1c73055242889698760d1a7d2e5a", "lat": 38.928580833333335, "lon": -77.0138435, "rental_uris": {"android": "https://dc.lft.to/lastmile_qr_scan", "ios": "https://dc.lft.to/lastmile_qr_scan"}, "is_disabled": 0, "fusion_lat": 0.0, "name": "535e1c73055242889698760d1a7d2e5a", "fusion_lon": 0.0}, {"is_reserved": 0, "type": "electric_scooter", "bike_id": "eaa0eca1e235724368668b2f6cce488e", "lat": 38.906585166666666, "lon": -77.00899116666666, "rental_uris": {"android": "https://dc.lft.to/lastmile_qr_scan", "ios": "https://dc.lft.to/lastmile_qr_scan"}, "is_disabled": 0, "fusion_lat": 0.0, "name": "eaa0eca1e235724368668b2f6cce488e", "fusion_lon": 0.0}, {"is_reserved": 0, "type": "electric_scooter", "bike_id": "4bebceebf966abcd423c903ce64b5228", "lat": 38.9203515, "lon": -77.04178983333334, "rental_uris": {"android": "https://dc.lft.to/lastmile_qr_scan", "ios": "https://dc.lft.to/lastmile_qr_scan"}, "is_disabled": 0, "fusion_lat": 0.0, "name": "4bebceebf966abcd423c903ce64b5228", "fusion_lon": 0.0}, {"is_reserved": 0, "type": "electric_scooter", "bike_id": "18fa008e630b32dffbf662a0afa9da9e", "lat": 38.88513566666666, "lon": -76.996208, "rental_uris": {"android": "https://dc.lft.to/lastmile_qr_scan", "ios": "https://dc.lft.to/lastmile_qr_scan"}, "is_disabled": 0, "fusion_lat": 0.0, "name": "18fa008e630b32dffbf662a0afa9da9e", "fusion_lon": 0.0}, {"is_reserved": 0, "type": "electric_scooter", "bike_id": "3aa12cfbfbd2316228146f058eb1ff8e", "lat": 38.900175, "lon": -77.011927, "rental_uris": {"android": "https://dc.lft.to/lastmile_qr_scan", "ios": "https://dc.lft.to/lastmile_qr_scan"}, "is_disabled": 0, "fusion_lat": 0.0, "name": "3aa12cfbfbd2316228146f058eb1ff8e", "fusion_lon": 0.0}, {"is_reserved": 0, "type": "electric_scooter", "bike_id": "1d93633ee99db890151484f23277a952", "lat": 38.91017033333333, "lon": -76.99375516666667, "rental_uris": {"android": "https://dc.lft.to/lastmile_qr_scan", "ios": "https://dc.lft.to/lastmile_qr_scan"}, "is_disabled": 0, "fusion_lat": 0.0, "name": "1d93633ee99db890151484f23277a952", "fusion_lon": 0.0}, {"is_reserved": 0, "type": "electric_scooter", "bike_id": "6ab1dd693ad314a68fd674039e756059", "lat": 38.91871016666666, "lon": -77.04312933333334, "rental_uris": {"android": "https://dc.lft.to/lastmile_qr_scan", "ios": "https://dc.lft.to/lastmile_qr_scan"}, "is_disabled": 0, "fusion_lat": 0.0, "name": "6ab1dd693ad314a68fd674039e756059", "fusion_lon": 0.0}, {"is_reserved": 0, "type": "electric_scooter", "bike_id": "a46b5c6c5f9736c85e16c167600e9a31", "lat": 38.9043765, "lon": -77.04851616666667, "rental_uris": {"android": "https://dc.lft.to/lastmile_qr_scan", "ios": "https://dc.lft.to/lastmile_qr_scan"}, "is_disabled": 0, "fusion_lat": 0.0, "name": "a46b5c6c5f9736c85e16c167600e9a31", "fusion_lon": 0.0}, {"is_reserved": 0, "type": "electric_scooter", "bike_id": "899d94098d1fad00ef43cb21431cae7d", "lat": 38.891935333333336, "lon": -77.0222715, "rental_uris": {"android": "https://dc.lft.to/lastmile_qr_scan", "ios": "https://dc.lft.to/lastmile_qr_scan"}, "is_disabled": 0, "fusion_lat": 0.0, "name": "899d94098d1fad00ef43cb21431cae7d", "fusion_lon": 0.0}, {"is_reserved": 0, "type": "electric_scooter", "bike_id": "f26f4703ecc08731a3134a01eeaf8848", "lat": 38.874739, "lon": -77.003379, "rental_uris": {"android": "https://dc.lft.to/lastmile_qr_scan", "ios": "https://dc.lft.to/lastmile_qr_scan"}, "is_disabled": 0, "fusion_lat": 0.0, "name": "f26f4703ecc08731a3134a01eeaf8848", "fusion_lon": 0.0}, {"is_reserved": 0, "type": "electric_scooter", "bike_id": "5a83f08e33cd3aff5ae8c8e453b22886", "lat": 38.918772833333335, "lon": -77.04319683333334, "rental_uris": {"android": "https://dc.lft.to/lastmile_qr_scan", "ios": "https://dc.lft.to/lastmile_qr_scan"}, "is_disabled": 0, "fusion_lat": 0.0, "name": "5a83f08e33cd3aff5ae8c8e453b22886", "fusion_lon": 0.0}, {"is_reserved": 0, "type": "electric_scooter", "bike_id": "f379d675a3cb5ea516b672dc01f9cfbc", "lat": 38.92203516666667, "lon": -77.02031683333334, "rental_uris": {"android": "https://dc.lft.to/lastmile_qr_scan", "ios": "https://dc.lft.to/lastmile_qr_scan"}, "is_disabled": 0, "fusion_lat": 0.0, "name": "f379d675a3cb5ea516b672dc01f9cfbc", "fusion_lon": 0.0}, {"is_reserved": 0, "type": "electric_scooter", "bike_id": "689407c3293e8ef3072ddb43d7ee5a9b", "lat": 38.911795166666664, "lon": -77.002609, "rental_uris": {"android": "https://dc.lft.to/lastmile_qr_scan", "ios": "https://dc.lft.to/lastmile_qr_scan"}, "is_disabled": 0, "fusion_lat": 0.0, "name": "689407c3293e8ef3072ddb43d7ee5a9b", "fusion_lon": 0.0}, {"is_reserved": 0, "type": "electric_scooter", "bike_id": "cb0a1c67fe3516301cad47127941e51c", "lat": 38.8976865, "lon": -77.04769883333333, "rental_uris": {"android": "https://dc.lft.to/lastmile_qr_scan", "ios": "https://dc.lft.to/lastmile_qr_scan"}, "is_disabled": 0, "fusion_lat": 0.0, "name": "cb0a1c67fe3516301cad47127941e51c", "fusion_lon": 0.0}, {"is_reserved": 0, "type": "electric_scooter", "bike_id": "36a070b3bb374f2af0dd52df6376cd5a", "lat": 38.93407083333334, "lon": -77.03270983333333, "rental_uris": {"android": "https://dc.lft.to/lastmile_qr_scan", "ios": "https://dc.lft.to/lastmile_qr_scan"}, "is_disabled": 0, "fusion_lat": 0.0, "name": "36a070b3bb374f2af0dd52df6376cd5a", "fusion_lon": 0.0}, {"is_reserved": 0, "type": "electric_scooter", "bike_id": "955f09be5a8e5c549c734ae985d2a5fb", "lat": 38.91094783333333, "lon": -77.05064966666667, "rental_uris": {"android": "https://dc.lft.to/lastmile_qr_scan", "ios": "https://dc.lft.to/lastmile_qr_scan"}, "is_disabled": 0, "fusion_lat": 0.0, "name": "955f09be5a8e5c549c734ae985d2a5fb", "fusion_lon": 0.0}, {"is_reserved": 0, "type": "electric_scooter", "bike_id": "cd4ee91399f58bf8bfa23af14cbdcc73", "lat": 38.90570316666667, "lon": -77.04170166666667, "rental_uris": {"android": "https://dc.lft.to/lastmile_qr_scan", "ios": "https://dc.lft.to/lastmile_qr_scan"}, "is_disabled": 0, "fusion_lat": 0.0, "name": "cd4ee91399f58bf8bfa23af14cbdcc73", "fusion_lon": 0.0}, {"is_reserved": 0, "type": "electric_scooter", "bike_id": "4bbf86ed04f87b6259b4ed83d5767472", "lat": 38.927702333333336, "lon": -77.02778133333334, "rental_uris": {"android": "https://dc.lft.to/lastmile_qr_scan", "ios": "https://dc.lft.to/lastmile_qr_scan"}, "is_disabled": 0, "fusion_lat": 0.0, "name": "4bbf86ed04f87b6259b4ed83d5767472", "fusion_lon": 0.0}, {"is_reserved": 0, "type": "electric_scooter", "bike_id": "08b90d1bdcd6b19b91d9b372250299b1", "lat": 38.967902, "lon": -77.024341, "rental_uris": {"android": "https://dc.lft.to/lastmile_qr_scan", "ios": "https://dc.lft.to/lastmile_qr_scan"}, "is_disabled": 0, "fusion_lat": 0.0, "name": "08b90d1bdcd6b19b91d9b372250299b1", "fusion_lon": 0.0}, {"is_reserved": 0, "type": "electric_scooter", "bike_id": "15fa5cb521d4e8200c3a1ff2ffc32124", "lat": 38.923234, "lon": -77.02910166666666, "rental_uris": {"android": "https://dc.lft.to/lastmile_qr_scan", "ios": "https://dc.lft.to/lastmile_qr_scan"}, "is_disabled": 0, "fusion_lat": 0.0, "name": "15fa5cb521d4e8200c3a1ff2ffc32124", "fusion_lon": 0.0}, {"is_reserved": 0, "type": "electric_scooter", "bike_id": "e919125c94a55161ead421664b43464b", "lat": 38.896554, "lon": -77.02607166666667, "rental_uris": {"android": "https://dc.lft.to/lastmile_qr_scan", "ios": "https://dc.lft.to/lastmile_qr_scan"}, "is_disabled": 0, "fusion_lat": 0.0, "name": "e919125c94a55161ead421664b43464b", "fusion_lon": 0.0}, {"is_reserved": 0, "type": "electric_scooter", "bike_id": "712092307409ff375f73ab73312a09c3", "lat": 38.91265683333334, "lon": -77.01767316666667, "rental_uris": {"android": "https://dc.lft.to/lastmile_qr_scan", "ios": "https://dc.lft.to/lastmile_qr_scan"}, "is_disabled": 0, "fusion_lat": 0.0, "name": "712092307409ff375f73ab73312a09c3", "fusion_lon": 0.0}, {"is_reserved": 0, "type": "electric_scooter", "bike_id": "a40bec9ad8cf962380160e4aa37b255a", "lat": 38.93108683333333, "lon": -77.024003, "rental_uris": {"android": "https://dc.lft.to/lastmile_qr_scan", "ios": "https://dc.lft.to/lastmile_qr_scan"}, "is_disabled": 0, "fusion_lat": 0.0, "name": "a40bec9ad8cf962380160e4aa37b255a", "fusion_lon": 0.0}, {"is_reserved": 0, "type": "electric_scooter", "bike_id": "a663749f1600acd47db5de78540eec01", "lat": 38.895031333333336, "lon": -76.9347415, "rental_uris": {"android": "https://dc.lft.to/lastmile_qr_scan", "ios": "https://dc.lft.to/lastmile_qr_scan"}, "is_disabled": 0, "fusion_lat": 0.0, "name": "a663749f1600acd47db5de78540eec01", "fusion_lon": 0.0}, {"is_reserved": 0, "type": "electric_scooter", "bike_id": "6a34d9af2b14a0b7c34ade412cbb3983", "lat": 38.90082866666667, "lon": -76.980074, "rental_uris": {"android": "https://dc.lft.to/lastmile_qr_scan", "ios": "https://dc.lft.to/lastmile_qr_scan"}, "is_disabled": 0, "fusion_lat": 0.0, "name": "6a34d9af2b14a0b7c34ade412cbb3983", "fusion_lon": 0.0}, {"is_reserved": 0, "type": "electric_bike", "bike_id": "f243fdc457b13814c237afb1b5cc8dad", "lat": 38.97339216666667, "lon": -76.99590566666667, "rental_uris": {"android": "https://dc.lft.to/lastmile_qr_scan", "ios": "https://dc.lft.to/lastmile_qr_scan"}, "is_disabled": 0, "fusion_lat": 0.0, "name": "f243fdc457b13814c237afb1b5cc8dad", "fusion_lon": 0.0}, {"is_reserved": 0, "type": "electric_bike", "bike_id": "79a5384458b7229eee9c33c97b076dce", "lat": 39.0423175, "lon": -76.99740233333333, "rental_uris": {"android": "https://dc.lft.to/lastmile_qr_scan", "ios": "https://dc.lft.to/lastmile_qr_scan"}, "is_disabled": 0, "fusion_lat": 0.0, "name": "79a5384458b7229eee9c33c97b076dce", "fusion_lon": 0.0}, {"is_reserved": 0, "type": "electric_scooter", "bike_id": "4bdeb42c0a5eb55bb4647014c7bdde26", "lat": 38.92371083333333, "lon": -77.0289555, "rental_uris": {"android": "https://dc.lft.to/lastmile_qr_scan", "ios": "https://dc.lft.to/lastmile_qr_scan"}, "is_disabled": 0, "fusion_lat": 0.0, "name": "4bdeb42c0a5eb55bb4647014c7bdde26", "fusion_lon": 0.0}, {"is_reserved": 0, "type": "electric_scooter", "bike_id": "7b1b454713207b3fcb7d391c4cd41c82", "lat": 38.91137166666667, "lon": -76.98465966666667, "rental_uris": {"android": "https://dc.lft.to/lastmile_qr_scan", "ios": "https://dc.lft.to/lastmile_qr_scan"}, "is_disabled": 0, "fusion_lat": 0.0, "name": "7b1b454713207b3fcb7d391c4cd41c82", "fusion_lon": 0.0}, {"is_reserved": 0, "type": "electric_scooter", "bike_id": "e070ffde6372442b28b8866e31411821", "lat": 38.920333166666666, "lon": -77.041796, "rental_uris": {"android": "https://dc.lft.to/lastmile_qr_scan", "ios": "https://dc.lft.to/lastmile_qr_scan"}, "is_disabled": 0, "fusion_lat": 0.0, "name": "e070ffde6372442b28b8866e31411821", "fusion_lon": 0.0}, {"is_reserved": 0, "type": "electric_bike", "bike_id": "05bd1ace0196b3ccafd6cd5b82f44d0a", "lat": 38.936680833333334, "lon": -77.03425816666666, "rental_uris": {"android": "https://dc.lft.to/lastmile_qr_scan", "ios": "https://dc.lft.to/lastmile_qr_scan"}, "is_disabled": 0, "fusion_lat": 0.0, "name": "05bd1ace0196b3ccafd6cd5b82f44d0a", "fusion_lon": 0.0}, {"is_reserved": 0, "type": "electric_scooter", "bike_id": "ae9b66b89c138e79bb91d5fd7c1674cc", "lat": 38.90845683333333, "lon": -77.02061883333333, "rental_uris": {"android": "https://dc.lft.to/lastmile_qr_scan", "ios": "https://dc.lft.to/lastmile_qr_scan"}, "is_disabled": 0, "fusion_lat": 0.0, "name": "ae9b66b89c138e79bb91d5fd7c1674cc", "fusion_lon": 0.0}, {"is_reserved": 0, "type": "electric_scooter", "bike_id": "e5063321255ab8eafb65fbce2e2925c2", "lat": 38.9198835, "lon": -77.02533033333333, "rental_uris": {"android": "https://dc.lft.to/lastmile_qr_scan", "ios": "https://dc.lft.to/lastmile_qr_scan"}, "is_disabled": 0, "fusion_lat": 0.0, "name": "e5063321255ab8eafb65fbce2e2925c2", "fusion_lon": 0.0}, {"is_reserved": 0, "type": "electric_scooter", "bike_id": "b74f5b693cf5bc3d6fcde27930883bf7", "lat": 38.913475, "lon": -77.04351183333333, "rental_uris": {"android": "https://dc.lft.to/lastmile_qr_scan", "ios": "https://dc.lft.to/lastmile_qr_scan"}, "is_disabled": 0, "fusion_lat": 0.0, "name": "b74f5b693cf5bc3d6fcde27930883bf7", "fusion_lon": 0.0}, {"is_reserved": 0, "type": "electric_scooter", "bike_id": "f5bb5aa3207e0ce0eae8eb95d9bfa37f", "lat": 38.8998875, "lon": -77.02281083333334, "rental_uris": {"android": "https://dc.lft.to/lastmile_qr_scan", "ios": "https://dc.lft.to/lastmile_qr_scan"}, "is_disabled": 0, "fusion_lat": 0.0, "name": "f5bb5aa3207e0ce0eae8eb95d9bfa37f", "fusion_lon": 0.0}, {"is_reserved": 0, "type": "electric_scooter", "bike_id": "af9e8371c6c5565768c4faf750147408", "lat": 38.8939395, "lon": -77.0225895, "rental_uris": {"android": "https://dc.lft.to/lastmile_qr_scan", "ios": "https://dc.lft.to/lastmile_qr_scan"}, "is_disabled": 0, "fusion_lat": 0.0, "name": "af9e8371c6c5565768c4faf750147408", "fusion_lon": 0.0}, {"is_reserved": 0, "type": "electric_bike", "bike_id": "0994735898eadf4c07a7379ff237e8f2", "lat": 38.94263266666667, "lon": -76.99070733333333, "rental_uris": {"android": "https://dc.lft.to/lastmile_qr_scan", "ios": "https://dc.lft.to/lastmile_qr_scan"}, "is_disabled": 0, "fusion_lat": 0.0, "name": "0994735898eadf4c07a7379ff237e8f2", "fusion_lon": 0.0}, {"is_reserved": 0, "type": "electric_scooter", "bike_id": "66831a59c69a207597bca999522db6e3", "lat": 38.9160005, "lon": -77.02002683333333, "rental_uris": {"android": "https://dc.lft.to/lastmile_qr_scan", "ios": "https://dc.lft.to/lastmile_qr_scan"}, "is_disabled": 0, "fusion_lat": 0.0, "name": "66831a59c69a207597bca999522db6e3", "fusion_lon": 0.0}, {"is_reserved": 0, "type": "electric_scooter", "bike_id": "5fbef2b455aa3bef57f96a0f00f7eb52", "lat": 38.916246, "lon": -77.00765, "rental_uris": {"android": "https://dc.lft.to/lastmile_qr_scan", "ios": "https://dc.lft.to/lastmile_qr_scan"}, "is_disabled": 0, "fusion_lat": 0.0, "name": "5fbef2b455aa3bef57f96a0f00f7eb52", "fusion_lon": 0.0}, {"is_reserved": 0, "type": "electric_scooter", "bike_id": "58a4bd5a56b34569b5453902cdfdbbc4", "lat": 38.925819, "lon": -77.02942883333333, "rental_uris": {"android": "https://dc.lft.to/lastmile_qr_scan", "ios": "https://dc.lft.to/lastmile_qr_scan"}, "is_disabled": 0, "fusion_lat": 0.0, "name": "58a4bd5a56b34569b5453902cdfdbbc4", "fusion_lon": 0.0}, {"is_reserved": 0, "type": "electric_scooter", "bike_id": "a2f3f044bf114be9d2948bd57c9e6c81", "lat": 38.88511066666667, "lon": -77.02183033333333, "rental_uris": {"android": "https://dc.lft.to/lastmile_qr_scan", "ios": "https://dc.lft.to/lastmile_qr_scan"}, "is_disabled": 0, "fusion_lat": 0.0, "name": "a2f3f044bf114be9d2948bd57c9e6c81", "fusion_lon": 0.0}, {"is_reserved": 0, "type": "electric_scooter", "bike_id": "138db9c22ec6dd33fc73ea55772ca2c0", "lat": 38.9213505, "lon": -77.031889, "rental_uris": {"android": "https://dc.lft.to/lastmile_qr_scan", "ios": "https://dc.lft.to/lastmile_qr_scan"}, "is_disabled": 0, "fusion_lat": 0.0, "name": "138db9c22ec6dd33fc73ea55772ca2c0", "fusion_lon": 0.0}, {"is_reserved": 0, "type": "electric_scooter", "bike_id": "4e143bb9dc3c86acf2ce8e59ab9c1963", "lat": 38.9125005, "lon": -77.03690316666666, "rental_uris": {"android": "https://dc.lft.to/lastmile_qr_scan", "ios": "https://dc.lft.to/lastmile_qr_scan"}, "is_disabled": 0, "fusion_lat": 0.0, "name": "4e143bb9dc3c86acf2ce8e59ab9c1963", "fusion_lon": 0.0}, {"is_reserved": 0, "type": "electric_scooter", "bike_id": "69f9ad493da2016263b8320773519ba6", "lat": 38.89467416666667, "lon": -77.0493925, "rental_uris": {"android": "https://dc.lft.to/lastmile_qr_scan", "ios": "https://dc.lft.to/lastmile_qr_scan"}, "is_disabled": 0, "fusion_lat": 0.0, "name": "69f9ad493da2016263b8320773519ba6", "fusion_lon": 0.0}, {"is_reserved": 0, "type": "electric_scooter", "bike_id": "31e4d098bef5e893ce468de7b0b7487e", "lat": 38.921501666666664, "lon": -77.03507216666667, "rental_uris": {"android": "https://dc.lft.to/lastmile_qr_scan", "ios": "https://dc.lft.to/lastmile_qr_scan"}, "is_disabled": 0, "fusion_lat": 0.0, "name": "31e4d098bef5e893ce468de7b0b7487e", "fusion_lon": 0.0}, {"is_reserved": 0, "type": "electric_scooter", "bike_id": "d914c78b07468f6e9ff1219ae03ef894", "lat": 38.89920983333333, "lon": -77.03230416666666, "rental_uris": {"android": "https://dc.lft.to/lastmile_qr_scan", "ios": "https://dc.lft.to/lastmile_qr_scan"}, "is_disabled": 0, "fusion_lat": 0.0, "name": "d914c78b07468f6e9ff1219ae03ef894", "fusion_lon": 0.0},