{"data": {"bikes": [{"type": "electric_scooter", "name": "3c4ba1a202415d1eb37ee1e1d256779f", "fusion_lat": 0.0, "fusion_lon": 0.0, "lon": -77.06381766666667, "is_disabled": 0, "bike_id": "3c4ba1a202415d1eb37ee1e1d256779f", "is_reserved": 0, "rental_uris": {"android": "https://dc.lft.to/lastmile_qr_scan", "ios": "https://dc.lft.to/lastmile_qr_scan"}, "lat": 38.90520333333333}, {"type": "electric_scooter", "name": "a8f85a631a1656dff6b8a44c0b415b76", "fusion_lat": 0.0, "fusion_lon": 0.0, "lon": -77.04490216666666, "is_disabled": 0, "bike_id": "a8f85a631a1656dff6b8a44c0b415b76", "is_reserved": 0, "rental_uris": {"android": "https://dc.lft.to/lastmile_qr_scan", "ios": "https://dc.lft.to/lastmile_qr_scan"}, "lat": 38.913517166666665}, {"type": "electric_scooter", "name": "1b7734388682d27b8042d31d0ba9fb0c", "fusion_lat": 0.0, "fusion_lon": 0.0, "lon": -77.03416433333334, "is_disabled": 0, "bike_id": "1b7734388682d27b8042d31d0ba9fb0c", "is_reserved": 0, "rental_uris": {"android": "https://dc.lft.to/lastmile_qr_scan", "ios": "https://dc.lft.to/lastmile_qr_scan"}, "lat": 38.901457}, {"type": "electric_bike", "name": "e7c8d143f12511dbbbc418a6bd6a5adb", "fusion_lat": 0.0, "fusion_lon": 0.0, "lon": -77.07906366666667, "is_disabled": 0, "bike_id": "e7c8d143f12511dbbbc418a6bd6a5adb", "is_reserved": 0, "rental_uris": {"android": "https://dc.lft.to/lastmile_qr_scan", "ios": "https://dc.lft.to/lastmile_qr_scan"}, "lat": 38.83937066666667}, {"type": "electric_scooter", "name": "a85f2a8ea0e7dcfc4c25d70912367934", "fusion_lat": 0.0, "fusion_lon": 0.0, "lon": -77.02974416666666, "is_disabled": 0, "bike_id": "a85f2a8ea0e7dcfc4c25d70912367934", "is_reserved": 0, "rental_uris": {"android": "https://dc.lft.to/lastmile_qr_scan", "ios": "https://dc.lft.to/lastmile_qr_scan"}, "lat": 38.924418333333335}, {"type": "electric_bike", "name": "e8eb120dd802a146254f75e08d06faab", "fusion_lat": 0.0, "fusion_lon": 0.0, "lon": -77.10292383333334, "is_disabled": 0, "bike_id": "e8eb120dd802a146254f75e08d06faab", "is_reserved": 0, "rental_uris": {"android": "https://dc.lft.to/lastmile_qr_scan", "ios": "https://dc.lft.to/lastmile_qr_scan"}, "lat": 38.85253766666666}, {"type": "electric_scooter", "name": "ccd42055a57820af780f9c93d9893a4c", "fusion_lat": 0.0, "fusion_lon": 0.0, "lon": -77.03835033333333, "is_disabled": 0, "bike_id": "ccd42055a57820af780f9c93d9893a4c", "is_reserved": 0, "rental_uris": {"android": "https://dc.lft.to/lastmile_qr_scan", "ios": "https://dc.lft.to/lastmile_qr_scan"}, "lat": 38.9119275}, {"type": "electric_scooter", "name": "4fd957c798843bc468c4d314884f0500", "fusion_lat": 0.0, "fusion_lon": 0.0, "lon": -76.94638016666667, "is_disabled": 0, "bike_id": "4fd957c798843bc468c4d314884f0500", "is_reserved": 0, "rental_uris": {"android": "https://dc.lft.to/lastmile_qr_scan", "ios": "https://dc.lft.to/lastmile_qr_scan"}, "lat": 38.8986685}, {"type": "electric_bike", "name": "df52a5df9d5cd700ca0a8bd2ae133a51", "fusion_lat": 0.0, "fusion_lon": 0.0, "lon": -77.23177466666667, "is_disabled": 0, "bike_id": "df52a5df9d5cd700ca0a8bd2ae133a51", "is_reserved": 0, "rental_uris": {"android": "https://dc.lft.to/lastmile_qr_scan", "ios": "https://dc.lft.to/lastmile_qr_scan"}, "lat": 38.9289335}, {"type": "electric_scooter", "name": "3672061cc85513cd5ac4efaa30d06163", "fusion_lat": 0.0, "fusion_lon": 0.0, "lon": -77.02574383333334, "is_disabled": 0, "bike_id": "3672061cc85513cd5ac4efaa30d06163", "is_reserved": 0, "rental_uris": {"android": "https://dc.lft.to/lastmile_qr_scan", "ios": "https://dc.lft.to/lastmile_qr_scan"}, "lat": 38.94852516666667}, {"type": "electric_scooter", "name": "d4005d3b4bbf7fe8167318aa974c4fd4", "fusion_lat": 0.0, "fusion_lon": 0.0, "lon": -77.01502233333333, "is_disabled": 0, "bike_id": "d4005d3b4bbf7fe8167318aa974c4fd4", "is_reserved": 0, "rental_uris": {"android": "https://dc.lft.to/lastmile_qr_scan", "ios": "https://dc.lft.to/lastmile_qr_scan"}, "lat": 38.90656333333333}, {"type": "electric_scooter", "name": "29b8d0d7acd0736a9dd014ec45ace372", "fusion_lat": 0.0, "fusion_lon": 0.0, "lon": -77.0244815, "is_disabled": 0, "bike_id": "29b8d0d7acd0736a9dd014ec45ace372", "is_reserved": 0, "rental_uris": {"android": "https://dc.lft.to/lastmile_qr_scan", "ios": "https://dc.lft.to/lastmile_qr_scan"}, "lat": 38.9497845}, {"type": "electric_scooter", "name": "eb585912dd4f82ae2403dfbc15937efe", "fusion_lat": 0.0, "fusion_lon": 0.0, "lon": -77.03170516666667, "is_disabled": 0, "bike_id": "eb585912dd4f82ae2403dfbc15937efe", "is_reserved": 0, "rental_uris": {"android": "https://dc.lft.to/lastmile_qr_scan", "ios": "https://dc.lft.to/lastmile_qr_scan"}, "lat": 38.920928333333336}, {"type": "electric_scooter", "name": "0c77d4c911b7976d900ffcfde1d62c93", "fusion_lat": 0.0, "fusion_lon": 0.0, "lon": -77.01055666666667, "is_disabled": 0, "bike_id": "0c77d4c911b7976d900ffcfde1d62c93", "is_reserved": 0, "rental_uris": {"android": "https://dc.lft.to/lastmile_qr_scan", "ios": "https://dc.lft.to/lastmile_qr_scan"}, "lat": 38.929896}, {"type": "electric_scooter", "name": "f342f39e851085d66bdc16d158da6764", "fusion_lat": 0.0, "fusion_lon": 0.0, "lon": -77.00073366666666, "is_disabled": 0, "bike_id": "f342f39e851085d66bdc16d158da6764", "is_reserved": 0, "rental_uris": {"android": "https://dc.lft.to/lastmile_qr_scan", "ios": "https://dc.lft.to/lastmile_qr_scan"}, "lat": 38.901405833333335}, {"type": "electric_scooter", "name": "851fa2e854b6eef9a9ab3a3aae110b4c", "fusion_lat": 0.0, "fusion_lon": 0.0, "lon": -77.00577766666666, "is_disabled": 0, "bike_id": "851fa2e854b6eef9a9ab3a3aae110b4c", "is_reserved": 0, "rental_uris": {"android": "https://dc.lft.to/lastmile_qr_scan", "ios": "https://dc.lft.to/lastmile_qr_scan"}, "lat": 38.8765295}, {"type": "electric_scooter", "name": "dbb9bfc698eea562271ff3772d2fe3ea", "fusion_lat": 0.0, "fusion_lon": 0.0, "lon": -76.93758016666666, "is_disabled": 0, "bike_id": "dbb9bfc698eea562271ff3772d2fe3ea", "is_reserved": 0, "rental_uris": {"android": "https://dc.lft.to/lastmile_qr_scan", "ios": "https://dc.lft.to/lastmile_qr_scan"}, "lat": 38.890483}, {"type": "electric_scooter", "name": "8c5de91b7f81756b8180dbd2bf2fac04", "fusion_lat": 0.0, "fusion_lon": 0.0, "lon": -77.02783116666667, "is_disabled": 0, "bike_id": "8c5de91b7f81756b8180dbd2bf2fac04", "is_reserved": 0, "rental_uris": {"android": "https://dc.lft.to/lastmile_qr_scan", "ios": "https://dc.lft.to/lastmile_qr_scan"}, "lat": 38.92688916666667}, {"type": "electric_scooter", "name": "e140684b51c9c6a42d0cdb82d768c0e1", "fusion_lat": 0.0, "fusion_lon": 0.0, "lon": -76.98358516666667, "is_disabled": 0, "bike_id": "e140684b51c9c6a42d0cdb82d768c0e1", "is_reserved": 0, "rental_uris": {"android": "https://dc.lft.to/lastmile_qr_scan", "ios": "https://dc.lft.to/lastmile_qr_scan"}, "lat": 38.88731333333333}, {"type": "electric_bike", "name": "208426405c0c501a308a90efb079df0b", "fusion_lat": 0.0, "fusion_lon": 0.0, "lon": -76.97956166666667, "is_disabled": 0, "bike_id": "208426405c0c501a308a90efb079df0b", "is_reserved": 0, "rental_uris": {"android": "https://dc.lft.to/lastmile_qr_scan", "ios": "https://dc.lft.to/lastmile_qr_scan"}, "lat": 38.920345}, {"type": "electric_scooter", "name": "8d136b3ae0013830c6fa953b9ac32ab4", "fusion_lat": 0.0, "fusion_lon": 0.0, "lon": -77.016384, "is_disabled": 0, "bike_id": "8d136b3ae0013830c6fa953b9ac32ab4", "is_reserved": 0, "rental_uris": {"android": "https://dc.lft.to/lastmile_qr_scan", "ios": "https://dc.lft.to/lastmile_qr_scan"}, "lat": 38.929404}, {"type": "electric_scooter", "name": "78f997dae018799c08814fad7ba1b99d", "fusion_lat": 0.0, "fusion_lon": 0.0, "lon": -77.073162, "is_disabled": 0, "bike_id": "78f997dae018799c08814fad7ba1b99d", "is_reserved": 0, "rental_uris": {"android": "https://dc.lft.to/lastmile_qr_scan", "ios": "https://dc.lft.to/lastmile_qr_scan"}, "lat": 38.92199383333333}, {"type": "electric_bike", "name": "485d3d4ae4523dfb634eb3f248203095", "fusion_lat": 0.0, "fusion_lon": 0.0, "lon": -77.0775375, "is_disabled": 0, "bike_id": "485d3d4ae4523dfb634eb3f248203095", "is_reserved": 0, "rental_uris": {"android": "https://dc.lft.to/lastmile_qr_scan", "ios": "https://dc.lft.to/lastmile_qr_scan"}, "lat": 38.84192566666667}, {"type": "electric_scooter", "name": "71791f8b56f204c8272d351b8e9b070d", "fusion_lat": 0.0, "fusion_lon": 0.0, "lon": -77.04223233333333, "is_disabled": 0, "bike_id": "71791f8b56f204c8272d351b8e9b070d", "is_reserved": 0, "rental_uris": {"android": "https://dc.lft.to/lastmile_qr_scan", "ios": "https://dc.lft.to/lastmile_qr_scan"}, "lat": 38.92280316666667}, {"type": "electric_scooter", "name": "8b320b2ca445a66c090235813dc3bc42", "fusion_lat": 0.0, "fusion_lon": 0.0, "lon": -77.017926, "is_disabled": 0, "bike_id": "8b320b2ca445a66c090235813dc3bc42", "is_reserved": 0, "rental_uris": {"android": "https://dc.lft.to/lastmile_qr_scan", "ios": "https://dc.lft.to/lastmile_qr_scan"}, "lat": 38.920341}, {"type": "electric_scooter", "name": "760b0dc1d1f2073a4d6adce47ab2d074", "fusion_lat": 0.0, "fusion_lon": 0.0, "lon": -77.0219895, "is_disabled": 0, "bike_id": "760b0dc1d1f2073a4d6adce47ab2d074", "is_reserved": 0, "rental_uris": {"android": "https://dc.lft.to/lastmile_qr_scan", "ios": "https://dc.lft.to/lastmile_qr_scan"}, "lat": 38.89977433333333}, {"type": "electric_scooter", "name": "76b625d7c2cc91cb860aa63a454e7b0d", "fusion_lat": 0.0, "fusion_lon": 0.0, "lon": -76.98372366666666, "is_disabled": 0, "bike_id": "76b625d7c2cc91cb860aa63a454e7b0d", "is_reserved": 0, "rental_uris": {"android": "https://dc.lft.to/lastmile_qr_scan", "ios": "https://dc.lft.to/lastmile_qr_scan"}, "lat": 38.89265866666667}, {"type": "electric_scooter", "name": "ea8cea360864f04c14b5748da366fe8a", "fusion_lat": 0.0, "fusion_lon": 0.0, "lon": -77.029772, "is_disabled": 0, "bike_id": "ea8cea360864f04c14b5748da366fe8a", "is_reserved": 0, "rental_uris": {"android": "https://dc.lft.to/lastmile_qr_scan", "ios": "https://dc.lft.to/lastmile_qr_scan"}, "lat": 38.9244685}, {"type": "electric_scooter", "name": "f8240f3f43389869831afe369d28e747", "fusion_lat": 0.0, "fusion_lon": 0.0, "lon": -77.01269633333334, "is_disabled": 0, "bike_id": "f8240f3f43389869831afe369d28e747", "is_reserved": 0, "rental_uris": {"android": "https://dc.lft.to/lastmile_qr_scan", "ios": "https://dc.lft.to/lastmile_qr_scan"}, "lat": 38.914140833333335}, {"type": "electric_scooter", "name": "85fd20b11b21e73453d8f9ba37af35f6", "fusion_lat": 0.0, "fusion_lon": 0.0, "lon": -77.04227433333334, "is_disabled": 0, "bike_id": "85fd20b11b21e73453d8f9ba37af35f6", "is_reserved": 0, "rental_uris": {"android": "https://dc.lft.to/lastmile_qr_scan", "ios": "https://dc.lft.to/lastmile_qr_scan"}, "lat": 38.903804666666666}, {"type": "electric_scooter", "name": "42c22b758048b87d70d4961bde2527d8", "fusion_lat": 0.0, "fusion_lon": 0.0, "lon": -76.9573815, "is_disabled": 0, "bike_id": "42c22b758048b87d70d4961bde2527d8", "is_reserved": 0, "rental_uris": {"android": "https://dc.lft.to/lastmile_qr_scan", "ios": "https://dc.lft.to/lastmile_qr_scan"}, "lat": 38.8838725}, {"type": "electric_scooter", "name": "a0498d9fce0a5ae1069f85993ed71d01", "fusion_lat": 0.0, "fusion_lon": 0.0, "lon": -76.98856433333333, "is_disabled": 0, "bike_id": "a0498d9fce0a5ae1069f85993ed71d01", "is_reserved": 0, "rental_uris": {"android": "https://dc.lft.to/lastmile_qr_scan", "ios": "https://dc.lft.to/lastmile_qr_scan"}, "lat": 38.900278}, {"type": "electric_scooter", "name": "e9c76667b4516acc05c47ecf6b846f79", "fusion_lat": 0.0, "fusion_lon": 0.0, "lon": -77.026721, "is_disabled": 0, "bike_id": "e9c76667b4516acc05c47ecf6b846f79", "is_reserved": 0, "rental_uris": {"android": "https://dc.lft.to/lastmile_qr_scan", "ios": "https://dc.lft.to/lastmile_qr_scan"}, "lat": 38.92184366666667}, {"type": "electric_scooter", "name": "37817568f919688f6e8359e19b99db74", "fusion_lat": 0.0, "fusion_lon": 0.0, "lon": -77.0338125, "is_disabled": 0, "bike_id": "37817568f919688f6e8359e19b99db74", "is_reserved": 0, "rental_uris": {"android": "https://dc.lft.to/lastmile_qr_scan", "ios": "https://dc.lft.to/lastmile_qr_scan"}, "lat": 38.924655666666666}, {"type": "electric_scooter", "name": "e36e19e3f07594c82b5b4ff2092f579b", "fusion_lat": 0.0, "fusion_lon": 0.0, "lon": -77.02812783333333, "is_disabled": 0, "bike_id": "e36e19e3f07594c82b5b4ff2092f579b", "is_reserved": 0, "rental_uris": {"android": "https://dc.lft.to/lastmile_qr_scan", "ios": "https://dc.lft.to/lastmile_qr_scan"}, "lat": 38.917575166666666}, {"type": "electric_scooter", "name": "9261bc619fd2ee29e15741fbd7bec66b", "fusion_lat": 0.0, "fusion_lon": 0.0, "lon": -77.02929683333333, "is_disabled": 0, "bike_id": "9261bc619fd2ee29e15741fbd7bec66b", "is_reserved": 0, "rental_uris": {"android": "https://dc.lft.to/lastmile_qr_scan", "ios": "https://dc.lft.to/lastmile_qr_scan"}, "lat": 38.907005}, {"type": "electric_scooter", "name": "bf4f9f67d7ff8c51bec09cb8230cc8e5", "fusion_lat": 0.0, "fusion_lon": 0.0, "lon": -77.03434716666666, "is_disabled": 0, "bike_id": "bf4f9f67d7ff8c51bec09cb8230cc8e5", "is_reserved": 0, "rental_uris": {"android": "https://dc.lft.to/lastmile_qr_scan", "ios": "https://dc.lft.to/lastmile_qr_scan"}, "lat": 38.909649}, {"type": "electric_scooter", "name": "8aee1163c98f0b6ac259af07f920583f", "fusion_lat": 0.0, "fusion_lon": 0.0, "lon": -77.02381266666667, "is_disabled": 0, "bike_id": "8aee1163c98f0b6ac259af07f920583f", "is_reserved": 0, "rental_uris": {"android": "https://dc.lft.to/lastmile_qr_scan", "ios": "https://dc.lft.to/lastmile_qr_scan"}, "lat": 38.89736766666667}, {"type": "electric_scooter", "name": "e911740d22706a957a50ed5cc33030a1", "fusion_lat": 0.0, "fusion_lon": 0.0, "lon": -77.04011383333334, "is_disabled": 0, "bike_id": "e911740d22706a957a50ed5cc33030a1", "is_reserved": 0, "rental_uris": {"android": "https://dc.lft.to/lastmile_qr_scan", "ios": "https://dc.lft.to/lastmile_qr_scan"}, "lat": 38.92230333333333}, {"type": "electric_scooter", "name": "4bff1d47957217be716daf673aff3a25", "fusion_lat": 0.0, "fusion_lon": 0.0, "lon": -77.02775516666667, "is_disabled": 0, "bike_id": "4bff1d47957217be716daf673aff3a25", "is_reserved": 0, "rental_uris": {"android": "https://dc.lft.to/lastmile_qr_scan", "ios": "https://dc.lft.to/lastmile_qr_scan"}, "lat": 38.9306515}, {"type": "electric_scooter", "name": "75fea07719a9bd244576b332084fab95", "fusion_lat": 0.0, "fusion_lon": 0.0, "lon": -77.020062, "is_disabled": 0, "bike_id": "75fea07719a9bd244576b332084fab95", "is_reserved": 0, "rental_uris": {"android": "https://dc.lft.to/lastmile_qr_scan", "ios": "https://dc.lft.to/lastmile_qr_scan"}, "lat": 38.91182966666667}, {"type": "electric_scooter", "name": "52bb90863fa494a7b4f1ec0ffe116f16", "fusion_lat": 0.0, "fusion_lon": 0.0, "lon": -77.05172, "is_disabled": 0, "bike_id": "52bb90863fa494a7b4f1ec0ffe116f16", "is_reserved": 0, "rental_uris": {"android": "https://dc.lft.to/lastmile_qr_scan", "ios": "https://dc.lft.to/lastmile_qr_scan"}, "lat": 38.9025505}, {"type": "electric_scooter", "name": "60282019db165c9a8d71ab18b1666ed3", "fusion_lat": 0.0, "fusion_lon": 0.0, "lon": -77.04078966666667, "is_disabled": 0, "bike_id": "60282019db165c9a8d71ab18b1666ed3", "is_reserved": 0, "rental_uris": {"android": "https://dc.lft.to/lastmile_qr_scan", "ios": "https://dc.lft.to/lastmile_qr_scan"}, "lat": 38.9202395}, {"type": "electric_scooter", "name": "32fef5701898168b2561a70c8e416307", "fusion_lat": 0.0, "fusion_lon": 0.0, "lon": -77.03903783333334, "is_disabled": 0, "bike_id": "32fef5701898168b2561a70c8e416307", "is_reserved": 0, "rental_uris": {"android": "https://dc.lft.to/lastmile_qr_scan", "ios": "https://dc.lft.to/lastmile_qr_scan"}, "lat": 38.9141805}, {"type": "electric_scooter", "name": "79a0f57caa59fa93935c74319eec87d3", "fusion_lat": 0.0, "fusion_lon": 0.0, "lon": -76.94663783333333, "is_disabled": 0, "bike_id": "79a0f57caa59fa93935c74319eec87d3", "is_reserved": 0, "rental_uris": {"android": "https://dc.lft.to/lastmile_qr_scan", "ios": "https://dc.lft.to/lastmile_qr_scan"}, "lat": 38.8986805}, {"type": "electric_scooter", "name": "fa2c110a01293157f0999366b6c23d06", "fusion_lat": 0.0, "fusion_lon": 0.0, "lon": -76.93265816666667, "is_disabled": 0, "bike_id": "fa2c110a01293157f0999366b6c23d06", "is_reserved": 0, "rental_uris": {"android": "https://dc.lft.to/lastmile_qr_scan", "ios": "https://dc.lft.to/lastmile_qr_scan"}, "lat": 38.887479666666664}, {"type": "electric_scooter", "name": "4cc90fb68ccfaa43c00d337b1ce73a51", "fusion_lat": 0.0, "fusion_lon": 0.0, "lon": -77.03859333333334, "is_disabled": 0, "bike_id": "4cc90fb68ccfaa43c00d337b1ce73a51", "is_reserved": 0, "rental_uris": {"android": "https://dc.lft.to/lastmile_qr_scan", "ios": "https://dc.lft.to/lastmile_qr_scan"}, "lat": 38.91173383333334}, {"type": "electric_scooter", "name": "32becfc883db519e42a0aa355fd22e74", "fusion_lat": 0.0, "fusion_lon": 0.0, "lon": -77.02447683333334, "is_disabled": 0, "bike_id": "32becfc883db519e42a0aa355fd22e74", "is_reserved": 0, "rental_uris": {"android": "https://dc.lft.to/lastmile_qr_scan", "ios": "https://dc.lft.to/lastmile_qr_scan"}, "lat": 38.949760833333336}, {"type": "electric_bike", "name": "cd53302e0ca0c1690651dd380426a46b", "fusion_lat": 0.0, "fusion_lon": 0.0, "lon": -77.029523, "is_disabled": 0, "bike_id": "cd53302e0ca0c1690651dd380426a46b", "is_reserved": 0, "rental_uris": {"android": "https://dc.lft.to/lastmile_qr_scan", "ios": "https://dc.lft.to/lastmile_qr_scan"}, "lat": 38.92729766666667}, {"type": "electric_scooter", "name": "380c3a187a2a3cdf2dee7c1f1a70e417", "fusion_lat": 0.0, "fusion_lon": 0.0, "lon": -77.00896316666666, "is_disabled": 0, "bike_id": "380c3a187a2a3cdf2dee7c1f1a70e417", "is_reserved": 0, "rental_uris": {"android": "https://dc.lft.to/lastmile_qr_scan", "ios": "https://dc.lft.to/lastmile_qr_scan"}, "lat": 38.8959795}, {"type": "electric_scooter", "name": "b585b8bd184a926a3f692f8d33104a5a", "fusion_lat": 0.0, "fusion_lon": 0.0, "lon": -77.03325733333334, "is_disabled": 0, "bike_id": "b585b8bd184a926a3f692f8d33104a5a", "is_reserved": 0, "rental_uris": {"android": "https://dc.lft.to/lastmile_qr_scan", "ios": "https://dc.lft.to/lastmile_qr_scan"}, "lat": 38.91558166666667}, {"type": "electric_bike", "name": "6b1f12ea03ecf9551548e1a6358ecfae", "fusion_lat": 0.0, "fusion_lon": 0.0, "lon": -76.9991265, "is_disabled": 0, "bike_id": "6b1f12ea03ecf9551548e1a6358ecfae", "is_reserved": 0, "rental_uris": {"android": "https://dc.lft.to/lastmile_qr_scan", "ios": "https://dc.lft.to/lastmile_qr_scan"}, "lat": 38.8644675}, {"type": "electric_scooter", "name": "b101367b65e84691fc4e98c9005b9acf", "fusion_lat": 0.0, "fusion_lon": 0.0, "lon": -76.93390766666667, "is_disabled": 0, "bike_id": "b101367b65e84691fc4e98c9005b9acf", "is_reserved": 0, "rental_uris": {"android": "https://dc.lft.to/lastmile_qr_scan", "ios": "https://dc.lft.to/lastmile_qr_scan"}, "lat": 38.8991045}, {"type": "electric_scooter", "name": "c340c0693c2e3a6273f2e249abed9fc6", "fusion_lat": 0.0, "fusion_lon": 0.0, "lon": -77.03175716666667, "is_disabled": 0, "bike_id": "c340c0693c2e3a6273f2e249abed9fc6", "is_reserved": 0, "rental_uris": {"android": "https://dc.lft.to/lastmile_qr_scan", "ios": "https://dc.lft.to/lastmile_qr_scan"}, "lat": 38.928718833333335}, {"type": "electric_scooter", "name": "9c03b8024c08a98939950edd0c5f52c0", "fusion_lat": 0.0, "fusion_lon": 0.0, "lon": -77.02027483333333, "is_disabled": 0, "bike_id": "9c03b8024c08a98939950edd0c5f52c0", "is_reserved": 0, "rental_uris": {"android": "https://dc.lft.to/lastmile_qr_scan", "ios": "https://dc.lft.to/lastmile_qr_scan"}, "lat": 38.934113833333335}, {"type": "electric_scooter", "name": "e71363f764201a34e8ee82751db0225c", "fusion_lat": 0.0, "fusion_lon": 0.0, "lon": -77.0348155, "is_disabled": 0, "bike_id": "e71363f764201a34e8ee82751db0225c", "is_reserved": 0, "rental_uris": {"android": "https://dc.lft.to/lastmile_qr_scan", "ios": "https://dc.lft.to/lastmile_qr_scan"}, "lat": 38.923464333333335}, {"type": "electric_bike", "name": "9e276d7b4ab6df1695e558745b296aff", "fusion_lat": 0.0, "fusion_lon": 0.0, "lon": -77.00415433333333, "is_disabled": 0, "bike_id": "9e276d7b4ab6df1695e558745b296aff", "is_reserved": 0, "rental_uris": {"android": "https://dc.lft.to/lastmile_qr_scan", "ios": "https://dc.lft.to/lastmile_qr_scan"}, "lat": 38.98527816666667}, {"type": "electric_scooter", "name": "c497d30a48ec355688a1c2262354e244", "fusion_lat": 0.0, "fusion_lon": 0.0, "lon": -77.03446166666667, "is_disabled": 0, "bike_id": "c497d30a48ec355688a1c2262354e244", "is_reserved": 0, "rental_uris": {"android": "https://dc.lft.to/lastmile_qr_scan", "ios": "https://dc.lft.to/lastmile_qr_scan"}, "lat": 38.907151999999996}, {"type": "electric_scooter", "name": "0981909a55c18f2eeb762e220080e9a7", "fusion_lat": 0.0, "fusion_lon": 0.0, "lon": -77.00386533333334, "is_disabled": 0, "bike_id": "0981909a55c18f2eeb762e220080e9a7", "is_reserved": 0, "rental_uris": {"android": "https://dc.lft.to/lastmile_qr_scan", "ios": "https://dc.lft.to/lastmile_qr_scan"}, "lat": 38.879301}, {"type": "electric_scooter", "name": "bf1dd9dd9aab7b7092492c24176e0e82", "fusion_lat": 0.0, "fusion_lon": 0.0, "lon": -77.03265733333333, "is_disabled": 0, "bike_id": "bf1dd9dd9aab7b7092492c24176e0e82", "is_reserved": 0, "rental_uris": {"android": "https://dc.lft.to/lastmile_qr_scan", "ios": "https://dc.lft.to/lastmile_qr_scan"}, "lat": 38.93305016666667}, {"type": "electric_scooter", "name": "4f7903b3986f884603e3fcd05ab8f873", "fusion_lat": 0.0, "fusion_lon": 0.0, "lon": -77.01468166666666, "is_disabled": 0, "bike_id": "4f7903b3986f884603e3fcd05ab8f873", "is_reserved": 0, "rental_uris": {"android": "https://dc.lft.to/lastmile_qr_scan", "ios": "https://dc.lft.to/lastmile_qr_scan"}, "lat": 38.91765083333333}, {"type": "electric_scooter", "name": "a2d5d46397e6abf8fcf0880413d8cde2", "fusion_lat": 0.0, "fusion_lon": 0.0, "lon": -77.04555933333333, "is_disabled": 0, "bike_id": "a2d5d46397e6abf8fcf0880413d8cde2", "is_reserved": 0, "rental_uris": {"android": "https://dc.lft.to/lastmile_qr_scan", "ios": "https://dc.lft.to/lastmile_qr_scan"}, "lat": 38.918378833333335}, {"type": "electric_scooter", "name": "b0b3521933bf3c29e459bf6d13225d94", "fusion_lat": 0.0, "fusion_lon": 0.0, "lon": -77.03262716666667, "is_disabled": 0, "bike_id": "b0b3521933bf3c29e459bf6d13225d94", "is_reserved": 0, "rental_uris": {"android": "https://dc.lft.to/lastmile_qr_scan", "ios": "https://dc.lft.to/lastmile_qr_scan"}, "lat": 38.937355333333336}, {"type": "electric_scooter", "name": "13835fdcd7c82f003a7c61ba4f49d2ef", "fusion_lat": 0.0, "fusion_lon": 0.0, "lon": -77.05317016666666, "is_disabled": 0, "bike_id": "13835fdcd7c82f003a7c61ba4f49d2ef", "is_reserved": 0, "rental_uris": {"android": "https://dc.lft.to/lastmile_qr_scan", "ios": "https://dc.lft.to/lastmile_qr_scan"}, "lat": 38.9023705}, {"type": "electric_scooter", "name": "ec7f7a516443d40b228da6e8536d8b29", "fusion_lat": 0.0, "fusion_lon": 0.0, "lon": -77.02950733333333, "is_disabled": 0, "bike_id": "ec7f7a516443d40b228da6e8536d8b29", "is_reserved": 0, "rental_uris": {"android": "https://dc.lft.to/lastmile_qr_scan", "ios": "https://dc.lft.to/lastmile_qr_scan"}, "lat": 38.9169035}, {"type": "electric_scooter", "name": "1498dfe2068956fb95d1d6fdbc7a6f0c", "fusion_lat": 0.0, "fusion_lon": 0.0, "lon": -77.059713, "is_disabled": 0, "bike_id": "1498dfe2068956fb95d1d6fdbc7a6f0c", "is_reserved": 0, "rental_uris": {"android": "https://dc.lft.to/lastmile_qr_scan", "ios": "https://dc.lft.to/lastmile_qr_scan"}, "lat": 38.92826516666667}, {"type": "electric_scooter", "name": "3e3e2166c834a0c7382c9095ba623551", "fusion_lat": 0.0, "fusion_lon": 0.0, "lon": -77.07343016666667, "is_disabled": 0, "bike_id": "3e3e2166c834a0c7382c9095ba623551", "is_reserved": 0, "rental_uris": {"android": "https://dc.lft.to/lastmile_qr_scan", "ios": "https://dc.lft.to/lastmile_qr_scan"}, "lat": 38.943255666666666}, {"type": "electric_scooter", "name": "611b44b9914fbb9e425594ca0e1aecf8", "fusion_lat": 0.0, "fusion_lon": 0.0, "lon": -77.0218215, "is_disabled": 0, "bike_id": "611b44b9914fbb9e425594ca0e1aecf8", "is_reserved": 0, "rental_uris": {"android": "https://dc.lft.to/lastmile_qr_scan", "ios": "https://dc.lft.to/lastmile_qr_scan"}, "lat": 38.914871}, {"type": "electric_scooter", "name": "f29175ef9047d00ef5f8771430fb9cb7", "fusion_lat": 0.0, "fusion_lon": 0.0, "lon": -77.03848183333334, "is_disabled": 0, "bike_id": "f29175ef9047d00ef5f8771430fb9cb7", "is_reserved": 0, "rental_uris": {"android": "https://dc.lft.to/lastmile_qr_scan", "ios": "https://dc.lft.to/lastmile_qr_scan"}, "lat": 38.915423833333335}, {"type": "electric_scooter", "name": "875be08350bb526a7a7e3f7e2742cf59", "fusion_lat": 0.0, "fusion_lon": 0.0, "lon": -77.06650833333333, "is_disabled": 0, "bike_id": "875be08350bb526a7a7e3f7e2742cf59", "is_reserved": 0, "rental_uris": {"android": "https://dc.lft.to/lastmile_qr_scan", "ios": "https://dc.lft.to/lastmile_qr_scan"}, "lat": 38.950682}, {"type": "electric_scooter", "name": "522bb0528389b8755ae2573ac13e3e4d", "fusion_lat": 0.0, "fusion_lon": 0.0, "lon": -77.0450795, "is_disabled": 0, "bike_id": "522bb0528389b8755ae2573ac13e3e4d", "is_reserved": 0, "rental_uris": {"android": "https://dc.lft.to/lastmile_qr_scan", "ios": "https://dc.lft.to/lastmile_qr_scan"}, "lat": 38.91273783333333}, {"type": "electric_scooter", "name": "431ef260d6f2590aabaf1d6d118b6c8a", "fusion_lat": 0.0, "fusion_lon": 0.0, "lon": -77.03619266666666, "is_disabled": 0, "bike_id": "431ef260d6f2590aabaf1d6d118b6c8a", "is_reserved": 0, "rental_uris": {"android": "https://dc.lft.to/lastmile_qr_scan", "ios": "https://dc.lft.to/lastmile_qr_scan"}, "lat": 38.934748166666665}, {"type": "electric_scooter", "name": "8e1fb3d5aede13a5dabb4ae782095da0", "fusion_lat": 0.0, "fusion_lon": 0.0, "lon": -77.02175866666667, "is_disabled": 0, "bike_id": "8e1fb3d5aede13a5dabb4ae782095da0", "is_reserved": 0, "rental_uris": {"android": "https://dc.lft.to/lastmile_qr_scan", "ios": "https://dc.lft.to/lastmile_qr_scan"}, "lat": 38.91113}, {"type": "electric_bike", "name": "7263c539f11defbb09627bff3b62bea1", "fusion_lat": 0.0, "fusion_lon": 0.0, "lon": -77.234092, "is_disabled": 0, "bike_id": "7263c539f11defbb09627bff3b62bea1", "is_reserved": 0, "rental_uris": {"android": "https://dc.lft.to/lastmile_qr_scan", "ios": "https://dc.lft.to/lastmile_qr_scan"}, "lat": 38.87575233333333}, {"type": "electric_scooter", "name": "0571058fbd4e11f68c0a33affce52a70", "fusion_lat": 0.0, "fusion_lon": 0.0, "lon": -77.03264283333333, "is_disabled": 0, "bike_id": "0571058fbd4e11f68c0a33affce52a70", "is_reserved": 0, "rental_uris": {"android": "https://dc.lft.to/lastmile_qr_scan", "ios": "https://dc.lft.to/lastmile_qr_scan"}, "lat": 38.933072833333334}, {"type": "electric_scooter", "name": "8e0b3c91261486fdb5da6d43d2ec9912", "fusion_lat": 0.0, "fusion_lon": 0.0, "lon": -77.01080383333333, "is_disabled": 0, "bike_id": "8e0b3c91261486fdb5da6d43d2ec9912", "is_reserved": 0, "rental_uris": {"android": "https://dc.lft.to/lastmile_qr_scan", "ios": "https://dc.lft.to/lastmile_qr_scan"}, "lat": 38.89541966666667}, {"type": "electric_bike", "name": "eeefb53d358fde98b8d7c308506268d6", "fusion_lat": 0.0, "fusion_lon": 0.0, "lon": -77.02069633333333, "is_disabled": 0, "bike_id": "eeefb53d358fde98b8d7c308506268d6", "is_reserved": 0, "rental_uris": {"android": "https://dc.lft.to/lastmile_qr_scan", "ios": "https://dc.lft.to/lastmile_qr_scan"}, "lat": 38.96440033333333}, {"type": "electric_scooter", "name": "289362d839a61c698fe5cab703d0234e", "fusion_lat": 0.0, "fusion_lon": 0.0, "lon": -77.03662916666667, "is_disabled": 0, "bike_id": "289362d839a61c698fe5cab703d0234e", "is_reserved": 0, "rental_uris": {"android": "https://dc.lft.to/lastmile_qr_scan", "ios": "https://dc.lft.to/lastmile_qr_scan"}, "lat": 38.922878833333336}, {"type": "electric_scooter", "name": "143c908f3905eb94ec6b74f2d42883d4", "fusion_lat": 0.0, "fusion_lon": 0.0, "lon": -77.06273016666667, "is_disabled": 0, "bike_id": "143c908f3905eb94ec6b74f2d42883d4", "is_reserved": 0, "rental_uris": {"android": "https://dc.lft.to/lastmile_qr_scan", "ios": "https://dc.lft.to/lastmile_qr_scan"}, "lat": 38.9030665}, {"type": "electric_scooter", "name": "a84ea7a2dcb2a2a11eb509fcb3224e22", "fusion_lat": 0.0, "fusion_lon": 0.0, "lon": -76.9902905, "is_disabled": 0, "bike_id": "a84ea7a2dcb2a2a11eb509fcb3224e22", "is_reserved": 0, "rental_uris": {"android": "https://dc.lft.to/lastmile_qr_scan", "ios": "https://dc.lft.to/lastmile_qr_scan"}, "lat": 38.888801}, {"type": "electric_scooter", "name": "4dd506988df1b6654174bd581e729290", "fusion_lat": 0.0, "fusion_lon": 0.0, "lon": -77.03560933333333, "is_disabled": 0, "bike_id": "4dd506988df1b6654174bd581e729290", "is_reserved": 0, "rental_uris": {"android": "https://dc.lft.to/lastmile_qr_scan", "ios": "https://dc.lft.to/lastmile_qr_scan"}, "lat": 38.92475816666666}, {"type": "electric_scooter", "name": "da3b304e52664aae5b3cded06e46b622", "fusion_lat": 0.0, "fusion_lon": 0.0, "lon": -76.94185716666667, "is_disabled": 0, "bike_id": "da3b304e52664aae5b3cded06e46b622", "is_reserved": 0, "rental_uris": {"android": "https://dc.lft.to/lastmile_qr_scan", "ios": "https://dc.lft.to/lastmile_qr_scan"}, "lat": 38.8975915}, {"type": "electric_scooter", "name": "1e4530825e4c4636ff35a4e5567f6f7f", "fusion_lat": 0.0, "fusion_lon": 0.0, "lon": -77.01435116666667, "is_disabled": 0, "bike_id": "1e4530825e4c4636ff35a4e5567f6f7f", "is_reserved": 0, "rental_uris": {"android": "https://dc.lft.to/lastmile_qr_scan", "ios": "https://dc.lft.to/lastmile_qr_scan"}, "lat": 38.9131355}, {"type": "electric_scooter", "name": "ed3c36c8845882f10baab2df85009523", "fusion_lat": 0.0, "fusion_lon": 0.0, "lon": -77.03387233333333, "is_disabled": 0, "bike_id": "ed3c36c8845882f10baab2df85009523", "is_reserved": 0, "rental_uris": {"android": "https://dc.lft.to/lastmile_qr_scan", "ios": "https://dc.lft.to/lastmile_qr_scan"}, "lat": 38.90135866666667}, {"type": "electric_scooter", "name": "ff81267a0444c701b0617b1529e5c212", "fusion_lat": 0.0, "fusion_lon": 0.0, "lon": -76.9974465, "is_disabled": 0, "bike_id": "ff81267a0444c701b0617b1529e5c212", "is_reserved": 0, "rental_uris": {"android": "https://dc.lft.to/lastmile_qr_scan", "ios": "https://dc.lft.to/lastmile_qr_scan"}, "lat": 38.900236}, {"type": "electric_scooter", "name": "78c021f9d3214ea850b16e8f8c034247", "fusion_lat": 0.0, "fusion_lon": 0.0, "lon": -77.02695316666667, "is_disabled": 0, "bike_id": "78c021f9d3214ea850b16e8f8c034247", "is_reserved": 0, "rental_uris": {"android": "https://dc.lft.to/lastmile_qr_scan", "ios": "https://dc.lft.to/lastmile_qr_scan"}, "lat": 38.9127175}, {"type": "electric_bike", "name": "530409b1c0789a9d153df71c1b30b257", "fusion_lat": 0.0, "fusion_lon": 0.0, "lon": -77.07662116666667, "is_disabled": 0, "bike_id": "530409b1c0789a9d153df71c1b30b257", "is_reserved": 0, "rental_uris": {"android": "https://dc.lft.to/lastmile_qr_scan", "ios": "https://dc.lft.to/lastmile_qr_scan"}, "lat": 38.80978616666667}, {"type": "electric_scooter", "name": "c211f51c357c0fd3b41de3ce23e8d4b4", "fusion_lat": 0.0, "fusion_lon": 0.0, "lon": -77.02694316666667, "is_disabled": 0, "bike_id": "c211f51c357c0fd3b41de3ce23e8d4b4", "is_reserved": 0, "rental_uris": {"android": "https://dc.lft.to/lastmile_qr_scan", "ios": "https://dc.lft.to/lastmile_qr_scan"}, "lat": 38.912695166666666}, {"type": "electric_scooter", "name": "59426e6a09b8347c3b1df91b50564f9a", "fusion_lat": 0.0, "fusion_lon": 0.0, "lon": -77.02800783333333, "is_disabled": 0, "bike_id": "59426e6a09b8347c3b1df91b50564f9a", "is_reserved": 0, "rental_uris": {"android": "https://dc.lft.to/lastmile_qr_scan", "ios": "https://dc.lft.to/lastmile_qr_scan"}, "lat": 38.931839333333336}, {"type": "electric_scooter", "name": "4dd3bda26ab2d3f697240339520cda18", "fusion_lat": 0.0, "fusion_lon": 0.0, "lon": -77.02299733333334, "is_disabled": 0, "bike_id": "4dd3bda26ab2d3f697240339520cda18", "is_reserved": 0, "rental_uris": {"android": "https://dc.lft.to/lastmile_qr_scan", "ios": "https://dc.lft.to/lastmile_qr_scan"}, "lat": 38.928225166666664}, {"type": "electric_scooter", "name": "43a9c553056b963dda21b2fca84fcc28", "fusion_lat": 0.0, "fusion_lon": 0.0, "lon": -77.01726866666667, "is_disabled": 0, "bike_id": "43a9c553056b963dda21b2fca84fcc28", "is_reserved": 0, "rental_uris": {"android": "https://dc.lft.to/lastmile_qr_scan", "ios": "https://dc.lft.to/lastmile_qr_scan"}, "lat": 38.905607333333336}, {"type": "electric_scooter", "name": "6fac8b86786921c046676133ebfdbcbb", "fusion_lat": 0.0, "fusion_lon": 0.0, "lon": -77.03442383333334, "is_disabled": 0, "bike_id": "6fac8b86786921c046676133ebfdbcbb", "is_reserved": 0, "rental_uris": {"android": "https://dc.lft.to/lastmile_qr_scan", "ios": "https://dc.lft.to/lastmile_qr_scan"}, "lat": 38.91803133333333}, {"type": "electric_scooter", "name": "2bb6ed9887baf34112d2f07b414aed01", "fusion_lat": 0.0, "fusion_lon": 0.0, "lon": -76.9732895, "is_disabled": 0, "bike_id": "2bb6ed9887baf34112d2f07b414aed01", "is_reserved": 0, "rental_uris": {"android": "https://dc.lft.to/lastmile_qr_scan", "ios": "https://dc.lft.to/lastmile_qr_scan"}, "lat": 38.90410883333333}, {"type": "electric_scooter", "name": "480348a78baee53f89b304b018cf80e7", "fusion_lat": 0.0, "fusion_lon": 0.0, "lon": -77.02995416666667, "is_disabled": 0, "bike_id": "480348a78baee53f89b304b018cf80e7", "is_reserved": 0, "rental_uris": {"android": "https://dc.lft.to/lastmile_qr_scan", "ios": "https://dc.lft.to/lastmile_qr_scan"}, "lat": 38.9169755}, {"type": "electric_scooter", "name": "04a3b3a6e2b44f0253485769c0a2e183", "fusion_lat": 0.0, "fusion_lon": 0.0, "lon": -77.06049783333333, "is_disabled": 0, "bike_id": "04a3b3a6e2b44f0253485769c0a2e183", "is_reserved": 0, "rental_uris": {"android": "https://dc.lft.to/lastmile_qr_scan", "ios": "https://dc.lft.to/lastmile_qr_scan"}, "lat": 38.93907083333333}, {"type": "electric_scooter", "name": "c98a66bfe9cfe3b2b8d5b5a8df4030a8", "fusion_lat": 0.0, "fusion_lon": 0.0, "lon": -77.04821066666666, "is_disabled": 0, "bike_id": "c98a66bfe9cfe3b2b8d5b5a8df4030a8", "is_reserved": 0, "rental_uris": {"android": "https://dc.lft.to/lastmile_qr_scan", "ios": "https://dc.lft.to/lastmile_qr_scan"}, "lat": 38.9148545}, {"type": "electric_bike", "name": "de2493b91b58096a83316592e86ecd3c", "fusion_lat": 0.0, "fusion_lon": 0.0, "lon": -77.0695405, "is_disabled": 0, "bike_id": "de2493b91b58096a83316592e86ecd3c", "is_reserved": 0, "rental_uris": {"android": "https://dc.lft.to/lastmile_qr_scan", "ios": "https://dc.lft.to/lastmile_qr_scan"}, "lat": 38.83633866666667}, {"type": "electric_scooter", "name": "db01c6cb5ac045ac8fd94e71f5b1d23a", "fusion_lat": 0.0, "fusion_lon": 0.0, "lon": -77.041469, "is_disabled": 0, "bike_id": "db01c6cb5ac045ac8fd94e71f5b1d23a", "is_reserved": 0, "rental_uris": {"android": "https://dc.lft.to/lastmile_qr_scan", "ios": "https://dc.lft.to/lastmile_qr_scan"}, "lat": 38.91914833333333}, {"type": "electric_scooter", "name": "f42ef99257037feb0033e39fe49755d7", "fusion_lat": 0.0, "fusion_lon": 0.0, "lon": -77.023173, "is_disabled": 0, "bike_id": "f42ef99257037feb0033e39fe49755d7", "is_reserved": 0, "rental_uris": {"android": "https://dc.lft.to/lastmile_qr_scan", "ios": "https://dc.lft.to/lastmile_qr_scan"}, "lat": 38.91836833333333}, {"type": "electric_scooter", "name": "aad1de3ada9eeb9c9d720f6c0474679b", "fusion_lat": 0.0, "fusion_lon": 0.0, "lon": -77.039793, "is_disabled": 0, "bike_id": "aad1de3ada9eeb9c9d720f6c0474679b", "is_reserved": 0, "rental_uris": {"android": "https://dc.lft.to/lastmile_qr_scan", "ios": "https://dc.lft.to/lastmile_qr_scan"}, "lat": 38.93144866666667}, {"type": "electric_scooter", "name": "04b5d0b8404832e6687706f3bfa0f752", "fusion_lat": 0.0, "fusion_lon": 0.0, "lon": -77.06188316666666, "is_disabled": 0, "bike_id": "04b5d0b8404832e6687706f3bfa0f752", "is_reserved": 0, "rental_uris": {"android": "https://dc.lft.to/lastmile_qr_scan", "ios": "https://dc.lft.to/lastmile_qr_scan"}, "lat": 38.9104325}, {"type": "electric_scooter", "name": "a7ed6cefff0db2b94bf79eced0fabd03", "fusion_lat": 0.0, "fusion_lon": 0.0, "lon": -77.0115715, "is_disabled": 0, "bike_id": "a7ed6cefff0db2b94bf79eced0fabd03", "is_reserved": 0, "rental_uris": {"android": "https://dc.lft.to/lastmile_qr_scan", "ios": "https://dc.lft.to/lastmile_qr_scan"}, "lat": 38.909588}, {"type": "electric_scooter", "name": "0bf889ad70b3ad198791262b212ad5cd", "fusion_lat": 0.0, "fusion_lon": 0.0, "lon": -77.03848033333334, "is_disabled": 0, "bike_id": "0bf889ad70b3ad198791262b212ad5cd", "is_reserved": 0, "rental_uris": {"android": "https://dc.lft.to/lastmile_qr_scan", "ios": "https://dc.lft.to/lastmile_qr_scan"}, "lat": 38.91538633333333}, {"type": "electric_scooter", "name": "84f8cb2d1bf1c6650917c2378c97a0ed", "fusion_lat": 0.0, "fusion_lon": 0.0, "lon": -77.01996033333333, "is_disabled": 0, "bike_id": "84f8cb2d1bf1c6650917c2378c97a0ed", "is_reserved": 0, "rental_uris": {"android": "https://dc.lft.to/lastmile_qr_scan", "ios": "https://dc.lft.to/lastmile_qr_scan"}, "lat": 38.96628316666666}, {"type": "electric_scooter", "name": "1d72a8aea8e486f70eced667845ab594", "fusion_lat": 0.0, "fusion_lon": 0.0, "lon": -77.04329866666667, "is_disabled": 0, "bike_id": "1d72a8aea8e486f70eced667845ab594", "is_reserved": 0, "rental_uris": {"android": "https://dc.lft.to/lastmile_qr_scan", "ios": "https://dc.lft.to/lastmile_qr_scan"}, "lat": 38.906425666666664}, {"type": "electric_bike", "name": "a48ddcf5753f0f8efab18761af094ce3", "fusion_lat": 0.0, "fusion_lon": 0.0, "lon": -76.96152, "is_disabled": 0, "bike_id": "a48ddcf5753f0f8efab18761af094ce3", "is_reserved": 0, "rental_uris": {"android": "https://dc.lft.to/lastmile_qr_scan", "ios": "https://dc.lft.to/lastmile_qr_scan"}, "lat": 38.856186666666666}, {"type": "electric_scooter", "name": "71f43f38dedfdd28aa96bfb7d61366f2", "fusion_lat": 0.0, "fusion_lon": 0.0, "lon": -77.03850466666667, "is_disabled": 0, "bike_id": "71f43f38dedfdd28aa96bfb7d61366f2", "is_reserved": 0, "rental_uris": {"android": "https://dc.lft.to/lastmile_qr_scan", "ios": "https://dc.lft.to/lastmile_qr_scan"}, "lat": 38.91662183333333}, {"type": "electric_scooter", "name": "a9ecf441aa0a266aabc2f439fc9298cd", "fusion_lat": 0.0, "fusion_lon": 0.0, "lon": -77.04563116666667, "is_disabled": 0, "bike_id": "a9ecf441aa0a266aabc2f439fc9298cd", "is_reserved": 0, "rental_uris": {"android": "https://dc.lft.to/lastmile_qr_scan", "ios": "https://dc.lft.to/lastmile_qr_scan"}, "lat": 38.903796}, {"type": "electric_scooter", "name": "5d7a9b471c38446e74e2b12a7aa7a0db", "fusion_lat": 0.0, "fusion_lon": 0.0, "lon": -77.0281275, "is_disabled": 0, "bike_id": "5d7a9b471c38446e74e2b12a7aa7a0db", "is_reserved": 0, "rental_uris": {"android": "https://dc.lft.to/lastmile_qr_scan", "ios": "https://dc.lft.to/lastmile_qr_scan"}, "lat": 38.9091875}, {"type": "electric_scooter", "name": "d184e808a72f037895e64019ffab45ce", "fusion_lat": 0.0, "fusion_lon": 0.0, "lon": -77.0397585, "is_disabled": 0, "bike_id": "d184e808a72f037895e64019ffab45ce", "is_reserved": 0, "rental_uris": {"android": "https://dc.lft.to/lastmile_qr_scan", "ios": "https://dc.lft.to/lastmile_qr_scan"}, "lat": 38.89524183333333}, {"type": "electric_scooter", "name": "ec4866bd2e55479233f426de48f930f7", "fusion_lat": 0.0, "fusion_lon": 0.0, "lon": -77.0289945, "is_disabled": 0, "bike_id": "ec4866bd2e55479233f426de48f930f7", "is_reserved": 0, "rental_uris": {"android": "https://dc.lft.to/lastmile_qr_scan", "ios": "https://dc.lft.to/lastmile_qr_scan"}, "lat": 38.8973305}, {"type": "electric_scooter", "name": "c8b7a30cb4e066808e90d22a20cf7c78", "fusion_lat": 0.0, "fusion_lon": 0.0, "lon": -77.00727433333333, "is_disabled": 0, "bike_id": "c8b7a30cb4e066808e90d22a20cf7c78", "is_reserved": 0, "rental_uris": {"android": "https://dc.lft.to/lastmile_qr_scan", "ios": "https://dc.lft.to/lastmile_qr_scan"}, "lat": 38.876659}, {"type": "electric_scooter", "name": "629421ef5c4c80b9485cffa728b5ff35", "fusion_lat": 0.0, "fusion_lon": 0.0, "lon": -76.997554, "is_disabled": 0, "bike_id": "629421ef5c4c80b9485cffa728b5ff35", "is_reserved": 0, "rental_uris": {"android": "https://dc.lft.to/lastmile_qr_scan", "ios": "https://dc.lft.to/lastmile_qr_scan"}, "lat": 38.88504533333333}, {"type": "electric_scooter", "name": "859079d0d9dafc449a3af47c293ba8a4", "fusion_lat": 0.0, "fusion_lon": 0.0, "lon": -77.0425575, "is_disabled": 0, "bike_id": "859079d0d9dafc449a3af47c293ba8a4", "is_reserved": 0, "rental_uris": {"android": "https://dc.lft.to/lastmile_qr_scan", "ios": "https://dc.lft.to/lastmile_qr_scan"}, "lat": 38.90357183333333}, {"type": "electric_scooter", "name": "4734b214b2a01626a042b5cf3ffd0923", "fusion_lat": 0.0, "fusion_lon": 0.0, "lon": -77.02554033333334, "is_disabled": 0, "bike_id": "4734b214b2a01626a042b5cf3ffd0923", "is_reserved": 0, "rental_uris": {"android": "https://dc.lft.to/lastmile_qr_scan", "ios": "https://dc.lft.to/lastmile_qr_scan"}, "lat": 38.97002233333333}, {"type": "electric_scooter", "name": "10644cbaf146761228cd9ce94a025d40", "fusion_lat": 0.0, "fusion_lon": 0.0, "lon": -77.04346133333334, "is_disabled": 0, "bike_id": "10644cbaf146761228cd9ce94a025d40", "is_reserved": 0, "rental_uris": {"android": "https://dc.lft.to/lastmile_qr_scan", "ios": "https://dc.lft.to/lastmile_qr_scan"}, "lat": 38.907189833333334}, {"type": "electric_scooter", "name": "5d45c632df83474564639871f189cf75", "fusion_lat": 0.0, "fusion_lon": 0.0, "lon": -76.98535416666667, "is_disabled": 0, "bike_id": "5d45c632df83474564639871f189cf75", "is_reserved": 0, "rental_uris": {"android": "https://dc.lft.to/lastmile_qr_scan", "ios": "https://dc.lft.to/lastmile_qr_scan"}, "lat": 38.85852533333333}, {"type": "electric_scooter", "name": "bbe30b70fe85c66447afdf83c46269fb", "fusion_lat": 0.0, "fusion_lon": 0.0, "lon": -77.0365205, "is_disabled": 0, "bike_id": "bbe30b70fe85c66447afdf83c46269fb", "is_reserved": 0, "rental_uris": {"android": "https://dc.lft.to/lastmile_qr_scan", "ios": "https://dc.lft.to/lastmile_qr_scan"}, "lat": 38.92385133333333}, {"type": "electric_scooter", "name": "0199daba300d917348597199b22b76a8", "fusion_lat": 0.0, "fusion_lon": 0.0, "lon": -77.0451815, "is_disabled": 0, "bike_id": "0199daba300d917348597199b22b76a8", "is_reserved": 0, "rental_uris": {"android": "https://dc.lft.to/lastmile_qr_scan", "ios": "https://dc.lft.to/lastmile_qr_scan"}, "lat": 38.911205333333335}, {"type": "electric_scooter", "name": "062db2ae3c06811ecd2b6515699d2eac", "fusion_lat": 0.0, "fusion_lon": 0.0, "lon": -77.00221783333333, "is_disabled": 0, "bike_id": "062db2ae3c06811ecd2b6515699d2eac", "is_reserved": 0, "rental_uris": {"android": "https://dc.lft.to/lastmile_qr_scan", "ios": "https://dc.lft.to/lastmile_qr_scan"}, "lat": 38.894540166666665}, {"type": "electric_scooter", "name": "835b5e0ce90ac8b504f92982665ac40d", "fusion_lat": 0.0, "fusion_lon": 0.0, "lon": -76.995084, "is_disabled": 0, "bike_id": "835b5e0ce90ac8b504f92982665ac40d", "is_reserved": 0, "rental_uris": {"android": "https://dc.lft.to/lastmile_qr_scan", "ios": "https://dc.lft.to/lastmile_qr_scan"}, "lat": 38.88241566666667}, {"type": "electric_bike", "name": "9bf70a2b597f1c8ab1790380d0ee4fd8", "fusion_lat": 0.0, "fusion_lon": 0.0, "lon": -77.1484875, "is_disabled": 0, "bike_id": "9bf70a2b597f1c8ab1790380d0ee4fd8", "is_reserved": 0, "rental_uris": {"android": "https://dc.lft.to/lastmile_qr_scan", "ios": "https://dc.lft.to/lastmile_qr_scan"}, "lat": 38.877603}, {"type": "electric_scooter", "name": "4296107e2393e8c75a993bbd48316607", "fusion_lat": 0.0, "fusion_lon": 0.0, "lon": -77.00401216666667, "is_disabled": 0, "bike_id": "4296107e2393e8c75a993bbd48316607", "is_reserved": 0, "rental_uris": {"android": "https://dc.lft.to/lastmile_qr_scan", "ios": "https://dc.lft.to/lastmile_qr_scan"}, "lat": 38.87749183333333}, {"type": "electric_scooter", "name": "109fb7683695ff3417f418421180ca0b", "fusion_lat": 0.0, "fusion_lon": 0.0, "lon": -77.049603, "is_disabled": 0, "bike_id": "109fb7683695ff3417f418421180ca0b", "is_reserved": 0, "rental_uris": {"android": "https://dc.lft.to/lastmile_qr_scan", "ios": "https://dc.lft.to/lastmile_qr_scan"}, "lat": 38.91580183333333}, {"type": "electric_scooter", "name": "6714c439696056c1f5e9a03f2cfa9b8d", "fusion_lat": 0.0, "fusion_lon": 0.0, "lon": -77.03830583333334, "is_disabled": 0, "bike_id": "6714c439696056c1f5e9a03f2cfa9b8d", "is_reserved": 0, "rental_uris": {"android": "https://dc.lft.to/lastmile_qr_scan", "ios": "https://dc.lft.to/lastmile_qr_scan"}, "lat": 38.91711983333333}, {"type": "electric_scooter", "name": "2df5a73f038d8611e8cac3bebc6050c3", "fusion_lat": 0.0, "fusion_lon": 0.0, "lon": -77.04467016666666, "is_disabled": 0, "bike_id": "2df5a73f038d8611e8cac3bebc6050c3", "is_reserved": 0, "rental_uris": {"android": "https://dc.lft.to/lastmile_qr_scan", "ios": "https://dc.lft.to/lastmile_qr_scan"}, "lat": 38.9158195}, {"type": "electric_bike", "name": "4fdeb3d6c43d7650edd306e1e927924d", "fusion_lat": 0.0, "fusion_lon": 0.0, "lon": -77.10074566666667, "is_disabled": 0, "bike_id": "4fdeb3d6c43d7650edd306e1e927924d", "is_reserved": 0, "rental_uris": {"android": "https://dc.lft.to/lastmile_qr_scan", "ios": "https://dc.lft.to/lastmile_qr_scan"}, "lat": 38.85736}, {"type": "electric_scooter", "name": "f368b46e3e7bedc900225ca2588bbe3d", "fusion_lat": 0.0, "fusion_lon": 0.0, "lon": -77.031815, "is_disabled": 0, "bike_id": "f368b46e3e7bedc900225ca2588bbe3d", "is_reserved": 0, "rental_uris": {"android": "https://dc.lft.to/lastmile_qr_scan", "ios": "https://dc.lft.to/lastmile_qr_scan"}, "lat": 38.92910583333333}, {"type": "electric_scooter", "name": "6cdf6e21df7f0dd8d465a344b13e26e8", "fusion_lat": 0.0, "fusion_lon": 0.0, "lon": -77.02657933333333, "is_disabled": 0, "bike_id": "6cdf6e21df7f0dd8d465a344b13e26e8", "is_reserved": 0, "rental_uris": {"android": "https://dc.lft.to/lastmile_qr_scan", "ios": "https://dc.lft.to/lastmile_qr_scan"}, "lat": 38.90234916666667}, {"type": "electric_scooter", "name": "46831073265f417db15e22710863b04a", "fusion_lat": 0.0, "fusion_lon": 0.0, "lon": -77.02972083333333, "is_disabled": 0, "bike_id": "46831073265f417db15e22710863b04a", "is_reserved": 0, "rental_uris": {"android": "https://dc.lft.to/lastmile_qr_scan", "ios": "https://dc.lft.to/lastmile_qr_scan"}, "lat": 38.9053945}, {"type": "electric_scooter", "name": "0869746c6fe07d16397de37c5cf7584c", "fusion_lat": 0.0, "fusion_lon": 0.0, "lon": -77.042274, "is_disabled": 0, "bike_id": "0869746c6fe07d16397de37c5cf7584c", "is_reserved": 0, "rental_uris": {"android": "https://dc.lft.to/lastmile_qr_scan", "ios": "https://dc.lft.to/lastmile_qr_scan"}, "lat": 38.92172983333333}, {"type": "electric_scooter", "name": "1a188232d23c2c484562ed09d6239ffd", "fusion_lat": 0.0, "fusion_lon": 0.0, "lon": -77.0187605, "is_disabled": 0, "bike_id": "1a188232d23c2c484562ed09d6239ffd", "is_reserved": 0, "rental_uris": {"android": "https://dc.lft.to/lastmile_qr_scan", "ios": "https://dc.lft.to/lastmile_qr_scan"}, "lat": 38.914193}, {"type": "electric_scooter", "name": "91ae7c827671a4271c5d6217192629b0", "fusion_lat": 0.0, "fusion_lon": 0.0, "lon": -77.02696166666666, "is_disabled": 0, "bike_id": "91ae7c827671a4271c5d6217192629b0", "is_reserved": 0, "rental_uris": {"android": "https://dc.lft.to/lastmile_qr_scan", "ios": "https://dc.lft.to/lastmile_qr_scan"}, "lat": 38.92325733333333}, {"type": "electric_scooter", "name": "1e051b13da0066f35ed5a3407a7cc469", "fusion_lat": 0.0, "fusion_lon": 0.0, "lon": -77.06337183333333, "is_disabled": 0, "bike_id": "1e051b13da0066f35ed5a3407a7cc469", "is_reserved": 0, "rental_uris": {"android": "https://dc.lft.to/lastmile_qr_scan", "ios": "https://dc.lft.to/lastmile_qr_scan"}, "lat": 38.9214745}, {"type": "electric_scooter", "name": "fbdf8c1f2751d64b4bde51ba3b381d15", "fusion_lat": 0.0, "fusion_lon": 0.0, "lon": -77.0402815, "is_disabled": 0, "bike_id": "fbdf8c1f2751d64b4bde51ba3b381d15", "is_reserved": 0, "rental_uris": {"android": "https://dc.lft.to/lastmile_qr_scan", "ios": "https://dc.lft.to/lastmile_qr_scan"}, "lat": 38.918031166666665}, {"type": "electric_scooter", "name": "ffb53feb6150bfce1542c3e115192661", "fusion_lat": 0.0, "fusion_lon": 0.0, "lon": -77.0417705, "is_disabled": 0, "bike_id": "ffb53feb6150bfce1542c3e115192661", "is_reserved": 0, "rental_uris": {"android": "https://dc.lft.to/lastmile_qr_scan", "ios": "https://dc.lft.to/lastmile_qr_scan"}, "lat": 38.91819616666667}, {"type": "electric_scooter", "name": "3d9d8b8e336c5bb59c941c948da4d905", "fusion_lat": 0.0, "fusion_lon": 0.0, "lon": -77.02736133333333, "is_disabled": 0, "bike_id": "3d9d8b8e336c5bb59c941c948da4d905", "is_reserved": 0, "rental_uris": {"android": "https://dc.lft.to/lastmile_qr_scan", "ios": "https://dc.lft.to/lastmile_qr_scan"}, "lat": 38.924826333333336}, {"type": "electric_bike", "name": "7021744edbb6cae22bb0650b1bf50e69", "fusion_lat": 0.0, "fusion_lon": 0.0, "lon": -77.0898205, "is_disabled": 0, "bike_id": "7021744edbb6cae22bb0650b1bf50e69", "is_reserved": 0, "rental_uris": {"android": "https://dc.lft.to/lastmile_qr_scan", "ios": "https://dc.lft.to/lastmile_qr_scan"}, "lat": 38.91175966666667}, {"type": "electric_scooter", "name": "bbea42fbe1212ea4bf63b4901f067bfd", "fusion_lat": 0.0, "fusion_lon": 0.0, "lon": -77.028132, "is_disabled": 0, "bike_id": "bbea42fbe1212ea4bf63b4901f067bfd", "is_reserved": 0, "rental_uris": {"android": "https://dc.lft.to/lastmile_qr_scan", "ios": "https://dc.lft.to/lastmile_qr_scan"}, "lat": 38.909294333333335}, {"type": "electric_scooter", "name": "481eb08c349c70ec14731c89ed1bf207", "fusion_lat": 0.0, "fusion_lon": 0.0, "lon": -77.028063, "is_disabled": 0, "bike_id": "481eb08c349c70ec14731c89ed1bf207", "is_reserved": 0, "rental_uris": {"android": "https://dc.lft.to/lastmile_qr_scan", "ios": "https://dc.lft.to/lastmile_qr_scan"}, "lat": 38.89631633333333}, {"type": "electric_scooter", "name": "55a64fa6e31ad660e943267df2b57cb0", "fusion_lat": 0.0, "fusion_lon": 0.0, "lon": -77.0267705, "is_disabled": 0, "bike_id": "55a64fa6e31ad660e943267df2b57cb0", "is_reserved": 0, "rental_uris": {"android": "https://dc.lft.to/lastmile_qr_scan", "ios": "https://dc.lft.to/lastmile_qr_scan"}, "lat": 38.90059}, {"type": "electric_scooter", "name": "9e7931f1b9503741fe6e2122ec7f0e92", "fusion_lat": 0.0, "fusion_lon": 0.0, "lon": -77.03262316666667, "is_disabled": 0, "bike_id": "9e7931f1b9503741fe6e2122ec7f0e92", "is_reserved": 0, "rental_uris": {"android": "https://dc.lft.to/lastmile_qr_scan", "ios": "https://dc.lft.to/lastmile_qr_scan"}, "lat": 38.91403616666667}, {"type": "electric_bike", "name": "6a180a4ce907fa3818b59198360c646a", "fusion_lat": 0.0, "fusion_lon": 0.0, "lon": -77.03496866666667, "is_disabled": 0, "bike_id": "6a180a4ce907fa3818b59198360c646a", "is_reserved": 0, "rental_uris": {"android": "https://dc.lft.to/lastmile_qr_scan", "ios": "https://dc.lft.to/lastmile_qr_scan"}, "lat": 38.93157566666667}, {"type": "electric_scooter", "name": "3bc789da7518fec5f30a4928c505ba36", "fusion_lat": 0.0, "fusion_lon": 0.0, "lon": -77.04232266666666, "is_disabled": 0, "bike_id": "3bc789da7518fec5f30a4928c505ba36", "is_reserved": 0, "rental_uris": {"android": "https://dc.lft.to/lastmile_qr_scan", "ios": "https://dc.lft.to/lastmile_qr_scan"}, "lat": 38.9111375}, {"type": "electric_scooter", "name": "e1f5b74cc57b1c0a5604740f88b9fe75", "fusion_lat": 0.0, "fusion_lon": 0.0, "lon": -77.0255865, "is_disabled": 0, "bike_id": "e1f5b74cc57b1c0a5604740f88b9fe75", "is_reserved": 0, "rental_uris": {"android": "https://dc.lft.to/lastmile_qr_scan", "ios": "https://dc.lft.to/lastmile_qr_scan"}, "lat": 38.887446}, {"type": "electric_scooter", "name": "193592be85c56149c70364e5e9966223", "fusion_lat": 0.0, "fusion_lon": 0.0, "lon": -77.02112066666666, "is_disabled": 0, "bike_id": "193592be85c56149c70364e5e9966223", "is_reserved": 0, "rental_uris": {"android": "https://dc.lft.to/lastmile_qr_scan", "ios": "https://dc.lft.to/lastmile_qr_scan"}, "lat": 38.90603866666667}, {"type": "electric_scooter", "name": "8975ef35e1266b66886afafa0808ce45", "fusion_lat": 0.0, "fusion_lon": 0.0, "lon": -77.031749, "is_disabled": 0, "bike_id": "8975ef35e1266b66886afafa0808ce45", "is_reserved": 0, "rental_uris": {"android": "https://dc.lft.to/lastmile_qr_scan", "ios": "https://dc.lft.to/lastmile_qr_scan"}, "lat": 38.89331333333333}, {"type": "electric_scooter", "name": "0bfae7dff89841eebe6a34ede7a34292", "fusion_lat": 0.0, "fusion_lon": 0.0, "lon": -77.02949616666666, "is_disabled": 0, "bike_id": "0bfae7dff89841eebe6a34ede7a34292", "is_reserved": 0, "rental_uris": {"android": "https://dc.lft.to/lastmile_qr_scan", "ios": "https://dc.lft.to/lastmile_qr_scan"}, "lat": 38.904937833333335}, {"type": "electric_scooter", "name": "c7edcb005f513816499bf07d7b992941", "fusion_lat": 0.0, "fusion_lon": 0.0, "lon": -76.9903155, "is_disabled": 0, "bike_id": "c7edcb005f513816499bf07d7b992941", "is_reserved": 0, "rental_uris": {"android": "https://dc.lft.to/lastmile_qr_scan", "ios": "https://dc.lft.to/lastmile_qr_scan"}, "lat": 38.898512}, {"type": "electric_scooter", "name": "85025995abeba5c3ec629b4042bcaca3", "fusion_lat": 0.0, "fusion_lon": 0.0, "lon": -77.02895966666667, "is_disabled": 0, "bike_id": "85025995abeba5c3ec629b4042bcaca3", "is_reserved": 0, "rental_uris": {"android": "https://dc.lft.to/lastmile_qr_scan", "ios": "https://dc.lft.to/lastmile_qr_scan"}, "lat": 38.9368175}, {"type": "electric_scooter", "name": "b75493182b55af60743d78f5d998c317", "fusion_lat": 0.0, "fusion_lon": 0.0, "lon": -76.985117, "is_disabled": 0, "bike_id": "b75493182b55af60743d78f5d998c317", "is_reserved": 0, "rental_uris": {"android": "https://dc.lft.to/lastmile_qr_scan", "ios": "https://dc.lft.to/lastmile_qr_scan"}, "lat": 38.860131}, {"type": "electric_scooter", "name": "b6636b8227ac527552ef1e288c2e7390", "fusion_lat": 0.0, "fusion_lon": 0.0, "lon": -77.0463145, "is_disabled": 0, "bike_id": "b6636b8227ac527552ef1e288c2e7390", "is_reserved": 0, "rental_uris": {"android": "https://dc.lft.to/lastmile_qr_scan", "ios": "https://dc.lft.to/lastmile_qr_scan"}, "lat": 38.919237}, {"type": "electric_scooter", "name": "ed2291329219fe0c69aea77eca0afc7c", "fusion_lat": 0.0, "fusion_lon": 0.0, "lon": -77.02152366666667, "is_disabled": 0, "bike_id": "ed2291329219fe0c69aea77eca0afc7c", "is_reserved": 0, "rental_uris": {"android": "https://dc.lft.to/lastmile_qr_scan", "ios": "https://dc.lft.to/lastmile_qr_scan"}, "lat": 38.88743366666667}, {"type": "electric_scooter", "name": "65a63f1384cc38cb11d8dd59d3e53d5d", "fusion_lat": 0.0, "fusion_lon": 0.0, "lon": -77.03905483333334, "is_disabled": 0, "bike_id": "65a63f1384cc38cb11d8dd59d3e53d5d", "is_reserved": 0, "rental_uris": {"android": "https://dc.lft.to/lastmile_qr_scan", "ios": "https://dc.lft.to/lastmile_qr_scan"}, "lat": 38.914207166666664}, {"type": "electric_scooter", "name": "0f1124c7edebdc3fa02f3a6647dba674", "fusion_lat": 0.0, "fusion_lon": 0.0, "lon": -77.032684, "is_disabled": 0, "bike_id": "0f1124c7edebdc3fa02f3a6647dba674", "is_reserved": 0, "rental_uris": {"android": "https://dc.lft.to/lastmile_qr_scan", "ios": "https://dc.lft.to/lastmile_qr_scan"}, "lat": 38.932474166666665}, {"type": "electric_scooter", "name": "c425cdc4de41b46581d35605bbb91583", "fusion_lat": 0.0, "fusion_lon": 0.0, "lon": -77.02840216666667, "is_disabled": 0, "bike_id": "c425cdc4de41b46581d35605bbb91583", "is_reserved": 0, "rental_uris": {"android": "https://dc.lft.to/lastmile_qr_scan", "ios": "https://dc.lft.to/lastmile_qr_scan"}, "lat": 38.9257065}, {"type": "electric_scooter", "name": "a0a339456dc54176adf6bf2dc668f4c1", "fusion_lat": 0.0, "fusion_lon": 0.0, "lon": -77.041734, "is_disabled": 0, "bike_id": "a0a339456dc54176adf6bf2dc668f4c1", "is_reserved": 0, "rental_uris": {"android": "https://dc.lft.to/lastmile_qr_scan", "ios": "https://dc.lft.to/lastmile_qr_scan"}, "lat": 38.9139635}, {"type": "electric_scooter", "name": "0147b3fbd9af87c74d12562079c5e62b", "fusion_lat": 0.0, "fusion_lon": 0.0, "lon": -76.99317883333333, "is_disabled": 0, "bike_id": "0147b3fbd9af87c74d12562079c5e62b", "is_reserved": 0, "rental_uris": {"android": "https://dc.lft.to/lastmile_qr_scan", "ios": "https://dc.lft.to/lastmile_qr_scan"}, "lat": 38.920176}, {"type": "electric_scooter", "name": "81398d1b723a6836f554a45826c88f21", "fusion_lat": 0.0, "fusion_lon": 0.0, "lon": -77.0251295, "is_disabled": 0, "bike_id": "81398d1b723a6836f554a45826c88f21", "is_reserved": 0, "rental_uris": {"android": "https://dc.lft.to/lastmile_qr_scan", "ios": "https://dc.lft.to/lastmile_qr_scan"}, "lat": 38.920774333333334}, {"type": "electric_scooter", "name": "8a68eebb069d38e5f91e8ee70929ff73", "fusion_lat": 0.0, "fusion_lon": 0.0, "lon": -77.02277933333333, "is_disabled": 0, "bike_id": "8a68eebb069d38e5f91e8ee70929ff73", "is_reserved": 0, "rental_uris": {"android": "https://dc.lft.to/lastmile_qr_scan", "ios": "https://dc.lft.to/lastmile_qr_scan"}, "lat": 38.916307833333335}, {"type": "electric_scooter", "name": "38761bf6dbf2316d00e0cb9b2e09741d", "fusion_lat": 0.0, "fusion_lon": 0.0, "lon": -77.03869966666667, "is_disabled": 0, "bike_id": "38761bf6dbf2316d00e0cb9b2e09741d", "is_reserved": 0, "rental_uris": {"android": "https://dc.lft.to/lastmile_qr_scan", "ios": "https://dc.lft.to/lastmile_qr_scan"}, "lat": 38.91257133333333}, {"type": "electric_scooter", "name": "cda91e28e60c2a422090abaacbeff76e", "fusion_lat": 0.0, "fusion_lon": 0.0, "lon": -77.03178466666667, "is_disabled": 0, "bike_id": "cda91e28e60c2a422090abaacbeff76e", "is_reserved": 0, "rental_uris": {"android": "https://dc.lft.to/lastmile_qr_scan", "ios": "https://dc.lft.to/lastmile_qr_scan"}, "lat": 38.89259783333333}, {"type": "electric_scooter", "name": "d2251f1a816af772e5d6199dd0468310", "fusion_lat": 0.0, "fusion_lon": 0.0, "lon": -77.01703033333334, "is_disabled": 0, "bike_id": "d2251f1a816af772e5d6199dd0468310", "is_reserved": 0, "rental_uris": {"android": "https://dc.lft.to/lastmile_qr_scan", "ios": "https://dc.lft.to/lastmile_qr_scan"}, "lat": 38.9138455}, {"type": "electric_scooter", "name": "bb50748cb02a7ef319cdf52fcec2cc45", "fusion_lat": 0.0, "fusion_lon": 0.0, "lon": -77.02336966666667, "is_disabled": 0, "bike_id": "bb50748cb02a7ef319cdf52fcec2cc45", "is_reserved": 0, "rental_uris": {"android": "https://dc.lft.to/lastmile_qr_scan", "ios": "https://dc.lft.to/lastmile_qr_scan"}, "lat": 38.92231866666667}, {"type": "electric_scooter", "name": "23cac445942c5391bf5b52d936a3842c", "fusion_lat": 0.0, "fusion_lon": 0.0, "lon": -77.02714033333334, "is_disabled": 0, "bike_id": "23cac445942c5391bf5b52d936a3842c", "is_reserved": 0, "rental_uris": {"android": "https://dc.lft.to/lastmile_qr_scan", "ios": "https://dc.lft.to/lastmile_qr_scan"}, "lat": 38.91817866666667}, {"type": "electric_scooter", "name": "dbac4474dd9106e7aeb30f9fb506fd01", "fusion_lat": 0.0, "fusion_lon": 0.0, "lon": -77.03571283333333, "is_disabled": 0, "bike_id": "dbac4474dd9106e7aeb30f9fb506fd01", "is_reserved": 0, "rental_uris": {"android": "https://dc.lft.to/lastmile_qr_scan", "ios": "https://dc.lft.to/lastmile_qr_scan"}, "lat": 38.91817283333334}, {"type": "electric_scooter", "name": "0e4463901077ab3250646ceb8c21fcae", "fusion_lat": 0.0, "fusion_lon": 0.0, "lon": -77.043256, "is_disabled": 0, "bike_id": "0e4463901077ab3250646ceb8c21fcae", "is_reserved": 0, "rental_uris": {"android": "https://dc.lft.to/lastmile_qr_scan", "ios": "https://dc.lft.to/lastmile_qr_scan"}, "lat": 38.89682283333333}, {"type": "electric_scooter", "name": "212079cfdf05c97a77d2464d03bdfa21", "fusion_lat": 0.0, "fusion_lon": 0.0, "lon": -77.01505433333334, "is_disabled": 0, "bike_id": "212079cfdf05c97a77d2464d03bdfa21", "is_reserved": 0, "rental_uris": {"android": "https://dc.lft.to/lastmile_qr_scan", "ios": "https://dc.lft.to/lastmile_qr_scan"}, "lat": 38.92667516666667}, {"type": "electric_scooter", "name": "1ef27c26fac3b711b6ebef884ced1c35", "fusion_lat": 0.0, "fusion_lon": 0.0, "lon": -76.99036283333334, "is_disabled": 0, "bike_id": "1ef27c26fac3b711b6ebef884ced1c35", "is_reserved": 0, "rental_uris": {"android": "https://dc.lft.to/lastmile_qr_scan", "ios": "https://dc.lft.to/lastmile_qr_scan"}, "lat": 38.888776166666666}, {"type": "electric_scooter", "name": "a4db6d1c6add3716274bb767dcb264bf", "fusion_lat": 0.0, "fusion_lon": 0.0, "lon": -77.032014, "is_disabled": 0, "bike_id": "a4db6d1c6add3716274bb767dcb264bf", "is_reserved": 0, "rental_uris": {"android": "https://dc.lft.to/lastmile_qr_scan", "ios": "https://dc.lft.to/lastmile_qr_scan"}, "lat": 38.91191216666667}, {"type": "electric_scooter", "name": "fd1ce41285fa25b069392602177f52e7", "fusion_lat": 0.0, "fusion_lon": 0.0, "lon": -77.03497116666666, "is_disabled": 0, "bike_id": "fd1ce41285fa25b069392602177f52e7", "is_reserved": 0, "rental_uris": {"android": "https://dc.lft.to/lastmile_qr_scan", "ios": "https://dc.lft.to/lastmile_qr_scan"}, "lat": 38.900425}, {"type": "electric_scooter", "name": "59d50a91991b10bafe3c349a18d4b45c", "fusion_lat": 0.0, "fusion_lon": 0.0, "lon": -76.997704, "is_disabled": 0, "bike_id": "59d50a91991b10bafe3c349a18d4b45c", "is_reserved": 0, "rental_uris": {"android": "https://dc.lft.to/lastmile_qr_scan", "ios": "https://dc.lft.to/lastmile_qr_scan"}, "lat": 38.911145166666664}, {"type": "electric_scooter", "name": "c4c5fc9b9ca232989c423e2208643907", "fusion_lat": 0.0, "fusion_lon": 0.0, "lon": -77.03377216666667, "is_disabled": 0, "bike_id": "c4c5fc9b9ca232989c423e2208643907", "is_reserved": 0, "rental_uris": {"android": "https://dc.lft.to/lastmile_qr_scan", "ios": "https://dc.lft.to/lastmile_qr_scan"}, "lat": 38.91031233333333}, {"type": "electric_bike", "name": "a69f09060e4da931d3f032737741d39e", "fusion_lat": 0.0, "fusion_lon": 0.0, "lon": -77.0200685, "is_disabled": 0, "bike_id": "a69f09060e4da931d3f032737741d39e", "is_reserved": 0, "rental_uris": {"android": "https://dc.lft.to/lastmile_qr_scan", "ios": "https://dc.lft.to/lastmile_qr_scan"}, "lat": 38.964425166666665}, {"type": "electric_scooter", "name": "e3e5e93ee6e6fd624b7818794cef8ef1", "fusion_lat": 0.0, "fusion_lon": 0.0, "lon": -77.024743, "is_disabled": 0, "bike_id": "e3e5e93ee6e6fd624b7818794cef8ef1", "is_reserved": 0, "rental_uris": {"android": "https://dc.lft.to/lastmile_qr_scan", "ios": "https://dc.lft.to/lastmile_qr_scan"}, "lat": 38.938588833333334}, {"type": "electric_scooter", "name": "79f7ff18684fa7e6286c58844eb138aa", "fusion_lat": 0.0, "fusion_lon": 0.0, "lon": -77.03150833333333, "is_disabled": 0, "bike_id": "79f7ff18684fa7e6286c58844eb138aa", "is_reserved": 0, "rental_uris": {"android": "https://dc.lft.to/lastmile_qr_scan", "ios": "https://dc.lft.to/lastmile_qr_scan"}, "lat": 38.927898166666665}, {"type": "electric_scooter", "name": "bc7d46b8f27b1c4777815f219801ab34", "fusion_lat": 0.0, "fusion_lon": 0.0, "lon": -76.97891133333333, "is_disabled": 0, "bike_id": "bc7d46b8f27b1c4777815f219801ab34", "is_reserved": 0, "rental_uris": {"android": "https://dc.lft.to/lastmile_qr_scan", "ios": "https://dc.lft.to/lastmile_qr_scan"}, "lat": 38.885418}, {"type": "electric_scooter", "name": "48c9ba8682d61838418c2bfbe707d0aa", "fusion_lat": 0.0, "fusion_lon": 0.0, "lon": -77.02659583333333, "is_disabled": 0, "bike_id": "48c9ba8682d61838418c2bfbe707d0aa", "is_reserved": 0, "rental_uris": {"android": "https://dc.lft.to/lastmile_qr_scan", "ios": "https://dc.lft.to/lastmile_qr_scan"}, "lat": 38.91063416666667}, {"type": "electric_scooter", "name": "1fc5661f2424491b5482b370c0ce2426", "fusion_lat": 0.0, "fusion_lon": 0.0, "lon": -77.016062, "is_disabled": 0, "bike_id": "1fc5661f2424491b5482b370c0ce2426", "is_reserved": 0, "rental_uris": {"android": "https://dc.lft.to/lastmile_qr_scan", "ios": "https://dc.lft.to/lastmile_qr_scan"}, "lat": 38.8763395}, {"type": "electric_scooter", "name": "18df2ee7ca7dbd66278f5b8fa4756148", "fusion_lat": 0.0, "fusion_lon": 0.0, "lon": -77.0266665, "is_disabled": 0, "bike_id": "18df2ee7ca7dbd66278f5b8fa4756148", "is_reserved": 0, "rental_uris": {"android": "https://dc.lft.to/lastmile_qr_scan", "ios": "https://dc.lft.to/lastmile_qr_scan"}, "lat": 38.92216366666667}, {"type": "electric_scooter", "name": "55e3762713db2d470ad90a82ff292c8a", "fusion_lat": 0.0, "fusion_lon": 0.0, "lon": -77.02180866666667, "is_disabled": 0, "bike_id": "55e3762713db2d470ad90a82ff292c8a", "is_reserved": 0, "rental_uris": {"android": "https://dc.lft.to/lastmile_qr_scan", "ios": "https://dc.lft.to/lastmile_qr_scan"}, "lat": 38.89221416666667}, {"type": "electric_scooter", "name": "b2f4808c89c3edba1fef5c7a322361e0", "fusion_lat": 0.0, "fusion_lon": 0.0, "lon": -77.05230183333333, "is_disabled": 0, "bike_id": "b2f4808c89c3edba1fef5c7a322361e0", "is_reserved": 0, "rental_uris": {"android": "https://dc.lft.to/lastmile_qr_scan", "ios": "https://dc.lft.to/lastmile_qr_scan"}, "lat": 38.92451066666667}, {"type": "electric_scooter", "name": "ce5063a69f6047d7d1c74f23f7db80fc", "fusion_lat": 0.0, "fusion_lon": 0.0, "lon": -76.9870685, "is_disabled": 0, "bike_id": "ce5063a69f6047d7d1c74f23f7db80fc", "is_reserved": 0, "rental_uris": {"android": "https://dc.lft.to/lastmile_qr_scan", "ios": "https://dc.lft.to/lastmile_qr_scan"}, "lat": 38.86540983333333}, {"type": "electric_bike", "name": "114beeecfbc07afae371b94ebf95da55", "fusion_lat": 0.0, "fusion_lon": 0.0, "lon": -77.07768616666667, "is_disabled": 0, "bike_id": "114beeecfbc07afae371b94ebf95da55", "is_reserved": 0, "rental_uris": {"android": "https://dc.lft.to/lastmile_qr_scan", "ios": "https://dc.lft.to/lastmile_qr_scan"}, "lat": 38.930452333333335}, {"type": "electric_scooter", "name": "5313432bff86eb983a7c97900f18f2ed", "fusion_lat": 0.0, "fusion_lon": 0.0, "lon": -77.0292715, "is_disabled": 0, "bike_id": "5313432bff86eb983a7c97900f18f2ed", "is_reserved": 0, "rental_uris": {"android": "https://dc.lft.to/lastmile_qr_scan", "ios": "https://dc.lft.to/lastmile_qr_scan"}, "lat": 38.89836416666667}, {"type": "electric_scooter", "name": "98b00d64e26f88ad0ee6793cff2a100b", "fusion_lat": 0.0, "fusion_lon": 0.0, "lon": -77.030666, "is_disabled": 0, "bike_id": "98b00d64e26f88ad0ee6793cff2a100b", "is_reserved": 0, "rental_uris": {"android": "https://dc.lft.to/lastmile_qr_scan", "ios": "https://dc.lft.to/lastmile_qr_scan"}, "lat": 38.89820066666667}, {"type": "electric_scooter", "name": "7d82c7ee0f0ddf1c894e4bdd9ee0c585", "fusion_lat": 0.0, "fusion_lon": 0.0, "lon": -77.04507733333334, "is_disabled": 0, "bike_id": "7d82c7ee0f0ddf1c894e4bdd9ee0c585", "is_reserved": 0, "rental_uris": {"android": "https://dc.lft.to/lastmile_qr_scan", "ios": "https://dc.lft.to/lastmile_qr_scan"}, "lat": 38.919419}, {"type": "electric_scooter", "name": "15eb43dac70d89848ba4022809c67d3c", "fusion_lat": 0.0, "fusion_lon": 0.0, "lon": -77.03226166666667, "is_disabled": 0, "bike_id": "15eb43dac70d89848ba4022809c67d3c", "is_reserved": 0, "rental_uris": {"android": "https://dc.lft.to/lastmile_qr_scan", "ios": "https://dc.lft.to/lastmile_qr_scan"}, "lat": 38.92554716666667}, {"type": "electric_scooter", "name": "e98523a22a95de5d4dc0c383541e04b0", "fusion_lat": 0.0, "fusion_lon": 0.0, "lon": -77.02950366666667, "is_disabled": 0, "bike_id": "e98523a22a95de5d4dc0c383541e04b0", "is_reserved": 0, "rental_uris": {"android": "https://dc.lft.to/lastmile_qr_scan", "ios": "https://dc.lft.to/lastmile_qr_scan"}, "lat": 38.91627033333333}, {"type": "electric_scooter", "name": "1648e4c96afbfd203296b24d4fb9bb06", "fusion_lat": 0.0, "fusion_lon": 0.0, "lon": -77.06431466666666, "is_disabled": 0, "bike_id": "1648e4c96afbfd203296b24d4fb9bb06", "is_reserved": 0, "rental_uris": {"android": "https://dc.lft.to/lastmile_qr_scan", "ios": "https://dc.lft.to/lastmile_qr_scan"}, "lat": 38.935633333333335}, {"type": "electric_scooter", "name": "364a85885594ce6aae137768fb8ffb69", "fusion_lat": 0.0, "fusion_lon": 0.0, "lon": -77.03220316666666, "is_disabled": 0, "bike_id": "364a85885594ce6aae137768fb8ffb69", "is_reserved": 0, "rental_uris": {"android": "https://dc.lft.to/lastmile_qr_scan", "ios": "https://dc.lft.to/lastmile_qr_scan"}, "lat": 38.91838933333333}, {"type": "electric_bike", "name": "3812a9f922904bbfa0cd6c44f20d7d3f", "fusion_lat": 0.0, "fusion_lon": 0.0, "lon": -76.97541266666667, "is_disabled": 0, "bike_id": "3812a9f922904bbfa0cd6c44f20d7d3f", "is_reserved": 0, "rental_uris": {"android": "https://dc.lft.to/lastmile_qr_scan", "ios": "https://dc.lft.to/lastmile_qr_scan"}, "lat": 38.90421933333333}, {"type": "electric_scooter", "name": "c11af032a7e3a85aa3d7a4ede7420ad3", "fusion_lat": 0.0, "fusion_lon": 0.0, "lon": -76.933575, "is_disabled": 0, "bike_id": "c11af032a7e3a85aa3d7a4ede7420ad3", "is_reserved": 0, "rental_uris": {"android": "https://dc.lft.to/lastmile_qr_scan", "ios": "https://dc.lft.to/lastmile_qr_scan"}, "lat": 38.8989485}, {"type": "electric_scooter", "name": "c7ff7a8bcd249f456ae39517f760d3e1", "fusion_lat": 0.0, "fusion_lon": 0.0, "lon": -76.99941166666666, "is_disabled": 0, "bike_id": "c7ff7a8bcd249f456ae39517f760d3e1", "is_reserved": 0, "rental_uris": {"android": "https://dc.lft.to/lastmile_qr_scan", "ios": "https://dc.lft.to/lastmile_qr_scan"}, "lat": 38.890853}, {"type": "electric_scooter", "name": "05816b1f2c69d316b47e8e366a218303", "fusion_lat": 0.0, "fusion_lon": 0.0, "lon": -77.00157883333334, "is_disabled": 0, "bike_id": "05816b1f2c69d316b47e8e366a218303", "is_reserved": 0, "rental_uris": {"android": "https://dc.lft.to/lastmile_qr_scan", "ios": "https://dc.lft.to/lastmile_qr_scan"}, "lat": 38.821325333333334}, {"type": "electric_bike", "name": "0be72af0f7e11503d359e22ce64a6a27", "fusion_lat": 0.0, "fusion_lon": 0.0, "lon": -76.95158883333333, "is_disabled": 0, "bike_id": "0be72af0f7e11503d359e22ce64a6a27", "is_reserved": 0, "rental_uris": {"android": "https://dc.lft.to/lastmile_qr_scan", "ios": "https://dc.lft.to/lastmile_qr_scan"}, "lat": 39.08438433333333}, {"type": "electric_scooter", "name": "032c18aac38d87b7d6cef6fe10206ac8", "fusion_lat": 0.0, "fusion_lon": 0.0, "lon": -77.03908316666667, "is_disabled": 0, "bike_id": "032c18aac38d87b7d6cef6fe10206ac8", "is_reserved": 0, "rental_uris": {"android": "https://dc.lft.to/lastmile_qr_scan", "ios": "https://dc.lft.to/lastmile_qr_scan"}, "lat": 38.914202333333336}, {"type": "electric_scooter", "name": "99827c52304e8c089035af86e6cc92fa", "fusion_lat": 0.0, "fusion_lon": 0.0, "lon": -77.01725233333333, "is_disabled": 0, "bike_id": "99827c52304e8c089035af86e6cc92fa", "is_reserved": 0, "rental_uris": {"android": "https://dc.lft.to/lastmile_qr_scan", "ios": "https://dc.lft.to/lastmile_qr_scan"}, "lat": 38.8922605}, {"type": "electric_scooter", "name": "028855015ba42f37bf6bdd769bd0b3d5", "fusion_lat": 0.0, "fusion_lon": 0.0, "lon": -77.03866433333333, "is_disabled": 0, "bike_id": "028855015ba42f37bf6bdd769bd0b3d5", "is_reserved": 0, "rental_uris": {"android": "https://dc.lft.to/lastmile_qr_scan", "ios": "https://dc.lft.to/lastmile_qr_scan"}, "lat": 38.91258283333333}, {"type": "electric_scooter", "name": "91bc67dc7d94dfd68efeb89c4604214f", "fusion_lat": 0.0, "fusion_lon": 0.0, "lon": -77.01836316666666, "is_disabled": 0, "bike_id": "91bc67dc7d94dfd68efeb89c4604214f", "is_reserved": 0, "rental_uris": {"android": "https://dc.lft.to/lastmile_qr_scan", "ios": "https://dc.lft.to/lastmile_qr_scan"}, "lat": 38.921374666666665}, {"type": "electric_scooter", "name": "e03b5d265b1fc9df9e9fdd719405d0ca", "fusion_lat": 0.0, "fusion_lon": 0.0, "lon": -77.015752, "is_disabled": 0, "bike_id": "e03b5d265b1fc9df9e9fdd719405d0ca", "is_reserved": 0, "rental_uris": {"android": "https://dc.lft.to/lastmile_qr_scan", "ios": "https://dc.lft.to/lastmile_qr_scan"}, "lat": 38.91686383333333}, {"type": "electric_scooter", "name": "5dee22fdc29c933bf4b8154ab716edf6", "fusion_lat": 0.0, "fusion_lon": 0.0, "lon": -76.98548366666667, "is_disabled": 0, "bike_id": "5dee22fdc29c933bf4b8154ab716edf6", "is_reserved": 0, "rental_uris": {"android": "https://dc.lft.to/lastmile_qr_scan", "ios": "https://dc.lft.to/lastmile_qr_scan"}, "lat": 38.907021666666665}, {"type": "electric_scooter", "name": "d9b7799e275e1a50d6f5914dab2dacef", "fusion_lat": 0.0, "fusion_lon": 0.0, "lon": -77.02201416666666, "is_disabled": 0, "bike_id": "d9b7799e275e1a50d6f5914dab2dacef", "is_reserved": 0, "rental_uris": {"android": "https://dc.lft.to/lastmile_qr_scan", "ios": "https://dc.lft.to/lastmile_qr_scan"}, "lat": 38.914368333333336}, {"type": "electric_scooter", "name": "253cf124db989e6134fce5e13b34c0ab", "fusion_lat": 0.0, "fusion_lon": 0.0, "lon": -76.9818555, "is_disabled": 0, "bike_id": "253cf124db989e6134fce5e13b34c0ab", "is_reserved": 0, "rental_uris": {"android": "https://dc.lft.to/lastmile_qr_scan", "ios": "https://dc.lft.to/lastmile_qr_scan"}, "lat": 38.9058195}, {"type": "electric_scooter", "name": "c40a957c772104cf0bb972708b759d9e", "fusion_lat": 0.0, "fusion_lon": 0.0, "lon": -77.07332766666667, "is_disabled": 0, "bike_id": "c40a957c772104cf0bb972708b759d9e", "is_reserved": 0, "rental_uris": {"android": "https://dc.lft.to/lastmile_qr_scan", "ios": "https://dc.lft.to/lastmile_qr_scan"}, "lat": 38.926115}, {"type": "electric_scooter", "name": "64aa73b6b5bd8dd11fedee639d43ba4c", "fusion_lat": 0.0, "fusion_lon": 0.0, "lon": -77.01988516666667, "is_disabled": 0, "bike_id": "64aa73b6b5bd8dd11fedee639d43ba4c", "is_reserved": 0, "rental_uris": {"android": "https://dc.lft.to/lastmile_qr_scan", "ios": "https://dc.lft.to/lastmile_qr_scan"}, "lat": 38.930489}, {"type": "electric_bike", "name": "016353e5f38af166eb942e7477b9b486", "fusion_lat": 0.0, "fusion_lon": 0.0, "lon": -76.950661, "is_disabled": 0, "bike_id": "016353e5f38af166eb942e7477b9b486", "is_reserved": 0, "rental_uris": {"android": "https://dc.lft.to/lastmile_qr_scan", "ios": "https://dc.lft.to/lastmile_qr_scan"}, "lat": 39.08507133333333}, {"type": "electric_scooter", "name": "ca5631baaa7a5ab5ad5843fe176cf921", "fusion_lat": 0.0, "fusion_lon": 0.0, "lon": -77.00198866666666, "is_disabled": 0, "bike_id": "ca5631baaa7a5ab5ad5843fe176cf921", "is_reserved": 0, "rental_uris": {"android": "https://dc.lft.to/lastmile_qr_scan", "ios": "https://dc.lft.to/lastmile_qr_scan"}, "lat": 38.900213666666666}, {"type": "electric_scooter", "name": "4d883978ceda013c8e6cf8a2f25ef14d", "fusion_lat": 0.0, "fusion_lon": 0.0, "lon": -77.015891, "is_disabled": 0, "bike_id": "4d883978ceda013c8e6cf8a2f25ef14d", "is_reserved": 0, "rental_uris": {"android": "https://dc.lft.to/lastmile_qr_scan", "ios": "https://dc.lft.to/lastmile_qr_scan"}, "lat": 38.883213}, {"type": "electric_scooter", "name": "aff1d2850a8f3133c623cb75163e3f73", "fusion_lat": 0.0, "fusion_lon": 0.0, "lon": -77.04172116666666, "is_disabled": 0, "bike_id": "aff1d2850a8f3133c623cb75163e3f73", "is_reserved": 0, "rental_uris": {"android": "https://dc.lft.to/lastmile_qr_scan", "ios": "https://dc.lft.to/lastmile_qr_scan"}, "lat": 38.913992}, {"type": "electric_scooter", "name": "babf386e810af61a9fce80fead11c946", "fusion_lat": 0.0, "fusion_lon": 0.0, "lon": -77.03481716666667, "is_disabled": 0, "bike_id": "babf386e810af61a9fce80fead11c946", "is_reserved": 0, "rental_uris": {"android": "https://dc.lft.to/lastmile_qr_scan", "ios": "https://dc.lft.to/lastmile_qr_scan"}, "lat": 38.92484783333333}, {"type": "electric_scooter", "name": "d58c5ada990a247a541ab42be6209574", "fusion_lat": 0.0, "fusion_lon": 0.0, "lon": -77.01631966666666, "is_disabled": 0, "bike_id": "d58c5ada990a247a541ab42be6209574", "is_reserved": 0, "rental_uris": {"android": "https://dc.lft.to/lastmile_qr_scan", "ios": "https://dc.lft.to/lastmile_qr_scan"}, "lat": 38.90371583333334}, {"type": "electric_bike", "name": "68646d349e96aaeacd1b34820a624a1e", "fusion_lat": 0.0, "fusion_lon": 0.0, "lon": -77.034318, "is_disabled": 0, "bike_id": "68646d349e96aaeacd1b34820a624a1e", "is_reserved": 0, "rental_uris": {"android": "https://dc.lft.to/lastmile_qr_scan", "ios": "https://dc.lft.to/lastmile_qr_scan"}, "lat": 38.96623866666667}, {"type": "electric_scooter", "name": "f22cf3350f319cbaa7cb417b664e79f2", "fusion_lat": 0.0, "fusion_lon": 0.0, "lon": -77.04150983333334, "is_disabled": 0, "bike_id": "f22cf3350f319cbaa7cb417b664e79f2", "is_reserved": 0, "rental_uris": {"android": "https://dc.lft.to/lastmile_qr_scan", "ios": "https://dc.lft.to/lastmile_qr_scan"}, "lat": 38.92354183333333}, {"type": "electric_bike", "name": "9c112acb6526bcaafbd8b95f8d70008c", "fusion_lat": 0.0, "fusion_lon": 0.0, "lon": -76.90298716666666, "is_disabled": 0, "bike_id": "9c112acb6526bcaafbd8b95f8d70008c", "is_reserved": 0, "rental_uris": {"android": "https://dc.lft.to/lastmile_qr_scan", "ios": "https://dc.lft.to/lastmile_qr_scan"}, "lat": 39.00295966666667}, {"type": "electric_scooter", "name": "8117822663147c276d3542b996c961e5", "fusion_lat": 0.0, "fusion_lon": 0.0, "lon": -77.036622, "is_disabled": 0, "bike_id": "8117822663147c276d3542b996c961e5", "is_reserved": 0, "rental_uris": {"android": "https://dc.lft.to/lastmile_qr_scan", "ios": "https://dc.lft.to/lastmile_qr_scan"}, "lat": 38.921273166666666}, {"type": "electric_scooter", "name": "2c972ab504e70f12d530ad8bc1e13f63", "fusion_lat": 0.0, "fusion_lon": 0.0, "lon": -76.994092, "is_disabled": 0, "bike_id": "2c972ab504e70f12d530ad8bc1e13f63", "is_reserved": 0, "rental_uris": {"android": "https://dc.lft.to/lastmile_qr_scan", "ios": "https://dc.lft.to/lastmile_qr_scan"}, "lat": 38.877909}, {"type": "electric_scooter", "name": "6cc9d825731995da0707bfaffc70a965", "fusion_lat": 0.0, "fusion_lon": 0.0, "lon": -77.01140216666667, "is_disabled": 0, "bike_id": "6cc9d825731995da0707bfaffc70a965", "is_reserved": 0, "rental_uris": {"android": "https://dc.lft.to/lastmile_qr_scan", "ios": "https://dc.lft.to/lastmile_qr_scan"}, "lat": 38.91714916666667}, {"type": "electric_scooter", "name": "9e7fca3a93f64f440d3bd2e61fa2c33d", "fusion_lat": 0.0, "fusion_lon": 0.0, "lon": -76.99858816666666, "is_disabled": 0, "bike_id": "9e7fca3a93f64f440d3bd2e61fa2c33d", "is_reserved": 0, "rental_uris": {"android": "https://dc.lft.to/lastmile_qr_scan", "ios": "https://dc.lft.to/lastmile_qr_scan"}, "lat": 38.90331916666667}, {"type": "electric_scooter", "name": "6261595cc76b886b539861f42a99119c", "fusion_lat": 0.0, "fusion_lon": 0.0, "lon": -77.04658683333334, "is_disabled": 0, "bike_id": "6261595cc76b886b539861f42a99119c", "is_reserved": 0, "rental_uris": {"android": "https://dc.lft.to/lastmile_qr_scan", "ios": "https://dc.lft.to/lastmile_qr_scan"}, "lat": 38.897394166666665}, {"type": "electric_scooter", "name": "7336268d83a91f4bd0aa63bf99e5ad6b", "fusion_lat": 0.0, "fusion_lon": 0.0, "lon": -76.99843516666667, "is_disabled": 0, "bike_id": "7336268d83a91f4bd0aa63bf99e5ad6b", "is_reserved": 0, "rental_uris": {"android": "https://dc.lft.to/lastmile_qr_scan", "ios": "https://dc.lft.to/lastmile_qr_scan"}, "lat": 38.90645933333333}, {"type": "electric_scooter", "name": "74da4bd2d133581f9b0476eb90d330d4", "fusion_lat": 0.0, "fusion_lon": 0.0, "lon": -77.002127, "is_disabled": 0, "bike_id": "74da4bd2d133581f9b0476eb90d330d4", "is_reserved": 0, "rental_uris": {"android": "https://dc.lft.to/lastmile_qr_scan", "ios": "https://dc.lft.to/lastmile_qr_scan"}, "lat": 38.914600166666666}, {"type": "electric_scooter", "name": "488d6f59c3ed7d000f3d22946db373f5", "fusion_lat": 0.0, "fusion_lon": 0.0, "lon": -77.05991416666667, "is_disabled": 0, "bike_id": "488d6f59c3ed7d000f3d22946db373f5", "is_reserved": 0, "rental_uris": {"android": "https://dc.lft.to/lastmile_qr_scan", "ios": "https://dc.lft.to/lastmile_qr_scan"}, "lat": 38.93821766666667}, {"type": "electric_scooter", "name": "041b9a5bf7e6eab40fb1eb97b6a10769", "fusion_lat": 0.0, "fusion_lon": 0.0, "lon": -76.99347816666666, "is_disabled": 0, "bike_id": "041b9a5bf7e6eab40fb1eb97b6a10769", "is_reserved": 0, "rental_uris": {"android": "https://dc.lft.to/lastmile_qr_scan", "ios": "https://dc.lft.to/lastmile_qr_scan"}, "lat": 38.90016966666666}, {"type": "electric_scooter", "name": "ea0f2ee1948d52c5a3a40464e9b99af2", "fusion_lat": 0.0, "fusion_lon": 0.0, "lon": -77.0183925, "is_disabled": 0, "bike_id": "ea0f2ee1948d52c5a3a40464e9b99af2", "is_reserved": 0, "rental_uris": {"android": "https://dc.lft.to/lastmile_qr_scan", "ios": "https://dc.lft.to/lastmile_qr_scan"}, "lat": 38.91501566666667}, {"type": "electric_scooter", "name": "530f2ee48588ff98c90d2dd613b1f9ca", "fusion_lat": 0.0, "fusion_lon": 0.0, "lon": -77.02795733333333, "is_disabled": 0, "bike_id": "530f2ee48588ff98c90d2dd613b1f9ca", "is_reserved": 0, "rental_uris": {"android": "https://dc.lft.to/lastmile_qr_scan", "ios": "https://dc.lft.to/lastmile_qr_scan"}, "lat": 38.89936333333333}, {"type": "electric_scooter", "name": "bb1c1b49a40ed8c544f1d0793ffeaf9e", "fusion_lat": 0.0, "fusion_lon": 0.0, "lon": -77.0364455, "is_disabled": 0, "bike_id": "bb1c1b49a40ed8c544f1d0793ffeaf9e", "is_reserved": 0, "rental_uris": {"android": "https://dc.lft.to/lastmile_qr_scan", "ios": "https://dc.lft.to/lastmile_qr_scan"}, "lat": 38.91733283333333}, {"type": "electric_bike", "name": "0eadac99aef33ee23eca747d1055d846", "fusion_lat": 0.0, "fusion_lon": 0.0, "lon": -76.96319066666666, "is_disabled": 0, "bike_id": "0eadac99aef33ee23eca747d1055d846", "is_reserved": 0, "rental_uris": {"android": "https://dc.lft.to/lastmile_qr_scan", "ios": "https://dc.lft.to/lastmile_qr_scan"}, "lat": 38.93896633333333}, {"type": "electric_scooter", "name": "0c6a530202a068026ab5eb4a7b92308b", "fusion_lat": 0.0, "fusion_lon": 0.0, "lon": -77.02076616666666, "is_disabled": 0, "bike_id": "0c6a530202a068026ab5eb4a7b92308b", "is_reserved": 0, "rental_uris": {"android": "https://dc.lft.to/lastmile_qr_scan", "ios": "https://dc.lft.to/lastmile_qr_scan"}, "lat": 38.93022116666667}, {"type": "electric_scooter", "name": "806df94a0e727cd8b16c6703bcc98458", "fusion_lat": 0.0, "fusion_lon": 0.0, "lon": -76.99561616666666, "is_disabled": 0, "bike_id": "806df94a0e727cd8b16c6703bcc98458", "is_reserved": 0, "rental_uris": {"android": "https://dc.lft.to/lastmile_qr_scan", "ios": "https://dc.lft.to/lastmile_qr_scan"}, "lat": 38.90368466666666}, {"type": "electric_bike", "name": "a5f5643c5f680e596931120cd4932bb5", "fusion_lat": 0.0, "fusion_lon": 0.0, "lon": -76.97538366666667, "is_disabled": 0, "bike_id": "a5f5643c5f680e596931120cd4932bb5", "is_reserved": 0, "rental_uris": {"android": "https://dc.lft.to/lastmile_qr_scan", "ios": "https://dc.lft.to/lastmile_qr_scan"}, "lat": 38.90328483333333}, {"type": "electric_scooter", "name": "2eb6d9f5ad6d7216629811b0c1ea9645", "fusion_lat": 0.0, "fusion_lon": 0.0, "lon": -76.99035316666667, "is_disabled": 0, "bike_id": "2eb6d9f5ad6d7216629811b0c1ea9645", "is_reserved": 0, "rental_uris": {"android": "https://dc.lft.to/lastmile_qr_scan", "ios": "https://dc.lft.to/lastmile_qr_scan"}, "lat": 38.88873}, {"type": "electric_bike", "name": "a5dcc7da65953faa3b50c6dc410bad13", "fusion_lat": 0.0, "fusion_lon": 0.0, "lon": -77.00379416666667, "is_disabled": 0, "bike_id": "a5dcc7da65953faa3b50c6dc410bad13", "is_reserved": 0, "rental_uris": {"android": "https://dc.lft.to/lastmile_qr_scan", "ios": "https://dc.lft.to/lastmile_qr_scan"}, "lat": 38.83602966666667}, {"type": "electric_scooter", "name": "8649462bda0ad456c2304b4f39034f58", "fusion_lat": 0.0, "fusion_lon": 0.0, "lon": -77.002124, "is_disabled": 0, "bike_id": "8649462bda0ad456c2304b4f39034f58", "is_reserved": 0, "rental_uris": {"android": "https://dc.lft.to/lastmile_qr_scan", "ios": "https://dc.lft.to/lastmile_qr_scan"}, "lat": 38.91104766666667}, {"type": "electric_scooter", "name": "b6a9ee1e53e8b699bcb93fb3a9b93b09", "fusion_lat": 0.0, "fusion_lon": 0.0, "lon": -77.0499345, "is_disabled": 0, "bike_id": "b6a9ee1e53e8b699bcb93fb3a9b93b09", "is_reserved": 0, "rental_uris": {"android": "https://dc.lft.to/lastmile_qr_scan", "ios": "https://dc.lft.to/lastmile_qr_scan"}, "lat": 38.9012435}, {"type": "electric_scooter", "name": "701e617d1c2261b83737fe058aafd767", "fusion_lat": 0.0, "fusion_lon": 0.0, "lon": -77.03508683333334, "is_disabled": 0, "bike_id": "701e617d1c2261b83737fe058aafd767", "is_reserved": 0, "rental_uris": {"android": "https://dc.lft.to/lastmile_qr_scan", "ios": "https://dc.lft.to/lastmile_qr_scan"}, "lat": 38.921538166666664}, {"type": "electric_scooter", "name": "5053e91f83a0fd419abe4d110ec9e32f", "fusion_lat": 0.0, "fusion_lon": 0.0, "lon": -76.99843733333333, "is_disabled": 0, "bike_id": "5053e91f83a0fd419abe4d110ec9e32f", "is_reserved": 0, "rental_uris": {"android": "https://dc.lft.to/lastmile_qr_scan", "ios": "https://dc.lft.to/lastmile_qr_scan"}, "lat": 38.900593666666666}, {"type": "electric_scooter", "name": "8b08a64c8ced03f63cf7c3aba5e348d3", "fusion_lat": 0.0, "fusion_lon": 0.0, "lon": -77.03729066666666, "is_disabled": 0, "bike_id": "8b08a64c8ced03f63cf7c3aba5e348d3", "is_reserved": 0, "rental_uris": {"android": "https://dc.lft.to/lastmile_qr_scan", "ios": "https://dc.lft.to/lastmile_qr_scan"}, "lat": 38.9202845}, {"type": "electric_scooter", "name": "418245e86ef8b30558f2ffa712a52c4b", "fusion_lat": 0.0, "fusion_lon": 0.0, "lon": -77.01856883333333, "is_disabled": 0, "bike_id": "418245e86ef8b30558f2ffa712a52c4b", "is_reserved": 0, "rental_uris": {"android": "https://dc.lft.to/lastmile_qr_scan", "ios": "https://dc.lft.to/lastmile_qr_scan"}, "lat": 38.9492395}, {"type": "electric_scooter", "name": "23ad0890c598e82121f107e15294cbdb", "fusion_lat": 0.0, "fusion_lon": 0.0, "lon": -77.03454466666666, "is_disabled": 0, "bike_id": "23ad0890c598e82121f107e15294cbdb", "is_reserved": 0, "rental_uris": {"android": "https://dc.lft.to/lastmile_qr_scan", "ios": "https://dc.lft.to/lastmile_qr_scan"}, "lat": 38.917888}, {"type": "electric_scooter", "name": "9a307ee03073ee672fe4c190cafd2c88", "fusion_lat": 0.0, "fusion_lon": 0.0, "lon": -77.01390466666666, "is_disabled": 0, "bike_id": "9a307ee03073ee672fe4c190cafd2c88", "is_reserved": 0, "rental_uris": {"android": "https://dc.lft.to/lastmile_qr_scan", "ios": "https://dc.lft.to/lastmile_qr_scan"}, "lat": 38.875987333333335}, {"type": "electric_scooter", "name": "8212436dbb9b013bcc7540bf47cc71b9", "fusion_lat": 0.0, "fusion_lon": 0.0, "lon": -77.01337083333334, "is_disabled": 0, "bike_id": "8212436dbb9b013bcc7540bf47cc71b9", "is_reserved": 0, "rental_uris": {"android": "https://dc.lft.to/lastmile_qr_scan", "ios": "https://dc.lft.to/lastmile_qr_scan"}, "lat": 38.89607383333333}, {"type": "electric_scooter", "name": "d11200f1bcc252c8d78d7c8bc3721fc8", "fusion_lat": 0.0, "fusion_lon": 0.0, "lon": -76.938154, "is_disabled": 0, "bike_id": "d11200f1bcc252c8d78d7c8bc3721fc8", "is_reserved": 0, "rental_uris": {"android": "https://dc.lft.to/lastmile_qr_scan", "ios": "https://dc.lft.to/lastmile_qr_scan"}, "lat": 38.898432166666666}, {"type": "electric_scooter", "name": "885d3ac5978e6fc9a3939e3bfddf58a8", "fusion_lat": 0.0, "fusion_lon": 0.0, "lon": -77.03917466666667, "is_disabled": 0, "bike_id": "885d3ac5978e6fc9a3939e3bfddf58a8", "is_reserved": 0, "rental_uris": {"android": "https://dc.lft.to/lastmile_qr_scan", "ios": "https://dc.lft.to/lastmile_qr_scan"}, "lat": 38.92576666666667}, {"type": "electric_bike", "name": "b7eaaf7202f95c7445809a2b3bdf7934", "fusion_lat": 0.0, "fusion_lon": 0.0, "lon": -77.09826983333333, "is_disabled": 0, "bike_id": "b7eaaf7202f95c7445809a2b3bdf7934", "is_reserved": 0, "rental_uris": {"android": "https://dc.lft.to/lastmile_qr_scan", "ios": "https://dc.lft.to/lastmile_qr_scan"}, "lat": 38.850221833333336}, {"type": "electric_scooter", "name": "f1be5fc9afa97aa8f88345315a09b014", "fusion_lat": 0.0, "fusion_lon": 0.0, "lon": -77.04664233333334, "is_disabled": 0, "bike_id": "f1be5fc9afa97aa8f88345315a09b014", "is_reserved": 0, "rental_uris": {"android": "https://dc.lft.to/lastmile_qr_scan", "ios": "https://dc.lft.to/lastmile_qr_scan"}, "lat": 38.906432833333334}, {"type": "electric_bike", "name": "7b7bfa9101d8f2c5eeab4335dbd90b8c", "fusion_lat": 0.0, "fusion_lon": 0.0, "lon": -77.00409883333333, "is_disabled": 0, "bike_id": "7b7bfa9101d8f2c5eeab4335dbd90b8c", "is_reserved": 0, "rental_uris": {"android": "https://dc.lft.to/lastmile_qr_scan", "ios": "https://dc.lft.to/lastmile_qr_scan"}, "lat": 38.98542966666667}, {"type": "electric_scooter", "name": "16d95fe91a3100d037077173fdf8e5d0", "fusion_lat": 0.0, "fusion_lon": 0.0, "lon": -76.9973775, "is_disabled": 0, "bike_id": "16d95fe91a3100d037077173fdf8e5d0", "is_reserved": 0, "rental_uris": {"android": "https://dc.lft.to/lastmile_qr_scan", "ios": "https://dc.lft.to/lastmile_qr_scan"}, "lat": 38.89614666666667}, {"type": "electric_scooter", "name": "21c44532af3b585b010556c038e7ec07", "fusion_lat": 0.0, "fusion_lon": 0.0, "lon": -77.01883016666666, "is_disabled": 0, "bike_id": "21c44532af3b585b010556c038e7ec07", "is_reserved": 0, "rental_uris": {"android": "https://dc.lft.to/lastmile_qr_scan", "ios": "https://dc.lft.to/lastmile_qr_scan"}, "lat": 38.90610516666667}, {"type": "electric_scooter", "name": "fdb48a1274ab552138b76deccb139b1e", "fusion_lat": 0.0, "fusion_lon": 0.0, "lon": -76.99944066666667, "is_disabled": 0, "bike_id": "fdb48a1274ab552138b76deccb139b1e", "is_reserved": 0, "rental_uris": {"android": "https://dc.lft.to/lastmile_qr_scan", "ios": "https://dc.lft.to/lastmile_qr_scan"}, "lat": 38.89172}, {"type": "electric_bike", "name": "82ac3c5f2b99047b857f0414c98f106e", "fusion_lat": 0.0, "fusion_lon": 0.0, "lon": -76.99403783333334, "is_disabled": 0, "bike_id": "82ac3c5f2b99047b857f0414c98f106e", "is_reserved": 0, "rental_uris": {"android": "https://dc.lft.to/lastmile_qr_scan", "ios": "https://dc.lft.to/lastmile_qr_scan"}, "lat": 38.831436833333335}, {"type": "electric_bike", "name": "8a4055be5194419aacc554a65d6a1516", "fusion_lat": 0.0, "fusion_lon": 0.0, "lon": -77.06843566666667, "is_disabled": 0, "bike_id": "8a4055be5194419aacc554a65d6a1516", "is_reserved": 0, "rental_uris": {"android": "https://dc.lft.to/lastmile_qr_scan", "ios": "https://dc.lft.to/lastmile_qr_scan"}, "lat": 38.952910833333334}, {"type": "electric_scooter", "name": "60f6b70edc2c6e00e551c3a2c6a43953", "fusion_lat": 0.0, "fusion_lon": 0.0, "lon": -77.03364066666667, "is_disabled": 0, "bike_id": "60f6b70edc2c6e00e551c3a2c6a43953", "is_reserved": 0, "rental_uris": {"android": "https://dc.lft.to/lastmile_qr_scan", "ios": "https://dc.lft.to/lastmile_qr_scan"}, "lat": 38.921698166666665}, {"type": "electric_scooter", "name": "7e2149b3875d7ad64d98b31af505d12f", "fusion_lat": 0.0, "fusion_lon": 0.0, "lon": -77.02480183333333, "is_disabled": 0, "bike_id": "7e2149b3875d7ad64d98b31af505d12f", "is_reserved": 0, "rental_uris": {"android": "https://dc.lft.to/lastmile_qr_scan", "ios": "https://dc.lft.to/lastmile_qr_scan"}, "lat": 38.9310015}, {"type": "electric_scooter", "name": "a9005083d8483e9751a83b0482317e38", "fusion_lat": 0.0, "fusion_lon": 0.0, "lon": -77.03220916666666, "is_disabled": 0, "bike_id": "a9005083d8483e9751a83b0482317e38", "is_reserved": 0, "rental_uris": {"android": "https://dc.lft.to/lastmile_qr_scan", "ios": "https://dc.lft.to/lastmile_qr_scan"}, "lat": 38.928643666666666}, {"type": "electric_scooter", "name": "b79711cc6dba45a97b8e82e71a7d5f83", "fusion_lat": 0.0, "fusion_lon": 0.0, "lon": -77.04414, "is_disabled": 0, "bike_id": "b79711cc6dba45a97b8e82e71a7d5f83", "is_reserved": 0, "rental_uris": {"android": "https://dc.lft.to/lastmile_qr_scan", "ios": "https://dc.lft.to/lastmile_qr_scan"}, "lat": 38.909073166666666}, {"type": "electric_scooter", "name": "f4a2244a2a7d23b7177efe907c527252", "fusion_lat": 0.0, "fusion_lon": 0.0, "lon": -77.02665333333333, "is_disabled": 0, "bike_id": "f4a2244a2a7d23b7177efe907c527252", "is_reserved": 0, "rental_uris": {"android": "https://dc.lft.to/lastmile_qr_scan", "ios": "https://dc.lft.to/lastmile_qr_scan"}, "lat": 38.9279045}, {"type": "electric_scooter", "name": "16cc263361969eb52a44a778966f00b2", "fusion_lat": 0.0, "fusion_lon": 0.0, "lon": -76.98698466666667, "is_disabled": 0, "bike_id": "16cc263361969eb52a44a778966f00b2", "is_reserved": 0, "rental_uris": {"android": "https://dc.lft.to/lastmile_qr_scan", "ios": "https://dc.lft.to/lastmile_qr_scan"}, "lat": 38.888369833333336}, {"type": "electric_scooter", "name": "0b6fb59bb75b75a7e10406adb227bdb8", "fusion_lat": 0.0, "fusion_lon": 0.0, "lon": -77.03381233333333, "is_disabled": 0, "bike_id": "0b6fb59bb75b75a7e10406adb227bdb8", "is_reserved": 0, "rental_uris": {"android": "https://dc.lft.to/lastmile_qr_scan", "ios": "https://dc.lft.to/lastmile_qr_scan"}, "lat": 38.900269}, {"type": "electric_scooter", "name": "f3f7bd850a3a34c54dfeddc3a1d09257", "fusion_lat": 0.0, "fusion_lon": 0.0, "lon": -77.03567966666667, "is_disabled": 0, "bike_id": "f3f7bd850a3a34c54dfeddc3a1d09257", "is_reserved": 0, "rental_uris": {"android": "https://dc.lft.to/lastmile_qr_scan", "ios": "https://dc.lft.to/lastmile_qr_scan"}, "lat": 38.9247725}, {"type": "electric_scooter", "name": "493c3e7bbf1a3aa9d9803bc6a2a4f507", "fusion_lat": 0.0, "fusion_lon": 0.0, "lon": -77.02972516666667, "is_disabled": 0, "bike_id": "493c3e7bbf1a3aa9d9803bc6a2a4f507", "is_reserved": 0, "rental_uris": {"android": "https://dc.lft.to/lastmile_qr_scan", "ios": "https://dc.lft.to/lastmile_qr_scan"}, "lat": 38.9228915}, {"type": "electric_bike", "name": "3e40568cd5cf2a6fb56510cace559d73", "fusion_lat": 0.0, "fusion_lon": 0.0, "lon": -77.0995615, "is_disabled": 0, "bike_id": "3e40568cd5cf2a6fb56510cace559d73", "is_reserved": 0, "rental_uris": {"android": "https://dc.lft.to/lastmile_qr_scan", "ios": "https://dc.lft.to/lastmile_qr_scan"}, "lat": 38.85791733333333}, {"type": "electric_scooter", "name": "f58961e793e63d222eb1d3104fc3a3c9", "fusion_lat": 0.0, "fusion_lon": 0.0, "lon": -77.02302933333333, "is_disabled": 0, "bike_id": "f58961e793e63d222eb1d3104fc3a3c9", "is_reserved": 0, "rental_uris": {"android": "https://dc.lft.to/lastmile_qr_scan", "ios": "https://dc.lft.to/lastmile_qr_scan"}, "lat": 38.928244166666666}, {"type": "electric_scooter", "name": "d8ca9c90c810746028a891a4f94b8972", "fusion_lat": 0.0, "fusion_lon": 0.0, "lon": -77.00559233333334, "is_disabled": 0, "bike_id": "d8ca9c90c810746028a891a4f94b8972", "is_reserved": 0, "rental_uris": {"android": "https://dc.lft.to/lastmile_qr_scan", "ios": "https://dc.lft.to/lastmile_qr_scan"}, "lat": 38.88038233333333}, {"type": "electric_scooter", "name": "16e36dde616bf2212a35df56266c4762", "fusion_lat": 0.0, "fusion_lon": 0.0, "lon": -77.06116866666666, "is_disabled": 0, "bike_id": "16e36dde616bf2212a35df56266c4762", "is_reserved": 0, "rental_uris": {"android": "https://dc.lft.to/lastmile_qr_scan", "ios": "https://dc.lft.to/lastmile_qr_scan"}, "lat": 38.91286066666667}, {"type": "electric_scooter", "name": "f426008274bad8e74dc3685fabb5e072", "fusion_lat": 0.0, "fusion_lon": 0.0, "lon": -76.9915715, "is_disabled": 0, "bike_id": "f426008274bad8e74dc3685fabb5e072", "is_reserved": 0, "rental_uris": {"android": "https://dc.lft.to/lastmile_qr_scan", "ios": "https://dc.lft.to/lastmile_qr_scan"}, "lat": 38.900386166666664}, {"type": "electric_scooter", "name": "51ff5102268888c07a3434b3ed4a9c18", "fusion_lat": 0.0, "fusion_lon": 0.0, "lon": -77.0230335, "is_disabled": 0, "bike_id": "51ff5102268888c07a3434b3ed4a9c18", "is_reserved": 0, "rental_uris": {"android": "https://dc.lft.to/lastmile_qr_scan", "ios": "https://dc.lft.to/lastmile_qr_scan"}, "lat": 38.89508383333333}, {"type": "electric_scooter", "name": "5d560eb8232c7ed40611dfea2655601e", "fusion_lat": 0.0, "fusion_lon": 0.0, "lon": -77.00300416666667, "is_disabled": 0, "bike_id": "5d560eb8232c7ed40611dfea2655601e", "is_reserved": 0, "rental_uris": {"android": "https://dc.lft.to/lastmile_qr_scan", "ios": "https://dc.lft.to/lastmile_qr_scan"}, "lat": 38.876695}, {"type": "electric_scooter", "name": "4ee86f0728da38b48eb8e5f9fc98d869", "fusion_lat": 0.0, "fusion_lon": 0.0, "lon": -77.03203466666666, "is_disabled": 0, "bike_id": "4ee86f0728da38b48eb8e5f9fc98d869", "is_reserved": 0, "rental_uris": {"android": "https://dc.lft.to/lastmile_qr_scan", "ios": "https://dc.lft.to/lastmile_qr_scan"}, "lat": 38.91193533333333}, {"type": "electric_scooter", "name": "5c1b808126e8c192e1e9ef0d5d67ef03", "fusion_lat": 0.0, "fusion_lon": 0.0, "lon": -76.92996683333334, "is_disabled": 0, "bike_id": "5c1b808126e8c192e1e9ef0d5d67ef03", "is_reserved": 0, "rental_uris": {"android": "https://dc.lft.to/lastmile_qr_scan", "ios": "https://dc.lft.to/lastmile_qr_scan"}, "lat": 38.889878333333336}, {"type": "electric_scooter", "name": "4b070ce36aeb0f8a283a6ce6d6db3060", "fusion_lat": 0.0, "fusion_lon": 0.0, "lon": -77.06453016666667, "is_disabled": 0, "bike_id": "4b070ce36aeb0f8a283a6ce6d6db3060", "is_reserved": 0, "rental_uris": {"android": "https://dc.lft.to/lastmile_qr_scan", "ios": "https://dc.lft.to/lastmile_qr_scan"}, "lat": 38.9488525}, {"type": "electric_scooter", "name": "cf8802898586fbd7130ebe198363e93f", "fusion_lat": 0.0, "fusion_lon": 0.0, "lon": -77.04496466666667, "is_disabled": 0, "bike_id": "cf8802898586fbd7130ebe198363e93f", "is_reserved": 0, "rental_uris": {"android": "https://dc.lft.to/lastmile_qr_scan", "ios": "https://dc.lft.to/lastmile_qr_scan"}, "lat": 38.90946616666667}, {"type": "electric_scooter", "name": "a506688e926f364e90106796495c8f0b", "fusion_lat": 0.0, "fusion_lon": 0.0, "lon": -77.0183185, "is_disabled": 0, "bike_id": "a506688e926f364e90106796495c8f0b", "is_reserved": 0, "rental_uris": {"android": "https://dc.lft.to/lastmile_qr_scan", "ios": "https://dc.lft.to/lastmile_qr_scan"}, "lat": 38.9095575}, {"type": "electric_scooter", "name": "a3df8d03c4d493b18d215966d157f53d", "fusion_lat": 0.0, "fusion_lon": 0.0, "lon": -77.01704433333333, "is_disabled": 0, "bike_id": "a3df8d03c4d493b18d215966d157f53d", "is_reserved": 0, "rental_uris": {"android": "https://dc.lft.to/lastmile_qr_scan", "ios": "https://dc.lft.to/lastmile_qr_scan"}, "lat": 38.87291966666667}, {"type": "electric_scooter", "name": "5f1d890d6a1923871093234764574821", "fusion_lat": 0.0, "fusion_lon": 0.0, "lon": -77.01763583333333, "is_disabled": 0, "bike_id": "5f1d890d6a1923871093234764574821", "is_reserved": 0, "rental_uris": {"android": "https://dc.lft.to/lastmile_qr_scan", "ios": "https://dc.lft.to/lastmile_qr_scan"}, "lat": 38.876837333333334}, {"type": "electric_scooter", "name": "d8559b2b23e83409f50bc62c855655c0", "fusion_lat": 0.0, "fusion_lon": 0.0, "lon": -77.03918366666667, "is_disabled": 0, "bike_id": "d8559b2b23e83409f50bc62c855655c0", "is_reserved": 0, "rental_uris": {"android": "https://dc.lft.to/lastmile_qr_scan", "ios": "https://dc.lft.to/lastmile_qr_scan"}, "lat": 38.92092783333333}, {"type": "electric_scooter", "name": "1a9329cb624194844171ebe3b3ce93a7", "fusion_lat": 0.0, "fusion_lon": 0.0, "lon": -77.0362605, "is_disabled": 0, "bike_id": "1a9329cb624194844171ebe3b3ce93a7", "is_reserved": 0, "rental_uris": {"android": "https://dc.lft.to/lastmile_qr_scan", "ios": "https://dc.lft.to/lastmile_qr_scan"}, "lat": 38.90383416666667}, {"type": "electric_scooter", "name": "df2941df44104d1904aa3d8356a2cb33", "fusion_lat": 0.0, "fusion_lon": 0.0, "lon": -76.9262785, "is_disabled": 0, "bike_id": "df2941df44104d1904aa3d8356a2cb33", "is_reserved": 0, "rental_uris": {"android": "https://dc.lft.to/lastmile_qr_scan", "ios": "https://dc.lft.to/lastmile_qr_scan"}, "lat": 38.883733666666664}, {"type": "electric_scooter", "name": "009583a7d6e27cfc3f21c44a35b4773c", "fusion_lat": 0.0, "fusion_lon": 0.0, "lon": -77.0257395, "is_disabled": 0, "bike_id": "009583a7d6e27cfc3f21c44a35b4773c", "is_reserved": 0, "rental_uris": {"android": "https://dc.lft.to/lastmile_qr_scan", "ios": "https://dc.lft.to/lastmile_qr_scan"}, "lat": 38.90157833333333}, {"type": "electric_scooter", "name": "4a623c1e022957b6070e58d813b93119", "fusion_lat": 0.0, "fusion_lon": 0.0, "lon": -76.94888483333334, "is_disabled": 0, "bike_id": "4a623c1e022957b6070e58d813b93119", "is_reserved": 0, "rental_uris": {"android": "https://dc.lft.to/lastmile_qr_scan", "ios": "https://dc.lft.to/lastmile_qr_scan"}, "lat": 38.89536233333333}, {"type": "electric_scooter", "name": "ff62bd647ec5776cd807c5e70ecead6d", "fusion_lat": 0.0, "fusion_lon": 0.0, "lon": -77.033797, "is_disabled": 0, "bike_id": "ff62bd647ec5776cd807c5e70ecead6d", "is_reserved": 0, "rental_uris": {"android": "https://dc.lft.to/lastmile_qr_scan", "ios": "https://dc.lft.to/lastmile_qr_scan"}, "lat": 38.90962116666667}, {"type": "electric_scooter", "name": "696529d71ed126a31ed0e7f615bba532", "fusion_lat": 0.0, "fusion_lon": 0.0, "lon": -77.03630383333333, "is_disabled": 0, "bike_id": "696529d71ed126a31ed0e7f615bba532", "is_reserved": 0, "rental_uris": {"android": "https://dc.lft.to/lastmile_qr_scan", "ios": "https://dc.lft.to/lastmile_qr_scan"}, "lat": 38.93311333333333},