{"data": {"bikes": [{"name": "d4b86bcf5a5b3e100b1404cff94f907e", "fusion_lat": 0.0, "type": "electric_scooter", "lat": 38.892204666666665, "is_reserved": 0, "is_disabled": 0, "fusion_lon": 0.0, "bike_id": "d4b86bcf5a5b3e100b1404cff94f907e", "lon": -77.0265085, "rental_uris": {"ios": "https://dc.lft.to/lastmile_qr_scan", "android": "https://dc.lft.to/lastmile_qr_scan"}}, {"name": "a55befe3bd989db13d78f03b1c9d2453", "fusion_lat": 0.0, "type": "electric_scooter", "lat": 38.9057265, "is_reserved": 0, "is_disabled": 0, "fusion_lon": 0.0, "bike_id": "a55befe3bd989db13d78f03b1c9d2453", "lon": -77.044994, "rental_uris": {"ios": "https://dc.lft.to/lastmile_qr_scan", "android": "https://dc.lft.to/lastmile_qr_scan"}}, {"name": "92efbbe857c6ed3ecfe0165cc0ff4df3", "fusion_lat": 0.0, "type": "electric_scooter", "lat": 38.893668, "is_reserved": 0, "is_disabled": 0, "fusion_lon": 0.0, "bike_id": "92efbbe857c6ed3ecfe0165cc0ff4df3", "lon": -77.04775766666667, "rental_uris": {"ios": "https://dc.lft.to/lastmile_qr_scan", "android": "https://dc.lft.to/lastmile_qr_scan"}}, {"name": "12bb4dbf1484c9f720cc106870b60e5a", "fusion_lat": 0.0, "type": "electric_scooter", "lat": 38.88431933333333, "is_reserved": 0, "is_disabled": 0, "fusion_lon": 0.0, "bike_id": "12bb4dbf1484c9f720cc106870b60e5a", "lon": -76.99593033333333, "rental_uris": {"ios": "https://dc.lft.to/lastmile_qr_scan", "android": "https://dc.lft.to/lastmile_qr_scan"}}, {"name": "280b87d71e918d7951bd0ccdcd8cd1fc", "fusion_lat": 0.0, "type": "electric_scooter", "lat": 38.90815216666667, "is_reserved": 0, "is_disabled": 0, "fusion_lon": 0.0, "bike_id": "280b87d71e918d7951bd0ccdcd8cd1fc", "lon": -77.00069166666667, "rental_uris": {"ios": "https://dc.lft.to/lastmile_qr_scan", "android": "https://dc.lft.to/lastmile_qr_scan"}}, {"name": "f1ec88fdd1298ad9773900202d3a992c", "fusion_lat": 0.0, "type": "electric_scooter", "lat": 38.92018816666667, "is_reserved": 0, "is_disabled": 0, "fusion_lon": 0.0, "bike_id": "f1ec88fdd1298ad9773900202d3a992c", "lon": -77.0396925, "rental_uris": {"ios": "https://dc.lft.to/lastmile_qr_scan", "android": "https://dc.lft.to/lastmile_qr_scan"}}, {"name": "0a802ff0bc529a5b6c047c20101d8204", "fusion_lat": 0.0, "type": "electric_scooter", "lat": 38.8766925, "is_reserved": 0, "is_disabled": 0, "fusion_lon": 0.0, "bike_id": "0a802ff0bc529a5b6c047c20101d8204", "lon": -77.00064883333333, "rental_uris": {"ios": "https://dc.lft.to/lastmile_qr_scan", "android": "https://dc.lft.to/lastmile_qr_scan"}}, {"name": "1b744bb2168b291ca8f93486a672e1dc", "fusion_lat": 0.0, "type": "electric_scooter", "lat": 38.872342833333335, "is_reserved": 0, "is_disabled": 0, "fusion_lon": 0.0, "bike_id": "1b744bb2168b291ca8f93486a672e1dc", "lon": -77.01166766666667, "rental_uris": {"ios": "https://dc.lft.to/lastmile_qr_scan", "android": "https://dc.lft.to/lastmile_qr_scan"}}, {"name": "3a5c6755c761da76fc14cae76c3dc6dd", "fusion_lat": 0.0, "type": "electric_scooter", "lat": 38.90264716666667, "is_reserved": 0, "is_disabled": 0, "fusion_lon": 0.0, "bike_id": "3a5c6755c761da76fc14cae76c3dc6dd", "lon": -77.017543, "rental_uris": {"ios": "https://dc.lft.to/lastmile_qr_scan", "android": "https://dc.lft.to/lastmile_qr_scan"}}, {"name": "4bfeabafd81852ba628ee46bf840676a", "fusion_lat": 0.0, "type": "electric_bike", "lat": 39.0304385, "is_reserved": 0, "is_disabled": 0, "fusion_lon": 0.0, "bike_id": "4bfeabafd81852ba628ee46bf840676a", "lon": -77.09481616666666, "rental_uris": {"ios": "https://dc.lft.to/lastmile_qr_scan", "android": "https://dc.lft.to/lastmile_qr_scan"}}, {"name": "e44f8ec9025b01ff911e19cef6ec4385", "fusion_lat": 0.0, "type": "electric_scooter", "lat": 38.903792333333335, "is_reserved": 0, "is_disabled": 0, "fusion_lon": 0.0, "bike_id": "e44f8ec9025b01ff911e19cef6ec4385", "lon": -77.0387045, "rental_uris": {"ios": "https://dc.lft.to/lastmile_qr_scan", "android": "https://dc.lft.to/lastmile_qr_scan"}}, {"name": "6678a88214c5088d405866373f37a32e", "fusion_lat": 0.0, "type": "electric_scooter", "lat": 38.89219, "is_reserved": 0, "is_disabled": 0, "fusion_lon": 0.0, "bike_id": "6678a88214c5088d405866373f37a32e", "lon": -77.02142116666667, "rental_uris": {"ios": "https://dc.lft.to/lastmile_qr_scan", "android": "https://dc.lft.to/lastmile_qr_scan"}}, {"name": "37af0491ebd0d2cda9484d1ae828bea5", "fusion_lat": 0.0, "type": "electric_scooter", "lat": 38.9099045, "is_reserved": 0, "is_disabled": 0, "fusion_lon": 0.0, "bike_id": "37af0491ebd0d2cda9484d1ae828bea5", "lon": -77.02388033333334, "rental_uris": {"ios": "https://dc.lft.to/lastmile_qr_scan", "android": "https://dc.lft.to/lastmile_qr_scan"}}, {"name": "98e6f2a0572f3000e828b9bef8e93d7b", "fusion_lat": 0.0, "type": "electric_scooter", "lat": 38.91750666666667, "is_reserved": 0, "is_disabled": 0, "fusion_lon": 0.0, "bike_id": "98e6f2a0572f3000e828b9bef8e93d7b", "lon": -77.03641316666666, "rental_uris": {"ios": "https://dc.lft.to/lastmile_qr_scan", "android": "https://dc.lft.to/lastmile_qr_scan"}}, {"name": "d0ddbf74c86ad82a1ac42335b78fc9eb", "fusion_lat": 0.0, "type": "electric_scooter", "lat": 38.9053995, "is_reserved": 0, "is_disabled": 0, "fusion_lon": 0.0, "bike_id": "d0ddbf74c86ad82a1ac42335b78fc9eb", "lon": -77.05225833333333, "rental_uris": {"ios": "https://dc.lft.to/lastmile_qr_scan", "android": "https://dc.lft.to/lastmile_qr_scan"}}, {"name": "764257715cfbe8de075a072919e6a6a4", "fusion_lat": 0.0, "type": "electric_scooter", "lat": 38.943057, "is_reserved": 0, "is_disabled": 0, "fusion_lon": 0.0, "bike_id": "764257715cfbe8de075a072919e6a6a4", "lon": -77.05930716666667, "rental_uris": {"ios": "https://dc.lft.to/lastmile_qr_scan", "android": "https://dc.lft.to/lastmile_qr_scan"}}, {"name": "2a67c7a9edc2c8a4ff97de8f244c5eda", "fusion_lat": 0.0, "type": "electric_scooter", "lat": 38.908211333333334, "is_reserved": 0, "is_disabled": 0, "fusion_lon": 0.0, "bike_id": "2a67c7a9edc2c8a4ff97de8f244c5eda", "lon": -77.039319, "rental_uris": {"ios": "https://dc.lft.to/lastmile_qr_scan", "android": "https://dc.lft.to/lastmile_qr_scan"}}, {"name": "35e7f02bfa1fa23e40610fc2ef8d0a5f", "fusion_lat": 0.0, "type": "electric_bike", "lat": 39.03881666666667, "is_reserved": 0, "is_disabled": 0, "fusion_lon": 0.0, "bike_id": "35e7f02bfa1fa23e40610fc2ef8d0a5f", "lon": -76.99047066666667, "rental_uris": {"ios": "https://dc.lft.to/lastmile_qr_scan", "android": "https://dc.lft.to/lastmile_qr_scan"}}, {"name": "413d1d713fc17e3dde3551f90f1f44b0", "fusion_lat": 0.0, "type": "electric_scooter", "lat": 38.885112166666666, "is_reserved": 0, "is_disabled": 0, "fusion_lon": 0.0, "bike_id": "413d1d713fc17e3dde3551f90f1f44b0", "lon": -77.03070616666666, "rental_uris": {"ios": "https://dc.lft.to/lastmile_qr_scan", "android": "https://dc.lft.to/lastmile_qr_scan"}}, {"name": "1e934e4b4583b08534a811d515d54418", "fusion_lat": 0.0, "type": "electric_scooter", "lat": 38.90122383333333, "is_reserved": 0, "is_disabled": 0, "fusion_lon": 0.0, "bike_id": "1e934e4b4583b08534a811d515d54418", "lon": -77.041698, "rental_uris": {"ios": "https://dc.lft.to/lastmile_qr_scan", "android": "https://dc.lft.to/lastmile_qr_scan"}}, {"name": "a9d79663cda1eb6ad6f7c905bb8e73fc", "fusion_lat": 0.0, "type": "electric_scooter", "lat": 38.903579666666666, "is_reserved": 0, "is_disabled": 0, "fusion_lon": 0.0, "bike_id": "a9d79663cda1eb6ad6f7c905bb8e73fc", "lon": -77.05375016666666, "rental_uris": {"ios": "https://dc.lft.to/lastmile_qr_scan", "android": "https://dc.lft.to/lastmile_qr_scan"}}, {"name": "029510c10a8537fe5a76536fdb4607ec", "fusion_lat": 0.0, "type": "electric_scooter", "lat": 38.915924, "is_reserved": 0, "is_disabled": 0, "fusion_lon": 0.0, "bike_id": "029510c10a8537fe5a76536fdb4607ec", "lon": -77.044825, "rental_uris": {"ios": "https://dc.lft.to/lastmile_qr_scan", "android": "https://dc.lft.to/lastmile_qr_scan"}}, {"name": "7fc3b5b8fa0a13acaf63bd62b59ca89c", "fusion_lat": 0.0, "type": "electric_scooter", "lat": 38.9048, "is_reserved": 0, "is_disabled": 0, "fusion_lon": 0.0, "bike_id": "7fc3b5b8fa0a13acaf63bd62b59ca89c", "lon": -77.03838633333334, "rental_uris": {"ios": "https://dc.lft.to/lastmile_qr_scan", "android": "https://dc.lft.to/lastmile_qr_scan"}}, {"name": "3bca9aa2f1eac87dc79595987050f324", "fusion_lat": 0.0, "type": "electric_scooter", "lat": 38.9061005, "is_reserved": 0, "is_disabled": 0, "fusion_lon": 0.0, "bike_id": "3bca9aa2f1eac87dc79595987050f324", "lon": -77.03209233333334, "rental_uris": {"ios": "https://dc.lft.to/lastmile_qr_scan", "android": "https://dc.lft.to/lastmile_qr_scan"}}, {"name": "c2e4fad8607cdccfbf58a7743b7adc4e", "fusion_lat": 0.0, "type": "electric_scooter", "lat": 38.88326516666667, "is_reserved": 0, "is_disabled": 0, "fusion_lon": 0.0, "bike_id": "c2e4fad8607cdccfbf58a7743b7adc4e", "lon": -77.01762, "rental_uris": {"ios": "https://dc.lft.to/lastmile_qr_scan", "android": "https://dc.lft.to/lastmile_qr_scan"}}, {"name": "6c44e8c86ac60d581bda61442828329e", "fusion_lat": 0.0, "type": "electric_scooter", "lat": 38.921495, "is_reserved": 0, "is_disabled": 0, "fusion_lon": 0.0, "bike_id": "6c44e8c86ac60d581bda61442828329e", "lon": -77.03511116666667, "rental_uris": {"ios": "https://dc.lft.to/lastmile_qr_scan", "android": "https://dc.lft.to/lastmile_qr_scan"}}, {"name": "c8b2252e7ea0852ef2b73895e5c5486c", "fusion_lat": 0.0, "type": "electric_scooter", "lat": 38.90679333333333, "is_reserved": 0, "is_disabled": 0, "fusion_lon": 0.0, "bike_id": "c8b2252e7ea0852ef2b73895e5c5486c", "lon": -77.03624533333333, "rental_uris": {"ios": "https://dc.lft.to/lastmile_qr_scan", "android": "https://dc.lft.to/lastmile_qr_scan"}}, {"name": "90b82949e6ffa5f138bf846661c923c4", "fusion_lat": 0.0, "type": "electric_scooter", "lat": 38.92314283333333, "is_reserved": 0, "is_disabled": 0, "fusion_lon": 0.0, "bike_id": "90b82949e6ffa5f138bf846661c923c4", "lon": -77.045235, "rental_uris": {"ios": "https://dc.lft.to/lastmile_qr_scan", "android": "https://dc.lft.to/lastmile_qr_scan"}}, {"name": "f5ee9ee028a41d6665d467df86c65c85", "fusion_lat": 0.0, "type": "electric_scooter", "lat": 38.9199145, "is_reserved": 0, "is_disabled": 0, "fusion_lon": 0.0, "bike_id": "f5ee9ee028a41d6665d467df86c65c85", "lon": -77.02184166666666, "rental_uris": {"ios": "https://dc.lft.to/lastmile_qr_scan", "android": "https://dc.lft.to/lastmile_qr_scan"}}, {"name": "8d4b4325e146bb1a8453579784363c46", "fusion_lat": 0.0, "type": "electric_scooter", "lat": 38.91945483333333, "is_reserved": 0, "is_disabled": 0, "fusion_lon": 0.0, "bike_id": "8d4b4325e146bb1a8453579784363c46", "lon": -77.013536, "rental_uris": {"ios": "https://dc.lft.to/lastmile_qr_scan", "android": "https://dc.lft.to/lastmile_qr_scan"}}, {"name": "78bd58f69576475194b7349be1f8c7cd", "fusion_lat": 0.0, "type": "electric_scooter", "lat": 38.887455833333334, "is_reserved": 0, "is_disabled": 0, "fusion_lon": 0.0, "bike_id": "78bd58f69576475194b7349be1f8c7cd", "lon": -77.0257245, "rental_uris": {"ios": "https://dc.lft.to/lastmile_qr_scan", "android": "https://dc.lft.to/lastmile_qr_scan"}}, {"name": "51da6b3803dd42f80e8820c81ff07c99", "fusion_lat": 0.0, "type": "electric_scooter", "lat": 38.91187766666667, "is_reserved": 0, "is_disabled": 0, "fusion_lon": 0.0, "bike_id": "51da6b3803dd42f80e8820c81ff07c99", "lon": -76.99618083333333, "rental_uris": {"ios": "https://dc.lft.to/lastmile_qr_scan", "android": "https://dc.lft.to/lastmile_qr_scan"}}, {"name": "b27b744f8ed45b63772e8a712d959a91", "fusion_lat": 0.0, "type": "electric_scooter", "lat": 38.89833183333333, "is_reserved": 0, "is_disabled": 0, "fusion_lon": 0.0, "bike_id": "b27b744f8ed45b63772e8a712d959a91", "lon": -76.94645316666667, "rental_uris": {"ios": "https://dc.lft.to/lastmile_qr_scan", "android": "https://dc.lft.to/lastmile_qr_scan"}}, {"name": "65952f9ba45bb973e136e6b429926430", "fusion_lat": 0.0, "type": "electric_scooter", "lat": 38.961128333333335, "is_reserved": 0, "is_disabled": 0, "fusion_lon": 0.0, "bike_id": "65952f9ba45bb973e136e6b429926430", "lon": -77.02815566666666, "rental_uris": {"ios": "https://dc.lft.to/lastmile_qr_scan", "android": "https://dc.lft.to/lastmile_qr_scan"}}, {"name": "bbf0ff7193a77246f8b29e6e204578f2", "fusion_lat": 0.0, "type": "electric_scooter", "lat": 38.88496166666667, "is_reserved": 0, "is_disabled": 0, "fusion_lon": 0.0, "bike_id": "bbf0ff7193a77246f8b29e6e204578f2", "lon": -77.00728483333333, "rental_uris": {"ios": "https://dc.lft.to/lastmile_qr_scan", "android": "https://dc.lft.to/lastmile_qr_scan"}}, {"name": "a67d8d5afd349514ed5997b43e549eab", "fusion_lat": 0.0, "type": "electric_scooter", "lat": 38.921479166666664, "is_reserved": 0, "is_disabled": 0, "fusion_lon": 0.0, "bike_id": "a67d8d5afd349514ed5997b43e549eab", "lon": -77.03506733333333, "rental_uris": {"ios": "https://dc.lft.to/lastmile_qr_scan", "android": "https://dc.lft.to/lastmile_qr_scan"}}, {"name": "0998d82570253932d27db2d99d27a9ef", "fusion_lat": 0.0, "type": "electric_scooter", "lat": 38.91217, "is_reserved": 0, "is_disabled": 0, "fusion_lon": 0.0, "bike_id": "0998d82570253932d27db2d99d27a9ef", "lon": -77.07602, "rental_uris": {"ios": "https://dc.lft.to/lastmile_qr_scan", "android": "https://dc.lft.to/lastmile_qr_scan"}}, {"name": "372053d412efb5193d210768c5a5a107", "fusion_lat": 0.0, "type": "electric_scooter", "lat": 38.90257366666667, "is_reserved": 0, "is_disabled": 0, "fusion_lon": 0.0, "bike_id": "372053d412efb5193d210768c5a5a107", "lon": -77.017799, "rental_uris": {"ios": "https://dc.lft.to/lastmile_qr_scan", "android": "https://dc.lft.to/lastmile_qr_scan"}}, {"name": "2050b724e74d7a85f19147c6eb3247d9", "fusion_lat": 0.0, "type": "electric_scooter", "lat": 38.88998, "is_reserved": 0, "is_disabled": 0, "fusion_lon": 0.0, "bike_id": "2050b724e74d7a85f19147c6eb3247d9", "lon": -76.9541535, "rental_uris": {"ios": "https://dc.lft.to/lastmile_qr_scan", "android": "https://dc.lft.to/lastmile_qr_scan"}}, {"name": "15e782808c39ad4a01e83a2abea2a090", "fusion_lat": 0.0, "type": "electric_scooter", "lat": 38.94441833333333, "is_reserved": 0, "is_disabled": 0, "fusion_lon": 0.0, "bike_id": "15e782808c39ad4a01e83a2abea2a090", "lon": -77.06350533333334, "rental_uris": {"ios": "https://dc.lft.to/lastmile_qr_scan", "android": "https://dc.lft.to/lastmile_qr_scan"}}, {"name": "7641ee2beefc3af19001cbc56074495e", "fusion_lat": 0.0, "type": "electric_scooter", "lat": 38.897340666666665, "is_reserved": 0, "is_disabled": 0, "fusion_lon": 0.0, "bike_id": "7641ee2beefc3af19001cbc56074495e", "lon": -76.94720083333333, "rental_uris": {"ios": "https://dc.lft.to/lastmile_qr_scan", "android": "https://dc.lft.to/lastmile_qr_scan"}}, {"name": "3f5ed4be444a2e5683b21222f8968495", "fusion_lat": 0.0, "type": "electric_scooter", "lat": 38.92029483333334, "is_reserved": 0, "is_disabled": 0, "fusion_lon": 0.0, "bike_id": "3f5ed4be444a2e5683b21222f8968495", "lon": -77.01110466666667, "rental_uris": {"ios": "https://dc.lft.to/lastmile_qr_scan", "android": "https://dc.lft.to/lastmile_qr_scan"}}, {"name": "5d10ea6c71695edfdd95b3eaafbc189d", "fusion_lat": 0.0, "type": "electric_scooter", "lat": 38.901355333333335, "is_reserved": 0, "is_disabled": 0, "fusion_lon": 0.0, "bike_id": "5d10ea6c71695edfdd95b3eaafbc189d", "lon": -77.04429333333333, "rental_uris": {"ios": "https://dc.lft.to/lastmile_qr_scan", "android": "https://dc.lft.to/lastmile_qr_scan"}}, {"name": "d3f4c191418bbf1791b9c71687d851b6", "fusion_lat": 0.0, "type": "electric_scooter", "lat": 38.842958833333334, "is_reserved": 0, "is_disabled": 0, "fusion_lon": 0.0, "bike_id": "d3f4c191418bbf1791b9c71687d851b6", "lon": -76.99948233333333, "rental_uris": {"ios": "https://dc.lft.to/lastmile_qr_scan", "android": "https://dc.lft.to/lastmile_qr_scan"}}, {"name": "9cbc9c0c784b4b25b498e074af4ce952", "fusion_lat": 0.0, "type": "electric_scooter", "lat": 38.90034933333333, "is_reserved": 0, "is_disabled": 0, "fusion_lon": 0.0, "bike_id": "9cbc9c0c784b4b25b498e074af4ce952", "lon": -77.011484, "rental_uris": {"ios": "https://dc.lft.to/lastmile_qr_scan", "android": "https://dc.lft.to/lastmile_qr_scan"}}, {"name": "490294374f26202228f49fad3930da94", "fusion_lat": 0.0, "type": "electric_scooter", "lat": 38.9749935, "is_reserved": 0, "is_disabled": 0, "fusion_lon": 0.0, "bike_id": "490294374f26202228f49fad3930da94", "lon": -77.01692716666666, "rental_uris": {"ios": "https://dc.lft.to/lastmile_qr_scan", "android": "https://dc.lft.to/lastmile_qr_scan"}}, {"name": "fccfda35e5b4b797feb7846b0cfeef9f", "fusion_lat": 0.0, "type": "electric_scooter", "lat": 38.905337833333334, "is_reserved": 0, "is_disabled": 0, "fusion_lon": 0.0, "bike_id": "fccfda35e5b4b797feb7846b0cfeef9f", "lon": -77.05039216666667, "rental_uris": {"ios": "https://dc.lft.to/lastmile_qr_scan", "android": "https://dc.lft.to/lastmile_qr_scan"}}, {"name": "868e5f755bedec1c41cae645dbd34ccb", "fusion_lat": 0.0, "type": "electric_scooter", "lat": 38.896674, "is_reserved": 0, "is_disabled": 0, "fusion_lon": 0.0, "bike_id": "868e5f755bedec1c41cae645dbd34ccb", "lon": -77.02582166666667, "rental_uris": {"ios": "https://dc.lft.to/lastmile_qr_scan", "android": "https://dc.lft.to/lastmile_qr_scan"}}, {"name": "28f88114cc8fbeccf71508967e233884", "fusion_lat": 0.0, "type": "electric_scooter", "lat": 38.902433333333335, "is_reserved": 0, "is_disabled": 0, "fusion_lon": 0.0, "bike_id": "28f88114cc8fbeccf71508967e233884", "lon": -77.03162166666667, "rental_uris": {"ios": "https://dc.lft.to/lastmile_qr_scan", "android": "https://dc.lft.to/lastmile_qr_scan"}}, {"name": "7a44820a4eabd7654663b1e6f952d5fc", "fusion_lat": 0.0, "type": "electric_scooter", "lat": 38.900326166666666, "is_reserved": 0, "is_disabled": 0, "fusion_lon": 0.0, "bike_id": "7a44820a4eabd7654663b1e6f952d5fc", "lon": -77.0019915, "rental_uris": {"ios": "https://dc.lft.to/lastmile_qr_scan", "android": "https://dc.lft.to/lastmile_qr_scan"}}, {"name": "aa5f4d5599d7f0be63beeb7bf53bc1f4", "fusion_lat": 0.0, "type": "electric_bike", "lat": 38.820489, "is_reserved": 0, "is_disabled": 0, "fusion_lon": 0.0, "bike_id": "aa5f4d5599d7f0be63beeb7bf53bc1f4", "lon": -77.05312616666667, "rental_uris": {"ios": "https://dc.lft.to/lastmile_qr_scan", "android": "https://dc.lft.to/lastmile_qr_scan"}}, {"name": "69a92284169a7355785265f7c9395fb2", "fusion_lat": 0.0, "type": "electric_scooter", "lat": 38.892202833333336, "is_reserved": 0, "is_disabled": 0, "fusion_lon": 0.0, "bike_id": "69a92284169a7355785265f7c9395fb2", "lon": -77.02653816666667, "rental_uris": {"ios": "https://dc.lft.to/lastmile_qr_scan", "android": "https://dc.lft.to/lastmile_qr_scan"}}, {"name": "7e2bee897769b6e2cb63499912fd906d", "fusion_lat": 0.0, "type": "electric_bike", "lat": 38.96507016666666, "is_reserved": 0, "is_disabled": 0, "fusion_lon": 0.0, "bike_id": "7e2bee897769b6e2cb63499912fd906d", "lon": -77.10334416666667, "rental_uris": {"ios": "https://dc.lft.to/lastmile_qr_scan", "android": "https://dc.lft.to/lastmile_qr_scan"}}, {"name": "a59a1598529f6cc2bda07ceec2cfdb05", "fusion_lat": 0.0, "type": "electric_scooter", "lat": 38.90311633333334, "is_reserved": 0, "is_disabled": 0, "fusion_lon": 0.0, "bike_id": "a59a1598529f6cc2bda07ceec2cfdb05", "lon": -77.0319805, "rental_uris": {"ios": "https://dc.lft.to/lastmile_qr_scan", "android": "https://dc.lft.to/lastmile_qr_scan"}}, {"name": "84dc2ad42d364a7c1b1df96a66621c9a", "fusion_lat": 0.0, "type": "electric_scooter", "lat": 38.93275916666666, "is_reserved": 0, "is_disabled": 0, "fusion_lon": 0.0, "bike_id": "84dc2ad42d364a7c1b1df96a66621c9a", "lon": -77.03497633333333, "rental_uris": {"ios": "https://dc.lft.to/lastmile_qr_scan", "android": "https://dc.lft.to/lastmile_qr_scan"}}, {"name": "dd3b8e4095909319e7e78f2401e6bbcd", "fusion_lat": 0.0, "type": "electric_scooter", "lat": 38.930673, "is_reserved": 0, "is_disabled": 0, "fusion_lon": 0.0, "bike_id": "dd3b8e4095909319e7e78f2401e6bbcd", "lon": -77.033941, "rental_uris": {"ios": "https://dc.lft.to/lastmile_qr_scan", "android": "https://dc.lft.to/lastmile_qr_scan"}}, {"name": "a5ba668ac556321c92f4d52e38e5f1d8", "fusion_lat": 0.0, "type": "electric_bike", "lat": 38.96548083333333, "is_reserved": 0, "is_disabled": 0, "fusion_lon": 0.0, "bike_id": "a5ba668ac556321c92f4d52e38e5f1d8", "lon": -77.03513666666667, "rental_uris": {"ios": "https://dc.lft.to/lastmile_qr_scan", "android": "https://dc.lft.to/lastmile_qr_scan"}}, {"name": "204641de20c4105e91d9df35b421f42a", "fusion_lat": 0.0, "type": "electric_scooter", "lat": 38.900782166666666, "is_reserved": 0, "is_disabled": 0, "fusion_lon": 0.0, "bike_id": "204641de20c4105e91d9df35b421f42a", "lon": -77.03166533333334, "rental_uris": {"ios": "https://dc.lft.to/lastmile_qr_scan", "android": "https://dc.lft.to/lastmile_qr_scan"}}, {"name": "1d67ba17f062a7feaed904f829f78be2", "fusion_lat": 0.0, "type": "electric_scooter", "lat": 38.90368183333333, "is_reserved": 0, "is_disabled": 0, "fusion_lon": 0.0, "bike_id": "1d67ba17f062a7feaed904f829f78be2", "lon": -77.0536495, "rental_uris": {"ios": "https://dc.lft.to/lastmile_qr_scan", "android": "https://dc.lft.to/lastmile_qr_scan"}}, {"name": "8c30c80f9c545ff1e028cf9fa9629608", "fusion_lat": 0.0, "type": "electric_scooter", "lat": 38.865667, "is_reserved": 0, "is_disabled": 0, "fusion_lon": 0.0, "bike_id": "8c30c80f9c545ff1e028cf9fa9629608", "lon": -76.98549266666667, "rental_uris": {"ios": "https://dc.lft.to/lastmile_qr_scan", "android": "https://dc.lft.to/lastmile_qr_scan"}}, {"name": "eeb0527f587224da052eb2aa2a269d3d", "fusion_lat": 0.0, "type": "electric_scooter", "lat": 38.9003505, "is_reserved": 0, "is_disabled": 0, "fusion_lon": 0.0, "bike_id": "eeb0527f587224da052eb2aa2a269d3d", "lon": -77.01150566666666, "rental_uris": {"ios": "https://dc.lft.to/lastmile_qr_scan", "android": "https://dc.lft.to/lastmile_qr_scan"}}, {"name": "64f8e7ffe90b0d426e45b80ac4aca211", "fusion_lat": 0.0, "type": "electric_scooter", "lat": 38.8908935, "is_reserved": 0, "is_disabled": 0, "fusion_lon": 0.0, "bike_id": "64f8e7ffe90b0d426e45b80ac4aca211", "lon": -76.99785966666667, "rental_uris": {"ios": "https://dc.lft.to/lastmile_qr_scan", "android": "https://dc.lft.to/lastmile_qr_scan"}}, {"name": "bbde4fc7995b27bb834c736e5f2bd9fd", "fusion_lat": 0.0, "type": "electric_scooter", "lat": 38.8874395, "is_reserved": 0, "is_disabled": 0, "fusion_lon": 0.0, "bike_id": "bbde4fc7995b27bb834c736e5f2bd9fd", "lon": -77.02221216666666, "rental_uris": {"ios": "https://dc.lft.to/lastmile_qr_scan", "android": "https://dc.lft.to/lastmile_qr_scan"}}, {"name": "d2945fdda47c2c2eb8e246b083b99c8a", "fusion_lat": 0.0, "type": "electric_scooter", "lat": 38.87012383333333, "is_reserved": 0, "is_disabled": 0, "fusion_lon": 0.0, "bike_id": "d2945fdda47c2c2eb8e246b083b99c8a", "lon": -77.01233883333333, "rental_uris": {"ios": "https://dc.lft.to/lastmile_qr_scan", "android": "https://dc.lft.to/lastmile_qr_scan"}}, {"name": "a972c83c89362f6b8bde47b44a809314", "fusion_lat": 0.0, "type": "electric_scooter", "lat": 38.88497733333333, "is_reserved": 0, "is_disabled": 0, "fusion_lon": 0.0, "bike_id": "a972c83c89362f6b8bde47b44a809314", "lon": -77.00725683333333, "rental_uris": {"ios": "https://dc.lft.to/lastmile_qr_scan", "android": "https://dc.lft.to/lastmile_qr_scan"}}, {"name": "8d14ed06a88fe8fac61be22a4e9e23fc", "fusion_lat": 0.0, "type": "electric_scooter", "lat": 38.89843466666667, "is_reserved": 0, "is_disabled": 0, "fusion_lon": 0.0, "bike_id": "8d14ed06a88fe8fac61be22a4e9e23fc", "lon": -77.04833733333334, "rental_uris": {"ios": "https://dc.lft.to/lastmile_qr_scan", "android": "https://dc.lft.to/lastmile_qr_scan"}}, {"name": "0f065f4bcb6cd3c66f5aa784ca491582", "fusion_lat": 0.0, "type": "electric_scooter", "lat": 38.911160833333334, "is_reserved": 0, "is_disabled": 0, "fusion_lon": 0.0, "bike_id": "0f065f4bcb6cd3c66f5aa784ca491582", "lon": -77.03730916666666, "rental_uris": {"ios": "https://dc.lft.to/lastmile_qr_scan", "android": "https://dc.lft.to/lastmile_qr_scan"}}, {"name": "e81c37a76e83f0c6a4df176e656326c8", "fusion_lat": 0.0, "type": "electric_scooter", "lat": 38.903235333333335, "is_reserved": 0, "is_disabled": 0, "fusion_lon": 0.0, "bike_id": "e81c37a76e83f0c6a4df176e656326c8", "lon": -77.05167983333334, "rental_uris": {"ios": "https://dc.lft.to/lastmile_qr_scan", "android": "https://dc.lft.to/lastmile_qr_scan"}}, {"name": "d9eae1d78fe248eecc92efe953bb0dd2", "fusion_lat": 0.0, "type": "electric_scooter", "lat": 38.90165483333333, "is_reserved": 0, "is_disabled": 0, "fusion_lon": 0.0, "bike_id": "d9eae1d78fe248eecc92efe953bb0dd2", "lon": -77.045062, "rental_uris": {"ios": "https://dc.lft.to/lastmile_qr_scan", "android": "https://dc.lft.to/lastmile_qr_scan"}}, {"name": "710ef0db85d4ecd433407175c8b42fdd", "fusion_lat": 0.0, "type": "electric_bike", "lat": 38.865643166666665, "is_reserved": 0, "is_disabled": 0, "fusion_lon": 0.0, "bike_id": "710ef0db85d4ecd433407175c8b42fdd", "lon": -76.97420933333333, "rental_uris": {"ios": "https://dc.lft.to/lastmile_qr_scan", "android": "https://dc.lft.to/lastmile_qr_scan"}}, {"name": "9e038ba2ba56798c846be4cda8b49125", "fusion_lat": 0.0, "type": "electric_scooter", "lat": 38.920220666666665, "is_reserved": 0, "is_disabled": 0, "fusion_lon": 0.0, "bike_id": "9e038ba2ba56798c846be4cda8b49125", "lon": -77.01876366666667, "rental_uris": {"ios": "https://dc.lft.to/lastmile_qr_scan", "android": "https://dc.lft.to/lastmile_qr_scan"}}, {"name": "99415d2c4131240b6c8fb36b5bb12cc5", "fusion_lat": 0.0, "type": "electric_bike", "lat": 38.9436075, "is_reserved": 0, "is_disabled": 0, "fusion_lon": 0.0, "bike_id": "99415d2c4131240b6c8fb36b5bb12cc5", "lon": -77.00344283333334, "rental_uris": {"ios": "https://dc.lft.to/lastmile_qr_scan", "android": "https://dc.lft.to/lastmile_qr_scan"}}, {"name": "85b29a64b4aa7366712b2c142e237db0", "fusion_lat": 0.0, "type": "electric_scooter", "lat": 38.90247633333333, "is_reserved": 0, "is_disabled": 0, "fusion_lon": 0.0, "bike_id": "85b29a64b4aa7366712b2c142e237db0", "lon": -77.00563933333333, "rental_uris": {"ios": "https://dc.lft.to/lastmile_qr_scan", "android": "https://dc.lft.to/lastmile_qr_scan"}}, {"name": "835dca28b22bba02576c4641bfc7bf5d", "fusion_lat": 0.0, "type": "electric_scooter", "lat": 38.906042166666666, "is_reserved": 0, "is_disabled": 0, "fusion_lon": 0.0, "bike_id": "835dca28b22bba02576c4641bfc7bf5d", "lon": -77.05146566666667, "rental_uris": {"ios": "https://dc.lft.to/lastmile_qr_scan", "android": "https://dc.lft.to/lastmile_qr_scan"}}, {"name": "45937508142623e978a6b3b9af73d418", "fusion_lat": 0.0, "type": "electric_scooter", "lat": 38.92214933333333, "is_reserved": 0, "is_disabled": 0, "fusion_lon": 0.0, "bike_id": "45937508142623e978a6b3b9af73d418", "lon": -77.02661866666666, "rental_uris": {"ios": "https://dc.lft.to/lastmile_qr_scan", "android": "https://dc.lft.to/lastmile_qr_scan"}}, {"name": "5797f898c8c35654c9ad90abc10d21c4", "fusion_lat": 0.0, "type": "electric_bike", "lat": 38.90296433333334, "is_reserved": 0, "is_disabled": 0, "fusion_lon": 0.0, "bike_id": "5797f898c8c35654c9ad90abc10d21c4", "lon": -76.9443885, "rental_uris": {"ios": "https://dc.lft.to/lastmile_qr_scan", "android": "https://dc.lft.to/lastmile_qr_scan"}}, {"name": "08810c8f2c92aa8b889e517d95be481a", "fusion_lat": 0.0, "type": "electric_scooter", "lat": 38.91964083333333, "is_reserved": 0, "is_disabled": 0, "fusion_lon": 0.0, "bike_id": "08810c8f2c92aa8b889e517d95be481a", "lon": -77.038568, "rental_uris": {"ios": "https://dc.lft.to/lastmile_qr_scan", "android": "https://dc.lft.to/lastmile_qr_scan"}}, {"name": "c5e9184d5a715818d2bce970cd067f2e", "fusion_lat": 0.0, "type": "electric_scooter", "lat": 38.916774, "is_reserved": 0, "is_disabled": 0, "fusion_lon": 0.0, "bike_id": "c5e9184d5a715818d2bce970cd067f2e", "lon": -77.029844, "rental_uris": {"ios": "https://dc.lft.to/lastmile_qr_scan", "android": "https://dc.lft.to/lastmile_qr_scan"}}, {"name": "57fb80a3aaddad22fd924b81dbb60412", "fusion_lat": 0.0, "type": "electric_scooter", "lat": 38.9172115, "is_reserved": 0, "is_disabled": 0, "fusion_lon": 0.0, "bike_id": "57fb80a3aaddad22fd924b81dbb60412", "lon": -77.01869083333334, "rental_uris": {"ios": "https://dc.lft.to/lastmile_qr_scan", "android": "https://dc.lft.to/lastmile_qr_scan"}}, {"name": "38293c03d028a01a920177424d160f05", "fusion_lat": 0.0, "type": "electric_scooter", "lat": 38.95779, "is_reserved": 0, "is_disabled": 0, "fusion_lon": 0.0, "bike_id": "38293c03d028a01a920177424d160f05", "lon": -77.02766233333334, "rental_uris": {"ios": "https://dc.lft.to/lastmile_qr_scan", "android": "https://dc.lft.to/lastmile_qr_scan"}}, {"name": "9011548e8d5f53ea746865dd553409cd", "fusion_lat": 0.0, "type": "electric_scooter", "lat": 38.89764433333333, "is_reserved": 0, "is_disabled": 0, "fusion_lon": 0.0, "bike_id": "9011548e8d5f53ea746865dd553409cd", "lon": -77.05160033333334, "rental_uris": {"ios": "https://dc.lft.to/lastmile_qr_scan", "android": "https://dc.lft.to/lastmile_qr_scan"}}, {"name": "430fbcc82c401b609fb4671dfe4a4b6a", "fusion_lat": 0.0, "type": "electric_scooter", "lat": 38.9267575, "is_reserved": 0, "is_disabled": 0, "fusion_lon": 0.0, "bike_id": "430fbcc82c401b609fb4671dfe4a4b6a", "lon": -77.03661716666667, "rental_uris": {"ios": "https://dc.lft.to/lastmile_qr_scan", "android": "https://dc.lft.to/lastmile_qr_scan"}}, {"name": "2b10aa27e051121e053c9624b35b9d24", "fusion_lat": 0.0, "type": "electric_scooter", "lat": 38.93087166666667, "is_reserved": 0, "is_disabled": 0, "fusion_lon": 0.0, "bike_id": "2b10aa27e051121e053c9624b35b9d24", "lon": -77.02809833333333, "rental_uris": {"ios": "https://dc.lft.to/lastmile_qr_scan", "android": "https://dc.lft.to/lastmile_qr_scan"}}, {"name": "7d421d211928e597b1e4122003fa4363", "fusion_lat": 0.0, "type": "electric_scooter", "lat": 38.949446, "is_reserved": 0, "is_disabled": 0, "fusion_lon": 0.0, "bike_id": "7d421d211928e597b1e4122003fa4363", "lon": -77.016206, "rental_uris": {"ios": "https://dc.lft.to/lastmile_qr_scan", "android": "https://dc.lft.to/lastmile_qr_scan"}}, {"name": "09a80590aa9bf55a5961dcd7ef4019b6", "fusion_lat": 0.0, "type": "electric_scooter", "lat": 38.906805166666665, "is_reserved": 0, "is_disabled": 0, "fusion_lon": 0.0, "bike_id": "09a80590aa9bf55a5961dcd7ef4019b6", "lon": -77.03779083333333, "rental_uris": {"ios": "https://dc.lft.to/lastmile_qr_scan", "android": "https://dc.lft.to/lastmile_qr_scan"}}, {"name": "702c0741cb1cd90cddf88ea41b16f1b2", "fusion_lat": 0.0, "type": "electric_scooter", "lat": 38.9235935, "is_reserved": 0, "is_disabled": 0, "fusion_lon": 0.0, "bike_id": "702c0741cb1cd90cddf88ea41b16f1b2", "lon": -77.05079166666667, "rental_uris": {"ios": "https://dc.lft.to/lastmile_qr_scan", "android": "https://dc.lft.to/lastmile_qr_scan"}}, {"name": "70d8be1c980ecb9eb2a5dba897f49184", "fusion_lat": 0.0, "type": "electric_scooter", "lat": 38.927921, "is_reserved": 0, "is_disabled": 0, "fusion_lon": 0.0, "bike_id": "70d8be1c980ecb9eb2a5dba897f49184", "lon": -77.04351266666667, "rental_uris": {"ios": "https://dc.lft.to/lastmile_qr_scan", "android": "https://dc.lft.to/lastmile_qr_scan"}}, {"name": "5f35ed62692e51ebaa626505e2245805", "fusion_lat": 0.0, "type": "electric_bike", "lat": 38.874989666666664, "is_reserved": 0, "is_disabled": 0, "fusion_lon": 0.0, "bike_id": "5f35ed62692e51ebaa626505e2245805", "lon": -77.000276, "rental_uris": {"ios": "https://dc.lft.to/lastmile_qr_scan", "android": "https://dc.lft.to/lastmile_qr_scan"}}, {"name": "70233e61487f1e78744fb4d5d8ac12b3", "fusion_lat": 0.0, "type": "electric_scooter", "lat": 38.903423, "is_reserved": 0, "is_disabled": 0, "fusion_lon": 0.0, "bike_id": "70233e61487f1e78744fb4d5d8ac12b3", "lon": -77.038345, "rental_uris": {"ios": "https://dc.lft.to/lastmile_qr_scan", "android": "https://dc.lft.to/lastmile_qr_scan"}}, {"name": "027132fffc85769c7d35683470e0530e", "fusion_lat": 0.0, "type": "electric_bike", "lat": 38.90169383333333, "is_reserved": 0, "is_disabled": 0, "fusion_lon": 0.0, "bike_id": "027132fffc85769c7d35683470e0530e", "lon": -77.02317116666667, "rental_uris": {"ios": "https://dc.lft.to/lastmile_qr_scan", "android": "https://dc.lft.to/lastmile_qr_scan"}}, {"name": "b6c283f9061c98004fc108b22e0bc52d", "fusion_lat": 0.0, "type": "electric_scooter", "lat": 38.942910499999996, "is_reserved": 0, "is_disabled": 0, "fusion_lon": 0.0, "bike_id": "b6c283f9061c98004fc108b22e0bc52d", "lon": -77.02792166666667, "rental_uris": {"ios": "https://dc.lft.to/lastmile_qr_scan", "android": "https://dc.lft.to/lastmile_qr_scan"}}, {"name": "bdd5a3413cc9bd2b27c7e30c0c926bfa", "fusion_lat": 0.0, "type": "electric_scooter", "lat": 38.930134, "is_reserved": 0, "is_disabled": 0, "fusion_lon": 0.0, "bike_id": "bdd5a3413cc9bd2b27c7e30c0c926bfa", "lon": -77.02323683333333, "rental_uris": {"ios": "https://dc.lft.to/lastmile_qr_scan", "android": "https://dc.lft.to/lastmile_qr_scan"}}, {"name": "2b1f6bfc4dc9979e4a215c919f1dec45", "fusion_lat": 0.0, "type": "electric_scooter", "lat": 38.902676666666665, "is_reserved": 0, "is_disabled": 0, "fusion_lon": 0.0, "bike_id": "2b1f6bfc4dc9979e4a215c919f1dec45", "lon": -77.017604, "rental_uris": {"ios": "https://dc.lft.to/lastmile_qr_scan", "android": "https://dc.lft.to/lastmile_qr_scan"}}, {"name": "93869db89d2c583e6227cbea04d7b9af", "fusion_lat": 0.0, "type": "electric_scooter", "lat": 38.92898233333333, "is_reserved": 0, "is_disabled": 0, "fusion_lon": 0.0, "bike_id": "93869db89d2c583e6227cbea04d7b9af", "lon": -77.05456566666666, "rental_uris": {"ios": "https://dc.lft.to/lastmile_qr_scan", "android": "https://dc.lft.to/lastmile_qr_scan"}}, {"name": "3f6769f63b42e2551754be76f693e0be", "fusion_lat": 0.0, "type": "electric_scooter", "lat": 38.90717683333333, "is_reserved": 0, "is_disabled": 0, "fusion_lon": 0.0, "bike_id": "3f6769f63b42e2551754be76f693e0be", "lon": -77.03353783333333, "rental_uris": {"ios": "https://dc.lft.to/lastmile_qr_scan", "android": "https://dc.lft.to/lastmile_qr_scan"}}, {"name": "a42062b017c67983823a31bca55ccd69", "fusion_lat": 0.0, "type": "electric_scooter", "lat": 38.90652583333333, "is_reserved": 0, "is_disabled": 0, "fusion_lon": 0.0, "bike_id": "a42062b017c67983823a31bca55ccd69", "lon": -77.051313, "rental_uris": {"ios": "https://dc.lft.to/lastmile_qr_scan", "android": "https://dc.lft.to/lastmile_qr_scan"}}, {"name": "38c51b8cc7701b1c7dc6a329fcd7e525", "fusion_lat": 0.0, "type": "electric_scooter", "lat": 38.92484233333333, "is_reserved": 0, "is_disabled": 0, "fusion_lon": 0.0, "bike_id": "38c51b8cc7701b1c7dc6a329fcd7e525", "lon": -77.02713983333334, "rental_uris": {"ios": "https://dc.lft.to/lastmile_qr_scan", "android": "https://dc.lft.to/lastmile_qr_scan"}}, {"name": "a2a170bbd4ac3f4ec25ab987b0fe8aeb", "fusion_lat": 0.0, "type": "electric_scooter", "lat": 38.906246833333334, "is_reserved": 0, "is_disabled": 0, "fusion_lon": 0.0, "bike_id": "a2a170bbd4ac3f4ec25ab987b0fe8aeb", "lon": -77.051369, "rental_uris": {"ios": "https://dc.lft.to/lastmile_qr_scan", "android": "https://dc.lft.to/lastmile_qr_scan"}}, {"name": "29d9cfb56aad34c8aa6aa2609824ad9c", "fusion_lat": 0.0, "type": "electric_scooter", "lat": 38.897261, "is_reserved": 0, "is_disabled": 0, "fusion_lon": 0.0, "bike_id": "29d9cfb56aad34c8aa6aa2609824ad9c", "lon": -77.0433455, "rental_uris": {"ios": "https://dc.lft.to/lastmile_qr_scan", "android": "https://dc.lft.to/lastmile_qr_scan"}}, {"name": "4452fe94d000dbd3afadd9e6f5bd666a", "fusion_lat": 0.0, "type": "electric_scooter", "lat": 38.86672933333333, "is_reserved": 0, "is_disabled": 0, "fusion_lon": 0.0, "bike_id": "4452fe94d000dbd3afadd9e6f5bd666a", "lon": -76.98454183333334, "rental_uris": {"ios": "https://dc.lft.to/lastmile_qr_scan", "android": "https://dc.lft.to/lastmile_qr_scan"}}, {"name": "ebd699054e9dc51922e70e0a16d3a681", "fusion_lat": 0.0, "type": "electric_scooter", "lat": 38.89966833333333, "is_reserved": 0, "is_disabled": 0, "fusion_lon": 0.0, "bike_id": "ebd699054e9dc51922e70e0a16d3a681", "lon": -77.03366333333334, "rental_uris": {"ios": "https://dc.lft.to/lastmile_qr_scan", "android": "https://dc.lft.to/lastmile_qr_scan"}}, {"name": "e7ee3f4c5fd119d5e3f0334d1feb1bff", "fusion_lat": 0.0, "type": "electric_scooter", "lat": 38.922341833333334, "is_reserved": 0, "is_disabled": 0, "fusion_lon": 0.0, "bike_id": "e7ee3f4c5fd119d5e3f0334d1feb1bff", "lon": -77.033513, "rental_uris": {"ios": "https://dc.lft.to/lastmile_qr_scan", "android": "https://dc.lft.to/lastmile_qr_scan"}}, {"name": "525add4020c36bfe975695eeb0bf88e3", "fusion_lat": 0.0, "type": "electric_scooter", "lat": 38.8953585, "is_reserved": 0, "is_disabled": 0, "fusion_lon": 0.0, "bike_id": "525add4020c36bfe975695eeb0bf88e3", "lon": -77.0464345, "rental_uris": {"ios": "https://dc.lft.to/lastmile_qr_scan", "android": "https://dc.lft.to/lastmile_qr_scan"}}, {"name": "a5bfcf56cba3a6f31e69b6a98faffd6e", "fusion_lat": 0.0, "type": "electric_bike", "lat": 38.83810916666667, "is_reserved": 0, "is_disabled": 0, "fusion_lon": 0.0, "bike_id": "a5bfcf56cba3a6f31e69b6a98faffd6e", "lon": -77.09522566666666, "rental_uris": {"ios": "https://dc.lft.to/lastmile_qr_scan", "android": "https://dc.lft.to/lastmile_qr_scan"}}, {"name": "b5b2399b3191d6bbdd728e1a22c25bad", "fusion_lat": 0.0, "type": "electric_scooter", "lat": 38.92529966666667, "is_reserved": 0, "is_disabled": 0, "fusion_lon": 0.0, "bike_id": "b5b2399b3191d6bbdd728e1a22c25bad", "lon": -77.05536733333334, "rental_uris": {"ios": "https://dc.lft.to/lastmile_qr_scan", "android": "https://dc.lft.to/lastmile_qr_scan"}}, {"name": "3493c806284b614af1e2e9132ae3f7bc", "fusion_lat": 0.0, "type": "electric_scooter", "lat": 38.901547, "is_reserved": 0, "is_disabled": 0, "fusion_lon": 0.0, "bike_id": "3493c806284b614af1e2e9132ae3f7bc", "lon": -76.93064166666667, "rental_uris": {"ios": "https://dc.lft.to/lastmile_qr_scan", "android": "https://dc.lft.to/lastmile_qr_scan"}}, {"name": "8ef0ed3a7e75b80d6abef7f7396eabea", "fusion_lat": 0.0, "type": "electric_scooter", "lat": 38.89402666666667, "is_reserved": 0, "is_disabled": 0, "fusion_lon": 0.0, "bike_id": "8ef0ed3a7e75b80d6abef7f7396eabea", "lon": -76.9480235, "rental_uris": {"ios": "https://dc.lft.to/lastmile_qr_scan", "android": "https://dc.lft.to/lastmile_qr_scan"}}, {"name": "79038ce200eda5053e65e6f338777ae9", "fusion_lat": 0.0, "type": "electric_scooter", "lat": 38.923551333333336, "is_reserved": 0, "is_disabled": 0, "fusion_lon": 0.0, "bike_id": "79038ce200eda5053e65e6f338777ae9", "lon": -77.05078833333333, "rental_uris": {"ios": "https://dc.lft.to/lastmile_qr_scan", "android": "https://dc.lft.to/lastmile_qr_scan"}}, {"name": "143cf4e4b752cc7a8b22eb9bfcc94538", "fusion_lat": 0.0, "type": "electric_scooter", "lat": 38.857087166666666, "is_reserved": 0, "is_disabled": 0, "fusion_lon": 0.0, "bike_id": "143cf4e4b752cc7a8b22eb9bfcc94538", "lon": -76.98129066666667, "rental_uris": {"ios": "https://dc.lft.to/lastmile_qr_scan", "android": "https://dc.lft.to/lastmile_qr_scan"}}, {"name": "f46c37e40ccd70d5fadec1e57befb9e6", "fusion_lat": 0.0, "type": "electric_scooter", "lat": 38.933303, "is_reserved": 0, "is_disabled": 0, "fusion_lon": 0.0, "bike_id": "f46c37e40ccd70d5fadec1e57befb9e6", "lon": -77.03262883333333, "rental_uris": {"ios": "https://dc.lft.to/lastmile_qr_scan", "android": "https://dc.lft.to/lastmile_qr_scan"}}, {"name": "af3377bda160ff39858715d5a17db0e6", "fusion_lat": 0.0, "type": "electric_scooter", "lat": 38.887418333333336, "is_reserved": 0, "is_disabled": 0, "fusion_lon": 0.0, "bike_id": "af3377bda160ff39858715d5a17db0e6", "lon": -77.02128816666666, "rental_uris": {"ios": "https://dc.lft.to/lastmile_qr_scan", "android": "https://dc.lft.to/lastmile_qr_scan"}}, {"name": "4d0f3c7d72623424c16ccb4e4a8c8715", "fusion_lat": 0.0, "type": "electric_scooter", "lat": 38.9223365, "is_reserved": 0, "is_disabled": 0, "fusion_lon": 0.0, "bike_id": "4d0f3c7d72623424c16ccb4e4a8c8715", "lon": -77.0423775, "rental_uris": {"ios": "https://dc.lft.to/lastmile_qr_scan", "android": "https://dc.lft.to/lastmile_qr_scan"}}, {"name": "98c668e75076541a89a84494acde47a8", "fusion_lat": 0.0, "type": "electric_scooter", "lat": 38.92277983333334, "is_reserved": 0, "is_disabled": 0, "fusion_lon": 0.0, "bike_id": "98c668e75076541a89a84494acde47a8", "lon": -77.04237016666667, "rental_uris": {"ios": "https://dc.lft.to/lastmile_qr_scan", "android": "https://dc.lft.to/lastmile_qr_scan"}}, {"name": "c92fcaad291dc72a25abed3a09c0e8ef", "fusion_lat": 0.0, "type": "electric_scooter", "lat": 38.935815166666664, "is_reserved": 0, "is_disabled": 0, "fusion_lon": 0.0, "bike_id": "c92fcaad291dc72a25abed3a09c0e8ef", "lon": -76.99100416666667, "rental_uris": {"ios": "https://dc.lft.to/lastmile_qr_scan", "android": "https://dc.lft.to/lastmile_qr_scan"}}, {"name": "615ec436f641dedd991eb171475f6711", "fusion_lat": 0.0, "type": "electric_scooter", "lat": 38.8843205, "is_reserved": 0, "is_disabled": 0, "fusion_lon": 0.0, "bike_id": "615ec436f641dedd991eb171475f6711", "lon": -76.95747916666667, "rental_uris": {"ios": "https://dc.lft.to/lastmile_qr_scan", "android": "https://dc.lft.to/lastmile_qr_scan"}}, {"name": "e4bd653b065aeb1dca11634d207a4257", "fusion_lat": 0.0, "type": "electric_scooter", "lat": 38.897361333333336, "is_reserved": 0, "is_disabled": 0, "fusion_lon": 0.0, "bike_id": "e4bd653b065aeb1dca11634d207a4257", "lon": -77.02653866666667, "rental_uris": {"ios": "https://dc.lft.to/lastmile_qr_scan", "android": "https://dc.lft.to/lastmile_qr_scan"}}, {"name": "c27b1f538cbd99669d1202fb5ba5158a", "fusion_lat": 0.0, "type": "electric_scooter", "lat": 38.91518666666666, "is_reserved": 0, "is_disabled": 0, "fusion_lon": 0.0, "bike_id": "c27b1f538cbd99669d1202fb5ba5158a", "lon": -77.0449365, "rental_uris": {"ios": "https://dc.lft.to/lastmile_qr_scan", "android": "https://dc.lft.to/lastmile_qr_scan"}}, {"name": "06e4ecbd0babf8e3965412407918ee48", "fusion_lat": 0.0, "type": "electric_scooter", "lat": 38.90477816666667, "is_reserved": 0, "is_disabled": 0, "fusion_lon": 0.0, "bike_id": "06e4ecbd0babf8e3965412407918ee48", "lon": -77.04174116666667, "rental_uris": {"ios": "https://dc.lft.to/lastmile_qr_scan", "android": "https://dc.lft.to/lastmile_qr_scan"}}, {"name": "ece09b7af52b23d015174c629fc161f3", "fusion_lat": 0.0, "type": "electric_scooter", "lat": 38.914043666666664, "is_reserved": 0, "is_disabled": 0, "fusion_lon": 0.0, "bike_id": "ece09b7af52b23d015174c629fc161f3", "lon": -77.04564866666666, "rental_uris": {"ios": "https://dc.lft.to/lastmile_qr_scan", "android": "https://dc.lft.to/lastmile_qr_scan"}}, {"name": "b2065e1b1e5c42916cbd0ee63032a38a", "fusion_lat": 0.0, "type": "electric_scooter", "lat": 38.9024525, "is_reserved": 0, "is_disabled": 0, "fusion_lon": 0.0, "bike_id": "b2065e1b1e5c42916cbd0ee63032a38a", "lon": -77.00249366666667, "rental_uris": {"ios": "https://dc.lft.to/lastmile_qr_scan", "android": "https://dc.lft.to/lastmile_qr_scan"}}, {"name": "d449aee46621421f2a04c04cc7783bb1", "fusion_lat": 0.0, "type": "electric_bike", "lat": 38.910379, "is_reserved": 0, "is_disabled": 0, "fusion_lon": 0.0, "bike_id": "d449aee46621421f2a04c04cc7783bb1", "lon": -77.03438016666666, "rental_uris": {"ios": "https://dc.lft.to/lastmile_qr_scan", "android": "https://dc.lft.to/lastmile_qr_scan"}}, {"name": "a31e2948ea9720806689103f03610857", "fusion_lat": 0.0, "type": "electric_scooter", "lat": 38.8621975, "is_reserved": 0, "is_disabled": 0, "fusion_lon": 0.0, "bike_id": "a31e2948ea9720806689103f03610857", "lon": -76.994878, "rental_uris": {"ios": "https://dc.lft.to/lastmile_qr_scan", "android": "https://dc.lft.to/lastmile_qr_scan"}}, {"name": "a0a79dbc7c4f0613fe7c5dc12d946630", "fusion_lat": 0.0, "type": "electric_scooter", "lat": 38.9085685, "is_reserved": 0, "is_disabled": 0, "fusion_lon": 0.0, "bike_id": "a0a79dbc7c4f0613fe7c5dc12d946630", "lon": -77.0494325, "rental_uris": {"ios": "https://dc.lft.to/lastmile_qr_scan", "android": "https://dc.lft.to/lastmile_qr_scan"}}, {"name": "74580bc274e340633c1fa152d82b20c5", "fusion_lat": 0.0, "type": "electric_scooter", "lat": 38.90358333333333, "is_reserved": 0, "is_disabled": 0, "fusion_lon": 0.0, "bike_id": "74580bc274e340633c1fa152d82b20c5", "lon": -77.0385545, "rental_uris": {"ios": "https://dc.lft.to/lastmile_qr_scan", "android": "https://dc.lft.to/lastmile_qr_scan"}}, {"name": "822e7dfc8f4c12be10a10dcbeff36091", "fusion_lat": 0.0, "type": "electric_scooter", "lat": 38.90672333333333, "is_reserved": 0, "is_disabled": 0, "fusion_lon": 0.0, "bike_id": "822e7dfc8f4c12be10a10dcbeff36091", "lon": -77.03826483333333, "rental_uris": {"ios": "https://dc.lft.to/lastmile_qr_scan", "android": "https://dc.lft.to/lastmile_qr_scan"}}, {"name": "a5bf5920e33fb1da3ce9a15a5ab5a1fe", "fusion_lat": 0.0, "type": "electric_scooter", "lat": 38.959241, "is_reserved": 0, "is_disabled": 0, "fusion_lon": 0.0, "bike_id": "a5bf5920e33fb1da3ce9a15a5ab5a1fe", "lon": -77.033224, "rental_uris": {"ios": "https://dc.lft.to/lastmile_qr_scan", "android": "https://dc.lft.to/lastmile_qr_scan"}}, {"name": "2adbf7f7f5b25c2fcde941015fe50060", "fusion_lat": 0.0, "type": "electric_scooter", "lat": 38.8980385, "is_reserved": 0, "is_disabled": 0, "fusion_lon": 0.0, "bike_id": "2adbf7f7f5b25c2fcde941015fe50060", "lon": -76.99495416666667, "rental_uris": {"ios": "https://dc.lft.to/lastmile_qr_scan", "android": "https://dc.lft.to/lastmile_qr_scan"}}, {"name": "2f7ede69110c97da711e5e6fde6f8b37", "fusion_lat": 0.0, "type": "electric_scooter", "lat": 38.897301166666665, "is_reserved": 0, "is_disabled": 0, "fusion_lon": 0.0, "bike_id": "2f7ede69110c97da711e5e6fde6f8b37", "lon": -77.02167833333333, "rental_uris": {"ios": "https://dc.lft.to/lastmile_qr_scan", "android": "https://dc.lft.to/lastmile_qr_scan"}}, {"name": "796b7111c15da166d0bfb2ffd300a0b1", "fusion_lat": 0.0, "type": "electric_scooter", "lat": 38.923441833333335, "is_reserved": 0, "is_disabled": 0, "fusion_lon": 0.0, "bike_id": "796b7111c15da166d0bfb2ffd300a0b1", "lon": -77.051036, "rental_uris": {"ios": "https://dc.lft.to/lastmile_qr_scan", "android": "https://dc.lft.to/lastmile_qr_scan"}}, {"name": "ca5190b6a6c321a78e8cd3dbeb09d583", "fusion_lat": 0.0, "type": "electric_scooter", "lat": 38.89642666666667, "is_reserved": 0, "is_disabled": 0, "fusion_lon": 0.0, "bike_id": "ca5190b6a6c321a78e8cd3dbeb09d583", "lon": -77.02684066666667, "rental_uris": {"ios": "https://dc.lft.to/lastmile_qr_scan", "android": "https://dc.lft.to/lastmile_qr_scan"}}, {"name": "a909c89a14bca763e441480a581ffef1", "fusion_lat": 0.0, "type": "electric_scooter", "lat": 38.895534833333336, "is_reserved": 0, "is_disabled": 0, "fusion_lon": 0.0, "bike_id": "a909c89a14bca763e441480a581ffef1", "lon": -76.94878933333334, "rental_uris": {"ios": "https://dc.lft.to/lastmile_qr_scan", "android": "https://dc.lft.to/lastmile_qr_scan"}}, {"name": "af0bc622123b2cd384905cf62ad9c652", "fusion_lat": 0.0, "type": "electric_scooter", "lat": 38.9119, "is_reserved": 0, "is_disabled": 0, "fusion_lon": 0.0, "bike_id": "af0bc622123b2cd384905cf62ad9c652", "lon": -77.032571, "rental_uris": {"ios": "https://dc.lft.to/lastmile_qr_scan", "android": "https://dc.lft.to/lastmile_qr_scan"}}, {"name": "5927b962db6edb3ee06c184a24782cfb", "fusion_lat": 0.0, "type": "electric_scooter", "lat": 38.92355516666667, "is_reserved": 0, "is_disabled": 0, "fusion_lon": 0.0, "bike_id": "5927b962db6edb3ee06c184a24782cfb", "lon": -77.05092766666667, "rental_uris": {"ios": "https://dc.lft.to/lastmile_qr_scan", "android": "https://dc.lft.to/lastmile_qr_scan"}}, {"name": "218879c9207a10088f42463809809dcd", "fusion_lat": 0.0, "type": "electric_scooter", "lat": 38.902793833333334, "is_reserved": 0, "is_disabled": 0, "fusion_lon": 0.0, "bike_id": "218879c9207a10088f42463809809dcd", "lon": -77.03670966666667, "rental_uris": {"ios": "https://dc.lft.to/lastmile_qr_scan", "android": "https://dc.lft.to/lastmile_qr_scan"}}, {"name": "75e781b2e2afeb0b96179da1d389a0c1", "fusion_lat": 0.0, "type": "electric_scooter", "lat": 38.892471666666665, "is_reserved": 0, "is_disabled": 0, "fusion_lon": 0.0, "bike_id": "75e781b2e2afeb0b96179da1d389a0c1", "lon": -77.01949583333334, "rental_uris": {"ios": "https://dc.lft.to/lastmile_qr_scan", "android": "https://dc.lft.to/lastmile_qr_scan"}}, {"name": "eb41afe9e3509cb1f2adbff71b9f4a18", "fusion_lat": 0.0, "type": "electric_scooter", "lat": 38.899026666666664, "is_reserved": 0, "is_disabled": 0, "fusion_lon": 0.0, "bike_id": "eb41afe9e3509cb1f2adbff71b9f4a18", "lon": -77.01510583333334, "rental_uris": {"ios": "https://dc.lft.to/lastmile_qr_scan", "android": "https://dc.lft.to/lastmile_qr_scan"}}, {"name": "4fd91168ab8a603afd219e47ab987368", "fusion_lat": 0.0, "type": "electric_scooter", "lat": 38.91044466666666, "is_reserved": 0, "is_disabled": 0, "fusion_lon": 0.0, "bike_id": "4fd91168ab8a603afd219e47ab987368", "lon": -77.03172466666666, "rental_uris": {"ios": "https://dc.lft.to/lastmile_qr_scan", "android": "https://dc.lft.to/lastmile_qr_scan"}}, {"name": "d2d178c6778f3d16b49177a0c8dcc93c", "fusion_lat": 0.0, "type": "electric_scooter", "lat": 38.862131166666664, "is_reserved": 0, "is_disabled": 0, "fusion_lon": 0.0, "bike_id": "d2d178c6778f3d16b49177a0c8dcc93c", "lon": -76.99468533333334, "rental_uris": {"ios": "https://dc.lft.to/lastmile_qr_scan", "android": "https://dc.lft.to/lastmile_qr_scan"}}, {"name": "515f5ff30c00adadc161be1462790b25", "fusion_lat": 0.0, "type": "electric_scooter", "lat": 38.876700166666666, "is_reserved": 0, "is_disabled": 0, "fusion_lon": 0.0, "bike_id": "515f5ff30c00adadc161be1462790b25", "lon": -77.01777183333333, "rental_uris": {"ios": "https://dc.lft.to/lastmile_qr_scan", "android": "https://dc.lft.to/lastmile_qr_scan"}}, {"name": "b7702e0d38375766e970de1f341be9e4", "fusion_lat": 0.0, "type": "electric_scooter", "lat": 38.91124283333333, "is_reserved": 0, "is_disabled": 0, "fusion_lon": 0.0, "bike_id": "b7702e0d38375766e970de1f341be9e4", "lon": -77.03853733333334, "rental_uris": {"ios": "https://dc.lft.to/lastmile_qr_scan", "android": "https://dc.lft.to/lastmile_qr_scan"}}, {"name": "0180b84b45bd191882944016ae2951be", "fusion_lat": 0.0, "type": "electric_scooter", "lat": 38.928092166666666, "is_reserved": 0, "is_disabled": 0, "fusion_lon": 0.0, "bike_id": "0180b84b45bd191882944016ae2951be", "lon": -77.04327233333333, "rental_uris": {"ios": "https://dc.lft.to/lastmile_qr_scan", "android": "https://dc.lft.to/lastmile_qr_scan"}}, {"name": "df163b972367cb5b41b2f2bc1d066a24", "fusion_lat": 0.0, "type": "electric_scooter", "lat": 38.902678333333334, "is_reserved": 0, "is_disabled": 0, "fusion_lon": 0.0, "bike_id": "df163b972367cb5b41b2f2bc1d066a24", "lon": -77.05314316666667, "rental_uris": {"ios": "https://dc.lft.to/lastmile_qr_scan", "android": "https://dc.lft.to/lastmile_qr_scan"}}, {"name": "9dd813e1495f73c030472d415823f7ec", "fusion_lat": 0.0, "type": "electric_scooter", "lat": 38.863743166666666, "is_reserved": 0, "is_disabled": 0, "fusion_lon": 0.0, "bike_id": "9dd813e1495f73c030472d415823f7ec", "lon": -76.99061183333333, "rental_uris": {"ios": "https://dc.lft.to/lastmile_qr_scan", "android": "https://dc.lft.to/lastmile_qr_scan"}}, {"name": "18083e642a17f74179daaa6161b39c1d", "fusion_lat": 0.0, "type": "electric_scooter", "lat": 38.8938695, "is_reserved": 0, "is_disabled": 0, "fusion_lon": 0.0, "bike_id": "18083e642a17f74179daaa6161b39c1d", "lon": -77.02991916666667, "rental_uris": {"ios": "https://dc.lft.to/lastmile_qr_scan", "android": "https://dc.lft.to/lastmile_qr_scan"}}, {"name": "8349a12ef65e3d567cd9725a05f3bef5", "fusion_lat": 0.0, "type": "electric_scooter", "lat": 38.91497533333333, "is_reserved": 0, "is_disabled": 0, "fusion_lon": 0.0, "bike_id": "8349a12ef65e3d567cd9725a05f3bef5", "lon": -76.983614, "rental_uris": {"ios": "https://dc.lft.to/lastmile_qr_scan", "android": "https://dc.lft.to/lastmile_qr_scan"}}, {"name": "65e10d4a610cb08862a3de8f97eba118", "fusion_lat": 0.0, "type": "electric_scooter", "lat": 38.86657, "is_reserved": 0, "is_disabled": 0, "fusion_lon": 0.0, "bike_id": "65e10d4a610cb08862a3de8f97eba118", "lon": -76.988806, "rental_uris": {"ios": "https://dc.lft.to/lastmile_qr_scan", "android": "https://dc.lft.to/lastmile_qr_scan"}}, {"name": "575cef0f73330193f9a5e29046796022", "fusion_lat": 0.0, "type": "electric_scooter", "lat": 38.917716, "is_reserved": 0, "is_disabled": 0, "fusion_lon": 0.0, "bike_id": "575cef0f73330193f9a5e29046796022", "lon": -77.04167883333334, "rental_uris": {"ios": "https://dc.lft.to/lastmile_qr_scan", "android": "https://dc.lft.to/lastmile_qr_scan"}}, {"name": "379431a632967a2b8c41cc2e66b65b5a", "fusion_lat": 0.0, "type": "electric_scooter", "lat": 38.9386205, "is_reserved": 0, "is_disabled": 0, "fusion_lon": 0.0, "bike_id": "379431a632967a2b8c41cc2e66b65b5a", "lon": -77.02489716666666, "rental_uris": {"ios": "https://dc.lft.to/lastmile_qr_scan", "android": "https://dc.lft.to/lastmile_qr_scan"}}, {"name": "4457eda3423aceeb585cdd022ea18396", "fusion_lat": 0.0, "type": "electric_scooter", "lat": 38.9206595, "is_reserved": 0, "is_disabled": 0, "fusion_lon": 0.0, "bike_id": "4457eda3423aceeb585cdd022ea18396", "lon": -77.02960866666666, "rental_uris": {"ios": "https://dc.lft.to/lastmile_qr_scan", "android": "https://dc.lft.to/lastmile_qr_scan"}}, {"name": "15fcaf7d136f9b0dd5c04fbbea80dde0", "fusion_lat": 0.0, "type": "electric_scooter", "lat": 38.894686666666665, "is_reserved": 0, "is_disabled": 0, "fusion_lon": 0.0, "bike_id": "15fcaf7d136f9b0dd5c04fbbea80dde0", "lon": -77.0013805, "rental_uris": {"ios": "https://dc.lft.to/lastmile_qr_scan", "android": "https://dc.lft.to/lastmile_qr_scan"}}, {"name": "c24d0dcd39609b4a9ee54ec55f6c2568", "fusion_lat": 0.0, "type": "electric_scooter", "lat": 38.90634766666667, "is_reserved": 0, "is_disabled": 0, "fusion_lon": 0.0, "bike_id": "c24d0dcd39609b4a9ee54ec55f6c2568", "lon": -77.00584283333333, "rental_uris": {"ios": "https://dc.lft.to/lastmile_qr_scan", "android": "https://dc.lft.to/lastmile_qr_scan"}}, {"name": "784264dbd7aaa30db2d0a1a2d6a18776", "fusion_lat": 0.0, "type": "electric_scooter", "lat": 38.903823, "is_reserved": 0, "is_disabled": 0, "fusion_lon": 0.0, "bike_id": "784264dbd7aaa30db2d0a1a2d6a18776", "lon": -77.04501983333333, "rental_uris": {"ios": "https://dc.lft.to/lastmile_qr_scan", "android": "https://dc.lft.to/lastmile_qr_scan"}}, {"name": "61ac604fd95f0537568a3d05ac513392", "fusion_lat": 0.0, "type": "electric_scooter", "lat": 38.905762, "is_reserved": 0, "is_disabled": 0, "fusion_lon": 0.0, "bike_id": "61ac604fd95f0537568a3d05ac513392", "lon": -77.04384183333333, "rental_uris": {"ios": "https://dc.lft.to/lastmile_qr_scan", "android": "https://dc.lft.to/lastmile_qr_scan"}}, {"name": "eecefbd68c9ed5aec154df302b8de534", "fusion_lat": 0.0, "type": "electric_scooter", "lat": 38.90377433333333, "is_reserved": 0, "is_disabled": 0, "fusion_lon": 0.0, "bike_id": "eecefbd68c9ed5aec154df302b8de534", "lon": -77.03205383333334, "rental_uris": {"ios": "https://dc.lft.to/lastmile_qr_scan", "android": "https://dc.lft.to/lastmile_qr_scan"}}, {"name": "359239b7e5b4acb3a67567883f391da6", "fusion_lat": 0.0, "type": "electric_scooter", "lat": 38.901539, "is_reserved": 0, "is_disabled": 0, "fusion_lon": 0.0, "bike_id": "359239b7e5b4acb3a67567883f391da6", "lon": -77.045016, "rental_uris": {"ios": "https://dc.lft.to/lastmile_qr_scan", "android": "https://dc.lft.to/lastmile_qr_scan"}}, {"name": "602ede5fb799f92a908e0e0280dbae81", "fusion_lat": 0.0, "type": "electric_scooter", "lat": 38.91149716666666, "is_reserved": 0, "is_disabled": 0, "fusion_lon": 0.0, "bike_id": "602ede5fb799f92a908e0e0280dbae81", "lon": -77.04431866666667, "rental_uris": {"ios": "https://dc.lft.to/lastmile_qr_scan", "android": "https://dc.lft.to/lastmile_qr_scan"}}, {"name": "6ee580d2b40e199e56938812b75ded80", "fusion_lat": 0.0, "type": "electric_bike", "lat": 38.9649235, "is_reserved": 0, "is_disabled": 0, "fusion_lon": 0.0, "bike_id": "6ee580d2b40e199e56938812b75ded80", "lon": -77.0648825, "rental_uris": {"ios": "https://dc.lft.to/lastmile_qr_scan", "android": "https://dc.lft.to/lastmile_qr_scan"}}, {"name": "4b619526be01b0fbfb0fc025e90c675b", "fusion_lat": 0.0, "type": "electric_scooter", "lat": 38.896526333333334, "is_reserved": 0, "is_disabled": 0, "fusion_lon": 0.0, "bike_id": "4b619526be01b0fbfb0fc025e90c675b", "lon": -77.02970483333333, "rental_uris": {"ios": "https://dc.lft.to/lastmile_qr_scan", "android": "https://dc.lft.to/lastmile_qr_scan"}}, {"name": "d918f3b79eebf89b4e31140f13dcfe0e", "fusion_lat": 0.0, "type": "electric_scooter", "lat": 38.920718, "is_reserved": 0, "is_disabled": 0, "fusion_lon": 0.0, "bike_id": "d918f3b79eebf89b4e31140f13dcfe0e", "lon": -77.02409816666666, "rental_uris": {"ios": "https://dc.lft.to/lastmile_qr_scan", "android": "https://dc.lft.to/lastmile_qr_scan"}}, {"name": "d0b8aea54dedb5a435cf5e72413123ba", "fusion_lat": 0.0, "type": "electric_scooter", "lat": 38.898399833333336, "is_reserved": 0, "is_disabled": 0, "fusion_lon": 0.0, "bike_id": "d0b8aea54dedb5a435cf5e72413123ba", "lon": -77.02931466666666, "rental_uris": {"ios": "https://dc.lft.to/lastmile_qr_scan", "android": "https://dc.lft.to/lastmile_qr_scan"}}, {"name": "38da65c9a68f39f1d332e6d25f3694d7", "fusion_lat": 0.0, "type": "electric_scooter", "lat": 38.91985716666667, "is_reserved": 0, "is_disabled": 0, "fusion_lon": 0.0, "bike_id": "38da65c9a68f39f1d332e6d25f3694d7", "lon": -77.02183183333334, "rental_uris": {"ios": "https://dc.lft.to/lastmile_qr_scan", "android": "https://dc.lft.to/lastmile_qr_scan"}}, {"name": "22856bf47a8421258b6509ca5d793475", "fusion_lat": 0.0, "type": "electric_scooter", "lat": 38.89882333333333, "is_reserved": 0, "is_disabled": 0, "fusion_lon": 0.0, "bike_id": "22856bf47a8421258b6509ca5d793475", "lon": -76.93177083333333, "rental_uris": {"ios": "https://dc.lft.to/lastmile_qr_scan", "android": "https://dc.lft.to/lastmile_qr_scan"}}, {"name": "fb61d2705e315575b3fbbfc9463a2c68", "fusion_lat": 0.0, "type": "electric_bike", "lat": 39.0519665, "is_reserved": 0, "is_disabled": 0, "fusion_lon": 0.0, "bike_id": "fb61d2705e315575b3fbbfc9463a2c68", "lon": -77.10919133333333, "rental_uris": {"ios": "https://dc.lft.to/lastmile_qr_scan", "android": "https://dc.lft.to/lastmile_qr_scan"}}, {"name": "546a2b84d34c68d8d92e1aa957928596", "fusion_lat": 0.0, "type": "electric_scooter", "lat": 38.91561383333333, "is_reserved": 0, "is_disabled": 0, "fusion_lon": 0.0, "bike_id": "546a2b84d34c68d8d92e1aa957928596", "lon": -77.02944716666667, "rental_uris": {"ios": "https://dc.lft.to/lastmile_qr_scan", "android": "https://dc.lft.to/lastmile_qr_scan"}}, {"name": "6c86204226effc6078496574f4f3c88a", "fusion_lat": 0.0, "type": "electric_scooter", "lat": 38.914036333333335, "is_reserved": 0, "is_disabled": 0, "fusion_lon": 0.0, "bike_id": "6c86204226effc6078496574f4f3c88a", "lon": -77.039116, "rental_uris": {"ios": "https://dc.lft.to/lastmile_qr_scan", "android": "https://dc.lft.to/lastmile_qr_scan"}}, {"name": "9a1369f8900f7fdea0d321872cebaa22", "fusion_lat": 0.0, "type": "electric_scooter", "lat": 38.86246, "is_reserved": 0, "is_disabled": 0, "fusion_lon": 0.0, "bike_id": "9a1369f8900f7fdea0d321872cebaa22", "lon": -76.99500183333333, "rental_uris": {"ios": "https://dc.lft.to/lastmile_qr_scan", "android": "https://dc.lft.to/lastmile_qr_scan"}}, {"name": "514d1378cff328a1dd4c2f813b610247", "fusion_lat": 0.0, "type": "electric_scooter", "lat": 38.90985666666667, "is_reserved": 0, "is_disabled": 0, "fusion_lon": 0.0, "bike_id": "514d1378cff328a1dd4c2f813b610247", "lon": -77.04874866666667, "rental_uris": {"ios": "https://dc.lft.to/lastmile_qr_scan", "android": "https://dc.lft.to/lastmile_qr_scan"}}, {"name": "80cef894b109903616160284c9fa3866", "fusion_lat": 0.0, "type": "electric_bike", "lat": 38.84158866666667, "is_reserved": 0, "is_disabled": 0, "fusion_lon": 0.0, "bike_id": "80cef894b109903616160284c9fa3866", "lon": -77.08886566666666, "rental_uris": {"ios": "https://dc.lft.to/lastmile_qr_scan", "android": "https://dc.lft.to/lastmile_qr_scan"}}, {"name": "aa814d97a22e6f5f2b3bfb61c77859aa", "fusion_lat": 0.0, "type": "electric_scooter", "lat": 38.90138483333333, "is_reserved": 0, "is_disabled": 0, "fusion_lon": 0.0, "bike_id": "aa814d97a22e6f5f2b3bfb61c77859aa", "lon": -76.99119616666667, "rental_uris": {"ios": "https://dc.lft.to/lastmile_qr_scan", "android": "https://dc.lft.to/lastmile_qr_scan"}}, {"name": "a74e50741875ab77c3aa3f65775e4b40", "fusion_lat": 0.0, "type": "electric_scooter", "lat": 38.92366966666667, "is_reserved": 0, "is_disabled": 0, "fusion_lon": 0.0, "bike_id": "a74e50741875ab77c3aa3f65775e4b40", "lon": -77.01907783333333, "rental_uris": {"ios": "https://dc.lft.to/lastmile_qr_scan", "android": "https://dc.lft.to/lastmile_qr_scan"}}, {"name": "4b1a0a8ceffbb2c3c2efd4e513110e6b", "fusion_lat": 0.0, "type": "electric_scooter", "lat": 38.917769, "is_reserved": 0, "is_disabled": 0, "fusion_lon": 0.0, "bike_id": "4b1a0a8ceffbb2c3c2efd4e513110e6b", "lon": -77.04301333333333, "rental_uris": {"ios": "https://dc.lft.to/lastmile_qr_scan", "android": "https://dc.lft.to/lastmile_qr_scan"}}, {"name": "09ec14fb8701ea79e458808af3235663", "fusion_lat": 0.0, "type": "electric_scooter", "lat": 38.90068566666667, "is_reserved": 0, "is_disabled": 0, "fusion_lon": 0.0, "bike_id": "09ec14fb8701ea79e458808af3235663", "lon": -77.04531366666667, "rental_uris": {"ios": "https://dc.lft.to/lastmile_qr_scan", "android": "https://dc.lft.to/lastmile_qr_scan"}}, {"name": "0aabf91e9c85dd36d4ba60091cc40bc0", "fusion_lat": 0.0, "type": "electric_bike", "lat": 38.8811315, "is_reserved": 0, "is_disabled": 0, "fusion_lon": 0.0, "bike_id": "0aabf91e9c85dd36d4ba60091cc40bc0", "lon": -77.01348266666666, "rental_uris": {"ios": "https://dc.lft.to/lastmile_qr_scan", "android": "https://dc.lft.to/lastmile_qr_scan"}}, {"name": "08af43b6a0b4a75fceda8066571ce3f3", "fusion_lat": 0.0, "type": "electric_scooter", "lat": 38.90067633333334, "is_reserved": 0, "is_disabled": 0, "fusion_lon": 0.0, "bike_id": "08af43b6a0b4a75fceda8066571ce3f3", "lon": -77.00221816666667, "rental_uris": {"ios": "https://dc.lft.to/lastmile_qr_scan", "android": "https://dc.lft.to/lastmile_qr_scan"}}, {"name": "1b684a6c3561a35743f454f7cd98fd44", "fusion_lat": 0.0, "type": "electric_bike", "lat": 38.831557333333336, "is_reserved": 0, "is_disabled": 0, "fusion_lon": 0.0, "bike_id": "1b684a6c3561a35743f454f7cd98fd44", "lon": -77.11318233333333, "rental_uris": {"ios": "https://dc.lft.to/lastmile_qr_scan", "android": "https://dc.lft.to/lastmile_qr_scan"}}, {"name": "f803fa73a6b2f244550880f858048abe", "fusion_lat": 0.0, "type": "electric_scooter", "lat": 38.8954845, "is_reserved": 0, "is_disabled": 0, "fusion_lon": 0.0, "bike_id": "f803fa73a6b2f244550880f858048abe", "lon": -77.00920033333334, "rental_uris": {"ios": "https://dc.lft.to/lastmile_qr_scan", "android": "https://dc.lft.to/lastmile_qr_scan"}}, {"name": "2e3fb05e921f11a3d3f838a21dcdbb2e", "fusion_lat": 0.0, "type": "electric_scooter", "lat": 38.9343235, "is_reserved": 0, "is_disabled": 0, "fusion_lon": 0.0, "bike_id": "2e3fb05e921f11a3d3f838a21dcdbb2e", "lon": -77.03997383333333, "rental_uris": {"ios": "https://dc.lft.to/lastmile_qr_scan", "android": "https://dc.lft.to/lastmile_qr_scan"}}, {"name": "acc4b3936bc400b2061ad2cf0dad080b", "fusion_lat": 0.0, "type": "electric_bike", "lat": 38.84294583333333, "is_reserved": 0, "is_disabled": 0, "fusion_lon": 0.0, "bike_id": "acc4b3936bc400b2061ad2cf0dad080b", "lon": -76.98836916666667, "rental_uris": {"ios": "https://dc.lft.to/lastmile_qr_scan", "android": "https://dc.lft.to/lastmile_qr_scan"}}, {"name": "c1aa2bea46fb1b805ba5f8ab4edb92cf", "fusion_lat": 0.0, "type": "electric_scooter", "lat": 38.90525483333333, "is_reserved": 0, "is_disabled": 0, "fusion_lon": 0.0, "bike_id": "c1aa2bea46fb1b805ba5f8ab4edb92cf", "lon": -77.03463933333333, "rental_uris": {"ios": "https://dc.lft.to/lastmile_qr_scan", "android": "https://dc.lft.to/lastmile_qr_scan"}}, {"name": "751a5a3bc4dbe6eed2050db06cb2c81d", "fusion_lat": 0.0, "type": "electric_scooter", "lat": 38.9014795, "is_reserved": 0, "is_disabled": 0, "fusion_lon": 0.0, "bike_id": "751a5a3bc4dbe6eed2050db06cb2c81d", "lon": -77.04677166666667, "rental_uris": {"ios": "https://dc.lft.to/lastmile_qr_scan", "android": "https://dc.lft.to/lastmile_qr_scan"}}, {"name": "cbd6ce2e3e3cfcd5ff7d20c7f04de91b", "fusion_lat": 0.0, "type": "electric_scooter", "lat": 38.928209333333335, "is_reserved": 0, "is_disabled": 0, "fusion_lon": 0.0, "bike_id": "cbd6ce2e3e3cfcd5ff7d20c7f04de91b", "lon": -77.02257833333333, "rental_uris": {"ios": "https://dc.lft.to/lastmile_qr_scan", "android": "https://dc.lft.to/lastmile_qr_scan"}}, {"name": "3d36353ea7db56cbe2bd1210a338f959", "fusion_lat": 0.0, "type": "electric_scooter", "lat": 38.94203516666666, "is_reserved": 0, "is_disabled": 0, "fusion_lon": 0.0, "bike_id": "3d36353ea7db56cbe2bd1210a338f959", "lon": -77.02511833333334, "rental_uris": {"ios": "https://dc.lft.to/lastmile_qr_scan", "android": "https://dc.lft.to/lastmile_qr_scan"}}, {"name": "fa26b63652ee9beca9d45eab835afd58", "fusion_lat": 0.0, "type": "electric_scooter", "lat": 38.90308366666667, "is_reserved": 0, "is_disabled": 0, "fusion_lon": 0.0, "bike_id": "fa26b63652ee9beca9d45eab835afd58", "lon": -77.03664333333333, "rental_uris": {"ios": "https://dc.lft.to/lastmile_qr_scan", "android": "https://dc.lft.to/lastmile_qr_scan"}}, {"name": "bd9a0022b74baff0a6fa7dbb0364b6e4", "fusion_lat": 0.0, "type": "electric_bike", "lat": 38.924277000000004, "is_reserved": 0, "is_disabled": 0, "fusion_lon": 0.0, "bike_id": "bd9a0022b74baff0a6fa7dbb0364b6e4", "lon": -76.99131066666666, "rental_uris": {"ios": "https://dc.lft.to/lastmile_qr_scan", "android": "https://dc.lft.to/lastmile_qr_scan"}}, {"name": "0c906df392a256ba805bf632f43ec47c", "fusion_lat": 0.0, "type": "electric_scooter", "lat": 38.89222683333333, "is_reserved": 0, "is_disabled": 0, "fusion_lon": 0.0, "bike_id": "0c906df392a256ba805bf632f43ec47c", "lon": -77.03088583333333, "rental_uris": {"ios": "https://dc.lft.to/lastmile_qr_scan", "android": "https://dc.lft.to/lastmile_qr_scan"}}, {"name": "937f88ed557bc3198443d39f79a02118", "fusion_lat": 0.0, "type": "electric_scooter", "lat": 38.905676166666666, "is_reserved": 0, "is_disabled": 0, "fusion_lon": 0.0, "bike_id": "937f88ed557bc3198443d39f79a02118", "lon": -77.02754116666667, "rental_uris": {"ios": "https://dc.lft.to/lastmile_qr_scan", "android": "https://dc.lft.to/lastmile_qr_scan"}}, {"name": "9afd1d35fa5625ee2ea3707698d75253", "fusion_lat": 0.0, "type": "electric_bike", "lat": 39.105643666666666, "is_reserved": 0, "is_disabled": 0, "fusion_lon": 0.0, "bike_id": "9afd1d35fa5625ee2ea3707698d75253", "lon": -77.1526965, "rental_uris": {"ios": "https://dc.lft.to/lastmile_qr_scan", "android": "https://dc.lft.to/lastmile_qr_scan"}}, {"name": "d0adee891d0c0fbd7786fad77ebd743e", "fusion_lat": 0.0, "type": "electric_scooter", "lat": 38.92367383333333, "is_reserved": 0, "is_disabled": 0, "fusion_lon": 0.0, "bike_id": "d0adee891d0c0fbd7786fad77ebd743e", "lon": -77.05029033333334, "rental_uris": {"ios": "https://dc.lft.to/lastmile_qr_scan", "android": "https://dc.lft.to/lastmile_qr_scan"}}, {"name": "2eec4d21d315d0b2cfdb4b1eddafb2a3", "fusion_lat": 0.0, "type": "electric_scooter", "lat": 38.89562183333334, "is_reserved": 0, "is_disabled": 0, "fusion_lon": 0.0, "bike_id": "2eec4d21d315d0b2cfdb4b1eddafb2a3", "lon": -77.04660833333334, "rental_uris": {"ios": "https://dc.lft.to/lastmile_qr_scan", "android": "https://dc.lft.to/lastmile_qr_scan"}}, {"name": "2941da26bc5d00ce91be7aec9a619249", "fusion_lat": 0.0, "type": "electric_scooter", "lat": 38.88081483333333, "is_reserved": 0, "is_disabled": 0, "fusion_lon": 0.0, "bike_id": "2941da26bc5d00ce91be7aec9a619249", "lon": -76.98490716666667, "rental_uris": {"ios": "https://dc.lft.to/lastmile_qr_scan", "android": "https://dc.lft.to/lastmile_qr_scan"}}, {"name": "dabee92bb558ed556b5959dc32f6d9d4", "fusion_lat": 0.0, "type": "electric_scooter", "lat": 38.909705, "is_reserved": 0, "is_disabled": 0, "fusion_lon": 0.0, "bike_id": "dabee92bb558ed556b5959dc32f6d9d4", "lon": -77.03676266666666, "rental_uris": {"ios": "https://dc.lft.to/lastmile_qr_scan", "android": "https://dc.lft.to/lastmile_qr_scan"}}, {"name": "f004b1edb1e17f44e522d81ab2827022", "fusion_lat": 0.0, "type": "electric_scooter", "lat": 38.911955666666664, "is_reserved": 0, "is_disabled": 0, "fusion_lon": 0.0, "bike_id": "f004b1edb1e17f44e522d81ab2827022", "lon": -77.04501883333333, "rental_uris": {"ios": "https://dc.lft.to/lastmile_qr_scan", "android": "https://dc.lft.to/lastmile_qr_scan"}}, {"name": "695a5700a293702067d1fddee6505157", "fusion_lat": 0.0, "type": "electric_bike", "lat": 38.886836, "is_reserved": 0, "is_disabled": 0, "fusion_lon": 0.0, "bike_id": "695a5700a293702067d1fddee6505157", "lon": -77.162509, "rental_uris": {"ios": "https://dc.lft.to/lastmile_qr_scan", "android": "https://dc.lft.to/lastmile_qr_scan"}}, {"name": "62b570d5f87ab23d0aa8a797b4a37f42", "fusion_lat": 0.0, "type": "electric_scooter", "lat": 38.901055666666664, "is_reserved": 0, "is_disabled": 0, "fusion_lon": 0.0, "bike_id": "62b570d5f87ab23d0aa8a797b4a37f42", "lon": -77.03187933333334, "rental_uris": {"ios": "https://dc.lft.to/lastmile_qr_scan", "android": "https://dc.lft.to/lastmile_qr_scan"}}, {"name": "c2bf376b9994f9654f2ee806f4d08200", "fusion_lat": 0.0, "type": "electric_scooter", "lat": 38.92747516666667, "is_reserved": 0, "is_disabled": 0, "fusion_lon": 0.0, "bike_id": "c2bf376b9994f9654f2ee806f4d08200", "lon": -77.024813, "rental_uris": {"ios": "https://dc.lft.to/lastmile_qr_scan", "android": "https://dc.lft.to/lastmile_qr_scan"}}, {"name": "d65452975baa6ef8563c1fa20db63516", "fusion_lat": 0.0, "type": "electric_scooter", "lat": 38.902717833333334, "is_reserved": 0, "is_disabled": 0, "fusion_lon": 0.0, "bike_id": "d65452975baa6ef8563c1fa20db63516", "lon": -77.05312583333334, "rental_uris": {"ios": "https://dc.lft.to/lastmile_qr_scan", "android": "https://dc.lft.to/lastmile_qr_scan"}}, {"name": "a04a9e4a754ae8b4c6c06117241810d3", "fusion_lat": 0.0, "type": "electric_scooter", "lat": 38.94503233333333, "is_reserved": 0, "is_disabled": 0, "fusion_lon": 0.0, "bike_id": "a04a9e4a754ae8b4c6c06117241810d3", "lon": -77.03148466666667, "rental_uris": {"ios": "https://dc.lft.to/lastmile_qr_scan", "android": "https://dc.lft.to/lastmile_qr_scan"}}, {"name": "13e6aae4bbcc41d608d5a6fb8eca1a9d", "fusion_lat": 0.0, "type": "electric_scooter", "lat": 38.920829, "is_reserved": 0, "is_disabled": 0, "fusion_lon": 0.0, "bike_id": "13e6aae4bbcc41d608d5a6fb8eca1a9d", "lon": -77.02543466666667, "rental_uris": {"ios": "https://dc.lft.to/lastmile_qr_scan", "android": "https://dc.lft.to/lastmile_qr_scan"}}, {"name": "7751eb6ceaa2e4554f08149b687b709b", "fusion_lat": 0.0, "type": "electric_scooter", "lat": 38.90073, "is_reserved": 0, "is_disabled": 0, "fusion_lon": 0.0, "bike_id": "7751eb6ceaa2e4554f08149b687b709b", "lon": -77.048926, "rental_uris": {"ios": "https://dc.lft.to/lastmile_qr_scan", "android": "https://dc.lft.to/lastmile_qr_scan"}}, {"name": "2b0f31ddeb2a551a4a7769145628b795", "fusion_lat": 0.0, "type": "electric_scooter", "lat": 38.93355233333333, "is_reserved": 0, "is_disabled": 0, "fusion_lon": 0.0, "bike_id": "2b0f31ddeb2a551a4a7769145628b795", "lon": -77.0572485, "rental_uris": {"ios": "https://dc.lft.to/lastmile_qr_scan", "android": "https://dc.lft.to/lastmile_qr_scan"}}, {"name": "2d361b8b763a049b692e379f6353c0f0", "fusion_lat": 0.0, "type": "electric_scooter", "lat": 38.904850333333336, "is_reserved": 0, "is_disabled": 0, "fusion_lon": 0.0, "bike_id": "2d361b8b763a049b692e379f6353c0f0", "lon": -77.041635, "rental_uris": {"ios": "https://dc.lft.to/lastmile_qr_scan", "android": "https://dc.lft.to/lastmile_qr_scan"}}, {"name": "294b8e42707f9f5a8fa7c21da21b776c", "fusion_lat": 0.0, "type": "electric_scooter", "lat": 38.9096235, "is_reserved": 0, "is_disabled": 0, "fusion_lon": 0.0, "bike_id": "294b8e42707f9f5a8fa7c21da21b776c", "lon": -77.04541566666667, "rental_uris": {"ios": "https://dc.lft.to/lastmile_qr_scan", "android": "https://dc.lft.to/lastmile_qr_scan"}}, {"name": "1ac7dd09488157580916e57462b5c840", "fusion_lat": 0.0, "type": "electric_scooter", "lat": 38.895529333333336, "is_reserved": 0, "is_disabled": 0, "fusion_lon": 0.0, "bike_id": "1ac7dd09488157580916e57462b5c840", "lon": -77.04687116666666, "rental_uris": {"ios": "https://dc.lft.to/lastmile_qr_scan", "android": "https://dc.lft.to/lastmile_qr_scan"}}, {"name": "018a111fef5bad6285917ec15709e186", "fusion_lat": 0.0, "type": "electric_scooter", "lat": 38.89670266666667, "is_reserved": 0, "is_disabled": 0, "fusion_lon": 0.0, "bike_id": "018a111fef5bad6285917ec15709e186", "lon": -77.04890766666666, "rental_uris": {"ios": "https://dc.lft.to/lastmile_qr_scan", "android": "https://dc.lft.to/lastmile_qr_scan"}}, {"name": "0a45e00b9fc3266dd5752ed49e53f040", "fusion_lat": 0.0, "type": "electric_scooter", "lat": 38.924207833333334, "is_reserved": 0, "is_disabled": 0, "fusion_lon": 0.0, "bike_id": "0a45e00b9fc3266dd5752ed49e53f040", "lon": -77.01945116666667, "rental_uris": {"ios": "https://dc.lft.to/lastmile_qr_scan", "android": "https://dc.lft.to/lastmile_qr_scan"}}, {"name": "3c24e9e005673f2475e05c04fea63a19", "fusion_lat": 0.0, "type": "electric_scooter", "lat": 38.928715, "is_reserved": 0, "is_disabled": 0, "fusion_lon": 0.0, "bike_id": "3c24e9e005673f2475e05c04fea63a19", "lon": -77.04121433333333, "rental_uris": {"ios": "https://dc.lft.to/lastmile_qr_scan", "android": "https://dc.lft.to/lastmile_qr_scan"}}, {"name": "777d9e4059a05e280a7a6768e2ef930a", "fusion_lat": 0.0, "type": "electric_bike", "lat": 38.95478933333333, "is_reserved": 0, "is_disabled": 0, "fusion_lon": 0.0, "bike_id": "777d9e4059a05e280a7a6768e2ef930a", "lon": -77.0824095, "rental_uris": {"ios": "https://dc.lft.to/lastmile_qr_scan", "android": "https://dc.lft.to/lastmile_qr_scan"}}, {"name": "e94fada092dce064a778d64450360947", "fusion_lat": 0.0, "type": "electric_scooter", "lat": 38.91475066666667, "is_reserved": 0, "is_disabled": 0, "fusion_lon": 0.0, "bike_id": "e94fada092dce064a778d64450360947", "lon": -77.0097465, "rental_uris": {"ios": "https://dc.lft.to/lastmile_qr_scan", "android": "https://dc.lft.to/lastmile_qr_scan"}}, {"name": "81e85c6771850cd741268bcf3a80a7a5", "fusion_lat": 0.0, "type": "electric_scooter", "lat": 38.90723283333333, "is_reserved": 0, "is_disabled": 0, "fusion_lon": 0.0, "bike_id": "81e85c6771850cd741268bcf3a80a7a5", "lon": -77.04155183333333, "rental_uris": {"ios": "https://dc.lft.to/lastmile_qr_scan", "android": "https://dc.lft.to/lastmile_qr_scan"}}, {"name": "f0ee41726af19f812386a646f2211bbd", "fusion_lat": 0.0, "type": "electric_scooter", "lat": 38.911081833333334, "is_reserved": 0, "is_disabled": 0, "fusion_lon": 0.0, "bike_id": "f0ee41726af19f812386a646f2211bbd", "lon": -77.042286, "rental_uris": {"ios": "https://dc.lft.to/lastmile_qr_scan", "android": "https://dc.lft.to/lastmile_qr_scan"}}, {"name": "118a14712f748c59efe12dc9866668d4", "fusion_lat": 0.0, "type": "electric_scooter", "lat": 38.8740075, "is_reserved": 0, "is_disabled": 0, "fusion_lon": 0.0, "bike_id": "118a14712f748c59efe12dc9866668d4", "lon": -77.00026966666667, "rental_uris": {"ios": "https://dc.lft.to/lastmile_qr_scan", "android": "https://dc.lft.to/lastmile_qr_scan"}}, {"name": "fcdda8515618f45e1ddb466293abb4ac", "fusion_lat": 0.0, "type": "electric_scooter", "lat": 38.936993333333334, "is_reserved": 0, "is_disabled": 0, "fusion_lon": 0.0, "bike_id": "fcdda8515618f45e1ddb466293abb4ac", "lon": -77.06097983333333, "rental_uris": {"ios": "https://dc.lft.to/lastmile_qr_scan", "android": "https://dc.lft.to/lastmile_qr_scan"}}, {"name": "aeec7ec5ca2b9774dea2706172ffa863", "fusion_lat": 0.0, "type": "electric_scooter", "lat": 38.8930125, "is_reserved": 0, "is_disabled": 0, "fusion_lon": 0.0, "bike_id": "aeec7ec5ca2b9774dea2706172ffa863", "lon": -77.0201475, "rental_uris": {"ios": "https://dc.lft.to/lastmile_qr_scan", "android": "https://dc.lft.to/lastmile_qr_scan"}}, {"name": "02fade81d000cf7f8e47acf1b0b2f187", "fusion_lat": 0.0, "type": "electric_bike", "lat": 38.845714666666666, "is_reserved": 0, "is_disabled": 0, "fusion_lon": 0.0, "bike_id": "02fade81d000cf7f8e47acf1b0b2f187", "lon": -77.09622883333333, "rental_uris": {"ios": "https://dc.lft.to/lastmile_qr_scan", "android": "https://dc.lft.to/lastmile_qr_scan"}}, {"name": "db0672324387f1207c8e8974837730f4", "fusion_lat": 0.0, "type": "electric_scooter", "lat": 38.930177666666665, "is_reserved": 0, "is_disabled": 0, "fusion_lon": 0.0, "bike_id": "db0672324387f1207c8e8974837730f4", "lon": -77.023369, "rental_uris": {"ios": "https://dc.lft.to/lastmile_qr_scan", "android": "https://dc.lft.to/lastmile_qr_scan"}}, {"name": "07d9ce121b74bc7ca656aabb3bcb1354", "fusion_lat": 0.0, "type": "electric_scooter", "lat": 38.92437683333333, "is_reserved": 0, "is_disabled": 0, "fusion_lon": 0.0, "bike_id": "07d9ce121b74bc7ca656aabb3bcb1354", "lon": -77.052087, "rental_uris": {"ios": "https://dc.lft.to/lastmile_qr_scan", "android": "https://dc.lft.to/lastmile_qr_scan"}}, {"name": "38813bc41f05bacf6f8040987580e8ca", "fusion_lat": 0.0, "type": "electric_scooter", "lat": 38.91686, "is_reserved": 0, "is_disabled": 0, "fusion_lon": 0.0, "bike_id": "38813bc41f05bacf6f8040987580e8ca", "lon": -77.0320395, "rental_uris": {"ios": "https://dc.lft.to/lastmile_qr_scan", "android": "https://dc.lft.to/lastmile_qr_scan"}}, {"name": "bb59f7e35f9875f1792cdfed1a8b7835", "fusion_lat": 0.0, "type": "electric_bike", "lat": 38.9991, "is_reserved": 0, "is_disabled": 0, "fusion_lon": 0.0, "bike_id": "bb59f7e35f9875f1792cdfed1a8b7835", "lon": -77.0462325, "rental_uris": {"ios": "https://dc.lft.to/lastmile_qr_scan", "android": "https://dc.lft.to/lastmile_qr_scan"}}, {"name": "3da20d2a855b17e5c42a6b4bd9c7c387", "fusion_lat": 0.0, "type": "electric_scooter", "lat": 38.9611275, "is_reserved": 0, "is_disabled": 0, "fusion_lon": 0.0, "bike_id": "3da20d2a855b17e5c42a6b4bd9c7c387", "lon": -77.02816633333333, "rental_uris": {"ios": "https://dc.lft.to/lastmile_qr_scan", "android": "https://dc.lft.to/lastmile_qr_scan"}}, {"name": "f8f76285afa0ddfd21ff7972acf39170", "fusion_lat": 0.0, "type": "electric_scooter", "lat": 38.87454783333333, "is_reserved": 0, "is_disabled": 0, "fusion_lon": 0.0, "bike_id": "f8f76285afa0ddfd21ff7972acf39170", "lon": -77.00754916666666, "rental_uris": {"ios": "https://dc.lft.to/lastmile_qr_scan", "android": "https://dc.lft.to/lastmile_qr_scan"}}, {"name": "68a251922cdce33a9250084f6490b338", "fusion_lat": 0.0, "type": "electric_scooter", "lat": 38.93391416666667, "is_reserved": 0, "is_disabled": 0, "fusion_lon": 0.0, "bike_id": "68a251922cdce33a9250084f6490b338", "lon": -77.03581083333333, "rental_uris": {"ios": "https://dc.lft.to/lastmile_qr_scan", "android": "https://dc.lft.to/lastmile_qr_scan"}}, {"name": "af4f96f6e6e94762adeac0d52d51f8ed", "fusion_lat": 0.0, "type": "electric_scooter", "lat": 38.9315315, "is_reserved": 0, "is_disabled": 0, "fusion_lon": 0.0, "bike_id": "af4f96f6e6e94762adeac0d52d51f8ed", "lon": -77.03880666666667, "rental_uris": {"ios": "https://dc.lft.to/lastmile_qr_scan", "android": "https://dc.lft.to/lastmile_qr_scan"}}, {"name": "9ab70c9967fd85c1ef03a3083090538a", "fusion_lat": 0.0, "type": "electric_scooter", "lat": 38.91100766666667, "is_reserved": 0, "is_disabled": 0, "fusion_lon": 0.0, "bike_id": "9ab70c9967fd85c1ef03a3083090538a", "lon": -77.07347383333334, "rental_uris": {"ios": "https://dc.lft.to/lastmile_qr_scan", "android": "https://dc.lft.to/lastmile_qr_scan"}}, {"name": "815550296dbe3343b18652250f68ed29", "fusion_lat": 0.0, "type": "electric_scooter", "lat": 38.91116016666667, "is_reserved": 0, "is_disabled": 0, "fusion_lon": 0.0, "bike_id": "815550296dbe3343b18652250f68ed29", "lon": -77.04355066666666, "rental_uris": {"ios": "https://dc.lft.to/lastmile_qr_scan", "android": "https://dc.lft.to/lastmile_qr_scan"}}, {"name": "eee8d031c6a593c38f18b0f9168f09b4", "fusion_lat": 0.0, "type": "electric_bike", "lat": 38.89217983333333, "is_reserved": 0, "is_disabled": 0, "fusion_lon": 0.0, "bike_id": "eee8d031c6a593c38f18b0f9168f09b4", "lon": -77.10781866666666, "rental_uris": {"ios": "https://dc.lft.to/lastmile_qr_scan", "android": "https://dc.lft.to/lastmile_qr_scan"}}, {"name": "3a7656b9f052d74a66303598222f8477", "fusion_lat": 0.0, "type": "electric_scooter", "lat": 38.9429, "is_reserved": 0, "is_disabled": 0, "fusion_lon": 0.0, "bike_id": "3a7656b9f052d74a66303598222f8477", "lon": -77.02175216666667, "rental_uris": {"ios": "https://dc.lft.to/lastmile_qr_scan", "android": "https://dc.lft.to/lastmile_qr_scan"}}, {"name": "149c08a9541ac205c5fdbf5ed1e1ac37", "fusion_lat": 0.0, "type": "electric_scooter", "lat": 38.8832635, "is_reserved": 0, "is_disabled": 0, "fusion_lon": 0.0, "bike_id": "149c08a9541ac205c5fdbf5ed1e1ac37", "lon": -77.02408483333333, "rental_uris": {"ios": "https://dc.lft.to/lastmile_qr_scan", "android": "https://dc.lft.to/lastmile_qr_scan"}}, {"name": "3fa6da16b8231701628f9957aebf6ed5", "fusion_lat": 0.0, "type": "electric_scooter", "lat": 38.877593166666664, "is_reserved": 0, "is_disabled": 0, "fusion_lon": 0.0, "bike_id": "3fa6da16b8231701628f9957aebf6ed5", "lon": -76.994178, "rental_uris": {"ios": "https://dc.lft.to/lastmile_qr_scan", "android": "https://dc.lft.to/lastmile_qr_scan"}}, {"name": "3f06a03f92c119b27b3f820c47b5f299", "fusion_lat": 0.0, "type": "electric_scooter", "lat": 38.91254633333333, "is_reserved": 0, "is_disabled": 0, "fusion_lon": 0.0, "bike_id": "3f06a03f92c119b27b3f820c47b5f299", "lon": -77.0315515, "rental_uris": {"ios": "https://dc.lft.to/lastmile_qr_scan", "android": "https://dc.lft.to/lastmile_qr_scan"}}, {"name": "ccbf0b7053faac1abb208c1d9beb0aac", "fusion_lat": 0.0, "type": "electric_scooter", "lat": 38.92266866666667, "is_reserved": 0, "is_disabled": 0, "fusion_lon": 0.0, "bike_id": "ccbf0b7053faac1abb208c1d9beb0aac", "lon": -77.02244166666667, "rental_uris": {"ios": "https://dc.lft.to/lastmile_qr_scan", "android": "https://dc.lft.to/lastmile_qr_scan"}}, {"name": "078f7340f14c9e5550de60fb28021bb2", "fusion_lat": 0.0, "type": "electric_scooter", "lat": 38.94693916666667, "is_reserved": 0, "is_disabled": 0, "fusion_lon": 0.0, "bike_id": "078f7340f14c9e5550de60fb28021bb2", "lon": -77.06990466666667, "rental_uris": {"ios": "https://dc.lft.to/lastmile_qr_scan", "android": "https://dc.lft.to/lastmile_qr_scan"}}, {"name": "f7aeb6db54fd277bf67d5ca93fce8653", "fusion_lat": 0.0, "type": "electric_scooter", "lat": 38.924799666666665, "is_reserved": 0, "is_disabled": 0, "fusion_lon": 0.0, "bike_id": "f7aeb6db54fd277bf67d5ca93fce8653", "lon": -77.05213866666666, "rental_uris": {"ios": "https://dc.lft.to/lastmile_qr_scan", "android": "https://dc.lft.to/lastmile_qr_scan"}}, {"name": "7c3e6f334f5d414ab158146ca60bea67", "fusion_lat": 0.0, "type": "electric_scooter", "lat": 38.90381383333333, "is_reserved": 0, "is_disabled": 0, "fusion_lon": 0.0, "bike_id": "7c3e6f334f5d414ab158146ca60bea67", "lon": -77.04501833333333, "rental_uris": {"ios": "https://dc.lft.to/lastmile_qr_scan", "android": "https://dc.lft.to/lastmile_qr_scan"}}, {"name": "5c2ba644e7215f55dc76a814cda22976", "fusion_lat": 0.0, "type": "electric_scooter", "lat": 38.95286883333333, "is_reserved": 0, "is_disabled": 0, "fusion_lon": 0.0, "bike_id": "5c2ba644e7215f55dc76a814cda22976", "lon": -77.00359983333334, "rental_uris": {"ios": "https://dc.lft.to/lastmile_qr_scan", "android": "https://dc.lft.to/lastmile_qr_scan"}}, {"name": "9bd8b1118decd23051d2229bbd50e781", "fusion_lat": 0.0, "type": "electric_scooter", "lat": 38.90522466666667, "is_reserved": 0, "is_disabled": 0, "fusion_lon": 0.0, "bike_id": "9bd8b1118decd23051d2229bbd50e781", "lon": -77.04172583333333, "rental_uris": {"ios": "https://dc.lft.to/lastmile_qr_scan", "android": "https://dc.lft.to/lastmile_qr_scan"}}, {"name": "d166c0f16e83f6d1404c0c8a68756b4e", "fusion_lat": 0.0, "type": "electric_scooter", "lat": 38.90309766666667, "is_reserved": 0, "is_disabled": 0, "fusion_lon": 0.0, "bike_id": "d166c0f16e83f6d1404c0c8a68756b4e", "lon": -77.03465816666667, "rental_uris": {"ios": "https://dc.lft.to/lastmile_qr_scan", "android": "https://dc.lft.to/lastmile_qr_scan"}}, {"name": "f4743f6755748151fa6a3a013ef29d41", "fusion_lat": 0.0, "type": "electric_scooter", "lat": 38.90966216666666, "is_reserved": 0, "is_disabled": 0, "fusion_lon": 0.0, "bike_id": "f4743f6755748151fa6a3a013ef29d41", "lon": -77.04548883333334, "rental_uris": {"ios": "https://dc.lft.to/lastmile_qr_scan", "android": "https://dc.lft.to/lastmile_qr_scan"}}, {"name": "3318dc2d35339195d32d18b731232a49", "fusion_lat": 0.0, "type": "electric_scooter", "lat": 38.878397166666666, "is_reserved": 0, "is_disabled": 0, "fusion_lon": 0.0, "bike_id": "3318dc2d35339195d32d18b731232a49", "lon": -76.99035966666666, "rental_uris": {"ios": "https://dc.lft.to/lastmile_qr_scan", "android": "https://dc.lft.to/lastmile_qr_scan"}}, {"name": "b595370cb5c3a859028dcc043fd81e77", "fusion_lat": 0.0, "type": "electric_scooter", "lat": 38.84290333333333, "is_reserved": 0, "is_disabled": 0, "fusion_lon": 0.0, "bike_id": "b595370cb5c3a859028dcc043fd81e77", "lon": -76.99947216666666, "rental_uris": {"ios": "https://dc.lft.to/lastmile_qr_scan", "android": "https://dc.lft.to/lastmile_qr_scan"}}, {"name": "79474a35bed50c3ba20dcd24d3b0ed42", "fusion_lat": 0.0, "type": "electric_scooter", "lat": 38.91007666666667, "is_reserved": 0, "is_disabled": 0, "fusion_lon": 0.0, "bike_id": "79474a35bed50c3ba20dcd24d3b0ed42", "lon": -76.99409216666666, "rental_uris": {"ios": "https://dc.lft.to/lastmile_qr_scan", "android": "https://dc.lft.to/lastmile_qr_scan"}}, {"name": "c1f1acf00487cc65f65480668947061b", "fusion_lat": 0.0, "type": "electric_scooter", "lat": 38.912137, "is_reserved": 0, "is_disabled": 0, "fusion_lon": 0.0, "bike_id": "c1f1acf00487cc65f65480668947061b", "lon": -77.075971, "rental_uris": {"ios": "https://dc.lft.to/lastmile_qr_scan", "android": "https://dc.lft.to/lastmile_qr_scan"}}, {"name": "659afd060ccb651661bf14f0bb07aa8e", "fusion_lat": 0.0, "type": "electric_scooter", "lat": 38.90658716666667, "is_reserved": 0, "is_disabled": 0, "fusion_lon": 0.0, "bike_id": "659afd060ccb651661bf14f0bb07aa8e", "lon": -77.00594, "rental_uris": {"ios": "https://dc.lft.to/lastmile_qr_scan", "android": "https://dc.lft.to/lastmile_qr_scan"}}, {"name": "f2bff0ebfde4d5a7b8574e1f602f7f9a", "fusion_lat": 0.0, "type": "electric_scooter", "lat": 38.93486983333333, "is_reserved": 0, "is_disabled": 0, "fusion_lon": 0.0, "bike_id": "f2bff0ebfde4d5a7b8574e1f602f7f9a", "lon": -77.03291166666666, "rental_uris": {"ios": "https://dc.lft.to/lastmile_qr_scan", "android": "https://dc.lft.to/lastmile_qr_scan"}}, {"name": "73dd1413d4f974cd84b3efe3ff762c69", "fusion_lat": 0.0, "type": "electric_scooter", "lat": 38.91906383333333, "is_reserved": 0, "is_disabled": 0, "fusion_lon": 0.0, "bike_id": "73dd1413d4f974cd84b3efe3ff762c69", "lon": -77.01339733333333, "rental_uris": {"ios": "https://dc.lft.to/lastmile_qr_scan", "android": "https://dc.lft.to/lastmile_qr_scan"}}, {"name": "4449526b0051c68e0f813409936381c3", "fusion_lat": 0.0, "type": "electric_scooter", "lat": 38.89868083333333, "is_reserved": 0, "is_disabled": 0, "fusion_lon": 0.0, "bike_id": "4449526b0051c68e0f813409936381c3", "lon": -77.031838, "rental_uris": {"ios": "https://dc.lft.to/lastmile_qr_scan", "android": "https://dc.lft.to/lastmile_qr_scan"}}, {"name": "96854a765c456d1de3abfe143f368cc6", "fusion_lat": 0.0, "type": "electric_scooter", "lat": 38.856165833333336, "is_reserved": 0, "is_disabled": 0, "fusion_lon": 0.0, "bike_id": "96854a765c456d1de3abfe143f368cc6", "lon": -76.9801505, "rental_uris": {"ios": "https://dc.lft.to/lastmile_qr_scan", "android": "https://dc.lft.to/lastmile_qr_scan"}}, {"name": "876a6b0682aba07fc53155ba686b353e", "fusion_lat": 0.0, "type": "electric_scooter", "lat": 38.9126865, "is_reserved": 0, "is_disabled": 0, "fusion_lon": 0.0, "bike_id": "876a6b0682aba07fc53155ba686b353e", "lon": -77.060831, "rental_uris": {"ios": "https://dc.lft.to/lastmile_qr_scan", "android": "https://dc.lft.to/lastmile_qr_scan"}}, {"name": "b2b90e3ed02d84af757ebd0f5f560d3a", "fusion_lat": 0.0, "type": "electric_scooter", "lat": 38.9167335, "is_reserved": 0, "is_disabled": 0, "fusion_lon": 0.0, "bike_id": "b2b90e3ed02d84af757ebd0f5f560d3a", "lon": -77.02982266666666, "rental_uris": {"ios": "https://dc.lft.to/lastmile_qr_scan", "android": "https://dc.lft.to/lastmile_qr_scan"}}, {"name": "5c135a646aaec4ae46b699cd8eaf2298", "fusion_lat": 0.0, "type": "electric_bike", "lat": 38.90684483333333, "is_reserved": 0, "is_disabled": 0, "fusion_lon": 0.0, "bike_id": "5c135a646aaec4ae46b699cd8eaf2298", "lon": -77.05619283333333, "rental_uris": {"ios": "https://dc.lft.to/lastmile_qr_scan", "android": "https://dc.lft.to/lastmile_qr_scan"}}, {"name": "7c3a47fd637a2af910844d63407bd791", "fusion_lat": 0.0, "type": "electric_scooter", "lat": 38.89581716666667, "is_reserved": 0, "is_disabled": 0, "fusion_lon": 0.0, "bike_id": "7c3a47fd637a2af910844d63407bd791", "lon": -76.9371885, "rental_uris": {"ios": "https://dc.lft.to/lastmile_qr_scan", "android": "https://dc.lft.to/lastmile_qr_scan"}}, {"name": "0979bcc45569acef4db70ebffb2d8bce", "fusion_lat": 0.0, "type": "electric_scooter", "lat": 38.90447916666667, "is_reserved": 0, "is_disabled": 0, "fusion_lon": 0.0, "bike_id": "0979bcc45569acef4db70ebffb2d8bce", "lon": -76.99622533333333, "rental_uris": {"ios": "https://dc.lft.to/lastmile_qr_scan", "android": "https://dc.lft.to/lastmile_qr_scan"}}, {"name": "2c2ccb35554044e7067585cb4ff2f556", "fusion_lat": 0.0, "type": "electric_scooter", "lat": 38.918215333333336, "is_reserved": 0, "is_disabled": 0, "fusion_lon": 0.0, "bike_id": "2c2ccb35554044e7067585cb4ff2f556", "lon": -77.012075, "rental_uris": {"ios": "https://dc.lft.to/lastmile_qr_scan", "android": "https://dc.lft.to/lastmile_qr_scan"}}, {"name": "f5db26951360b1ad9b23e396d1d95297", "fusion_lat": 0.0, "type": "electric_scooter", "lat": 38.902659166666666, "is_reserved": 0, "is_disabled": 0, "fusion_lon": 0.0, "bike_id": "f5db26951360b1ad9b23e396d1d95297", "lon": -77.046055, "rental_uris": {"ios": "https://dc.lft.to/lastmile_qr_scan", "android": "https://dc.lft.to/lastmile_qr_scan"}}, {"name": "05fe5429f5a027947a028e9f4b2f332d", "fusion_lat": 0.0, "type": "electric_scooter", "lat": 38.9153015, "is_reserved": 0, "is_disabled": 0, "fusion_lon": 0.0, "bike_id": "05fe5429f5a027947a028e9f4b2f332d", "lon": -77.01220783333333, "rental_uris": {"ios": "https://dc.lft.to/lastmile_qr_scan", "android": "https://dc.lft.to/lastmile_qr_scan"}}, {"name": "b4ff36424d9ea2ad049a518b94b72757", "fusion_lat": 0.0, "type": "electric_scooter", "lat": 38.9097475, "is_reserved": 0, "is_disabled": 0, "fusion_lon": 0.0, "bike_id": "b4ff36424d9ea2ad049a518b94b72757", "lon": -77.01125233333333, "rental_uris": {"ios": "https://dc.lft.to/lastmile_qr_scan", "android": "https://dc.lft.to/lastmile_qr_scan"}}, {"name": "e60b13a6a276dbda12fc0587ce53a827", "fusion_lat": 0.0, "type": "electric_scooter", "lat": 38.89892066666667, "is_reserved": 0, "is_disabled": 0, "fusion_lon": 0.0, "bike_id": "e60b13a6a276dbda12fc0587ce53a827", "lon": -77.03326683333333, "rental_uris": {"ios": "https://dc.lft.to/lastmile_qr_scan", "android": "https://dc.lft.to/lastmile_qr_scan"}}, {"name": "5839a45e58d2c97d09f6c46314c821a1", "fusion_lat": 0.0, "type": "electric_scooter", "lat": 38.9172095, "is_reserved": 0, "is_disabled": 0, "fusion_lon": 0.0, "bike_id": "5839a45e58d2c97d09f6c46314c821a1", "lon": -77.0081755, "rental_uris": {"ios": "https://dc.lft.to/lastmile_qr_scan", "android": "https://dc.lft.to/lastmile_qr_scan"}}, {"name": "0b25bc5529bfe5974e9fb364a4b635e6", "fusion_lat": 0.0, "type": "electric_scooter", "lat": 38.900254333333336, "is_reserved": 0, "is_disabled": 0, "fusion_lon": 0.0, "bike_id": "0b25bc5529bfe5974e9fb364a4b635e6", "lon": -77.03207683333333, "rental_uris": {"ios": "https://dc.lft.to/lastmile_qr_scan", "android": "https://dc.lft.to/lastmile_qr_scan"}}, {"name": "4f8fbeed2cffe899843e5d4c92191aef", "fusion_lat": 0.0, "type": "electric_scooter", "lat": 38.8653835, "is_reserved": 0, "is_disabled": 0, "fusion_lon": 0.0, "bike_id": "4f8fbeed2cffe899843e5d4c92191aef", "lon": -76.9870575, "rental_uris": {"ios": "https://dc.lft.to/lastmile_qr_scan", "android": "https://dc.lft.to/lastmile_qr_scan"}}, {"name": "f3ab0fd50ae745a69fac558d0867b91f", "fusion_lat": 0.0, "type": "electric_scooter", "lat": 38.883285666666666, "is_reserved": 0, "is_disabled": 0, "fusion_lon": 0.0, "bike_id": "f3ab0fd50ae745a69fac558d0867b91f", "lon": -77.01529516666666, "rental_uris": {"ios": "https://dc.lft.to/lastmile_qr_scan", "android": "https://dc.lft.to/lastmile_qr_scan"}}, {"name": "c1081eb27082c202d4160164a0641769", "fusion_lat": 0.0, "type": "electric_scooter", "lat": 38.90243616666667, "is_reserved": 0, "is_disabled": 0, "fusion_lon": 0.0, "bike_id": "c1081eb27082c202d4160164a0641769", "lon": -77.04366983333334, "rental_uris": {"ios": "https://dc.lft.to/lastmile_qr_scan", "android": "https://dc.lft.to/lastmile_qr_scan"}}, {"name": "4820e7173d45940dd33e61b8cc7f1c21", "fusion_lat": 0.0, "type": "electric_scooter", "lat": 38.920663833333336, "is_reserved": 0, "is_disabled": 0, "fusion_lon": 0.0, "bike_id": "4820e7173d45940dd33e61b8cc7f1c21", "lon": -76.978081, "rental_uris": {"ios": "https://dc.lft.to/lastmile_qr_scan", "android": "https://dc.lft.to/lastmile_qr_scan"}}, {"name": "20296faa3827cc3b9a7fb1dd60d45213", "fusion_lat": 0.0, "type": "electric_scooter", "lat": 38.923440166666666, "is_reserved": 0, "is_disabled": 0, "fusion_lon": 0.0, "bike_id": "20296faa3827cc3b9a7fb1dd60d45213", "lon": -77.01906266666667, "rental_uris": {"ios": "https://dc.lft.to/lastmile_qr_scan", "android": "https://dc.lft.to/lastmile_qr_scan"}}, {"name": "4d9123625be0daf2912de170e9fcda52", "fusion_lat": 0.0, "type": "electric_bike", "lat": 38.878708833333334, "is_reserved": 0, "is_disabled": 0, "fusion_lon": 0.0, "bike_id": "4d9123625be0daf2912de170e9fcda52", "lon": -77.02323866666667, "rental_uris": {"ios": "https://dc.lft.to/lastmile_qr_scan", "android": "https://dc.lft.to/lastmile_qr_scan"}}, {"name": "95ac82a167eb8ca80e96dfc65bc0e32c", "fusion_lat": 0.0, "type": "electric_scooter", "lat": 38.92629916666667, "is_reserved": 0, "is_disabled": 0, "fusion_lon": 0.0, "bike_id": "95ac82a167eb8ca80e96dfc65bc0e32c", "lon": -77.03505583333333, "rental_uris": {"ios": "https://dc.lft.to/lastmile_qr_scan", "android": "https://dc.lft.to/lastmile_qr_scan"}}, {"name": "1c53eb0bd4cef31f720c5c3e887744e5", "fusion_lat": 0.0, "type": "electric_scooter", "lat": 38.911777, "is_reserved": 0, "is_disabled": 0, "fusion_lon": 0.0, "bike_id": "1c53eb0bd4cef31f720c5c3e887744e5", "lon": -77.06926583333333, "rental_uris": {"ios": "https://dc.lft.to/lastmile_qr_scan", "android": "https://dc.lft.to/lastmile_qr_scan"}}, {"name": "8afd06d244e6d0d96a3bf108c36704fe", "fusion_lat": 0.0, "type": "electric_bike", "lat": 38.948345833333335, "is_reserved": 0, "is_disabled": 0, "fusion_lon": 0.0, "bike_id": "8afd06d244e6d0d96a3bf108c36704fe", "lon": -77.03899966666667, "rental_uris": {"ios": "https://dc.lft.to/lastmile_qr_scan", "android": "https://dc.lft.to/lastmile_qr_scan"}}, {"name": "cbaf07313851f6b41daa91e6e3b702ba", "fusion_lat": 0.0, "type": "electric_scooter", "lat": 38.90064233333333, "is_reserved": 0, "is_disabled": 0, "fusion_lon": 0.0, "bike_id": "cbaf07313851f6b41daa91e6e3b702ba", "lon": -77.045338, "rental_uris": {"ios": "https://dc.lft.to/lastmile_qr_scan", "android": "https://dc.lft.to/lastmile_qr_scan"}}, {"name": "595a7dc804807df3518e293ce9ad913e", "fusion_lat": 0.0, "type": "electric_scooter", "lat": 38.94751383333333, "is_reserved": 0, "is_disabled": 0, "fusion_lon": 0.0, "bike_id": "595a7dc804807df3518e293ce9ad913e", "lon": -77.03262533333333, "rental_uris": {"ios": "https://dc.lft.to/lastmile_qr_scan", "android": "https://dc.lft.to/lastmile_qr_scan"}}, {"name": "3f728c8a05ff293a5ddc189a62413be3", "fusion_lat": 0.0, "type": "electric_scooter", "lat": 38.92324333333333, "is_reserved": 0, "is_disabled": 0, "fusion_lon": 0.0, "bike_id": "3f728c8a05ff293a5ddc189a62413be3", "lon": -77.0242815, "rental_uris": {"ios": "https://dc.lft.to/lastmile_qr_scan", "android": "https://dc.lft.to/lastmile_qr_scan"}}, {"name": "c02b40ecbdfdd76458beaf9f704de0ab", "fusion_lat": 0.0, "type": "electric_scooter", "lat": 38.93416466666667, "is_reserved": 0, "is_disabled": 0, "fusion_lon": 0.0, "bike_id": "c02b40ecbdfdd76458beaf9f704de0ab", "lon": -77.072552, "rental_uris": {"ios": "https://dc.lft.to/lastmile_qr_scan", "android": "https://dc.lft.to/lastmile_qr_scan"}}, {"name": "44f6e5d7384297ea9c8a4d8a26f86dae", "fusion_lat": 0.0, "type": "electric_scooter", "lat": 38.89467583333333, "is_reserved": 0, "is_disabled": 0, "fusion_lon": 0.0, "bike_id": "44f6e5d7384297ea9c8a4d8a26f86dae", "lon": -77.03071883333334, "rental_uris": {"ios": "https://dc.lft.to/lastmile_qr_scan", "android": "https://dc.lft.to/lastmile_qr_scan"}}, {"name": "b0f7c6de3ceab2acd98e376afaaa2a1c", "fusion_lat": 0.0, "type": "electric_scooter", "lat": 38.902477, "is_reserved": 0, "is_disabled": 0, "fusion_lon": 0.0, "bike_id": "b0f7c6de3ceab2acd98e376afaaa2a1c", "lon": -77.0263115, "rental_uris": {"ios": "https://dc.lft.to/lastmile_qr_scan", "android": "https://dc.lft.to/lastmile_qr_scan"}}, {"name": "f9200e917c4585411a0438ae06ed88d2", "fusion_lat": 0.0, "type": "electric_scooter", "lat": 38.90587683333333, "is_reserved": 0, "is_disabled": 0, "fusion_lon": 0.0, "bike_id": "f9200e917c4585411a0438ae06ed88d2", "lon": -77.04026733333333, "rental_uris": {"ios": "https://dc.lft.to/lastmile_qr_scan", "android": "https://dc.lft.to/lastmile_qr_scan"}}, {"name": "0dac817460e5dbb2ffa183e74170d7b1", "fusion_lat": 0.0, "type": "electric_scooter", "lat": 38.930625, "is_reserved": 0, "is_disabled": 0, "fusion_lon": 0.0, "bike_id": "0dac817460e5dbb2ffa183e74170d7b1", "lon": -77.03187033333333, "rental_uris": {"ios": "https://dc.lft.to/lastmile_qr_scan", "android": "https://dc.lft.to/lastmile_qr_scan"}}, {"name": "4068f34110c26043830e92583c1f9870", "fusion_lat": 0.0, "type": "electric_scooter", "lat": 38.86825416666667, "is_reserved": 0, "is_disabled": 0, "fusion_lon": 0.0, "bike_id": "4068f34110c26043830e92583c1f9870", "lon": -76.986117, "rental_uris": {"ios": "https://dc.lft.to/lastmile_qr_scan", "android": "https://dc.lft.to/lastmile_qr_scan"}}, {"name": "782818ec342657958bf54fdcd839f975", "fusion_lat": 0.0, "type": "electric_scooter", "lat": 38.92477983333333, "is_reserved": 0, "is_disabled": 0, "fusion_lon": 0.0, "bike_id": "782818ec342657958bf54fdcd839f975", "lon": -77.02996066666667, "rental_uris": {"ios": "https://dc.lft.to/lastmile_qr_scan", "android": "https://dc.lft.to/lastmile_qr_scan"}}, {"name": "dccfebca5b3c8266c7a1344ed4137c12", "fusion_lat": 0.0, "type": "electric_scooter", "lat": 38.92315466666667, "is_reserved": 0, "is_disabled": 0, "fusion_lon": 0.0, "bike_id": "dccfebca5b3c8266c7a1344ed4137c12", "lon": -77.0350945, "rental_uris": {"ios": "https://dc.lft.to/lastmile_qr_scan", "android": "https://dc.lft.to/lastmile_qr_scan"}}, {"name": "1b29ee0a7e43299ce8b56a7b4462ef3d", "fusion_lat": 0.0, "type": "electric_scooter", "lat": 38.88584483333333, "is_reserved": 0, "is_disabled": 0, "fusion_lon": 0.0, "bike_id": "1b29ee0a7e43299ce8b56a7b4462ef3d", "lon": -76.99503666666666, "rental_uris": {"ios": "https://dc.lft.to/lastmile_qr_scan", "android": "https://dc.lft.to/lastmile_qr_scan"}}, {"name": "4f33d9db7a10ec497eeb00ffbb1606fa", "fusion_lat": 0.0, "type": "electric_scooter", "lat": 38.92752466666666, "is_reserved": 0, "is_disabled": 0, "fusion_lon": 0.0, "bike_id": "4f33d9db7a10ec497eeb00ffbb1606fa", "lon": -77.02290566666667, "rental_uris": {"ios": "https://dc.lft.to/lastmile_qr_scan", "android": "https://dc.lft.to/lastmile_qr_scan"}}, {"name": "2764b9e1f864e8dcad228bb65df7eea0", "fusion_lat": 0.0, "type": "electric_scooter", "lat": 38.915816, "is_reserved": 0, "is_disabled": 0, "fusion_lon": 0.0, "bike_id": "2764b9e1f864e8dcad228bb65df7eea0", "lon": -77.04263116666667, "rental_uris": {"ios": "https://dc.lft.to/lastmile_qr_scan", "android": "https://dc.lft.to/lastmile_qr_scan"}}, {"name": "1785207ce497f6e0b4ac5f95abe99a93", "fusion_lat": 0.0, "type": "electric_scooter", "lat": 38.90777116666667, "is_reserved": 0, "is_disabled": 0, "fusion_lon": 0.0, "bike_id": "1785207ce497f6e0b4ac5f95abe99a93", "lon": -77.07166666666667, "rental_uris": {"ios": "https://dc.lft.to/lastmile_qr_scan", "android": "https://dc.lft.to/lastmile_qr_scan"}},