{"data": {"bikes": [{"bike_id": "d4ba2cf5dc598e69d68b0bb209c5df7c", "type": "electric_bike", "is_disabled": 0, "lat": 38.908216333333336, "rental_uris": {"ios": "https://dc.lft.to/lastmile_qr_scan", "android": "https://dc.lft.to/lastmile_qr_scan"}, "is_reserved": 0, "fusion_lon": 0.0, "fusion_lat": 0.0, "lon": -76.94029666666667, "name": "d4ba2cf5dc598e69d68b0bb209c5df7c"}, {"bike_id": "3bfd85e6ef6aea9e4b76e7661c13d26f", "type": "electric_scooter", "is_disabled": 0, "lat": 38.922717666666664, "rental_uris": {"ios": "https://dc.lft.to/lastmile_qr_scan", "android": "https://dc.lft.to/lastmile_qr_scan"}, "is_reserved": 0, "fusion_lon": 0.0, "fusion_lat": 0.0, "lon": -77.03284683333334, "name": "3bfd85e6ef6aea9e4b76e7661c13d26f"}, {"bike_id": "b811197c4308868a8054ba90ff376247", "type": "electric_scooter", "is_disabled": 0, "lat": 38.89471183333333, "rental_uris": {"ios": "https://dc.lft.to/lastmile_qr_scan", "android": "https://dc.lft.to/lastmile_qr_scan"}, "is_reserved": 0, "fusion_lon": 0.0, "fusion_lat": 0.0, "lon": -76.94859233333334, "name": "b811197c4308868a8054ba90ff376247"}, {"bike_id": "cc2f1df5716bdfbcf8d8d1d40ed3efa4", "type": "electric_scooter", "is_disabled": 0, "lat": 38.943624666666665, "rental_uris": {"ios": "https://dc.lft.to/lastmile_qr_scan", "android": "https://dc.lft.to/lastmile_qr_scan"}, "is_reserved": 0, "fusion_lon": 0.0, "fusion_lat": 0.0, "lon": -77.0324125, "name": "cc2f1df5716bdfbcf8d8d1d40ed3efa4"}, {"bike_id": "43242f9e66fadd9a67e3f72ea4123479", "type": "electric_scooter", "is_disabled": 0, "lat": 38.905448166666666, "rental_uris": {"ios": "https://dc.lft.to/lastmile_qr_scan", "android": "https://dc.lft.to/lastmile_qr_scan"}, "is_reserved": 0, "fusion_lon": 0.0, "fusion_lat": 0.0, "lon": -77.050347, "name": "43242f9e66fadd9a67e3f72ea4123479"}, {"bike_id": "3bf12a5b5578069724f0e7e5491fbd36", "type": "electric_scooter", "is_disabled": 0, "lat": 38.88400516666667, "rental_uris": {"ios": "https://dc.lft.to/lastmile_qr_scan", "android": "https://dc.lft.to/lastmile_qr_scan"}, "is_reserved": 0, "fusion_lon": 0.0, "fusion_lat": 0.0, "lon": -76.954007, "name": "3bf12a5b5578069724f0e7e5491fbd36"}, {"bike_id": "a5e070f47d7be95822d8e4c784c096b5", "type": "electric_scooter", "is_disabled": 0, "lat": 38.910563833333335, "rental_uris": {"ios": "https://dc.lft.to/lastmile_qr_scan", "android": "https://dc.lft.to/lastmile_qr_scan"}, "is_reserved": 0, "fusion_lon": 0.0, "fusion_lat": 0.0, "lon": -77.03729566666667, "name": "a5e070f47d7be95822d8e4c784c096b5"}, {"bike_id": "50ada7be1c14931014457b84625d1a14", "type": "electric_scooter", "is_disabled": 0, "lat": 38.8964465, "rental_uris": {"ios": "https://dc.lft.to/lastmile_qr_scan", "android": "https://dc.lft.to/lastmile_qr_scan"}, "is_reserved": 0, "fusion_lon": 0.0, "fusion_lat": 0.0, "lon": -77.0271925, "name": "50ada7be1c14931014457b84625d1a14"}, {"bike_id": "c0f787acf5e9660eb95b43fdd6eb4c9a", "type": "electric_scooter", "is_disabled": 0, "lat": 38.870960333333336, "rental_uris": {"ios": "https://dc.lft.to/lastmile_qr_scan", "android": "https://dc.lft.to/lastmile_qr_scan"}, "is_reserved": 0, "fusion_lon": 0.0, "fusion_lat": 0.0, "lon": -77.01207716666667, "name": "c0f787acf5e9660eb95b43fdd6eb4c9a"}, {"bike_id": "0a3b9d45f32607858bc41e4a7b270acf", "type": "electric_scooter", "is_disabled": 0, "lat": 38.905637, "rental_uris": {"ios": "https://dc.lft.to/lastmile_qr_scan", "android": "https://dc.lft.to/lastmile_qr_scan"}, "is_reserved": 0, "fusion_lon": 0.0, "fusion_lat": 0.0, "lon": -76.97627266666667, "name": "0a3b9d45f32607858bc41e4a7b270acf"}, {"bike_id": "49fa245c3e40d454f73c3fbe68430aa2", "type": "electric_scooter", "is_disabled": 0, "lat": 38.908828666666665, "rental_uris": {"ios": "https://dc.lft.to/lastmile_qr_scan", "android": "https://dc.lft.to/lastmile_qr_scan"}, "is_reserved": 0, "fusion_lon": 0.0, "fusion_lat": 0.0, "lon": -77.04322783333333, "name": "49fa245c3e40d454f73c3fbe68430aa2"}, {"bike_id": "d60f5992c5dce9bfde773498fe76717a", "type": "electric_scooter", "is_disabled": 0, "lat": 38.90900033333333, "rental_uris": {"ios": "https://dc.lft.to/lastmile_qr_scan", "android": "https://dc.lft.to/lastmile_qr_scan"}, "is_reserved": 0, "fusion_lon": 0.0, "fusion_lat": 0.0, "lon": -77.04497683333334, "name": "d60f5992c5dce9bfde773498fe76717a"}, {"bike_id": "f65a179d6c2e237e74334d7dc3f2650b", "type": "electric_scooter", "is_disabled": 0, "lat": 38.906931166666666, "rental_uris": {"ios": "https://dc.lft.to/lastmile_qr_scan", "android": "https://dc.lft.to/lastmile_qr_scan"}, "is_reserved": 0, "fusion_lon": 0.0, "fusion_lat": 0.0, "lon": -77.0634325, "name": "f65a179d6c2e237e74334d7dc3f2650b"}, {"bike_id": "3d17c36c5f3beb32536c4ece07413774", "type": "electric_scooter", "is_disabled": 0, "lat": 38.908491, "rental_uris": {"ios": "https://dc.lft.to/lastmile_qr_scan", "android": "https://dc.lft.to/lastmile_qr_scan"}, "is_reserved": 0, "fusion_lon": 0.0, "fusion_lat": 0.0, "lon": -77.05571833333333, "name": "3d17c36c5f3beb32536c4ece07413774"}, {"bike_id": "055c7c88544c1e4ef92296c2d75ec49f", "type": "electric_scooter", "is_disabled": 0, "lat": 38.916680166666666, "rental_uris": {"ios": "https://dc.lft.to/lastmile_qr_scan", "android": "https://dc.lft.to/lastmile_qr_scan"}, "is_reserved": 0, "fusion_lon": 0.0, "fusion_lat": 0.0, "lon": -77.03198333333333, "name": "055c7c88544c1e4ef92296c2d75ec49f"}, {"bike_id": "f17f6fc0682d18cd7504e58fe26a7489", "type": "electric_scooter", "is_disabled": 0, "lat": 38.90852183333333, "rental_uris": {"ios": "https://dc.lft.to/lastmile_qr_scan", "android": "https://dc.lft.to/lastmile_qr_scan"}, "is_reserved": 0, "fusion_lon": 0.0, "fusion_lat": 0.0, "lon": -77.04264016666667, "name": "f17f6fc0682d18cd7504e58fe26a7489"}, {"bike_id": "0868a1ee2cdbaf46bd65d822c2f4fe74", "type": "electric_scooter", "is_disabled": 0, "lat": 38.90386183333333, "rental_uris": {"ios": "https://dc.lft.to/lastmile_qr_scan", "android": "https://dc.lft.to/lastmile_qr_scan"}, "is_reserved": 0, "fusion_lon": 0.0, "fusion_lat": 0.0, "lon": -77.06869866666666, "name": "0868a1ee2cdbaf46bd65d822c2f4fe74"}, {"bike_id": "76ab5f13880b65843ef40df21e8d3644", "type": "electric_scooter", "is_disabled": 0, "lat": 38.928844833333336, "rental_uris": {"ios": "https://dc.lft.to/lastmile_qr_scan", "android": "https://dc.lft.to/lastmile_qr_scan"}, "is_reserved": 0, "fusion_lon": 0.0, "fusion_lat": 0.0, "lon": -77.03228183333333, "name": "76ab5f13880b65843ef40df21e8d3644"}, {"bike_id": "4ffa1cdfc67a0ac5194a6e174a231bfd", "type": "electric_scooter", "is_disabled": 0, "lat": 38.94332716666667, "rental_uris": {"ios": "https://dc.lft.to/lastmile_qr_scan", "android": "https://dc.lft.to/lastmile_qr_scan"}, "is_reserved": 0, "fusion_lon": 0.0, "fusion_lat": 0.0, "lon": -77.01489216666667, "name": "4ffa1cdfc67a0ac5194a6e174a231bfd"}, {"bike_id": "d958700b0f84a991ce442e62fccbf10a", "type": "electric_scooter", "is_disabled": 0, "lat": 38.92141616666667, "rental_uris": {"ios": "https://dc.lft.to/lastmile_qr_scan", "android": "https://dc.lft.to/lastmile_qr_scan"}, "is_reserved": 0, "fusion_lon": 0.0, "fusion_lat": 0.0, "lon": -77.04342716666666, "name": "d958700b0f84a991ce442e62fccbf10a"}, {"bike_id": "49098cfc1e3c2a541030227a69ae8605", "type": "electric_scooter", "is_disabled": 0, "lat": 38.919056833333336, "rental_uris": {"ios": "https://dc.lft.to/lastmile_qr_scan", "android": "https://dc.lft.to/lastmile_qr_scan"}, "is_reserved": 0, "fusion_lon": 0.0, "fusion_lat": 0.0, "lon": -77.03421716666666, "name": "49098cfc1e3c2a541030227a69ae8605"}, {"bike_id": "4dc86a91fc23acbc155e375c85fa4adc", "type": "electric_scooter", "is_disabled": 0, "lat": 38.88265583333333, "rental_uris": {"ios": "https://dc.lft.to/lastmile_qr_scan", "android": "https://dc.lft.to/lastmile_qr_scan"}, "is_reserved": 0, "fusion_lon": 0.0, "fusion_lat": 0.0, "lon": -76.99253583333333, "name": "4dc86a91fc23acbc155e375c85fa4adc"}, {"bike_id": "307f3036d89996e88cf3294e7d304339", "type": "electric_scooter", "is_disabled": 0, "lat": 38.90497283333333, "rental_uris": {"ios": "https://dc.lft.to/lastmile_qr_scan", "android": "https://dc.lft.to/lastmile_qr_scan"}, "is_reserved": 0, "fusion_lon": 0.0, "fusion_lat": 0.0, "lon": -77.06375333333334, "name": "307f3036d89996e88cf3294e7d304339"}, {"bike_id": "7b38f39e95caae14d69f67e3d7d214fc", "type": "electric_scooter", "is_disabled": 0, "lat": 38.908270333333334, "rental_uris": {"ios": "https://dc.lft.to/lastmile_qr_scan", "android": "https://dc.lft.to/lastmile_qr_scan"}, "is_reserved": 0, "fusion_lon": 0.0, "fusion_lat": 0.0, "lon": -77.02385033333333, "name": "7b38f39e95caae14d69f67e3d7d214fc"}, {"bike_id": "7efd0fc871a83c1bba1b43c197edd367", "type": "electric_scooter", "is_disabled": 0, "lat": 38.901187166666666, "rental_uris": {"ios": "https://dc.lft.to/lastmile_qr_scan", "android": "https://dc.lft.to/lastmile_qr_scan"}, "is_reserved": 0, "fusion_lon": 0.0, "fusion_lat": 0.0, "lon": -77.04085283333333, "name": "7efd0fc871a83c1bba1b43c197edd367"}, {"bike_id": "248bdde17a5381af826b41c069f34b84", "type": "electric_scooter", "is_disabled": 0, "lat": 38.92095166666667, "rental_uris": {"ios": "https://dc.lft.to/lastmile_qr_scan", "android": "https://dc.lft.to/lastmile_qr_scan"}, "is_reserved": 0, "fusion_lon": 0.0, "fusion_lat": 0.0, "lon": -77.03161283333333, "name": "248bdde17a5381af826b41c069f34b84"}, {"bike_id": "1cdf5a1835985088159310a832e3bda9", "type": "electric_scooter", "is_disabled": 0, "lat": 38.91266016666667, "rental_uris": {"ios": "https://dc.lft.to/lastmile_qr_scan", "android": "https://dc.lft.to/lastmile_qr_scan"}, "is_reserved": 0, "fusion_lon": 0.0, "fusion_lat": 0.0, "lon": -77.03244233333334, "name": "1cdf5a1835985088159310a832e3bda9"}, {"bike_id": "51d44b4a6805ab4711fa31c28522069c", "type": "electric_scooter", "is_disabled": 0, "lat": 38.90559833333333, "rental_uris": {"ios": "https://dc.lft.to/lastmile_qr_scan", "android": "https://dc.lft.to/lastmile_qr_scan"}, "is_reserved": 0, "fusion_lon": 0.0, "fusion_lat": 0.0, "lon": -77.0300195, "name": "51d44b4a6805ab4711fa31c28522069c"}, {"bike_id": "1f65a0a098e9f183e674f9bb54b7dff9", "type": "electric_scooter", "is_disabled": 0, "lat": 38.900249, "rental_uris": {"ios": "https://dc.lft.to/lastmile_qr_scan", "android": "https://dc.lft.to/lastmile_qr_scan"}, "is_reserved": 0, "fusion_lon": 0.0, "fusion_lat": 0.0, "lon": -77.035072, "name": "1f65a0a098e9f183e674f9bb54b7dff9"}, {"bike_id": "1bb8761170bc1cc33d6831828bbc9856", "type": "electric_scooter", "is_disabled": 0, "lat": 38.902703, "rental_uris": {"ios": "https://dc.lft.to/lastmile_qr_scan", "android": "https://dc.lft.to/lastmile_qr_scan"}, "is_reserved": 0, "fusion_lon": 0.0, "fusion_lat": 0.0, "lon": -77.03848633333334, "name": "1bb8761170bc1cc33d6831828bbc9856"}, {"bike_id": "b44da66fa85229d4f50edecef312cc6a", "type": "electric_scooter", "is_disabled": 0, "lat": 38.9225825, "rental_uris": {"ios": "https://dc.lft.to/lastmile_qr_scan", "android": "https://dc.lft.to/lastmile_qr_scan"}, "is_reserved": 0, "fusion_lon": 0.0, "fusion_lat": 0.0, "lon": -77.03401, "name": "b44da66fa85229d4f50edecef312cc6a"}, {"bike_id": "58d2c9611753038475d8e2f4df3b913f", "type": "electric_scooter", "is_disabled": 0, "lat": 38.90649766666667, "rental_uris": {"ios": "https://dc.lft.to/lastmile_qr_scan", "android": "https://dc.lft.to/lastmile_qr_scan"}, "is_reserved": 0, "fusion_lon": 0.0, "fusion_lat": 0.0, "lon": -77.01462316666667, "name": "58d2c9611753038475d8e2f4df3b913f"}, {"bike_id": "7ee44763600553206f0e66ad1c1971dd", "type": "electric_scooter", "is_disabled": 0, "lat": 38.87648516666667, "rental_uris": {"ios": "https://dc.lft.to/lastmile_qr_scan", "android": "https://dc.lft.to/lastmile_qr_scan"}, "is_reserved": 0, "fusion_lon": 0.0, "fusion_lat": 0.0, "lon": -76.96505616666667, "name": "7ee44763600553206f0e66ad1c1971dd"}, {"bike_id": "ba20ac2895e614c763d3981aee66258b", "type": "electric_scooter", "is_disabled": 0, "lat": 38.90664266666667, "rental_uris": {"ios": "https://dc.lft.to/lastmile_qr_scan", "android": "https://dc.lft.to/lastmile_qr_scan"}, "is_reserved": 0, "fusion_lon": 0.0, "fusion_lat": 0.0, "lon": -77.07182533333334, "name": "ba20ac2895e614c763d3981aee66258b"}, {"bike_id": "433a407354085cc25ae42162860ab864", "type": "electric_scooter", "is_disabled": 0, "lat": 38.907382, "rental_uris": {"ios": "https://dc.lft.to/lastmile_qr_scan", "android": "https://dc.lft.to/lastmile_qr_scan"}, "is_reserved": 0, "fusion_lon": 0.0, "fusion_lat": 0.0, "lon": -77.02948483333333, "name": "433a407354085cc25ae42162860ab864"}, {"bike_id": "a739bd75d4fc8ebacf31e91721092092", "type": "electric_scooter", "is_disabled": 0, "lat": 38.96562516666667, "rental_uris": {"ios": "https://dc.lft.to/lastmile_qr_scan", "android": "https://dc.lft.to/lastmile_qr_scan"}, "is_reserved": 0, "fusion_lon": 0.0, "fusion_lat": 0.0, "lon": -77.0277105, "name": "a739bd75d4fc8ebacf31e91721092092"}, {"bike_id": "90807ceec5ec0f27cd13011d590a0ad7", "type": "electric_scooter", "is_disabled": 0, "lat": 38.903293166666664, "rental_uris": {"ios": "https://dc.lft.to/lastmile_qr_scan", "android": "https://dc.lft.to/lastmile_qr_scan"}, "is_reserved": 0, "fusion_lon": 0.0, "fusion_lat": 0.0, "lon": -77.06931333333333, "name": "90807ceec5ec0f27cd13011d590a0ad7"}, {"bike_id": "2b1ffb1d76f6c8b8438b1788cf25650c", "type": "electric_scooter", "is_disabled": 0, "lat": 38.9842705, "rental_uris": {"ios": "https://dc.lft.to/lastmile_qr_scan", "android": "https://dc.lft.to/lastmile_qr_scan"}, "is_reserved": 0, "fusion_lon": 0.0, "fusion_lat": 0.0, "lon": -77.026701, "name": "2b1ffb1d76f6c8b8438b1788cf25650c"}, {"bike_id": "90fc15baedba5429ddb4efb096ac0d54", "type": "electric_scooter", "is_disabled": 0, "lat": 38.86248883333333, "rental_uris": {"ios": "https://dc.lft.to/lastmile_qr_scan", "android": "https://dc.lft.to/lastmile_qr_scan"}, "is_reserved": 0, "fusion_lon": 0.0, "fusion_lat": 0.0, "lon": -76.99507566666666, "name": "90fc15baedba5429ddb4efb096ac0d54"}, {"bike_id": "b425aae6f72b2a48b99decde00eeca5a", "type": "electric_scooter", "is_disabled": 0, "lat": 38.866528, "rental_uris": {"ios": "https://dc.lft.to/lastmile_qr_scan", "android": "https://dc.lft.to/lastmile_qr_scan"}, "is_reserved": 0, "fusion_lon": 0.0, "fusion_lat": 0.0, "lon": -76.98887766666667, "name": "b425aae6f72b2a48b99decde00eeca5a"}, {"bike_id": "3874db30d4d909bfadf07e3d4a8f2e0a", "type": "electric_scooter", "is_disabled": 0, "lat": 38.9274815, "rental_uris": {"ios": "https://dc.lft.to/lastmile_qr_scan", "android": "https://dc.lft.to/lastmile_qr_scan"}, "is_reserved": 0, "fusion_lon": 0.0, "fusion_lat": 0.0, "lon": -77.00596083333333, "name": "3874db30d4d909bfadf07e3d4a8f2e0a"}, {"bike_id": "369fb9205c7c307bea48adc004281b98", "type": "electric_scooter", "is_disabled": 0, "lat": 38.900383833333336, "rental_uris": {"ios": "https://dc.lft.to/lastmile_qr_scan", "android": "https://dc.lft.to/lastmile_qr_scan"}, "is_reserved": 0, "fusion_lon": 0.0, "fusion_lat": 0.0, "lon": -77.03519183333333, "name": "369fb9205c7c307bea48adc004281b98"}, {"bike_id": "1bfe02e228aab24873c8144861b78044", "type": "electric_scooter", "is_disabled": 0, "lat": 38.925806, "rental_uris": {"ios": "https://dc.lft.to/lastmile_qr_scan", "android": "https://dc.lft.to/lastmile_qr_scan"}, "is_reserved": 0, "fusion_lon": 0.0, "fusion_lat": 0.0, "lon": -77.03745966666666, "name": "1bfe02e228aab24873c8144861b78044"}, {"bike_id": "8c22f724fc49b2f0c8d2934d7bee0150", "type": "electric_scooter", "is_disabled": 0, "lat": 38.914388333333335, "rental_uris": {"ios": "https://dc.lft.to/lastmile_qr_scan", "android": "https://dc.lft.to/lastmile_qr_scan"}, "is_reserved": 0, "fusion_lon": 0.0, "fusion_lat": 0.0, "lon": -77.01996333333334, "name": "8c22f724fc49b2f0c8d2934d7bee0150"}, {"bike_id": "45985cd8f2f8563d6b44835f3ee9294c", "type": "electric_bike", "is_disabled": 0, "lat": 38.94555966666667, "rental_uris": {"ios": "https://dc.lft.to/lastmile_qr_scan", "android": "https://dc.lft.to/lastmile_qr_scan"}, "is_reserved": 0, "fusion_lon": 0.0, "fusion_lat": 0.0, "lon": -77.07787083333334, "name": "45985cd8f2f8563d6b44835f3ee9294c"}, {"bike_id": "7376693286afe39e8064e2227f16b320", "type": "electric_scooter", "is_disabled": 0, "lat": 38.907479333333335, "rental_uris": {"ios": "https://dc.lft.to/lastmile_qr_scan", "android": "https://dc.lft.to/lastmile_qr_scan"}, "is_reserved": 0, "fusion_lon": 0.0, "fusion_lat": 0.0, "lon": -77.03181983333333, "name": "7376693286afe39e8064e2227f16b320"}, {"bike_id": "0a3f1d3c0a3cdaba04aa0ebc01f37d68", "type": "electric_scooter", "is_disabled": 0, "lat": 38.91690166666667, "rental_uris": {"ios": "https://dc.lft.to/lastmile_qr_scan", "android": "https://dc.lft.to/lastmile_qr_scan"}, "is_reserved": 0, "fusion_lon": 0.0, "fusion_lat": 0.0, "lon": -77.03220466666667, "name": "0a3f1d3c0a3cdaba04aa0ebc01f37d68"}, {"bike_id": "5ca5eca00c3f23e9e09754d3ec425d84", "type": "electric_scooter", "is_disabled": 0, "lat": 38.8310065, "rental_uris": {"ios": "https://dc.lft.to/lastmile_qr_scan", "android": "https://dc.lft.to/lastmile_qr_scan"}, "is_reserved": 0, "fusion_lon": 0.0, "fusion_lat": 0.0, "lon": -77.05164583333334, "name": "5ca5eca00c3f23e9e09754d3ec425d84"}, {"bike_id": "4199f9ed90d886012e9883d0f8ae7383", "type": "electric_scooter", "is_disabled": 0, "lat": 38.90823783333333, "rental_uris": {"ios": "https://dc.lft.to/lastmile_qr_scan", "android": "https://dc.lft.to/lastmile_qr_scan"}, "is_reserved": 0, "fusion_lon": 0.0, "fusion_lat": 0.0, "lon": -77.04467766666667, "name": "4199f9ed90d886012e9883d0f8ae7383"}, {"bike_id": "e018c50e629ddc4ba6e0a9b67dba1e18", "type": "electric_scooter", "is_disabled": 0, "lat": 38.867349833333336, "rental_uris": {"ios": "https://dc.lft.to/lastmile_qr_scan", "android": "https://dc.lft.to/lastmile_qr_scan"}, "is_reserved": 0, "fusion_lon": 0.0, "fusion_lat": 0.0, "lon": -76.9786345, "name": "e018c50e629ddc4ba6e0a9b67dba1e18"}, {"bike_id": "b14c17051a0db1bbefa3834267e42eb5", "type": "electric_scooter", "is_disabled": 0, "lat": 38.9072825, "rental_uris": {"ios": "https://dc.lft.to/lastmile_qr_scan", "android": "https://dc.lft.to/lastmile_qr_scan"}, "is_reserved": 0, "fusion_lon": 0.0, "fusion_lat": 0.0, "lon": -76.97966083333333, "name": "b14c17051a0db1bbefa3834267e42eb5"}, {"bike_id": "e6434383b788f9cc3c3c8262c564bbca", "type": "electric_scooter", "is_disabled": 0, "lat": 38.917711, "rental_uris": {"ios": "https://dc.lft.to/lastmile_qr_scan", "android": "https://dc.lft.to/lastmile_qr_scan"}, "is_reserved": 0, "fusion_lon": 0.0, "fusion_lat": 0.0, "lon": -77.03439933333334, "name": "e6434383b788f9cc3c3c8262c564bbca"}, {"bike_id": "7265e7fff1cf2a478cb64cfb1dd7210d", "type": "electric_scooter", "is_disabled": 0, "lat": 38.92822966666667, "rental_uris": {"ios": "https://dc.lft.to/lastmile_qr_scan", "android": "https://dc.lft.to/lastmile_qr_scan"}, "is_reserved": 0, "fusion_lon": 0.0, "fusion_lat": 0.0, "lon": -77.0225685, "name": "7265e7fff1cf2a478cb64cfb1dd7210d"}, {"bike_id": "03a5309ed56af04c0c3dacab9a65b06f", "type": "electric_scooter", "is_disabled": 0, "lat": 38.9287015, "rental_uris": {"ios": "https://dc.lft.to/lastmile_qr_scan", "android": "https://dc.lft.to/lastmile_qr_scan"}, "is_reserved": 0, "fusion_lon": 0.0, "fusion_lat": 0.0, "lon": -77.03442533333333, "name": "03a5309ed56af04c0c3dacab9a65b06f"}, {"bike_id": "c85c657a37c27d6c51dd8255fc6acb72", "type": "electric_scooter", "is_disabled": 0, "lat": 38.91414566666667, "rental_uris": {"ios": "https://dc.lft.to/lastmile_qr_scan", "android": "https://dc.lft.to/lastmile_qr_scan"}, "is_reserved": 0, "fusion_lon": 0.0, "fusion_lat": 0.0, "lon": -77.035971, "name": "c85c657a37c27d6c51dd8255fc6acb72"}, {"bike_id": "d2e248ea3c51c368591560e4403355db", "type": "electric_scooter", "is_disabled": 0, "lat": 38.905124, "rental_uris": {"ios": "https://dc.lft.to/lastmile_qr_scan", "android": "https://dc.lft.to/lastmile_qr_scan"}, "is_reserved": 0, "fusion_lon": 0.0, "fusion_lat": 0.0, "lon": -77.06229166666667, "name": "d2e248ea3c51c368591560e4403355db"}, {"bike_id": "7ca46a14905de323e4389e4fa4ec33d4", "type": "electric_scooter", "is_disabled": 0, "lat": 38.900598333333335, "rental_uris": {"ios": "https://dc.lft.to/lastmile_qr_scan", "android": "https://dc.lft.to/lastmile_qr_scan"}, "is_reserved": 0, "fusion_lon": 0.0, "fusion_lat": 0.0, "lon": -77.05040033333333, "name": "7ca46a14905de323e4389e4fa4ec33d4"}, {"bike_id": "23bc19f6d1a87e6962d3f4d963d63ca3", "type": "electric_scooter", "is_disabled": 0, "lat": 38.929616, "rental_uris": {"ios": "https://dc.lft.to/lastmile_qr_scan", "android": "https://dc.lft.to/lastmile_qr_scan"}, "is_reserved": 0, "fusion_lon": 0.0, "fusion_lat": 0.0, "lon": -77.03261316666666, "name": "23bc19f6d1a87e6962d3f4d963d63ca3"}, {"bike_id": "19eb85ed440ba746bb15041156eb89de", "type": "electric_scooter", "is_disabled": 0, "lat": 38.92666783333333, "rental_uris": {"ios": "https://dc.lft.to/lastmile_qr_scan", "android": "https://dc.lft.to/lastmile_qr_scan"}, "is_reserved": 0, "fusion_lon": 0.0, "fusion_lat": 0.0, "lon": -77.0146635, "name": "19eb85ed440ba746bb15041156eb89de"}, {"bike_id": "d32548b1049310a44818d3c30213fed8", "type": "electric_scooter", "is_disabled": 0, "lat": 38.906808, "rental_uris": {"ios": "https://dc.lft.to/lastmile_qr_scan", "android": "https://dc.lft.to/lastmile_qr_scan"}, "is_reserved": 0, "fusion_lon": 0.0, "fusion_lat": 0.0, "lon": -77.02693483333333, "name": "d32548b1049310a44818d3c30213fed8"}, {"bike_id": "a35a5ae9b65994e7b3adad0a8c81505a", "type": "electric_scooter", "is_disabled": 0, "lat": 38.84315766666667, "rental_uris": {"ios": "https://dc.lft.to/lastmile_qr_scan", "android": "https://dc.lft.to/lastmile_qr_scan"}, "is_reserved": 0, "fusion_lon": 0.0, "fusion_lat": 0.0, "lon": -76.99931733333334, "name": "a35a5ae9b65994e7b3adad0a8c81505a"}, {"bike_id": "60a7127a86126a8c0e843a9e76d1727f", "type": "electric_bike", "is_disabled": 0, "lat": 38.857616666666665, "rental_uris": {"ios": "https://dc.lft.to/lastmile_qr_scan", "android": "https://dc.lft.to/lastmile_qr_scan"}, "is_reserved": 0, "fusion_lon": 0.0, "fusion_lat": 0.0, "lon": -76.98748266666666, "name": "60a7127a86126a8c0e843a9e76d1727f"}, {"bike_id": "b60e73493350f988cc203097a7b3e7f6", "type": "electric_scooter", "is_disabled": 0, "lat": 38.9005685, "rental_uris": {"ios": "https://dc.lft.to/lastmile_qr_scan", "android": "https://dc.lft.to/lastmile_qr_scan"}, "is_reserved": 0, "fusion_lon": 0.0, "fusion_lat": 0.0, "lon": -77.03657483333333, "name": "b60e73493350f988cc203097a7b3e7f6"}, {"bike_id": "251fc695ac92801fcc0c4c98a1d6a683", "type": "electric_scooter", "is_disabled": 0, "lat": 38.9202455, "rental_uris": {"ios": "https://dc.lft.to/lastmile_qr_scan", "android": "https://dc.lft.to/lastmile_qr_scan"}, "is_reserved": 0, "fusion_lon": 0.0, "fusion_lat": 0.0, "lon": -77.03152383333334, "name": "251fc695ac92801fcc0c4c98a1d6a683"}, {"bike_id": "6da16815b34697bf158e008596204760", "type": "electric_scooter", "is_disabled": 0, "lat": 38.916881833333335, "rental_uris": {"ios": "https://dc.lft.to/lastmile_qr_scan", "android": "https://dc.lft.to/lastmile_qr_scan"}, "is_reserved": 0, "fusion_lon": 0.0, "fusion_lat": 0.0, "lon": -77.032139, "name": "6da16815b34697bf158e008596204760"}, {"bike_id": "abf87b4c036879800232db49aed962d1", "type": "electric_scooter", "is_disabled": 0, "lat": 38.885887333333336, "rental_uris": {"ios": "https://dc.lft.to/lastmile_qr_scan", "android": "https://dc.lft.to/lastmile_qr_scan"}, "is_reserved": 0, "fusion_lon": 0.0, "fusion_lat": 0.0, "lon": -77.028409, "name": "abf87b4c036879800232db49aed962d1"}, {"bike_id": "869bc875f2f79132ede4af5346a77d00", "type": "electric_scooter", "is_disabled": 0, "lat": 38.9001635, "rental_uris": {"ios": "https://dc.lft.to/lastmile_qr_scan", "android": "https://dc.lft.to/lastmile_qr_scan"}, "is_reserved": 0, "fusion_lon": 0.0, "fusion_lat": 0.0, "lon": -76.980708, "name": "869bc875f2f79132ede4af5346a77d00"}, {"bike_id": "8b7f1485bb8ec9c648229eeb06164cb2", "type": "electric_scooter", "is_disabled": 0, "lat": 38.914862666666664, "rental_uris": {"ios": "https://dc.lft.to/lastmile_qr_scan", "android": "https://dc.lft.to/lastmile_qr_scan"}, "is_reserved": 0, "fusion_lon": 0.0, "fusion_lat": 0.0, "lon": -76.985712, "name": "8b7f1485bb8ec9c648229eeb06164cb2"}, {"bike_id": "4d9f1e3662627abfda4692917ea44813", "type": "electric_scooter", "is_disabled": 0, "lat": 38.922711166666666, "rental_uris": {"ios": "https://dc.lft.to/lastmile_qr_scan", "android": "https://dc.lft.to/lastmile_qr_scan"}, "is_reserved": 0, "fusion_lon": 0.0, "fusion_lat": 0.0, "lon": -77.0367185, "name": "4d9f1e3662627abfda4692917ea44813"}, {"bike_id": "25691c251a4a8716002a4ae526f2f41b", "type": "electric_scooter", "is_disabled": 0, "lat": 38.83505916666667, "rental_uris": {"ios": "https://dc.lft.to/lastmile_qr_scan", "android": "https://dc.lft.to/lastmile_qr_scan"}, "is_reserved": 0, "fusion_lon": 0.0, "fusion_lat": 0.0, "lon": -77.00124016666666, "name": "25691c251a4a8716002a4ae526f2f41b"}, {"bike_id": "968f5024f9a09599c518892ab3a4db1c", "type": "electric_scooter", "is_disabled": 0, "lat": 38.92146733333333, "rental_uris": {"ios": "https://dc.lft.to/lastmile_qr_scan", "android": "https://dc.lft.to/lastmile_qr_scan"}, "is_reserved": 0, "fusion_lon": 0.0, "fusion_lat": 0.0, "lon": -77.03318233333333, "name": "968f5024f9a09599c518892ab3a4db1c"}, {"bike_id": "df1ea9891036ac40e76d962fb2fc5e80", "type": "electric_scooter", "is_disabled": 0, "lat": 38.91564316666667, "rental_uris": {"ios": "https://dc.lft.to/lastmile_qr_scan", "android": "https://dc.lft.to/lastmile_qr_scan"}, "is_reserved": 0, "fusion_lon": 0.0, "fusion_lat": 0.0, "lon": -77.03945266666666, "name": "df1ea9891036ac40e76d962fb2fc5e80"}, {"bike_id": "6f6e9fa81702fca0e2a17f2c4a8d8149", "type": "electric_scooter", "is_disabled": 0, "lat": 38.914009166666666, "rental_uris": {"ios": "https://dc.lft.to/lastmile_qr_scan", "android": "https://dc.lft.to/lastmile_qr_scan"}, "is_reserved": 0, "fusion_lon": 0.0, "fusion_lat": 0.0, "lon": -77.04289683333333, "name": "6f6e9fa81702fca0e2a17f2c4a8d8149"}, {"bike_id": "271d857a496642bac488fbfea13de1e5", "type": "electric_scooter", "is_disabled": 0, "lat": 38.887398166666664, "rental_uris": {"ios": "https://dc.lft.to/lastmile_qr_scan", "android": "https://dc.lft.to/lastmile_qr_scan"}, "is_reserved": 0, "fusion_lon": 0.0, "fusion_lat": 0.0, "lon": -77.013939, "name": "271d857a496642bac488fbfea13de1e5"}, {"bike_id": "34d8150e9568b5ba103d18531edb30ce", "type": "electric_scooter", "is_disabled": 0, "lat": 38.844277, "rental_uris": {"ios": "https://dc.lft.to/lastmile_qr_scan", "android": "https://dc.lft.to/lastmile_qr_scan"}, "is_reserved": 0, "fusion_lon": 0.0, "fusion_lat": 0.0, "lon": -76.99875716666666, "name": "34d8150e9568b5ba103d18531edb30ce"}, {"bike_id": "34dbc5cf46ea7fc0ba07a20836ac18e9", "type": "electric_scooter", "is_disabled": 0, "lat": 38.913719666666665, "rental_uris": {"ios": "https://dc.lft.to/lastmile_qr_scan", "android": "https://dc.lft.to/lastmile_qr_scan"}, "is_reserved": 0, "fusion_lon": 0.0, "fusion_lat": 0.0, "lon": -77.03016483333333, "name": "34dbc5cf46ea7fc0ba07a20836ac18e9"}, {"bike_id": "dfb3c06f1cc20b7970ae2f35e6243e2b", "type": "electric_scooter", "is_disabled": 0, "lat": 38.90001433333333, "rental_uris": {"ios": "https://dc.lft.to/lastmile_qr_scan", "android": "https://dc.lft.to/lastmile_qr_scan"}, "is_reserved": 0, "fusion_lon": 0.0, "fusion_lat": 0.0, "lon": -77.00680266666667, "name": "dfb3c06f1cc20b7970ae2f35e6243e2b"}, {"bike_id": "ac836ba90cb4cd88c51a730180506673", "type": "electric_scooter", "is_disabled": 0, "lat": 38.91264016666667, "rental_uris": {"ios": "https://dc.lft.to/lastmile_qr_scan", "android": "https://dc.lft.to/lastmile_qr_scan"}, "is_reserved": 0, "fusion_lon": 0.0, "fusion_lat": 0.0, "lon": -77.03025316666667, "name": "ac836ba90cb4cd88c51a730180506673"}, {"bike_id": "83159ff0c7d980d7854fd53d27722877", "type": "electric_scooter", "is_disabled": 0, "lat": 38.91345233333333, "rental_uris": {"ios": "https://dc.lft.to/lastmile_qr_scan", "android": "https://dc.lft.to/lastmile_qr_scan"}, "is_reserved": 0, "fusion_lon": 0.0, "fusion_lat": 0.0, "lon": -77.02576666666667, "name": "83159ff0c7d980d7854fd53d27722877"}, {"bike_id": "d6907fd195ec0b44d533683cc13c8cc9", "type": "electric_scooter", "is_disabled": 0, "lat": 38.91557816666667, "rental_uris": {"ios": "https://dc.lft.to/lastmile_qr_scan", "android": "https://dc.lft.to/lastmile_qr_scan"}, "is_reserved": 0, "fusion_lon": 0.0, "fusion_lat": 0.0, "lon": -77.02058733333334, "name": "d6907fd195ec0b44d533683cc13c8cc9"}, {"bike_id": "c5c591fe869d010b52733d1c5467ec41", "type": "electric_scooter", "is_disabled": 0, "lat": 38.91473583333333, "rental_uris": {"ios": "https://dc.lft.to/lastmile_qr_scan", "android": "https://dc.lft.to/lastmile_qr_scan"}, "is_reserved": 0, "fusion_lon": 0.0, "fusion_lat": 0.0, "lon": -77.0455825, "name": "c5c591fe869d010b52733d1c5467ec41"}, {"bike_id": "bd2efc9149e10b7cf1da132cd937fcb4", "type": "electric_scooter", "is_disabled": 0, "lat": 38.90121283333333, "rental_uris": {"ios": "https://dc.lft.to/lastmile_qr_scan", "android": "https://dc.lft.to/lastmile_qr_scan"}, "is_reserved": 0, "fusion_lon": 0.0, "fusion_lat": 0.0, "lon": -76.99492216666667, "name": "bd2efc9149e10b7cf1da132cd937fcb4"}, {"bike_id": "91365e87d40def75fa12045734889fc4", "type": "electric_scooter", "is_disabled": 0, "lat": 38.90147833333333, "rental_uris": {"ios": "https://dc.lft.to/lastmile_qr_scan", "android": "https://dc.lft.to/lastmile_qr_scan"}, "is_reserved": 0, "fusion_lon": 0.0, "fusion_lat": 0.0, "lon": -77.02181883333333, "name": "91365e87d40def75fa12045734889fc4"}, {"bike_id": "1e636a5ef4cfc245bf90a3ca6674085f", "type": "electric_scooter", "is_disabled": 0, "lat": 38.90980716666667, "rental_uris": {"ios": "https://dc.lft.to/lastmile_qr_scan", "android": "https://dc.lft.to/lastmile_qr_scan"}, "is_reserved": 0, "fusion_lon": 0.0, "fusion_lat": 0.0, "lon": -77.0327845, "name": "1e636a5ef4cfc245bf90a3ca6674085f"}, {"bike_id": "4d27fc38fdfcfe61a7314a6f15fc4bb4", "type": "electric_bike", "is_disabled": 0, "lat": 38.862610333333336, "rental_uris": {"ios": "https://dc.lft.to/lastmile_qr_scan", "android": "https://dc.lft.to/lastmile_qr_scan"}, "is_reserved": 0, "fusion_lon": 0.0, "fusion_lat": 0.0, "lon": -76.98353516666667, "name": "4d27fc38fdfcfe61a7314a6f15fc4bb4"}, {"bike_id": "d474f8dba0f3816ed0125435432419f9", "type": "electric_scooter", "is_disabled": 0, "lat": 38.90848116666667, "rental_uris": {"ios": "https://dc.lft.to/lastmile_qr_scan", "android": "https://dc.lft.to/lastmile_qr_scan"}, "is_reserved": 0, "fusion_lon": 0.0, "fusion_lat": 0.0, "lon": -76.9995655, "name": "d474f8dba0f3816ed0125435432419f9"}, {"bike_id": "ab71366ee7333a517f9d94294aa770b3", "type": "electric_scooter", "is_disabled": 0, "lat": 38.901995666666664, "rental_uris": {"ios": "https://dc.lft.to/lastmile_qr_scan", "android": "https://dc.lft.to/lastmile_qr_scan"}, "is_reserved": 0, "fusion_lon": 0.0, "fusion_lat": 0.0, "lon": -77.051196, "name": "ab71366ee7333a517f9d94294aa770b3"}, {"bike_id": "046c18b3498317cbfcfbe7f6ebdd6876", "type": "electric_scooter", "is_disabled": 0, "lat": 38.91772616666667, "rental_uris": {"ios": "https://dc.lft.to/lastmile_qr_scan", "android": "https://dc.lft.to/lastmile_qr_scan"}, "is_reserved": 0, "fusion_lon": 0.0, "fusion_lat": 0.0, "lon": -77.0476685, "name": "046c18b3498317cbfcfbe7f6ebdd6876"}, {"bike_id": "c057407ce55b04e9c4ca05bcf5b4c43e", "type": "electric_scooter", "is_disabled": 0, "lat": 38.916094666666666, "rental_uris": {"ios": "https://dc.lft.to/lastmile_qr_scan", "android": "https://dc.lft.to/lastmile_qr_scan"}, "is_reserved": 0, "fusion_lon": 0.0, "fusion_lat": 0.0, "lon": -77.02169283333333, "name": "c057407ce55b04e9c4ca05bcf5b4c43e"}, {"bike_id": "1e99819f93da76d99a1f1dbcd6d3b7f9", "type": "electric_scooter", "is_disabled": 0, "lat": 38.903214166666665, "rental_uris": {"ios": "https://dc.lft.to/lastmile_qr_scan", "android": "https://dc.lft.to/lastmile_qr_scan"}, "is_reserved": 0, "fusion_lon": 0.0, "fusion_lat": 0.0, "lon": -76.98296066666667, "name": "1e99819f93da76d99a1f1dbcd6d3b7f9"}, {"bike_id": "8c57e1fe3059b9efdb44524756a519f2", "type": "electric_bike", "is_disabled": 0, "lat": 38.99342383333333, "rental_uris": {"ios": "https://dc.lft.to/lastmile_qr_scan", "android": "https://dc.lft.to/lastmile_qr_scan"}, "is_reserved": 0, "fusion_lon": 0.0, "fusion_lat": 0.0, "lon": -77.11579516666667, "name": "8c57e1fe3059b9efdb44524756a519f2"}, {"bike_id": "91ece9c47f4e04c499c447e528b7f2d1", "type": "electric_bike", "is_disabled": 0, "lat": 38.8075495, "rental_uris": {"ios": "https://dc.lft.to/lastmile_qr_scan", "android": "https://dc.lft.to/lastmile_qr_scan"}, "is_reserved": 0, "fusion_lon": 0.0, "fusion_lat": 0.0, "lon": -77.0946665, "name": "91ece9c47f4e04c499c447e528b7f2d1"}, {"bike_id": "5bc55c5def0cba6b27fc32f6d3d549dc", "type": "electric_scooter", "is_disabled": 0, "lat": 38.923865166666666, "rental_uris": {"ios": "https://dc.lft.to/lastmile_qr_scan", "android": "https://dc.lft.to/lastmile_qr_scan"}, "is_reserved": 0, "fusion_lon": 0.0, "fusion_lat": 0.0, "lon": -77.04475583333334, "name": "5bc55c5def0cba6b27fc32f6d3d549dc"}, {"bike_id": "716aba8908cd365ba338f16000aff661", "type": "electric_scooter", "is_disabled": 0, "lat": 38.916035666666666, "rental_uris": {"ios": "https://dc.lft.to/lastmile_qr_scan", "android": "https://dc.lft.to/lastmile_qr_scan"}, "is_reserved": 0, "fusion_lon": 0.0, "fusion_lat": 0.0, "lon": -77.03396533333333, "name": "716aba8908cd365ba338f16000aff661"}, {"bike_id": "325cdc45e1aabf101e4103bb13d15111", "type": "electric_scooter", "is_disabled": 0, "lat": 38.879883666666665, "rental_uris": {"ios": "https://dc.lft.to/lastmile_qr_scan", "android": "https://dc.lft.to/lastmile_qr_scan"}, "is_reserved": 0, "fusion_lon": 0.0, "fusion_lat": 0.0, "lon": -77.006002, "name": "325cdc45e1aabf101e4103bb13d15111"}, {"bike_id": "94af78548d8b3b1a53fc78d40a136558", "type": "electric_scooter", "is_disabled": 0, "lat": 38.920556166666664, "rental_uris": {"ios": "https://dc.lft.to/lastmile_qr_scan", "android": "https://dc.lft.to/lastmile_qr_scan"}, "is_reserved": 0, "fusion_lon": 0.0, "fusion_lat": 0.0, "lon": -77.024281, "name": "94af78548d8b3b1a53fc78d40a136558"}, {"bike_id": "6fe14cc5dfffa57a23c689ab73bccb95", "type": "electric_scooter", "is_disabled": 0, "lat": 38.86498666666667, "rental_uris": {"ios": "https://dc.lft.to/lastmile_qr_scan", "android": "https://dc.lft.to/lastmile_qr_scan"}, "is_reserved": 0, "fusion_lon": 0.0, "fusion_lat": 0.0, "lon": -76.99002483333334, "name": "6fe14cc5dfffa57a23c689ab73bccb95"}, {"bike_id": "d182794543b75f3d2a45032e6e2f097a", "type": "electric_scooter", "is_disabled": 0, "lat": 38.91882066666667, "rental_uris": {"ios": "https://dc.lft.to/lastmile_qr_scan", "android": "https://dc.lft.to/lastmile_qr_scan"}, "is_reserved": 0, "fusion_lon": 0.0, "fusion_lat": 0.0, "lon": -77.034822, "name": "d182794543b75f3d2a45032e6e2f097a"}, {"bike_id": "65f3a43d19b27db94ab184ef6027f653", "type": "electric_scooter", "is_disabled": 0, "lat": 38.90745116666667, "rental_uris": {"ios": "https://dc.lft.to/lastmile_qr_scan", "android": "https://dc.lft.to/lastmile_qr_scan"}, "is_reserved": 0, "fusion_lon": 0.0, "fusion_lat": 0.0, "lon": -77.041545, "name": "65f3a43d19b27db94ab184ef6027f653"}, {"bike_id": "a14db1d0d7ce4339ca28fd045176232c", "type": "electric_scooter", "is_disabled": 0, "lat": 38.92341783333333, "rental_uris": {"ios": "https://dc.lft.to/lastmile_qr_scan", "android": "https://dc.lft.to/lastmile_qr_scan"}, "is_reserved": 0, "fusion_lon": 0.0, "fusion_lat": 0.0, "lon": -77.035485, "name": "a14db1d0d7ce4339ca28fd045176232c"}, {"bike_id": "d996e5d85506b41de22a8df25664851a", "type": "electric_bike", "is_disabled": 0, "lat": 39.054971, "rental_uris": {"ios": "https://dc.lft.to/lastmile_qr_scan", "android": "https://dc.lft.to/lastmile_qr_scan"}, "is_reserved": 0, "fusion_lon": 0.0, "fusion_lat": 0.0, "lon": -77.04650516666666, "name": "d996e5d85506b41de22a8df25664851a"}, {"bike_id": "a9462ef6af64d5b8ca25e94c2aeb4466", "type": "electric_scooter", "is_disabled": 0, "lat": 38.903124166666665, "rental_uris": {"ios": "https://dc.lft.to/lastmile_qr_scan", "android": "https://dc.lft.to/lastmile_qr_scan"}, "is_reserved": 0, "fusion_lon": 0.0, "fusion_lat": 0.0, "lon": -77.05254466666666, "name": "a9462ef6af64d5b8ca25e94c2aeb4466"}, {"bike_id": "38d764f533aa6726959412a7e9ffc7ba", "type": "electric_bike", "is_disabled": 0, "lat": 38.92966583333333, "rental_uris": {"ios": "https://dc.lft.to/lastmile_qr_scan", "android": "https://dc.lft.to/lastmile_qr_scan"}, "is_reserved": 0, "fusion_lon": 0.0, "fusion_lat": 0.0, "lon": -77.185669, "name": "38d764f533aa6726959412a7e9ffc7ba"}, {"bike_id": "b56aa2cc131de9ff91ca09ddafcb2887", "type": "electric_scooter", "is_disabled": 0, "lat": 38.93310433333333, "rental_uris": {"ios": "https://dc.lft.to/lastmile_qr_scan", "android": "https://dc.lft.to/lastmile_qr_scan"}, "is_reserved": 0, "fusion_lon": 0.0, "fusion_lat": 0.0, "lon": -77.072454, "name": "b56aa2cc131de9ff91ca09ddafcb2887"}, {"bike_id": "45d8f31eb8b6fcd26368fac0063d66d6", "type": "electric_bike", "is_disabled": 0, "lat": 38.9715645, "rental_uris": {"ios": "https://dc.lft.to/lastmile_qr_scan", "android": "https://dc.lft.to/lastmile_qr_scan"}, "is_reserved": 0, "fusion_lon": 0.0, "fusion_lat": 0.0, "lon": -77.02727483333334, "name": "45d8f31eb8b6fcd26368fac0063d66d6"}, {"bike_id": "e1d5f6f46d28cd2a4cce2cac964a95b8", "type": "electric_scooter", "is_disabled": 0, "lat": 38.93632233333334, "rental_uris": {"ios": "https://dc.lft.to/lastmile_qr_scan", "android": "https://dc.lft.to/lastmile_qr_scan"}, "is_reserved": 0, "fusion_lon": 0.0, "fusion_lat": 0.0, "lon": -77.0588605, "name": "e1d5f6f46d28cd2a4cce2cac964a95b8"}, {"bike_id": "cadc26f35b385e69f7a968a3b830dcb4", "type": "electric_scooter", "is_disabled": 0, "lat": 38.902629166666664, "rental_uris": {"ios": "https://dc.lft.to/lastmile_qr_scan", "android": "https://dc.lft.to/lastmile_qr_scan"}, "is_reserved": 0, "fusion_lon": 0.0, "fusion_lat": 0.0, "lon": -77.05815283333334, "name": "cadc26f35b385e69f7a968a3b830dcb4"}, {"bike_id": "7f9210d37c28bda2fdf712f3f95a316b", "type": "electric_scooter", "is_disabled": 0, "lat": 38.91496933333333, "rental_uris": {"ios": "https://dc.lft.to/lastmile_qr_scan", "android": "https://dc.lft.to/lastmile_qr_scan"}, "is_reserved": 0, "fusion_lon": 0.0, "fusion_lat": 0.0, "lon": -77.01218816666666, "name": "7f9210d37c28bda2fdf712f3f95a316b"}, {"bike_id": "6f5640a8b254abdc3f46d8e3510f92bc", "type": "electric_scooter", "is_disabled": 0, "lat": 38.87070933333333, "rental_uris": {"ios": "https://dc.lft.to/lastmile_qr_scan", "android": "https://dc.lft.to/lastmile_qr_scan"}, "is_reserved": 0, "fusion_lon": 0.0, "fusion_lat": 0.0, "lon": -76.9813585, "name": "6f5640a8b254abdc3f46d8e3510f92bc"}, {"bike_id": "106ea9e5fe6b8997006c78c8a0351c6b", "type": "electric_scooter", "is_disabled": 0, "lat": 38.9324755, "rental_uris": {"ios": "https://dc.lft.to/lastmile_qr_scan", "android": "https://dc.lft.to/lastmile_qr_scan"}, "is_reserved": 0, "fusion_lon": 0.0, "fusion_lat": 0.0, "lon": -77.0199835, "name": "106ea9e5fe6b8997006c78c8a0351c6b"}, {"bike_id": "78faa0a8e4ed88cf5c3421be96abc0fb", "type": "electric_scooter", "is_disabled": 0, "lat": 38.9208, "rental_uris": {"ios": "https://dc.lft.to/lastmile_qr_scan", "android": "https://dc.lft.to/lastmile_qr_scan"}, "is_reserved": 0, "fusion_lon": 0.0, "fusion_lat": 0.0, "lon": -77.02384716666667, "name": "78faa0a8e4ed88cf5c3421be96abc0fb"}, {"bike_id": "6e7f4be326e4913b29a99a9069d8b8c2", "type": "electric_scooter", "is_disabled": 0, "lat": 38.8984335, "rental_uris": {"ios": "https://dc.lft.to/lastmile_qr_scan", "android": "https://dc.lft.to/lastmile_qr_scan"}, "is_reserved": 0, "fusion_lon": 0.0, "fusion_lat": 0.0, "lon": -76.9463425, "name": "6e7f4be326e4913b29a99a9069d8b8c2"}, {"bike_id": "32f948dd511a4cc1fb7e9245973a33a0", "type": "electric_scooter", "is_disabled": 0, "lat": 38.917660166666664, "rental_uris": {"ios": "https://dc.lft.to/lastmile_qr_scan", "android": "https://dc.lft.to/lastmile_qr_scan"}, "is_reserved": 0, "fusion_lon": 0.0, "fusion_lat": 0.0, "lon": -77.0476695, "name": "32f948dd511a4cc1fb7e9245973a33a0"}, {"bike_id": "8a1f47984f9d4d88cc641f7afd4708f3", "type": "electric_scooter", "is_disabled": 0, "lat": 38.928360166666664, "rental_uris": {"ios": "https://dc.lft.to/lastmile_qr_scan", "android": "https://dc.lft.to/lastmile_qr_scan"}, "is_reserved": 0, "fusion_lon": 0.0, "fusion_lat": 0.0, "lon": -77.02325766666667, "name": "8a1f47984f9d4d88cc641f7afd4708f3"}, {"bike_id": "81f56d7f4a8636291eaab9440693b144", "type": "electric_scooter", "is_disabled": 0, "lat": 38.92140533333333, "rental_uris": {"ios": "https://dc.lft.to/lastmile_qr_scan", "android": "https://dc.lft.to/lastmile_qr_scan"}, "is_reserved": 0, "fusion_lon": 0.0, "fusion_lat": 0.0, "lon": -77.01804816666667, "name": "81f56d7f4a8636291eaab9440693b144"}, {"bike_id": "f9e2d75120b58e63dfb3ff85c26850d3", "type": "electric_scooter", "is_disabled": 0, "lat": 38.92831966666667, "rental_uris": {"ios": "https://dc.lft.to/lastmile_qr_scan", "android": "https://dc.lft.to/lastmile_qr_scan"}, "is_reserved": 0, "fusion_lon": 0.0, "fusion_lat": 0.0, "lon": -77.05518016666667, "name": "f9e2d75120b58e63dfb3ff85c26850d3"}, {"bike_id": "71e6f172e674c83053b55ae0df8d2f54", "type": "electric_scooter", "is_disabled": 0, "lat": 38.86370616666667, "rental_uris": {"ios": "https://dc.lft.to/lastmile_qr_scan", "android": "https://dc.lft.to/lastmile_qr_scan"}, "is_reserved": 0, "fusion_lon": 0.0, "fusion_lat": 0.0, "lon": -76.99057416666666, "name": "71e6f172e674c83053b55ae0df8d2f54"}, {"bike_id": "f223d54d520f03b84c72c37b68549e4e", "type": "electric_scooter", "is_disabled": 0, "lat": 38.884203666666664, "rental_uris": {"ios": "https://dc.lft.to/lastmile_qr_scan", "android": "https://dc.lft.to/lastmile_qr_scan"}, "is_reserved": 0, "fusion_lon": 0.0, "fusion_lat": 0.0, "lon": -77.00737533333333, "name": "f223d54d520f03b84c72c37b68549e4e"}, {"bike_id": "8e9d1dd77d03f68ab66aca5cc65de014", "type": "electric_bike", "is_disabled": 0, "lat": 38.956213, "rental_uris": {"ios": "https://dc.lft.to/lastmile_qr_scan", "android": "https://dc.lft.to/lastmile_qr_scan"}, "is_reserved": 0, "fusion_lon": 0.0, "fusion_lat": 0.0, "lon": -76.93876616666667, "name": "8e9d1dd77d03f68ab66aca5cc65de014"}, {"bike_id": "32e9aafbbbf50530cea7ece87f40e70e", "type": "electric_bike", "is_disabled": 0, "lat": 38.940203833333335, "rental_uris": {"ios": "https://dc.lft.to/lastmile_qr_scan", "android": "https://dc.lft.to/lastmile_qr_scan"}, "is_reserved": 0, "fusion_lon": 0.0, "fusion_lat": 0.0, "lon": -76.9761255, "name": "32e9aafbbbf50530cea7ece87f40e70e"}, {"bike_id": "e633d3209f583d7985d15eb10b00520e", "type": "electric_scooter", "is_disabled": 0, "lat": 38.916267166666664, "rental_uris": {"ios": "https://dc.lft.to/lastmile_qr_scan", "android": "https://dc.lft.to/lastmile_qr_scan"}, "is_reserved": 0, "fusion_lon": 0.0, "fusion_lat": 0.0, "lon": -77.0320895, "name": "e633d3209f583d7985d15eb10b00520e"}, {"bike_id": "66a6a5d2d9e9f9ea1a819eaccf85924f", "type": "electric_scooter", "is_disabled": 0, "lat": 38.98430533333333, "rental_uris": {"ios": "https://dc.lft.to/lastmile_qr_scan", "android": "https://dc.lft.to/lastmile_qr_scan"}, "is_reserved": 0, "fusion_lon": 0.0, "fusion_lat": 0.0, "lon": -77.0267655, "name": "66a6a5d2d9e9f9ea1a819eaccf85924f"}, {"bike_id": "e8b6049e125691520138c0449b4199f7", "type": "electric_scooter", "is_disabled": 0, "lat": 38.929698333333334, "rental_uris": {"ios": "https://dc.lft.to/lastmile_qr_scan", "android": "https://dc.lft.to/lastmile_qr_scan"}, "is_reserved": 0, "fusion_lon": 0.0, "fusion_lat": 0.0, "lon": -77.02817983333334, "name": "e8b6049e125691520138c0449b4199f7"}, {"bike_id": "90e0202cc26e469026720c9fa4c9e7ef", "type": "electric_scooter", "is_disabled": 0, "lat": 38.8984545, "rental_uris": {"ios": "https://dc.lft.to/lastmile_qr_scan", "android": "https://dc.lft.to/lastmile_qr_scan"}, "is_reserved": 0, "fusion_lon": 0.0, "fusion_lat": 0.0, "lon": -77.0394765, "name": "90e0202cc26e469026720c9fa4c9e7ef"}, {"bike_id": "308f489c29d8127feb785436d29a829c", "type": "electric_scooter", "is_disabled": 0, "lat": 38.902469833333335, "rental_uris": {"ios": "https://dc.lft.to/lastmile_qr_scan", "android": "https://dc.lft.to/lastmile_qr_scan"}, "is_reserved": 0, "fusion_lon": 0.0, "fusion_lat": 0.0, "lon": -77.00075783333334, "name": "308f489c29d8127feb785436d29a829c"}, {"bike_id": "19e160d7a7edc4ccc9c1aa45422e559b", "type": "electric_scooter", "is_disabled": 0, "lat": 38.90260833333333, "rental_uris": {"ios": "https://dc.lft.to/lastmile_qr_scan", "android": "https://dc.lft.to/lastmile_qr_scan"}, "is_reserved": 0, "fusion_lon": 0.0, "fusion_lat": 0.0, "lon": -77.04476333333334, "name": "19e160d7a7edc4ccc9c1aa45422e559b"}, {"bike_id": "ba6bf07defffbddacba92baafa390a96", "type": "electric_scooter", "is_disabled": 0, "lat": 38.931311, "rental_uris": {"ios": "https://dc.lft.to/lastmile_qr_scan", "android": "https://dc.lft.to/lastmile_qr_scan"}, "is_reserved": 0, "fusion_lon": 0.0, "fusion_lat": 0.0, "lon": -76.995672, "name": "ba6bf07defffbddacba92baafa390a96"}, {"bike_id": "8f7101ae931372a1504c1fbed467c9c0", "type": "electric_scooter", "is_disabled": 0, "lat": 38.870619833333336, "rental_uris": {"ios": "https://dc.lft.to/lastmile_qr_scan", "android": "https://dc.lft.to/lastmile_qr_scan"}, "is_reserved": 0, "fusion_lon": 0.0, "fusion_lat": 0.0, "lon": -77.00742783333334, "name": "8f7101ae931372a1504c1fbed467c9c0"}, {"bike_id": "2e18e718832a0d340400766c25577a36", "type": "electric_scooter", "is_disabled": 0, "lat": 38.90512583333334, "rental_uris": {"ios": "https://dc.lft.to/lastmile_qr_scan", "android": "https://dc.lft.to/lastmile_qr_scan"}, "is_reserved": 0, "fusion_lon": 0.0, "fusion_lat": 0.0, "lon": -77.06722883333333, "name": "2e18e718832a0d340400766c25577a36"}, {"bike_id": "3470ca33564243372033d3757bdbafed", "type": "electric_scooter", "is_disabled": 0, "lat": 38.93979216666666, "rental_uris": {"ios": "https://dc.lft.to/lastmile_qr_scan", "android": "https://dc.lft.to/lastmile_qr_scan"}, "is_reserved": 0, "fusion_lon": 0.0, "fusion_lat": 0.0, "lon": -77.031439, "name": "3470ca33564243372033d3757bdbafed"}, {"bike_id": "1cd67a76a02d1982461adde1a3af2fff", "type": "electric_scooter", "is_disabled": 0, "lat": 38.9031165, "rental_uris": {"ios": "https://dc.lft.to/lastmile_qr_scan", "android": "https://dc.lft.to/lastmile_qr_scan"}, "is_reserved": 0, "fusion_lon": 0.0, "fusion_lat": 0.0, "lon": -77.024673, "name": "1cd67a76a02d1982461adde1a3af2fff"}, {"bike_id": "37e68a3f989827f6be4a2e826b30297b", "type": "electric_scooter", "is_disabled": 0, "lat": 38.93460416666667, "rental_uris": {"ios": "https://dc.lft.to/lastmile_qr_scan", "android": "https://dc.lft.to/lastmile_qr_scan"}, "is_reserved": 0, "fusion_lon": 0.0, "fusion_lat": 0.0, "lon": -76.96439366666667, "name": "37e68a3f989827f6be4a2e826b30297b"}, {"bike_id": "e7fd333b74585fb61d31fcb055141d1f", "type": "electric_scooter", "is_disabled": 0, "lat": 38.922735833333334, "rental_uris": {"ios": "https://dc.lft.to/lastmile_qr_scan", "android": "https://dc.lft.to/lastmile_qr_scan"}, "is_reserved": 0, "fusion_lon": 0.0, "fusion_lat": 0.0, "lon": -76.997587, "name": "e7fd333b74585fb61d31fcb055141d1f"}, {"bike_id": "e491ee157cb13be086868f1ddc3d3e07", "type": "electric_bike", "is_disabled": 0, "lat": 39.024343333333334, "rental_uris": {"ios": "https://dc.lft.to/lastmile_qr_scan", "android": "https://dc.lft.to/lastmile_qr_scan"}, "is_reserved": 0, "fusion_lon": 0.0, "fusion_lat": 0.0, "lon": -77.13103866666667, "name": "e491ee157cb13be086868f1ddc3d3e07"}, {"bike_id": "aff4cb66693351b708ae2f4880db4af3", "type": "electric_scooter", "is_disabled": 0, "lat": 38.92913516666667, "rental_uris": {"ios": "https://dc.lft.to/lastmile_qr_scan", "android": "https://dc.lft.to/lastmile_qr_scan"}, "is_reserved": 0, "fusion_lon": 0.0, "fusion_lat": 0.0, "lon": -77.03620033333333, "name": "aff4cb66693351b708ae2f4880db4af3"}, {"bike_id": "5f7155c6011407dabcc0062b502a0b28", "type": "electric_scooter", "is_disabled": 0, "lat": 38.86695616666667, "rental_uris": {"ios": "https://dc.lft.to/lastmile_qr_scan", "android": "https://dc.lft.to/lastmile_qr_scan"}, "is_reserved": 0, "fusion_lon": 0.0, "fusion_lat": 0.0, "lon": -76.98705283333334, "name": "5f7155c6011407dabcc0062b502a0b28"}, {"bike_id": "0851e3009e45da9fcc0f8111555132aa", "type": "electric_bike", "is_disabled": 0, "lat": 38.956994, "rental_uris": {"ios": "https://dc.lft.to/lastmile_qr_scan", "android": "https://dc.lft.to/lastmile_qr_scan"}, "is_reserved": 0, "fusion_lon": 0.0, "fusion_lat": 0.0, "lon": -77.02416166666667, "name": "0851e3009e45da9fcc0f8111555132aa"}, {"bike_id": "96dfe508a88c735f1b6a08f42b4df3c9", "type": "electric_scooter", "is_disabled": 0, "lat": 38.91414116666667, "rental_uris": {"ios": "https://dc.lft.to/lastmile_qr_scan", "android": "https://dc.lft.to/lastmile_qr_scan"}, "is_reserved": 0, "fusion_lon": 0.0, "fusion_lat": 0.0, "lon": -77.02137566666667, "name": "96dfe508a88c735f1b6a08f42b4df3c9"}, {"bike_id": "21b4415d4b4506a61f73c2762bedc809", "type": "electric_scooter", "is_disabled": 0, "lat": 38.917182, "rental_uris": {"ios": "https://dc.lft.to/lastmile_qr_scan", "android": "https://dc.lft.to/lastmile_qr_scan"}, "is_reserved": 0, "fusion_lon": 0.0, "fusion_lat": 0.0, "lon": -77.02893983333334, "name": "21b4415d4b4506a61f73c2762bedc809"}, {"bike_id": "b7e4935b0db7eab6a0ec0e40e16452a1", "type": "electric_scooter", "is_disabled": 0, "lat": 38.92605616666667, "rental_uris": {"ios": "https://dc.lft.to/lastmile_qr_scan", "android": "https://dc.lft.to/lastmile_qr_scan"}, "is_reserved": 0, "fusion_lon": 0.0, "fusion_lat": 0.0, "lon": -77.02288916666667, "name": "b7e4935b0db7eab6a0ec0e40e16452a1"}, {"bike_id": "c8292535dc7f4e6903268d15fbc4b84b", "type": "electric_scooter", "is_disabled": 0, "lat": 38.914246, "rental_uris": {"ios": "https://dc.lft.to/lastmile_qr_scan", "android": "https://dc.lft.to/lastmile_qr_scan"}, "is_reserved": 0, "fusion_lon": 0.0, "fusion_lat": 0.0, "lon": -77.01804233333333, "name": "c8292535dc7f4e6903268d15fbc4b84b"}, {"bike_id": "cf0e82736bd14edd6d9d3edc47329ac1", "type": "electric_scooter", "is_disabled": 0, "lat": 38.916954833333335, "rental_uris": {"ios": "https://dc.lft.to/lastmile_qr_scan", "android": "https://dc.lft.to/lastmile_qr_scan"}, "is_reserved": 0, "fusion_lon": 0.0, "fusion_lat": 0.0, "lon": -77.01073616666666, "name": "cf0e82736bd14edd6d9d3edc47329ac1"}, {"bike_id": "00f42c5a8c9591b23c718f0e26f1b818", "type": "electric_scooter", "is_disabled": 0, "lat": 38.90803666666667, "rental_uris": {"ios": "https://dc.lft.to/lastmile_qr_scan", "android": "https://dc.lft.to/lastmile_qr_scan"}, "is_reserved": 0, "fusion_lon": 0.0, "fusion_lat": 0.0, "lon": -77.02041983333334, "name": "00f42c5a8c9591b23c718f0e26f1b818"}, {"bike_id": "225b27f2094e11f933c56bcdaf96c7f3", "type": "electric_scooter", "is_disabled": 0, "lat": 38.921332666666665, "rental_uris": {"ios": "https://dc.lft.to/lastmile_qr_scan", "android": "https://dc.lft.to/lastmile_qr_scan"}, "is_reserved": 0, "fusion_lon": 0.0, "fusion_lat": 0.0, "lon": -77.01805666666667, "name": "225b27f2094e11f933c56bcdaf96c7f3"}, {"bike_id": "3e36bb71dc1d43887472821bbcfe3638", "type": "electric_scooter", "is_disabled": 0, "lat": 38.920321, "rental_uris": {"ios": "https://dc.lft.to/lastmile_qr_scan", "android": "https://dc.lft.to/lastmile_qr_scan"}, "is_reserved": 0, "fusion_lon": 0.0, "fusion_lat": 0.0, "lon": -77.03136233333333, "name": "3e36bb71dc1d43887472821bbcfe3638"}, {"bike_id": "864559e042ad9d89922005a2e453ea7f", "type": "electric_bike", "is_disabled": 0, "lat": 38.908280833333336, "rental_uris": {"ios": "https://dc.lft.to/lastmile_qr_scan", "android": "https://dc.lft.to/lastmile_qr_scan"}, "is_reserved": 0, "fusion_lon": 0.0, "fusion_lat": 0.0, "lon": -76.94158966666667, "name": "864559e042ad9d89922005a2e453ea7f"}, {"bike_id": "c3a52fbdec906348c85dbd2e6821a7ac", "type": "electric_bike", "is_disabled": 0, "lat": 38.87692333333333, "rental_uris": {"ios": "https://dc.lft.to/lastmile_qr_scan", "android": "https://dc.lft.to/lastmile_qr_scan"}, "is_reserved": 0, "fusion_lon": 0.0, "fusion_lat": 0.0, "lon": -77.10972533333333, "name": "c3a52fbdec906348c85dbd2e6821a7ac"}, {"bike_id": "d997af8d631bcfd716d88dc5bb133876", "type": "electric_scooter", "is_disabled": 0, "lat": 38.888398, "rental_uris": {"ios": "https://dc.lft.to/lastmile_qr_scan", "android": "https://dc.lft.to/lastmile_qr_scan"}, "is_reserved": 0, "fusion_lon": 0.0, "fusion_lat": 0.0, "lon": -76.98915316666667, "name": "d997af8d631bcfd716d88dc5bb133876"}, {"bike_id": "079579a6e26d602f3cd10659b4638aa5", "type": "electric_scooter", "is_disabled": 0, "lat": 38.90678616666667, "rental_uris": {"ios": "https://dc.lft.to/lastmile_qr_scan", "android": "https://dc.lft.to/lastmile_qr_scan"}, "is_reserved": 0, "fusion_lon": 0.0, "fusion_lat": 0.0, "lon": -77.05324116666667, "name": "079579a6e26d602f3cd10659b4638aa5"}, {"bike_id": "0be92ff15e94d8bc7e363418b46fcba3", "type": "electric_scooter", "is_disabled": 0, "lat": 38.8624185, "rental_uris": {"ios": "https://dc.lft.to/lastmile_qr_scan", "android": "https://dc.lft.to/lastmile_qr_scan"}, "is_reserved": 0, "fusion_lon": 0.0, "fusion_lat": 0.0, "lon": -76.99261516666667, "name": "0be92ff15e94d8bc7e363418b46fcba3"}, {"bike_id": "4e2f346e29e9cd1f3dc30b4d7876a404", "type": "electric_scooter", "is_disabled": 0, "lat": 38.89680966666667, "rental_uris": {"ios": "https://dc.lft.to/lastmile_qr_scan", "android": "https://dc.lft.to/lastmile_qr_scan"}, "is_reserved": 0, "fusion_lon": 0.0, "fusion_lat": 0.0, "lon": -77.0336995, "name": "4e2f346e29e9cd1f3dc30b4d7876a404"}, {"bike_id": "2629d5c2f13aeab473fa78a98c789dbb", "type": "electric_scooter", "is_disabled": 0, "lat": 38.86366533333333, "rental_uris": {"ios": "https://dc.lft.to/lastmile_qr_scan", "android": "https://dc.lft.to/lastmile_qr_scan"}, "is_reserved": 0, "fusion_lon": 0.0, "fusion_lat": 0.0, "lon": -76.99058133333334, "name": "2629d5c2f13aeab473fa78a98c789dbb"}, {"bike_id": "5e91f0e6ef9009215177fddbb00de96f", "type": "electric_scooter", "is_disabled": 0, "lat": 38.90669316666666, "rental_uris": {"ios": "https://dc.lft.to/lastmile_qr_scan", "android": "https://dc.lft.to/lastmile_qr_scan"}, "is_reserved": 0, "fusion_lon": 0.0, "fusion_lat": 0.0, "lon": -77.01049983333333, "name": "5e91f0e6ef9009215177fddbb00de96f"}, {"bike_id": "9c473d5b435ac4104023c4210c62ec3f", "type": "electric_scooter", "is_disabled": 0, "lat": 38.91682433333333, "rental_uris": {"ios": "https://dc.lft.to/lastmile_qr_scan", "android": "https://dc.lft.to/lastmile_qr_scan"}, "is_reserved": 0, "fusion_lon": 0.0, "fusion_lat": 0.0, "lon": -77.02878133333333, "name": "9c473d5b435ac4104023c4210c62ec3f"}, {"bike_id": "a8571e3467b210b6e1456c7efbbc9040", "type": "electric_scooter", "is_disabled": 0, "lat": 38.925614, "rental_uris": {"ios": "https://dc.lft.to/lastmile_qr_scan", "android": "https://dc.lft.to/lastmile_qr_scan"}, "is_reserved": 0, "fusion_lon": 0.0, "fusion_lat": 0.0, "lon": -77.0227855, "name": "a8571e3467b210b6e1456c7efbbc9040"}, {"bike_id": "2e3b245cd03751800bfdd452254c52a0", "type": "electric_scooter", "is_disabled": 0, "lat": 38.879354666666664, "rental_uris": {"ios": "https://dc.lft.to/lastmile_qr_scan", "android": "https://dc.lft.to/lastmile_qr_scan"}, "is_reserved": 0, "fusion_lon": 0.0, "fusion_lat": 0.0, "lon": -77.003819, "name": "2e3b245cd03751800bfdd452254c52a0"}, {"bike_id": "753506290de31cb35446ef78df8242d4", "type": "electric_scooter", "is_disabled": 0, "lat": 38.91289916666667, "rental_uris": {"ios": "https://dc.lft.to/lastmile_qr_scan", "android": "https://dc.lft.to/lastmile_qr_scan"}, "is_reserved": 0, "fusion_lon": 0.0, "fusion_lat": 0.0, "lon": -77.0197275, "name": "753506290de31cb35446ef78df8242d4"}, {"bike_id": "f1bede9f7259d47c869e31560109aeab", "type": "electric_scooter", "is_disabled": 0, "lat": 38.878615, "rental_uris": {"ios": "https://dc.lft.to/lastmile_qr_scan", "android": "https://dc.lft.to/lastmile_qr_scan"}, "is_reserved": 0, "fusion_lon": 0.0, "fusion_lat": 0.0, "lon": -76.96984883333333, "name": "f1bede9f7259d47c869e31560109aeab"}, {"bike_id": "329e7ac2b18c3544c0308addaa73725f", "type": "electric_scooter", "is_disabled": 0, "lat": 38.90862666666666, "rental_uris": {"ios": "https://dc.lft.to/lastmile_qr_scan", "android": "https://dc.lft.to/lastmile_qr_scan"}, "is_reserved": 0, "fusion_lon": 0.0, "fusion_lat": 0.0, "lon": -76.99968916666667, "name": "329e7ac2b18c3544c0308addaa73725f"}, {"bike_id": "367e6e858b3fcdb975011d504cff9c5f", "type": "electric_scooter", "is_disabled": 0, "lat": 38.917774333333334, "rental_uris": {"ios": "https://dc.lft.to/lastmile_qr_scan", "android": "https://dc.lft.to/lastmile_qr_scan"}, "is_reserved": 0, "fusion_lon": 0.0, "fusion_lat": 0.0, "lon": -77.0231065, "name": "367e6e858b3fcdb975011d504cff9c5f"}, {"bike_id": "89ee046444ebd43b0286e0d0b2351385", "type": "electric_scooter", "is_disabled": 0, "lat": 38.9227005, "rental_uris": {"ios": "https://dc.lft.to/lastmile_qr_scan", "android": "https://dc.lft.to/lastmile_qr_scan"}, "is_reserved": 0, "fusion_lon": 0.0, "fusion_lat": 0.0, "lon": -77.02968483333333, "name": "89ee046444ebd43b0286e0d0b2351385"}, {"bike_id": "9f1a45f75826f2e9954c6d75496f169b", "type": "electric_scooter", "is_disabled": 0, "lat": 38.91580166666667, "rental_uris": {"ios": "https://dc.lft.to/lastmile_qr_scan", "android": "https://dc.lft.to/lastmile_qr_scan"}, "is_reserved": 0, "fusion_lon": 0.0, "fusion_lat": 0.0, "lon": -77.02054783333334, "name": "9f1a45f75826f2e9954c6d75496f169b"}, {"bike_id": "adc7abf6c5963a6b8e8c0c3495c649d8", "type": "electric_scooter", "is_disabled": 0, "lat": 38.954818333333336, "rental_uris": {"ios": "https://dc.lft.to/lastmile_qr_scan", "android": "https://dc.lft.to/lastmile_qr_scan"}, "is_reserved": 0, "fusion_lon": 0.0, "fusion_lat": 0.0, "lon": -77.08217383333333, "name": "adc7abf6c5963a6b8e8c0c3495c649d8"}, {"bike_id": "3845d3d1ad3549e7d28eef1179cfbb3b", "type": "electric_scooter", "is_disabled": 0, "lat": 38.94276266666667, "rental_uris": {"ios": "https://dc.lft.to/lastmile_qr_scan", "android": "https://dc.lft.to/lastmile_qr_scan"}, "is_reserved": 0, "fusion_lon": 0.0, "fusion_lat": 0.0, "lon": -77.03257816666667, "name": "3845d3d1ad3549e7d28eef1179cfbb3b"}, {"bike_id": "0a6d4157840b881aeffd6f36ee2c092d", "type": "electric_scooter", "is_disabled": 0, "lat": 38.866850166666666, "rental_uris": {"ios": "https://dc.lft.to/lastmile_qr_scan", "android": "https://dc.lft.to/lastmile_qr_scan"}, "is_reserved": 0, "fusion_lon": 0.0, "fusion_lat": 0.0, "lon": -76.985859, "name": "0a6d4157840b881aeffd6f36ee2c092d"}, {"bike_id": "cda8e3ec4ce4f3d1a0967036c0f9c169", "type": "electric_scooter", "is_disabled": 0, "lat": 38.89003683333333, "rental_uris": {"ios": "https://dc.lft.to/lastmile_qr_scan", "android": "https://dc.lft.to/lastmile_qr_scan"}, "is_reserved": 0, "fusion_lon": 0.0, "fusion_lat": 0.0, "lon": -76.93744833333334, "name": "cda8e3ec4ce4f3d1a0967036c0f9c169"}, {"bike_id": "fc0bff5da53c72b93eec0450ee63cef0", "type": "electric_scooter", "is_disabled": 0, "lat": 38.907106166666665, "rental_uris": {"ios": "https://dc.lft.to/lastmile_qr_scan", "android": "https://dc.lft.to/lastmile_qr_scan"}, "is_reserved": 0, "fusion_lon": 0.0, "fusion_lat": 0.0, "lon": -77.04516433333333, "name": "fc0bff5da53c72b93eec0450ee63cef0"}, {"bike_id": "95d90ed1f433ca737051e04fb8574fbf", "type": "electric_scooter", "is_disabled": 0, "lat": 38.8637365, "rental_uris": {"ios": "https://dc.lft.to/lastmile_qr_scan", "android": "https://dc.lft.to/lastmile_qr_scan"}, "is_reserved": 0, "fusion_lon": 0.0, "fusion_lat": 0.0, "lon": -76.99059516666667, "name": "95d90ed1f433ca737051e04fb8574fbf"}, {"bike_id": "b71f54e3dff442b25218b18c92add5a0", "type": "electric_scooter", "is_disabled": 0, "lat": 38.874175, "rental_uris": {"ios": "https://dc.lft.to/lastmile_qr_scan", "android": "https://dc.lft.to/lastmile_qr_scan"}, "is_reserved": 0, "fusion_lon": 0.0, "fusion_lat": 0.0, "lon": -76.96906383333334, "name": "b71f54e3dff442b25218b18c92add5a0"}, {"bike_id": "123f9aaed624eccb0ff722ab7922c3cf", "type": "electric_scooter", "is_disabled": 0, "lat": 38.921953, "rental_uris": {"ios": "https://dc.lft.to/lastmile_qr_scan", "android": "https://dc.lft.to/lastmile_qr_scan"}, "is_reserved": 0, "fusion_lon": 0.0, "fusion_lat": 0.0, "lon": -77.0240975, "name": "123f9aaed624eccb0ff722ab7922c3cf"}, {"bike_id": "28a417e57e34afd38430b3af99269f2b", "type": "electric_scooter", "is_disabled": 0, "lat": 38.92383683333333, "rental_uris": {"ios": "https://dc.lft.to/lastmile_qr_scan", "android": "https://dc.lft.to/lastmile_qr_scan"}, "is_reserved": 0, "fusion_lon": 0.0, "fusion_lat": 0.0, "lon": -77.04471983333333, "name": "28a417e57e34afd38430b3af99269f2b"}, {"bike_id": "ba9f386c0fc3cf8a279068ddc9b0c558", "type": "electric_scooter", "is_disabled": 0, "lat": 38.9392175, "rental_uris": {"ios": "https://dc.lft.to/lastmile_qr_scan", "android": "https://dc.lft.to/lastmile_qr_scan"}, "is_reserved": 0, "fusion_lon": 0.0, "fusion_lat": 0.0, "lon": -77.03265166666667, "name": "ba9f386c0fc3cf8a279068ddc9b0c558"}, {"bike_id": "0dae14e53edd4909c76c80d1a47a9178", "type": "electric_scooter", "is_disabled": 0, "lat": 38.9227075, "rental_uris": {"ios": "https://dc.lft.to/lastmile_qr_scan", "android": "https://dc.lft.to/lastmile_qr_scan"}, "is_reserved": 0, "fusion_lon": 0.0, "fusion_lat": 0.0, "lon": -76.99444483333333, "name": "0dae14e53edd4909c76c80d1a47a9178"}, {"bike_id": "b80c9ad992c8f6710ca21ff4b9abc0e7", "type": "electric_scooter", "is_disabled": 0, "lat": 38.95729166666667, "rental_uris": {"ios": "https://dc.lft.to/lastmile_qr_scan", "android": "https://dc.lft.to/lastmile_qr_scan"}, "is_reserved": 0, "fusion_lon": 0.0, "fusion_lat": 0.0, "lon": -77.0240435, "name": "b80c9ad992c8f6710ca21ff4b9abc0e7"}, {"bike_id": "827b15a87239cc91e15952abba28f80a", "type": "electric_scooter", "is_disabled": 0, "lat": 38.92763566666667, "rental_uris": {"ios": "https://dc.lft.to/lastmile_qr_scan", "android": "https://dc.lft.to/lastmile_qr_scan"}, "is_reserved": 0, "fusion_lon": 0.0, "fusion_lat": 0.0, "lon": -76.98760316666667, "name": "827b15a87239cc91e15952abba28f80a"}, {"bike_id": "0d4c6907efd6265d77b0399dde9da840", "type": "electric_scooter", "is_disabled": 0, "lat": 38.86684833333333, "rental_uris": {"ios": "https://dc.lft.to/lastmile_qr_scan", "android": "https://dc.lft.to/lastmile_qr_scan"}, "is_reserved": 0, "fusion_lon": 0.0, "fusion_lat": 0.0, "lon": -76.98586, "name": "0d4c6907efd6265d77b0399dde9da840"}, {"bike_id": "90dafb880cb1526502b2f14eaed8c17c", "type": "electric_scooter", "is_disabled": 0, "lat": 38.871576166666664, "rental_uris": {"ios": "https://dc.lft.to/lastmile_qr_scan", "android": "https://dc.lft.to/lastmile_qr_scan"}, "is_reserved": 0, "fusion_lon": 0.0, "fusion_lat": 0.0, "lon": -77.00711416666667, "name": "90dafb880cb1526502b2f14eaed8c17c"}, {"bike_id": "7d6a6ee774be2fa6e8d9a803e73a9859", "type": "electric_scooter", "is_disabled": 0, "lat": 38.91821816666667, "rental_uris": {"ios": "https://dc.lft.to/lastmile_qr_scan", "android": "https://dc.lft.to/lastmile_qr_scan"}, "is_reserved": 0, "fusion_lon": 0.0, "fusion_lat": 0.0, "lon": -77.03998566666667, "name": "7d6a6ee774be2fa6e8d9a803e73a9859"}, {"bike_id": "0b0ea1622c93b3cbea788afd3c427008", "type": "electric_bike", "is_disabled": 0, "lat": 38.881175166666665, "rental_uris": {"ios": "https://dc.lft.to/lastmile_qr_scan", "android": "https://dc.lft.to/lastmile_qr_scan"}, "is_reserved": 0, "fusion_lon": 0.0, "fusion_lat": 0.0, "lon": -77.016677, "name": "0b0ea1622c93b3cbea788afd3c427008"}, {"bike_id": "2363361a066bbd1481035952ecfbba6c", "type": "electric_scooter", "is_disabled": 0, "lat": 38.9216575, "rental_uris": {"ios": "https://dc.lft.to/lastmile_qr_scan", "android": "https://dc.lft.to/lastmile_qr_scan"}, "is_reserved": 0, "fusion_lon": 0.0, "fusion_lat": 0.0, "lon": -77.019307, "name": "2363361a066bbd1481035952ecfbba6c"}, {"bike_id": "e9e2f5db0cfaad818f2405ff71f5d67b", "type": "electric_scooter", "is_disabled": 0, "lat": 38.917093333333334, "rental_uris": {"ios": "https://dc.lft.to/lastmile_qr_scan", "android": "https://dc.lft.to/lastmile_qr_scan"}, "is_reserved": 0, "fusion_lon": 0.0, "fusion_lat": 0.0, "lon": -77.0958055, "name": "e9e2f5db0cfaad818f2405ff71f5d67b"}, {"bike_id": "57bce7798b3dd753d247c7f04fa24c2f", "type": "electric_scooter", "is_disabled": 0, "lat": 38.9265145, "rental_uris": {"ios": "https://dc.lft.to/lastmile_qr_scan", "android": "https://dc.lft.to/lastmile_qr_scan"}, "is_reserved": 0, "fusion_lon": 0.0, "fusion_lat": 0.0, "lon": -76.99287366666667, "name": "57bce7798b3dd753d247c7f04fa24c2f"}, {"bike_id": "3b4209a3a07046915372b080beb7dbec", "type": "electric_scooter", "is_disabled": 0, "lat": 38.91028683333333, "rental_uris": {"ios": "https://dc.lft.to/lastmile_qr_scan", "android": "https://dc.lft.to/lastmile_qr_scan"}, "is_reserved": 0, "fusion_lon": 0.0, "fusion_lat": 0.0, "lon": -77.038423, "name": "3b4209a3a07046915372b080beb7dbec"}, {"bike_id": "699f4a39e5d55eca5c49a25d358541fd", "type": "electric_scooter", "is_disabled": 0, "lat": 38.92324083333333, "rental_uris": {"ios": "https://dc.lft.to/lastmile_qr_scan", "android": "https://dc.lft.to/lastmile_qr_scan"}, "is_reserved": 0, "fusion_lon": 0.0, "fusion_lat": 0.0, "lon": -77.02149483333334, "name": "699f4a39e5d55eca5c49a25d358541fd"}, {"bike_id": "16cb6015cf191d2ddf5939f93d7b332f", "type": "electric_scooter", "is_disabled": 0, "lat": 38.9064475, "rental_uris": {"ios": "https://dc.lft.to/lastmile_qr_scan", "android": "https://dc.lft.to/lastmile_qr_scan"}, "is_reserved": 0, "fusion_lon": 0.0, "fusion_lat": 0.0, "lon": -77.024958, "name": "16cb6015cf191d2ddf5939f93d7b332f"}, {"bike_id": "8568a7d16553e4ae9e9a554cbf4aac58", "type": "electric_scooter", "is_disabled": 0, "lat": 38.900737166666666, "rental_uris": {"ios": "https://dc.lft.to/lastmile_qr_scan", "android": "https://dc.lft.to/lastmile_qr_scan"}, "is_reserved": 0, "fusion_lon": 0.0, "fusion_lat": 0.0, "lon": -77.051339, "name": "8568a7d16553e4ae9e9a554cbf4aac58"}, {"bike_id": "a869ece817b789ab0d95dde901c41faa", "type": "electric_scooter", "is_disabled": 0, "lat": 38.866901166666665, "rental_uris": {"ios": "https://dc.lft.to/lastmile_qr_scan", "android": "https://dc.lft.to/lastmile_qr_scan"}, "is_reserved": 0, "fusion_lon": 0.0, "fusion_lat": 0.0, "lon": -76.98562783333334, "name": "a869ece817b789ab0d95dde901c41faa"}, {"bike_id": "f7e9c5e71a5e6a7a51f3dd4a44176179", "type": "electric_scooter", "is_disabled": 0, "lat": 38.92552466666667, "rental_uris": {"ios": "https://dc.lft.to/lastmile_qr_scan", "android": "https://dc.lft.to/lastmile_qr_scan"}, "is_reserved": 0, "fusion_lon": 0.0, "fusion_lat": 0.0, "lon": -77.03359683333333, "name": "f7e9c5e71a5e6a7a51f3dd4a44176179"}, {"bike_id": "5de354d6419e5bc0a64d4044440c19fb", "type": "electric_scooter", "is_disabled": 0, "lat": 38.91493066666666, "rental_uris": {"ios": "https://dc.lft.to/lastmile_qr_scan", "android": "https://dc.lft.to/lastmile_qr_scan"}, "is_reserved": 0, "fusion_lon": 0.0, "fusion_lat": 0.0, "lon": -77.02273066666666, "name": "5de354d6419e5bc0a64d4044440c19fb"}, {"bike_id": "f66b4ac4bdbf20d8084a36c2a3f9fe43", "type": "electric_scooter", "is_disabled": 0, "lat": 38.900772833333335, "rental_uris": {"ios": "https://dc.lft.to/lastmile_qr_scan", "android": "https://dc.lft.to/lastmile_qr_scan"}, "is_reserved": 0, "fusion_lon": 0.0, "fusion_lat": 0.0, "lon": -77.01916183333333, "name": "f66b4ac4bdbf20d8084a36c2a3f9fe43"}, {"bike_id": "dd917809cacb307e4b45d9ccc257cfd1", "type": "electric_scooter", "is_disabled": 0, "lat": 38.89494766666667, "rental_uris": {"ios": "https://dc.lft.to/lastmile_qr_scan", "android": "https://dc.lft.to/lastmile_qr_scan"}, "is_reserved": 0, "fusion_lon": 0.0, "fusion_lat": 0.0, "lon": -76.93487833333333, "name": "dd917809cacb307e4b45d9ccc257cfd1"}, {"bike_id": "176db87435f1b257774b1109bd522d26", "type": "electric_bike", "is_disabled": 0, "lat": 38.848435, "rental_uris": {"ios": "https://dc.lft.to/lastmile_qr_scan", "android": "https://dc.lft.to/lastmile_qr_scan"}, "is_reserved": 0, "fusion_lon": 0.0, "fusion_lat": 0.0, "lon": -77.079124, "name": "176db87435f1b257774b1109bd522d26"}, {"bike_id": "c646f4de5866351065b716105b2f7826", "type": "electric_scooter", "is_disabled": 0, "lat": 38.94322416666667, "rental_uris": {"ios": "https://dc.lft.to/lastmile_qr_scan", "android": "https://dc.lft.to/lastmile_qr_scan"}, "is_reserved": 0, "fusion_lon": 0.0, "fusion_lat": 0.0, "lon": -77.0613655, "name": "c646f4de5866351065b716105b2f7826"}, {"bike_id": "1050b62f1957fbc039ab1ad31e4473a4", "type": "electric_bike", "is_disabled": 0, "lat": 38.942657, "rental_uris": {"ios": "https://dc.lft.to/lastmile_qr_scan", "android": "https://dc.lft.to/lastmile_qr_scan"}, "is_reserved": 0, "fusion_lon": 0.0, "fusion_lat": 0.0, "lon": -76.99075966666666, "name": "1050b62f1957fbc039ab1ad31e4473a4"}, {"bike_id": "e817003ae4d4140fc2c8314a80fb1a3d", "type": "electric_scooter", "is_disabled": 0, "lat": 38.95113533333333, "rental_uris": {"ios": "https://dc.lft.to/lastmile_qr_scan", "android": "https://dc.lft.to/lastmile_qr_scan"}, "is_reserved": 0, "fusion_lon": 0.0, "fusion_lat": 0.0, "lon": -77.01431883333333, "name": "e817003ae4d4140fc2c8314a80fb1a3d"}, {"bike_id": "510a798e68d120bdeae07239cfed2c68", "type": "electric_scooter", "is_disabled": 0, "lat": 38.91444633333333, "rental_uris": {"ios": "https://dc.lft.to/lastmile_qr_scan", "android": "https://dc.lft.to/lastmile_qr_scan"}, "is_reserved": 0, "fusion_lon": 0.0, "fusion_lat": 0.0, "lon": -77.021429, "name": "510a798e68d120bdeae07239cfed2c68"}, {"bike_id": "912e55391f96ec05e1570fc83056a863", "type": "electric_scooter", "is_disabled": 0, "lat": 38.918986, "rental_uris": {"ios": "https://dc.lft.to/lastmile_qr_scan", "android": "https://dc.lft.to/lastmile_qr_scan"}, "is_reserved": 0, "fusion_lon": 0.0, "fusion_lat": 0.0, "lon": -77.03177316666667, "name": "912e55391f96ec05e1570fc83056a863"}, {"bike_id": "c8dfc362bc386d835d0c644569481d14", "type": "electric_bike", "is_disabled": 0, "lat": 38.9465265, "rental_uris": {"ios": "https://dc.lft.to/lastmile_qr_scan", "android": "https://dc.lft.to/lastmile_qr_scan"}, "is_reserved": 0, "fusion_lon": 0.0, "fusion_lat": 0.0, "lon": -76.99490883333333, "name": "c8dfc362bc386d835d0c644569481d14"}, {"bike_id": "58102db1661a6656cc9ca546a6bb4321", "type": "electric_scooter", "is_disabled": 0, "lat": 38.918672, "rental_uris": {"ios": "https://dc.lft.to/lastmile_qr_scan", "android": "https://dc.lft.to/lastmile_qr_scan"}, "is_reserved": 0, "fusion_lon": 0.0, "fusion_lat": 0.0, "lon": -77.04144166666667, "name": "58102db1661a6656cc9ca546a6bb4321"}, {"bike_id": "e0ede8efc6dea2852b4b8696012b6e34", "type": "electric_scooter", "is_disabled": 0, "lat": 38.90648066666667, "rental_uris": {"ios": "https://dc.lft.to/lastmile_qr_scan", "android": "https://dc.lft.to/lastmile_qr_scan"}, "is_reserved": 0, "fusion_lon": 0.0, "fusion_lat": 0.0, "lon": -77.01421166666667, "name": "e0ede8efc6dea2852b4b8696012b6e34"}, {"bike_id": "db9d1818bec0a5483e0951569302bd63", "type": "electric_scooter", "is_disabled": 0, "lat": 38.914175, "rental_uris": {"ios": "https://dc.lft.to/lastmile_qr_scan", "android": "https://dc.lft.to/lastmile_qr_scan"}, "is_reserved": 0, "fusion_lon": 0.0, "fusion_lat": 0.0, "lon": -77.02290733333334, "name": "db9d1818bec0a5483e0951569302bd63"}, {"bike_id": "85ab4f5dee8272bf993382c95e350ddd", "type": "electric_scooter", "is_disabled": 0, "lat": 38.93537583333333, "rental_uris": {"ios": "https://dc.lft.to/lastmile_qr_scan", "android": "https://dc.lft.to/lastmile_qr_scan"}, "is_reserved": 0, "fusion_lon": 0.0, "fusion_lat": 0.0, "lon": -77.02249383333333, "name": "85ab4f5dee8272bf993382c95e350ddd"}, {"bike_id": "02cf70a8bcbadcfd4f6601769cc54719", "type": "electric_scooter", "is_disabled": 0, "lat": 38.910980333333335, "rental_uris": {"ios": "https://dc.lft.to/lastmile_qr_scan", "android": "https://dc.lft.to/lastmile_qr_scan"}, "is_reserved": 0, "fusion_lon": 0.0, "fusion_lat": 0.0, "lon": -77.0280385, "name": "02cf70a8bcbadcfd4f6601769cc54719"}, {"bike_id": "1f115d68b2e91396b8d8b45a5b8ffa5b", "type": "electric_scooter", "is_disabled": 0, "lat": 38.903927833333334, "rental_uris": {"ios": "https://dc.lft.to/lastmile_qr_scan", "android": "https://dc.lft.to/lastmile_qr_scan"}, "is_reserved": 0, "fusion_lon": 0.0, "fusion_lat": 0.0, "lon": -77.0677915, "name": "1f115d68b2e91396b8d8b45a5b8ffa5b"}, {"bike_id": "d79521f751664310a9d7d7a33c6d54a7", "type": "electric_scooter", "is_disabled": 0, "lat": 38.899792833333336, "rental_uris": {"ios": "https://dc.lft.to/lastmile_qr_scan", "android": "https://dc.lft.to/lastmile_qr_scan"}, "is_reserved": 0, "fusion_lon": 0.0, "fusion_lat": 0.0, "lon": -76.9883025, "name": "d79521f751664310a9d7d7a33c6d54a7"}, {"bike_id": "f65d1f8551b4107445e720463496015f", "type": "electric_scooter", "is_disabled": 0, "lat": 38.900657833333334, "rental_uris": {"ios": "https://dc.lft.to/lastmile_qr_scan", "android": "https://dc.lft.to/lastmile_qr_scan"}, "is_reserved": 0, "fusion_lon": 0.0, "fusion_lat": 0.0, "lon": -76.9273915, "name": "f65d1f8551b4107445e720463496015f"}, {"bike_id": "ee418385d64a8a98ac411a11043a5726", "type": "electric_scooter", "is_disabled": 0, "lat": 38.91603116666667, "rental_uris": {"ios": "https://dc.lft.to/lastmile_qr_scan", "android": "https://dc.lft.to/lastmile_qr_scan"}, "is_reserved": 0, "fusion_lon": 0.0, "fusion_lat": 0.0, "lon": -77.01129983333334, "name": "ee418385d64a8a98ac411a11043a5726"}, {"bike_id": "6ff42887d5b5174d6b8a7eeee38a5dd8", "type": "electric_scooter", "is_disabled": 0, "lat": 38.95527, "rental_uris": {"ios": "https://dc.lft.to/lastmile_qr_scan", "android": "https://dc.lft.to/lastmile_qr_scan"}, "is_reserved": 0, "fusion_lon": 0.0, "fusion_lat": 0.0, "lon": -77.0277895, "name": "6ff42887d5b5174d6b8a7eeee38a5dd8"}, {"bike_id": "a7f430e2994b8ddc58c80fea0b8d750e", "type": "electric_scooter", "is_disabled": 0, "lat": 38.93443516666667, "rental_uris": {"ios": "https://dc.lft.to/lastmile_qr_scan", "android": "https://dc.lft.to/lastmile_qr_scan"}, "is_reserved": 0, "fusion_lon": 0.0, "fusion_lat": 0.0, "lon": -77.038761, "name": "a7f430e2994b8ddc58c80fea0b8d750e"}, {"bike_id": "a7f070779108712bc425beaa28e44a98", "type": "electric_bike", "is_disabled": 0, "lat": 38.838088166666665, "rental_uris": {"ios": "https://dc.lft.to/lastmile_qr_scan", "android": "https://dc.lft.to/lastmile_qr_scan"}, "is_reserved": 0, "fusion_lon": 0.0, "fusion_lat": 0.0, "lon": -77.0952195, "name": "a7f070779108712bc425beaa28e44a98"}, {"bike_id": "19553883644b96b1be31ec9642d7d7f2", "type": "electric_scooter", "is_disabled": 0, "lat": 38.929192, "rental_uris": {"ios": "https://dc.lft.to/lastmile_qr_scan", "android": "https://dc.lft.to/lastmile_qr_scan"}, "is_reserved": 0, "fusion_lon": 0.0, "fusion_lat": 0.0, "lon": -77.03194116666667, "name": "19553883644b96b1be31ec9642d7d7f2"}, {"bike_id": "172819ecfadbf1515797bdaf7af27766", "type": "electric_scooter", "is_disabled": 0, "lat": 38.905283, "rental_uris": {"ios": "https://dc.lft.to/lastmile_qr_scan", "android": "https://dc.lft.to/lastmile_qr_scan"}, "is_reserved": 0, "fusion_lon": 0.0, "fusion_lat": 0.0, "lon": -77.048556, "name": "172819ecfadbf1515797bdaf7af27766"}, {"bike_id": "5cccbc0729ac2acb6479b42e6e6bc626", "type": "electric_scooter", "is_disabled": 0, "lat": 38.868855, "rental_uris": {"ios": "https://dc.lft.to/lastmile_qr_scan", "android": "https://dc.lft.to/lastmile_qr_scan"}, "is_reserved": 0, "fusion_lon": 0.0, "fusion_lat": 0.0, "lon": -76.98446833333334, "name": "5cccbc0729ac2acb6479b42e6e6bc626"}, {"bike_id": "879189fc88cf06ce25e007f3bdc5971e", "type": "electric_scooter", "is_disabled": 0, "lat": 38.96552583333333, "rental_uris": {"ios": "https://dc.lft.to/lastmile_qr_scan", "android": "https://dc.lft.to/lastmile_qr_scan"}, "is_reserved": 0, "fusion_lon": 0.0, "fusion_lat": 0.0, "lon": -77.036311, "name": "879189fc88cf06ce25e007f3bdc5971e"}, {"bike_id": "00ca958f6331f885ee9a3df1868222d2", "type": "electric_scooter", "is_disabled": 0, "lat": 38.90294, "rental_uris": {"ios": "https://dc.lft.to/lastmile_qr_scan", "android": "https://dc.lft.to/lastmile_qr_scan"}, "is_reserved": 0, "fusion_lon": 0.0, "fusion_lat": 0.0, "lon": -77.00328233333333, "name": "00ca958f6331f885ee9a3df1868222d2"}, {"bike_id": "93fd8bfea12db0037a7a08e2c7bc196a", "type": "electric_bike", "is_disabled": 0, "lat": 38.86334216666667, "rental_uris": {"ios": "https://dc.lft.to/lastmile_qr_scan", "android": "https://dc.lft.to/lastmile_qr_scan"}, "is_reserved": 0, "fusion_lon": 0.0, "fusion_lat": 0.0, "lon": -76.98723183333334, "name": "93fd8bfea12db0037a7a08e2c7bc196a"}, {"bike_id": "d97944fea7414834147189722bb5b521", "type": "electric_scooter", "is_disabled": 0, "lat": 38.8589465, "rental_uris": {"ios": "https://dc.lft.to/lastmile_qr_scan", "android": "https://dc.lft.to/lastmile_qr_scan"}, "is_reserved": 0, "fusion_lon": 0.0, "fusion_lat": 0.0, "lon": -76.9972615, "name": "d97944fea7414834147189722bb5b521"}, {"bike_id": "77a2b8864633897c1e3843e93d53dc22", "type": "electric_scooter", "is_disabled": 0, "lat": 38.921771166666666, "rental_uris": {"ios": "https://dc.lft.to/lastmile_qr_scan", "android": "https://dc.lft.to/lastmile_qr_scan"}, "is_reserved": 0, "fusion_lon": 0.0, "fusion_lat": 0.0, "lon": -76.99793283333334, "name": "77a2b8864633897c1e3843e93d53dc22"}, {"bike_id": "fb8beae0100cfdfe9ef34a79966c8628", "type": "electric_scooter", "is_disabled": 0, "lat": 38.901367, "rental_uris": {"ios": "https://dc.lft.to/lastmile_qr_scan", "android": "https://dc.lft.to/lastmile_qr_scan"}, "is_reserved": 0, "fusion_lon": 0.0, "fusion_lat": 0.0, "lon": -77.026092, "name": "fb8beae0100cfdfe9ef34a79966c8628"}, {"bike_id": "1d6f4b89da188e34ad3be6f41cc6cdfe", "type": "electric_scooter", "is_disabled": 0, "lat": 38.8998535, "rental_uris": {"ios": "https://dc.lft.to/lastmile_qr_scan", "android": "https://dc.lft.to/lastmile_qr_scan"}, "is_reserved": 0, "fusion_lon": 0.0, "fusion_lat": 0.0, "lon": -76.95000366666666, "name": "1d6f4b89da188e34ad3be6f41cc6cdfe"}, {"bike_id": "9dcfbf87211a29a2c18cb931da642630", "type": "electric_scooter", "is_disabled": 0, "lat": 38.91050216666667, "rental_uris": {"ios": "https://dc.lft.to/lastmile_qr_scan", "android": "https://dc.lft.to/lastmile_qr_scan"}, "is_reserved": 0, "fusion_lon": 0.0, "fusion_lat": 0.0, "lon": -77.05463183333333, "name": "9dcfbf87211a29a2c18cb931da642630"}, {"bike_id": "3eb836f8f066bcb20c2fcb8274438a2e", "type": "electric_scooter", "is_disabled": 0, "lat": 38.93776716666667, "rental_uris": {"ios": "https://dc.lft.to/lastmile_qr_scan", "android": "https://dc.lft.to/lastmile_qr_scan"}, "is_reserved": 0, "fusion_lon": 0.0, "fusion_lat": 0.0, "lon": -77.01975816666666, "name": "3eb836f8f066bcb20c2fcb8274438a2e"}, {"bike_id": "c96f8c5d5a84e11c79b4737c0535c549", "type": "electric_scooter", "is_disabled": 0, "lat": 38.941135, "rental_uris": {"ios": "https://dc.lft.to/lastmile_qr_scan", "android": "https://dc.lft.to/lastmile_qr_scan"}, "is_reserved": 0, "fusion_lon": 0.0, "fusion_lat": 0.0, "lon": -77.02544116666667, "name": "c96f8c5d5a84e11c79b4737c0535c549"}, {"bike_id": "8360b15feec3ae4e54fc8ad23111d025", "type": "electric_scooter", "is_disabled": 0, "lat": 38.90487916666667, "rental_uris": {"ios": "https://dc.lft.to/lastmile_qr_scan", "android": "https://dc.lft.to/lastmile_qr_scan"}, "is_reserved": 0, "fusion_lon": 0.0, "fusion_lat": 0.0, "lon": -76.94961466666666, "name": "8360b15feec3ae4e54fc8ad23111d025"}, {"bike_id": "4965156ffd1638d49fef53089c833624", "type": "electric_bike", "is_disabled": 0, "lat": 38.95173716666667, "rental_uris": {"ios": "https://dc.lft.to/lastmile_qr_scan", "android": "https://dc.lft.to/lastmile_qr_scan"}, "is_reserved": 0, "fusion_lon": 0.0, "fusion_lat": 0.0, "lon": -76.97732, "name": "4965156ffd1638d49fef53089c833624"}, {"bike_id": "da0d013f6575bcdab3b5b61fe02e6467", "type": "electric_scooter", "is_disabled": 0, "lat": 38.92486383333333, "rental_uris": {"ios": "https://dc.lft.to/lastmile_qr_scan", "android": "https://dc.lft.to/lastmile_qr_scan"}, "is_reserved": 0, "fusion_lon": 0.0, "fusion_lat": 0.0, "lon": -77.031829, "name": "da0d013f6575bcdab3b5b61fe02e6467"}, {"bike_id": "a8d241ed8869a1e1f5f54aeec217db06", "type": "electric_scooter", "is_disabled": 0, "lat": 38.900590333333334, "rental_uris": {"ios": "https://dc.lft.to/lastmile_qr_scan", "android": "https://dc.lft.to/lastmile_qr_scan"}, "is_reserved": 0, "fusion_lon": 0.0, "fusion_lat": 0.0, "lon": -77.01722783333334, "name": "a8d241ed8869a1e1f5f54aeec217db06"}, {"bike_id": "f9e4d0ddc3da268e68bfb8958775f6bc", "type": "electric_scooter", "is_disabled": 0, "lat": 38.928647166666664, "rental_uris": {"ios": "https://dc.lft.to/lastmile_qr_scan", "android": "https://dc.lft.to/lastmile_qr_scan"}, "is_reserved": 0, "fusion_lon": 0.0, "fusion_lat": 0.0, "lon": -77.0138795, "name": "f9e4d0ddc3da268e68bfb8958775f6bc"}, {"bike_id": "fdcd4f9a4118f077cb265cacb92e9d6f", "type": "electric_scooter", "is_disabled": 0, "lat": 38.92848866666667, "rental_uris": {"ios": "https://dc.lft.to/lastmile_qr_scan", "android": "https://dc.lft.to/lastmile_qr_scan"}, "is_reserved": 0, "fusion_lon": 0.0, "fusion_lat": 0.0, "lon": -77.019521, "name": "fdcd4f9a4118f077cb265cacb92e9d6f"}, {"bike_id": "8cbe6b8e5d186fb68bcc4deefe79a7df", "type": "electric_scooter", "is_disabled": 0, "lat": 38.914069, "rental_uris": {"ios": "https://dc.lft.to/lastmile_qr_scan", "android": "https://dc.lft.to/lastmile_qr_scan"}, "is_reserved": 0, "fusion_lon": 0.0, "fusion_lat": 0.0, "lon": -77.01366466666667, "name": "8cbe6b8e5d186fb68bcc4deefe79a7df"}, {"bike_id": "0b95f93fc47fe10c2df178538fcd880b", "type": "electric_scooter", "is_disabled": 0, "lat": 38.9359705, "rental_uris": {"ios": "https://dc.lft.to/lastmile_qr_scan", "android": "https://dc.lft.to/lastmile_qr_scan"}, "is_reserved": 0, "fusion_lon": 0.0, "fusion_lat": 0.0, "lon": -77.03811566666667, "name": "0b95f93fc47fe10c2df178538fcd880b"}, {"bike_id": "74521161ff286ffeb879531581124959", "type": "electric_scooter", "is_disabled": 0, "lat": 38.897192833333335, "rental_uris": {"ios": "https://dc.lft.to/lastmile_qr_scan", "android": "https://dc.lft.to/lastmile_qr_scan"}, "is_reserved": 0, "fusion_lon": 0.0, "fusion_lat": 0.0, "lon": -77.03229983333334, "name": "74521161ff286ffeb879531581124959"}, {"bike_id": "12aae18e75e67e09aab0f12af4bf0daa", "type": "electric_scooter", "is_disabled": 0, "lat": 38.938837666666664, "rental_uris": {"ios": "https://dc.lft.to/lastmile_qr_scan", "android": "https://dc.lft.to/lastmile_qr_scan"}, "is_reserved": 0, "fusion_lon": 0.0, "fusion_lat": 0.0, "lon": -77.024956, "name": "12aae18e75e67e09aab0f12af4bf0daa"}, {"bike_id": "a5f7978e157949cfdeab5ba05b845442", "type": "electric_scooter", "is_disabled": 0, "lat": 38.9027705, "rental_uris": {"ios": "https://dc.lft.to/lastmile_qr_scan", "android": "https://dc.lft.to/lastmile_qr_scan"}, "is_reserved": 0, "fusion_lon": 0.0, "fusion_lat": 0.0, "lon": -77.03839033333334, "name": "a5f7978e157949cfdeab5ba05b845442"}, {"bike_id": "3f9dc301435721d5a66343a03456b304", "type": "electric_scooter", "is_disabled": 0, "lat": 38.90964266666667, "rental_uris": {"ios": "https://dc.lft.to/lastmile_qr_scan", "android": "https://dc.lft.to/lastmile_qr_scan"}, "is_reserved": 0, "fusion_lon": 0.0, "fusion_lat": 0.0, "lon": -77.0328425, "name": "3f9dc301435721d5a66343a03456b304"}, {"bike_id": "ac4bb7e03d29df722b944e0d8196d825", "type": "electric_scooter", "is_disabled": 0, "lat": 38.90526766666667, "rental_uris": {"ios": "https://dc.lft.to/lastmile_qr_scan", "android": "https://dc.lft.to/lastmile_qr_scan"}, "is_reserved": 0, "fusion_lon": 0.0, "fusion_lat": 0.0, "lon": -77.0593785, "name": "ac4bb7e03d29df722b944e0d8196d825"}, {"bike_id": "9bb2b63d20c7f7c0893976781400ceff", "type": "electric_scooter", "is_disabled": 0, "lat": 38.871968, "rental_uris": {"ios": "https://dc.lft.to/lastmile_qr_scan", "android": "https://dc.lft.to/lastmile_qr_scan"}, "is_reserved": 0, "fusion_lon": 0.0, "fusion_lat": 0.0, "lon": -77.009321, "name": "9bb2b63d20c7f7c0893976781400ceff"}, {"bike_id": "e1b87075cd83e0a7367e9f4605c4d8b3", "type": "electric_scooter", "is_disabled": 0, "lat": 38.938505166666666, "rental_uris": {"ios": "https://dc.lft.to/lastmile_qr_scan", "android": "https://dc.lft.to/lastmile_qr_scan"}, "is_reserved": 0, "fusion_lon": 0.0, "fusion_lat": 0.0, "lon": -77.07233633333334, "name": "e1b87075cd83e0a7367e9f4605c4d8b3"}, {"bike_id": "2eaead4846bbf85def1eabdaf3a8cca9", "type": "electric_scooter", "is_disabled": 0, "lat": 38.84429866666667, "rental_uris": {"ios": "https://dc.lft.to/lastmile_qr_scan", "android": "https://dc.lft.to/lastmile_qr_scan"}, "is_reserved": 0, "fusion_lon": 0.0, "fusion_lat": 0.0, "lon": -76.998726, "name": "2eaead4846bbf85def1eabdaf3a8cca9"}, {"bike_id": "3098c98cca428c5e207506ca424e2114", "type": "electric_scooter", "is_disabled": 0, "lat": 38.8929275, "rental_uris": {"ios": "https://dc.lft.to/lastmile_qr_scan", "android": "https://dc.lft.to/lastmile_qr_scan"}, "is_reserved": 0, "fusion_lon": 0.0, "fusion_lat": 0.0, "lon": -77.01225, "name": "3098c98cca428c5e207506ca424e2114"}, {"bike_id": "ba6fdb457c151051b614d60ec13be8bb", "type": "electric_scooter", "is_disabled": 0, "lat": 38.9322815, "rental_uris": {"ios": "https://dc.lft.to/lastmile_qr_scan", "android": "https://dc.lft.to/lastmile_qr_scan"}, "is_reserved": 0, "fusion_lon": 0.0, "fusion_lat": 0.0, "lon": -77.03587366666666, "name": "ba6fdb457c151051b614d60ec13be8bb"}, {"bike_id": "7f4a090e264af3ae0b818dcdc674711f", "type": "electric_scooter", "is_disabled": 0, "lat": 38.920649166666664, "rental_uris": {"ios": "https://dc.lft.to/lastmile_qr_scan", "android": "https://dc.lft.to/lastmile_qr_scan"}, "is_reserved": 0, "fusion_lon": 0.0, "fusion_lat": 0.0, "lon": -77.034695, "name": "7f4a090e264af3ae0b818dcdc674711f"}, {"bike_id": "1a71519acb3efd12cfba148bd29cee4b", "type": "electric_scooter", "is_disabled": 0, "lat": 38.884841333333334, "rental_uris": {"ios": "https://dc.lft.to/lastmile_qr_scan", "android": "https://dc.lft.to/lastmile_qr_scan"}, "is_reserved": 0, "fusion_lon": 0.0, "fusion_lat": 0.0, "lon": -77.015028, "name": "1a71519acb3efd12cfba148bd29cee4b"}, {"bike_id": "7abdfb25c0a688b5c0f76cda44eec358", "type": "electric_scooter", "is_disabled": 0, "lat": 38.9198915, "rental_uris": {"ios": "https://dc.lft.to/lastmile_qr_scan", "android": "https://dc.lft.to/lastmile_qr_scan"}, "is_reserved": 0, "fusion_lon": 0.0, "fusion_lat": 0.0, "lon": -77.03331166666666, "name": "7abdfb25c0a688b5c0f76cda44eec358"}, {"bike_id": "86f73f57c884b288703a38912e6b3b17", "type": "electric_scooter", "is_disabled": 0, "lat": 38.92685816666667, "rental_uris": {"ios": "https://dc.lft.to/lastmile_qr_scan", "android": "https://dc.lft.to/lastmile_qr_scan"}, "is_reserved": 0, "fusion_lon": 0.0, "fusion_lat": 0.0, "lon": -77.021592, "name": "86f73f57c884b288703a38912e6b3b17"}, {"bike_id": "409b2663e52338be4ac0ae0da6834c59", "type": "electric_scooter", "is_disabled": 0, "lat": 38.9333955, "rental_uris": {"ios": "https://dc.lft.to/lastmile_qr_scan", "android": "https://dc.lft.to/lastmile_qr_scan"}, "is_reserved": 0, "fusion_lon": 0.0, "fusion_lat": 0.0, "lon": -77.02394633333333, "name": "409b2663e52338be4ac0ae0da6834c59"}, {"bike_id": "92fcb14f48f7046b840335d7c23056f9", "type": "electric_scooter", "is_disabled": 0, "lat": 38.921251833333336, "rental_uris": {"ios": "https://dc.lft.to/lastmile_qr_scan", "android": "https://dc.lft.to/lastmile_qr_scan"}, "is_reserved": 0, "fusion_lon": 0.0, "fusion_lat": 0.0, "lon": -77.018063, "name": "92fcb14f48f7046b840335d7c23056f9"}, {"bike_id": "270c6537696b08943020273a2ff76f58", "type": "electric_scooter", "is_disabled": 0, "lat": 38.95685483333333, "rental_uris": {"ios": "https://dc.lft.to/lastmile_qr_scan", "android": "https://dc.lft.to/lastmile_qr_scan"}, "is_reserved": 0, "fusion_lon": 0.0, "fusion_lat": 0.0, "lon": -77.02400316666666, "name": "270c6537696b08943020273a2ff76f58"}, {"bike_id": "afb3ade9f148f28dfca7297e4bd6375f", "type": "electric_scooter", "is_disabled": 0, "lat": 38.907378333333334, "rental_uris": {"ios": "https://dc.lft.to/lastmile_qr_scan", "android": "https://dc.lft.to/lastmile_qr_scan"}, "is_reserved": 0, "fusion_lon": 0.0, "fusion_lat": 0.0, "lon": -77.05335766666667, "name": "afb3ade9f148f28dfca7297e4bd6375f"}, {"bike_id": "8882fcb3bf4ed9f15ad399df9d6d1832", "type": "electric_scooter", "is_disabled": 0, "lat": 38.90346316666667, "rental_uris": {"ios": "https://dc.lft.to/lastmile_qr_scan", "android": "https://dc.lft.to/lastmile_qr_scan"}, "is_reserved": 0, "fusion_lon": 0.0, "fusion_lat": 0.0, "lon": -77.06025266666667, "name": "8882fcb3bf4ed9f15ad399df9d6d1832"}, {"bike_id": "e10d376efcbdc2f989fa6adbee378868", "type": "electric_scooter", "is_disabled": 0, "lat": 38.91413333333333, "rental_uris": {"ios": "https://dc.lft.to/lastmile_qr_scan", "android": "https://dc.lft.to/lastmile_qr_scan"}, "is_reserved": 0, "fusion_lon": 0.0, "fusion_lat": 0.0, "lon": -77.0218685, "name": "e10d376efcbdc2f989fa6adbee378868"}, {"bike_id": "0f777fe38040cbf131a0c8596f706ed9", "type": "electric_scooter", "is_disabled": 0, "lat": 38.86366866666667, "rental_uris": {"ios": "https://dc.lft.to/lastmile_qr_scan", "android": "https://dc.lft.to/lastmile_qr_scan"}, "is_reserved": 0, "fusion_lon": 0.0, "fusion_lat": 0.0, "lon": -76.99060033333333, "name": "0f777fe38040cbf131a0c8596f706ed9"}, {"bike_id": "f8c50e05e87a1a5e9d574da6b436897c", "type": "electric_scooter", "is_disabled": 0, "lat": 38.866869, "rental_uris": {"ios": "https://dc.lft.to/lastmile_qr_scan", "android": "https://dc.lft.to/lastmile_qr_scan"}, "is_reserved": 0, "fusion_lon": 0.0, "fusion_lat": 0.0, "lon": -76.98559083333333, "name": "f8c50e05e87a1a5e9d574da6b436897c"}, {"bike_id": "1100a6efd4eae891e875eea7468e4b77", "type": "electric_scooter", "is_disabled": 0, "lat": 38.878325833333335, "rental_uris": {"ios": "https://dc.lft.to/lastmile_qr_scan", "android": "https://dc.lft.to/lastmile_qr_scan"}, "is_reserved": 0, "fusion_lon": 0.0, "fusion_lat": 0.0, "lon": -77.00614216666666, "name": "1100a6efd4eae891e875eea7468e4b77"}, {"bike_id": "ea3d527bb13053d346a653f6e746b870", "type": "electric_scooter", "is_disabled": 0, "lat": 38.908488166666665, "rental_uris": {"ios": "https://dc.lft.to/lastmile_qr_scan", "android": "https://dc.lft.to/lastmile_qr_scan"}, "is_reserved": 0, "fusion_lon": 0.0, "fusion_lat": 0.0, "lon": -76.99803033333333, "name": "ea3d527bb13053d346a653f6e746b870"}, {"bike_id": "9dae7fef22d2ebb9e4cc831048f34192", "type": "electric_scooter", "is_disabled": 0, "lat": 38.91910283333333, "rental_uris": {"ios": "https://dc.lft.to/lastmile_qr_scan", "android": "https://dc.lft.to/lastmile_qr_scan"}, "is_reserved": 0, "fusion_lon": 0.0, "fusion_lat": 0.0, "lon": -77.04248366666667, "name": "9dae7fef22d2ebb9e4cc831048f34192"}, {"bike_id": "44f6b6368e81e950344d6c83025ca92d", "type": "electric_scooter", "is_disabled": 0, "lat": 38.920187, "rental_uris": {"ios": "https://dc.lft.to/lastmile_qr_scan", "android": "https://dc.lft.to/lastmile_qr_scan"}, "is_reserved": 0, "fusion_lon": 0.0, "fusion_lat": 0.0, "lon": -77.03130933333334, "name": "44f6b6368e81e950344d6c83025ca92d"}, {"bike_id": "9a4e7b18f6f75372cf8ee4bdffa488ef", "type": "electric_scooter", "is_disabled": 0, "lat": 38.89842733333333, "rental_uris": {"ios": "https://dc.lft.to/lastmile_qr_scan", "android": "https://dc.lft.to/lastmile_qr_scan"}, "is_reserved": 0, "fusion_lon": 0.0, "fusion_lat": 0.0, "lon": -76.946361, "name": "9a4e7b18f6f75372cf8ee4bdffa488ef"}, {"bike_id": "4f06367af5ebfc03995d71c7e7c9d77c", "type": "electric_scooter", "is_disabled": 0, "lat": 38.89083516666667, "rental_uris": {"ios": "https://dc.lft.to/lastmile_qr_scan", "android": "https://dc.lft.to/lastmile_qr_scan"}, "is_reserved": 0, "fusion_lon": 0.0, "fusion_lat": 0.0, "lon": -77.04042616666666, "name": "4f06367af5ebfc03995d71c7e7c9d77c"}, {"bike_id": "976e270e6b1b98b6c6a0fef3c4af1c57", "type": "electric_scooter", "is_disabled": 0, "lat": 38.892191, "rental_uris": {"ios": "https://dc.lft.to/lastmile_qr_scan", "android": "https://dc.lft.to/lastmile_qr_scan"}, "is_reserved": 0, "fusion_lon": 0.0, "fusion_lat": 0.0, "lon": -77.02623966666667, "name": "976e270e6b1b98b6c6a0fef3c4af1c57"}, {"bike_id": "80dfe3641b0dfe3732ad1e16802c4cf4", "type": "electric_scooter", "is_disabled": 0, "lat": 38.87931066666667, "rental_uris": {"ios": "https://dc.lft.to/lastmile_qr_scan", "android": "https://dc.lft.to/lastmile_qr_scan"}, "is_reserved": 0, "fusion_lon": 0.0, "fusion_lat": 0.0, "lon": -77.00634566666666, "name": "80dfe3641b0dfe3732ad1e16802c4cf4"}, {"bike_id": "4aa84117f292d7e2f3a0ca4fb7de0bc2", "type": "electric_scooter", "is_disabled": 0, "lat": 38.9169805, "rental_uris": {"ios": "https://dc.lft.to/lastmile_qr_scan", "android": "https://dc.lft.to/lastmile_qr_scan"}, "is_reserved": 0, "fusion_lon": 0.0, "fusion_lat": 0.0, "lon": -77.02414733333333, "name": "4aa84117f292d7e2f3a0ca4fb7de0bc2"}, {"bike_id": "c78bc428a336909999ba0924645d5b42", "type": "electric_scooter", "is_disabled": 0, "lat": 38.899157833333334, "rental_uris": {"ios": "https://dc.lft.to/lastmile_qr_scan", "android": "https://dc.lft.to/lastmile_qr_scan"}, "is_reserved": 0, "fusion_lon": 0.0, "fusion_lat": 0.0, "lon": -76.9336625, "name": "c78bc428a336909999ba0924645d5b42"}, {"bike_id": "26fc71a5491665c1f6ee28aaa77744ca", "type": "electric_scooter", "is_disabled": 0, "lat": 38.909482833333335, "rental_uris": {"ios": "https://dc.lft.to/lastmile_qr_scan", "android": "https://dc.lft.to/lastmile_qr_scan"}, "is_reserved": 0, "fusion_lon": 0.0, "fusion_lat": 0.0, "lon": -77.02308983333333, "name": "26fc71a5491665c1f6ee28aaa77744ca"}, {"bike_id": "b0bf7f6fb0b3992d6137e601b0c8720e", "type": "electric_scooter", "is_disabled": 0, "lat": 38.91745933333333, "rental_uris": {"ios": "https://dc.lft.to/lastmile_qr_scan", "android": "https://dc.lft.to/lastmile_qr_scan"}, "is_reserved": 0, "fusion_lon": 0.0, "fusion_lat": 0.0, "lon": -77.0365785, "name": "b0bf7f6fb0b3992d6137e601b0c8720e"}, {"bike_id": "50fc12a1ba49ae10e190d1cbc733919c", "type": "electric_scooter", "is_disabled": 0, "lat": 38.89846133333333, "rental_uris": {"ios": "https://dc.lft.to/lastmile_qr_scan", "android": "https://dc.lft.to/lastmile_qr_scan"}, "is_reserved": 0, "fusion_lon": 0.0, "fusion_lat": 0.0, "lon": -76.94633566666667, "name": "50fc12a1ba49ae10e190d1cbc733919c"}, {"bike_id": "f29027759ca3499c9281280002c1921d", "type": "electric_scooter", "is_disabled": 0, "lat": 38.89725, "rental_uris": {"ios": "https://dc.lft.to/lastmile_qr_scan", "android": "https://dc.lft.to/lastmile_qr_scan"}, "is_reserved": 0, "fusion_lon": 0.0, "fusion_lat": 0.0, "lon": -77.0488475, "name": "f29027759ca3499c9281280002c1921d"}, {"bike_id": "dc937064a97722f7e0ca58f3005150b2", "type": "electric_scooter", "is_disabled": 0, "lat": 38.92608883333333, "rental_uris": {"ios": "https://dc.lft.to/lastmile_qr_scan", "android": "https://dc.lft.to/lastmile_qr_scan"}, "is_reserved": 0, "fusion_lon": 0.0, "fusion_lat": 0.0, "lon": -77.10240233333333, "name": "dc937064a97722f7e0ca58f3005150b2"}, {"bike_id": "0f5dadc78adbc90feb5234c0f3ac9fe9", "type": "electric_scooter", "is_disabled": 0, "lat": 38.904108666666666, "rental_uris": {"ios": "https://dc.lft.to/lastmile_qr_scan", "android": "https://dc.lft.to/lastmile_qr_scan"}, "is_reserved": 0, "fusion_lon": 0.0, "fusion_lat": 0.0, "lon": -76.97333683333333, "name": "0f5dadc78adbc90feb5234c0f3ac9fe9"}, {"bike_id": "f280d7c864ba7fb70fc844ae85ef328e", "type": "electric_scooter", "is_disabled": 0, "lat": 38.902080833333336, "rental_uris": {"ios": "https://dc.lft.to/lastmile_qr_scan", "android": "https://dc.lft.to/lastmile_qr_scan"}, "is_reserved": 0, "fusion_lon": 0.0, "fusion_lat": 0.0, "lon": -77.04155833333333, "name": "f280d7c864ba7fb70fc844ae85ef328e"}, {"bike_id": "7c4f5741661a4b60e55d1868171c9069", "type": "electric_scooter", "is_disabled": 0, "lat": 38.9155645, "rental_uris": {"ios": "https://dc.lft.to/lastmile_qr_scan", "android": "https://dc.lft.to/lastmile_qr_scan"}, "is_reserved": 0, "fusion_lon": 0.0, "fusion_lat": 0.0, "lon": -77.03172483333333, "name": "7c4f5741661a4b60e55d1868171c9069"}, {"bike_id": "48abf6a64f50bf9bc7084fda34138f17", "type": "electric_scooter", "is_disabled": 0, "lat": 38.95009483333333, "rental_uris": {"ios": "https://dc.lft.to/lastmile_qr_scan", "android": "https://dc.lft.to/lastmile_qr_scan"}, "is_reserved": 0, "fusion_lon": 0.0, "fusion_lat": 0.0, "lon": -77.01561883333333, "name": "48abf6a64f50bf9bc7084fda34138f17"}, {"bike_id": "bd153c61de250be944c001b32a03d571", "type": "electric_scooter", "is_disabled": 0, "lat": 38.9566075, "rental_uris": {"ios": "https://dc.lft.to/lastmile_qr_scan", "android": "https://dc.lft.to/lastmile_qr_scan"}, "is_reserved": 0, "fusion_lon": 0.0, "fusion_lat": 0.0, "lon": -77.02403616666666, "name": "bd153c61de250be944c001b32a03d571"}, {"bike_id": "47f78620a7034b0478340ab96fe5e54b", "type": "electric_bike", "is_disabled": 0, "lat": 38.921553833333334, "rental_uris": {"ios": "https://dc.lft.to/lastmile_qr_scan", "android": "https://dc.lft.to/lastmile_qr_scan"}, "is_reserved": 0, "fusion_lon": 0.0, "fusion_lat": 0.0, "lon": -76.99960283333333, "name": "47f78620a7034b0478340ab96fe5e54b"}, {"bike_id": "7461860132e1f1f793fc3727825dc47e", "type": "electric_scooter", "is_disabled": 0, "lat": 38.890018833333336, "rental_uris": {"ios": "https://dc.lft.to/lastmile_qr_scan", "android": "https://dc.lft.to/lastmile_qr_scan"}, "is_reserved": 0, "fusion_lon": 0.0, "fusion_lat": 0.0, "lon": -76.937427, "name": "7461860132e1f1f793fc3727825dc47e"}, {"bike_id": "9dbf6ee285c77528d19d56b6907033d5", "type": "electric_scooter", "is_disabled": 0, "lat": 38.92312416666667, "rental_uris": {"ios": "https://dc.lft.to/lastmile_qr_scan", "android": "https://dc.lft.to/lastmile_qr_scan"}, "is_reserved": 0, "fusion_lon": 0.0, "fusion_lat": 0.0, "lon": -77.0388545, "name": "9dbf6ee285c77528d19d56b6907033d5"}, {"bike_id": "2355b4ea2ddc0163059a6380e67dc4fd", "type": "electric_bike", "is_disabled": 0, "lat": 38.9877235, "rental_uris": {"ios": "https://dc.lft.to/lastmile_qr_scan", "android": "https://dc.lft.to/lastmile_qr_scan"}, "is_reserved": 0, "fusion_lon": 0.0, "fusion_lat": 0.0, "lon": -77.0265045, "name": "2355b4ea2ddc0163059a6380e67dc4fd"}, {"bike_id": "0013c7df5585ea21cb7a6a4dba40cecb", "type": "electric_scooter", "is_disabled": 0, "lat": 38.86246533333333, "rental_uris": {"ios": "https://dc.lft.to/lastmile_qr_scan", "android": "https://dc.lft.to/lastmile_qr_scan"}, "is_reserved": 0, "fusion_lon": 0.0, "fusion_lat": 0.0, "lon": -76.995023, "name": "0013c7df5585ea21cb7a6a4dba40cecb"}, {"bike_id": "e9fff082ee5e23a3d119357f39a96e3d", "type": "electric_scooter", "is_disabled": 0, "lat": 38.92321116666667, "rental_uris": {"ios": "https://dc.lft.to/lastmile_qr_scan", "android": "https://dc.lft.to/lastmile_qr_scan"}, "is_reserved": 0, "fusion_lon": 0.0, "fusion_lat": 0.0, "lon": -77.039077, "name": "e9fff082ee5e23a3d119357f39a96e3d"}, {"bike_id": "e36462e92dcab09efbdff6dcf2c34e0f", "type": "electric_scooter", "is_disabled": 0, "lat": 38.8717965, "rental_uris": {"ios": "https://dc.lft.to/lastmile_qr_scan", "android": "https://dc.lft.to/lastmile_qr_scan"}, "is_reserved": 0, "fusion_lon": 0.0, "fusion_lat": 0.0, "lon": -77.006172, "name": "e36462e92dcab09efbdff6dcf2c34e0f"}, {"bike_id": "6f913ea432868836ca0bf5c244c1b84c", "type": "electric_scooter", "is_disabled": 0, "lat": 38.8764515, "rental_uris": {"ios": "https://dc.lft.to/lastmile_qr_scan", "android": "https://dc.lft.to/lastmile_qr_scan"}, "is_reserved": 0, "fusion_lon": 0.0, "fusion_lat": 0.0, "lon": -77.0075695, "name": "6f913ea432868836ca0bf5c244c1b84c"}, {"bike_id": "1c18d167a0d68a4e22c361118ee5f70b", "type": "electric_bike", "is_disabled": 0, "lat": 38.898185, "rental_uris": {"ios": "https://dc.lft.to/lastmile_qr_scan", "android": "https://dc.lft.to/lastmile_qr_scan"}, "is_reserved": 0, "fusion_lon": 0.0, "fusion_lat": 0.0, "lon": -76.990815, "name": "1c18d167a0d68a4e22c361118ee5f70b"},