{"data": {"bikes": [{"bike_id": "a8f5d5f8f9ae0d9cb2cb605b4a111088", "fusion_lon": 0.0, "lon": -77.00594616666666, "name": "a8f5d5f8f9ae0d9cb2cb605b4a111088", "is_disabled": 0, "rental_uris": {"android": "https://dc.lft.to/lastmile_qr_scan", "ios": "https://dc.lft.to/lastmile_qr_scan"}, "type": "electric_scooter", "lat": 38.905669333333336, "is_reserved": 0, "fusion_lat": 0.0}, {"bike_id": "2ef3a482650e78e35c00155a498a140a", "fusion_lon": 0.0, "lon": -76.98842233333333, "name": "2ef3a482650e78e35c00155a498a140a", "is_disabled": 0, "rental_uris": {"android": "https://dc.lft.to/lastmile_qr_scan", "ios": "https://dc.lft.to/lastmile_qr_scan"}, "type": "electric_scooter", "lat": 38.9004205, "is_reserved": 0, "fusion_lat": 0.0}, {"bike_id": "22475dd358cab56732a0d36bad0f7f09", "fusion_lon": 0.0, "lon": -77.0281285, "name": "22475dd358cab56732a0d36bad0f7f09", "is_disabled": 0, "rental_uris": {"android": "https://dc.lft.to/lastmile_qr_scan", "ios": "https://dc.lft.to/lastmile_qr_scan"}, "type": "electric_scooter", "lat": 38.93093283333333, "is_reserved": 0, "fusion_lat": 0.0}, {"bike_id": "76f25d5807394f8e07f8335c41565507", "fusion_lon": 0.0, "lon": -77.01476933333333, "name": "76f25d5807394f8e07f8335c41565507", "is_disabled": 0, "rental_uris": {"android": "https://dc.lft.to/lastmile_qr_scan", "ios": "https://dc.lft.to/lastmile_qr_scan"}, "type": "electric_scooter", "lat": 38.9267995, "is_reserved": 0, "fusion_lat": 0.0}, {"bike_id": "2cf5e0555adad8e134137dfb5b4b18de", "fusion_lon": 0.0, "lon": -77.00967566666667, "name": "2cf5e0555adad8e134137dfb5b4b18de", "is_disabled": 0, "rental_uris": {"android": "https://dc.lft.to/lastmile_qr_scan", "ios": "https://dc.lft.to/lastmile_qr_scan"}, "type": "electric_bike", "lat": 38.96139566666667, "is_reserved": 0, "fusion_lat": 0.0}, {"bike_id": "1cb6ccbc4ba1af68dad81d118e616ad0", "fusion_lon": 0.0, "lon": -76.9930655, "name": "1cb6ccbc4ba1af68dad81d118e616ad0", "is_disabled": 0, "rental_uris": {"android": "https://dc.lft.to/lastmile_qr_scan", "ios": "https://dc.lft.to/lastmile_qr_scan"}, "type": "electric_scooter", "lat": 38.900355166666664, "is_reserved": 0, "fusion_lat": 0.0}, {"bike_id": "d4a1ce90f5cec35534d083e611ef4c4a", "fusion_lon": 0.0, "lon": -77.04483716666667, "name": "d4a1ce90f5cec35534d083e611ef4c4a", "is_disabled": 0, "rental_uris": {"android": "https://dc.lft.to/lastmile_qr_scan", "ios": "https://dc.lft.to/lastmile_qr_scan"}, "type": "electric_scooter", "lat": 38.9137065, "is_reserved": 0, "fusion_lat": 0.0}, {"bike_id": "65dfe38e40b48ae2f34e5048267ec7d2", "fusion_lon": 0.0, "lon": -77.02442233333333, "name": "65dfe38e40b48ae2f34e5048267ec7d2", "is_disabled": 0, "rental_uris": {"android": "https://dc.lft.to/lastmile_qr_scan", "ios": "https://dc.lft.to/lastmile_qr_scan"}, "type": "electric_scooter", "lat": 38.90220716666666, "is_reserved": 0, "fusion_lat": 0.0}, {"bike_id": "2c886bf8567f080437be4977506005f3", "fusion_lon": 0.0, "lon": -76.9373205, "name": "2c886bf8567f080437be4977506005f3", "is_disabled": 0, "rental_uris": {"android": "https://dc.lft.to/lastmile_qr_scan", "ios": "https://dc.lft.to/lastmile_qr_scan"}, "type": "electric_scooter", "lat": 38.890247, "is_reserved": 0, "fusion_lat": 0.0}, {"bike_id": "8b609d231aa2feaace03aee4bcce1eca", "fusion_lon": 0.0, "lon": -77.00335383333334, "name": "8b609d231aa2feaace03aee4bcce1eca", "is_disabled": 0, "rental_uris": {"android": "https://dc.lft.to/lastmile_qr_scan", "ios": "https://dc.lft.to/lastmile_qr_scan"}, "type": "electric_scooter", "lat": 38.88991683333333, "is_reserved": 0, "fusion_lat": 0.0}, {"bike_id": "e6cde683259b1fed7311721fe4ed302f", "fusion_lon": 0.0, "lon": -77.02233516666666, "name": "e6cde683259b1fed7311721fe4ed302f", "is_disabled": 0, "rental_uris": {"android": "https://dc.lft.to/lastmile_qr_scan", "ios": "https://dc.lft.to/lastmile_qr_scan"}, "type": "electric_scooter", "lat": 38.89226033333333, "is_reserved": 0, "fusion_lat": 0.0}, {"bike_id": "770eb181a83949ef7e28fbd216871e31", "fusion_lon": 0.0, "lon": -77.01411883333333, "name": "770eb181a83949ef7e28fbd216871e31", "is_disabled": 0, "rental_uris": {"android": "https://dc.lft.to/lastmile_qr_scan", "ios": "https://dc.lft.to/lastmile_qr_scan"}, "type": "electric_scooter", "lat": 38.887512, "is_reserved": 0, "fusion_lat": 0.0}, {"bike_id": "b3818bd36834fbf45e6419a3356115c3", "fusion_lon": 0.0, "lon": -77.043135, "name": "b3818bd36834fbf45e6419a3356115c3", "is_disabled": 0, "rental_uris": {"android": "https://dc.lft.to/lastmile_qr_scan", "ios": "https://dc.lft.to/lastmile_qr_scan"}, "type": "electric_scooter", "lat": 38.91883966666666, "is_reserved": 0, "fusion_lat": 0.0}, {"bike_id": "d9822df9338f823c602c969769671492", "fusion_lon": 0.0, "lon": -77.046743, "name": "d9822df9338f823c602c969769671492", "is_disabled": 0, "rental_uris": {"android": "https://dc.lft.to/lastmile_qr_scan", "ios": "https://dc.lft.to/lastmile_qr_scan"}, "type": "electric_scooter", "lat": 38.899529333333334, "is_reserved": 0, "fusion_lat": 0.0}, {"bike_id": "590272fa40873cc42d959b3fe9a0b752", "fusion_lon": 0.0, "lon": -77.073883, "name": "590272fa40873cc42d959b3fe9a0b752", "is_disabled": 0, "rental_uris": {"android": "https://dc.lft.to/lastmile_qr_scan", "ios": "https://dc.lft.to/lastmile_qr_scan"}, "type": "electric_bike", "lat": 38.961804, "is_reserved": 0, "fusion_lat": 0.0}, {"bike_id": "1617a9f06e00859088a0b3c4853a85ca", "fusion_lon": 0.0, "lon": -77.04130333333333, "name": "1617a9f06e00859088a0b3c4853a85ca", "is_disabled": 0, "rental_uris": {"android": "https://dc.lft.to/lastmile_qr_scan", "ios": "https://dc.lft.to/lastmile_qr_scan"}, "type": "electric_scooter", "lat": 38.92179683333333, "is_reserved": 0, "fusion_lat": 0.0}, {"bike_id": "99190756fdfb35c3c7b9a3971bf25107", "fusion_lon": 0.0, "lon": -76.98841116666667, "name": "99190756fdfb35c3c7b9a3971bf25107", "is_disabled": 0, "rental_uris": {"android": "https://dc.lft.to/lastmile_qr_scan", "ios": "https://dc.lft.to/lastmile_qr_scan"}, "type": "electric_bike", "lat": 38.84281583333333, "is_reserved": 0, "fusion_lat": 0.0}, {"bike_id": "fc6e6701fb29a8b849aadab4b7a13fb0", "fusion_lon": 0.0, "lon": -77.02300316666667, "name": "fc6e6701fb29a8b849aadab4b7a13fb0", "is_disabled": 0, "rental_uris": {"android": "https://dc.lft.to/lastmile_qr_scan", "ios": "https://dc.lft.to/lastmile_qr_scan"}, "type": "electric_scooter", "lat": 38.917969666666664, "is_reserved": 0, "fusion_lat": 0.0}, {"bike_id": "95e7e0dca46d86744801914671ee000b", "fusion_lon": 0.0, "lon": -77.16091166666666, "name": "95e7e0dca46d86744801914671ee000b", "is_disabled": 0, "rental_uris": {"android": "https://dc.lft.to/lastmile_qr_scan", "ios": "https://dc.lft.to/lastmile_qr_scan"}, "type": "electric_bike", "lat": 38.8869045, "is_reserved": 0, "fusion_lat": 0.0}, {"bike_id": "f79e369bc3baa943abce887bd22e1e1c", "fusion_lon": 0.0, "lon": -77.029716, "name": "f79e369bc3baa943abce887bd22e1e1c", "is_disabled": 0, "rental_uris": {"android": "https://dc.lft.to/lastmile_qr_scan", "ios": "https://dc.lft.to/lastmile_qr_scan"}, "type": "electric_scooter", "lat": 38.92266816666667, "is_reserved": 0, "fusion_lat": 0.0}, {"bike_id": "ec2c01ca8fb1da431c503e2e40e24c3a", "fusion_lon": 0.0, "lon": -77.041048, "name": "ec2c01ca8fb1da431c503e2e40e24c3a", "is_disabled": 0, "rental_uris": {"android": "https://dc.lft.to/lastmile_qr_scan", "ios": "https://dc.lft.to/lastmile_qr_scan"}, "type": "electric_scooter", "lat": 38.924585666666665, "is_reserved": 0, "fusion_lat": 0.0}, {"bike_id": "95971380e587b9dbf0fc00485a7bb30f", "fusion_lon": 0.0, "lon": -76.98885566666667, "name": "95971380e587b9dbf0fc00485a7bb30f", "is_disabled": 0, "rental_uris": {"android": "https://dc.lft.to/lastmile_qr_scan", "ios": "https://dc.lft.to/lastmile_qr_scan"}, "type": "electric_scooter", "lat": 38.86662716666667, "is_reserved": 0, "fusion_lat": 0.0}, {"bike_id": "074c1fd2a9aef6322166223ce72d0822", "fusion_lon": 0.0, "lon": -76.98255333333333, "name": "074c1fd2a9aef6322166223ce72d0822", "is_disabled": 0, "rental_uris": {"android": "https://dc.lft.to/lastmile_qr_scan", "ios": "https://dc.lft.to/lastmile_qr_scan"}, "type": "electric_bike", "lat": 38.953407166666665, "is_reserved": 0, "fusion_lat": 0.0}, {"bike_id": "ed2a92db1a5e03f3490432c91e285edb", "fusion_lon": 0.0, "lon": -77.04497666666667, "name": "ed2a92db1a5e03f3490432c91e285edb", "is_disabled": 0, "rental_uris": {"android": "https://dc.lft.to/lastmile_qr_scan", "ios": "https://dc.lft.to/lastmile_qr_scan"}, "type": "electric_scooter", "lat": 38.901240666666666, "is_reserved": 0, "fusion_lat": 0.0}, {"bike_id": "f79f478a83a51126daad9ed7c8e944f2", "fusion_lon": 0.0, "lon": -77.01425633333334, "name": "f79f478a83a51126daad9ed7c8e944f2", "is_disabled": 0, "rental_uris": {"android": "https://dc.lft.to/lastmile_qr_scan", "ios": "https://dc.lft.to/lastmile_qr_scan"}, "type": "electric_scooter", "lat": 38.89941316666667, "is_reserved": 0, "fusion_lat": 0.0}, {"bike_id": "f65bbb1d9f3bcefc21bc9c5246bed840", "fusion_lon": 0.0, "lon": -77.02375183333334, "name": "f65bbb1d9f3bcefc21bc9c5246bed840", "is_disabled": 0, "rental_uris": {"android": "https://dc.lft.to/lastmile_qr_scan", "ios": "https://dc.lft.to/lastmile_qr_scan"}, "type": "electric_scooter", "lat": 38.91962933333333, "is_reserved": 0, "fusion_lat": 0.0}, {"bike_id": "e345a8f9dc62f983a7eb9a2fe310db2b", "fusion_lon": 0.0, "lon": -77.07918, "name": "e345a8f9dc62f983a7eb9a2fe310db2b", "is_disabled": 0, "rental_uris": {"android": "https://dc.lft.to/lastmile_qr_scan", "ios": "https://dc.lft.to/lastmile_qr_scan"}, "type": "electric_bike", "lat": 38.80232866666667, "is_reserved": 0, "fusion_lat": 0.0}, {"bike_id": "f64b472842f36418e8a3f72dd58eb8bf", "fusion_lon": 0.0, "lon": -77.01387166666666, "name": "f64b472842f36418e8a3f72dd58eb8bf", "is_disabled": 0, "rental_uris": {"android": "https://dc.lft.to/lastmile_qr_scan", "ios": "https://dc.lft.to/lastmile_qr_scan"}, "type": "electric_scooter", "lat": 38.928694, "is_reserved": 0, "fusion_lat": 0.0}, {"bike_id": "e23a52bfab1f3080a443c03f07b0e52e", "fusion_lon": 0.0, "lon": -77.05547083333333, "name": "e23a52bfab1f3080a443c03f07b0e52e", "is_disabled": 0, "rental_uris": {"android": "https://dc.lft.to/lastmile_qr_scan", "ios": "https://dc.lft.to/lastmile_qr_scan"}, "type": "electric_scooter", "lat": 38.93015116666667, "is_reserved": 0, "fusion_lat": 0.0}, {"bike_id": "48aca61ecae241881bfdad0c58ec959b", "fusion_lon": 0.0, "lon": -77.0139655, "name": "48aca61ecae241881bfdad0c58ec959b", "is_disabled": 0, "rental_uris": {"android": "https://dc.lft.to/lastmile_qr_scan", "ios": "https://dc.lft.to/lastmile_qr_scan"}, "type": "electric_scooter", "lat": 38.92828633333333, "is_reserved": 0, "fusion_lat": 0.0}, {"bike_id": "f94a24dde1e40f672f0772f69e05ab8f", "fusion_lon": 0.0, "lon": -77.02395666666666, "name": "f94a24dde1e40f672f0772f69e05ab8f", "is_disabled": 0, "rental_uris": {"android": "https://dc.lft.to/lastmile_qr_scan", "ios": "https://dc.lft.to/lastmile_qr_scan"}, "type": "electric_scooter", "lat": 38.9152955, "is_reserved": 0, "fusion_lat": 0.0}, {"bike_id": "253b6a36a7cc90cf1650279280c4ed11", "fusion_lon": 0.0, "lon": -76.98690116666667, "name": "253b6a36a7cc90cf1650279280c4ed11", "is_disabled": 0, "rental_uris": {"android": "https://dc.lft.to/lastmile_qr_scan", "ios": "https://dc.lft.to/lastmile_qr_scan"}, "type": "electric_bike", "lat": 38.94476266666667, "is_reserved": 0, "fusion_lat": 0.0}, {"bike_id": "6580634ac0a54198194d5c051acbfc54", "fusion_lon": 0.0, "lon": -76.98711116666666, "name": "6580634ac0a54198194d5c051acbfc54", "is_disabled": 0, "rental_uris": {"android": "https://dc.lft.to/lastmile_qr_scan", "ios": "https://dc.lft.to/lastmile_qr_scan"}, "type": "electric_scooter", "lat": 38.9006655, "is_reserved": 0, "fusion_lat": 0.0}, {"bike_id": "cc824f55548be3748e9655d5321f244f", "fusion_lon": 0.0, "lon": -77.040163, "name": "cc824f55548be3748e9655d5321f244f", "is_disabled": 0, "rental_uris": {"android": "https://dc.lft.to/lastmile_qr_scan", "ios": "https://dc.lft.to/lastmile_qr_scan"}, "type": "electric_scooter", "lat": 38.9038495, "is_reserved": 0, "fusion_lat": 0.0}, {"bike_id": "daf54bbc429692ae55a68f846c09e01b", "fusion_lon": 0.0, "lon": -76.94940166666666, "name": "daf54bbc429692ae55a68f846c09e01b", "is_disabled": 0, "rental_uris": {"android": "https://dc.lft.to/lastmile_qr_scan", "ios": "https://dc.lft.to/lastmile_qr_scan"}, "type": "electric_scooter", "lat": 38.894982, "is_reserved": 0, "fusion_lat": 0.0}, {"bike_id": "21e9cdef68658d5f110ce8b0dabcfd09", "fusion_lon": 0.0, "lon": -77.024903, "name": "21e9cdef68658d5f110ce8b0dabcfd09", "is_disabled": 0, "rental_uris": {"android": "https://dc.lft.to/lastmile_qr_scan", "ios": "https://dc.lft.to/lastmile_qr_scan"}, "type": "electric_scooter", "lat": 38.9431945, "is_reserved": 0, "fusion_lat": 0.0}, {"bike_id": "c709b48fc6365beee2fa860dc04acb08", "fusion_lon": 0.0, "lon": -77.0509505, "name": "c709b48fc6365beee2fa860dc04acb08", "is_disabled": 0, "rental_uris": {"android": "https://dc.lft.to/lastmile_qr_scan", "ios": "https://dc.lft.to/lastmile_qr_scan"}, "type": "electric_scooter", "lat": 38.905163, "is_reserved": 0, "fusion_lat": 0.0}, {"bike_id": "a882c50ca301415dd9d13962bfe71fcc", "fusion_lon": 0.0, "lon": -77.03670466666667, "name": "a882c50ca301415dd9d13962bfe71fcc", "is_disabled": 0, "rental_uris": {"android": "https://dc.lft.to/lastmile_qr_scan", "ios": "https://dc.lft.to/lastmile_qr_scan"}, "type": "electric_scooter", "lat": 38.9272815, "is_reserved": 0, "fusion_lat": 0.0}, {"bike_id": "7682cdd0e8ab13de3bd988a21fd695cd", "fusion_lon": 0.0, "lon": -76.99902133333333, "name": "7682cdd0e8ab13de3bd988a21fd695cd", "is_disabled": 0, "rental_uris": {"android": "https://dc.lft.to/lastmile_qr_scan", "ios": "https://dc.lft.to/lastmile_qr_scan"}, "type": "electric_scooter", "lat": 38.948264333333334, "is_reserved": 0, "fusion_lat": 0.0}, {"bike_id": "bce6a580f75df3f28cb0f2ad9523ca73", "fusion_lon": 0.0, "lon": -77.02100683333333, "name": "bce6a580f75df3f28cb0f2ad9523ca73", "is_disabled": 0, "rental_uris": {"android": "https://dc.lft.to/lastmile_qr_scan", "ios": "https://dc.lft.to/lastmile_qr_scan"}, "type": "electric_scooter", "lat": 38.900996, "is_reserved": 0, "fusion_lat": 0.0}, {"bike_id": "94cfeb7643ed2f4ce947c338c771d195", "fusion_lon": 0.0, "lon": -77.05998216666667, "name": "94cfeb7643ed2f4ce947c338c771d195", "is_disabled": 0, "rental_uris": {"android": "https://dc.lft.to/lastmile_qr_scan", "ios": "https://dc.lft.to/lastmile_qr_scan"}, "type": "electric_scooter", "lat": 38.90189266666667, "is_reserved": 0, "fusion_lat": 0.0}, {"bike_id": "02874ce866cbc166dd7bcce66362ded2", "fusion_lon": 0.0, "lon": -77.11801333333334, "name": "02874ce866cbc166dd7bcce66362ded2", "is_disabled": 0, "rental_uris": {"android": "https://dc.lft.to/lastmile_qr_scan", "ios": "https://dc.lft.to/lastmile_qr_scan"}, "type": "electric_bike", "lat": 38.87379416666667, "is_reserved": 0, "fusion_lat": 0.0}, {"bike_id": "d124deaf958b4584eb656cbc56573cff", "fusion_lon": 0.0, "lon": -77.04128966666667, "name": "d124deaf958b4584eb656cbc56573cff", "is_disabled": 0, "rental_uris": {"android": "https://dc.lft.to/lastmile_qr_scan", "ios": "https://dc.lft.to/lastmile_qr_scan"}, "type": "electric_scooter", "lat": 38.921413333333334, "is_reserved": 0, "fusion_lat": 0.0}, {"bike_id": "1a127495426eec9704b53b77dfe7720b", "fusion_lon": 0.0, "lon": -77.03295166666666, "name": "1a127495426eec9704b53b77dfe7720b", "is_disabled": 0, "rental_uris": {"android": "https://dc.lft.to/lastmile_qr_scan", "ios": "https://dc.lft.to/lastmile_qr_scan"}, "type": "electric_scooter", "lat": 38.904330333333334, "is_reserved": 0, "fusion_lat": 0.0}, {"bike_id": "c1f4b631abcafab7c88eae8e9f304821", "fusion_lon": 0.0, "lon": -77.03413766666667, "name": "c1f4b631abcafab7c88eae8e9f304821", "is_disabled": 0, "rental_uris": {"android": "https://dc.lft.to/lastmile_qr_scan", "ios": "https://dc.lft.to/lastmile_qr_scan"}, "type": "electric_scooter", "lat": 38.903825166666664, "is_reserved": 0, "fusion_lat": 0.0}, {"bike_id": "fc8120877aa8634a91fec768797cc525", "fusion_lon": 0.0, "lon": -76.99796333333333, "name": "fc8120877aa8634a91fec768797cc525", "is_disabled": 0, "rental_uris": {"android": "https://dc.lft.to/lastmile_qr_scan", "ios": "https://dc.lft.to/lastmile_qr_scan"}, "type": "electric_scooter", "lat": 38.87500716666667, "is_reserved": 0, "fusion_lat": 0.0}, {"bike_id": "45795c679900830c50fef3bc94546d16", "fusion_lon": 0.0, "lon": -76.98363383333333, "name": "45795c679900830c50fef3bc94546d16", "is_disabled": 0, "rental_uris": {"android": "https://dc.lft.to/lastmile_qr_scan", "ios": "https://dc.lft.to/lastmile_qr_scan"}, "type": "electric_scooter", "lat": 38.90639216666667, "is_reserved": 0, "fusion_lat": 0.0}, {"bike_id": "043b0d0a67a72f17c0759ee3204abcb1", "fusion_lon": 0.0, "lon": -76.965261, "name": "043b0d0a67a72f17c0759ee3204abcb1", "is_disabled": 0, "rental_uris": {"android": "https://dc.lft.to/lastmile_qr_scan", "ios": "https://dc.lft.to/lastmile_qr_scan"}, "type": "electric_scooter", "lat": 38.87633316666667, "is_reserved": 0, "fusion_lat": 0.0}, {"bike_id": "e6e7977db9f018f2f7415460ad5e9c4f", "fusion_lon": 0.0, "lon": -76.9373815, "name": "e6e7977db9f018f2f7415460ad5e9c4f", "is_disabled": 0, "rental_uris": {"android": "https://dc.lft.to/lastmile_qr_scan", "ios": "https://dc.lft.to/lastmile_qr_scan"}, "type": "electric_scooter", "lat": 38.890234, "is_reserved": 0, "fusion_lat": 0.0}, {"bike_id": "7a2733aaf1f271d80f783b3798820289", "fusion_lon": 0.0, "lon": -77.028167, "name": "7a2733aaf1f271d80f783b3798820289", "is_disabled": 0, "rental_uris": {"android": "https://dc.lft.to/lastmile_qr_scan", "ios": "https://dc.lft.to/lastmile_qr_scan"}, "type": "electric_scooter", "lat": 38.920711, "is_reserved": 0, "fusion_lat": 0.0}, {"bike_id": "d362c692039b541385e2bbe79b33faa0", "fusion_lon": 0.0, "lon": -77.026204, "name": "d362c692039b541385e2bbe79b33faa0", "is_disabled": 0, "rental_uris": {"android": "https://dc.lft.to/lastmile_qr_scan", "ios": "https://dc.lft.to/lastmile_qr_scan"}, "type": "electric_bike", "lat": 38.969342, "is_reserved": 0, "fusion_lat": 0.0}, {"bike_id": "df4a5f9c2d9c069dfff0f354be223a58", "fusion_lon": 0.0, "lon": -77.03548333333333, "name": "df4a5f9c2d9c069dfff0f354be223a58", "is_disabled": 0, "rental_uris": {"android": "https://dc.lft.to/lastmile_qr_scan", "ios": "https://dc.lft.to/lastmile_qr_scan"}, "type": "electric_scooter", "lat": 38.90835933333334, "is_reserved": 0, "fusion_lat": 0.0}, {"bike_id": "957a13cb7b6ebf59921a097fc0df80be", "fusion_lon": 0.0, "lon": -77.03841666666666, "name": "957a13cb7b6ebf59921a097fc0df80be", "is_disabled": 0, "rental_uris": {"android": "https://dc.lft.to/lastmile_qr_scan", "ios": "https://dc.lft.to/lastmile_qr_scan"}, "type": "electric_scooter", "lat": 38.91014666666667, "is_reserved": 0, "fusion_lat": 0.0}, {"bike_id": "00fe3ea31ec8ffc4c500e5a3ac337486", "fusion_lon": 0.0, "lon": -76.987151, "name": "00fe3ea31ec8ffc4c500e5a3ac337486", "is_disabled": 0, "rental_uris": {"android": "https://dc.lft.to/lastmile_qr_scan", "ios": "https://dc.lft.to/lastmile_qr_scan"}, "type": "electric_scooter", "lat": 38.86708733333333, "is_reserved": 0, "fusion_lat": 0.0}, {"bike_id": "678ef632d5c763f4ae2fb713a7c15c04", "fusion_lon": 0.0, "lon": -77.03430233333333, "name": "678ef632d5c763f4ae2fb713a7c15c04", "is_disabled": 0, "rental_uris": {"android": "https://dc.lft.to/lastmile_qr_scan", "ios": "https://dc.lft.to/lastmile_qr_scan"}, "type": "electric_bike", "lat": 38.96626716666667, "is_reserved": 0, "fusion_lat": 0.0}, {"bike_id": "8ad53cc5472756e7b53d2aeeb686e88f", "fusion_lon": 0.0, "lon": -77.03646033333334, "name": "8ad53cc5472756e7b53d2aeeb686e88f", "is_disabled": 0, "rental_uris": {"android": "https://dc.lft.to/lastmile_qr_scan", "ios": "https://dc.lft.to/lastmile_qr_scan"}, "type": "electric_scooter", "lat": 38.906245, "is_reserved": 0, "fusion_lat": 0.0}, {"bike_id": "b0b17c149c73e9e82101f13fc7f0fe87", "fusion_lon": 0.0, "lon": -77.035285, "name": "b0b17c149c73e9e82101f13fc7f0fe87", "is_disabled": 0, "rental_uris": {"android": "https://dc.lft.to/lastmile_qr_scan", "ios": "https://dc.lft.to/lastmile_qr_scan"}, "type": "electric_scooter", "lat": 38.91702166666666, "is_reserved": 0, "fusion_lat": 0.0}, {"bike_id": "ee15b5614d530a028139a84f3357c02e", "fusion_lon": 0.0, "lon": -77.00404766666666, "name": "ee15b5614d530a028139a84f3357c02e", "is_disabled": 0, "rental_uris": {"android": "https://dc.lft.to/lastmile_qr_scan", "ios": "https://dc.lft.to/lastmile_qr_scan"}, "type": "electric_scooter", "lat": 38.87660283333334, "is_reserved": 0, "fusion_lat": 0.0}, {"bike_id": "9cac9646e43d8ddadf3c982fb63adefb", "fusion_lon": 0.0, "lon": -77.02203816666666, "name": "9cac9646e43d8ddadf3c982fb63adefb", "is_disabled": 0, "rental_uris": {"android": "https://dc.lft.to/lastmile_qr_scan", "ios": "https://dc.lft.to/lastmile_qr_scan"}, "type": "electric_scooter", "lat": 38.911040166666666, "is_reserved": 0, "fusion_lat": 0.0}, {"bike_id": "3d3dd3f7aee4049e303b8ac012cabd27", "fusion_lon": 0.0, "lon": -77.034946, "name": "3d3dd3f7aee4049e303b8ac012cabd27", "is_disabled": 0, "rental_uris": {"android": "https://dc.lft.to/lastmile_qr_scan", "ios": "https://dc.lft.to/lastmile_qr_scan"}, "type": "electric_scooter", "lat": 38.917035, "is_reserved": 0, "fusion_lat": 0.0}, {"bike_id": "456e5010ebab8fc52958deeec54424e8", "fusion_lon": 0.0, "lon": -77.0199935, "name": "456e5010ebab8fc52958deeec54424e8", "is_disabled": 0, "rental_uris": {"android": "https://dc.lft.to/lastmile_qr_scan", "ios": "https://dc.lft.to/lastmile_qr_scan"}, "type": "electric_scooter", "lat": 38.9136895, "is_reserved": 0, "fusion_lat": 0.0}, {"bike_id": "de0f2c6d8bdab110118726b2c070e6c9", "fusion_lon": 0.0, "lon": -77.049287, "name": "de0f2c6d8bdab110118726b2c070e6c9", "is_disabled": 0, "rental_uris": {"android": "https://dc.lft.to/lastmile_qr_scan", "ios": "https://dc.lft.to/lastmile_qr_scan"}, "type": "electric_bike", "lat": 38.81351266666667, "is_reserved": 0, "fusion_lat": 0.0}, {"bike_id": "8d92f69dca38ef8c0d61ab9242906a9e", "fusion_lon": 0.0, "lon": -77.043588, "name": "8d92f69dca38ef8c0d61ab9242906a9e", "is_disabled": 0, "rental_uris": {"android": "https://dc.lft.to/lastmile_qr_scan", "ios": "https://dc.lft.to/lastmile_qr_scan"}, "type": "electric_scooter", "lat": 38.9031245, "is_reserved": 0, "fusion_lat": 0.0}, {"bike_id": "1e192c639f768d5aa1adac46310d7543", "fusion_lon": 0.0, "lon": -77.017407, "name": "1e192c639f768d5aa1adac46310d7543", "is_disabled": 0, "rental_uris": {"android": "https://dc.lft.to/lastmile_qr_scan", "ios": "https://dc.lft.to/lastmile_qr_scan"}, "type": "electric_scooter", "lat": 38.8749915, "is_reserved": 0, "fusion_lat": 0.0}, {"bike_id": "909c86d78c5dbbcb03226a1ec109efb4", "fusion_lon": 0.0, "lon": -77.05857683333333, "name": "909c86d78c5dbbcb03226a1ec109efb4", "is_disabled": 0, "rental_uris": {"android": "https://dc.lft.to/lastmile_qr_scan", "ios": "https://dc.lft.to/lastmile_qr_scan"}, "type": "electric_scooter", "lat": 38.93593033333333, "is_reserved": 0, "fusion_lat": 0.0}, {"bike_id": "9c956fcecad696811eaf592f0b73dad1", "fusion_lon": 0.0, "lon": -77.02693566666666, "name": "9c956fcecad696811eaf592f0b73dad1", "is_disabled": 0, "rental_uris": {"android": "https://dc.lft.to/lastmile_qr_scan", "ios": "https://dc.lft.to/lastmile_qr_scan"}, "type": "electric_scooter", "lat": 38.91126933333334, "is_reserved": 0, "fusion_lat": 0.0}, {"bike_id": "46d2d042264d30894f3fb9c472ea3ac2", "fusion_lon": 0.0, "lon": -77.01741716666666, "name": "46d2d042264d30894f3fb9c472ea3ac2", "is_disabled": 0, "rental_uris": {"android": "https://dc.lft.to/lastmile_qr_scan", "ios": "https://dc.lft.to/lastmile_qr_scan"}, "type": "electric_scooter", "lat": 38.87276516666667, "is_reserved": 0, "fusion_lat": 0.0}, {"bike_id": "8b5d41d3be65975d121ad40e3b08df14", "fusion_lon": 0.0, "lon": -76.93356433333334, "name": "8b5d41d3be65975d121ad40e3b08df14", "is_disabled": 0, "rental_uris": {"android": "https://dc.lft.to/lastmile_qr_scan", "ios": "https://dc.lft.to/lastmile_qr_scan"}, "type": "electric_scooter", "lat": 38.899029166666665, "is_reserved": 0, "fusion_lat": 0.0}, {"bike_id": "53aeb695dc6fd4a231843c69c35d3bf8", "fusion_lon": 0.0, "lon": -77.04571883333334, "name": "53aeb695dc6fd4a231843c69c35d3bf8", "is_disabled": 0, "rental_uris": {"android": "https://dc.lft.to/lastmile_qr_scan", "ios": "https://dc.lft.to/lastmile_qr_scan"}, "type": "electric_bike", "lat": 38.924262, "is_reserved": 0, "fusion_lat": 0.0}, {"bike_id": "c25fbc5df3c13d85550a7fa9f54b3cb1", "fusion_lon": 0.0, "lon": -77.044083, "name": "c25fbc5df3c13d85550a7fa9f54b3cb1", "is_disabled": 0, "rental_uris": {"android": "https://dc.lft.to/lastmile_qr_scan", "ios": "https://dc.lft.to/lastmile_qr_scan"}, "type": "electric_scooter", "lat": 38.912788166666665, "is_reserved": 0, "fusion_lat": 0.0}, {"bike_id": "e8bdbcce0ffa4793d829a7e50afd6992", "fusion_lon": 0.0, "lon": -77.02546933333333, "name": "e8bdbcce0ffa4793d829a7e50afd6992", "is_disabled": 0, "rental_uris": {"android": "https://dc.lft.to/lastmile_qr_scan", "ios": "https://dc.lft.to/lastmile_qr_scan"}, "type": "electric_scooter", "lat": 38.88075716666667, "is_reserved": 0, "fusion_lat": 0.0}, {"bike_id": "c908a5ba3a0e7df9c996343ddb44312e", "fusion_lon": 0.0, "lon": -77.03894633333333, "name": "c908a5ba3a0e7df9c996343ddb44312e", "is_disabled": 0, "rental_uris": {"android": "https://dc.lft.to/lastmile_qr_scan", "ios": "https://dc.lft.to/lastmile_qr_scan"}, "type": "electric_scooter", "lat": 38.932469166666664, "is_reserved": 0, "fusion_lat": 0.0}, {"bike_id": "45011813500c37678050af3d08a39b38", "fusion_lon": 0.0, "lon": -76.99038333333333, "name": "45011813500c37678050af3d08a39b38", "is_disabled": 0, "rental_uris": {"android": "https://dc.lft.to/lastmile_qr_scan", "ios": "https://dc.lft.to/lastmile_qr_scan"}, "type": "electric_bike", "lat": 38.93818133333333, "is_reserved": 0, "fusion_lat": 0.0}, {"bike_id": "64bf372af458b6b29c2723f6bb6b1563", "fusion_lon": 0.0, "lon": -77.040197, "name": "64bf372af458b6b29c2723f6bb6b1563", "is_disabled": 0, "rental_uris": {"android": "https://dc.lft.to/lastmile_qr_scan", "ios": "https://dc.lft.to/lastmile_qr_scan"}, "type": "electric_scooter", "lat": 38.922738333333335, "is_reserved": 0, "fusion_lat": 0.0}, {"bike_id": "78bfc412dd305159213a48b6e35e2e80", "fusion_lon": 0.0, "lon": -77.04139833333333, "name": "78bfc412dd305159213a48b6e35e2e80", "is_disabled": 0, "rental_uris": {"android": "https://dc.lft.to/lastmile_qr_scan", "ios": "https://dc.lft.to/lastmile_qr_scan"}, "type": "electric_bike", "lat": 38.805092333333334, "is_reserved": 0, "fusion_lat": 0.0}, {"bike_id": "3e487c3ade518a87cd022f6573f15b9d", "fusion_lon": 0.0, "lon": -77.0230385, "name": "3e487c3ade518a87cd022f6573f15b9d", "is_disabled": 0, "rental_uris": {"android": "https://dc.lft.to/lastmile_qr_scan", "ios": "https://dc.lft.to/lastmile_qr_scan"}, "type": "electric_scooter", "lat": 38.91552933333333, "is_reserved": 0, "fusion_lat": 0.0}, {"bike_id": "236851860725cf5c73709fd00f9aa8fe", "fusion_lon": 0.0, "lon": -77.041404, "name": "236851860725cf5c73709fd00f9aa8fe", "is_disabled": 0, "rental_uris": {"android": "https://dc.lft.to/lastmile_qr_scan", "ios": "https://dc.lft.to/lastmile_qr_scan"}, "type": "electric_scooter", "lat": 38.9214705, "is_reserved": 0, "fusion_lat": 0.0}, {"bike_id": "086b3ed37cb3d906a9d2d1a30c4c2800", "fusion_lon": 0.0, "lon": -77.03263666666666, "name": "086b3ed37cb3d906a9d2d1a30c4c2800", "is_disabled": 0, "rental_uris": {"android": "https://dc.lft.to/lastmile_qr_scan", "ios": "https://dc.lft.to/lastmile_qr_scan"}, "type": "electric_scooter", "lat": 38.934071333333335, "is_reserved": 0, "fusion_lat": 0.0}, {"bike_id": "519cf563ed697eee4229719886f1ad8f", "fusion_lon": 0.0, "lon": -77.04846883333333, "name": "519cf563ed697eee4229719886f1ad8f", "is_disabled": 0, "rental_uris": {"android": "https://dc.lft.to/lastmile_qr_scan", "ios": "https://dc.lft.to/lastmile_qr_scan"}, "type": "electric_scooter", "lat": 38.911899166666664, "is_reserved": 0, "fusion_lat": 0.0}, {"bike_id": "0cbe67a943a84a3014fa6fff66a06852", "fusion_lon": 0.0, "lon": -77.03426066666667, "name": "0cbe67a943a84a3014fa6fff66a06852", "is_disabled": 0, "rental_uris": {"android": "https://dc.lft.to/lastmile_qr_scan", "ios": "https://dc.lft.to/lastmile_qr_scan"}, "type": "electric_scooter", "lat": 38.91932166666667, "is_reserved": 0, "fusion_lat": 0.0}, {"bike_id": "c61ca31c67ee22df094b760c5b5ab00c", "fusion_lon": 0.0, "lon": -77.02045533333333, "name": "c61ca31c67ee22df094b760c5b5ab00c", "is_disabled": 0, "rental_uris": {"android": "https://dc.lft.to/lastmile_qr_scan", "ios": "https://dc.lft.to/lastmile_qr_scan"}, "type": "electric_scooter", "lat": 38.91559316666667, "is_reserved": 0, "fusion_lat": 0.0}, {"bike_id": "281cf5d5cb880f8491da5aa5e38b3fb3", "fusion_lon": 0.0, "lon": -77.0317235, "name": "281cf5d5cb880f8491da5aa5e38b3fb3", "is_disabled": 0, "rental_uris": {"android": "https://dc.lft.to/lastmile_qr_scan", "ios": "https://dc.lft.to/lastmile_qr_scan"}, "type": "electric_scooter", "lat": 38.9038515, "is_reserved": 0, "fusion_lat": 0.0}, {"bike_id": "82b89d86a1db4dc391784414b96a6249", "fusion_lon": 0.0, "lon": -77.02967433333333, "name": "82b89d86a1db4dc391784414b96a6249", "is_disabled": 0, "rental_uris": {"android": "https://dc.lft.to/lastmile_qr_scan", "ios": "https://dc.lft.to/lastmile_qr_scan"}, "type": "electric_scooter", "lat": 38.92293166666666, "is_reserved": 0, "fusion_lat": 0.0}, {"bike_id": "dfaac5bc558f27cdf76da80030c3b1c2", "fusion_lon": 0.0, "lon": -76.95096633333333, "name": "dfaac5bc558f27cdf76da80030c3b1c2", "is_disabled": 0, "rental_uris": {"android": "https://dc.lft.to/lastmile_qr_scan", "ios": "https://dc.lft.to/lastmile_qr_scan"}, "type": "electric_scooter", "lat": 38.884531333333335, "is_reserved": 0, "fusion_lat": 0.0}, {"bike_id": "538d27e3808b4189e3da7db763075cbe", "fusion_lon": 0.0, "lon": -77.002051, "name": "538d27e3808b4189e3da7db763075cbe", "is_disabled": 0, "rental_uris": {"android": "https://dc.lft.to/lastmile_qr_scan", "ios": "https://dc.lft.to/lastmile_qr_scan"}, "type": "electric_bike", "lat": 38.819420666666666, "is_reserved": 0, "fusion_lat": 0.0}, {"bike_id": "8802684d5f2844d4c097e04d462145ba", "fusion_lon": 0.0, "lon": -77.00937816666666, "name": "8802684d5f2844d4c097e04d462145ba", "is_disabled": 0, "rental_uris": {"android": "https://dc.lft.to/lastmile_qr_scan", "ios": "https://dc.lft.to/lastmile_qr_scan"}, "type": "electric_bike", "lat": 38.96524083333333, "is_reserved": 0, "fusion_lat": 0.0}, {"bike_id": "45e0da956844c6c93c248ffb2566a7e8", "fusion_lon": 0.0, "lon": -77.03988166666667, "name": "45e0da956844c6c93c248ffb2566a7e8", "is_disabled": 0, "rental_uris": {"android": "https://dc.lft.to/lastmile_qr_scan", "ios": "https://dc.lft.to/lastmile_qr_scan"}, "type": "electric_scooter", "lat": 38.90490533333333, "is_reserved": 0, "fusion_lat": 0.0}, {"bike_id": "41fcdef8a8f41d6f66ac4432d833a9c7", "fusion_lon": 0.0, "lon": -77.02175483333333, "name": "41fcdef8a8f41d6f66ac4432d833a9c7", "is_disabled": 0, "rental_uris": {"android": "https://dc.lft.to/lastmile_qr_scan", "ios": "https://dc.lft.to/lastmile_qr_scan"}, "type": "electric_scooter", "lat": 38.92513816666667, "is_reserved": 0, "fusion_lat": 0.0}, {"bike_id": "1bd59744d6bbbdb1402e677047d25a86", "fusion_lon": 0.0, "lon": -77.051443, "name": "1bd59744d6bbbdb1402e677047d25a86", "is_disabled": 0, "rental_uris": {"android": "https://dc.lft.to/lastmile_qr_scan", "ios": "https://dc.lft.to/lastmile_qr_scan"}, "type": "electric_scooter", "lat": 38.89661066666667, "is_reserved": 0, "fusion_lat": 0.0}, {"bike_id": "0ab032a3324b64b5982f1b2469d3c1e1", "fusion_lon": 0.0, "lon": -76.99602366666667, "name": "0ab032a3324b64b5982f1b2469d3c1e1", "is_disabled": 0, "rental_uris": {"android": "https://dc.lft.to/lastmile_qr_scan", "ios": "https://dc.lft.to/lastmile_qr_scan"}, "type": "electric_bike", "lat": 38.95078183333333, "is_reserved": 0, "fusion_lat": 0.0}, {"bike_id": "2f53bf7cae408641b6b72f5248159ad4", "fusion_lon": 0.0, "lon": -77.02806566666666, "name": "2f53bf7cae408641b6b72f5248159ad4", "is_disabled": 0, "rental_uris": {"android": "https://dc.lft.to/lastmile_qr_scan", "ios": "https://dc.lft.to/lastmile_qr_scan"}, "type": "electric_scooter", "lat": 38.91695833333333, "is_reserved": 0, "fusion_lat": 0.0}, {"bike_id": "c000a83e836bb00c4040864803c3ef57", "fusion_lon": 0.0, "lon": -77.07313733333334, "name": "c000a83e836bb00c4040864803c3ef57", "is_disabled": 0, "rental_uris": {"android": "https://dc.lft.to/lastmile_qr_scan", "ios": "https://dc.lft.to/lastmile_qr_scan"}, "type": "electric_scooter", "lat": 38.935729333333335, "is_reserved": 0, "fusion_lat": 0.0}, {"bike_id": "710ae3f1864efb2a9edf4742652fe64b", "fusion_lon": 0.0, "lon": -77.04333083333333, "name": "710ae3f1864efb2a9edf4742652fe64b", "is_disabled": 0, "rental_uris": {"android": "https://dc.lft.to/lastmile_qr_scan", "ios": "https://dc.lft.to/lastmile_qr_scan"}, "type": "electric_scooter", "lat": 38.8953125, "is_reserved": 0, "fusion_lat": 0.0}, {"bike_id": "9a379791428a991ce340a9909d08e94b", "fusion_lon": 0.0, "lon": -77.08590533333333, "name": "9a379791428a991ce340a9909d08e94b", "is_disabled": 0, "rental_uris": {"android": "https://dc.lft.to/lastmile_qr_scan", "ios": "https://dc.lft.to/lastmile_qr_scan"}, "type": "electric_scooter", "lat": 38.90873833333333, "is_reserved": 0, "fusion_lat": 0.0}, {"bike_id": "397a44ebeb4e29527fd489a7b7d46d5e", "fusion_lon": 0.0, "lon": -76.99949466666666, "name": "397a44ebeb4e29527fd489a7b7d46d5e", "is_disabled": 0, "rental_uris": {"android": "https://dc.lft.to/lastmile_qr_scan", "ios": "https://dc.lft.to/lastmile_qr_scan"}, "type": "electric_scooter", "lat": 38.842973666666666, "is_reserved": 0, "fusion_lat": 0.0}, {"bike_id": "eb68cacaf5fba984f8f97ec3736d6cf6", "fusion_lon": 0.0, "lon": -77.04398216666667, "name": "eb68cacaf5fba984f8f97ec3736d6cf6", "is_disabled": 0, "rental_uris": {"android": "https://dc.lft.to/lastmile_qr_scan", "ios": "https://dc.lft.to/lastmile_qr_scan"}, "type": "electric_scooter", "lat": 38.9108975, "is_reserved": 0, "fusion_lat": 0.0}, {"bike_id": "ee238fb9b3652230fd435bf00694e62d", "fusion_lon": 0.0, "lon": -77.031862, "name": "ee238fb9b3652230fd435bf00694e62d", "is_disabled": 0, "rental_uris": {"android": "https://dc.lft.to/lastmile_qr_scan", "ios": "https://dc.lft.to/lastmile_qr_scan"}, "type": "electric_scooter", "lat": 38.92487466666667, "is_reserved": 0, "fusion_lat": 0.0}, {"bike_id": "201b0506bb5df944869e07617b663208", "fusion_lon": 0.0, "lon": -76.9646745, "name": "201b0506bb5df944869e07617b663208", "is_disabled": 0, "rental_uris": {"android": "https://dc.lft.to/lastmile_qr_scan", "ios": "https://dc.lft.to/lastmile_qr_scan"}, "type": "electric_scooter", "lat": 38.934517, "is_reserved": 0, "fusion_lat": 0.0}, {"bike_id": "425de3367d6f0fef0202cce23fab4961", "fusion_lon": 0.0, "lon": -76.95020466666666, "name": "425de3367d6f0fef0202cce23fab4961", "is_disabled": 0, "rental_uris": {"android": "https://dc.lft.to/lastmile_qr_scan", "ios": "https://dc.lft.to/lastmile_qr_scan"}, "type": "electric_scooter", "lat": 38.89392566666667, "is_reserved": 0, "fusion_lat": 0.0}, {"bike_id": "1c0fd62623697749a5ec3f3282c8a9f8", "fusion_lon": 0.0, "lon": -77.044494, "name": "1c0fd62623697749a5ec3f3282c8a9f8", "is_disabled": 0, "rental_uris": {"android": "https://dc.lft.to/lastmile_qr_scan", "ios": "https://dc.lft.to/lastmile_qr_scan"}, "type": "electric_scooter", "lat": 38.911861333333334, "is_reserved": 0, "fusion_lat": 0.0}, {"bike_id": "c547e2765371b0d967599bf39f9ea9ba", "fusion_lon": 0.0, "lon": -77.02469383333333, "name": "c547e2765371b0d967599bf39f9ea9ba", "is_disabled": 0, "rental_uris": {"android": "https://dc.lft.to/lastmile_qr_scan", "ios": "https://dc.lft.to/lastmile_qr_scan"}, "type": "electric_scooter", "lat": 38.9031765, "is_reserved": 0, "fusion_lat": 0.0}, {"bike_id": "86a7f715f4084fbd798a16620bde6517", "fusion_lon": 0.0, "lon": -77.02371433333333, "name": "86a7f715f4084fbd798a16620bde6517", "is_disabled": 0, "rental_uris": {"android": "https://dc.lft.to/lastmile_qr_scan", "ios": "https://dc.lft.to/lastmile_qr_scan"}, "type": "electric_scooter", "lat": 38.879332, "is_reserved": 0, "fusion_lat": 0.0}, {"bike_id": "089ca41145677035ee80dc223743f82a", "fusion_lon": 0.0, "lon": -77.02212866666666, "name": "089ca41145677035ee80dc223743f82a", "is_disabled": 0, "rental_uris": {"android": "https://dc.lft.to/lastmile_qr_scan", "ios": "https://dc.lft.to/lastmile_qr_scan"}, "type": "electric_scooter", "lat": 38.915711333333334, "is_reserved": 0, "fusion_lat": 0.0}, {"bike_id": "f609ee6b8104d44566fdde582021cd60", "fusion_lon": 0.0, "lon": -77.0344675, "name": "f609ee6b8104d44566fdde582021cd60", "is_disabled": 0, "rental_uris": {"android": "https://dc.lft.to/lastmile_qr_scan", "ios": "https://dc.lft.to/lastmile_qr_scan"}, "type": "electric_scooter", "lat": 38.909761, "is_reserved": 0, "fusion_lat": 0.0}, {"bike_id": "8a378b47daab0fc174f6d441538abb25", "fusion_lon": 0.0, "lon": -76.9953075, "name": "8a378b47daab0fc174f6d441538abb25", "is_disabled": 0, "rental_uris": {"android": "https://dc.lft.to/lastmile_qr_scan", "ios": "https://dc.lft.to/lastmile_qr_scan"}, "type": "electric_scooter", "lat": 38.86251, "is_reserved": 0, "fusion_lat": 0.0}, {"bike_id": "426d3cb954505ee928fc03a45b35529f", "fusion_lon": 0.0, "lon": -77.04743433333333, "name": "426d3cb954505ee928fc03a45b35529f", "is_disabled": 0, "rental_uris": {"android": "https://dc.lft.to/lastmile_qr_scan", "ios": "https://dc.lft.to/lastmile_qr_scan"}, "type": "electric_scooter", "lat": 38.905271, "is_reserved": 0, "fusion_lat": 0.0}, {"bike_id": "17bc6f4b0419fa5acd3d0f548908418c", "fusion_lon": 0.0, "lon": -76.998554, "name": "17bc6f4b0419fa5acd3d0f548908418c", "is_disabled": 0, "rental_uris": {"android": "https://dc.lft.to/lastmile_qr_scan", "ios": "https://dc.lft.to/lastmile_qr_scan"}, "type": "electric_scooter", "lat": 38.9002505, "is_reserved": 0, "fusion_lat": 0.0}, {"bike_id": "736614be1166f0176b7de992ce37f645", "fusion_lon": 0.0, "lon": -77.03253833333333, "name": "736614be1166f0176b7de992ce37f645", "is_disabled": 0, "rental_uris": {"android": "https://dc.lft.to/lastmile_qr_scan", "ios": "https://dc.lft.to/lastmile_qr_scan"}, "type": "electric_scooter", "lat": 38.923617666666665, "is_reserved": 0, "fusion_lat": 0.0}, {"bike_id": "a7108154338006e59a92f425cfa8a6b0", "fusion_lon": 0.0, "lon": -77.0059695, "name": "a7108154338006e59a92f425cfa8a6b0", "is_disabled": 0, "rental_uris": {"android": "https://dc.lft.to/lastmile_qr_scan", "ios": "https://dc.lft.to/lastmile_qr_scan"}, "type": "electric_scooter", "lat": 38.905902166666664, "is_reserved": 0, "fusion_lat": 0.0}, {"bike_id": "8d8c26d0a2a1fe358f90948777b060b7", "fusion_lon": 0.0, "lon": -77.02770666666666, "name": "8d8c26d0a2a1fe358f90948777b060b7", "is_disabled": 0, "rental_uris": {"android": "https://dc.lft.to/lastmile_qr_scan", "ios": "https://dc.lft.to/lastmile_qr_scan"}, "type": "electric_scooter", "lat": 38.907387666666665, "is_reserved": 0, "fusion_lat": 0.0}, {"bike_id": "cfe7625c684ef5066a879523266b3f8d", "fusion_lon": 0.0, "lon": -77.1185195, "name": "cfe7625c684ef5066a879523266b3f8d", "is_disabled": 0, "rental_uris": {"android": "https://dc.lft.to/lastmile_qr_scan", "ios": "https://dc.lft.to/lastmile_qr_scan"}, "type": "electric_bike", "lat": 38.87739066666666, "is_reserved": 0, "fusion_lat": 0.0}, {"bike_id": "635229119fa70af9df238d7013a897cd", "fusion_lon": 0.0, "lon": -77.03970116666666, "name": "635229119fa70af9df238d7013a897cd", "is_disabled": 0, "rental_uris": {"android": "https://dc.lft.to/lastmile_qr_scan", "ios": "https://dc.lft.to/lastmile_qr_scan"}, "type": "electric_scooter", "lat": 38.9061085, "is_reserved": 0, "fusion_lat": 0.0}, {"bike_id": "cb472e6634e078ba2e5400fc2994c8cc", "fusion_lon": 0.0, "lon": -77.02092916666666, "name": "cb472e6634e078ba2e5400fc2994c8cc", "is_disabled": 0, "rental_uris": {"android": "https://dc.lft.to/lastmile_qr_scan", "ios": "https://dc.lft.to/lastmile_qr_scan"}, "type": "electric_scooter", "lat": 38.8850945, "is_reserved": 0, "fusion_lat": 0.0}, {"bike_id": "49e6aeea9695d99f898cc4257d854c74", "fusion_lon": 0.0, "lon": -76.99766866666667, "name": "49e6aeea9695d99f898cc4257d854c74", "is_disabled": 0, "rental_uris": {"android": "https://dc.lft.to/lastmile_qr_scan", "ios": "https://dc.lft.to/lastmile_qr_scan"}, "type": "electric_scooter", "lat": 38.8877325, "is_reserved": 0, "fusion_lat": 0.0}, {"bike_id": "2ec5a7515b9619228eb564278c6a009e", "fusion_lon": 0.0, "lon": -76.93543583333333, "name": "2ec5a7515b9619228eb564278c6a009e", "is_disabled": 0, "rental_uris": {"android": "https://dc.lft.to/lastmile_qr_scan", "ios": "https://dc.lft.to/lastmile_qr_scan"}, "type": "electric_bike", "lat": 38.951871, "is_reserved": 0, "fusion_lat": 0.0}, {"bike_id": "317ee1aa782f02aec957ece75788f441", "fusion_lon": 0.0, "lon": -77.01182566666667, "name": "317ee1aa782f02aec957ece75788f441", "is_disabled": 0, "rental_uris": {"android": "https://dc.lft.to/lastmile_qr_scan", "ios": "https://dc.lft.to/lastmile_qr_scan"}, "type": "electric_scooter", "lat": 38.90957366666667, "is_reserved": 0, "fusion_lat": 0.0}, {"bike_id": "b6061979d96d32420f915d2292ae8f58", "fusion_lon": 0.0, "lon": -77.02337416666667, "name": "b6061979d96d32420f915d2292ae8f58", "is_disabled": 0, "rental_uris": {"android": "https://dc.lft.to/lastmile_qr_scan", "ios": "https://dc.lft.to/lastmile_qr_scan"}, "type": "electric_scooter", "lat": 38.92615933333333, "is_reserved": 0, "fusion_lat": 0.0}, {"bike_id": "7209ca674a636d3c8b7a430e9618e14d", "fusion_lon": 0.0, "lon": -77.04357066666667, "name": "7209ca674a636d3c8b7a430e9618e14d", "is_disabled": 0, "rental_uris": {"android": "https://dc.lft.to/lastmile_qr_scan", "ios": "https://dc.lft.to/lastmile_qr_scan"}, "type": "electric_scooter", "lat": 38.90637916666667, "is_reserved": 0, "fusion_lat": 0.0}, {"bike_id": "33ee297f7af3e2c94bbd9afbb5bbf6d3", "fusion_lon": 0.0, "lon": -77.02161333333333, "name": "33ee297f7af3e2c94bbd9afbb5bbf6d3", "is_disabled": 0, "rental_uris": {"android": "https://dc.lft.to/lastmile_qr_scan", "ios": "https://dc.lft.to/lastmile_qr_scan"}, "type": "electric_scooter", "lat": 38.88484183333333, "is_reserved": 0, "fusion_lat": 0.0}, {"bike_id": "c066b509c55b0fbf8701264899406358", "fusion_lon": 0.0, "lon": -77.0012, "name": "c066b509c55b0fbf8701264899406358", "is_disabled": 0, "rental_uris": {"android": "https://dc.lft.to/lastmile_qr_scan", "ios": "https://dc.lft.to/lastmile_qr_scan"}, "type": "electric_scooter", "lat": 38.9056795, "is_reserved": 0, "fusion_lat": 0.0}, {"bike_id": "7516b5912f2f8e65b43459568650d30c", "fusion_lon": 0.0, "lon": -77.02775333333334, "name": "7516b5912f2f8e65b43459568650d30c", "is_disabled": 0, "rental_uris": {"android": "https://dc.lft.to/lastmile_qr_scan", "ios": "https://dc.lft.to/lastmile_qr_scan"}, "type": "electric_scooter", "lat": 38.93963166666666, "is_reserved": 0, "fusion_lat": 0.0}, {"bike_id": "261a32076dc2360fc6a315e64f4d5e55", "fusion_lon": 0.0, "lon": -77.01610716666667, "name": "261a32076dc2360fc6a315e64f4d5e55", "is_disabled": 0, "rental_uris": {"android": "https://dc.lft.to/lastmile_qr_scan", "ios": "https://dc.lft.to/lastmile_qr_scan"}, "type": "electric_scooter", "lat": 38.89975066666667, "is_reserved": 0, "fusion_lat": 0.0}, {"bike_id": "c160d4680042ce09d77aac49653f0f90", "fusion_lon": 0.0, "lon": -76.99591783333334, "name": "c160d4680042ce09d77aac49653f0f90", "is_disabled": 0, "rental_uris": {"android": "https://dc.lft.to/lastmile_qr_scan", "ios": "https://dc.lft.to/lastmile_qr_scan"}, "type": "electric_scooter", "lat": 38.8844625, "is_reserved": 0, "fusion_lat": 0.0}, {"bike_id": "48bedaeeea612ee66547ac2f1c719352", "fusion_lon": 0.0, "lon": -77.046357, "name": "48bedaeeea612ee66547ac2f1c719352", "is_disabled": 0, "rental_uris": {"android": "https://dc.lft.to/lastmile_qr_scan", "ios": "https://dc.lft.to/lastmile_qr_scan"}, "type": "electric_scooter", "lat": 38.919295, "is_reserved": 0, "fusion_lat": 0.0}, {"bike_id": "65f9818f62d87ba24550656dcba5837b", "fusion_lon": 0.0, "lon": -77.04876516666667, "name": "65f9818f62d87ba24550656dcba5837b", "is_disabled": 0, "rental_uris": {"android": "https://dc.lft.to/lastmile_qr_scan", "ios": "https://dc.lft.to/lastmile_qr_scan"}, "type": "electric_scooter", "lat": 38.905803, "is_reserved": 0, "fusion_lat": 0.0}, {"bike_id": "e2b6992c362621629cdad3697b1e5c79", "fusion_lon": 0.0, "lon": -77.0435715, "name": "e2b6992c362621629cdad3697b1e5c79", "is_disabled": 0, "rental_uris": {"android": "https://dc.lft.to/lastmile_qr_scan", "ios": "https://dc.lft.to/lastmile_qr_scan"}, "type": "electric_scooter", "lat": 38.92141766666667, "is_reserved": 0, "fusion_lat": 0.0}, {"bike_id": "4dac56b41b235a1156dfc0fb2cc254e9", "fusion_lon": 0.0, "lon": -77.03294566666666, "name": "4dac56b41b235a1156dfc0fb2cc254e9", "is_disabled": 0, "rental_uris": {"android": "https://dc.lft.to/lastmile_qr_scan", "ios": "https://dc.lft.to/lastmile_qr_scan"}, "type": "electric_scooter", "lat": 38.9206235, "is_reserved": 0, "fusion_lat": 0.0}, {"bike_id": "8f286c19dfc78d3ac24afd7f46b41c22", "fusion_lon": 0.0, "lon": -77.02188, "name": "8f286c19dfc78d3ac24afd7f46b41c22", "is_disabled": 0, "rental_uris": {"android": "https://dc.lft.to/lastmile_qr_scan", "ios": "https://dc.lft.to/lastmile_qr_scan"}, "type": "electric_scooter", "lat": 38.9106815, "is_reserved": 0, "fusion_lat": 0.0}, {"bike_id": "740157c29ec2104a6257abaad74daa04", "fusion_lon": 0.0, "lon": -77.072606, "name": "740157c29ec2104a6257abaad74daa04", "is_disabled": 0, "rental_uris": {"android": "https://dc.lft.to/lastmile_qr_scan", "ios": "https://dc.lft.to/lastmile_qr_scan"}, "type": "electric_scooter", "lat": 38.907897, "is_reserved": 0, "fusion_lat": 0.0}, {"bike_id": "6c4c63047a0dcba00d80029c63605be6", "fusion_lon": 0.0, "lon": -77.03180216666667, "name": "6c4c63047a0dcba00d80029c63605be6", "is_disabled": 0, "rental_uris": {"android": "https://dc.lft.to/lastmile_qr_scan", "ios": "https://dc.lft.to/lastmile_qr_scan"}, "type": "electric_scooter", "lat": 38.90351283333333, "is_reserved": 0, "fusion_lat": 0.0}, {"bike_id": "b76da440bb1709f9af6e4a0c4a082d6b", "fusion_lon": 0.0, "lon": -77.02184866666667, "name": "b76da440bb1709f9af6e4a0c4a082d6b", "is_disabled": 0, "rental_uris": {"android": "https://dc.lft.to/lastmile_qr_scan", "ios": "https://dc.lft.to/lastmile_qr_scan"}, "type": "electric_scooter", "lat": 38.90587583333333, "is_reserved": 0, "fusion_lat": 0.0}, {"bike_id": "b241b11b3c14316f4ee16174174c44b4", "fusion_lon": 0.0, "lon": -77.07939366666666, "name": "b241b11b3c14316f4ee16174174c44b4", "is_disabled": 0, "rental_uris": {"android": "https://dc.lft.to/lastmile_qr_scan", "ios": "https://dc.lft.to/lastmile_qr_scan"}, "type": "electric_scooter", "lat": 38.94775083333333, "is_reserved": 0, "fusion_lat": 0.0}, {"bike_id": "92d20e988553f5d7a8af330e4158af44", "fusion_lon": 0.0, "lon": -77.02577483333333, "name": "92d20e988553f5d7a8af330e4158af44", "is_disabled": 0, "rental_uris": {"android": "https://dc.lft.to/lastmile_qr_scan", "ios": "https://dc.lft.to/lastmile_qr_scan"}, "type": "electric_scooter", "lat": 38.916069, "is_reserved": 0, "fusion_lat": 0.0}, {"bike_id": "4d25304e87c8605e865732626abeb09b", "fusion_lon": 0.0, "lon": -77.02557066666667, "name": "4d25304e87c8605e865732626abeb09b", "is_disabled": 0, "rental_uris": {"android": "https://dc.lft.to/lastmile_qr_scan", "ios": "https://dc.lft.to/lastmile_qr_scan"}, "type": "electric_scooter", "lat": 38.9156025, "is_reserved": 0, "fusion_lat": 0.0}, {"bike_id": "da7dd2428af86d25367273754a415c9f", "fusion_lon": 0.0, "lon": -77.04549383333334, "name": "da7dd2428af86d25367273754a415c9f", "is_disabled": 0, "rental_uris": {"android": "https://dc.lft.to/lastmile_qr_scan", "ios": "https://dc.lft.to/lastmile_qr_scan"}, "type": "electric_scooter", "lat": 38.90279133333333, "is_reserved": 0, "fusion_lat": 0.0}, {"bike_id": "0cd68b9fdfce1cb6cf92c7422f9773b0", "fusion_lon": 0.0, "lon": -76.88377216666666, "name": "0cd68b9fdfce1cb6cf92c7422f9773b0", "is_disabled": 0, "rental_uris": {"android": "https://dc.lft.to/lastmile_qr_scan", "ios": "https://dc.lft.to/lastmile_qr_scan"}, "type": "electric_bike", "lat": 38.9982415, "is_reserved": 0, "fusion_lat": 0.0}, {"bike_id": "f7f4fb8145e0ccf6fcd3458460b5272a", "fusion_lon": 0.0, "lon": -77.03661316666667, "name": "f7f4fb8145e0ccf6fcd3458460b5272a", "is_disabled": 0, "rental_uris": {"android": "https://dc.lft.to/lastmile_qr_scan", "ios": "https://dc.lft.to/lastmile_qr_scan"}, "type": "electric_scooter", "lat": 38.9228695, "is_reserved": 0, "fusion_lat": 0.0}, {"bike_id": "188ab84c6cb68ce2e48e6580fc565931", "fusion_lon": 0.0, "lon": -76.951415, "name": "188ab84c6cb68ce2e48e6580fc565931", "is_disabled": 0, "rental_uris": {"android": "https://dc.lft.to/lastmile_qr_scan", "ios": "https://dc.lft.to/lastmile_qr_scan"}, "type": "electric_scooter", "lat": 38.890448666666664, "is_reserved": 0, "fusion_lat": 0.0}, {"bike_id": "8e963e819d7af07c94ba873e4a8151b1", "fusion_lon": 0.0, "lon": -77.032835, "name": "8e963e819d7af07c94ba873e4a8151b1", "is_disabled": 0, "rental_uris": {"android": "https://dc.lft.to/lastmile_qr_scan", "ios": "https://dc.lft.to/lastmile_qr_scan"}, "type": "electric_scooter", "lat": 38.9001615, "is_reserved": 0, "fusion_lat": 0.0}, {"bike_id": "39195cf8bfd9b7747ea1b1c73010b1d5", "fusion_lon": 0.0, "lon": -77.0210445, "name": "39195cf8bfd9b7747ea1b1c73010b1d5", "is_disabled": 0, "rental_uris": {"android": "https://dc.lft.to/lastmile_qr_scan", "ios": "https://dc.lft.to/lastmile_qr_scan"}, "type": "electric_scooter", "lat": 38.924159333333336, "is_reserved": 0, "fusion_lat": 0.0}, {"bike_id": "c76c5c942285dcef629c22761709f58e", "fusion_lon": 0.0, "lon": -76.9770355, "name": "c76c5c942285dcef629c22761709f58e", "is_disabled": 0, "rental_uris": {"android": "https://dc.lft.to/lastmile_qr_scan", "ios": "https://dc.lft.to/lastmile_qr_scan"}, "type": "electric_bike", "lat": 38.949209833333335, "is_reserved": 0, "fusion_lat": 0.0}, {"bike_id": "0d261b66e1bb8e45baebab6386fc53b8", "fusion_lon": 0.0, "lon": -77.031286, "name": "0d261b66e1bb8e45baebab6386fc53b8", "is_disabled": 0, "rental_uris": {"android": "https://dc.lft.to/lastmile_qr_scan", "ios": "https://dc.lft.to/lastmile_qr_scan"}, "type": "electric_scooter", "lat": 38.910699666666666, "is_reserved": 0, "fusion_lat": 0.0}, {"bike_id": "8b85e4265cb880a49248d3c7a1de7e0c", "fusion_lon": 0.0, "lon": -77.0701105, "name": "8b85e4265cb880a49248d3c7a1de7e0c", "is_disabled": 0, "rental_uris": {"android": "https://dc.lft.to/lastmile_qr_scan", "ios": "https://dc.lft.to/lastmile_qr_scan"}, "type": "electric_scooter", "lat": 38.90593783333333, "is_reserved": 0, "fusion_lat": 0.0}, {"bike_id": "84b7f860bf67713cdc896fd88bb01fc5", "fusion_lon": 0.0, "lon": -77.02618266666667, "name": "84b7f860bf67713cdc896fd88bb01fc5", "is_disabled": 0, "rental_uris": {"android": "https://dc.lft.to/lastmile_qr_scan", "ios": "https://dc.lft.to/lastmile_qr_scan"}, "type": "electric_bike", "lat": 38.96233316666667, "is_reserved": 0, "fusion_lat": 0.0}, {"bike_id": "7fa593796665a9109c255c832ff8275a", "fusion_lon": 0.0, "lon": -77.02988883333333, "name": "7fa593796665a9109c255c832ff8275a", "is_disabled": 0, "rental_uris": {"android": "https://dc.lft.to/lastmile_qr_scan", "ios": "https://dc.lft.to/lastmile_qr_scan"}, "type": "electric_scooter", "lat": 38.89569566666667, "is_reserved": 0, "fusion_lat": 0.0}, {"bike_id": "1d6256f0113320e611582f0c139790e3", "fusion_lon": 0.0, "lon": -77.36085866666667, "name": "1d6256f0113320e611582f0c139790e3", "is_disabled": 0, "rental_uris": {"android": "https://dc.lft.to/lastmile_qr_scan", "ios": "https://dc.lft.to/lastmile_qr_scan"}, "type": "electric_bike", "lat": 38.93968183333333, "is_reserved": 0, "fusion_lat": 0.0}, {"bike_id": "8c746fc11b977231f9ec8a49a637ab9c", "fusion_lon": 0.0, "lon": -77.04345533333333, "name": "8c746fc11b977231f9ec8a49a637ab9c", "is_disabled": 0, "rental_uris": {"android": "https://dc.lft.to/lastmile_qr_scan", "ios": "https://dc.lft.to/lastmile_qr_scan"}, "type": "electric_scooter", "lat": 38.90740433333333, "is_reserved": 0, "fusion_lat": 0.0}, {"bike_id": "cc6c921785e18571ccfb8af8342580ba", "fusion_lon": 0.0, "lon": -77.019815, "name": "cc6c921785e18571ccfb8af8342580ba", "is_disabled": 0, "rental_uris": {"android": "https://dc.lft.to/lastmile_qr_scan", "ios": "https://dc.lft.to/lastmile_qr_scan"}, "type": "electric_scooter", "lat": 38.8974795, "is_reserved": 0, "fusion_lat": 0.0}, {"bike_id": "7ddd48a85daaee216efb56cb40697bb3", "fusion_lon": 0.0, "lon": -77.0397995, "name": "7ddd48a85daaee216efb56cb40697bb3", "is_disabled": 0, "rental_uris": {"android": "https://dc.lft.to/lastmile_qr_scan", "ios": "https://dc.lft.to/lastmile_qr_scan"}, "type": "electric_scooter", "lat": 38.911921166666666, "is_reserved": 0, "fusion_lat": 0.0}, {"bike_id": "f6cff7f832c2681746a00c2e0162cf45", "fusion_lon": 0.0, "lon": -77.03406116666666, "name": "f6cff7f832c2681746a00c2e0162cf45", "is_disabled": 0, "rental_uris": {"android": "https://dc.lft.to/lastmile_qr_scan", "ios": "https://dc.lft.to/lastmile_qr_scan"}, "type": "electric_scooter", "lat": 38.916961, "is_reserved": 0, "fusion_lat": 0.0}, {"bike_id": "9444a6f80b29c799f2707323053579fb", "fusion_lon": 0.0, "lon": -77.03868083333333, "name": "9444a6f80b29c799f2707323053579fb", "is_disabled": 0, "rental_uris": {"android": "https://dc.lft.to/lastmile_qr_scan", "ios": "https://dc.lft.to/lastmile_qr_scan"}, "type": "electric_scooter", "lat": 38.91714483333333, "is_reserved": 0, "fusion_lat": 0.0}, {"bike_id": "65af73e96df96f7ef57e95f94413738b", "fusion_lon": 0.0, "lon": -76.96530283333334, "name": "65af73e96df96f7ef57e95f94413738b", "is_disabled": 0, "rental_uris": {"android": "https://dc.lft.to/lastmile_qr_scan", "ios": "https://dc.lft.to/lastmile_qr_scan"}, "type": "electric_scooter", "lat": 38.876344333333336, "is_reserved": 0, "fusion_lat": 0.0}, {"bike_id": "98cff6fb5cec5eec407f61c798c219c8", "fusion_lon": 0.0, "lon": -77.06166016666667, "name": "98cff6fb5cec5eec407f61c798c219c8", "is_disabled": 0, "rental_uris": {"android": "https://dc.lft.to/lastmile_qr_scan", "ios": "https://dc.lft.to/lastmile_qr_scan"}, "type": "electric_scooter", "lat": 38.91301283333333, "is_reserved": 0, "fusion_lat": 0.0}, {"bike_id": "f1fcc600bef66c2c743dfb225aa33c36", "fusion_lon": 0.0, "lon": -77.002135, "name": "f1fcc600bef66c2c743dfb225aa33c36", "is_disabled": 0, "rental_uris": {"android": "https://dc.lft.to/lastmile_qr_scan", "ios": "https://dc.lft.to/lastmile_qr_scan"}, "type": "electric_scooter", "lat": 38.900845, "is_reserved": 0, "fusion_lat": 0.0}, {"bike_id": "cd1b0e21c15a74edb69462df5b9c865d", "fusion_lon": 0.0, "lon": -76.999638, "name": "cd1b0e21c15a74edb69462df5b9c865d", "is_disabled": 0, "rental_uris": {"android": "https://dc.lft.to/lastmile_qr_scan", "ios": "https://dc.lft.to/lastmile_qr_scan"}, "type": "electric_scooter", "lat": 38.91907283333333, "is_reserved": 0, "fusion_lat": 0.0}, {"bike_id": "df2000e9e89a2eca72d76ef6307d6645", "fusion_lon": 0.0, "lon": -77.03481516666666, "name": "df2000e9e89a2eca72d76ef6307d6645", "is_disabled": 0, "rental_uris": {"android": "https://dc.lft.to/lastmile_qr_scan", "ios": "https://dc.lft.to/lastmile_qr_scan"}, "type": "electric_scooter", "lat": 38.90764033333333, "is_reserved": 0, "fusion_lat": 0.0}, {"bike_id": "99b877af206973f2a6f3c4b14897bcba", "fusion_lon": 0.0, "lon": -77.039634, "name": "99b877af206973f2a6f3c4b14897bcba", "is_disabled": 0, "rental_uris": {"android": "https://dc.lft.to/lastmile_qr_scan", "ios": "https://dc.lft.to/lastmile_qr_scan"}, "type": "electric_scooter", "lat": 38.906182333333334, "is_reserved": 0, "fusion_lat": 0.0}, {"bike_id": "94d97e52b3a30600768d5be19ee775c7", "fusion_lon": 0.0, "lon": -77.03509066666666, "name": "94d97e52b3a30600768d5be19ee775c7", "is_disabled": 0, "rental_uris": {"android": "https://dc.lft.to/lastmile_qr_scan", "ios": "https://dc.lft.to/lastmile_qr_scan"}, "type": "electric_scooter", "lat": 38.92636433333333, "is_reserved": 0, "fusion_lat": 0.0}, {"bike_id": "4ff09ffa5054e770511be76334ef569f", "fusion_lon": 0.0, "lon": -77.01802616666667, "name": "4ff09ffa5054e770511be76334ef569f", "is_disabled": 0, "rental_uris": {"android": "https://dc.lft.to/lastmile_qr_scan", "ios": "https://dc.lft.to/lastmile_qr_scan"}, "type": "electric_scooter", "lat": 38.908284, "is_reserved": 0, "fusion_lat": 0.0}, {"bike_id": "cf2ca856956402f8b776f29b9cfad088", "fusion_lon": 0.0, "lon": -77.01651316666667, "name": "cf2ca856956402f8b776f29b9cfad088", "is_disabled": 0, "rental_uris": {"android": "https://dc.lft.to/lastmile_qr_scan", "ios": "https://dc.lft.to/lastmile_qr_scan"}, "type": "electric_scooter", "lat": 38.9159625, "is_reserved": 0, "fusion_lat": 0.0}, {"bike_id": "13daf8194b3e9f1292d459001e7aba72", "fusion_lon": 0.0, "lon": -77.03704333333333, "name": "13daf8194b3e9f1292d459001e7aba72", "is_disabled": 0, "rental_uris": {"android": "https://dc.lft.to/lastmile_qr_scan", "ios": "https://dc.lft.to/lastmile_qr_scan"}, "type": "electric_scooter", "lat": 38.92652416666667, "is_reserved": 0, "fusion_lat": 0.0}, {"bike_id": "1f99ba2b72eed709936cea52ac340524", "fusion_lon": 0.0, "lon": -76.990918, "name": "1f99ba2b72eed709936cea52ac340524", "is_disabled": 0, "rental_uris": {"android": "https://dc.lft.to/lastmile_qr_scan", "ios": "https://dc.lft.to/lastmile_qr_scan"}, "type": "electric_scooter", "lat": 38.92957633333333, "is_reserved": 0, "fusion_lat": 0.0}, {"bike_id": "ad8a583f5f71105d5fcc9f3cf09fbcaa", "fusion_lon": 0.0, "lon": -77.0260295, "name": "ad8a583f5f71105d5fcc9f3cf09fbcaa", "is_disabled": 0, "rental_uris": {"android": "https://dc.lft.to/lastmile_qr_scan", "ios": "https://dc.lft.to/lastmile_qr_scan"}, "type": "electric_scooter", "lat": 38.883650833333334, "is_reserved": 0, "fusion_lat": 0.0}, {"bike_id": "cbf3af0811657feba66246cb7da5ca1d", "fusion_lon": 0.0, "lon": -77.02327233333334, "name": "cbf3af0811657feba66246cb7da5ca1d", "is_disabled": 0, "rental_uris": {"android": "https://dc.lft.to/lastmile_qr_scan", "ios": "https://dc.lft.to/lastmile_qr_scan"}, "type": "electric_scooter", "lat": 38.927155166666665, "is_reserved": 0, "fusion_lat": 0.0}, {"bike_id": "23b09c3c3410f8afd0279378809c59b3", "fusion_lon": 0.0, "lon": -77.044998, "name": "23b09c3c3410f8afd0279378809c59b3", "is_disabled": 0, "rental_uris": {"android": "https://dc.lft.to/lastmile_qr_scan", "ios": "https://dc.lft.to/lastmile_qr_scan"}, "type": "electric_scooter", "lat": 38.911696, "is_reserved": 0, "fusion_lat": 0.0}, {"bike_id": "41ea32751950cdb35fe73c9ed938860f", "fusion_lon": 0.0, "lon": -77.11477183333334, "name": "41ea32751950cdb35fe73c9ed938860f", "is_disabled": 0, "rental_uris": {"android": "https://dc.lft.to/lastmile_qr_scan", "ios": "https://dc.lft.to/lastmile_qr_scan"}, "type": "electric_bike", "lat": 38.88133933333334, "is_reserved": 0, "fusion_lat": 0.0}, {"bike_id": "8a195e09ec99371cc93c0b3ecc2a04b8", "fusion_lon": 0.0, "lon": -77.127315, "name": "8a195e09ec99371cc93c0b3ecc2a04b8", "is_disabled": 0, "rental_uris": {"android": "https://dc.lft.to/lastmile_qr_scan", "ios": "https://dc.lft.to/lastmile_qr_scan"}, "type": "electric_bike", "lat": 38.895645, "is_reserved": 0, "fusion_lat": 0.0}, {"bike_id": "fd593dadec655771e481c98fb5463961", "fusion_lon": 0.0, "lon": -77.04186916666667, "name": "fd593dadec655771e481c98fb5463961", "is_disabled": 0, "rental_uris": {"android": "https://dc.lft.to/lastmile_qr_scan", "ios": "https://dc.lft.to/lastmile_qr_scan"}, "type": "electric_scooter", "lat": 38.893064, "is_reserved": 0, "fusion_lat": 0.0}, {"bike_id": "0804b301609a45c0d9da431c6b611de4", "fusion_lon": 0.0, "lon": -77.05264666666666, "name": "0804b301609a45c0d9da431c6b611de4", "is_disabled": 0, "rental_uris": {"android": "https://dc.lft.to/lastmile_qr_scan", "ios": "https://dc.lft.to/lastmile_qr_scan"}, "type": "electric_scooter", "lat": 38.925448, "is_reserved": 0, "fusion_lat": 0.0}, {"bike_id": "1b98a82677dc3e47c8637a333be76186", "fusion_lon": 0.0, "lon": -77.115707, "name": "1b98a82677dc3e47c8637a333be76186", "is_disabled": 0, "rental_uris": {"android": "https://dc.lft.to/lastmile_qr_scan", "ios": "https://dc.lft.to/lastmile_qr_scan"}, "type": "electric_bike", "lat": 38.9933655, "is_reserved": 0, "fusion_lat": 0.0}, {"bike_id": "050c2266349fdd2227269eca5b9b2f6d", "fusion_lon": 0.0, "lon": -77.0344375, "name": "050c2266349fdd2227269eca5b9b2f6d", "is_disabled": 0, "rental_uris": {"android": "https://dc.lft.to/lastmile_qr_scan", "ios": "https://dc.lft.to/lastmile_qr_scan"}, "type": "electric_scooter", "lat": 38.90389733333333, "is_reserved": 0, "fusion_lat": 0.0}, {"bike_id": "14f7de61dd7cbb3792f4c944648a78dc", "fusion_lon": 0.0, "lon": -77.0333605, "name": "14f7de61dd7cbb3792f4c944648a78dc", "is_disabled": 0, "rental_uris": {"android": "https://dc.lft.to/lastmile_qr_scan", "ios": "https://dc.lft.to/lastmile_qr_scan"}, "type": "electric_scooter", "lat": 38.9023885, "is_reserved": 0, "fusion_lat": 0.0}, {"bike_id": "184caafd1c15515e94c49525d4e1f83e", "fusion_lon": 0.0, "lon": -77.01966516666667, "name": "184caafd1c15515e94c49525d4e1f83e", "is_disabled": 0, "rental_uris": {"android": "https://dc.lft.to/lastmile_qr_scan", "ios": "https://dc.lft.to/lastmile_qr_scan"}, "type": "electric_scooter", "lat": 38.95657166666667, "is_reserved": 0, "fusion_lat": 0.0}, {"bike_id": "bc679bb3cb1394c90daae441952edadd", "fusion_lon": 0.0, "lon": -77.04515716666667, "name": "bc679bb3cb1394c90daae441952edadd", "is_disabled": 0, "rental_uris": {"android": "https://dc.lft.to/lastmile_qr_scan", "ios": "https://dc.lft.to/lastmile_qr_scan"}, "type": "electric_scooter", "lat": 38.90365166666667, "is_reserved": 0, "fusion_lat": 0.0}, {"bike_id": "919c29f2580e6d871db6322d0576a9fd", "fusion_lon": 0.0, "lon": -77.02690783333334, "name": "919c29f2580e6d871db6322d0576a9fd", "is_disabled": 0, "rental_uris": {"android": "https://dc.lft.to/lastmile_qr_scan", "ios": "https://dc.lft.to/lastmile_qr_scan"}, "type": "electric_scooter", "lat": 38.911174333333335, "is_reserved": 0, "fusion_lat": 0.0}, {"bike_id": "1196d808abacfaf3944da442c03e0fe0", "fusion_lon": 0.0, "lon": -77.04753333333333, "name": "1196d808abacfaf3944da442c03e0fe0", "is_disabled": 0, "rental_uris": {"android": "https://dc.lft.to/lastmile_qr_scan", "ios": "https://dc.lft.to/lastmile_qr_scan"}, "type": "electric_scooter", "lat": 38.90555766666667, "is_reserved": 0, "fusion_lat": 0.0}, {"bike_id": "4129673b4e4b828dc7b42d0b2f638cf5", "fusion_lon": 0.0, "lon": -77.026226, "name": "4129673b4e4b828dc7b42d0b2f638cf5", "is_disabled": 0, "rental_uris": {"android": "https://dc.lft.to/lastmile_qr_scan", "ios": "https://dc.lft.to/lastmile_qr_scan"}, "type": "electric_scooter", "lat": 38.89639116666667, "is_reserved": 0, "fusion_lat": 0.0}, {"bike_id": "2116dc354521f2704aa291cc5eac26e0", "fusion_lon": 0.0, "lon": -77.041465, "name": "2116dc354521f2704aa291cc5eac26e0", "is_disabled": 0, "rental_uris": {"android": "https://dc.lft.to/lastmile_qr_scan", "ios": "https://dc.lft.to/lastmile_qr_scan"}, "type": "electric_scooter", "lat": 38.91556333333333, "is_reserved": 0, "fusion_lat": 0.0}, {"bike_id": "67887ced6b44bca21dc20b98f92eff24", "fusion_lon": 0.0, "lon": -76.98885866666667, "name": "67887ced6b44bca21dc20b98f92eff24", "is_disabled": 0, "rental_uris": {"android": "https://dc.lft.to/lastmile_qr_scan", "ios": "https://dc.lft.to/lastmile_qr_scan"}, "type": "electric_scooter", "lat": 38.86657866666667, "is_reserved": 0, "fusion_lat": 0.0}, {"bike_id": "1657c50c765961b9e9e351828b87ccb3", "fusion_lon": 0.0, "lon": -77.04757283333333, "name": "1657c50c765961b9e9e351828b87ccb3", "is_disabled": 0, "rental_uris": {"android": "https://dc.lft.to/lastmile_qr_scan", "ios": "https://dc.lft.to/lastmile_qr_scan"}, "type": "electric_scooter", "lat": 38.905221833333336, "is_reserved": 0, "fusion_lat": 0.0}, {"bike_id": "c7d599042769c31f36b593f2730c9131", "fusion_lon": 0.0, "lon": -77.0531555, "name": "c7d599042769c31f36b593f2730c9131", "is_disabled": 0, "rental_uris": {"android": "https://dc.lft.to/lastmile_qr_scan", "ios": "https://dc.lft.to/lastmile_qr_scan"}, "type": "electric_scooter", "lat": 38.902681, "is_reserved": 0, "fusion_lat": 0.0}, {"bike_id": "e63ff776dad4c27bc73742e394ab399e", "fusion_lon": 0.0, "lon": -77.02355283333333, "name": "e63ff776dad4c27bc73742e394ab399e", "is_disabled": 0, "rental_uris": {"android": "https://dc.lft.to/lastmile_qr_scan", "ios": "https://dc.lft.to/lastmile_qr_scan"}, "type": "electric_scooter", "lat": 38.93542333333333, "is_reserved": 0, "fusion_lat": 0.0}, {"bike_id": "a1c1c50c4e02098f45c9b71a451674dd", "fusion_lon": 0.0, "lon": -77.03851633333333, "name": "a1c1c50c4e02098f45c9b71a451674dd", "is_disabled": 0, "rental_uris": {"android": "https://dc.lft.to/lastmile_qr_scan", "ios": "https://dc.lft.to/lastmile_qr_scan"}, "type": "electric_scooter", "lat": 38.9031575, "is_reserved": 0, "fusion_lat": 0.0}, {"bike_id": "c5f37980bc4c22b818e6c71776c319fe", "fusion_lon": 0.0, "lon": -76.99857683333333, "name": "c5f37980bc4c22b818e6c71776c319fe", "is_disabled": 0, "rental_uris": {"android": "https://dc.lft.to/lastmile_qr_scan", "ios": "https://dc.lft.to/lastmile_qr_scan"}, "type": "electric_scooter", "lat": 38.9036845, "is_reserved": 0, "fusion_lat": 0.0}, {"bike_id": "8ace704e858d786d8e6084243d7fa9f0", "fusion_lon": 0.0, "lon": -77.017415, "name": "8ace704e858d786d8e6084243d7fa9f0", "is_disabled": 0, "rental_uris": {"android": "https://dc.lft.to/lastmile_qr_scan", "ios": "https://dc.lft.to/lastmile_qr_scan"}, "type": "electric_scooter", "lat": 38.90367066666666, "is_reserved": 0, "fusion_lat": 0.0}, {"bike_id": "7280911fdff0f5a5ca1ce99e8b2b4504", "fusion_lon": 0.0, "lon": -77.01364016666666, "name": "7280911fdff0f5a5ca1ce99e8b2b4504", "is_disabled": 0, "rental_uris": {"android": "https://dc.lft.to/lastmile_qr_scan", "ios": "https://dc.lft.to/lastmile_qr_scan"}, "type": "electric_scooter", "lat": 38.89343483333333, "is_reserved": 0, "fusion_lat": 0.0}, {"bike_id": "ea8408f7a1365a1db7c1fe72bc286c2d", "fusion_lon": 0.0, "lon": -77.09524366666666, "name": "ea8408f7a1365a1db7c1fe72bc286c2d", "is_disabled": 0, "rental_uris": {"android": "https://dc.lft.to/lastmile_qr_scan", "ios": "https://dc.lft.to/lastmile_qr_scan"}, "type": "electric_bike", "lat": 38.838133, "is_reserved": 0, "fusion_lat": 0.0}, {"bike_id": "035907ef5084a10f2ca9f3e930153916", "fusion_lon": 0.0, "lon": -77.0408515, "name": "035907ef5084a10f2ca9f3e930153916", "is_disabled": 0, "rental_uris": {"android": "https://dc.lft.to/lastmile_qr_scan", "ios": "https://dc.lft.to/lastmile_qr_scan"}, "type": "electric_scooter", "lat": 38.910469166666665, "is_reserved": 0, "fusion_lat": 0.0}, {"bike_id": "f25b3bc2d53535dfe476d111be7b4cc0", "fusion_lon": 0.0, "lon": -77.03504116666667, "name": "f25b3bc2d53535dfe476d111be7b4cc0", "is_disabled": 0, "rental_uris": {"android": "https://dc.lft.to/lastmile_qr_scan", "ios": "https://dc.lft.to/lastmile_qr_scan"}, "type": "electric_scooter", "lat": 38.92159066666667, "is_reserved": 0, "fusion_lat": 0.0}, {"bike_id": "6264fe5a7756fc439c437c73ad511cab", "fusion_lon": 0.0, "lon": -77.07846016666667, "name": "6264fe5a7756fc439c437c73ad511cab", "is_disabled": 0, "rental_uris": {"android": "https://dc.lft.to/lastmile_qr_scan", "ios": "https://dc.lft.to/lastmile_qr_scan"}, "type": "electric_bike", "lat": 38.93138066666667, "is_reserved": 0, "fusion_lat": 0.0}, {"bike_id": "7417dd30ec2f5c940049dd916f772734", "fusion_lon": 0.0, "lon": -77.03130183333333, "name": "7417dd30ec2f5c940049dd916f772734", "is_disabled": 0, "rental_uris": {"android": "https://dc.lft.to/lastmile_qr_scan", "ios": "https://dc.lft.to/lastmile_qr_scan"}, "type": "electric_scooter", "lat": 38.92381266666666, "is_reserved": 0, "fusion_lat": 0.0}, {"bike_id": "1ee3bb2a1fc9575ce2043e0e0c223a57", "fusion_lon": 0.0, "lon": -77.0483145, "name": "1ee3bb2a1fc9575ce2043e0e0c223a57", "is_disabled": 0, "rental_uris": {"android": "https://dc.lft.to/lastmile_qr_scan", "ios": "https://dc.lft.to/lastmile_qr_scan"}, "type": "electric_scooter", "lat": 38.911123, "is_reserved": 0, "fusion_lat": 0.0}, {"bike_id": "8c682303c81c6ab0fcc3dcbcb3dc945a", "fusion_lon": 0.0, "lon": -77.22355383333333, "name": "8c682303c81c6ab0fcc3dcbcb3dc945a", "is_disabled": 0, "rental_uris": {"android": "https://dc.lft.to/lastmile_qr_scan", "ios": "https://dc.lft.to/lastmile_qr_scan"}, "type": "electric_bike", "lat": 38.917961, "is_reserved": 0, "fusion_lat": 0.0}, {"bike_id": "985dbec4d6ddc5961277cd77d62f929e", "fusion_lon": 0.0, "lon": -76.98770016666667, "name": "985dbec4d6ddc5961277cd77d62f929e", "is_disabled": 0, "rental_uris": {"android": "https://dc.lft.to/lastmile_qr_scan", "ios": "https://dc.lft.to/lastmile_qr_scan"}, "type": "electric_bike", "lat": 38.857788166666666, "is_reserved": 0, "fusion_lat": 0.0}, {"bike_id": "92677ce8f428bdf99e49ecae0a728af8", "fusion_lon": 0.0, "lon": -77.03208883333333, "name": "92677ce8f428bdf99e49ecae0a728af8", "is_disabled": 0, "rental_uris": {"android": "https://dc.lft.to/lastmile_qr_scan", "ios": "https://dc.lft.to/lastmile_qr_scan"}, "type": "electric_scooter", "lat": 38.895332333333336, "is_reserved": 0, "fusion_lat": 0.0}, {"bike_id": "166233905b65ac2457561754d23bf67e", "fusion_lon": 0.0, "lon": -76.98412033333334, "name": "166233905b65ac2457561754d23bf67e", "is_disabled": 0, "rental_uris": {"android": "https://dc.lft.to/lastmile_qr_scan", "ios": "https://dc.lft.to/lastmile_qr_scan"}, "type": "electric_bike", "lat": 38.854997833333336, "is_reserved": 0, "fusion_lat": 0.0}, {"bike_id": "af00c61e322c719d722161fb8caef39f", "fusion_lon": 0.0, "lon": -77.04981716666667, "name": "af00c61e322c719d722161fb8caef39f", "is_disabled": 0, "rental_uris": {"android": "https://dc.lft.to/lastmile_qr_scan", "ios": "https://dc.lft.to/lastmile_qr_scan"}, "type": "electric_bike", "lat": 39.06295733333334, "is_reserved": 0, "fusion_lat": 0.0}, {"bike_id": "4fd362d74614f67d23fd805f3b2c8bb1", "fusion_lon": 0.0, "lon": -77.039633, "name": "4fd362d74614f67d23fd805f3b2c8bb1", "is_disabled": 0, "rental_uris": {"android": "https://dc.lft.to/lastmile_qr_scan", "ios": "https://dc.lft.to/lastmile_qr_scan"}, "type": "electric_scooter", "lat": 38.902667666666666, "is_reserved": 0, "fusion_lat": 0.0}, {"bike_id": "9ccd8cacf612dfec3cb50d4ed09c513f", "fusion_lon": 0.0, "lon": -77.02554216666667, "name": "9ccd8cacf612dfec3cb50d4ed09c513f", "is_disabled": 0, "rental_uris": {"android": "https://dc.lft.to/lastmile_qr_scan", "ios": "https://dc.lft.to/lastmile_qr_scan"}, "type": "electric_scooter", "lat": 38.9163975, "is_reserved": 0, "fusion_lat": 0.0}, {"bike_id": "e3621fb8fcdd3dc2e158a0712e35436d", "fusion_lon": 0.0, "lon": -77.02808733333333, "name": "e3621fb8fcdd3dc2e158a0712e35436d", "is_disabled": 0, "rental_uris": {"android": "https://dc.lft.to/lastmile_qr_scan", "ios": "https://dc.lft.to/lastmile_qr_scan"}, "type": "electric_scooter", "lat": 38.9624255, "is_reserved": 0, "fusion_lat": 0.0}, {"bike_id": "b596525ad10daba6d8db2e4b16f4360d", "fusion_lon": 0.0, "lon": -77.00893366666666, "name": "b596525ad10daba6d8db2e4b16f4360d", "is_disabled": 0, "rental_uris": {"android": "https://dc.lft.to/lastmile_qr_scan", "ios": "https://dc.lft.to/lastmile_qr_scan"}, "type": "electric_scooter", "lat": 38.924864166666666, "is_reserved": 0, "fusion_lat": 0.0}, {"bike_id": "367942cba31f36c03a3eda7127a26618", "fusion_lon": 0.0, "lon": -77.03971516666667, "name": "367942cba31f36c03a3eda7127a26618", "is_disabled": 0, "rental_uris": {"android": "https://dc.lft.to/lastmile_qr_scan", "ios": "https://dc.lft.to/lastmile_qr_scan"}, "type": "electric_scooter", "lat": 38.896423666666664, "is_reserved": 0, "fusion_lat": 0.0}, {"bike_id": "a628384f8b524a651b84944b5e87938e", "fusion_lon": 0.0, "lon": -77.00247366666666, "name": "a628384f8b524a651b84944b5e87938e", "is_disabled": 0, "rental_uris": {"android": "https://dc.lft.to/lastmile_qr_scan", "ios": "https://dc.lft.to/lastmile_qr_scan"}, "type": "electric_scooter", "lat": 38.885250166666665, "is_reserved": 0, "fusion_lat": 0.0}, {"bike_id": "ab5de77dd4b6ea62296c0c14617756d8", "fusion_lon": 0.0, "lon": -77.05756316666667, "name": "ab5de77dd4b6ea62296c0c14617756d8", "is_disabled": 0, "rental_uris": {"android": "https://dc.lft.to/lastmile_qr_scan", "ios": "https://dc.lft.to/lastmile_qr_scan"}, "type": "electric_scooter", "lat": 38.92505516666667, "is_reserved": 0, "fusion_lat": 0.0}, {"bike_id": "4f82a10cc70ff381781fbddb40fc85bc", "fusion_lon": 0.0, "lon": -77.0457935, "name": "4f82a10cc70ff381781fbddb40fc85bc", "is_disabled": 0, "rental_uris": {"android": "https://dc.lft.to/lastmile_qr_scan", "ios": "https://dc.lft.to/lastmile_qr_scan"}, "type": "electric_scooter", "lat": 38.902862666666664, "is_reserved": 0, "fusion_lat": 0.0}, {"bike_id": "898df96250bd26b6509b5eb35ecc76d1", "fusion_lon": 0.0, "lon": -77.02797416666667, "name": "898df96250bd26b6509b5eb35ecc76d1", "is_disabled": 0, "rental_uris": {"android": "https://dc.lft.to/lastmile_qr_scan", "ios": "https://dc.lft.to/lastmile_qr_scan"}, "type": "electric_scooter", "lat": 38.917248666666666, "is_reserved": 0, "fusion_lat": 0.0}, {"bike_id": "bd84b25b1b270702613ce2c7b1a18c2b", "fusion_lon": 0.0, "lon": -77.05725566666666, "name": "bd84b25b1b270702613ce2c7b1a18c2b", "is_disabled": 0, "rental_uris": {"android": "https://dc.lft.to/lastmile_qr_scan", "ios": "https://dc.lft.to/lastmile_qr_scan"}, "type": "electric_scooter", "lat": 38.92430266666667, "is_reserved": 0, "fusion_lat": 0.0}, {"bike_id": "7ca8aa02d3ae7c34f9f93eef867ed4a6", "fusion_lon": 0.0, "lon": -77.03210133333333, "name": "7ca8aa02d3ae7c34f9f93eef867ed4a6", "is_disabled": 0, "rental_uris": {"android": "https://dc.lft.to/lastmile_qr_scan", "ios": "https://dc.lft.to/lastmile_qr_scan"}, "type": "electric_scooter", "lat": 38.895929, "is_reserved": 0, "fusion_lat": 0.0}, {"bike_id": "57a42f47de44ed0613c7373f8c33d145", "fusion_lon": 0.0, "lon": -77.03825816666667, "name": "57a42f47de44ed0613c7373f8c33d145", "is_disabled": 0, "rental_uris": {"android": "https://dc.lft.to/lastmile_qr_scan", "ios": "https://dc.lft.to/lastmile_qr_scan"}, "type": "electric_scooter", "lat": 38.905784, "is_reserved": 0, "fusion_lat": 0.0}, {"bike_id": "2bc15b48e1420c4772b060cfa7bceaca", "fusion_lon": 0.0, "lon": -77.0439165, "name": "2bc15b48e1420c4772b060cfa7bceaca", "is_disabled": 0, "rental_uris": {"android": "https://dc.lft.to/lastmile_qr_scan", "ios": "https://dc.lft.to/lastmile_qr_scan"}, "type": "electric_scooter", "lat": 38.91086966666667, "is_reserved": 0, "fusion_lat": 0.0}, {"bike_id": "793a9ad152fd6012ba7f1effaa60c4f3", "fusion_lon": 0.0, "lon": -77.041809, "name": "793a9ad152fd6012ba7f1effaa60c4f3", "is_disabled": 0, "rental_uris": {"android": "https://dc.lft.to/lastmile_qr_scan", "ios": "https://dc.lft.to/lastmile_qr_scan"}, "type": "electric_scooter", "lat": 38.9049705, "is_reserved": 0, "fusion_lat": 0.0}, {"bike_id": "fd994ae32296b1b204871e52fbc0e76f", "fusion_lon": 0.0, "lon": -76.93231733333333, "name": "fd994ae32296b1b204871e52fbc0e76f", "is_disabled": 0, "rental_uris": {"android": "https://dc.lft.to/lastmile_qr_scan", "ios": "https://dc.lft.to/lastmile_qr_scan"}, "type": "electric_scooter", "lat": 38.898894166666665, "is_reserved": 0, "fusion_lat": 0.0}, {"bike_id": "a9b8722fe399d6444943a8db0a515fb8", "fusion_lon": 0.0, "lon": -77.0487435, "name": "a9b8722fe399d6444943a8db0a515fb8", "is_disabled": 0, "rental_uris": {"android": "https://dc.lft.to/lastmile_qr_scan", "ios": "https://dc.lft.to/lastmile_qr_scan"}, "type": "electric_scooter", "lat": 38.909716833333334, "is_reserved": 0, "fusion_lat": 0.0}, {"bike_id": "497f9f8a62c3b1b9c88874fb39875289", "fusion_lon": 0.0, "lon": -77.03184683333333, "name": "497f9f8a62c3b1b9c88874fb39875289", "is_disabled": 0, "rental_uris": {"android": "https://dc.lft.to/lastmile_qr_scan", "ios": "https://dc.lft.to/lastmile_qr_scan"}, "type": "electric_scooter", "lat": 38.91691333333333, "is_reserved": 0, "fusion_lat": 0.0}, {"bike_id": "43d899faf7a6b355f8c58cda07b633d7", "fusion_lon": 0.0, "lon": -77.02722716666666, "name": "43d899faf7a6b355f8c58cda07b633d7", "is_disabled": 0, "rental_uris": {"android": "https://dc.lft.to/lastmile_qr_scan", "ios": "https://dc.lft.to/lastmile_qr_scan"}, "type": "electric_scooter", "lat": 38.9496395, "is_reserved": 0, "fusion_lat": 0.0}, {"bike_id": "179ae7e56c19d0f7b94b0f99ccce88a1", "fusion_lon": 0.0, "lon": -77.0253095, "name": "179ae7e56c19d0f7b94b0f99ccce88a1", "is_disabled": 0, "rental_uris": {"android": "https://dc.lft.to/lastmile_qr_scan", "ios": "https://dc.lft.to/lastmile_qr_scan"}, "type": "electric_scooter", "lat": 38.924919333333335, "is_reserved": 0, "fusion_lat": 0.0}, {"bike_id": "94c92d542d7d118e3c44687d0b0110db", "fusion_lon": 0.0, "lon": -77.043283, "name": "94c92d542d7d118e3c44687d0b0110db", "is_disabled": 0, "rental_uris": {"android": "https://dc.lft.to/lastmile_qr_scan", "ios": "https://dc.lft.to/lastmile_qr_scan"}, "type": "electric_scooter", "lat": 38.892273833333334, "is_reserved": 0, "fusion_lat": 0.0}, {"bike_id": "1eceeee39d34dcf71108dc3116b25964", "fusion_lon": 0.0, "lon": -77.0490105, "name": "1eceeee39d34dcf71108dc3116b25964", "is_disabled": 0, "rental_uris": {"android": "https://dc.lft.to/lastmile_qr_scan", "ios": "https://dc.lft.to/lastmile_qr_scan"}, "type": "electric_scooter", "lat": 38.90083666666666, "is_reserved": 0, "fusion_lat": 0.0}, {"bike_id": "93125b9076140f3b474951bef31b7dc6", "fusion_lon": 0.0, "lon": -77.03632516666667, "name": "93125b9076140f3b474951bef31b7dc6", "is_disabled": 0, "rental_uris": {"android": "https://dc.lft.to/lastmile_qr_scan", "ios": "https://dc.lft.to/lastmile_qr_scan"}, "type": "electric_scooter", "lat": 38.92675466666667, "is_reserved": 0, "fusion_lat": 0.0}, {"bike_id": "11c28305f48cc10707cf0fdd6f6ae63e", "fusion_lon": 0.0, "lon": -77.01751, "name": "11c28305f48cc10707cf0fdd6f6ae63e", "is_disabled": 0, "rental_uris": {"android": "https://dc.lft.to/lastmile_qr_scan", "ios": "https://dc.lft.to/lastmile_qr_scan"}, "type": "electric_scooter", "lat": 38.9111015, "is_reserved": 0, "fusion_lat": 0.0}, {"bike_id": "5f6b28622dafe9f9580923ce8009a0c8", "fusion_lon": 0.0, "lon": -77.04155666666666, "name": "5f6b28622dafe9f9580923ce8009a0c8", "is_disabled": 0, "rental_uris": {"android": "https://dc.lft.to/lastmile_qr_scan", "ios": "https://dc.lft.to/lastmile_qr_scan"}, "type": "electric_scooter", "lat": 38.905331833333335, "is_reserved": 0, "fusion_lat": 0.0}, {"bike_id": "3adb3f511f7e386847e218a2f30f7212", "fusion_lon": 0.0, "lon": -77.03510883333334, "name": "3adb3f511f7e386847e218a2f30f7212", "is_disabled": 0, "rental_uris": {"android": "https://dc.lft.to/lastmile_qr_scan", "ios": "https://dc.lft.to/lastmile_qr_scan"}, "type": "electric_scooter", "lat": 38.935980666666666, "is_reserved": 0, "fusion_lat": 0.0}, {"bike_id": "2657caed76758dee633231ef04e6aa9c", "fusion_lon": 0.0, "lon": -77.02169566666667, "name": "2657caed76758dee633231ef04e6aa9c", "is_disabled": 0, "rental_uris": {"android": "https://dc.lft.to/lastmile_qr_scan", "ios": "https://dc.lft.to/lastmile_qr_scan"}, "type": "electric_scooter", "lat": 38.899607833333334, "is_reserved": 0, "fusion_lat": 0.0}, {"bike_id": "4aaea7ad5192485a1e30abe3ea479290", "fusion_lon": 0.0, "lon": -76.989301, "name": "4aaea7ad5192485a1e30abe3ea479290", "is_disabled": 0, "rental_uris": {"android": "https://dc.lft.to/lastmile_qr_scan", "ios": "https://dc.lft.to/lastmile_qr_scan"}, "type": "electric_scooter", "lat": 38.840816, "is_reserved": 0, "fusion_lat": 0.0}, {"bike_id": "83aa93bda940d09d6ba160507b6e397d", "fusion_lon": 0.0, "lon": -77.02182533333334, "name": "83aa93bda940d09d6ba160507b6e397d", "is_disabled": 0, "rental_uris": {"android": "https://dc.lft.to/lastmile_qr_scan", "ios": "https://dc.lft.to/lastmile_qr_scan"}, "type": "electric_scooter", "lat": 38.90954333333333, "is_reserved": 0, "fusion_lat": 0.0}, {"bike_id": "a292ba973f7439c473d882bacd12360c", "fusion_lon": 0.0, "lon": -77.0232975, "name": "a292ba973f7439c473d882bacd12360c", "is_disabled": 0, "rental_uris": {"android": "https://dc.lft.to/lastmile_qr_scan", "ios": "https://dc.lft.to/lastmile_qr_scan"}, "type": "electric_scooter", "lat": 38.937866, "is_reserved": 0, "fusion_lat": 0.0}, {"bike_id": "4a29cf296ea24b40e2ff0eb524cc787e", "fusion_lon": 0.0, "lon": -77.0167915, "name": "4a29cf296ea24b40e2ff0eb524cc787e", "is_disabled": 0, "rental_uris": {"android": "https://dc.lft.to/lastmile_qr_scan", "ios": "https://dc.lft.to/lastmile_qr_scan"}, "type": "electric_scooter", "lat": 38.9073005, "is_reserved": 0, "fusion_lat": 0.0}, {"bike_id": "a400ab4fa19749e7cb799ffcd72f8faa", "fusion_lon": 0.0, "lon": -77.02673383333334, "name": "a400ab4fa19749e7cb799ffcd72f8faa", "is_disabled": 0, "rental_uris": {"android": "https://dc.lft.to/lastmile_qr_scan", "ios": "https://dc.lft.to/lastmile_qr_scan"}, "type": "electric_scooter", "lat": 38.8974165, "is_reserved": 0, "fusion_lat": 0.0}, {"bike_id": "d34312e8f833c91ceb9a0bfc0ce40179", "fusion_lon": 0.0, "lon": -77.02581416666666, "name": "d34312e8f833c91ceb9a0bfc0ce40179", "is_disabled": 0, "rental_uris": {"android": "https://dc.lft.to/lastmile_qr_scan", "ios": "https://dc.lft.to/lastmile_qr_scan"}, "type": "electric_scooter", "lat": 38.892321, "is_reserved": 0, "fusion_lat": 0.0}, {"bike_id": "195a037816063b0b3cf59a814cce2045", "fusion_lon": 0.0, "lon": -76.9852965, "name": "195a037816063b0b3cf59a814cce2045", "is_disabled": 0, "rental_uris": {"android": "https://dc.lft.to/lastmile_qr_scan", "ios": "https://dc.lft.to/lastmile_qr_scan"}, "type": "electric_scooter", "lat": 38.866604833333334, "is_reserved": 0, "fusion_lat": 0.0}, {"bike_id": "3bae07148f6a80b53e218e23e51c5655", "fusion_lon": 0.0, "lon": -77.031896, "name": "3bae07148f6a80b53e218e23e51c5655", "is_disabled": 0, "rental_uris": {"android": "https://dc.lft.to/lastmile_qr_scan", "ios": "https://dc.lft.to/lastmile_qr_scan"}, "type": "electric_scooter", "lat": 38.924935833333336, "is_reserved": 0, "fusion_lat": 0.0}, {"bike_id": "68a3660f8a6697b1743194b78e43eb35", "fusion_lon": 0.0, "lon": -77.029024, "name": "68a3660f8a6697b1743194b78e43eb35", "is_disabled": 0, "rental_uris": {"android": "https://dc.lft.to/lastmile_qr_scan", "ios": "https://dc.lft.to/lastmile_qr_scan"}, "type": "electric_scooter", "lat": 38.92818583333333, "is_reserved": 0, "fusion_lat": 0.0}, {"bike_id": "f2c7494a8d63c4302e86fd57a5d3f20a", "fusion_lon": 0.0, "lon": -77.05218333333333, "name": "f2c7494a8d63c4302e86fd57a5d3f20a", "is_disabled": 0, "rental_uris": {"android": "https://dc.lft.to/lastmile_qr_scan", "ios": "https://dc.lft.to/lastmile_qr_scan"}, "type": "electric_scooter", "lat": 38.92486516666666, "is_reserved": 0, "fusion_lat": 0.0}, {"bike_id": "e5f923b13fbc18ab6be3e2bdcd6ed4e8", "fusion_lon": 0.0, "lon": -77.04262983333334, "name": "e5f923b13fbc18ab6be3e2bdcd6ed4e8", "is_disabled": 0, "rental_uris": {"android": "https://dc.lft.to/lastmile_qr_scan", "ios": "https://dc.lft.to/lastmile_qr_scan"}, "type": "electric_scooter", "lat": 38.9081015, "is_reserved": 0, "fusion_lat": 0.0}, {"bike_id": "9e82b75e931b8025044e487ebdc8f464", "fusion_lon": 0.0, "lon": -77.00919083333334, "name": "9e82b75e931b8025044e487ebdc8f464", "is_disabled": 0, "rental_uris": {"android": "https://dc.lft.to/lastmile_qr_scan", "ios": "https://dc.lft.to/lastmile_qr_scan"}, "type": "electric_scooter", "lat": 38.82789316666667, "is_reserved": 0, "fusion_lat": 0.0}, {"bike_id": "ef45f62ea4f8fd74af57c63005003214", "fusion_lon": 0.0, "lon": -77.00592, "name": "ef45f62ea4f8fd74af57c63005003214", "is_disabled": 0, "rental_uris": {"android": "https://dc.lft.to/lastmile_qr_scan", "ios": "https://dc.lft.to/lastmile_qr_scan"}, "type": "electric_scooter", "lat": 38.90652933333333, "is_reserved": 0, "fusion_lat": 0.0}, {"bike_id": "cd0d4f56c0569d0d80899ee88f9462ef", "fusion_lon": 0.0, "lon": -77.03218416666667, "name": "cd0d4f56c0569d0d80899ee88f9462ef", "is_disabled": 0, "rental_uris": {"android": "https://dc.lft.to/lastmile_qr_scan", "ios": "https://dc.lft.to/lastmile_qr_scan"}, "type": "electric_scooter", "lat": 38.909770333333334, "is_reserved": 0, "fusion_lat": 0.0}, {"bike_id": "03d346e8218281fe9dadaadc60445854", "fusion_lon": 0.0, "lon": -76.99778416666666, "name": "03d346e8218281fe9dadaadc60445854", "is_disabled": 0, "rental_uris": {"android": "https://dc.lft.to/lastmile_qr_scan", "ios": "https://dc.lft.to/lastmile_qr_scan"}, "type": "electric_bike", "lat": 38.910737166666664, "is_reserved": 0, "fusion_lat": 0.0}, {"bike_id": "5a12fa3d727a51ca8dac41fdb5761607", "fusion_lon": 0.0, "lon": -76.99501683333334, "name": "5a12fa3d727a51ca8dac41fdb5761607", "is_disabled": 0, "rental_uris": {"android": "https://dc.lft.to/lastmile_qr_scan", "ios": "https://dc.lft.to/lastmile_qr_scan"}, "type": "electric_scooter", "lat": 38.891701833333336, "is_reserved": 0, "fusion_lat": 0.0}, {"bike_id": "301b557d761b3f77047cdf3099a03092", "fusion_lon": 0.0, "lon": -77.01570866666667, "name": "301b557d761b3f77047cdf3099a03092", "is_disabled": 0, "rental_uris": {"android": "https://dc.lft.to/lastmile_qr_scan", "ios": "https://dc.lft.to/lastmile_qr_scan"}, "type": "electric_scooter", "lat": 38.9268565, "is_reserved": 0, "fusion_lat": 0.0}, {"bike_id": "43604f4826b830787220ceab64a1a265", "fusion_lon": 0.0, "lon": -77.02214866666667, "name": "43604f4826b830787220ceab64a1a265", "is_disabled": 0, "rental_uris": {"android": "https://dc.lft.to/lastmile_qr_scan", "ios": "https://dc.lft.to/lastmile_qr_scan"}, "type": "electric_scooter", "lat": 38.89635583333333, "is_reserved": 0, "fusion_lat": 0.0}, {"bike_id": "5b6f92b239461700061f98817aaa6c14", "fusion_lon": 0.0, "lon": -76.98714583333333, "name": "5b6f92b239461700061f98817aaa6c14", "is_disabled": 0, "rental_uris": {"android": "https://dc.lft.to/lastmile_qr_scan", "ios": "https://dc.lft.to/lastmile_qr_scan"}, "type": "electric_scooter", "lat": 38.86703983333334, "is_reserved": 0, "fusion_lat": 0.0}, {"bike_id": "adf26de374737c98700edf53e4cab18a", "fusion_lon": 0.0, "lon": -77.02093866666667, "name": "adf26de374737c98700edf53e4cab18a", "is_disabled": 0, "rental_uris": {"android": "https://dc.lft.to/lastmile_qr_scan", "ios": "https://dc.lft.to/lastmile_qr_scan"}, "type": "electric_scooter", "lat": 38.9312455, "is_reserved": 0, "fusion_lat": 0.0}, {"bike_id": "7711898384304f588ad7c0e2af210754", "fusion_lon": 0.0, "lon": -76.9962825, "name": "7711898384304f588ad7c0e2af210754", "is_disabled": 0, "rental_uris": {"android": "https://dc.lft.to/lastmile_qr_scan", "ios": "https://dc.lft.to/lastmile_qr_scan"}, "type": "electric_scooter", "lat": 38.8861905, "is_reserved": 0, "fusion_lat": 0.0}, {"bike_id": "e4ae793efdeec2cf9c8dd0373c0cd8d2", "fusion_lon": 0.0, "lon": -76.99907, "name": "e4ae793efdeec2cf9c8dd0373c0cd8d2", "is_disabled": 0, "rental_uris": {"android": "https://dc.lft.to/lastmile_qr_scan", "ios": "https://dc.lft.to/lastmile_qr_scan"}, "type": "electric_scooter", "lat": 38.946943833333336, "is_reserved": 0, "fusion_lat": 0.0}, {"bike_id": "f9f11e6602b5aacdbfe2f174c3515606", "fusion_lon": 0.0, "lon": -77.04988433333334, "name": "f9f11e6602b5aacdbfe2f174c3515606", "is_disabled": 0, "rental_uris": {"android": "https://dc.lft.to/lastmile_qr_scan", "ios": "https://dc.lft.to/lastmile_qr_scan"}, "type": "electric_scooter", "lat": 38.896130166666666, "is_reserved": 0, "fusion_lat": 0.0}, {"bike_id": "d76464337fdca539df688181600a3abf", "fusion_lon": 0.0, "lon": -77.01301816666667, "name": "d76464337fdca539df688181600a3abf", "is_disabled": 0, "rental_uris": {"android": "https://dc.lft.to/lastmile_qr_scan", "ios": "https://dc.lft.to/lastmile_qr_scan"}, "type": "electric_scooter", "lat": 38.93018566666667, "is_reserved": 0, "fusion_lat": 0.0}, {"bike_id": "71c80f3bd897b920370efdabf359112f", "fusion_lon": 0.0, "lon": -77.07717733333334, "name": "71c80f3bd897b920370efdabf359112f", "is_disabled": 0, "rental_uris": {"android": "https://dc.lft.to/lastmile_qr_scan", "ios": "https://dc.lft.to/lastmile_qr_scan"}, "type": "electric_scooter", "lat": 38.957745333333335, "is_reserved": 0, "fusion_lat": 0.0}, {"bike_id": "e9df3b187283c81c7346c9e2bf1f3679", "fusion_lon": 0.0, "lon": -77.02307, "name": "e9df3b187283c81c7346c9e2bf1f3679", "is_disabled": 0, "rental_uris": {"android": "https://dc.lft.to/lastmile_qr_scan", "ios": "https://dc.lft.to/lastmile_qr_scan"}, "type": "electric_scooter", "lat": 38.91794383333333, "is_reserved": 0, "fusion_lat": 0.0}, {"bike_id": "02f76c0599cef444ed36fb72e351b691", "fusion_lon": 0.0, "lon": -77.02715966666666, "name": "02f76c0599cef444ed36fb72e351b691", "is_disabled": 0, "rental_uris": {"android": "https://dc.lft.to/lastmile_qr_scan", "ios": "https://dc.lft.to/lastmile_qr_scan"}, "type": "electric_scooter", "lat": 38.906735166666664, "is_reserved": 0, "fusion_lat": 0.0}, {"bike_id": "b8b034fbe58748a1510f480571ebbac6", "fusion_lon": 0.0, "lon": -77.0234295, "name": "b8b034fbe58748a1510f480571ebbac6", "is_disabled": 0, "rental_uris": {"android": "https://dc.lft.to/lastmile_qr_scan", "ios": "https://dc.lft.to/lastmile_qr_scan"}, "type": "electric_scooter", "lat": 38.946132, "is_reserved": 0, "fusion_lat": 0.0}, {"bike_id": "7d35128cd8d65ffbebc6ba7b2f124f4b", "fusion_lon": 0.0, "lon": -77.0429075, "name": "7d35128cd8d65ffbebc6ba7b2f124f4b", "is_disabled": 0, "rental_uris": {"android": "https://dc.lft.to/lastmile_qr_scan", "ios": "https://dc.lft.to/lastmile_qr_scan"}, "type": "electric_scooter", "lat": 38.90880683333334, "is_reserved": 0, "fusion_lat": 0.0}, {"bike_id": "6bdf0990e2bd1737db7790d712409c3f", "fusion_lon": 0.0, "lon": -77.03889, "name": "6bdf0990e2bd1737db7790d712409c3f", "is_disabled": 0, "rental_uris": {"android": "https://dc.lft.to/lastmile_qr_scan", "ios": "https://dc.lft.to/lastmile_qr_scan"}, "type": "electric_scooter", "lat": 38.906459166666664, "is_reserved": 0, "fusion_lat": 0.0}, {"bike_id": "9f7df3ff80073f29958f68499db6bd97", "fusion_lon": 0.0, "lon": -77.03104166666667, "name": "9f7df3ff80073f29958f68499db6bd97", "is_disabled": 0, "rental_uris": {"android": "https://dc.lft.to/lastmile_qr_scan", "ios": "https://dc.lft.to/lastmile_qr_scan"}, "type": "electric_scooter", "lat": 38.950814, "is_reserved": 0, "fusion_lat": 0.0}, {"bike_id": "88de33703239b419ffe5b52cd3dc3c1f", "fusion_lon": 0.0, "lon": -76.99845166666667, "name": "88de33703239b419ffe5b52cd3dc3c1f", "is_disabled": 0, "rental_uris": {"android": "https://dc.lft.to/lastmile_qr_scan", "ios": "https://dc.lft.to/lastmile_qr_scan"}, "type": "electric_scooter", "lat": 38.900685333333335, "is_reserved": 0, "fusion_lat": 0.0}, {"bike_id": "024a086c143fb033f6fcfa2ac66c2464", "fusion_lon": 0.0, "lon": -77.075247, "name": "024a086c143fb033f6fcfa2ac66c2464", "is_disabled": 0, "rental_uris": {"android": "https://dc.lft.to/lastmile_qr_scan", "ios": "https://dc.lft.to/lastmile_qr_scan"}, "type": "electric_scooter", "lat": 38.908764833333336, "is_reserved": 0, "fusion_lat": 0.0}, {"bike_id": "3712819fd072ce074fc7a6a83a7b8d0f", "fusion_lon": 0.0, "lon": -77.065044, "name": "3712819fd072ce074fc7a6a83a7b8d0f", "is_disabled": 0, "rental_uris": {"android": "https://dc.lft.to/lastmile_qr_scan", "ios": "https://dc.lft.to/lastmile_qr_scan"}, "type": "electric_bike", "lat": 38.968753, "is_reserved": 0, "fusion_lat": 0.0}, {"bike_id": "c175a0a16c0177ab8293b297fe52ebf6", "fusion_lon": 0.0, "lon": -77.03947166666667, "name": "c175a0a16c0177ab8293b297fe52ebf6", "is_disabled": 0, "rental_uris": {"android": "https://dc.lft.to/lastmile_qr_scan", "ios": "https://dc.lft.to/lastmile_qr_scan"}, "type": "electric_scooter", "lat": 38.92625833333334, "is_reserved": 0, "fusion_lat": 0.0}, {"bike_id": "6ea9c6494ce486d22566ece639285e35", "fusion_lon": 0.0, "lon": -77.0137745, "name": "6ea9c6494ce486d22566ece639285e35", "is_disabled": 0, "rental_uris": {"android": "https://dc.lft.to/lastmile_qr_scan", "ios": "https://dc.lft.to/lastmile_qr_scan"}, "type": "electric_scooter", "lat": 38.92887266666666, "is_reserved": 0, "fusion_lat": 0.0}, {"bike_id": "7856ffd086f6d3cb2d0c9da910af7d28", "fusion_lon": 0.0, "lon": -76.94938683333334, "name": "7856ffd086f6d3cb2d0c9da910af7d28", "is_disabled": 0, "rental_uris": {"android": "https://dc.lft.to/lastmile_qr_scan", "ios": "https://dc.lft.to/lastmile_qr_scan"}, "type": "electric_scooter", "lat": 38.89351766666667, "is_reserved": 0, "fusion_lat": 0.0}, {"bike_id": "a740374512479e7e9bf32c22cfda60aa", "fusion_lon": 0.0, "lon": -76.9690625, "name": "a740374512479e7e9bf32c22cfda60aa", "is_disabled": 0, "rental_uris": {"android": "https://dc.lft.to/lastmile_qr_scan", "ios": "https://dc.lft.to/lastmile_qr_scan"}, "type": "electric_bike", "lat": 38.846180833333335, "is_reserved": 0, "fusion_lat": 0.0}, {"bike_id": "4d9075ba4aeb80a2d04bd86791d28f69", "fusion_lon": 0.0, "lon": -77.04689083333334, "name": "4d9075ba4aeb80a2d04bd86791d28f69", "is_disabled": 0, "rental_uris": {"android": "https://dc.lft.to/lastmile_qr_scan", "ios": "https://dc.lft.to/lastmile_qr_scan"}, "type": "electric_scooter", "lat": 38.89226, "is_reserved": 0, "fusion_lat": 0.0}, {"bike_id": "0d22d8752246c1ac5dd31b8f94aac422", "fusion_lon": 0.0, "lon": -76.98611183333334, "name": "0d22d8752246c1ac5dd31b8f94aac422", "is_disabled": 0, "rental_uris": {"android": "https://dc.lft.to/lastmile_qr_scan", "ios": "https://dc.lft.to/lastmile_qr_scan"}, "type": "electric_scooter", "lat": 38.878428666666665, "is_reserved": 0, "fusion_lat": 0.0}, {"bike_id": "3706baaf9cc6cfa8a6007e8c3870e6b0", "fusion_lon": 0.0, "lon": -77.0325275, "name": "3706baaf9cc6cfa8a6007e8c3870e6b0", "is_disabled": 0, "rental_uris": {"android": "https://dc.lft.to/lastmile_qr_scan", "ios": "https://dc.lft.to/lastmile_qr_scan"}, "type": "electric_scooter", "lat": 38.9001235, "is_reserved": 0, "fusion_lat": 0.0}, {"bike_id": "317111d3d1eb7d0411286fbde413038c", "fusion_lon": 0.0, "lon": -77.04502433333333, "name": "317111d3d1eb7d0411286fbde413038c", "is_disabled": 0, "rental_uris": {"android": "https://dc.lft.to/lastmile_qr_scan", "ios": "https://dc.lft.to/lastmile_qr_scan"}, "type": "electric_bike", "lat": 38.8428855, "is_reserved": 0, "fusion_lat": 0.0}, {"bike_id": "57ca775ed95cef360058fdc0bd4341c6", "fusion_lon": 0.0, "lon": -77.0448895, "name": "57ca775ed95cef360058fdc0bd4341c6", "is_disabled": 0, "rental_uris": {"android": "https://dc.lft.to/lastmile_qr_scan", "ios": "https://dc.lft.to/lastmile_qr_scan"}, "type": "electric_scooter", "lat": 38.905532666666666, "is_reserved": 0, "fusion_lat": 0.0}, {"bike_id": "41230e772c306d1314d0a86b7e583f7f", "fusion_lon": 0.0, "lon": -77.01596066666667, "name": "41230e772c306d1314d0a86b7e583f7f", "is_disabled": 0, "rental_uris": {"android": "https://dc.lft.to/lastmile_qr_scan", "ios": "https://dc.lft.to/lastmile_qr_scan"}, "type": "electric_scooter", "lat": 38.94947033333333, "is_reserved": 0, "fusion_lat": 0.0}, {"bike_id": "86a818a26eb9945cce52fdf569fabfa3", "fusion_lon": 0.0, "lon": -77.055285, "name": "86a818a26eb9945cce52fdf569fabfa3", "is_disabled": 0, "rental_uris": {"android": "https://dc.lft.to/lastmile_qr_scan", "ios": "https://dc.lft.to/lastmile_qr_scan"}, "type": "electric_scooter", "lat": 38.930189, "is_reserved": 0, "fusion_lat": 0.0}, {"bike_id": "7f59aaa84c0cf78f2a8f17f534acf198", "fusion_lon": 0.0, "lon": -76.9934875, "name": "7f59aaa84c0cf78f2a8f17f534acf198", "is_disabled": 0, "rental_uris": {"android": "https://dc.lft.to/lastmile_qr_scan", "ios": "https://dc.lft.to/lastmile_qr_scan"}, "type": "electric_scooter", "lat": 38.9148485, "is_reserved": 0, "fusion_lat": 0.0}, {"bike_id": "e85e1b0a1db4367a8c929fdcae0976db", "fusion_lon": 0.0, "lon": -77.02718333333333, "name": "e85e1b0a1db4367a8c929fdcae0976db", "is_disabled": 0, "rental_uris": {"android": "https://dc.lft.to/lastmile_qr_scan", "ios": "https://dc.lft.to/lastmile_qr_scan"}, "type": "electric_scooter", "lat": 38.94958666666667, "is_reserved": 0, "fusion_lat": 0.0}, {"bike_id": "f1ff54216d5240f924cc6bceaac42b79", "fusion_lon": 0.0, "lon": -77.03210383333334, "name": "f1ff54216d5240f924cc6bceaac42b79", "is_disabled": 0, "rental_uris": {"android": "https://dc.lft.to/lastmile_qr_scan", "ios": "https://dc.lft.to/lastmile_qr_scan"}, "type": "electric_scooter", "lat": 38.89592783333333, "is_reserved": 0, "fusion_lat": 0.0}, {"bike_id": "a5a6851925b30174ea7ef871c6c3d36d", "fusion_lon": 0.0, "lon": -77.0344125, "name": "a5a6851925b30174ea7ef871c6c3d36d", "is_disabled": 0, "rental_uris": {"android": "https://dc.lft.to/lastmile_qr_scan", "ios": "https://dc.lft.to/lastmile_qr_scan"}, "type": "electric_scooter", "lat": 38.90400066666667, "is_reserved": 0, "fusion_lat": 0.0}, {"bike_id": "c31e930a5d8e2c0f6a00e23d2a4c2d12", "fusion_lon": 0.0, "lon": -77.05860166666666, "name": "c31e930a5d8e2c0f6a00e23d2a4c2d12", "is_disabled": 0, "rental_uris": {"android": "https://dc.lft.to/lastmile_qr_scan", "ios": "https://dc.lft.to/lastmile_qr_scan"}, "type": "electric_scooter", "lat": 38.93608966666667, "is_reserved": 0, "fusion_lat": 0.0}, {"bike_id": "713ce1f976495577e8c4c5704a882898", "fusion_lon": 0.0, "lon": -76.98110533333333, "name": "713ce1f976495577e8c4c5704a882898", "is_disabled": 0, "rental_uris": {"android": "https://dc.lft.to/lastmile_qr_scan", "ios": "https://dc.lft.to/lastmile_qr_scan"}, "type": "electric_bike", "lat": 38.877361, "is_reserved": 0, "fusion_lat": 0.0}, {"bike_id": "bc842f165eb0aa3569ea34cc70f9b725", "fusion_lon": 0.0, "lon": -77.06648216666666, "name": "bc842f165eb0aa3569ea34cc70f9b725", "is_disabled": 0, "rental_uris": {"android": "https://dc.lft.to/lastmile_qr_scan", "ios": "https://dc.lft.to/lastmile_qr_scan"}, "type": "electric_bike", "lat": 38.9497385, "is_reserved": 0, "fusion_lat": 0.0}, {"bike_id": "f0c41959ced0fb6f016f96a122181619", "fusion_lon": 0.0, "lon": -77.030009, "name": "f0c41959ced0fb6f016f96a122181619", "is_disabled": 0, "rental_uris": {"android": "https://dc.lft.to/lastmile_qr_scan", "ios": "https://dc.lft.to/lastmile_qr_scan"}, "type": "electric_scooter", "lat": 38.89990483333333, "is_reserved": 0, "fusion_lat": 0.0}, {"bike_id": "2cb1b3803defeea49fc726cd2312acfd", "fusion_lon": 0.0, "lon": -77.04600533333333, "name": "2cb1b3803defeea49fc726cd2312acfd", "is_disabled": 0, "rental_uris": {"android": "https://dc.lft.to/lastmile_qr_scan", "ios": "https://dc.lft.to/lastmile_qr_scan"}, "type": "electric_scooter", "lat": 38.919248333333336, "is_reserved": 0, "fusion_lat": 0.0}, {"bike_id": "b1821c3f194d7f26a25041b51a19e8c0", "fusion_lon": 0.0, "lon": -77.04339966666667, "name": "b1821c3f194d7f26a25041b51a19e8c0", "is_disabled": 0, "rental_uris": {"android": "https://dc.lft.to/lastmile_qr_scan", "ios": "https://dc.lft.to/lastmile_qr_scan"}, "type": "electric_scooter", "lat": 38.903629333333335, "is_reserved": 0, "fusion_lat": 0.0}, {"bike_id": "61fb986fbaf3d7fa0c990f32380bff7b", "fusion_lon": 0.0, "lon": -77.03895783333333, "name": "61fb986fbaf3d7fa0c990f32380bff7b", "is_disabled": 0, "rental_uris": {"android": "https://dc.lft.to/lastmile_qr_scan", "ios": "https://dc.lft.to/lastmile_qr_scan"}, "type": "electric_scooter", "lat": 38.9224505, "is_reserved": 0, "fusion_lat": 0.0}, {"bike_id": "379972ac621af770d3ba5166cc8925dd", "fusion_lon": 0.0, "lon": -77.027136, "name": "379972ac621af770d3ba5166cc8925dd", "is_disabled": 0, "rental_uris": {"android": "https://dc.lft.to/lastmile_qr_scan", "ios": "https://dc.lft.to/lastmile_qr_scan"}, "type": "electric_scooter", "lat": 38.91573416666667, "is_reserved": 0, "fusion_lat": 0.0}, {"bike_id": "303175498c4bd17f67b836ea8ad0324e", "fusion_lon": 0.0, "lon": -77.03474766666666, "name": "303175498c4bd17f67b836ea8ad0324e", "is_disabled": 0, "rental_uris": {"android": "https://dc.lft.to/lastmile_qr_scan", "ios": "https://dc.lft.to/lastmile_qr_scan"}, "type": "electric_scooter", "lat": 38.9171345, "is_reserved": 0, "fusion_lat": 0.0}, {"bike_id": "8e0c231ef60cb274aa3f2ebf8c967be7", "fusion_lon": 0.0, "lon": -77.0414305, "name": "8e0c231ef60cb274aa3f2ebf8c967be7", "is_disabled": 0, "rental_uris": {"android": "https://dc.lft.to/lastmile_qr_scan", "ios": "https://dc.lft.to/lastmile_qr_scan"}, "type": "electric_scooter", "lat": 38.923035666666664, "is_reserved": 0, "fusion_lat": 0.0}, {"bike_id": "cd661bf697e1cdcca5ef00cf786bb719", "fusion_lon": 0.0, "lon": -77.02963133333333, "name": "cd661bf697e1cdcca5ef00cf786bb719", "is_disabled": 0, "rental_uris": {"android": "https://dc.lft.to/lastmile_qr_scan", "ios": "https://dc.lft.to/lastmile_qr_scan"},