{"data": {"bikes": [{"fusion_lon": 0.0, "name": "d7a28647e72e578903deed39c0083142", "rental_uris": {"android": "https://dc.lft.to/lastmile_qr_scan", "ios": "https://dc.lft.to/lastmile_qr_scan"}, "lat": 38.936282166666665, "bike_id": "d7a28647e72e578903deed39c0083142", "is_disabled": 0, "lon": -77.036576, "is_reserved": 0, "fusion_lat": 0.0, "type": "electric_scooter"}, {"fusion_lon": 0.0, "name": "23345c8fb31817a303c151f3d0402885", "rental_uris": {"android": "https://dc.lft.to/lastmile_qr_scan", "ios": "https://dc.lft.to/lastmile_qr_scan"}, "lat": 38.907119333333334, "bike_id": "23345c8fb31817a303c151f3d0402885", "is_disabled": 0, "lon": -77.01545766666666, "is_reserved": 0, "fusion_lat": 0.0, "type": "electric_scooter"}, {"fusion_lon": 0.0, "name": "fc4493887e2066552d533e4b5182c179", "rental_uris": {"android": "https://dc.lft.to/lastmile_qr_scan", "ios": "https://dc.lft.to/lastmile_qr_scan"}, "lat": 38.898214333333335, "bike_id": "fc4493887e2066552d533e4b5182c179", "is_disabled": 0, "lon": -76.99066266666667, "is_reserved": 0, "fusion_lat": 0.0, "type": "electric_bike"}, {"fusion_lon": 0.0, "name": "3e51044d5e1d9a37ca0e9be699fe06fa", "rental_uris": {"android": "https://dc.lft.to/lastmile_qr_scan", "ios": "https://dc.lft.to/lastmile_qr_scan"}, "lat": 38.926450333333335, "bike_id": "3e51044d5e1d9a37ca0e9be699fe06fa", "is_disabled": 0, "lon": -77.02507133333333, "is_reserved": 0, "fusion_lat": 0.0, "type": "electric_scooter"}, {"fusion_lon": 0.0, "name": "83eb30441c0788e5a5615e6b25871192", "rental_uris": {"android": "https://dc.lft.to/lastmile_qr_scan", "ios": "https://dc.lft.to/lastmile_qr_scan"}, "lat": 38.92368616666667, "bike_id": "83eb30441c0788e5a5615e6b25871192", "is_disabled": 0, "lon": -77.01955633333333, "is_reserved": 0, "fusion_lat": 0.0, "type": "electric_scooter"}, {"fusion_lon": 0.0, "name": "08f82c740758bd472e05a9b0b3efa184", "rental_uris": {"android": "https://dc.lft.to/lastmile_qr_scan", "ios": "https://dc.lft.to/lastmile_qr_scan"}, "lat": 38.897115, "bike_id": "08f82c740758bd472e05a9b0b3efa184", "is_disabled": 0, "lon": -76.99119666666667, "is_reserved": 0, "fusion_lat": 0.0, "type": "electric_scooter"}, {"fusion_lon": 0.0, "name": "68f5fad968d2ab95deda967e3520160a", "rental_uris": {"android": "https://dc.lft.to/lastmile_qr_scan", "ios": "https://dc.lft.to/lastmile_qr_scan"}, "lat": 38.88605483333333, "bike_id": "68f5fad968d2ab95deda967e3520160a", "is_disabled": 0, "lon": -77.04512033333333, "is_reserved": 0, "fusion_lat": 0.0, "type": "electric_scooter"}, {"fusion_lon": 0.0, "name": "20cb0a8921dcec073691d990e78e29b6", "rental_uris": {"android": "https://dc.lft.to/lastmile_qr_scan", "ios": "https://dc.lft.to/lastmile_qr_scan"}, "lat": 38.923463, "bike_id": "20cb0a8921dcec073691d990e78e29b6", "is_disabled": 0, "lon": -77.05419783333333, "is_reserved": 0, "fusion_lat": 0.0, "type": "electric_scooter"}, {"fusion_lon": 0.0, "name": "86742e2d43bf0edc1e109aca630a2ebf", "rental_uris": {"android": "https://dc.lft.to/lastmile_qr_scan", "ios": "https://dc.lft.to/lastmile_qr_scan"}, "lat": 38.899561166666665, "bike_id": "86742e2d43bf0edc1e109aca630a2ebf", "is_disabled": 0, "lon": -76.985642, "is_reserved": 0, "fusion_lat": 0.0, "type": "electric_scooter"}, {"fusion_lon": 0.0, "name": "6919648e6a6e35c4aac37a977913854e", "rental_uris": {"android": "https://dc.lft.to/lastmile_qr_scan", "ios": "https://dc.lft.to/lastmile_qr_scan"}, "lat": 38.923185333333336, "bike_id": "6919648e6a6e35c4aac37a977913854e", "is_disabled": 0, "lon": -77.0194865, "is_reserved": 0, "fusion_lat": 0.0, "type": "electric_scooter"}, {"fusion_lon": 0.0, "name": "19ab66d2aa244745be8788e8274c22a4", "rental_uris": {"android": "https://dc.lft.to/lastmile_qr_scan", "ios": "https://dc.lft.to/lastmile_qr_scan"}, "lat": 38.9012255, "bike_id": "19ab66d2aa244745be8788e8274c22a4", "is_disabled": 0, "lon": -77.04484633333334, "is_reserved": 0, "fusion_lat": 0.0, "type": "electric_scooter"}, {"fusion_lon": 0.0, "name": "44af048c717fd37aba9dae73ef1cd787", "rental_uris": {"android": "https://dc.lft.to/lastmile_qr_scan", "ios": "https://dc.lft.to/lastmile_qr_scan"}, "lat": 38.898836333333335, "bike_id": "44af048c717fd37aba9dae73ef1cd787", "is_disabled": 0, "lon": -77.03187183333333, "is_reserved": 0, "fusion_lat": 0.0, "type": "electric_scooter"}, {"fusion_lon": 0.0, "name": "3bea3b9d625e6178f5b879da2f4dd331", "rental_uris": {"android": "https://dc.lft.to/lastmile_qr_scan", "ios": "https://dc.lft.to/lastmile_qr_scan"}, "lat": 38.989910333333334, "bike_id": "3bea3b9d625e6178f5b879da2f4dd331", "is_disabled": 0, "lon": -77.03362133333333, "is_reserved": 0, "fusion_lat": 0.0, "type": "electric_scooter"}, {"fusion_lon": 0.0, "name": "aa5c12e5f857decdc908c34ff9372acb", "rental_uris": {"android": "https://dc.lft.to/lastmile_qr_scan", "ios": "https://dc.lft.to/lastmile_qr_scan"}, "lat": 38.8988445, "bike_id": "aa5c12e5f857decdc908c34ff9372acb", "is_disabled": 0, "lon": -76.9883575, "is_reserved": 0, "fusion_lat": 0.0, "type": "electric_scooter"}, {"fusion_lon": 0.0, "name": "f8108fa3a1553bf35e99e748e9ee3af1", "rental_uris": {"android": "https://dc.lft.to/lastmile_qr_scan", "ios": "https://dc.lft.to/lastmile_qr_scan"}, "lat": 38.932952666666665, "bike_id": "f8108fa3a1553bf35e99e748e9ee3af1", "is_disabled": 0, "lon": -77.02845183333334, "is_reserved": 0, "fusion_lat": 0.0, "type": "electric_scooter"}, {"fusion_lon": 0.0, "name": "75051dd31d3b81f9a814102ed5690612", "rental_uris": {"android": "https://dc.lft.to/lastmile_qr_scan", "ios": "https://dc.lft.to/lastmile_qr_scan"}, "lat": 38.9191825, "bike_id": "75051dd31d3b81f9a814102ed5690612", "is_disabled": 0, "lon": -77.02501166666667, "is_reserved": 0, "fusion_lat": 0.0, "type": "electric_scooter"}, {"fusion_lon": 0.0, "name": "22e31896d5a4283436a5737baf8f8a5b", "rental_uris": {"android": "https://dc.lft.to/lastmile_qr_scan", "ios": "https://dc.lft.to/lastmile_qr_scan"}, "lat": 38.9039395, "bike_id": "22e31896d5a4283436a5737baf8f8a5b", "is_disabled": 0, "lon": -76.98105783333334, "is_reserved": 0, "fusion_lat": 0.0, "type": "electric_scooter"}, {"fusion_lon": 0.0, "name": "34d410e9e7c076214c57cc400b266abe", "rental_uris": {"android": "https://dc.lft.to/lastmile_qr_scan", "ios": "https://dc.lft.to/lastmile_qr_scan"}, "lat": 38.9002985, "bike_id": "34d410e9e7c076214c57cc400b266abe", "is_disabled": 0, "lon": -77.0330805, "is_reserved": 0, "fusion_lat": 0.0, "type": "electric_scooter"}, {"fusion_lon": 0.0, "name": "246909c8bdfa1337087a40d7c0118d29", "rental_uris": {"android": "https://dc.lft.to/lastmile_qr_scan", "ios": "https://dc.lft.to/lastmile_qr_scan"}, "lat": 38.911358, "bike_id": "246909c8bdfa1337087a40d7c0118d29", "is_disabled": 0, "lon": -77.02194566666667, "is_reserved": 0, "fusion_lat": 0.0, "type": "electric_scooter"}, {"fusion_lon": 0.0, "name": "522314dbb74f1615eb2e0880b3c7e1a3", "rental_uris": {"android": "https://dc.lft.to/lastmile_qr_scan", "ios": "https://dc.lft.to/lastmile_qr_scan"}, "lat": 38.92656016666667, "bike_id": "522314dbb74f1615eb2e0880b3c7e1a3", "is_disabled": 0, "lon": -77.04071816666666, "is_reserved": 0, "fusion_lat": 0.0, "type": "electric_scooter"}, {"fusion_lon": 0.0, "name": "d3f6516fb6104f7f9d03824f0446cff8", "rental_uris": {"android": "https://dc.lft.to/lastmile_qr_scan", "ios": "https://dc.lft.to/lastmile_qr_scan"}, "lat": 38.93515283333333, "bike_id": "d3f6516fb6104f7f9d03824f0446cff8", "is_disabled": 0, "lon": -77.03718366666666, "is_reserved": 0, "fusion_lat": 0.0, "type": "electric_scooter"}, {"fusion_lon": 0.0, "name": "b968116782477834a8c772b29cba5a34", "rental_uris": {"android": "https://dc.lft.to/lastmile_qr_scan", "ios": "https://dc.lft.to/lastmile_qr_scan"}, "lat": 38.924511333333335, "bike_id": "b968116782477834a8c772b29cba5a34", "is_disabled": 0, "lon": -77.03973583333334, "is_reserved": 0, "fusion_lat": 0.0, "type": "electric_scooter"}, {"fusion_lon": 0.0, "name": "3db4752685ec40e3ad6cdbf086e90970", "rental_uris": {"android": "https://dc.lft.to/lastmile_qr_scan", "ios": "https://dc.lft.to/lastmile_qr_scan"}, "lat": 38.893991, "bike_id": "3db4752685ec40e3ad6cdbf086e90970", "is_disabled": 0, "lon": -76.86838766666666, "is_reserved": 0, "fusion_lat": 0.0, "type": "electric_bike"}, {"fusion_lon": 0.0, "name": "31dbcc25af70aa2112f8b6434e3c6e5f", "rental_uris": {"android": "https://dc.lft.to/lastmile_qr_scan", "ios": "https://dc.lft.to/lastmile_qr_scan"}, "lat": 38.871855333333336, "bike_id": "31dbcc25af70aa2112f8b6434e3c6e5f", "is_disabled": 0, "lon": -77.00640566666667, "is_reserved": 0, "fusion_lat": 0.0, "type": "electric_scooter"}, {"fusion_lon": 0.0, "name": "9f3a95cbec4204f684dc4174355439b9", "rental_uris": {"android": "https://dc.lft.to/lastmile_qr_scan", "ios": "https://dc.lft.to/lastmile_qr_scan"}, "lat": 38.921305333333336, "bike_id": "9f3a95cbec4204f684dc4174355439b9", "is_disabled": 0, "lon": -77.02091716666666, "is_reserved": 0, "fusion_lat": 0.0, "type": "electric_scooter"}, {"fusion_lon": 0.0, "name": "90eb600160645ab5b3679a93a944ae83", "rental_uris": {"android": "https://dc.lft.to/lastmile_qr_scan", "ios": "https://dc.lft.to/lastmile_qr_scan"}, "lat": 38.928, "bike_id": "90eb600160645ab5b3679a93a944ae83", "is_disabled": 0, "lon": -77.0552645, "is_reserved": 0, "fusion_lat": 0.0, "type": "electric_scooter"}, {"fusion_lon": 0.0, "name": "87369e9694679dd4f708944b74f934d9", "rental_uris": {"android": "https://dc.lft.to/lastmile_qr_scan", "ios": "https://dc.lft.to/lastmile_qr_scan"}, "lat": 38.9206445, "bike_id": "87369e9694679dd4f708944b74f934d9", "is_disabled": 0, "lon": -77.022792, "is_reserved": 0, "fusion_lat": 0.0, "type": "electric_scooter"}, {"fusion_lon": 0.0, "name": "3c1f8d017f228e1ff4df9dda3ef34ea2", "rental_uris": {"android": "https://dc.lft.to/lastmile_qr_scan", "ios": "https://dc.lft.to/lastmile_qr_scan"}, "lat": 38.876793666666664, "bike_id": "3c1f8d017f228e1ff4df9dda3ef34ea2", "is_disabled": 0, "lon": -77.01970366666667, "is_reserved": 0, "fusion_lat": 0.0, "type": "electric_scooter"}, {"fusion_lon": 0.0, "name": "5858c0c89fde723988a666b1686390a8", "rental_uris": {"android": "https://dc.lft.to/lastmile_qr_scan", "ios": "https://dc.lft.to/lastmile_qr_scan"}, "lat": 38.907677666666665, "bike_id": "5858c0c89fde723988a666b1686390a8", "is_disabled": 0, "lon": -77.024546, "is_reserved": 0, "fusion_lat": 0.0, "type": "electric_scooter"}, {"fusion_lon": 0.0, "name": "019bdfd43a3ce0595336a57abd2f5e7d", "rental_uris": {"android": "https://dc.lft.to/lastmile_qr_scan", "ios": "https://dc.lft.to/lastmile_qr_scan"}, "lat": 38.9019865, "bike_id": "019bdfd43a3ce0595336a57abd2f5e7d", "is_disabled": 0, "lon": -77.0611675, "is_reserved": 0, "fusion_lat": 0.0, "type": "electric_scooter"}, {"fusion_lon": 0.0, "name": "8bc69068e94e6639616bb404d61fcae4", "rental_uris": {"android": "https://dc.lft.to/lastmile_qr_scan", "ios": "https://dc.lft.to/lastmile_qr_scan"}, "lat": 38.964210333333334, "bike_id": "8bc69068e94e6639616bb404d61fcae4", "is_disabled": 0, "lon": -77.03254033333333, "is_reserved": 0, "fusion_lat": 0.0, "type": "electric_scooter"}, {"fusion_lon": 0.0, "name": "10ef3d1ae092aae01a5f7fc87ca6b4a8", "rental_uris": {"android": "https://dc.lft.to/lastmile_qr_scan", "ios": "https://dc.lft.to/lastmile_qr_scan"}, "lat": 38.9384145, "bike_id": "10ef3d1ae092aae01a5f7fc87ca6b4a8", "is_disabled": 0, "lon": -77.02468383333333, "is_reserved": 0, "fusion_lat": 0.0, "type": "electric_scooter"}, {"fusion_lon": 0.0, "name": "22ac0ac644d8ba8f2ac7cb2e68522a37", "rental_uris": {"android": "https://dc.lft.to/lastmile_qr_scan", "ios": "https://dc.lft.to/lastmile_qr_scan"}, "lat": 38.90970866666667, "bike_id": "22ac0ac644d8ba8f2ac7cb2e68522a37", "is_disabled": 0, "lon": -77.03393966666667, "is_reserved": 0, "fusion_lat": 0.0, "type": "electric_scooter"}, {"fusion_lon": 0.0, "name": "d075533da4a28d86f95a0450cfd32d0d", "rental_uris": {"android": "https://dc.lft.to/lastmile_qr_scan", "ios": "https://dc.lft.to/lastmile_qr_scan"}, "lat": 38.909602666666665, "bike_id": "d075533da4a28d86f95a0450cfd32d0d", "is_disabled": 0, "lon": -77.02440833333333, "is_reserved": 0, "fusion_lat": 0.0, "type": "electric_scooter"}, {"fusion_lon": 0.0, "name": "cd57070fb3a5bc2d5eb775304f2443ea", "rental_uris": {"android": "https://dc.lft.to/lastmile_qr_scan", "ios": "https://dc.lft.to/lastmile_qr_scan"}, "lat": 38.91192983333333, "bike_id": "cd57070fb3a5bc2d5eb775304f2443ea", "is_disabled": 0, "lon": -77.03131333333333, "is_reserved": 0, "fusion_lat": 0.0, "type": "electric_scooter"}, {"fusion_lon": 0.0, "name": "c3b45268a050efd5cbf00bbb6e4b12d1", "rental_uris": {"android": "https://dc.lft.to/lastmile_qr_scan", "ios": "https://dc.lft.to/lastmile_qr_scan"}, "lat": 38.906058333333334, "bike_id": "c3b45268a050efd5cbf00bbb6e4b12d1", "is_disabled": 0, "lon": -77.01324116666666, "is_reserved": 0, "fusion_lat": 0.0, "type": "electric_scooter"}, {"fusion_lon": 0.0, "name": "f36c5fa57f8b9aa4d42556653f7a87aa", "rental_uris": {"android": "https://dc.lft.to/lastmile_qr_scan", "ios": "https://dc.lft.to/lastmile_qr_scan"}, "lat": 38.828516666666665, "bike_id": "f36c5fa57f8b9aa4d42556653f7a87aa", "is_disabled": 0, "lon": -77.05903216666667, "is_reserved": 0, "fusion_lat": 0.0, "type": "electric_bike"}, {"fusion_lon": 0.0, "name": "c773af9c2017f10bbea58deb35fddad9", "rental_uris": {"android": "https://dc.lft.to/lastmile_qr_scan", "ios": "https://dc.lft.to/lastmile_qr_scan"}, "lat": 38.9263755, "bike_id": "c773af9c2017f10bbea58deb35fddad9", "is_disabled": 0, "lon": -77.0350445, "is_reserved": 0, "fusion_lat": 0.0, "type": "electric_scooter"}, {"fusion_lon": 0.0, "name": "47d91e3c5d04b9d4e3cafed5358049e3", "rental_uris": {"android": "https://dc.lft.to/lastmile_qr_scan", "ios": "https://dc.lft.to/lastmile_qr_scan"}, "lat": 38.913174, "bike_id": "47d91e3c5d04b9d4e3cafed5358049e3", "is_disabled": 0, "lon": -77.03649966666667, "is_reserved": 0, "fusion_lat": 0.0, "type": "electric_scooter"}, {"fusion_lon": 0.0, "name": "9834dc90d3139b3e1be32d7ecdc2b054", "rental_uris": {"android": "https://dc.lft.to/lastmile_qr_scan", "ios": "https://dc.lft.to/lastmile_qr_scan"}, "lat": 38.923369666666666, "bike_id": "9834dc90d3139b3e1be32d7ecdc2b054", "is_disabled": 0, "lon": -77.05420416666666, "is_reserved": 0, "fusion_lat": 0.0, "type": "electric_scooter"}, {"fusion_lon": 0.0, "name": "b8d13054dc7580bfe010969843503db8", "rental_uris": {"android": "https://dc.lft.to/lastmile_qr_scan", "ios": "https://dc.lft.to/lastmile_qr_scan"}, "lat": 38.89911766666667, "bike_id": "b8d13054dc7580bfe010969843503db8", "is_disabled": 0, "lon": -76.9881995, "is_reserved": 0, "fusion_lat": 0.0, "type": "electric_scooter"}, {"fusion_lon": 0.0, "name": "3f5746c9fb80daf5f4b3aa6b353cec3f", "rental_uris": {"android": "https://dc.lft.to/lastmile_qr_scan", "ios": "https://dc.lft.to/lastmile_qr_scan"}, "lat": 38.92362216666667, "bike_id": "3f5746c9fb80daf5f4b3aa6b353cec3f", "is_disabled": 0, "lon": -77.07638766666666, "is_reserved": 0, "fusion_lat": 0.0, "type": "electric_scooter"}, {"fusion_lon": 0.0, "name": "0638606f663368679e3f2bf19c066cb0", "rental_uris": {"android": "https://dc.lft.to/lastmile_qr_scan", "ios": "https://dc.lft.to/lastmile_qr_scan"}, "lat": 38.91654283333333, "bike_id": "0638606f663368679e3f2bf19c066cb0", "is_disabled": 0, "lon": -77.01032666666667, "is_reserved": 0, "fusion_lat": 0.0, "type": "electric_scooter"}, {"fusion_lon": 0.0, "name": "a3a53a9b2781c40d7c9df3e85fd1b434", "rental_uris": {"android": "https://dc.lft.to/lastmile_qr_scan", "ios": "https://dc.lft.to/lastmile_qr_scan"}, "lat": 38.919762, "bike_id": "a3a53a9b2781c40d7c9df3e85fd1b434", "is_disabled": 0, "lon": -77.02764983333333, "is_reserved": 0, "fusion_lat": 0.0, "type": "electric_scooter"}, {"fusion_lon": 0.0, "name": "8a04b8faad20a593ab2e75d06d1c3446", "rental_uris": {"android": "https://dc.lft.to/lastmile_qr_scan", "ios": "https://dc.lft.to/lastmile_qr_scan"}, "lat": 38.9370295, "bike_id": "8a04b8faad20a593ab2e75d06d1c3446", "is_disabled": 0, "lon": -77.05599116666667, "is_reserved": 0, "fusion_lat": 0.0, "type": "electric_scooter"}, {"fusion_lon": 0.0, "name": "79c31be1302671f22d560fabfabae6f8", "rental_uris": {"android": "https://dc.lft.to/lastmile_qr_scan", "ios": "https://dc.lft.to/lastmile_qr_scan"}, "lat": 38.92627483333333, "bike_id": "79c31be1302671f22d560fabfabae6f8", "is_disabled": 0, "lon": -77.07302483333333, "is_reserved": 0, "fusion_lat": 0.0, "type": "electric_scooter"}, {"fusion_lon": 0.0, "name": "c72a0c2bc8e773828affcffd88889529", "rental_uris": {"android": "https://dc.lft.to/lastmile_qr_scan", "ios": "https://dc.lft.to/lastmile_qr_scan"}, "lat": 38.87999, "bike_id": "c72a0c2bc8e773828affcffd88889529", "is_disabled": 0, "lon": -77.03741466666666, "is_reserved": 0, "fusion_lat": 0.0, "type": "electric_scooter"}, {"fusion_lon": 0.0, "name": "201574cfce5c165d57b57f339f971a6f", "rental_uris": {"android": "https://dc.lft.to/lastmile_qr_scan", "ios": "https://dc.lft.to/lastmile_qr_scan"}, "lat": 38.909630666666665, "bike_id": "201574cfce5c165d57b57f339f971a6f", "is_disabled": 0, "lon": -77.035683, "is_reserved": 0, "fusion_lat": 0.0, "type": "electric_scooter"}, {"fusion_lon": 0.0, "name": "a8c4a86e4086869f7908fe23cdf53922", "rental_uris": {"android": "https://dc.lft.to/lastmile_qr_scan", "ios": "https://dc.lft.to/lastmile_qr_scan"}, "lat": 38.8073275, "bike_id": "a8c4a86e4086869f7908fe23cdf53922", "is_disabled": 0, "lon": -76.9925665, "is_reserved": 0, "fusion_lat": 0.0, "type": "electric_bike"}, {"fusion_lon": 0.0, "name": "88a297a77e10752d10667ee210b21004", "rental_uris": {"android": "https://dc.lft.to/lastmile_qr_scan", "ios": "https://dc.lft.to/lastmile_qr_scan"}, "lat": 38.884408, "bike_id": "88a297a77e10752d10667ee210b21004", "is_disabled": 0, "lon": -76.95744783333333, "is_reserved": 0, "fusion_lat": 0.0, "type": "electric_scooter"}, {"fusion_lon": 0.0, "name": "d33fb967b987c7163d44582a37aaba9e", "rental_uris": {"android": "https://dc.lft.to/lastmile_qr_scan", "ios": "https://dc.lft.to/lastmile_qr_scan"}, "lat": 38.89912616666667, "bike_id": "d33fb967b987c7163d44582a37aaba9e", "is_disabled": 0, "lon": -76.9339125, "is_reserved": 0, "fusion_lat": 0.0, "type": "electric_scooter"}, {"fusion_lon": 0.0, "name": "a39046687d4c1176987120c10157cd13", "rental_uris": {"android": "https://dc.lft.to/lastmile_qr_scan", "ios": "https://dc.lft.to/lastmile_qr_scan"}, "lat": 38.941816833333334, "bike_id": "a39046687d4c1176987120c10157cd13", "is_disabled": 0, "lon": -77.03149816666667, "is_reserved": 0, "fusion_lat": 0.0, "type": "electric_scooter"}, {"fusion_lon": 0.0, "name": "69c8fad7f1f1aa56297ef58dbbce552e", "rental_uris": {"android": "https://dc.lft.to/lastmile_qr_scan", "ios": "https://dc.lft.to/lastmile_qr_scan"}, "lat": 38.89960383333333, "bike_id": "69c8fad7f1f1aa56297ef58dbbce552e", "is_disabled": 0, "lon": -77.04716766666667, "is_reserved": 0, "fusion_lat": 0.0, "type": "electric_scooter"}, {"fusion_lon": 0.0, "name": "9a5bc263a9cacbdccc7a7db30aa17c6d", "rental_uris": {"android": "https://dc.lft.to/lastmile_qr_scan", "ios": "https://dc.lft.to/lastmile_qr_scan"}, "lat": 38.92696866666667, "bike_id": "9a5bc263a9cacbdccc7a7db30aa17c6d", "is_disabled": 0, "lon": -77.02966, "is_reserved": 0, "fusion_lat": 0.0, "type": "electric_scooter"}, {"fusion_lon": 0.0, "name": "75a7cad3e4d4c1ae280364d957885950", "rental_uris": {"android": "https://dc.lft.to/lastmile_qr_scan", "ios": "https://dc.lft.to/lastmile_qr_scan"}, "lat": 38.92414, "bike_id": "75a7cad3e4d4c1ae280364d957885950", "is_disabled": 0, "lon": -77.021384, "is_reserved": 0, "fusion_lat": 0.0, "type": "electric_scooter"}, {"fusion_lon": 0.0, "name": "ed0bfbc54b2d1467964c213b8b0319e1", "rental_uris": {"android": "https://dc.lft.to/lastmile_qr_scan", "ios": "https://dc.lft.to/lastmile_qr_scan"}, "lat": 38.892287333333336, "bike_id": "ed0bfbc54b2d1467964c213b8b0319e1", "is_disabled": 0, "lon": -77.0436595, "is_reserved": 0, "fusion_lat": 0.0, "type": "electric_scooter"}, {"fusion_lon": 0.0, "name": "f147e5482c322426319f8c0080318b93", "rental_uris": {"android": "https://dc.lft.to/lastmile_qr_scan", "ios": "https://dc.lft.to/lastmile_qr_scan"}, "lat": 38.90268583333334, "bike_id": "f147e5482c322426319f8c0080318b93", "is_disabled": 0, "lon": -77.03122733333333, "is_reserved": 0, "fusion_lat": 0.0, "type": "electric_scooter"}, {"fusion_lon": 0.0, "name": "591f1f73cd057e268def25fedfa2099e", "rental_uris": {"android": "https://dc.lft.to/lastmile_qr_scan", "ios": "https://dc.lft.to/lastmile_qr_scan"}, "lat": 38.915608166666665, "bike_id": "591f1f73cd057e268def25fedfa2099e", "is_disabled": 0, "lon": -77.02048166666667, "is_reserved": 0, "fusion_lat": 0.0, "type": "electric_scooter"}, {"fusion_lon": 0.0, "name": "c84ba8f9572ebc47ed9827163b9e58a3", "rental_uris": {"android": "https://dc.lft.to/lastmile_qr_scan", "ios": "https://dc.lft.to/lastmile_qr_scan"}, "lat": 38.9165195, "bike_id": "c84ba8f9572ebc47ed9827163b9e58a3", "is_disabled": 0, "lon": -77.031898, "is_reserved": 0, "fusion_lat": 0.0, "type": "electric_scooter"}, {"fusion_lon": 0.0, "name": "2de0392d43108695e966a201cfb09da8", "rental_uris": {"android": "https://dc.lft.to/lastmile_qr_scan", "ios": "https://dc.lft.to/lastmile_qr_scan"}, "lat": 38.95085233333333, "bike_id": "2de0392d43108695e966a201cfb09da8", "is_disabled": 0, "lon": -76.99793566666666, "is_reserved": 0, "fusion_lat": 0.0, "type": "electric_scooter"}, {"fusion_lon": 0.0, "name": "51b67b153a94192a5121bd53d4a982fb", "rental_uris": {"android": "https://dc.lft.to/lastmile_qr_scan", "ios": "https://dc.lft.to/lastmile_qr_scan"}, "lat": 38.91751033333333, "bike_id": "51b67b153a94192a5121bd53d4a982fb", "is_disabled": 0, "lon": -77.02696133333333, "is_reserved": 0, "fusion_lat": 0.0, "type": "electric_scooter"}, {"fusion_lon": 0.0, "name": "d3845dc6fb8415c6089db34cb6ae01ad", "rental_uris": {"android": "https://dc.lft.to/lastmile_qr_scan", "ios": "https://dc.lft.to/lastmile_qr_scan"}, "lat": 38.918702, "bike_id": "d3845dc6fb8415c6089db34cb6ae01ad", "is_disabled": 0, "lon": -77.048277, "is_reserved": 0, "fusion_lat": 0.0, "type": "electric_scooter"}, {"fusion_lon": 0.0, "name": "80e614751bc14fe2e20f2d28b9ce0354", "rental_uris": {"android": "https://dc.lft.to/lastmile_qr_scan", "ios": "https://dc.lft.to/lastmile_qr_scan"}, "lat": 38.793350833333335, "bike_id": "80e614751bc14fe2e20f2d28b9ce0354", "is_disabled": 0, "lon": -77.00050916666666, "is_reserved": 0, "fusion_lat": 0.0, "type": "electric_bike"}, {"fusion_lon": 0.0, "name": "25624a92242ec28123fdecc519ea980c", "rental_uris": {"android": "https://dc.lft.to/lastmile_qr_scan", "ios": "https://dc.lft.to/lastmile_qr_scan"}, "lat": 38.91175533333333, "bike_id": "25624a92242ec28123fdecc519ea980c", "is_disabled": 0, "lon": -77.03853683333334, "is_reserved": 0, "fusion_lat": 0.0, "type": "electric_scooter"}, {"fusion_lon": 0.0, "name": "39f31ee72f4a12930cfa55793212301d", "rental_uris": {"android": "https://dc.lft.to/lastmile_qr_scan", "ios": "https://dc.lft.to/lastmile_qr_scan"}, "lat": 38.921489, "bike_id": "39f31ee72f4a12930cfa55793212301d", "is_disabled": 0, "lon": -77.043555, "is_reserved": 0, "fusion_lat": 0.0, "type": "electric_scooter"}, {"fusion_lon": 0.0, "name": "ea808bcc844de6772579921da53e098f", "rental_uris": {"android": "https://dc.lft.to/lastmile_qr_scan", "ios": "https://dc.lft.to/lastmile_qr_scan"}, "lat": 38.92366366666667, "bike_id": "ea808bcc844de6772579921da53e098f", "is_disabled": 0, "lon": -77.050247, "is_reserved": 0, "fusion_lat": 0.0, "type": "electric_scooter"}, {"fusion_lon": 0.0, "name": "3c6c62bec8f2875b7409d5f354fcfc0c", "rental_uris": {"android": "https://dc.lft.to/lastmile_qr_scan", "ios": "https://dc.lft.to/lastmile_qr_scan"}, "lat": 38.93122066666667, "bike_id": "3c6c62bec8f2875b7409d5f354fcfc0c", "is_disabled": 0, "lon": -77.02068783333333, "is_reserved": 0, "fusion_lat": 0.0, "type": "electric_scooter"}, {"fusion_lon": 0.0, "name": "e396f6404681270f4e8ed05edda4f4ba", "rental_uris": {"android": "https://dc.lft.to/lastmile_qr_scan", "ios": "https://dc.lft.to/lastmile_qr_scan"}, "lat": 38.90334033333333, "bike_id": "e396f6404681270f4e8ed05edda4f4ba", "is_disabled": 0, "lon": -76.933687, "is_reserved": 0, "fusion_lat": 0.0, "type": "electric_bike"}, {"fusion_lon": 0.0, "name": "ce4b4f4fd370a3577ef55413e20c5e78", "rental_uris": {"android": "https://dc.lft.to/lastmile_qr_scan", "ios": "https://dc.lft.to/lastmile_qr_scan"}, "lat": 38.921552166666665, "bike_id": "ce4b4f4fd370a3577ef55413e20c5e78", "is_disabled": 0, "lon": -77.03525483333334, "is_reserved": 0, "fusion_lat": 0.0, "type": "electric_scooter"}, {"fusion_lon": 0.0, "name": "ea5c915e08bf37480a20a34e31ebfd1a", "rental_uris": {"android": "https://dc.lft.to/lastmile_qr_scan", "ios": "https://dc.lft.to/lastmile_qr_scan"}, "lat": 38.879035333333334, "bike_id": "ea5c915e08bf37480a20a34e31ebfd1a", "is_disabled": 0, "lon": -76.98668266666667, "is_reserved": 0, "fusion_lat": 0.0, "type": "electric_scooter"}, {"fusion_lon": 0.0, "name": "91606d47f77c67db4459c56cecbe2d12", "rental_uris": {"android": "https://dc.lft.to/lastmile_qr_scan", "ios": "https://dc.lft.to/lastmile_qr_scan"}, "lat": 38.9056055, "bike_id": "91606d47f77c67db4459c56cecbe2d12", "is_disabled": 0, "lon": -77.034799, "is_reserved": 0, "fusion_lat": 0.0, "type": "electric_scooter"}, {"fusion_lon": 0.0, "name": "a215299d8788d757f2dcc9d93cf25b58", "rental_uris": {"android": "https://dc.lft.to/lastmile_qr_scan", "ios": "https://dc.lft.to/lastmile_qr_scan"}, "lat": 38.9206775, "bike_id": "a215299d8788d757f2dcc9d93cf25b58", "is_disabled": 0, "lon": -77.042481, "is_reserved": 0, "fusion_lat": 0.0, "type": "electric_scooter"}, {"fusion_lon": 0.0, "name": "07abdca2d1b608c434ca842bd103b32b", "rental_uris": {"android": "https://dc.lft.to/lastmile_qr_scan", "ios": "https://dc.lft.to/lastmile_qr_scan"}, "lat": 38.89521283333333, "bike_id": "07abdca2d1b608c434ca842bd103b32b", "is_disabled": 0, "lon": -76.992084, "is_reserved": 0, "fusion_lat": 0.0, "type": "electric_scooter"}, {"fusion_lon": 0.0, "name": "c6a657f518c200398fd59e5b17adbbbf", "rental_uris": {"android": "https://dc.lft.to/lastmile_qr_scan", "ios": "https://dc.lft.to/lastmile_qr_scan"}, "lat": 39.02544666666667, "bike_id": "c6a657f518c200398fd59e5b17adbbbf", "is_disabled": 0, "lon": -77.04447883333333, "is_reserved": 0, "fusion_lat": 0.0, "type": "electric_bike"}, {"fusion_lon": 0.0, "name": "baecc29a8d2babc5216c331dc56fc129", "rental_uris": {"android": "https://dc.lft.to/lastmile_qr_scan", "ios": "https://dc.lft.to/lastmile_qr_scan"}, "lat": 38.89742583333334, "bike_id": "baecc29a8d2babc5216c331dc56fc129", "is_disabled": 0, "lon": -76.975768, "is_reserved": 0, "fusion_lat": 0.0, "type": "electric_scooter"}, {"fusion_lon": 0.0, "name": "bb28c2edb9355fdae12884ec50e48838", "rental_uris": {"android": "https://dc.lft.to/lastmile_qr_scan", "ios": "https://dc.lft.to/lastmile_qr_scan"}, "lat": 38.937422166666664, "bike_id": "bb28c2edb9355fdae12884ec50e48838", "is_disabled": 0, "lon": -77.0326665, "is_reserved": 0, "fusion_lat": 0.0, "type": "electric_scooter"}, {"fusion_lon": 0.0, "name": "997259733e9f6bf7d456295c66ec7600", "rental_uris": {"android": "https://dc.lft.to/lastmile_qr_scan", "ios": "https://dc.lft.to/lastmile_qr_scan"}, "lat": 38.92892, "bike_id": "997259733e9f6bf7d456295c66ec7600", "is_disabled": 0, "lon": -77.01415683333333, "is_reserved": 0, "fusion_lat": 0.0, "type": "electric_scooter"}, {"fusion_lon": 0.0, "name": "6dc678bf24b4a7957e6ecd0c6796146c", "rental_uris": {"android": "https://dc.lft.to/lastmile_qr_scan", "ios": "https://dc.lft.to/lastmile_qr_scan"}, "lat": 38.915956666666666, "bike_id": "6dc678bf24b4a7957e6ecd0c6796146c", "is_disabled": 0, "lon": -77.04171833333334, "is_reserved": 0, "fusion_lat": 0.0, "type": "electric_scooter"}, {"fusion_lon": 0.0, "name": "201422cc738332d93434fec9b2f03d3e", "rental_uris": {"android": "https://dc.lft.to/lastmile_qr_scan", "ios": "https://dc.lft.to/lastmile_qr_scan"}, "lat": 38.915809, "bike_id": "201422cc738332d93434fec9b2f03d3e", "is_disabled": 0, "lon": -77.046925, "is_reserved": 0, "fusion_lat": 0.0, "type": "electric_scooter"}, {"fusion_lon": 0.0, "name": "e52351210136a510a5624aa09c81d597", "rental_uris": {"android": "https://dc.lft.to/lastmile_qr_scan", "ios": "https://dc.lft.to/lastmile_qr_scan"}, "lat": 38.94185316666667, "bike_id": "e52351210136a510a5624aa09c81d597", "is_disabled": 0, "lon": -77.02488716666667, "is_reserved": 0, "fusion_lat": 0.0, "type": "electric_scooter"}, {"fusion_lon": 0.0, "name": "0f6c96e22b2a7aa6caeb67643e02e887", "rental_uris": {"android": "https://dc.lft.to/lastmile_qr_scan", "ios": "https://dc.lft.to/lastmile_qr_scan"}, "lat": 38.8718345, "bike_id": "0f6c96e22b2a7aa6caeb67643e02e887", "is_disabled": 0, "lon": -77.00642416666666, "is_reserved": 0, "fusion_lat": 0.0, "type": "electric_scooter"}, {"fusion_lon": 0.0, "name": "5bbf1692c63f142e4884bb23d4e06c34", "rental_uris": {"android": "https://dc.lft.to/lastmile_qr_scan", "ios": "https://dc.lft.to/lastmile_qr_scan"}, "lat": 38.906462833333336, "bike_id": "5bbf1692c63f142e4884bb23d4e06c34", "is_disabled": 0, "lon": -77.01428183333333, "is_reserved": 0, "fusion_lat": 0.0, "type": "electric_scooter"}, {"fusion_lon": 0.0, "name": "50b82ffd4cce5e506280cf69fb373db9", "rental_uris": {"android": "https://dc.lft.to/lastmile_qr_scan", "ios": "https://dc.lft.to/lastmile_qr_scan"}, "lat": 38.9206115, "bike_id": "50b82ffd4cce5e506280cf69fb373db9", "is_disabled": 0, "lon": -77.03297683333334, "is_reserved": 0, "fusion_lat": 0.0, "type": "electric_scooter"}, {"fusion_lon": 0.0, "name": "539943a799ed471ff28413f07d6fab11", "rental_uris": {"android": "https://dc.lft.to/lastmile_qr_scan", "ios": "https://dc.lft.to/lastmile_qr_scan"}, "lat": 38.884983, "bike_id": "539943a799ed471ff28413f07d6fab11", "is_disabled": 0, "lon": -77.03351466666666, "is_reserved": 0, "fusion_lat": 0.0, "type": "electric_scooter"}, {"fusion_lon": 0.0, "name": "6a3280f7cc8ab31f5fe2aaaca0a16fb1", "rental_uris": {"android": "https://dc.lft.to/lastmile_qr_scan", "ios": "https://dc.lft.to/lastmile_qr_scan"}, "lat": 38.922321, "bike_id": "6a3280f7cc8ab31f5fe2aaaca0a16fb1", "is_disabled": 0, "lon": -76.97531916666667, "is_reserved": 0, "fusion_lat": 0.0, "type": "electric_scooter"}, {"fusion_lon": 0.0, "name": "5509343a14a898dfbd02ac7069502ff3", "rental_uris": {"android": "https://dc.lft.to/lastmile_qr_scan", "ios": "https://dc.lft.to/lastmile_qr_scan"}, "lat": 38.91181816666667, "bike_id": "5509343a14a898dfbd02ac7069502ff3", "is_disabled": 0, "lon": -77.06093216666666, "is_reserved": 0, "fusion_lat": 0.0, "type": "electric_scooter"}, {"fusion_lon": 0.0, "name": "6ccb01a05e81ff3631a724199e8ae7ab", "rental_uris": {"android": "https://dc.lft.to/lastmile_qr_scan", "ios": "https://dc.lft.to/lastmile_qr_scan"}, "lat": 38.910101, "bike_id": "6ccb01a05e81ff3631a724199e8ae7ab", "is_disabled": 0, "lon": -77.02095216666666, "is_reserved": 0, "fusion_lat": 0.0, "type": "electric_scooter"}, {"fusion_lon": 0.0, "name": "052580c6444021abb82627593c52aeec", "rental_uris": {"android": "https://dc.lft.to/lastmile_qr_scan", "ios": "https://dc.lft.to/lastmile_qr_scan"}, "lat": 38.907018666666666, "bike_id": "052580c6444021abb82627593c52aeec", "is_disabled": 0, "lon": -76.987081, "is_reserved": 0, "fusion_lat": 0.0, "type": "electric_scooter"}, {"fusion_lon": 0.0, "name": "1abc82521527260c960c69b3882f491f", "rental_uris": {"android": "https://dc.lft.to/lastmile_qr_scan", "ios": "https://dc.lft.to/lastmile_qr_scan"}, "lat": 38.912672, "bike_id": "1abc82521527260c960c69b3882f491f", "is_disabled": 0, "lon": -77.02211283333334, "is_reserved": 0, "fusion_lat": 0.0, "type": "electric_scooter"}, {"fusion_lon": 0.0, "name": "5e0d3bb080bc91a2cae6c2d68d646238", "rental_uris": {"android": "https://dc.lft.to/lastmile_qr_scan", "ios": "https://dc.lft.to/lastmile_qr_scan"}, "lat": 38.8971975, "bike_id": "5e0d3bb080bc91a2cae6c2d68d646238", "is_disabled": 0, "lon": -77.027518, "is_reserved": 0, "fusion_lat": 0.0, "type": "electric_scooter"}, {"fusion_lon": 0.0, "name": "492693c6495f468a52f9888262496bf0", "rental_uris": {"android": "https://dc.lft.to/lastmile_qr_scan", "ios": "https://dc.lft.to/lastmile_qr_scan"}, "lat": 38.8918425, "bike_id": "492693c6495f468a52f9888262496bf0", "is_disabled": 0, "lon": -76.93595533333334, "is_reserved": 0, "fusion_lat": 0.0, "type": "electric_scooter"}, {"fusion_lon": 0.0, "name": "74be12871dad325e06559c1622e84d3b", "rental_uris": {"android": "https://dc.lft.to/lastmile_qr_scan", "ios": "https://dc.lft.to/lastmile_qr_scan"}, "lat": 38.90187866666667, "bike_id": "74be12871dad325e06559c1622e84d3b", "is_disabled": 0, "lon": -76.98836316666667, "is_reserved": 0, "fusion_lat": 0.0, "type": "electric_scooter"}, {"fusion_lon": 0.0, "name": "476ee121ae07367883d64171bbecf125", "rental_uris": {"android": "https://dc.lft.to/lastmile_qr_scan", "ios": "https://dc.lft.to/lastmile_qr_scan"}, "lat": 38.928945, "bike_id": "476ee121ae07367883d64171bbecf125", "is_disabled": 0, "lon": -77.01412066666667, "is_reserved": 0, "fusion_lat": 0.0, "type": "electric_scooter"}, {"fusion_lon": 0.0, "name": "5f05bffe4cc8a1ea7c4de82524ef00b8", "rental_uris": {"android": "https://dc.lft.to/lastmile_qr_scan", "ios": "https://dc.lft.to/lastmile_qr_scan"}, "lat": 38.918454, "bike_id": "5f05bffe4cc8a1ea7c4de82524ef00b8", "is_disabled": 0, "lon": -77.03859766666666, "is_reserved": 0, "fusion_lat": 0.0, "type": "electric_scooter"}, {"fusion_lon": 0.0, "name": "3754d21aed3cb7c9f63bbd0bb8d5b33a", "rental_uris": {"android": "https://dc.lft.to/lastmile_qr_scan", "ios": "https://dc.lft.to/lastmile_qr_scan"}, "lat": 38.8904375, "bike_id": "3754d21aed3cb7c9f63bbd0bb8d5b33a", "is_disabled": 0, "lon": -76.99012316666666, "is_reserved": 0, "fusion_lat": 0.0, "type": "electric_scooter"}, {"fusion_lon": 0.0, "name": "0533087d211acd28094e5f213be34c83", "rental_uris": {"android": "https://dc.lft.to/lastmile_qr_scan", "ios": "https://dc.lft.to/lastmile_qr_scan"}, "lat": 38.9056305, "bike_id": "0533087d211acd28094e5f213be34c83", "is_disabled": 0, "lon": -77.0276575, "is_reserved": 0, "fusion_lat": 0.0, "type": "electric_scooter"}, {"fusion_lon": 0.0, "name": "b53bb56a3cec10bb1c25ca72324b6ef4", "rental_uris": {"android": "https://dc.lft.to/lastmile_qr_scan", "ios": "https://dc.lft.to/lastmile_qr_scan"}, "lat": 38.922759166666665, "bike_id": "b53bb56a3cec10bb1c25ca72324b6ef4", "is_disabled": 0, "lon": -77.029626, "is_reserved": 0, "fusion_lat": 0.0, "type": "electric_scooter"}, {"fusion_lon": 0.0, "name": "9f56d376989513d6d9ec961a35c86701", "rental_uris": {"android": "https://dc.lft.to/lastmile_qr_scan", "ios": "https://dc.lft.to/lastmile_qr_scan"}, "lat": 38.923625333333334, "bike_id": "9f56d376989513d6d9ec961a35c86701", "is_disabled": 0, "lon": -77.0502645, "is_reserved": 0, "fusion_lat": 0.0, "type": "electric_scooter"}, {"fusion_lon": 0.0, "name": "96cac546c6468c13aa967735d8003a5f", "rental_uris": {"android": "https://dc.lft.to/lastmile_qr_scan", "ios": "https://dc.lft.to/lastmile_qr_scan"}, "lat": 38.89198433333333, "bike_id": "96cac546c6468c13aa967735d8003a5f", "is_disabled": 0, "lon": -76.9938445, "is_reserved": 0, "fusion_lat": 0.0, "type": "electric_scooter"}, {"fusion_lon": 0.0, "name": "3e476e47b5a1d05fe5859dc3546bfc8f", "rental_uris": {"android": "https://dc.lft.to/lastmile_qr_scan", "ios": "https://dc.lft.to/lastmile_qr_scan"}, "lat": 38.933074500000004, "bike_id": "3e476e47b5a1d05fe5859dc3546bfc8f", "is_disabled": 0, "lon": -77.03265583333334, "is_reserved": 0, "fusion_lat": 0.0, "type": "electric_scooter"}, {"fusion_lon": 0.0, "name": "3672d0a0d9bbfdf852da3ff6e98cd030", "rental_uris": {"android": "https://dc.lft.to/lastmile_qr_scan", "ios": "https://dc.lft.to/lastmile_qr_scan"}, "lat": 38.91053766666667, "bike_id": "3672d0a0d9bbfdf852da3ff6e98cd030", "is_disabled": 0, "lon": -77.05320033333334, "is_reserved": 0, "fusion_lat": 0.0, "type": "electric_scooter"}, {"fusion_lon": 0.0, "name": "a54667c6bd1afa802bf5614b0e5e3b5a", "rental_uris": {"android": "https://dc.lft.to/lastmile_qr_scan", "ios": "https://dc.lft.to/lastmile_qr_scan"}, "lat": 38.896308166666664, "bike_id": "a54667c6bd1afa802bf5614b0e5e3b5a", "is_disabled": 0, "lon": -77.03192683333333, "is_reserved": 0, "fusion_lat": 0.0, "type": "electric_scooter"}, {"fusion_lon": 0.0, "name": "40aa74324753ddb719d1bb93b016191c", "rental_uris": {"android": "https://dc.lft.to/lastmile_qr_scan", "ios": "https://dc.lft.to/lastmile_qr_scan"}, "lat": 38.94346016666667, "bike_id": "40aa74324753ddb719d1bb93b016191c", "is_disabled": 0, "lon": -77.06131416666666, "is_reserved": 0, "fusion_lat": 0.0, "type": "electric_scooter"}, {"fusion_lon": 0.0, "name": "c9b1c464e723feee00ec67bb6d1e79d6", "rental_uris": {"android": "https://dc.lft.to/lastmile_qr_scan", "ios": "https://dc.lft.to/lastmile_qr_scan"}, "lat": 38.89310566666666, "bike_id": "c9b1c464e723feee00ec67bb6d1e79d6", "is_disabled": 0, "lon": -76.93971833333333, "is_reserved": 0, "fusion_lat": 0.0, "type": "electric_scooter"}, {"fusion_lon": 0.0, "name": "89405a633338eaa3a176d4a79ab61071", "rental_uris": {"android": "https://dc.lft.to/lastmile_qr_scan", "ios": "https://dc.lft.to/lastmile_qr_scan"}, "lat": 38.939772166666664, "bike_id": "89405a633338eaa3a176d4a79ab61071", "is_disabled": 0, "lon": -77.0284275, "is_reserved": 0, "fusion_lat": 0.0, "type": "electric_scooter"}, {"fusion_lon": 0.0, "name": "c3e846c1e5d344bc9eb7e4d573e290b9", "rental_uris": {"android": "https://dc.lft.to/lastmile_qr_scan", "ios": "https://dc.lft.to/lastmile_qr_scan"}, "lat": 38.923604, "bike_id": "c3e846c1e5d344bc9eb7e4d573e290b9", "is_disabled": 0, "lon": -77.0513225, "is_reserved": 0, "fusion_lat": 0.0, "type": "electric_scooter"}, {"fusion_lon": 0.0, "name": "4529a1ca7306ef74a86f1d927a17f8a1", "rental_uris": {"android": "https://dc.lft.to/lastmile_qr_scan", "ios": "https://dc.lft.to/lastmile_qr_scan"}, "lat": 38.84757316666666, "bike_id": "4529a1ca7306ef74a86f1d927a17f8a1", "is_disabled": 0, "lon": -77.05370616666667, "is_reserved": 0, "fusion_lat": 0.0, "type": "electric_bike"}, {"fusion_lon": 0.0, "name": "725ef6fe6e098405e87c36768d0f9fb2", "rental_uris": {"android": "https://dc.lft.to/lastmile_qr_scan", "ios": "https://dc.lft.to/lastmile_qr_scan"}, "lat": 38.875346, "bike_id": "725ef6fe6e098405e87c36768d0f9fb2", "is_disabled": 0, "lon": -77.01742616666667, "is_reserved": 0, "fusion_lat": 0.0, "type": "electric_scooter"}, {"fusion_lon": 0.0, "name": "1f9ddb0b240494ad42f970f0dfdc6086", "rental_uris": {"android": "https://dc.lft.to/lastmile_qr_scan", "ios": "https://dc.lft.to/lastmile_qr_scan"}, "lat": 38.894930333333335, "bike_id": "1f9ddb0b240494ad42f970f0dfdc6086", "is_disabled": 0, "lon": -76.948922, "is_reserved": 0, "fusion_lat": 0.0, "type": "electric_scooter"}, {"fusion_lon": 0.0, "name": "7b9ae756e1dee408151c98ca51f46ef9", "rental_uris": {"android": "https://dc.lft.to/lastmile_qr_scan", "ios": "https://dc.lft.to/lastmile_qr_scan"}, "lat": 38.895692333333336, "bike_id": "7b9ae756e1dee408151c98ca51f46ef9", "is_disabled": 0, "lon": -77.02162116666666, "is_reserved": 0, "fusion_lat": 0.0, "type": "electric_scooter"}, {"fusion_lon": 0.0, "name": "0f23a348a54ada7134489422c6cdcc9a", "rental_uris": {"android": "https://dc.lft.to/lastmile_qr_scan", "ios": "https://dc.lft.to/lastmile_qr_scan"}, "lat": 38.920788333333334, "bike_id": "0f23a348a54ada7134489422c6cdcc9a", "is_disabled": 0, "lon": -77.0230625, "is_reserved": 0, "fusion_lat": 0.0, "type": "electric_scooter"}, {"fusion_lon": 0.0, "name": "1428297a57799de87bc237f6dad6addc", "rental_uris": {"android": "https://dc.lft.to/lastmile_qr_scan", "ios": "https://dc.lft.to/lastmile_qr_scan"}, "lat": 38.938955, "bike_id": "1428297a57799de87bc237f6dad6addc", "is_disabled": 0, "lon": -77.01765416666667, "is_reserved": 0, "fusion_lat": 0.0, "type": "electric_scooter"}, {"fusion_lon": 0.0, "name": "734e360bb9e37bdbaaa78fc16ec16c01", "rental_uris": {"android": "https://dc.lft.to/lastmile_qr_scan", "ios": "https://dc.lft.to/lastmile_qr_scan"}, "lat": 38.9234575, "bike_id": "734e360bb9e37bdbaaa78fc16ec16c01", "is_disabled": 0, "lon": -77.03413, "is_reserved": 0, "fusion_lat": 0.0, "type": "electric_scooter"}, {"fusion_lon": 0.0, "name": "146ee6e85cd2f5136b8b7bfb30d1da09", "rental_uris": {"android": "https://dc.lft.to/lastmile_qr_scan", "ios": "https://dc.lft.to/lastmile_qr_scan"}, "lat": 38.90975183333333, "bike_id": "146ee6e85cd2f5136b8b7bfb30d1da09", "is_disabled": 0, "lon": -77.03388766666667, "is_reserved": 0, "fusion_lat": 0.0, "type": "electric_scooter"}, {"fusion_lon": 0.0, "name": "9edc3c31d8410b5eebfde5af73699c97", "rental_uris": {"android": "https://dc.lft.to/lastmile_qr_scan", "ios": "https://dc.lft.to/lastmile_qr_scan"}, "lat": 38.96024116666667, "bike_id": "9edc3c31d8410b5eebfde5af73699c97", "is_disabled": 0, "lon": -77.02428233333333, "is_reserved": 0, "fusion_lat": 0.0, "type": "electric_scooter"}, {"fusion_lon": 0.0, "name": "72a8bab9beeccc1b94a16f798ddc6a0b", "rental_uris": {"android": "https://dc.lft.to/lastmile_qr_scan", "ios": "https://dc.lft.to/lastmile_qr_scan"}, "lat": 38.8882265, "bike_id": "72a8bab9beeccc1b94a16f798ddc6a0b", "is_disabled": 0, "lon": -76.9770285, "is_reserved": 0, "fusion_lat": 0.0, "type": "electric_scooter"}, {"fusion_lon": 0.0, "name": "211192214c0fbf50116c5a43e5953d21", "rental_uris": {"android": "https://dc.lft.to/lastmile_qr_scan", "ios": "https://dc.lft.to/lastmile_qr_scan"}, "lat": 38.93146933333333, "bike_id": "211192214c0fbf50116c5a43e5953d21", "is_disabled": 0, "lon": -77.05696383333333, "is_reserved": 0, "fusion_lat": 0.0, "type": "electric_scooter"}, {"fusion_lon": 0.0, "name": "d71c48727ac48281bcd6b6f6bdd8747f", "rental_uris": {"android": "https://dc.lft.to/lastmile_qr_scan", "ios": "https://dc.lft.to/lastmile_qr_scan"}, "lat": 38.949862, "bike_id": "d71c48727ac48281bcd6b6f6bdd8747f", "is_disabled": 0, "lon": -77.06665166666667, "is_reserved": 0, "fusion_lat": 0.0, "type": "electric_scooter"}, {"fusion_lon": 0.0, "name": "a079b9d1d2bb767346f8f9586c30fd6a", "rental_uris": {"android": "https://dc.lft.to/lastmile_qr_scan", "ios": "https://dc.lft.to/lastmile_qr_scan"}, "lat": 38.883709, "bike_id": "a079b9d1d2bb767346f8f9586c30fd6a", "is_disabled": 0, "lon": -77.013683, "is_reserved": 0, "fusion_lat": 0.0, "type": "electric_scooter"}, {"fusion_lon": 0.0, "name": "33b07df776cbbb02a5eadc04462d8b90", "rental_uris": {"android": "https://dc.lft.to/lastmile_qr_scan", "ios": "https://dc.lft.to/lastmile_qr_scan"}, "lat": 38.91329833333333, "bike_id": "33b07df776cbbb02a5eadc04462d8b90", "is_disabled": 0, "lon": -77.03184733333333, "is_reserved": 0, "fusion_lat": 0.0, "type": "electric_scooter"}, {"fusion_lon": 0.0, "name": "7a27f1e8b844e704c46ce6fd49972dbd", "rental_uris": {"android": "https://dc.lft.to/lastmile_qr_scan", "ios": "https://dc.lft.to/lastmile_qr_scan"}, "lat": 38.855745, "bike_id": "7a27f1e8b844e704c46ce6fd49972dbd", "is_disabled": 0, "lon": -76.974107, "is_reserved": 0, "fusion_lat": 0.0, "type": "electric_bike"}, {"fusion_lon": 0.0, "name": "81acb2b687f2729d2107e4397f5d4ccb", "rental_uris": {"android": "https://dc.lft.to/lastmile_qr_scan", "ios": "https://dc.lft.to/lastmile_qr_scan"}, "lat": 38.930312, "bike_id": "81acb2b687f2729d2107e4397f5d4ccb", "is_disabled": 0, "lon": -77.05555716666667, "is_reserved": 0, "fusion_lat": 0.0, "type": "electric_scooter"}, {"fusion_lon": 0.0, "name": "31bc2e02413ab7f77d5c31b78d2d68be", "rental_uris": {"android": "https://dc.lft.to/lastmile_qr_scan", "ios": "https://dc.lft.to/lastmile_qr_scan"}, "lat": 38.92006833333333, "bike_id": "31bc2e02413ab7f77d5c31b78d2d68be", "is_disabled": 0, "lon": -76.98504466666667, "is_reserved": 0, "fusion_lat": 0.0, "type": "electric_scooter"}, {"fusion_lon": 0.0, "name": "178a4cde90bd67f173d03a55bda2f4e0", "rental_uris": {"android": "https://dc.lft.to/lastmile_qr_scan", "ios": "https://dc.lft.to/lastmile_qr_scan"}, "lat": 38.8819885, "bike_id": "178a4cde90bd67f173d03a55bda2f4e0", "is_disabled": 0, "lon": -77.02855866666667, "is_reserved": 0, "fusion_lat": 0.0, "type": "electric_scooter"}, {"fusion_lon": 0.0, "name": "5e9f21b815556697cf962f99a4ed4923", "rental_uris": {"android": "https://dc.lft.to/lastmile_qr_scan", "ios": "https://dc.lft.to/lastmile_qr_scan"}, "lat": 38.91340366666667, "bike_id": "5e9f21b815556697cf962f99a4ed4923", "is_disabled": 0, "lon": -77.03991783333333, "is_reserved": 0, "fusion_lat": 0.0, "type": "electric_scooter"}, {"fusion_lon": 0.0, "name": "0c4087d993712dab3728f2418535597e", "rental_uris": {"android": "https://dc.lft.to/lastmile_qr_scan", "ios": "https://dc.lft.to/lastmile_qr_scan"}, "lat": 38.94316, "bike_id": "0c4087d993712dab3728f2418535597e", "is_disabled": 0, "lon": -76.990203, "is_reserved": 0, "fusion_lat": 0.0, "type": "electric_bike"}, {"fusion_lon": 0.0, "name": "48e03a31877313a2d79d9d2df62824ba", "rental_uris": {"android": "https://dc.lft.to/lastmile_qr_scan", "ios": "https://dc.lft.to/lastmile_qr_scan"}, "lat": 38.80656466666667, "bike_id": "48e03a31877313a2d79d9d2df62824ba", "is_disabled": 0, "lon": -77.0876035, "is_reserved": 0, "fusion_lat": 0.0, "type": "electric_bike"}, {"fusion_lon": 0.0, "name": "8a982ce946c730b7868b8f9a4b1304d5", "rental_uris": {"android": "https://dc.lft.to/lastmile_qr_scan", "ios": "https://dc.lft.to/lastmile_qr_scan"}, "lat": 38.915206, "bike_id": "8a982ce946c730b7868b8f9a4b1304d5", "is_disabled": 0, "lon": -77.0198445, "is_reserved": 0, "fusion_lat": 0.0, "type": "electric_scooter"}, {"fusion_lon": 0.0, "name": "b98551c9f05c6d8ba6bf431ddb1bba18", "rental_uris": {"android": "https://dc.lft.to/lastmile_qr_scan", "ios": "https://dc.lft.to/lastmile_qr_scan"}, "lat": 38.912694333333334, "bike_id": "b98551c9f05c6d8ba6bf431ddb1bba18", "is_disabled": 0, "lon": -77.02208633333333, "is_reserved": 0, "fusion_lat": 0.0, "type": "electric_scooter"}, {"fusion_lon": 0.0, "name": "6a80968ecf7e05409aea0e6a280f9590", "rental_uris": {"android": "https://dc.lft.to/lastmile_qr_scan", "ios": "https://dc.lft.to/lastmile_qr_scan"}, "lat": 38.93643333333333, "bike_id": "6a80968ecf7e05409aea0e6a280f9590", "is_disabled": 0, "lon": -77.0600165, "is_reserved": 0, "fusion_lat": 0.0, "type": "electric_scooter"}, {"fusion_lon": 0.0, "name": "b04572d77bfc5e98e6df601068f77786", "rental_uris": {"android": "https://dc.lft.to/lastmile_qr_scan", "ios": "https://dc.lft.to/lastmile_qr_scan"}, "lat": 38.92379016666667, "bike_id": "b04572d77bfc5e98e6df601068f77786", "is_disabled": 0, "lon": -77.02121166666667, "is_reserved": 0, "fusion_lat": 0.0, "type": "electric_scooter"}, {"fusion_lon": 0.0, "name": "5d4b1c72441715ac54fd5451d485042a", "rental_uris": {"android": "https://dc.lft.to/lastmile_qr_scan", "ios": "https://dc.lft.to/lastmile_qr_scan"}, "lat": 38.897385166666666, "bike_id": "5d4b1c72441715ac54fd5451d485042a", "is_disabled": 0, "lon": -77.02203833333333, "is_reserved": 0, "fusion_lat": 0.0, "type": "electric_scooter"}, {"fusion_lon": 0.0, "name": "4825d6f732d9617b196654f26156d4d2", "rental_uris": {"android": "https://dc.lft.to/lastmile_qr_scan", "ios": "https://dc.lft.to/lastmile_qr_scan"}, "lat": 38.897156, "bike_id": "4825d6f732d9617b196654f26156d4d2", "is_disabled": 0, "lon": -76.9911685, "is_reserved": 0, "fusion_lat": 0.0, "type": "electric_scooter"}, {"fusion_lon": 0.0, "name": "0544230f006f87dfd0ddd0cbb76138e4", "rental_uris": {"android": "https://dc.lft.to/lastmile_qr_scan", "ios": "https://dc.lft.to/lastmile_qr_scan"}, "lat": 38.8989655, "bike_id": "0544230f006f87dfd0ddd0cbb76138e4", "is_disabled": 0, "lon": -77.03281666666666, "is_reserved": 0, "fusion_lat": 0.0, "type": "electric_scooter"}, {"fusion_lon": 0.0, "name": "576821f0a0b80e1e5343b3d041341369", "rental_uris": {"android": "https://dc.lft.to/lastmile_qr_scan", "ios": "https://dc.lft.to/lastmile_qr_scan"}, "lat": 39.09439416666667, "bike_id": "576821f0a0b80e1e5343b3d041341369", "is_disabled": 0, "lon": -77.134585, "is_reserved": 0, "fusion_lat": 0.0, "type": "electric_bike"}, {"fusion_lon": 0.0, "name": "55888b5c5e65a5a0d45083acc52eb015", "rental_uris": {"android": "https://dc.lft.to/lastmile_qr_scan", "ios": "https://dc.lft.to/lastmile_qr_scan"}, "lat": 38.915676833333336, "bike_id": "55888b5c5e65a5a0d45083acc52eb015", "is_disabled": 0, "lon": -77.04439716666667, "is_reserved": 0, "fusion_lat": 0.0, "type": "electric_scooter"}, {"fusion_lon": 0.0, "name": "69629dcfa838fabcded8b14af18599ef", "rental_uris": {"android": "https://dc.lft.to/lastmile_qr_scan", "ios": "https://dc.lft.to/lastmile_qr_scan"}, "lat": 38.9426555, "bike_id": "69629dcfa838fabcded8b14af18599ef", "is_disabled": 0, "lon": -77.028412, "is_reserved": 0, "fusion_lat": 0.0, "type": "electric_scooter"}, {"fusion_lon": 0.0, "name": "250090d23989dbca888ac0df91016156", "rental_uris": {"android": "https://dc.lft.to/lastmile_qr_scan", "ios": "https://dc.lft.to/lastmile_qr_scan"}, "lat": 38.919149166666664, "bike_id": "250090d23989dbca888ac0df91016156", "is_disabled": 0, "lon": -77.013637, "is_reserved": 0, "fusion_lat": 0.0, "type": "electric_scooter"}, {"fusion_lon": 0.0, "name": "a62c97831b380b10d9cdbd22973bb202", "rental_uris": {"android": "https://dc.lft.to/lastmile_qr_scan", "ios": "https://dc.lft.to/lastmile_qr_scan"}, "lat": 38.883865666666665, "bike_id": "a62c97831b380b10d9cdbd22973bb202", "is_disabled": 0, "lon": -76.98551133333333, "is_reserved": 0, "fusion_lat": 0.0, "type": "electric_scooter"}, {"fusion_lon": 0.0, "name": "c9723dc8b5a9d20b2f75a3aceda255c4", "rental_uris": {"android": "https://dc.lft.to/lastmile_qr_scan", "ios": "https://dc.lft.to/lastmile_qr_scan"}, "lat": 38.91692283333333, "bike_id": "c9723dc8b5a9d20b2f75a3aceda255c4", "is_disabled": 0, "lon": -77.03826466666666, "is_reserved": 0, "fusion_lat": 0.0, "type": "electric_scooter"}, {"fusion_lon": 0.0, "name": "9cf2c10a6c21f71662731ad2a427fe00", "rental_uris": {"android": "https://dc.lft.to/lastmile_qr_scan", "ios": "https://dc.lft.to/lastmile_qr_scan"}, "lat": 38.862606166666666, "bike_id": "9cf2c10a6c21f71662731ad2a427fe00", "is_disabled": 0, "lon": -76.99556416666667, "is_reserved": 0, "fusion_lat": 0.0, "type": "electric_scooter"}, {"fusion_lon": 0.0, "name": "b9e8480625c2524d151344ca9894d9b0", "rental_uris": {"android": "https://dc.lft.to/lastmile_qr_scan", "ios": "https://dc.lft.to/lastmile_qr_scan"}, "lat": 38.903184333333336, "bike_id": "b9e8480625c2524d151344ca9894d9b0", "is_disabled": 0, "lon": -76.98141583333333, "is_reserved": 0, "fusion_lat": 0.0, "type": "electric_scooter"}, {"fusion_lon": 0.0, "name": "4112cabbfdea9d641a944472588a3dae", "rental_uris": {"android": "https://dc.lft.to/lastmile_qr_scan", "ios": "https://dc.lft.to/lastmile_qr_scan"}, "lat": 38.91692966666667, "bike_id": "4112cabbfdea9d641a944472588a3dae", "is_disabled": 0, "lon": -77.01575316666667, "is_reserved": 0, "fusion_lat": 0.0, "type": "electric_scooter"}, {"fusion_lon": 0.0, "name": "003874f435e2802befc5f3d3d561e122", "rental_uris": {"android": "https://dc.lft.to/lastmile_qr_scan", "ios": "https://dc.lft.to/lastmile_qr_scan"}, "lat": 38.89534183333333, "bike_id": "003874f435e2802befc5f3d3d561e122", "is_disabled": 0, "lon": -77.01095616666667, "is_reserved": 0, "fusion_lat": 0.0, "type": "electric_scooter"}, {"fusion_lon": 0.0, "name": "63cafa69454a7ef88307b76f324f3e1f", "rental_uris": {"android": "https://dc.lft.to/lastmile_qr_scan", "ios": "https://dc.lft.to/lastmile_qr_scan"}, "lat": 38.9151, "bike_id": "63cafa69454a7ef88307b76f324f3e1f", "is_disabled": 0, "lon": -77.0321135, "is_reserved": 0, "fusion_lat": 0.0, "type": "electric_scooter"}, {"fusion_lon": 0.0, "name": "21e0128ac86bf90d7414966458dabc6d", "rental_uris": {"android": "https://dc.lft.to/lastmile_qr_scan", "ios": "https://dc.lft.to/lastmile_qr_scan"}, "lat": 38.8962155, "bike_id": "21e0128ac86bf90d7414966458dabc6d", "is_disabled": 0, "lon": -76.90752533333334, "is_reserved": 0, "fusion_lat": 0.0, "type": "electric_bike"}, {"fusion_lon": 0.0, "name": "457528db3d357f817ab3a1aa4fe80bcc", "rental_uris": {"android": "https://dc.lft.to/lastmile_qr_scan", "ios": "https://dc.lft.to/lastmile_qr_scan"}, "lat": 38.921166666666664, "bike_id": "457528db3d357f817ab3a1aa4fe80bcc", "is_disabled": 0, "lon": -76.98569166666667, "is_reserved": 0, "fusion_lat": 0.0, "type": "electric_scooter"}, {"fusion_lon": 0.0, "name": "38fba2448f26d3c71905d10ca28309e9", "rental_uris": {"android": "https://dc.lft.to/lastmile_qr_scan", "ios": "https://dc.lft.to/lastmile_qr_scan"}, "lat": 38.9202945, "bike_id": "38fba2448f26d3c71905d10ca28309e9", "is_disabled": 0, "lon": -77.01118616666666, "is_reserved": 0, "fusion_lat": 0.0, "type": "electric_scooter"}, {"fusion_lon": 0.0, "name": "4a3d5df6fe128c11443459911ebb2d47", "rental_uris": {"android": "https://dc.lft.to/lastmile_qr_scan", "ios": "https://dc.lft.to/lastmile_qr_scan"}, "lat": 38.90870483333333, "bike_id": "4a3d5df6fe128c11443459911ebb2d47", "is_disabled": 0, "lon": -77.08596483333334, "is_reserved": 0, "fusion_lat": 0.0, "type": "electric_scooter"}, {"fusion_lon": 0.0, "name": "2356709951bcd04058a6e2c9b5cce7eb", "rental_uris": {"android": "https://dc.lft.to/lastmile_qr_scan", "ios": "https://dc.lft.to/lastmile_qr_scan"}, "lat": 38.9246645, "bike_id": "2356709951bcd04058a6e2c9b5cce7eb", "is_disabled": 0, "lon": -77.02273483333333, "is_reserved": 0, "fusion_lat": 0.0, "type": "electric_scooter"}, {"fusion_lon": 0.0, "name": "763f23517cfa14c80be7ba2e16756377", "rental_uris": {"android": "https://dc.lft.to/lastmile_qr_scan", "ios": "https://dc.lft.to/lastmile_qr_scan"}, "lat": 38.90070016666667, "bike_id": "763f23517cfa14c80be7ba2e16756377", "is_disabled": 0, "lon": -77.044944, "is_reserved": 0, "fusion_lat": 0.0, "type": "electric_scooter"}, {"fusion_lon": 0.0, "name": "17753463bada1c05859b306f5910ed59", "rental_uris": {"android": "https://dc.lft.to/lastmile_qr_scan", "ios": "https://dc.lft.to/lastmile_qr_scan"}, "lat": 38.93102616666667, "bike_id": "17753463bada1c05859b306f5910ed59", "is_disabled": 0, "lon": -77.02663416666667, "is_reserved": 0, "fusion_lat": 0.0, "type": "electric_scooter"}, {"fusion_lon": 0.0, "name": "8178a72bc7e67ffddef5afb27d6317aa", "rental_uris": {"android": "https://dc.lft.to/lastmile_qr_scan", "ios": "https://dc.lft.to/lastmile_qr_scan"}, "lat": 38.844742333333336, "bike_id": "8178a72bc7e67ffddef5afb27d6317aa", "is_disabled": 0, "lon": -76.98752466666667, "is_reserved": 0, "fusion_lat": 0.0, "type": "electric_bike"}, {"fusion_lon": 0.0, "name": "70657e8ef56c83dbb5a86249b23e919e", "rental_uris": {"android": "https://dc.lft.to/lastmile_qr_scan", "ios": "https://dc.lft.to/lastmile_qr_scan"}, "lat": 38.9111135, "bike_id": "70657e8ef56c83dbb5a86249b23e919e", "is_disabled": 0, "lon": -77.0692165, "is_reserved": 0, "fusion_lat": 0.0, "type": "electric_scooter"}, {"fusion_lon": 0.0, "name": "56e0dded3248f4d6027a679f3dbeb439", "rental_uris": {"android": "https://dc.lft.to/lastmile_qr_scan", "ios": "https://dc.lft.to/lastmile_qr_scan"}, "lat": 38.912586833333336, "bike_id": "56e0dded3248f4d6027a679f3dbeb439", "is_disabled": 0, "lon": -77.03177666666667, "is_reserved": 0, "fusion_lat": 0.0, "type": "electric_scooter"}, {"fusion_lon": 0.0, "name": "4c34f0ba4005f2304471233d2145f030", "rental_uris": {"android": "https://dc.lft.to/lastmile_qr_scan", "ios": "https://dc.lft.to/lastmile_qr_scan"}, "lat": 38.91679116666667, "bike_id": "4c34f0ba4005f2304471233d2145f030", "is_disabled": 0, "lon": -77.0228845, "is_reserved": 0, "fusion_lat": 0.0, "type": "electric_scooter"}, {"fusion_lon": 0.0, "name": "5b84ede74cd63f0686a641737aa7f708", "rental_uris": {"android": "https://dc.lft.to/lastmile_qr_scan", "ios": "https://dc.lft.to/lastmile_qr_scan"}, "lat": 38.908519166666665, "bike_id": "5b84ede74cd63f0686a641737aa7f708", "is_disabled": 0, "lon": -77.00217883333333, "is_reserved": 0, "fusion_lat": 0.0, "type": "electric_scooter"}, {"fusion_lon": 0.0, "name": "1256b44807b605438b833c0eec6a3be0", "rental_uris": {"android": "https://dc.lft.to/lastmile_qr_scan", "ios": "https://dc.lft.to/lastmile_qr_scan"}, "lat": 38.914228, "bike_id": "1256b44807b605438b833c0eec6a3be0", "is_disabled": 0, "lon": -77.018003, "is_reserved": 0, "fusion_lat": 0.0, "type": "electric_scooter"}, {"fusion_lon": 0.0, "name": "846c5ae43341a6fb30f15d4491adfe02", "rental_uris": {"android": "https://dc.lft.to/lastmile_qr_scan", "ios": "https://dc.lft.to/lastmile_qr_scan"}, "lat": 38.915586833333336, "bike_id": "846c5ae43341a6fb30f15d4491adfe02", "is_disabled": 0, "lon": -77.03248883333333, "is_reserved": 0, "fusion_lat": 0.0, "type": "electric_scooter"}, {"fusion_lon": 0.0, "name": "a164328d2cc49cbd5bd9b1d2f3855656", "rental_uris": {"android": "https://dc.lft.to/lastmile_qr_scan", "ios": "https://dc.lft.to/lastmile_qr_scan"}, "lat": 38.9438285, "bike_id": "a164328d2cc49cbd5bd9b1d2f3855656", "is_disabled": 0, "lon": -77.06025033333333, "is_reserved": 0, "fusion_lat": 0.0, "type": "electric_scooter"}, {"fusion_lon": 0.0, "name": "bb25472abf377a0ea12f7e81da925302", "rental_uris": {"android": "https://dc.lft.to/lastmile_qr_scan", "ios": "https://dc.lft.to/lastmile_qr_scan"}, "lat": 38.9098175, "bike_id": "bb25472abf377a0ea12f7e81da925302", "is_disabled": 0, "lon": -77.00900783333333, "is_reserved": 0, "fusion_lat": 0.0, "type": "electric_scooter"}, {"fusion_lon": 0.0, "name": "6ae6939df86121c6c699c7b1b7dd47fa", "rental_uris": {"android": "https://dc.lft.to/lastmile_qr_scan", "ios": "https://dc.lft.to/lastmile_qr_scan"}, "lat": 38.886130333333334, "bike_id": "6ae6939df86121c6c699c7b1b7dd47fa", "is_disabled": 0, "lon": -76.99572966666666, "is_reserved": 0, "fusion_lat": 0.0, "type": "electric_scooter"}, {"fusion_lon": 0.0, "name": "a081bb3a3ff8318adceec735149573c7", "rental_uris": {"android": "https://dc.lft.to/lastmile_qr_scan", "ios": "https://dc.lft.to/lastmile_qr_scan"}, "lat": 38.908905, "bike_id": "a081bb3a3ff8318adceec735149573c7", "is_disabled": 0, "lon": -77.04058433333333, "is_reserved": 0, "fusion_lat": 0.0, "type": "electric_scooter"}, {"fusion_lon": 0.0, "name": "591f70745e16d733da2625d5eaa16792", "rental_uris": {"android": "https://dc.lft.to/lastmile_qr_scan", "ios": "https://dc.lft.to/lastmile_qr_scan"}, "lat": 38.90969833333333, "bike_id": "591f70745e16d733da2625d5eaa16792", "is_disabled": 0, "lon": -77.034237, "is_reserved": 0, "fusion_lat": 0.0, "type": "electric_scooter"}, {"fusion_lon": 0.0, "name": "a3d51fdcd0431b651bd369940c2a06dc", "rental_uris": {"android": "https://dc.lft.to/lastmile_qr_scan", "ios": "https://dc.lft.to/lastmile_qr_scan"}, "lat": 38.90781466666667, "bike_id": "a3d51fdcd0431b651bd369940c2a06dc", "is_disabled": 0, "lon": -77.01829383333333, "is_reserved": 0, "fusion_lat": 0.0, "type": "electric_scooter"}, {"fusion_lon": 0.0, "name": "0a2cab89c969bc57b1bf1c179c4a5fea", "rental_uris": {"android": "https://dc.lft.to/lastmile_qr_scan", "ios": "https://dc.lft.to/lastmile_qr_scan"}, "lat": 38.922319, "bike_id": "0a2cab89c969bc57b1bf1c179c4a5fea", "is_disabled": 0, "lon": -77.04302933333334, "is_reserved": 0, "fusion_lat": 0.0, "type": "electric_scooter"}, {"fusion_lon": 0.0, "name": "de8f7b6ff6016657a58f3c766ff6c60e", "rental_uris": {"android": "https://dc.lft.to/lastmile_qr_scan", "ios": "https://dc.lft.to/lastmile_qr_scan"}, "lat": 38.9183465, "bike_id": "de8f7b6ff6016657a58f3c766ff6c60e", "is_disabled": 0, "lon": -77.05319233333333, "is_reserved": 0, "fusion_lat": 0.0, "type": "electric_scooter"}, {"fusion_lon": 0.0, "name": "841aaacbc3808d93bdab29ba74182d0b", "rental_uris": {"android": "https://dc.lft.to/lastmile_qr_scan", "ios": "https://dc.lft.to/lastmile_qr_scan"}, "lat": 38.922504833333335, "bike_id": "841aaacbc3808d93bdab29ba74182d0b", "is_disabled": 0, "lon": -77.036961, "is_reserved": 0, "fusion_lat": 0.0, "type": "electric_scooter"}, {"fusion_lon": 0.0, "name": "e4ecd367e2c62d259e7ecff44c531830", "rental_uris": {"android": "https://dc.lft.to/lastmile_qr_scan", "ios": "https://dc.lft.to/lastmile_qr_scan"}, "lat": 38.93629816666667, "bike_id": "e4ecd367e2c62d259e7ecff44c531830", "is_disabled": 0, "lon": -77.03651883333333, "is_reserved": 0, "fusion_lat": 0.0, "type": "electric_scooter"}, {"fusion_lon": 0.0, "name": "58a07e49c55d8593627da159b1b85e65", "rental_uris": {"android": "https://dc.lft.to/lastmile_qr_scan", "ios": "https://dc.lft.to/lastmile_qr_scan"}, "lat": 38.9265735, "bike_id": "58a07e49c55d8593627da159b1b85e65", "is_disabled": 0, "lon": -77.0383735, "is_reserved": 0, "fusion_lat": 0.0, "type": "electric_scooter"}, {"fusion_lon": 0.0, "name": "5693ac25c592633750e189c458981fff", "rental_uris": {"android": "https://dc.lft.to/lastmile_qr_scan", "ios": "https://dc.lft.to/lastmile_qr_scan"}, "lat": 38.8919335, "bike_id": "5693ac25c592633750e189c458981fff", "is_disabled": 0, "lon": -76.98823333333333, "is_reserved": 0, "fusion_lat": 0.0, "type": "electric_scooter"}, {"fusion_lon": 0.0, "name": "e98b046dcfdcf4f172108f05bdddf450", "rental_uris": {"android": "https://dc.lft.to/lastmile_qr_scan", "ios": "https://dc.lft.to/lastmile_qr_scan"}, "lat": 38.9941485, "bike_id": "e98b046dcfdcf4f172108f05bdddf450", "is_disabled": 0, "lon": -77.017998, "is_reserved": 0, "fusion_lat": 0.0, "type": "electric_bike"}, {"fusion_lon": 0.0, "name": "642bc1db4f33e6509d7c901a6c641b08", "rental_uris": {"android": "https://dc.lft.to/lastmile_qr_scan", "ios": "https://dc.lft.to/lastmile_qr_scan"}, "lat": 38.92903233333333, "bike_id": "642bc1db4f33e6509d7c901a6c641b08", "is_disabled": 0, "lon": -77.024024, "is_reserved": 0, "fusion_lat": 0.0, "type": "electric_bike"}, {"fusion_lon": 0.0, "name": "58b94c664d0e4035367f1e9d1a7c6412", "rental_uris": {"android": "https://dc.lft.to/lastmile_qr_scan", "ios": "https://dc.lft.to/lastmile_qr_scan"}, "lat": 38.90747283333333, "bike_id": "58b94c664d0e4035367f1e9d1a7c6412", "is_disabled": 0, "lon": -77.01534366666667, "is_reserved": 0, "fusion_lat": 0.0, "type": "electric_scooter"}, {"fusion_lon": 0.0, "name": "c1185a2e2c2d1eb0f34f2f8605ecc013", "rental_uris": {"android": "https://dc.lft.to/lastmile_qr_scan", "ios": "https://dc.lft.to/lastmile_qr_scan"}, "lat": 38.900968166666665, "bike_id": "c1185a2e2c2d1eb0f34f2f8605ecc013", "is_disabled": 0, "lon": -77.0071845, "is_reserved": 0, "fusion_lat": 0.0, "type": "electric_scooter"}, {"fusion_lon": 0.0, "name": "341e91a7247ac97830a393fb053d21c5", "rental_uris": {"android": "https://dc.lft.to/lastmile_qr_scan", "ios": "https://dc.lft.to/lastmile_qr_scan"}, "lat": 38.84280966666667, "bike_id": "341e91a7247ac97830a393fb053d21c5", "is_disabled": 0, "lon": -76.98841416666667, "is_reserved": 0, "fusion_lat": 0.0, "type": "electric_bike"}, {"fusion_lon": 0.0, "name": "f4d6447bf869dc3b615bedb3aeccdeee", "rental_uris": {"android": "https://dc.lft.to/lastmile_qr_scan", "ios": "https://dc.lft.to/lastmile_qr_scan"}, "lat": 38.9014185, "bike_id": "f4d6447bf869dc3b615bedb3aeccdeee", "is_disabled": 0, "lon": -77.03361483333333, "is_reserved": 0, "fusion_lat": 0.0, "type": "electric_scooter"}, {"fusion_lon": 0.0, "name": "f7f038aa958681674374648f4b347bba", "rental_uris": {"android": "https://dc.lft.to/lastmile_qr_scan", "ios": "https://dc.lft.to/lastmile_qr_scan"}, "lat": 38.92286033333333, "bike_id": "f7f038aa958681674374648f4b347bba", "is_disabled": 0, "lon": -77.042314, "is_reserved": 0, "fusion_lat": 0.0, "type": "electric_scooter"}, {"fusion_lon": 0.0, "name": "47f4ff104c63b7c9314b14d1ee62694d", "rental_uris": {"android": "https://dc.lft.to/lastmile_qr_scan", "ios": "https://dc.lft.to/lastmile_qr_scan"}, "lat": 38.9447525, "bike_id": "47f4ff104c63b7c9314b14d1ee62694d", "is_disabled": 0, "lon": -76.9868895, "is_reserved": 0, "fusion_lat": 0.0, "type": "electric_bike"}, {"fusion_lon": 0.0, "name": "68597b691ff728efa80c1b02a29313c9", "rental_uris": {"android": "https://dc.lft.to/lastmile_qr_scan", "ios": "https://dc.lft.to/lastmile_qr_scan"}, "lat": 38.9250625, "bike_id": "68597b691ff728efa80c1b02a29313c9", "is_disabled": 0, "lon": -77.02398816666667, "is_reserved": 0, "fusion_lat": 0.0, "type": "electric_scooter"}, {"fusion_lon": 0.0, "name": "768e7100d7ac5c1429a0d94da4d5e2d9", "rental_uris": {"android": "https://dc.lft.to/lastmile_qr_scan", "ios": "https://dc.lft.to/lastmile_qr_scan"}, "lat": 38.916884333333336, "bike_id": "768e7100d7ac5c1429a0d94da4d5e2d9", "is_disabled": 0, "lon": -77.026976, "is_reserved": 0, "fusion_lat": 0.0, "type": "electric_scooter"}, {"fusion_lon": 0.0, "name": "d294910c530d0ea64b1b4ae20c5d121d", "rental_uris": {"android": "https://dc.lft.to/lastmile_qr_scan", "ios": "https://dc.lft.to/lastmile_qr_scan"}, "lat": 38.894884166666664, "bike_id": "d294910c530d0ea64b1b4ae20c5d121d", "is_disabled": 0, "lon": -77.02688583333334, "is_reserved": 0, "fusion_lat": 0.0, "type": "electric_scooter"}, {"fusion_lon": 0.0, "name": "377f582ea71203cd9f14438499634260", "rental_uris": {"android": "https://dc.lft.to/lastmile_qr_scan", "ios": "https://dc.lft.to/lastmile_qr_scan"}, "lat": 38.9150945, "bike_id": "377f582ea71203cd9f14438499634260", "is_disabled": 0, "lon": -77.038258, "is_reserved": 0, "fusion_lat": 0.0, "type": "electric_scooter"}, {"fusion_lon": 0.0, "name": "aed30aad1103dee3d252c8b08e417e18", "rental_uris": {"android": "https://dc.lft.to/lastmile_qr_scan", "ios": "https://dc.lft.to/lastmile_qr_scan"}, "lat": 38.89887616666667, "bike_id": "aed30aad1103dee3d252c8b08e417e18", "is_disabled": 0, "lon": -77.02185516666667, "is_reserved": 0, "fusion_lat": 0.0, "type": "electric_scooter"}, {"fusion_lon": 0.0, "name": "e7e9340e99ef97be7bb097538975568f", "rental_uris": {"android": "https://dc.lft.to/lastmile_qr_scan", "ios": "https://dc.lft.to/lastmile_qr_scan"}, "lat": 38.91858166666667, "bike_id": "e7e9340e99ef97be7bb097538975568f", "is_disabled": 0, "lon": -77.04477066666666, "is_reserved": 0, "fusion_lat": 0.0, "type": "electric_scooter"}, {"fusion_lon": 0.0, "name": "9298ecd12a886a2eb8789abed07df867", "rental_uris": {"android": "https://dc.lft.to/lastmile_qr_scan", "ios": "https://dc.lft.to/lastmile_qr_scan"}, "lat": 38.88965566666667, "bike_id": "9298ecd12a886a2eb8789abed07df867", "is_disabled": 0, "lon": -76.92737266666667, "is_reserved": 0, "fusion_lat": 0.0, "type": "electric_scooter"}, {"fusion_lon": 0.0, "name": "978d8257544bd2db3f0a63de4beb1c92", "rental_uris": {"android": "https://dc.lft.to/lastmile_qr_scan", "ios": "https://dc.lft.to/lastmile_qr_scan"}, "lat": 38.90431383333333, "bike_id": "978d8257544bd2db3f0a63de4beb1c92", "is_disabled": 0, "lon": -77.04345983333333, "is_reserved": 0, "fusion_lat": 0.0, "type": "electric_scooter"}, {"fusion_lon": 0.0, "name": "27a3ddb35555760662a842f23ae75e71", "rental_uris": {"android": "https://dc.lft.to/lastmile_qr_scan", "ios": "https://dc.lft.to/lastmile_qr_scan"}, "lat": 38.918209833333336, "bike_id": "27a3ddb35555760662a842f23ae75e71", "is_disabled": 0, "lon": -77.033405, "is_reserved": 0, "fusion_lat": 0.0, "type": "electric_scooter"}, {"fusion_lon": 0.0, "name": "6ffc1badbfd9079f0b22747f2d633acb", "rental_uris": {"android": "https://dc.lft.to/lastmile_qr_scan", "ios": "https://dc.lft.to/lastmile_qr_scan"}, "lat": 38.903209333333336, "bike_id": "6ffc1badbfd9079f0b22747f2d633acb", "is_disabled": 0, "lon": -77.03650766666667, "is_reserved": 0, "fusion_lat": 0.0, "type": "electric_scooter"}, {"fusion_lon": 0.0, "name": "d1269c8a6bbddebcc1c6615f9fcd7ef3", "rental_uris": {"android": "https://dc.lft.to/lastmile_qr_scan", "ios": "https://dc.lft.to/lastmile_qr_scan"}, "lat": 38.915674333333335, "bike_id": "d1269c8a6bbddebcc1c6615f9fcd7ef3", "is_disabled": 0, "lon": -77.06786416666667, "is_reserved": 0, "fusion_lat": 0.0, "type": "electric_scooter"}, {"fusion_lon": 0.0, "name": "26206b87ca1138830cd815c86511c911", "rental_uris": {"android": "https://dc.lft.to/lastmile_qr_scan", "ios": "https://dc.lft.to/lastmile_qr_scan"}, "lat": 38.884873166666665, "bike_id": "26206b87ca1138830cd815c86511c911", "is_disabled": 0, "lon": -77.01985183333333, "is_reserved": 0, "fusion_lat": 0.0, "type": "electric_scooter"}, {"fusion_lon": 0.0, "name": "9b785358ec0407d833eefb4f7160326b", "rental_uris": {"android": "https://dc.lft.to/lastmile_qr_scan", "ios": "https://dc.lft.to/lastmile_qr_scan"}, "lat": 38.91927916666667, "bike_id": "9b785358ec0407d833eefb4f7160326b", "is_disabled": 0, "lon": -77.01770916666666, "is_reserved": 0, "fusion_lat": 0.0, "type": "electric_scooter"}, {"fusion_lon": 0.0, "name": "e7ecbbe592ad984e1d00dbda04787732", "rental_uris": {"android": "https://dc.lft.to/lastmile_qr_scan", "ios": "https://dc.lft.to/lastmile_qr_scan"}, "lat": 38.91923383333334, "bike_id": "e7ecbbe592ad984e1d00dbda04787732", "is_disabled": 0, "lon": -77.079358, "is_reserved": 0, "fusion_lat": 0.0, "type": "electric_scooter"}, {"fusion_lon": 0.0, "name": "8a45c176d204d93b2a502f1b9914cbf8", "rental_uris": {"android": "https://dc.lft.to/lastmile_qr_scan", "ios": "https://dc.lft.to/lastmile_qr_scan"}, "lat": 38.90628533333334, "bike_id": "8a45c176d204d93b2a502f1b9914cbf8", "is_disabled": 0, "lon": -77.02609433333333, "is_reserved": 0, "fusion_lat": 0.0, "type": "electric_scooter"}, {"fusion_lon": 0.0, "name": "70bea179e2387fc78dd8bfa209c8159d", "rental_uris": {"android": "https://dc.lft.to/lastmile_qr_scan", "ios": "https://dc.lft.to/lastmile_qr_scan"}, "lat": 38.83305633333333, "bike_id": "70bea179e2387fc78dd8bfa209c8159d", "is_disabled": 0, "lon": -77.0840715, "is_reserved": 0, "fusion_lat": 0.0, "type": "electric_bike"}, {"fusion_lon": 0.0, "name": "42baad48bc01eae96d4c2ee68fdf1dc3", "rental_uris": {"android": "https://dc.lft.to/lastmile_qr_scan", "ios": "https://dc.lft.to/lastmile_qr_scan"}, "lat": 38.8991225, "bike_id": "42baad48bc01eae96d4c2ee68fdf1dc3", "is_disabled": 0, "lon": -77.024713, "is_reserved": 0, "fusion_lat": 0.0, "type": "electric_scooter"}, {"fusion_lon": 0.0, "name": "5fd023ddb12f96cd0a05e5de7395eea3", "rental_uris": {"android": "https://dc.lft.to/lastmile_qr_scan", "ios": "https://dc.lft.to/lastmile_qr_scan"}, "lat": 38.90368333333333, "bike_id": "5fd023ddb12f96cd0a05e5de7395eea3", "is_disabled": 0, "lon": -77.00569333333334, "is_reserved": 0, "fusion_lat": 0.0, "type": "electric_scooter"}, {"fusion_lon": 0.0, "name": "87204dcfdde9baf4fcb03480a48d570d", "rental_uris": {"android": "https://dc.lft.to/lastmile_qr_scan", "ios": "https://dc.lft.to/lastmile_qr_scan"}, "lat": 38.91847166666667, "bike_id": "87204dcfdde9baf4fcb03480a48d570d", "is_disabled": 0, "lon": -77.0231505, "is_reserved": 0, "fusion_lat": 0.0, "type": "electric_scooter"}, {"fusion_lon": 0.0, "name": "e0f29e8f741ec2f05bbad56bd6634b80", "rental_uris": {"android": "https://dc.lft.to/lastmile_qr_scan", "ios": "https://dc.lft.to/lastmile_qr_scan"}, "lat": 38.875768, "bike_id": "e0f29e8f741ec2f05bbad56bd6634b80", "is_disabled": 0, "lon": -77.0057565, "is_reserved": 0, "fusion_lat": 0.0, "type": "electric_scooter"}, {"fusion_lon": 0.0, "name": "c1cca8fd05a2da0b2fba0164b64cba8a", "rental_uris": {"android": "https://dc.lft.to/lastmile_qr_scan", "ios": "https://dc.lft.to/lastmile_qr_scan"}, "lat": 38.90302533333333, "bike_id": "c1cca8fd05a2da0b2fba0164b64cba8a", "is_disabled": 0, "lon": -77.01739533333334, "is_reserved": 0, "fusion_lat": 0.0, "type": "electric_scooter"}, {"fusion_lon": 0.0, "name": "b4fcf11c42472f814b539bc7a9b28bf6", "rental_uris": {"android": "https://dc.lft.to/lastmile_qr_scan", "ios": "https://dc.lft.to/lastmile_qr_scan"}, "lat": 38.912668, "bike_id": "b4fcf11c42472f814b539bc7a9b28bf6", "is_disabled": 0, "lon": -77.03867516666666, "is_reserved": 0, "fusion_lat": 0.0, "type": "electric_scooter"}, {"fusion_lon": 0.0, "name": "084ea794e84decccf73237b6b62bfb6c", "rental_uris": {"android": "https://dc.lft.to/lastmile_qr_scan", "ios": "https://dc.lft.to/lastmile_qr_scan"}, "lat": 38.943876, "bike_id": "084ea794e84decccf73237b6b62bfb6c", "is_disabled": 0, "lon": -77.06367783333333, "is_reserved": 0, "fusion_lat": 0.0, "type": "electric_scooter"}, {"fusion_lon": 0.0, "name": "d38dbc6f929b84970fdf652398cc19c8", "rental_uris": {"android": "https://dc.lft.to/lastmile_qr_scan", "ios": "https://dc.lft.to/lastmile_qr_scan"}, "lat": 38.90723833333333, "bike_id": "d38dbc6f929b84970fdf652398cc19c8", "is_disabled": 0, "lon": -77.02429566666666, "is_reserved": 0, "fusion_lat": 0.0, "type": "electric_scooter"}, {"fusion_lon": 0.0, "name": "89bd36587a7960cd10b6bc0d13457b20", "rental_uris": {"android": "https://dc.lft.to/lastmile_qr_scan", "ios": "https://dc.lft.to/lastmile_qr_scan"}, "lat": 38.918055833333334, "bike_id": "89bd36587a7960cd10b6bc0d13457b20", "is_disabled": 0, "lon": -77.0344285, "is_reserved": 0, "fusion_lat": 0.0, "type": "electric_scooter"}, {"fusion_lon": 0.0, "name": "4314947b212ec1201fd0a975f0194c05", "rental_uris": {"android": "https://dc.lft.to/lastmile_qr_scan", "ios": "https://dc.lft.to/lastmile_qr_scan"}, "lat": 38.874818166666664, "bike_id": "4314947b212ec1201fd0a975f0194c05", "is_disabled": 0, "lon": -76.96525783333334, "is_reserved": 0, "fusion_lat": 0.0, "type": "electric_bike"}, {"fusion_lon": 0.0, "name": "fb2f7e5cf42102b23db5978537326dfd", "rental_uris": {"android": "https://dc.lft.to/lastmile_qr_scan", "ios": "https://dc.lft.to/lastmile_qr_scan"}, "lat": 38.92178166666667, "bike_id": "fb2f7e5cf42102b23db5978537326dfd", "is_disabled": 0, "lon": -77.04008033333334, "is_reserved": 0, "fusion_lat": 0.0, "type": "electric_scooter"}, {"fusion_lon": 0.0, "name": "ab732793d917319811346af86591b915", "rental_uris": {"android": "https://dc.lft.to/lastmile_qr_scan", "ios": "https://dc.lft.to/lastmile_qr_scan"}, "lat": 38.884381166666664, "bike_id": "ab732793d917319811346af86591b915", "is_disabled": 0, "lon": -76.95769233333333, "is_reserved": 0, "fusion_lat": 0.0, "type": "electric_scooter"}, {"fusion_lon": 0.0, "name": "987255bc17a7b7cb0d4f83333b43580f", "rental_uris": {"android": "https://dc.lft.to/lastmile_qr_scan", "ios": "https://dc.lft.to/lastmile_qr_scan"}, "lat": 38.894855166666666, "bike_id": "987255bc17a7b7cb0d4f83333b43580f", "is_disabled": 0, "lon": -76.99520983333333, "is_reserved": 0, "fusion_lat": 0.0, "type": "electric_scooter"}, {"fusion_lon": 0.0, "name": "f90a23e35837e3ac010c538bed08affc", "rental_uris": {"android": "https://dc.lft.to/lastmile_qr_scan", "ios": "https://dc.lft.to/lastmile_qr_scan"}, "lat": 38.89640816666667, "bike_id": "f90a23e35837e3ac010c538bed08affc", "is_disabled": 0, "lon": -77.0320115, "is_reserved": 0, "fusion_lat": 0.0, "type": "electric_scooter"}, {"fusion_lon": 0.0, "name": "8fc3a789dac4007a3617cd846ae40216", "rental_uris": {"android": "https://dc.lft.to/lastmile_qr_scan", "ios": "https://dc.lft.to/lastmile_qr_scan"}, "lat": 38.900619166666665, "bike_id": "8fc3a789dac4007a3617cd846ae40216", "is_disabled": 0, "lon": -76.98698816666666, "is_reserved": 0, "fusion_lat": 0.0, "type": "electric_scooter"}, {"fusion_lon": 0.0, "name": "e843a9cb5cdbaa35b414117f04cb67dd", "rental_uris": {"android": "https://dc.lft.to/lastmile_qr_scan", "ios": "https://dc.lft.to/lastmile_qr_scan"}, "lat": 38.8998665, "bike_id": "e843a9cb5cdbaa35b414117f04cb67dd", "is_disabled": 0, "lon": -77.02196316666667, "is_reserved": 0, "fusion_lat": 0.0, "type": "electric_scooter"}, {"fusion_lon": 0.0, "name": "c1f20b38eb503447f2e9d1835c3813c0", "rental_uris": {"android": "https://dc.lft.to/lastmile_qr_scan", "ios": "https://dc.lft.to/lastmile_qr_scan"}, "lat": 38.915696833333335, "bike_id": "c1f20b38eb503447f2e9d1835c3813c0", "is_disabled": 0, "lon": -77.0501625, "is_reserved": 0, "fusion_lat": 0.0, "type": "electric_scooter"}, {"fusion_lon": 0.0, "name": "bf64a885600bbe313e2e6928adc12bc3", "rental_uris": {"android": "https://dc.lft.to/lastmile_qr_scan", "ios": "https://dc.lft.to/lastmile_qr_scan"}, "lat": 38.92380683333333, "bike_id": "bf64a885600bbe313e2e6928adc12bc3", "is_disabled": 0, "lon": -77.03058233333333, "is_reserved": 0, "fusion_lat": 0.0, "type": "electric_scooter"}, {"fusion_lon": 0.0, "name": "c64edac90787066827462f1386399b50", "rental_uris": {"android": "https://dc.lft.to/lastmile_qr_scan", "ios": "https://dc.lft.to/lastmile_qr_scan"}, "lat": 38.92440916666666, "bike_id": "c64edac90787066827462f1386399b50", "is_disabled": 0, "lon": -77.03780383333333, "is_reserved": 0, "fusion_lat": 0.0, "type": "electric_scooter"}, {"fusion_lon": 0.0, "name": "6319ad3ae83e118e19335262b6ea31e0", "rental_uris": {"android": "https://dc.lft.to/lastmile_qr_scan", "ios": "https://dc.lft.to/lastmile_qr_scan"}, "lat": 38.9257075, "bike_id": "6319ad3ae83e118e19335262b6ea31e0", "is_disabled": 0, "lon": -76.99957116666667, "is_reserved": 0, "fusion_lat": 0.0, "type": "electric_scooter"}, {"fusion_lon": 0.0, "name": "2e1e33a365881cacb570d7799c5a8e89", "rental_uris": {"android": "https://dc.lft.to/lastmile_qr_scan", "ios": "https://dc.lft.to/lastmile_qr_scan"}, "lat": 38.8831285, "bike_id": "2e1e33a365881cacb570d7799c5a8e89", "is_disabled": 0, "lon": -77.0257035, "is_reserved": 0, "fusion_lat": 0.0, "type": "electric_scooter"}, {"fusion_lon": 0.0, "name": "5308d144f73a2faa79adb0d2e4af657d", "rental_uris": {"android": "https://dc.lft.to/lastmile_qr_scan", "ios": "https://dc.lft.to/lastmile_qr_scan"}, "lat": 38.9126945, "bike_id": "5308d144f73a2faa79adb0d2e4af657d", "is_disabled": 0, "lon": -77.03869716666667, "is_reserved": 0, "fusion_lat": 0.0, "type": "electric_scooter"}, {"fusion_lon": 0.0, "name": "0971ed4f1a7725b5c87486b709767dcd", "rental_uris": {"android": "https://dc.lft.to/lastmile_qr_scan", "ios": "https://dc.lft.to/lastmile_qr_scan"}, "lat": 38.8995525, "bike_id": "0971ed4f1a7725b5c87486b709767dcd", "is_disabled": 0, "lon": -77.05033833333333, "is_reserved": 0, "fusion_lat": 0.0, "type": "electric_scooter"}, {"fusion_lon": 0.0, "name": "a79b95f16b7bdb6a1b644e80bdaa79f1", "rental_uris": {"android": "https://dc.lft.to/lastmile_qr_scan", "ios": "https://dc.lft.to/lastmile_qr_scan"}, "lat": 38.88067133333333, "bike_id": "a79b95f16b7bdb6a1b644e80bdaa79f1", "is_disabled": 0, "lon": -77.01175433333333, "is_reserved": 0, "fusion_lat": 0.0, "type": "electric_scooter"}, {"fusion_lon": 0.0, "name": "b8d38f458f4eb60f34238ac65e4a1788", "rental_uris": {"android": "https://dc.lft.to/lastmile_qr_scan", "ios": "https://dc.lft.to/lastmile_qr_scan"}, "lat": 38.9019585, "bike_id": "b8d38f458f4eb60f34238ac65e4a1788", "is_disabled": 0, "lon": -77.05907466666666, "is_reserved": 0, "fusion_lat": 0.0, "type": "electric_scooter"}, {"fusion_lon": 0.0, "name": "3efd45539b41ca38425a667d25669d01", "rental_uris": {"android": "https://dc.lft.to/lastmile_qr_scan", "ios": "https://dc.lft.to/lastmile_qr_scan"}, "lat": 38.9060445, "bike_id": "3efd45539b41ca38425a667d25669d01", "is_disabled": 0, "lon": -77.12875333333334, "is_reserved": 0, "fusion_lat": 0.0, "type": "electric_bike"}, {"fusion_lon": 0.0, "name": "745133a2be565fc70ea442880b9083f6", "rental_uris": {"android": "https://dc.lft.to/lastmile_qr_scan", "ios": "https://dc.lft.to/lastmile_qr_scan"}, "lat": 38.91936466666667, "bike_id": "745133a2be565fc70ea442880b9083f6", "is_disabled": 0, "lon": -77.04619233333334, "is_reserved": 0, "fusion_lat": 0.0, "type": "electric_scooter"}, {"fusion_lon": 0.0, "name": "6e35b50a45b07147ca44ecccf842a885", "rental_uris": {"android": "https://dc.lft.to/lastmile_qr_scan", "ios": "https://dc.lft.to/lastmile_qr_scan"}, "lat": 38.848992333333335, "bike_id": "6e35b50a45b07147ca44ecccf842a885", "is_disabled": 0, "lon": -77.077983, "is_reserved": 0, "fusion_lat": 0.0, "type": "electric_bike"}, {"fusion_lon": 0.0, "name": "6b5f5642838f15fec79a1fffe3b777eb", "rental_uris": {"android": "https://dc.lft.to/lastmile_qr_scan", "ios": "https://dc.lft.to/lastmile_qr_scan"}, "lat": 38.912761333333336, "bike_id": "6b5f5642838f15fec79a1fffe3b777eb", "is_disabled": 0, "lon": -77.03208166666667, "is_reserved": 0, "fusion_lat": 0.0, "type": "electric_scooter"}, {"fusion_lon": 0.0, "name": "985261dffde1d633e89ff38c8c4de6d2", "rental_uris": {"android": "https://dc.lft.to/lastmile_qr_scan", "ios": "https://dc.lft.to/lastmile_qr_scan"}, "lat": 38.907963, "bike_id": "985261dffde1d633e89ff38c8c4de6d2", "is_disabled": 0, "lon": -76.99424383333333, "is_reserved": 0, "fusion_lat": 0.0, "type": "electric_scooter"}, {"fusion_lon": 0.0, "name": "82785ce01f6ee9da4019c60e043b706a", "rental_uris": {"android": "https://dc.lft.to/lastmile_qr_scan", "ios": "https://dc.lft.to/lastmile_qr_scan"}, "lat": 38.883322, "bike_id": "82785ce01f6ee9da4019c60e043b706a", "is_disabled": 0, "lon": -77.02241933333333, "is_reserved": 0, "fusion_lat": 0.0, "type": "electric_bike"}, {"fusion_lon": 0.0, "name": "a3169a2a33782bb03e4c5711d67dc6c8", "rental_uris": {"android": "https://dc.lft.to/lastmile_qr_scan", "ios": "https://dc.lft.to/lastmile_qr_scan"}, "lat": 38.90872516666667, "bike_id": "a3169a2a33782bb03e4c5711d67dc6c8", "is_disabled": 0, "lon": -77.032231, "is_reserved": 0, "fusion_lat": 0.0, "type": "electric_scooter"}, {"fusion_lon": 0.0, "name": "d578e8eb960f617d8876d1def5d3b471", "rental_uris": {"android": "https://dc.lft.to/lastmile_qr_scan", "ios": "https://dc.lft.to/lastmile_qr_scan"}, "lat": 39.00726683333333, "bike_id": "d578e8eb960f617d8876d1def5d3b471", "is_disabled": 0, "lon": -76.98146216666666, "is_reserved": 0, "fusion_lat": 0.0, "type": "electric_bike"}, {"fusion_lon": 0.0, "name": "e20de93ba551f66f7c76bba0bac6fd64", "rental_uris": {"android": "https://dc.lft.to/lastmile_qr_scan", "ios": "https://dc.lft.to/lastmile_qr_scan"}, "lat": 38.90038033333333, "bike_id": "e20de93ba551f66f7c76bba0bac6fd64", "is_disabled": 0, "lon": -77.0178155, "is_reserved": 0, "fusion_lat": 0.0, "type": "electric_scooter"}, {"fusion_lon": 0.0, "name": "efda20550547891e4341480e17d19cd8", "rental_uris": {"android": "https://dc.lft.to/lastmile_qr_scan", "ios": "https://dc.lft.to/lastmile_qr_scan"}, "lat": 38.90403466666667, "bike_id": "efda20550547891e4341480e17d19cd8", "is_disabled": 0, "lon": -77.01857633333333, "is_reserved": 0, "fusion_lat": 0.0, "type": "electric_scooter"}, {"fusion_lon": 0.0, "name": "0b3ad179ab29abcfd364ec64ec900cc6", "rental_uris": {"android": "https://dc.lft.to/lastmile_qr_scan", "ios": "https://dc.lft.to/lastmile_qr_scan"}, "lat": 38.946511666666666, "bike_id": "0b3ad179ab29abcfd364ec64ec900cc6", "is_disabled": 0, "lon": -77.06477916666667, "is_reserved": 0, "fusion_lat": 0.0, "type": "electric_scooter"}, {"fusion_lon": 0.0, "name": "6bcf406d39af2ba5f21aadb9fa6c6f95", "rental_uris": {"android": "https://dc.lft.to/lastmile_qr_scan", "ios": "https://dc.lft.to/lastmile_qr_scan"}, "lat": 38.915621333333334, "bike_id": "6bcf406d39af2ba5f21aadb9fa6c6f95", "is_disabled": 0, "lon": -77.00695983333334, "is_reserved": 0, "fusion_lat": 0.0, "type": "electric_scooter"}, {"fusion_lon": 0.0, "name": "673829d4cf65d3148beaa459e793e927", "rental_uris": {"android": "https://dc.lft.to/lastmile_qr_scan", "ios": "https://dc.lft.to/lastmile_qr_scan"}, "lat": 38.909586, "bike_id": "673829d4cf65d3148beaa459e793e927", "is_disabled": 0, "lon": -77.02279216666666, "is_reserved": 0, "fusion_lat": 0.0, "type": "electric_scooter"}, {"fusion_lon": 0.0, "name": "58e3738b64c3a748075b6e036f62bd20", "rental_uris": {"android": "https://dc.lft.to/lastmile_qr_scan", "ios": "https://dc.lft.to/lastmile_qr_scan"}, "lat": 38.92296116666667, "bike_id": "58e3738b64c3a748075b6e036f62bd20", "is_disabled": 0, "lon": -77.01948583333333, "is_reserved": 0, "fusion_lat": 0.0, "type": "electric_scooter"}, {"fusion_lon": 0.0, "name": "df36b27ac938d9bb63ce1f63e3da69da", "rental_uris": {"android": "https://dc.lft.to/lastmile_qr_scan", "ios": "https://dc.lft.to/lastmile_qr_scan"}, "lat": 38.9250895, "bike_id": "df36b27ac938d9bb63ce1f63e3da69da", "is_disabled": 0, "lon": -77.02285933333333, "is_reserved": 0, "fusion_lat": 0.0, "type": "electric_scooter"}, {"fusion_lon": 0.0, "name": "a79c32ad68835a598cbfaf245ca0ea66", "rental_uris": {"android": "https://dc.lft.to/lastmile_qr_scan", "ios": "https://dc.lft.to/lastmile_qr_scan"}, "lat": 38.80867833333333, "bike_id": "a79c32ad68835a598cbfaf245ca0ea66", "is_disabled": 0, "lon": -77.11252683333333, "is_reserved": 0, "fusion_lat": 0.0, "type": "electric_bike"}, {"fusion_lon": 0.0, "name": "a776392b791e53ee30ba405f6ba544bd", "rental_uris": {"android": "https://dc.lft.to/lastmile_qr_scan", "ios": "https://dc.lft.to/lastmile_qr_scan"}, "lat": 38.90959733333333, "bike_id": "a776392b791e53ee30ba405f6ba544bd", "is_disabled": 0, "lon": -77.05481616666667, "is_reserved": 0, "fusion_lat": 0.0, "type": "electric_scooter"}, {"fusion_lon": 0.0, "name": "5735b1f8f0bf8988755ed2f2a7d79f50", "rental_uris": {"android": "https://dc.lft.to/lastmile_qr_scan", "ios": "https://dc.lft.to/lastmile_qr_scan"}, "lat": 38.87178433333333, "bike_id": "5735b1f8f0bf8988755ed2f2a7d79f50", "is_disabled": 0, "lon": -77.233865, "is_reserved": 0, "fusion_lat": 0.0, "type": "electric_bike"}, {"fusion_lon": 0.0, "name": "ca5663f2f40daf22181761ed39fd6f0f", "rental_uris": {"android": "https://dc.lft.to/lastmile_qr_scan", "ios": "https://dc.lft.to/lastmile_qr_scan"}, "lat": 38.914826, "bike_id": "ca5663f2f40daf22181761ed39fd6f0f", "is_disabled": 0, "lon": -77.04011433333334, "is_reserved": 0, "fusion_lat": 0.0, "type": "electric_scooter"}, {"fusion_lon": 0.0, "name": "113fef19cd5aa106f39b4a0a4938db8e", "rental_uris": {"android": "https://dc.lft.to/lastmile_qr_scan", "ios": "https://dc.lft.to/lastmile_qr_scan"}, "lat": 38.905908, "bike_id": "113fef19cd5aa106f39b4a0a4938db8e", "is_disabled": 0, "lon": -77.04689083333334, "is_reserved": 0, "fusion_lat": 0.0, "type": "electric_scooter"}, {"fusion_lon": 0.0, "name": "272c12a1fdef8f635d73ffb47ffdc0d3", "rental_uris": {"android": "https://dc.lft.to/lastmile_qr_scan", "ios": "https://dc.lft.to/lastmile_qr_scan"}, "lat": 38.90530916666667, "bike_id": "272c12a1fdef8f635d73ffb47ffdc0d3", "is_disabled": 0, "lon": -77.0623485, "is_reserved": 0, "fusion_lat": 0.0, "type": "electric_scooter"}, {"fusion_lon": 0.0, "name": "f26f2a75efc6bef2a0740c3938cf36dd", "rental_uris": {"android": "https://dc.lft.to/lastmile_qr_scan", "ios": "https://dc.lft.to/lastmile_qr_scan"}, "lat": 38.916610166666665, "bike_id": "f26f2a75efc6bef2a0740c3938cf36dd", "is_disabled": 0, "lon": -77.00949766666666, "is_reserved": 0, "fusion_lat": 0.0, "type": "electric_scooter"}, {"fusion_lon": 0.0, "name": "22e1ed8ada020e36bd73a34abb2c6b3a", "rental_uris": {"android": "https://dc.lft.to/lastmile_qr_scan", "ios": "https://dc.lft.to/lastmile_qr_scan"}, "lat": 38.90367033333333, "bike_id": "22e1ed8ada020e36bd73a34abb2c6b3a", "is_disabled": 0, "lon": -76.99838983333333, "is_reserved": 0, "fusion_lat": 0.0, "type": "electric_scooter"}, {"fusion_lon": 0.0, "name": "40c6d3d065e5ad67ed3b8de45e55c9a6", "rental_uris": {"android": "https://dc.lft.to/lastmile_qr_scan", "ios": "https://dc.lft.to/lastmile_qr_scan"}, "lat": 38.911315, "bike_id": "40c6d3d065e5ad67ed3b8de45e55c9a6", "is_disabled": 0, "lon": -77.02814483333333, "is_reserved": 0, "fusion_lat": 0.0, "type": "electric_scooter"}, {"fusion_lon": 0.0, "name": "8a749a5f4e372adfcc27443deba58577", "rental_uris": {"android": "https://dc.lft.to/lastmile_qr_scan", "ios": "https://dc.lft.to/lastmile_qr_scan"}, "lat": 38.9067945, "bike_id": "8a749a5f4e372adfcc27443deba58577", "is_disabled": 0, "lon": -76.98373283333333, "is_reserved": 0, "fusion_lat": 0.0, "type": "electric_scooter"}, {"fusion_lon": 0.0, "name": "3c5a06539eb5aee87d1016b269718fa8", "rental_uris": {"android": "https://dc.lft.to/lastmile_qr_scan", "ios": "https://dc.lft.to/lastmile_qr_scan"}, "lat": 38.94167783333333, "bike_id": "3c5a06539eb5aee87d1016b269718fa8", "is_disabled": 0, "lon": -77.02557216666666, "is_reserved": 0, "fusion_lat": 0.0, "type": "electric_scooter"}, {"fusion_lon": 0.0, "name": "d32a4cc30de519d05d3cc1e33dabd4a2", "rental_uris": {"android": "https://dc.lft.to/lastmile_qr_scan", "ios": "https://dc.lft.to/lastmile_qr_scan"}, "lat": 38.91621266666667, "bike_id": "d32a4cc30de519d05d3cc1e33dabd4a2", "is_disabled": 0, "lon": -77.03187683333333, "is_reserved": 0, "fusion_lat": 0.0, "type": "electric_scooter"}, {"fusion_lon": 0.0, "name": "5c31e9055fbb0f5876e04e377d3d9336", "rental_uris": {"android": "https://dc.lft.to/lastmile_qr_scan", "ios": "https://dc.lft.to/lastmile_qr_scan"}, "lat": 38.872037666666664, "bike_id": "5c31e9055fbb0f5876e04e377d3d9336", "is_disabled": 0, "lon": -77.0093045, "is_reserved": 0, "fusion_lat": 0.0, "type": "electric_scooter"}, {"fusion_lon": 0.0, "name": "6029cdc18c7c81ffa1d1c9677c25b5d7", "rental_uris": {"android": "https://dc.lft.to/lastmile_qr_scan", "ios": "https://dc.lft.to/lastmile_qr_scan"}, "lat": 38.875764, "bike_id": "6029cdc18c7c81ffa1d1c9677c25b5d7", "is_disabled": 0, "lon": -77.00581033333333, "is_reserved": 0, "fusion_lat": 0.0, "type": "electric_scooter"}, {"fusion_lon": 0.0, "name": "e60d3e7f2c47c7eafd882daa8533e229", "rental_uris": {"android": "https://dc.lft.to/lastmile_qr_scan", "ios": "https://dc.lft.to/lastmile_qr_scan"}, "lat": 38.90964816666666, "bike_id": "e60d3e7f2c47c7eafd882daa8533e229", "is_disabled": 0, "lon": -77.02441016666667, "is_reserved": 0, "fusion_lat": 0.0, "type": "electric_scooter"}, {"fusion_lon": 0.0, "name": "eac297061a559e9962630a42c45efdb1", "rental_uris": {"android": "https://dc.lft.to/lastmile_qr_scan", "ios": "https://dc.lft.to/lastmile_qr_scan"}, "lat": 38.9078185, "bike_id": "eac297061a559e9962630a42c45efdb1", "is_disabled": 0, "lon": -76.99855366666667, "is_reserved": 0, "fusion_lat": 0.0, "type": "electric_scooter"}, {"fusion_lon": 0.0, "name": "0d5bb253fe36fcaf043d83c7fd61176f", "rental_uris": {"android": "https://dc.lft.to/lastmile_qr_scan", "ios": "https://dc.lft.to/lastmile_qr_scan"}, "lat": 38.9176025, "bike_id": "0d5bb253fe36fcaf043d83c7fd61176f", "is_disabled": 0, "lon": -77.00908966666667, "is_reserved": 0, "fusion_lat": 0.0, "type": "electric_scooter"}, {"fusion_lon": 0.0, "name": "0df858ad10a10b2f58e777fa696d3563", "rental_uris": {"android": "https://dc.lft.to/lastmile_qr_scan", "ios": "https://dc.lft.to/lastmile_qr_scan"}, "lat": 38.97372266666667, "bike_id": "0df858ad10a10b2f58e777fa696d3563", "is_disabled": 0, "lon": -77.01864866666666, "is_reserved": 0, "fusion_lat": 0.0, "type": "electric_scooter"}, {"fusion_lon": 0.0, "name": "76720b26dc0b2caa3505427c4c9d400f", "rental_uris": {"android": "https://dc.lft.to/lastmile_qr_scan", "ios": "https://dc.lft.to/lastmile_qr_scan"}, "lat": 38.91678016666667, "bike_id": "76720b26dc0b2caa3505427c4c9d400f", "is_disabled": 0, "lon": -77.04614116666667, "is_reserved": 0, "fusion_lat": 0.0, "type": "electric_scooter"}, {"fusion_lon": 0.0, "name": "05674ea731d28438c252af4027b30db9", "rental_uris": {"android": "https://dc.lft.to/lastmile_qr_scan", "ios": "https://dc.lft.to/lastmile_qr_scan"}, "lat": 38.926857166666665, "bike_id": "05674ea731d28438c252af4027b30db9", "is_disabled": 0, "lon": -77.02578916666667, "is_reserved": 0, "fusion_lat": 0.0, "type": "electric_scooter"}, {"fusion_lon": 0.0, "name": "ec23c3d30cd80206dca7e33ce794e411", "rental_uris": {"android": "https://dc.lft.to/lastmile_qr_scan", "ios": "https://dc.lft.to/lastmile_qr_scan"}, "lat": 38.92398333333333, "bike_id": "ec23c3d30cd80206dca7e33ce794e411", "is_disabled": 0, "lon": -77.0405965, "is_reserved": 0, "fusion_lat": 0.0, "type": "electric_scooter"}, {"fusion_lon": 0.0, "name": "d9279e471606fa207743b578d292e0f2", "rental_uris": {"android": "https://dc.lft.to/lastmile_qr_scan", "ios": "https://dc.lft.to/lastmile_qr_scan"}, "lat": 38.924479833333336, "bike_id": "d9279e471606fa207743b578d292e0f2", "is_disabled": 0, "lon": -77.03397766666667, "is_reserved": 0, "fusion_lat": 0.0, "type": "electric_scooter"}, {"fusion_lon": 0.0, "name": "a54498c6b7a798950f4a4cac9cc20523", "rental_uris": {"android": "https://dc.lft.to/lastmile_qr_scan", "ios": "https://dc.lft.to/lastmile_qr_scan"}, "lat": 38.923609166666665, "bike_id": "a54498c6b7a798950f4a4cac9cc20523", "is_disabled": 0, "lon": -77.041367, "is_reserved": 0, "fusion_lat": 0.0, "type": "electric_scooter"}, {"fusion_lon": 0.0, "name": "d342d0ad79725796a18ea71cb6e4b07e", "rental_uris": {"android": "https://dc.lft.to/lastmile_qr_scan", "ios": "https://dc.lft.to/lastmile_qr_scan"}, "lat": 38.87883266666667, "bike_id": "d342d0ad79725796a18ea71cb6e4b07e", "is_disabled": 0, "lon": -77.00056483333333, "is_reserved": 0, "fusion_lat": 0.0, "type": "electric_scooter"}, {"fusion_lon": 0.0, "name": "46bb93171af17e75ec4dedda23048e03", "rental_uris": {"android": "https://dc.lft.to/lastmile_qr_scan", "ios": "https://dc.lft.to/lastmile_qr_scan"}, "lat": 38.8919725, "bike_id": "46bb93171af17e75ec4dedda23048e03", "is_disabled": 0, "lon": -77.001943, "is_reserved": 0, "fusion_lat": 0.0, "type": "electric_scooter"}, {"fusion_lon": 0.0, "name": "284915f50a59634dd887d793ac913fac", "rental_uris": {"android": "https://dc.lft.to/lastmile_qr_scan", "ios": "https://dc.lft.to/lastmile_qr_scan"}, "lat": 38.94233333333333, "bike_id": "284915f50a59634dd887d793ac913fac", "is_disabled": 0, "lon": -77.01436866666667, "is_reserved": 0, "fusion_lat": 0.0, "type": "electric_scooter"}, {"fusion_lon": 0.0, "name": "3c1d65bf66d4e3957defd305bc646c41", "rental_uris": {"android": "https://dc.lft.to/lastmile_qr_scan", "ios": "https://dc.lft.to/lastmile_qr_scan"}, "lat": 38.9225, "bike_id": "3c1d65bf66d4e3957defd305bc646c41", "is_disabled": 0, "lon": -77.04007466666667, "is_reserved": 0, "fusion_lat": 0.0, "type": "electric_scooter"}, {"fusion_lon": 0.0, "name": "98318c5c68457d934e62323faba23c34", "rental_uris": {"android": "https://dc.lft.to/lastmile_qr_scan", "ios": "https://dc.lft.to/lastmile_qr_scan"}, "lat": 38.8800195, "bike_id": "98318c5c68457d934e62323faba23c34", "is_disabled": 0, "lon": -77.00544633333334, "is_reserved": 0, "fusion_lat": 0.0, "type": "electric_scooter"}, {"fusion_lon": 0.0, "name": "1a00d7f9e7b09f1ff00122299831102c", "rental_uris": {"android": "https://dc.lft.to/lastmile_qr_scan", "ios": "https://dc.lft.to/lastmile_qr_scan"}, "lat": 38.9069765, "bike_id": "1a00d7f9e7b09f1ff00122299831102c", "is_disabled": 0, "lon": -76.95256533333334, "is_reserved": 0, "fusion_lat": 0.0, "type": "electric_bike"}, {"fusion_lon": 0.0, "name": "ee8aa2f2953543c667e3fbee8cf77a8c", "rental_uris": {"android": "https://dc.lft.to/lastmile_qr_scan", "ios": "https://dc.lft.to/lastmile_qr_scan"}, "lat": 38.9559675, "bike_id": "ee8aa2f2953543c667e3fbee8cf77a8c", "is_disabled": 0, "lon": -77.01013166666667, "is_reserved": 0, "fusion_lat": 0.0, "type": "electric_bike"}, {"fusion_lon": 0.0, "name": "2b77dd59bee2029ca1afb2e51942bed3", "rental_uris": {"android": "https://dc.lft.to/lastmile_qr_scan", "ios": "https://dc.lft.to/lastmile_qr_scan"}, "lat": 38.9000345, "bike_id": "2b77dd59bee2029ca1afb2e51942bed3", "is_disabled": 0, "lon": -76.99487183333333, "is_reserved": 0, "fusion_lat": 0.0, "type": "electric_scooter"}, {"fusion_lon": 0.0, "name": "3007320c4e4e90eed3b9182afc40f1ed", "rental_uris": {"android": "https://dc.lft.to/lastmile_qr_scan", "ios": "https://dc.lft.to/lastmile_qr_scan"}, "lat": 38.85712216666667, "bike_id": "3007320c4e4e90eed3b9182afc40f1ed", "is_disabled": 0, "lon": -76.98123333333334, "is_reserved": 0, "fusion_lat": 0.0, "type": "electric_scooter"}, {"fusion_lon": 0.0, "name": "de6561e3c40fac5b13fd52003c9ea19c", "rental_uris": {"android": "https://dc.lft.to/lastmile_qr_scan", "ios": "https://dc.lft.to/lastmile_qr_scan"}, "lat": 38.91909616666667, "bike_id": "de6561e3c40fac5b13fd52003c9ea19c", "is_disabled": 0, "lon": -77.0462885, "is_reserved": 0, "fusion_lat": 0.0, "type": "electric_scooter"}, {"fusion_lon": 0.0, "name": "702ed190e20071b622d06646cfaea83e", "rental_uris": {"android": "https://dc.lft.to/lastmile_qr_scan", "ios": "https://dc.lft.to/lastmile_qr_scan"}, "lat": 38.923233833333335, "bike_id": "702ed190e20071b622d06646cfaea83e", "is_disabled": 0, "lon": -77.03675166666666, "is_reserved": 0, "fusion_lat": 0.0, "type": "electric_scooter"}, {"fusion_lon": 0.0, "name": "2c4078ddfff45c97c480e6da143bbe15", "rental_uris": {"android": "https://dc.lft.to/lastmile_qr_scan", "ios": "https://dc.lft.to/lastmile_qr_scan"}, "lat": 38.92258233333333, "bike_id": "2c4078ddfff45c97c480e6da143bbe15", "is_disabled": 0, "lon": -77.03046983333333, "is_reserved": 0, "fusion_lat": 0.0, "type": "electric_scooter"}, {"fusion_lon": 0.0, "name": "9cc077010e73f113ec8042f1e0584a6e", "rental_uris": {"android": "https://dc.lft.to/lastmile_qr_scan", "ios": "https://dc.lft.to/lastmile_qr_scan"}, "lat": 38.929941666666664, "bike_id": "9cc077010e73f113ec8042f1e0584a6e", "is_disabled": 0, "lon": -77.0323125, "is_reserved": 0, "fusion_lat": 0.0, "type": "electric_scooter"}, {"fusion_lon": 0.0, "name": "f2b5d24171467c75574f0806617876f4", "rental_uris": {"android": "https://dc.lft.to/lastmile_qr_scan", "ios": "https://dc.lft.to/lastmile_qr_scan"}, "lat": 38.92605366666667, "bike_id": "f2b5d24171467c75574f0806617876f4", "is_disabled": 0, "lon": -77.02485616666667, "is_reserved": 0, "fusion_lat": 0.0, "type": "electric_scooter"}, {"fusion_lon": 0.0, "name": "ccb5c3af3273bfb1e2ef641d749bcf6b", "rental_uris": {"android": "https://dc.lft.to/lastmile_qr_scan", "ios": "https://dc.lft.to/lastmile_qr_scan"}, "lat": 38.9259915, "bike_id": "ccb5c3af3273bfb1e2ef641d749bcf6b", "is_disabled": 0, "lon": -77.03959966666666, "is_reserved": 0, "fusion_lat": 0.0, "type": "electric_scooter"}, {"fusion_lon": 0.0, "name": "93ba3960e2e313dd2e90cbecc92f4f01", "rental_uris": {"android": "https://dc.lft.to/lastmile_qr_scan", "ios": "https://dc.lft.to/lastmile_qr_scan"}, "lat": 38.864754, "bike_id": "93ba3960e2e313dd2e90cbecc92f4f01", "is_disabled": 0, "lon": -76.98234066666667, "is_reserved": 0, "fusion_lat": 0.0, "type": "electric_scooter"}, {"fusion_lon": 0.0, "name": "47cc2584cf13aeecd28e88fa16ed267b", "rental_uris": {"android": "https://dc.lft.to/lastmile_qr_scan", "ios": "https://dc.lft.to/lastmile_qr_scan"}, "lat": 38.918868333333336, "bike_id": "47cc2584cf13aeecd28e88fa16ed267b", "is_disabled": 0, "lon": -77.01890366666667, "is_reserved": 0, "fusion_lat": 0.0, "type": "electric_scooter"}, {"fusion_lon": 0.0, "name": "9ffc4575d3dcb5fdd50f194936168f1a", "rental_uris": {"android": "https://dc.lft.to/lastmile_qr_scan", "ios": "https://dc.lft.to/lastmile_qr_scan"}, "lat": 38.92076983333333, "bike_id": "9ffc4575d3dcb5fdd50f194936168f1a", "is_disabled": 0, "lon": -77.023131, "is_reserved": 0, "fusion_lat": 0.0, "type": "electric_scooter"}, {"fusion_lon": 0.0, "name": "3285dbaf2e0c7b96dba5c365fb5a209c", "rental_uris": {"android": "https://dc.lft.to/lastmile_qr_scan", "ios": "https://dc.lft.to/lastmile_qr_scan"}, "lat": 38.90574383333333, "bike_id": "3285dbaf2e0c7b96dba5c365fb5a209c", "is_disabled": 0, "lon": -77.005757, "is_reserved": 0, "fusion_lat": 0.0, "type": "electric_scooter"}, {"fusion_lon": 0.0, "name": "6b653a34bae0fad8edf937e442f6bf33", "rental_uris": {"android": "https://dc.lft.to/lastmile_qr_scan", "ios": "https://dc.lft.to/lastmile_qr_scan"}, "lat": 38.93461466666667, "bike_id": "6b653a34bae0fad8edf937e442f6bf33", "is_disabled": 0, "lon": -77.03500816666667, "is_reserved": 0, "fusion_lat": 0.0, "type": "electric_scooter"}, {"fusion_lon": 0.0, "name": "1ce81df8fff89e3e0e55726a1f2bd359", "rental_uris": {"android": "https://dc.lft.to/lastmile_qr_scan", "ios": "https://dc.lft.to/lastmile_qr_scan"}, "lat": 38.910698333333336, "bike_id": "1ce81df8fff89e3e0e55726a1f2bd359", "is_disabled": 0, "lon": -77.04604633333334, "is_reserved": 0, "fusion_lat": 0.0, "type": "electric_scooter"}, {"fusion_lon": 0.0, "name": "ca2b2f19c94978f59c56fdd9b88a39f6", "rental_uris": {"android": "https://dc.lft.to/lastmile_qr_scan", "ios": "https://dc.lft.to/lastmile_qr_scan"}, "lat": 38.905723333333334, "bike_id": "ca2b2f19c94978f59c56fdd9b88a39f6", "is_disabled": 0, "lon": -77.00593616666667, "is_reserved": 0, "fusion_lat": 0.0, "type": "electric_scooter"}, {"fusion_lon": 0.0, "name": "29a98089c582ae2f2db53974de0897d6", "rental_uris": {"android": "https://dc.lft.to/lastmile_qr_scan", "ios": "https://dc.lft.to/lastmile_qr_scan"}, "lat": 38.90186283333333, "bike_id": "29a98089c582ae2f2db53974de0897d6", "is_disabled": 0, "lon": -76.93005233333334, "is_reserved": 0, "fusion_lat": 0.0, "type": "electric_scooter"}, {"fusion_lon": 0.0, "name": "81296b2129957bb93718647c83fcfa4c", "rental_uris": {"android": "https://dc.lft.to/lastmile_qr_scan", "ios": "https://dc.lft.to/lastmile_qr_scan"}, "lat": 38.90966, "bike_id": "81296b2129957bb93718647c83fcfa4c", "is_disabled": 0, "lon": -77.02312366666666, "is_reserved": 0, "fusion_lat": 0.0, "type": "electric_scooter"}, {"fusion_lon": 0.0, "name": "57e72d8744634fa3d7dee8be98ef34bb", "rental_uris": {"android": "https://dc.lft.to/lastmile_qr_scan", "ios": "https://dc.lft.to/lastmile_qr_scan"},