{"data": {"bikes": [{"lon": -76.9688125, "lat": 38.9243995, "name": "6495a6ed29d0915397926760404cbfdd", "fusion_lat": 0.0, "fusion_lon": 0.0, "rental_uris": {"android": "https://dc.lft.to/lastmile_qr_scan", "ios": "https://dc.lft.to/lastmile_qr_scan"}, "is_reserved": 0, "is_disabled": 0, "type": "electric_scooter", "bike_id": "6495a6ed29d0915397926760404cbfdd"}, {"lon": -77.024948, "lat": 38.918090166666666, "name": "e7b0052d7d40434d73741221ef1e647f", "fusion_lat": 0.0, "fusion_lon": 0.0, "rental_uris": {"android": "https://dc.lft.to/lastmile_qr_scan", "ios": "https://dc.lft.to/lastmile_qr_scan"}, "is_reserved": 0, "is_disabled": 0, "type": "electric_scooter", "bike_id": "e7b0052d7d40434d73741221ef1e647f"}, {"lon": -77.0162545, "lat": 38.90337516666666, "name": "94b96e471a0230e8c6490fcc22cdaec1", "fusion_lat": 0.0, "fusion_lon": 0.0, "rental_uris": {"android": "https://dc.lft.to/lastmile_qr_scan", "ios": "https://dc.lft.to/lastmile_qr_scan"}, "is_reserved": 0, "is_disabled": 0, "type": "electric_scooter", "bike_id": "94b96e471a0230e8c6490fcc22cdaec1"}, {"lon": -77.05120166666667, "lat": 38.999623, "name": "1cd4d7a2c8e0c010322e8c2b43a7a417", "fusion_lat": 0.0, "fusion_lon": 0.0, "rental_uris": {"android": "https://dc.lft.to/lastmile_qr_scan", "ios": "https://dc.lft.to/lastmile_qr_scan"}, "is_reserved": 0, "is_disabled": 0, "type": "electric_bike", "bike_id": "1cd4d7a2c8e0c010322e8c2b43a7a417"}, {"lon": -76.948416, "lat": 38.894835, "name": "628f69998d499cfd6980b5becc7164b5", "fusion_lat": 0.0, "fusion_lon": 0.0, "rental_uris": {"android": "https://dc.lft.to/lastmile_qr_scan", "ios": "https://dc.lft.to/lastmile_qr_scan"}, "is_reserved": 0, "is_disabled": 0, "type": "electric_scooter", "bike_id": "628f69998d499cfd6980b5becc7164b5"}, {"lon": -77.02299366666666, "lat": 38.9162065, "name": "dff8d4c038211e84c312b5e39bbe4b74", "fusion_lat": 0.0, "fusion_lon": 0.0, "rental_uris": {"android": "https://dc.lft.to/lastmile_qr_scan", "ios": "https://dc.lft.to/lastmile_qr_scan"}, "is_reserved": 0, "is_disabled": 0, "type": "electric_scooter", "bike_id": "dff8d4c038211e84c312b5e39bbe4b74"}, {"lon": -77.02271333333333, "lat": 38.8936775, "name": "f72b2762394186fba47827d2367752b4", "fusion_lat": 0.0, "fusion_lon": 0.0, "rental_uris": {"android": "https://dc.lft.to/lastmile_qr_scan", "ios": "https://dc.lft.to/lastmile_qr_scan"}, "is_reserved": 0, "is_disabled": 0, "type": "electric_scooter", "bike_id": "f72b2762394186fba47827d2367752b4"}, {"lon": -77.04489266666667, "lat": 38.91099116666667, "name": "16e347889f907d382eae071b550692da", "fusion_lat": 0.0, "fusion_lon": 0.0, "rental_uris": {"android": "https://dc.lft.to/lastmile_qr_scan", "ios": "https://dc.lft.to/lastmile_qr_scan"}, "is_reserved": 0, "is_disabled": 0, "type": "electric_scooter", "bike_id": "16e347889f907d382eae071b550692da"}, {"lon": -77.04562133333333, "lat": 38.91460283333333, "name": "194778e5eaa4c89b4a28d9e41fc1ebf1", "fusion_lat": 0.0, "fusion_lon": 0.0, "rental_uris": {"android": "https://dc.lft.to/lastmile_qr_scan", "ios": "https://dc.lft.to/lastmile_qr_scan"}, "is_reserved": 0, "is_disabled": 0, "type": "electric_scooter", "bike_id": "194778e5eaa4c89b4a28d9e41fc1ebf1"}, {"lon": -77.02550766666667, "lat": 38.8922425, "name": "e2eec2468f17b18c77c08d66897326d7", "fusion_lat": 0.0, "fusion_lon": 0.0, "rental_uris": {"android": "https://dc.lft.to/lastmile_qr_scan", "ios": "https://dc.lft.to/lastmile_qr_scan"}, "is_reserved": 0, "is_disabled": 0, "type": "electric_scooter", "bike_id": "e2eec2468f17b18c77c08d66897326d7"}, {"lon": -77.010771, "lat": 38.903125333333335, "name": "253fb55a9716b07309704fd65352b20f", "fusion_lat": 0.0, "fusion_lon": 0.0, "rental_uris": {"android": "https://dc.lft.to/lastmile_qr_scan", "ios": "https://dc.lft.to/lastmile_qr_scan"}, "is_reserved": 0, "is_disabled": 0, "type": "electric_scooter", "bike_id": "253fb55a9716b07309704fd65352b20f"}, {"lon": -77.01286333333333, "lat": 39.003810333333334, "name": "6638072413f9954dd6d7c0a86a112a27", "fusion_lat": 0.0, "fusion_lon": 0.0, "rental_uris": {"android": "https://dc.lft.to/lastmile_qr_scan", "ios": "https://dc.lft.to/lastmile_qr_scan"}, "is_reserved": 0, "is_disabled": 0, "type": "electric_bike", "bike_id": "6638072413f9954dd6d7c0a86a112a27"}, {"lon": -77.08946216666666, "lat": 38.841042, "name": "20a182214f912f1c4eaa8d2f11cbf265", "fusion_lat": 0.0, "fusion_lon": 0.0, "rental_uris": {"android": "https://dc.lft.to/lastmile_qr_scan", "ios": "https://dc.lft.to/lastmile_qr_scan"}, "is_reserved": 0, "is_disabled": 0, "type": "electric_bike", "bike_id": "20a182214f912f1c4eaa8d2f11cbf265"}, {"lon": -77.000539, "lat": 38.88898366666667, "name": "72ffd00aa1b6712fafd82b356cecffdf", "fusion_lat": 0.0, "fusion_lon": 0.0, "rental_uris": {"android": "https://dc.lft.to/lastmile_qr_scan", "ios": "https://dc.lft.to/lastmile_qr_scan"}, "is_reserved": 0, "is_disabled": 0, "type": "electric_scooter", "bike_id": "72ffd00aa1b6712fafd82b356cecffdf"}, {"lon": -77.04513966666667, "lat": 38.88605333333334, "name": "2fd69998b0d4c0ec4b274f3657d2d3da", "fusion_lat": 0.0, "fusion_lon": 0.0, "rental_uris": {"android": "https://dc.lft.to/lastmile_qr_scan", "ios": "https://dc.lft.to/lastmile_qr_scan"}, "is_reserved": 0, "is_disabled": 0, "type": "electric_scooter", "bike_id": "2fd69998b0d4c0ec4b274f3657d2d3da"}, {"lon": -76.99151333333333, "lat": 38.900333333333336, "name": "1823082c25fb47e5807f409f448ff287", "fusion_lat": 0.0, "fusion_lon": 0.0, "rental_uris": {"android": "https://dc.lft.to/lastmile_qr_scan", "ios": "https://dc.lft.to/lastmile_qr_scan"}, "is_reserved": 0, "is_disabled": 0, "type": "electric_scooter", "bike_id": "1823082c25fb47e5807f409f448ff287"}, {"lon": -77.01084033333333, "lat": 38.893950833333335, "name": "0728057a066561ca459c7b2c10676051", "fusion_lat": 0.0, "fusion_lon": 0.0, "rental_uris": {"android": "https://dc.lft.to/lastmile_qr_scan", "ios": "https://dc.lft.to/lastmile_qr_scan"}, "is_reserved": 0, "is_disabled": 0, "type": "electric_scooter", "bike_id": "0728057a066561ca459c7b2c10676051"}, {"lon": -77.03224133333333, "lat": 38.892219, "name": "d29adb7b75324159378f455de6693507", "fusion_lat": 0.0, "fusion_lon": 0.0, "rental_uris": {"android": "https://dc.lft.to/lastmile_qr_scan", "ios": "https://dc.lft.to/lastmile_qr_scan"}, "is_reserved": 0, "is_disabled": 0, "type": "electric_scooter", "bike_id": "d29adb7b75324159378f455de6693507"}, {"lon": -77.03069483333333, "lat": 38.90798916666667, "name": "e917f76dc7f6662fe69297bdfa9b5b1c", "fusion_lat": 0.0, "fusion_lon": 0.0, "rental_uris": {"android": "https://dc.lft.to/lastmile_qr_scan", "ios": "https://dc.lft.to/lastmile_qr_scan"}, "is_reserved": 0, "is_disabled": 0, "type": "electric_scooter", "bike_id": "e917f76dc7f6662fe69297bdfa9b5b1c"}, {"lon": -77.042792, "lat": 38.9028325, "name": "3d0b0f14a1941e3337b99290d49cca7d", "fusion_lat": 0.0, "fusion_lon": 0.0, "rental_uris": {"android": "https://dc.lft.to/lastmile_qr_scan", "ios": "https://dc.lft.to/lastmile_qr_scan"}, "is_reserved": 0, "is_disabled": 0, "type": "electric_scooter", "bike_id": "3d0b0f14a1941e3337b99290d49cca7d"}, {"lon": -77.10683566666667, "lat": 38.935783666666666, "name": "32bf6c2d94495b989152a79aae516acc", "fusion_lat": 0.0, "fusion_lon": 0.0, "rental_uris": {"android": "https://dc.lft.to/lastmile_qr_scan", "ios": "https://dc.lft.to/lastmile_qr_scan"}, "is_reserved": 0, "is_disabled": 0, "type": "electric_bike", "bike_id": "32bf6c2d94495b989152a79aae516acc"}, {"lon": -77.04469633333333, "lat": 38.91206966666667, "name": "4066211812864f0a36cb57f5db966e47", "fusion_lat": 0.0, "fusion_lon": 0.0, "rental_uris": {"android": "https://dc.lft.to/lastmile_qr_scan", "ios": "https://dc.lft.to/lastmile_qr_scan"}, "is_reserved": 0, "is_disabled": 0, "type": "electric_scooter", "bike_id": "4066211812864f0a36cb57f5db966e47"}, {"lon": -77.027181, "lat": 38.906708, "name": "51e57b8ee5b12686d5b72192079fc668", "fusion_lat": 0.0, "fusion_lon": 0.0, "rental_uris": {"android": "https://dc.lft.to/lastmile_qr_scan", "ios": "https://dc.lft.to/lastmile_qr_scan"}, "is_reserved": 0, "is_disabled": 0, "type": "electric_scooter", "bike_id": "51e57b8ee5b12686d5b72192079fc668"}, {"lon": -77.04911283333334, "lat": 38.905349, "name": "4f835d15b8712b954b0eb5e458906592", "fusion_lat": 0.0, "fusion_lon": 0.0, "rental_uris": {"android": "https://dc.lft.to/lastmile_qr_scan", "ios": "https://dc.lft.to/lastmile_qr_scan"}, "is_reserved": 0, "is_disabled": 0, "type": "electric_scooter", "bike_id": "4f835d15b8712b954b0eb5e458906592"}, {"lon": -77.02414933333333, "lat": 38.904157166666664, "name": "edb5ce7ae8044370181cc296418315c7", "fusion_lat": 0.0, "fusion_lon": 0.0, "rental_uris": {"android": "https://dc.lft.to/lastmile_qr_scan", "ios": "https://dc.lft.to/lastmile_qr_scan"}, "is_reserved": 0, "is_disabled": 0, "type": "electric_scooter", "bike_id": "edb5ce7ae8044370181cc296418315c7"}, {"lon": -77.04660933333334, "lat": 38.89340816666667, "name": "db25022a9e77a69bcdd1bbdc36c979a1", "fusion_lat": 0.0, "fusion_lon": 0.0, "rental_uris": {"android": "https://dc.lft.to/lastmile_qr_scan", "ios": "https://dc.lft.to/lastmile_qr_scan"}, "is_reserved": 0, "is_disabled": 0, "type": "electric_scooter", "bike_id": "db25022a9e77a69bcdd1bbdc36c979a1"}, {"lon": -77.02238266666667, "lat": 38.8997245, "name": "3bc88410212fc6f4307d18d0ad95ff8e", "fusion_lat": 0.0, "fusion_lon": 0.0, "rental_uris": {"android": "https://dc.lft.to/lastmile_qr_scan", "ios": "https://dc.lft.to/lastmile_qr_scan"}, "is_reserved": 0, "is_disabled": 0, "type": "electric_scooter", "bike_id": "3bc88410212fc6f4307d18d0ad95ff8e"}, {"lon": -76.98687766666667, "lat": 38.882136333333335, "name": "5fc700a4187a42587fc440c916bf00ed", "fusion_lat": 0.0, "fusion_lon": 0.0, "rental_uris": {"android": "https://dc.lft.to/lastmile_qr_scan", "ios": "https://dc.lft.to/lastmile_qr_scan"}, "is_reserved": 0, "is_disabled": 0, "type": "electric_scooter", "bike_id": "5fc700a4187a42587fc440c916bf00ed"}, {"lon": -77.04494916666667, "lat": 38.91952966666667, "name": "7f13ea553aa8b07091d69c6ae9dce1e1", "fusion_lat": 0.0, "fusion_lon": 0.0, "rental_uris": {"android": "https://dc.lft.to/lastmile_qr_scan", "ios": "https://dc.lft.to/lastmile_qr_scan"}, "is_reserved": 0, "is_disabled": 0, "type": "electric_scooter", "bike_id": "7f13ea553aa8b07091d69c6ae9dce1e1"}, {"lon": -77.0086295, "lat": 38.82727533333333, "name": "86fad25a87719ee7dc1a010552d912a8", "fusion_lat": 0.0, "fusion_lon": 0.0, "rental_uris": {"android": "https://dc.lft.to/lastmile_qr_scan", "ios": "https://dc.lft.to/lastmile_qr_scan"}, "is_reserved": 0, "is_disabled": 0, "type": "electric_bike", "bike_id": "86fad25a87719ee7dc1a010552d912a8"}, {"lon": -76.98562016666666, "lat": 38.85591066666667, "name": "aa4a46cc21a7d31ea582b309464a3726", "fusion_lat": 0.0, "fusion_lon": 0.0, "rental_uris": {"android": "https://dc.lft.to/lastmile_qr_scan", "ios": "https://dc.lft.to/lastmile_qr_scan"}, "is_reserved": 0, "is_disabled": 0, "type": "electric_scooter", "bike_id": "aa4a46cc21a7d31ea582b309464a3726"}, {"lon": -77.02605683333333, "lat": 38.8924365, "name": "cfd198e84d4f756addc2b2870e8a50fd", "fusion_lat": 0.0, "fusion_lon": 0.0, "rental_uris": {"android": "https://dc.lft.to/lastmile_qr_scan", "ios": "https://dc.lft.to/lastmile_qr_scan"}, "is_reserved": 0, "is_disabled": 0, "type": "electric_scooter", "bike_id": "cfd198e84d4f756addc2b2870e8a50fd"}, {"lon": -77.0346815, "lat": 38.908941166666665, "name": "7792444aa74a3a6999d35a87dbb7c472", "fusion_lat": 0.0, "fusion_lon": 0.0, "rental_uris": {"android": "https://dc.lft.to/lastmile_qr_scan", "ios": "https://dc.lft.to/lastmile_qr_scan"}, "is_reserved": 0, "is_disabled": 0, "type": "electric_scooter", "bike_id": "7792444aa74a3a6999d35a87dbb7c472"}, {"lon": -77.01952333333334, "lat": 38.924208166666666, "name": "11b86024586ab9fbd93ca110b894dd62", "fusion_lat": 0.0, "fusion_lon": 0.0, "rental_uris": {"android": "https://dc.lft.to/lastmile_qr_scan", "ios": "https://dc.lft.to/lastmile_qr_scan"}, "is_reserved": 0, "is_disabled": 0, "type": "electric_scooter", "bike_id": "11b86024586ab9fbd93ca110b894dd62"}, {"lon": -77.04716533333334, "lat": 38.922422, "name": "70d019af0a766fc6d223db8f6f950d53", "fusion_lat": 0.0, "fusion_lon": 0.0, "rental_uris": {"android": "https://dc.lft.to/lastmile_qr_scan", "ios": "https://dc.lft.to/lastmile_qr_scan"}, "is_reserved": 0, "is_disabled": 0, "type": "electric_scooter", "bike_id": "70d019af0a766fc6d223db8f6f950d53"}, {"lon": -77.00769166666667, "lat": 38.907539666666665, "name": "0e567d022e847047b5c3cdbb10351fbe", "fusion_lat": 0.0, "fusion_lon": 0.0, "rental_uris": {"android": "https://dc.lft.to/lastmile_qr_scan", "ios": "https://dc.lft.to/lastmile_qr_scan"}, "is_reserved": 0, "is_disabled": 0, "type": "electric_scooter", "bike_id": "0e567d022e847047b5c3cdbb10351fbe"}, {"lon": -77.0385375, "lat": 38.90992683333333, "name": "b1cb811fe92796e0d40f1d5c1185f5de", "fusion_lat": 0.0, "fusion_lon": 0.0, "rental_uris": {"android": "https://dc.lft.to/lastmile_qr_scan", "ios": "https://dc.lft.to/lastmile_qr_scan"}, "is_reserved": 0, "is_disabled": 0, "type": "electric_scooter", "bike_id": "b1cb811fe92796e0d40f1d5c1185f5de"}, {"lon": -77.061771, "lat": 38.94321466666667, "name": "247ba0f01058112d87b5e68b77eed9f9", "fusion_lat": 0.0, "fusion_lon": 0.0, "rental_uris": {"android": "https://dc.lft.to/lastmile_qr_scan", "ios": "https://dc.lft.to/lastmile_qr_scan"}, "is_reserved": 0, "is_disabled": 0, "type": "electric_scooter", "bike_id": "247ba0f01058112d87b5e68b77eed9f9"}, {"lon": -77.07272933333333, "lat": 38.93478366666667, "name": "b169b93672f1f48c58dd1f40226aed52", "fusion_lat": 0.0, "fusion_lon": 0.0, "rental_uris": {"android": "https://dc.lft.to/lastmile_qr_scan", "ios": "https://dc.lft.to/lastmile_qr_scan"}, "is_reserved": 0, "is_disabled": 0, "type": "electric_scooter", "bike_id": "b169b93672f1f48c58dd1f40226aed52"}, {"lon": -77.02600366666667, "lat": 38.903505, "name": "225c11d1655cdbba70aaca7441874d93", "fusion_lat": 0.0, "fusion_lon": 0.0, "rental_uris": {"android": "https://dc.lft.to/lastmile_qr_scan", "ios": "https://dc.lft.to/lastmile_qr_scan"}, "is_reserved": 0, "is_disabled": 0, "type": "electric_scooter", "bike_id": "225c11d1655cdbba70aaca7441874d93"}, {"lon": -77.0003775, "lat": 38.91971216666666, "name": "00e7fcf9c58cef64da2bcb4491b6d690", "fusion_lat": 0.0, "fusion_lon": 0.0, "rental_uris": {"android": "https://dc.lft.to/lastmile_qr_scan", "ios": "https://dc.lft.to/lastmile_qr_scan"}, "is_reserved": 0, "is_disabled": 0, "type": "electric_scooter", "bike_id": "00e7fcf9c58cef64da2bcb4491b6d690"}, {"lon": -77.0238815, "lat": 38.957324666666665, "name": "ecfb6973164ffede52a01552656d7db9", "fusion_lat": 0.0, "fusion_lon": 0.0, "rental_uris": {"android": "https://dc.lft.to/lastmile_qr_scan", "ios": "https://dc.lft.to/lastmile_qr_scan"}, "is_reserved": 0, "is_disabled": 0, "type": "electric_scooter", "bike_id": "ecfb6973164ffede52a01552656d7db9"}, {"lon": -76.99619466666667, "lat": 38.88557766666667, "name": "21d21ea7eafed5c479dbd395e3d82578", "fusion_lat": 0.0, "fusion_lon": 0.0, "rental_uris": {"android": "https://dc.lft.to/lastmile_qr_scan", "ios": "https://dc.lft.to/lastmile_qr_scan"}, "is_reserved": 0, "is_disabled": 0, "type": "electric_scooter", "bike_id": "21d21ea7eafed5c479dbd395e3d82578"}, {"lon": -76.987214, "lat": 38.867168666666664, "name": "9b6b652f278742b43b6d62dd06a9cb99", "fusion_lat": 0.0, "fusion_lon": 0.0, "rental_uris": {"android": "https://dc.lft.to/lastmile_qr_scan", "ios": "https://dc.lft.to/lastmile_qr_scan"}, "is_reserved": 0, "is_disabled": 0, "type": "electric_scooter", "bike_id": "9b6b652f278742b43b6d62dd06a9cb99"}, {"lon": -77.05516133333333, "lat": 38.929998, "name": "d52cb96599fb396f751306294d52db7a", "fusion_lat": 0.0, "fusion_lon": 0.0, "rental_uris": {"android": "https://dc.lft.to/lastmile_qr_scan", "ios": "https://dc.lft.to/lastmile_qr_scan"}, "is_reserved": 0, "is_disabled": 0, "type": "electric_scooter", "bike_id": "d52cb96599fb396f751306294d52db7a"}, {"lon": -77.0111615, "lat": 38.870819833333336, "name": "845a8ffce17f4a575e2f121310d63578", "fusion_lat": 0.0, "fusion_lon": 0.0, "rental_uris": {"android": "https://dc.lft.to/lastmile_qr_scan", "ios": "https://dc.lft.to/lastmile_qr_scan"}, "is_reserved": 0, "is_disabled": 0, "type": "electric_scooter", "bike_id": "845a8ffce17f4a575e2f121310d63578"}, {"lon": -77.05388516666666, "lat": 38.9104935, "name": "8aef820a47bb713f54a931dbb31b01b8", "fusion_lat": 0.0, "fusion_lon": 0.0, "rental_uris": {"android": "https://dc.lft.to/lastmile_qr_scan", "ios": "https://dc.lft.to/lastmile_qr_scan"}, "is_reserved": 0, "is_disabled": 0, "type": "electric_scooter", "bike_id": "8aef820a47bb713f54a931dbb31b01b8"}, {"lon": -77.00794133333333, "lat": 38.89713733333333, "name": "6646b9195cbefe5b5dd2beae9a41f3b6", "fusion_lat": 0.0, "fusion_lon": 0.0, "rental_uris": {"android": "https://dc.lft.to/lastmile_qr_scan", "ios": "https://dc.lft.to/lastmile_qr_scan"}, "is_reserved": 0, "is_disabled": 0, "type": "electric_scooter", "bike_id": "6646b9195cbefe5b5dd2beae9a41f3b6"}, {"lon": -77.0260045, "lat": 38.9035035, "name": "8406319615903a1a052b1ebf1a638cc8", "fusion_lat": 0.0, "fusion_lon": 0.0, "rental_uris": {"android": "https://dc.lft.to/lastmile_qr_scan", "ios": "https://dc.lft.to/lastmile_qr_scan"}, "is_reserved": 0, "is_disabled": 0, "type": "electric_scooter", "bike_id": "8406319615903a1a052b1ebf1a638cc8"}, {"lon": -77.04270216666667, "lat": 38.922427, "name": "f17b0ccece976a9eb182cc10d63d2a31", "fusion_lat": 0.0, "fusion_lon": 0.0, "rental_uris": {"android": "https://dc.lft.to/lastmile_qr_scan", "ios": "https://dc.lft.to/lastmile_qr_scan"}, "is_reserved": 0, "is_disabled": 0, "type": "electric_scooter", "bike_id": "f17b0ccece976a9eb182cc10d63d2a31"}, {"lon": -77.02373983333334, "lat": 38.918972, "name": "c11ed4bd50aaed676414ebd2befb4b91", "fusion_lat": 0.0, "fusion_lon": 0.0, "rental_uris": {"android": "https://dc.lft.to/lastmile_qr_scan", "ios": "https://dc.lft.to/lastmile_qr_scan"}, "is_reserved": 0, "is_disabled": 0, "type": "electric_scooter", "bike_id": "c11ed4bd50aaed676414ebd2befb4b91"}, {"lon": -76.9734895, "lat": 38.865077666666664, "name": "f0b1857e7f4c4490d826bfde9445f833", "fusion_lat": 0.0, "fusion_lon": 0.0, "rental_uris": {"android": "https://dc.lft.to/lastmile_qr_scan", "ios": "https://dc.lft.to/lastmile_qr_scan"}, "is_reserved": 0, "is_disabled": 0, "type": "electric_scooter", "bike_id": "f0b1857e7f4c4490d826bfde9445f833"}, {"lon": -77.00603166666667, "lat": 38.90620066666666, "name": "69e0c7bf9099a7fefbe9c82cd221a0cd", "fusion_lat": 0.0, "fusion_lon": 0.0, "rental_uris": {"android": "https://dc.lft.to/lastmile_qr_scan", "ios": "https://dc.lft.to/lastmile_qr_scan"}, "is_reserved": 0, "is_disabled": 0, "type": "electric_scooter", "bike_id": "69e0c7bf9099a7fefbe9c82cd221a0cd"}, {"lon": -76.93193366666667, "lat": 38.889942166666664, "name": "01f5d263796214ffa7a27ba2342c8775", "fusion_lat": 0.0, "fusion_lon": 0.0, "rental_uris": {"android": "https://dc.lft.to/lastmile_qr_scan", "ios": "https://dc.lft.to/lastmile_qr_scan"}, "is_reserved": 0, "is_disabled": 0, "type": "electric_scooter", "bike_id": "01f5d263796214ffa7a27ba2342c8775"}, {"lon": -77.02181483333334, "lat": 38.89248533333333, "name": "6d7c1c5f5f87270ae2318d3096aec274", "fusion_lat": 0.0, "fusion_lon": 0.0, "rental_uris": {"android": "https://dc.lft.to/lastmile_qr_scan", "ios": "https://dc.lft.to/lastmile_qr_scan"}, "is_reserved": 0, "is_disabled": 0, "type": "electric_scooter", "bike_id": "6d7c1c5f5f87270ae2318d3096aec274"}, {"lon": -77.02183883333333, "lat": 38.90978883333333, "name": "fde215e869ef2e819081f8f2d05ea2c5", "fusion_lat": 0.0, "fusion_lon": 0.0, "rental_uris": {"android": "https://dc.lft.to/lastmile_qr_scan", "ios": "https://dc.lft.to/lastmile_qr_scan"}, "is_reserved": 0, "is_disabled": 0, "type": "electric_scooter", "bike_id": "fde215e869ef2e819081f8f2d05ea2c5"}, {"lon": -77.04500233333333, "lat": 38.907786, "name": "43321affc860082576e90c1543070499", "fusion_lat": 0.0, "fusion_lon": 0.0, "rental_uris": {"android": "https://dc.lft.to/lastmile_qr_scan", "ios": "https://dc.lft.to/lastmile_qr_scan"}, "is_reserved": 0, "is_disabled": 0, "type": "electric_scooter", "bike_id": "43321affc860082576e90c1543070499"}, {"lon": -77.02170683333334, "lat": 38.90194366666667, "name": "a3d2b2fe05a79f75a92e1a4987219df9", "fusion_lat": 0.0, "fusion_lon": 0.0, "rental_uris": {"android": "https://dc.lft.to/lastmile_qr_scan", "ios": "https://dc.lft.to/lastmile_qr_scan"}, "is_reserved": 0, "is_disabled": 0, "type": "electric_scooter", "bike_id": "a3d2b2fe05a79f75a92e1a4987219df9"}, {"lon": -77.01803666666666, "lat": 38.90394033333333, "name": "d2ba1ad12a90674c07e9280d92bdbb86", "fusion_lat": 0.0, "fusion_lon": 0.0, "rental_uris": {"android": "https://dc.lft.to/lastmile_qr_scan", "ios": "https://dc.lft.to/lastmile_qr_scan"}, "is_reserved": 0, "is_disabled": 0, "type": "electric_scooter", "bike_id": "d2ba1ad12a90674c07e9280d92bdbb86"}, {"lon": -76.991655, "lat": 38.87917183333333, "name": "21b9fcb316a8e421f83c3a6bd44315a7", "fusion_lat": 0.0, "fusion_lon": 0.0, "rental_uris": {"android": "https://dc.lft.to/lastmile_qr_scan", "ios": "https://dc.lft.to/lastmile_qr_scan"}, "is_reserved": 0, "is_disabled": 0, "type": "electric_scooter", "bike_id": "21b9fcb316a8e421f83c3a6bd44315a7"}, {"lon": -77.02955066666667, "lat": 38.90503833333333, "name": "d3146c5bb4c1caceaf1bf215850b65e9", "fusion_lat": 0.0, "fusion_lon": 0.0, "rental_uris": {"android": "https://dc.lft.to/lastmile_qr_scan", "ios": "https://dc.lft.to/lastmile_qr_scan"}, "is_reserved": 0, "is_disabled": 0, "type": "electric_scooter", "bike_id": "d3146c5bb4c1caceaf1bf215850b65e9"}, {"lon": -77.03386333333333, "lat": 38.92151283333333, "name": "53a52b7ad09baceab51ad6cff2441b08", "fusion_lat": 0.0, "fusion_lon": 0.0, "rental_uris": {"android": "https://dc.lft.to/lastmile_qr_scan", "ios": "https://dc.lft.to/lastmile_qr_scan"}, "is_reserved": 0, "is_disabled": 0, "type": "electric_scooter", "bike_id": "53a52b7ad09baceab51ad6cff2441b08"}, {"lon": -77.02499883333333, "lat": 38.942867166666666, "name": "050362ea58225d8de08fa0cd0bcba385", "fusion_lat": 0.0, "fusion_lon": 0.0, "rental_uris": {"android": "https://dc.lft.to/lastmile_qr_scan", "ios": "https://dc.lft.to/lastmile_qr_scan"}, "is_reserved": 0, "is_disabled": 0, "type": "electric_scooter", "bike_id": "050362ea58225d8de08fa0cd0bcba385"}, {"lon": -77.02798133333333, "lat": 38.89243883333333, "name": "f2a9c5890836cd52852725980b1aceeb", "fusion_lat": 0.0, "fusion_lon": 0.0, "rental_uris": {"android": "https://dc.lft.to/lastmile_qr_scan", "ios": "https://dc.lft.to/lastmile_qr_scan"}, "is_reserved": 0, "is_disabled": 0, "type": "electric_scooter", "bike_id": "f2a9c5890836cd52852725980b1aceeb"}, {"lon": -77.01510766666667, "lat": 38.91347416666667, "name": "324d581085b441554ea82b8996a2c6ff", "fusion_lat": 0.0, "fusion_lon": 0.0, "rental_uris": {"android": "https://dc.lft.to/lastmile_qr_scan", "ios": "https://dc.lft.to/lastmile_qr_scan"}, "is_reserved": 0, "is_disabled": 0, "type": "electric_scooter", "bike_id": "324d581085b441554ea82b8996a2c6ff"}, {"lon": -76.9988485, "lat": 38.907524, "name": "cb1384df3f109c0eb093a27ac82066c7", "fusion_lat": 0.0, "fusion_lon": 0.0, "rental_uris": {"android": "https://dc.lft.to/lastmile_qr_scan", "ios": "https://dc.lft.to/lastmile_qr_scan"}, "is_reserved": 0, "is_disabled": 0, "type": "electric_scooter", "bike_id": "cb1384df3f109c0eb093a27ac82066c7"}, {"lon": -77.00048733333334, "lat": 38.9068755, "name": "4b94bf65952ae698c2eb6edc4fd9418e", "fusion_lat": 0.0, "fusion_lon": 0.0, "rental_uris": {"android": "https://dc.lft.to/lastmile_qr_scan", "ios": "https://dc.lft.to/lastmile_qr_scan"}, "is_reserved": 0, "is_disabled": 0, "type": "electric_scooter", "bike_id": "4b94bf65952ae698c2eb6edc4fd9418e"}, {"lon": -77.06474433333334, "lat": 38.97381566666667, "name": "32e4f00c2118eb52756478babf617071", "fusion_lat": 0.0, "fusion_lon": 0.0, "rental_uris": {"android": "https://dc.lft.to/lastmile_qr_scan", "ios": "https://dc.lft.to/lastmile_qr_scan"}, "is_reserved": 0, "is_disabled": 0, "type": "electric_bike", "bike_id": "32e4f00c2118eb52756478babf617071"}, {"lon": -77.02658916666667, "lat": 38.9386205, "name": "1f65caabef7c64453cac1e99a47b2ca8", "fusion_lat": 0.0, "fusion_lon": 0.0, "rental_uris": {"android": "https://dc.lft.to/lastmile_qr_scan", "ios": "https://dc.lft.to/lastmile_qr_scan"}, "is_reserved": 0, "is_disabled": 0, "type": "electric_bike", "bike_id": "1f65caabef7c64453cac1e99a47b2ca8"}, {"lon": -77.03161883333334, "lat": 38.91416183333333, "name": "cb2ae6e9de30796c3335e1185158a564", "fusion_lat": 0.0, "fusion_lon": 0.0, "rental_uris": {"android": "https://dc.lft.to/lastmile_qr_scan", "ios": "https://dc.lft.to/lastmile_qr_scan"}, "is_reserved": 0, "is_disabled": 0, "type": "electric_scooter", "bike_id": "cb2ae6e9de30796c3335e1185158a564"}, {"lon": -77.03848816666667, "lat": 38.91278333333333, "name": "2de3eae7b5b990f6a3106c31525d282c", "fusion_lat": 0.0, "fusion_lon": 0.0, "rental_uris": {"android": "https://dc.lft.to/lastmile_qr_scan", "ios": "https://dc.lft.to/lastmile_qr_scan"}, "is_reserved": 0, "is_disabled": 0, "type": "electric_scooter", "bike_id": "2de3eae7b5b990f6a3106c31525d282c"}, {"lon": -77.02831533333334, "lat": 38.8952845, "name": "2e1ff70390e515ab2a75891825519a52", "fusion_lat": 0.0, "fusion_lon": 0.0, "rental_uris": {"android": "https://dc.lft.to/lastmile_qr_scan", "ios": "https://dc.lft.to/lastmile_qr_scan"}, "is_reserved": 0, "is_disabled": 0, "type": "electric_scooter", "bike_id": "2e1ff70390e515ab2a75891825519a52"}, {"lon": -77.00216483333334, "lat": 38.905133666666664, "name": "f83ec8dd708b4b2a90ccf2cd66f8a59e", "fusion_lat": 0.0, "fusion_lon": 0.0, "rental_uris": {"android": "https://dc.lft.to/lastmile_qr_scan", "ios": "https://dc.lft.to/lastmile_qr_scan"}, "is_reserved": 0, "is_disabled": 0, "type": "electric_scooter", "bike_id": "f83ec8dd708b4b2a90ccf2cd66f8a59e"}, {"lon": -77.00506833333333, "lat": 38.875359, "name": "f0b5e826520224c2ca733391f27746a4", "fusion_lat": 0.0, "fusion_lon": 0.0, "rental_uris": {"android": "https://dc.lft.to/lastmile_qr_scan", "ios": "https://dc.lft.to/lastmile_qr_scan"}, "is_reserved": 0, "is_disabled": 0, "type": "electric_scooter", "bike_id": "f0b5e826520224c2ca733391f27746a4"}, {"lon": -76.99170083333334, "lat": 38.87925216666667, "name": "130a3a3c8666c4838626b4d69e758440", "fusion_lat": 0.0, "fusion_lon": 0.0, "rental_uris": {"android": "https://dc.lft.to/lastmile_qr_scan", "ios": "https://dc.lft.to/lastmile_qr_scan"}, "is_reserved": 0, "is_disabled": 0, "type": "electric_scooter", "bike_id": "130a3a3c8666c4838626b4d69e758440"}, {"lon": -77.03802316666666, "lat": 38.925454333333334, "name": "2c866ea886d5c37589e6709e3d08685c", "fusion_lat": 0.0, "fusion_lon": 0.0, "rental_uris": {"android": "https://dc.lft.to/lastmile_qr_scan", "ios": "https://dc.lft.to/lastmile_qr_scan"}, "is_reserved": 0, "is_disabled": 0, "type": "electric_scooter", "bike_id": "2c866ea886d5c37589e6709e3d08685c"}, {"lon": -77.02060366666667, "lat": 38.92015583333333, "name": "258f595fe557b61d410b5b5bfb6a97f6", "fusion_lat": 0.0, "fusion_lon": 0.0, "rental_uris": {"android": "https://dc.lft.to/lastmile_qr_scan", "ios": "https://dc.lft.to/lastmile_qr_scan"}, "is_reserved": 0, "is_disabled": 0, "type": "electric_scooter", "bike_id": "258f595fe557b61d410b5b5bfb6a97f6"}, {"lon": -77.02673683333333, "lat": 38.99746733333333, "name": "8f3e4443276171f25652e36e750125ac", "fusion_lat": 0.0, "fusion_lon": 0.0, "rental_uris": {"android": "https://dc.lft.to/lastmile_qr_scan", "ios": "https://dc.lft.to/lastmile_qr_scan"}, "is_reserved": 0, "is_disabled": 0, "type": "electric_bike", "bike_id": "8f3e4443276171f25652e36e750125ac"}, {"lon": -77.044259, "lat": 38.91072716666667, "name": "e7d852e09ffa1f218840ddd1f7ab18c3", "fusion_lat": 0.0, "fusion_lon": 0.0, "rental_uris": {"android": "https://dc.lft.to/lastmile_qr_scan", "ios": "https://dc.lft.to/lastmile_qr_scan"}, "is_reserved": 0, "is_disabled": 0, "type": "electric_scooter", "bike_id": "e7d852e09ffa1f218840ddd1f7ab18c3"}, {"lon": -77.03688633333333, "lat": 38.91675716666666, "name": "5a9bc536011199c0cd08071c1c6e091b", "fusion_lat": 0.0, "fusion_lon": 0.0, "rental_uris": {"android": "https://dc.lft.to/lastmile_qr_scan", "ios": "https://dc.lft.to/lastmile_qr_scan"}, "is_reserved": 0, "is_disabled": 0, "type": "electric_scooter", "bike_id": "5a9bc536011199c0cd08071c1c6e091b"}, {"lon": -77.02008233333333, "lat": 38.902471166666665, "name": "0968742e382b6d775d7fb9974c4d71f7", "fusion_lat": 0.0, "fusion_lon": 0.0, "rental_uris": {"android": "https://dc.lft.to/lastmile_qr_scan", "ios": "https://dc.lft.to/lastmile_qr_scan"}, "is_reserved": 0, "is_disabled": 0, "type": "electric_scooter", "bike_id": "0968742e382b6d775d7fb9974c4d71f7"}, {"lon": -77.06904866666666, "lat": 38.9075055, "name": "53615ec2fc47275296bbf9ddf626a0d5", "fusion_lat": 0.0, "fusion_lon": 0.0, "rental_uris": {"android": "https://dc.lft.to/lastmile_qr_scan", "ios": "https://dc.lft.to/lastmile_qr_scan"}, "is_reserved": 0, "is_disabled": 0, "type": "electric_scooter", "bike_id": "53615ec2fc47275296bbf9ddf626a0d5"}, {"lon": -77.10718533333333, "lat": 38.855431833333334, "name": "5e0f57e8061e5eb0cfe14974afed34c6", "fusion_lat": 0.0, "fusion_lon": 0.0, "rental_uris": {"android": "https://dc.lft.to/lastmile_qr_scan", "ios": "https://dc.lft.to/lastmile_qr_scan"}, "is_reserved": 0, "is_disabled": 0, "type": "electric_bike", "bike_id": "5e0f57e8061e5eb0cfe14974afed34c6"}, {"lon": -77.0661295, "lat": 38.90523666666667, "name": "bb998f6514ed54bb53c695c3d2d59fd3", "fusion_lat": 0.0, "fusion_lon": 0.0, "rental_uris": {"android": "https://dc.lft.to/lastmile_qr_scan", "ios": "https://dc.lft.to/lastmile_qr_scan"}, "is_reserved": 0, "is_disabled": 0, "type": "electric_scooter", "bike_id": "bb998f6514ed54bb53c695c3d2d59fd3"}, {"lon": -76.9855965, "lat": 38.868922, "name": "4b8c261d6e840cbf6ff124478332828c", "fusion_lat": 0.0, "fusion_lon": 0.0, "rental_uris": {"android": "https://dc.lft.to/lastmile_qr_scan", "ios": "https://dc.lft.to/lastmile_qr_scan"}, "is_reserved": 0, "is_disabled": 0, "type": "electric_bike", "bike_id": "4b8c261d6e840cbf6ff124478332828c"}, {"lon": -77.02693516666666, "lat": 38.909376, "name": "8f7e65f8108374b72d415263b7edd30b", "fusion_lat": 0.0, "fusion_lon": 0.0, "rental_uris": {"android": "https://dc.lft.to/lastmile_qr_scan", "ios": "https://dc.lft.to/lastmile_qr_scan"}, "is_reserved": 0, "is_disabled": 0, "type": "electric_scooter", "bike_id": "8f7e65f8108374b72d415263b7edd30b"}, {"lon": -77.018394, "lat": 38.9134405, "name": "05bdb32a464f8511a1b78027472740fa", "fusion_lat": 0.0, "fusion_lon": 0.0, "rental_uris": {"android": "https://dc.lft.to/lastmile_qr_scan", "ios": "https://dc.lft.to/lastmile_qr_scan"}, "is_reserved": 0, "is_disabled": 0, "type": "electric_scooter", "bike_id": "05bdb32a464f8511a1b78027472740fa"}, {"lon": -77.021968, "lat": 38.916863166666666, "name": "18a9bbd5651aa478ccdcd7a8aab8c696", "fusion_lat": 0.0, "fusion_lon": 0.0, "rental_uris": {"android": "https://dc.lft.to/lastmile_qr_scan", "ios": "https://dc.lft.to/lastmile_qr_scan"}, "is_reserved": 0, "is_disabled": 0, "type": "electric_scooter", "bike_id": "18a9bbd5651aa478ccdcd7a8aab8c696"}, {"lon": -77.04228216666667, "lat": 38.9110865, "name": "737e6f08f164f9aa193a5e4fdb10a484", "fusion_lat": 0.0, "fusion_lon": 0.0, "rental_uris": {"android": "https://dc.lft.to/lastmile_qr_scan", "ios": "https://dc.lft.to/lastmile_qr_scan"}, "is_reserved": 0, "is_disabled": 0, "type": "electric_scooter", "bike_id": "737e6f08f164f9aa193a5e4fdb10a484"}, {"lon": -77.051587, "lat": 38.90589266666667, "name": "20c55156ec54710f8e60356d5f8b2f21", "fusion_lat": 0.0, "fusion_lon": 0.0, "rental_uris": {"android": "https://dc.lft.to/lastmile_qr_scan", "ios": "https://dc.lft.to/lastmile_qr_scan"}, "is_reserved": 0, "is_disabled": 0, "type": "electric_scooter", "bike_id": "20c55156ec54710f8e60356d5f8b2f21"}, {"lon": -76.9812775, "lat": 38.891966333333336, "name": "bbb4758010830363e360b8206a5018d6", "fusion_lat": 0.0, "fusion_lon": 0.0, "rental_uris": {"android": "https://dc.lft.to/lastmile_qr_scan", "ios": "https://dc.lft.to/lastmile_qr_scan"}, "is_reserved": 0, "is_disabled": 0, "type": "electric_scooter", "bike_id": "bbb4758010830363e360b8206a5018d6"}, {"lon": -77.046409, "lat": 38.892255, "name": "488e1711ce2069dd2cd9be6bb9c3cc29", "fusion_lat": 0.0, "fusion_lon": 0.0, "rental_uris": {"android": "https://dc.lft.to/lastmile_qr_scan", "ios": "https://dc.lft.to/lastmile_qr_scan"}, "is_reserved": 0, "is_disabled": 0, "type": "electric_scooter", "bike_id": "488e1711ce2069dd2cd9be6bb9c3cc29"}, {"lon": -77.03241566666667, "lat": 38.920596333333336, "name": "533f092f684f2b15c2a5fbc42af90f3c", "fusion_lat": 0.0, "fusion_lon": 0.0, "rental_uris": {"android": "https://dc.lft.to/lastmile_qr_scan", "ios": "https://dc.lft.to/lastmile_qr_scan"}, "is_reserved": 0, "is_disabled": 0, "type": "electric_scooter", "bike_id": "533f092f684f2b15c2a5fbc42af90f3c"}, {"lon": -76.997816, "lat": 38.885485833333334, "name": "435f1cab97b2c4fbaa2829f13dde4ea9", "fusion_lat": 0.0, "fusion_lon": 0.0, "rental_uris": {"android": "https://dc.lft.to/lastmile_qr_scan", "ios": "https://dc.lft.to/lastmile_qr_scan"}, "is_reserved": 0, "is_disabled": 0, "type": "electric_scooter", "bike_id": "435f1cab97b2c4fbaa2829f13dde4ea9"}, {"lon": -76.95518083333333, "lat": 38.8905435, "name": "07ab81ca3f870f9f38751cbf0eeb3060", "fusion_lat": 0.0, "fusion_lon": 0.0, "rental_uris": {"android": "https://dc.lft.to/lastmile_qr_scan", "ios": "https://dc.lft.to/lastmile_qr_scan"}, "is_reserved": 0, "is_disabled": 0, "type": "electric_scooter", "bike_id": "07ab81ca3f870f9f38751cbf0eeb3060"}, {"lon": -77.04270333333334, "lat": 38.9341025, "name": "013fdc2b157275dd2012cd708116bca4", "fusion_lat": 0.0, "fusion_lon": 0.0, "rental_uris": {"android": "https://dc.lft.to/lastmile_qr_scan", "ios": "https://dc.lft.to/lastmile_qr_scan"}, "is_reserved": 0, "is_disabled": 0, "type": "electric_scooter", "bike_id": "013fdc2b157275dd2012cd708116bca4"}, {"lon": -77.03660583333334, "lat": 38.9125795, "name": "277b36e6e0d7761323d07e8876c2343a", "fusion_lat": 0.0, "fusion_lon": 0.0, "rental_uris": {"android": "https://dc.lft.to/lastmile_qr_scan", "ios": "https://dc.lft.to/lastmile_qr_scan"}, "is_reserved": 0, "is_disabled": 0, "type": "electric_scooter", "bike_id": "277b36e6e0d7761323d07e8876c2343a"}, {"lon": -76.946322, "lat": 38.94622366666667, "name": "7853c3bf0353b2a20530c19e8fa3e2f9", "fusion_lat": 0.0, "fusion_lon": 0.0, "rental_uris": {"android": "https://dc.lft.to/lastmile_qr_scan", "ios": "https://dc.lft.to/lastmile_qr_scan"}, "is_reserved": 0, "is_disabled": 0, "type": "electric_bike", "bike_id": "7853c3bf0353b2a20530c19e8fa3e2f9"}, {"lon": -77.07663, "lat": 38.90625266666667, "name": "b8ff715ea0b6e4752b272dfc7bc78043", "fusion_lat": 0.0, "fusion_lon": 0.0, "rental_uris": {"android": "https://dc.lft.to/lastmile_qr_scan", "ios": "https://dc.lft.to/lastmile_qr_scan"}, "is_reserved": 0, "is_disabled": 0, "type": "electric_scooter", "bike_id": "b8ff715ea0b6e4752b272dfc7bc78043"}, {"lon": -77.0315345, "lat": 38.8939025, "name": "350e6464f7300496192b5a058a423a9e", "fusion_lat": 0.0, "fusion_lon": 0.0, "rental_uris": {"android": "https://dc.lft.to/lastmile_qr_scan", "ios": "https://dc.lft.to/lastmile_qr_scan"}, "is_reserved": 0, "is_disabled": 0, "type": "electric_scooter", "bike_id": "350e6464f7300496192b5a058a423a9e"}, {"lon": -77.0390025, "lat": 38.91714016666667, "name": "5b7bfd349ac8c86e472d7ae0baa7d771", "fusion_lat": 0.0, "fusion_lon": 0.0, "rental_uris": {"android": "https://dc.lft.to/lastmile_qr_scan", "ios": "https://dc.lft.to/lastmile_qr_scan"}, "is_reserved": 0, "is_disabled": 0, "type": "electric_scooter", "bike_id": "5b7bfd349ac8c86e472d7ae0baa7d771"}, {"lon": -77.03434316666667, "lat": 38.939713833333336, "name": "6def39308f52fb38ca7aaf4109c13f46", "fusion_lat": 0.0, "fusion_lon": 0.0, "rental_uris": {"android": "https://dc.lft.to/lastmile_qr_scan", "ios": "https://dc.lft.to/lastmile_qr_scan"}, "is_reserved": 0, "is_disabled": 0, "type": "electric_scooter", "bike_id": "6def39308f52fb38ca7aaf4109c13f46"}, {"lon": -77.04092616666667, "lat": 38.912546166666665, "name": "0dfddffcdbf048ecaae1e1b911d5f3e2", "fusion_lat": 0.0, "fusion_lon": 0.0, "rental_uris": {"android": "https://dc.lft.to/lastmile_qr_scan", "ios": "https://dc.lft.to/lastmile_qr_scan"}, "is_reserved": 0, "is_disabled": 0, "type": "electric_scooter", "bike_id": "0dfddffcdbf048ecaae1e1b911d5f3e2"}, {"lon": -77.04678366666667, "lat": 38.900669, "name": "e04b5b7ea5ec573c41382a868301a9ad", "fusion_lat": 0.0, "fusion_lon": 0.0, "rental_uris": {"android": "https://dc.lft.to/lastmile_qr_scan", "ios": "https://dc.lft.to/lastmile_qr_scan"}, "is_reserved": 0, "is_disabled": 0, "type": "electric_scooter", "bike_id": "e04b5b7ea5ec573c41382a868301a9ad"}, {"lon": -77.100317, "lat": 38.99061783333333, "name": "4996b1360c0ac53f2df5d9573912c598", "fusion_lat": 0.0, "fusion_lon": 0.0, "rental_uris": {"android": "https://dc.lft.to/lastmile_qr_scan", "ios": "https://dc.lft.to/lastmile_qr_scan"}, "is_reserved": 0, "is_disabled": 0, "type": "electric_bike", "bike_id": "4996b1360c0ac53f2df5d9573912c598"}, {"lon": -76.9465415, "lat": 38.89825533333333, "name": "f9e5f5ec839094dfe07c90642883260b", "fusion_lat": 0.0, "fusion_lon": 0.0, "rental_uris": {"android": "https://dc.lft.to/lastmile_qr_scan", "ios": "https://dc.lft.to/lastmile_qr_scan"}, "is_reserved": 0, "is_disabled": 0, "type": "electric_scooter", "bike_id": "f9e5f5ec839094dfe07c90642883260b"}, {"lon": -77.03640666666666, "lat": 38.917873, "name": "91c25e10cc3fd547565aff40f3221004", "fusion_lat": 0.0, "fusion_lon": 0.0, "rental_uris": {"android": "https://dc.lft.to/lastmile_qr_scan", "ios": "https://dc.lft.to/lastmile_qr_scan"}, "is_reserved": 0, "is_disabled": 0, "type": "electric_scooter", "bike_id": "91c25e10cc3fd547565aff40f3221004"}, {"lon": -77.021271, "lat": 38.902952166666665, "name": "cd88fb637f54bc68b7a4fc198945e090", "fusion_lat": 0.0, "fusion_lon": 0.0, "rental_uris": {"android": "https://dc.lft.to/lastmile_qr_scan", "ios": "https://dc.lft.to/lastmile_qr_scan"}, "is_reserved": 0, "is_disabled": 0, "type": "electric_scooter", "bike_id": "cd88fb637f54bc68b7a4fc198945e090"}, {"lon": -77.00033783333333, "lat": 38.873764, "name": "e54527eb14945ba6583b0dea3d650774", "fusion_lat": 0.0, "fusion_lon": 0.0, "rental_uris": {"android": "https://dc.lft.to/lastmile_qr_scan", "ios": "https://dc.lft.to/lastmile_qr_scan"}, "is_reserved": 0, "is_disabled": 0, "type": "electric_scooter", "bike_id": "e54527eb14945ba6583b0dea3d650774"}, {"lon": -77.041837, "lat": 38.9204895, "name": "b8b3c5f54a8e7f45117811b71a06f4bd", "fusion_lat": 0.0, "fusion_lon": 0.0, "rental_uris": {"android": "https://dc.lft.to/lastmile_qr_scan", "ios": "https://dc.lft.to/lastmile_qr_scan"}, "is_reserved": 0, "is_disabled": 0, "type": "electric_scooter", "bike_id": "b8b3c5f54a8e7f45117811b71a06f4bd"}, {"lon": -77.04901766666667, "lat": 38.874921, "name": "1144076220bb5b71b610326c7a1fbb05", "fusion_lat": 0.0, "fusion_lon": 0.0, "rental_uris": {"android": "https://dc.lft.to/lastmile_qr_scan", "ios": "https://dc.lft.to/lastmile_qr_scan"}, "is_reserved": 0, "is_disabled": 0, "type": "electric_bike", "bike_id": "1144076220bb5b71b610326c7a1fbb05"}, {"lon": -76.9857465, "lat": 38.8988225, "name": "be4ed0030750c51ef08bfe5bc21ec7c8", "fusion_lat": 0.0, "fusion_lon": 0.0, "rental_uris": {"android": "https://dc.lft.to/lastmile_qr_scan", "ios": "https://dc.lft.to/lastmile_qr_scan"}, "is_reserved": 0, "is_disabled": 0, "type": "electric_scooter", "bike_id": "be4ed0030750c51ef08bfe5bc21ec7c8"}, {"lon": -77.04687166666666, "lat": 38.89222916666667, "name": "5c27c2092a0854b3c20942852a63c7f0", "fusion_lat": 0.0, "fusion_lon": 0.0, "rental_uris": {"android": "https://dc.lft.to/lastmile_qr_scan", "ios": "https://dc.lft.to/lastmile_qr_scan"}, "is_reserved": 0, "is_disabled": 0, "type": "electric_scooter", "bike_id": "5c27c2092a0854b3c20942852a63c7f0"}, {"lon": -77.00475016666667, "lat": 38.87762333333333, "name": "76a8d0ac66fd40c6a4566bb97c153bac", "fusion_lat": 0.0, "fusion_lon": 0.0, "rental_uris": {"android": "https://dc.lft.to/lastmile_qr_scan", "ios": "https://dc.lft.to/lastmile_qr_scan"}, "is_reserved": 0, "is_disabled": 0, "type": "electric_scooter", "bike_id": "76a8d0ac66fd40c6a4566bb97c153bac"}, {"lon": -77.01814233333333, "lat": 38.911951, "name": "3b8a08e35931c18fd44601506dd78ace", "fusion_lat": 0.0, "fusion_lon": 0.0, "rental_uris": {"android": "https://dc.lft.to/lastmile_qr_scan", "ios": "https://dc.lft.to/lastmile_qr_scan"}, "is_reserved": 0, "is_disabled": 0, "type": "electric_scooter", "bike_id": "3b8a08e35931c18fd44601506dd78ace"}, {"lon": -77.03345933333334, "lat": 38.9287395, "name": "745ec5de4252943befe087cd9e94f383", "fusion_lat": 0.0, "fusion_lon": 0.0, "rental_uris": {"android": "https://dc.lft.to/lastmile_qr_scan", "ios": "https://dc.lft.to/lastmile_qr_scan"}, "is_reserved": 0, "is_disabled": 0, "type": "electric_scooter", "bike_id": "745ec5de4252943befe087cd9e94f383"}, {"lon": -77.03208566666666, "lat": 38.9157475, "name": "a58760960503acffa9402358e70a9309", "fusion_lat": 0.0, "fusion_lon": 0.0, "rental_uris": {"android": "https://dc.lft.to/lastmile_qr_scan", "ios": "https://dc.lft.to/lastmile_qr_scan"}, "is_reserved": 0, "is_disabled": 0, "type": "electric_scooter", "bike_id": "a58760960503acffa9402358e70a9309"}, {"lon": -77.042076, "lat": 38.921083833333334, "name": "ccccea1dad2533c811df440908d81230", "fusion_lat": 0.0, "fusion_lon": 0.0, "rental_uris": {"android": "https://dc.lft.to/lastmile_qr_scan", "ios": "https://dc.lft.to/lastmile_qr_scan"}, "is_reserved": 0, "is_disabled": 0, "type": "electric_scooter", "bike_id": "ccccea1dad2533c811df440908d81230"}, {"lon": -77.00051816666667, "lat": 38.87341333333333, "name": "2b205c51178f0a8276f9194c70c2563b", "fusion_lat": 0.0, "fusion_lon": 0.0, "rental_uris": {"android": "https://dc.lft.to/lastmile_qr_scan", "ios": "https://dc.lft.to/lastmile_qr_scan"}, "is_reserved": 0, "is_disabled": 0, "type": "electric_scooter", "bike_id": "2b205c51178f0a8276f9194c70c2563b"}, {"lon": -77.039977, "lat": 38.907326833333336, "name": "ed53748b050d9243d26ecb889f42d10b", "fusion_lat": 0.0, "fusion_lon": 0.0, "rental_uris": {"android": "https://dc.lft.to/lastmile_qr_scan", "ios": "https://dc.lft.to/lastmile_qr_scan"}, "is_reserved": 0, "is_disabled": 0, "type": "electric_scooter", "bike_id": "ed53748b050d9243d26ecb889f42d10b"}, {"lon": -76.97732366666666, "lat": 38.87285883333333, "name": "6dccc2db3571258bc9076b24b21d8e27", "fusion_lat": 0.0, "fusion_lon": 0.0, "rental_uris": {"android": "https://dc.lft.to/lastmile_qr_scan", "ios": "https://dc.lft.to/lastmile_qr_scan"}, "is_reserved": 0, "is_disabled": 0, "type": "electric_scooter", "bike_id": "6dccc2db3571258bc9076b24b21d8e27"}, {"lon": -77.04667666666667, "lat": 38.91567833333333, "name": "10500fd581f8ef6044d44eec6d5eb4d3", "fusion_lat": 0.0, "fusion_lon": 0.0, "rental_uris": {"android": "https://dc.lft.to/lastmile_qr_scan", "ios": "https://dc.lft.to/lastmile_qr_scan"}, "is_reserved": 0, "is_disabled": 0, "type": "electric_scooter", "bike_id": "10500fd581f8ef6044d44eec6d5eb4d3"}, {"lon": -77.03829733333333, "lat": 38.92171, "name": "44e774d6b40985bbdf1927f6b1d49a63", "fusion_lat": 0.0, "fusion_lon": 0.0, "rental_uris": {"android": "https://dc.lft.to/lastmile_qr_scan", "ios": "https://dc.lft.to/lastmile_qr_scan"}, "is_reserved": 0, "is_disabled": 0, "type": "electric_scooter", "bike_id": "44e774d6b40985bbdf1927f6b1d49a63"}, {"lon": -77.03390816666666, "lat": 38.9206545, "name": "382416d99b71d632c3157bc8adb49ed7", "fusion_lat": 0.0, "fusion_lon": 0.0, "rental_uris": {"android": "https://dc.lft.to/lastmile_qr_scan", "ios": "https://dc.lft.to/lastmile_qr_scan"}, "is_reserved": 0, "is_disabled": 0, "type": "electric_scooter", "bike_id": "382416d99b71d632c3157bc8adb49ed7"}, {"lon": -77.1318365, "lat": 38.8690915, "name": "8de5ccdd8f177af977344a79ea4dd16d", "fusion_lat": 0.0, "fusion_lon": 0.0, "rental_uris": {"android": "https://dc.lft.to/lastmile_qr_scan", "ios": "https://dc.lft.to/lastmile_qr_scan"}, "is_reserved": 0, "is_disabled": 0, "type": "electric_bike", "bike_id": "8de5ccdd8f177af977344a79ea4dd16d"}, {"lon": -77.03944816666667, "lat": 38.93155266666667, "name": "a967c94875467d0c2d690640e64018e3", "fusion_lat": 0.0, "fusion_lon": 0.0, "rental_uris": {"android": "https://dc.lft.to/lastmile_qr_scan", "ios": "https://dc.lft.to/lastmile_qr_scan"}, "is_reserved": 0, "is_disabled": 0, "type": "electric_scooter", "bike_id": "a967c94875467d0c2d690640e64018e3"}, {"lon": -76.996413, "lat": 38.9324445, "name": "14a772e1f28f5b2d44f42467300071a8", "fusion_lat": 0.0, "fusion_lon": 0.0, "rental_uris": {"android": "https://dc.lft.to/lastmile_qr_scan", "ios": "https://dc.lft.to/lastmile_qr_scan"}, "is_reserved": 0, "is_disabled": 0, "type": "electric_bike", "bike_id": "14a772e1f28f5b2d44f42467300071a8"}, {"lon": -77.03779733333333, "lat": 38.996661333333336, "name": "c21dc7811052b1f0ce04d6f372889adf", "fusion_lat": 0.0, "fusion_lon": 0.0, "rental_uris": {"android": "https://dc.lft.to/lastmile_qr_scan", "ios": "https://dc.lft.to/lastmile_qr_scan"}, "is_reserved": 0, "is_disabled": 0, "type": "electric_bike", "bike_id": "c21dc7811052b1f0ce04d6f372889adf"}, {"lon": -77.01579916666667, "lat": 38.9168155, "name": "ff222290e147c509ed5bb4b8506f02e2", "fusion_lat": 0.0, "fusion_lon": 0.0, "rental_uris": {"android": "https://dc.lft.to/lastmile_qr_scan", "ios": "https://dc.lft.to/lastmile_qr_scan"}, "is_reserved": 0, "is_disabled": 0, "type": "electric_scooter", "bike_id": "ff222290e147c509ed5bb4b8506f02e2"}, {"lon": -76.98904616666667, "lat": 38.8669275, "name": "90a7c1355e5926ca69a8d04fb948b24c", "fusion_lat": 0.0, "fusion_lon": 0.0, "rental_uris": {"android": "https://dc.lft.to/lastmile_qr_scan", "ios": "https://dc.lft.to/lastmile_qr_scan"}, "is_reserved": 0, "is_disabled": 0, "type": "electric_scooter", "bike_id": "90a7c1355e5926ca69a8d04fb948b24c"}, {"lon": -77.02951933333334, "lat": 38.917221833333336, "name": "3e6f973add8879f9a28eff80ecf20de0", "fusion_lat": 0.0, "fusion_lon": 0.0, "rental_uris": {"android": "https://dc.lft.to/lastmile_qr_scan", "ios": "https://dc.lft.to/lastmile_qr_scan"}, "is_reserved": 0, "is_disabled": 0, "type": "electric_scooter", "bike_id": "3e6f973add8879f9a28eff80ecf20de0"}, {"lon": -77.0271755, "lat": 38.8951555, "name": "ecdf804d22e028d565e054805e22400a", "fusion_lat": 0.0, "fusion_lon": 0.0, "rental_uris": {"android": "https://dc.lft.to/lastmile_qr_scan", "ios": "https://dc.lft.to/lastmile_qr_scan"}, "is_reserved": 0, "is_disabled": 0, "type": "electric_bike", "bike_id": "ecdf804d22e028d565e054805e22400a"}, {"lon": -77.0366205, "lat": 38.922837333333334, "name": "0d9fae0a32781dc1204b5d344c3996f9", "fusion_lat": 0.0, "fusion_lon": 0.0, "rental_uris": {"android": "https://dc.lft.to/lastmile_qr_scan", "ios": "https://dc.lft.to/lastmile_qr_scan"}, "is_reserved": 0, "is_disabled": 0, "type": "electric_scooter", "bike_id": "0d9fae0a32781dc1204b5d344c3996f9"}, {"lon": -77.0306875, "lat": 38.880463166666665, "name": "96be399f59edad95d894a08b44ade072", "fusion_lat": 0.0, "fusion_lon": 0.0, "rental_uris": {"android": "https://dc.lft.to/lastmile_qr_scan", "ios": "https://dc.lft.to/lastmile_qr_scan"}, "is_reserved": 0, "is_disabled": 0, "type": "electric_scooter", "bike_id": "96be399f59edad95d894a08b44ade072"}, {"lon": -77.03422066666667, "lat": 38.92947766666666, "name": "199ee8deb1d64878ba4bd0388fae03ca", "fusion_lat": 0.0, "fusion_lon": 0.0, "rental_uris": {"android": "https://dc.lft.to/lastmile_qr_scan", "ios": "https://dc.lft.to/lastmile_qr_scan"}, "is_reserved": 0, "is_disabled": 0, "type": "electric_scooter", "bike_id": "199ee8deb1d64878ba4bd0388fae03ca"}, {"lon": -77.04286866666666, "lat": 38.907166333333336, "name": "434f24fd9af9b7efacb31358cfa7040e", "fusion_lat": 0.0, "fusion_lon": 0.0, "rental_uris": {"android": "https://dc.lft.to/lastmile_qr_scan", "ios": "https://dc.lft.to/lastmile_qr_scan"}, "is_reserved": 0, "is_disabled": 0, "type": "electric_scooter", "bike_id": "434f24fd9af9b7efacb31358cfa7040e"}, {"lon": -76.957445, "lat": 38.89218133333333, "name": "2b04fa18f2ec87e44921a71e22d5ce49", "fusion_lat": 0.0, "fusion_lon": 0.0, "rental_uris": {"android": "https://dc.lft.to/lastmile_qr_scan", "ios": "https://dc.lft.to/lastmile_qr_scan"}, "is_reserved": 0, "is_disabled": 0, "type": "electric_scooter", "bike_id": "2b04fa18f2ec87e44921a71e22d5ce49"}, {"lon": -76.99779833333334, "lat": 38.88551133333333, "name": "3237698e3c1ab0e57aa862c42315866f", "fusion_lat": 0.0, "fusion_lon": 0.0, "rental_uris": {"android": "https://dc.lft.to/lastmile_qr_scan", "ios": "https://dc.lft.to/lastmile_qr_scan"}, "is_reserved": 0, "is_disabled": 0, "type": "electric_scooter", "bike_id": "3237698e3c1ab0e57aa862c42315866f"}, {"lon": -77.03668, "lat": 38.902795166666664, "name": "027816e947e521ba7915fc9e253f1092", "fusion_lat": 0.0, "fusion_lon": 0.0, "rental_uris": {"android": "https://dc.lft.to/lastmile_qr_scan", "ios": "https://dc.lft.to/lastmile_qr_scan"}, "is_reserved": 0, "is_disabled": 0, "type": "electric_scooter", "bike_id": "027816e947e521ba7915fc9e253f1092"}, {"lon": -76.98900916666666, "lat": 38.866909, "name": "963257bcfa2fc44c7f4b24a995d96ddc", "fusion_lat": 0.0, "fusion_lon": 0.0, "rental_uris": {"android": "https://dc.lft.to/lastmile_qr_scan", "ios": "https://dc.lft.to/lastmile_qr_scan"}, "is_reserved": 0, "is_disabled": 0, "type": "electric_scooter", "bike_id": "963257bcfa2fc44c7f4b24a995d96ddc"}, {"lon": -77.04307583333333, "lat": 39.0544965, "name": "ec6103e7a2dd88cd5d0b013a9d0011d0", "fusion_lat": 0.0, "fusion_lon": 0.0, "rental_uris": {"android": "https://dc.lft.to/lastmile_qr_scan", "ios": "https://dc.lft.to/lastmile_qr_scan"}, "is_reserved": 0, "is_disabled": 0, "type": "electric_bike", "bike_id": "ec6103e7a2dd88cd5d0b013a9d0011d0"}, {"lon": -77.17846, "lat": 39.088573333333336, "name": "08e874ac82bd09a2caae10bacd712afe", "fusion_lat": 0.0, "fusion_lon": 0.0, "rental_uris": {"android": "https://dc.lft.to/lastmile_qr_scan", "ios": "https://dc.lft.to/lastmile_qr_scan"}, "is_reserved": 0, "is_disabled": 0, "type": "electric_bike", "bike_id": "08e874ac82bd09a2caae10bacd712afe"}, {"lon": -77.018882, "lat": 38.90238083333333, "name": "147d4bf97f3241e2ca65977220e953d4", "fusion_lat": 0.0, "fusion_lon": 0.0, "rental_uris": {"android": "https://dc.lft.to/lastmile_qr_scan", "ios": "https://dc.lft.to/lastmile_qr_scan"}, "is_reserved": 0, "is_disabled": 0, "type": "electric_scooter", "bike_id": "147d4bf97f3241e2ca65977220e953d4"}, {"lon": -77.02952183333333, "lat": 38.917197333333334, "name": "ce7f652554ce6b10a5c56c95c313d072", "fusion_lat": 0.0, "fusion_lon": 0.0, "rental_uris": {"android": "https://dc.lft.to/lastmile_qr_scan", "ios": "https://dc.lft.to/lastmile_qr_scan"}, "is_reserved": 0, "is_disabled": 0, "type": "electric_scooter", "bike_id": "ce7f652554ce6b10a5c56c95c313d072"}, {"lon": -77.0270865, "lat": 38.949963833333335, "name": "155a644ca77c3d20acb8119853684cf9", "fusion_lat": 0.0, "fusion_lon": 0.0, "rental_uris": {"android": "https://dc.lft.to/lastmile_qr_scan", "ios": "https://dc.lft.to/lastmile_qr_scan"}, "is_reserved": 0, "is_disabled": 0, "type": "electric_scooter", "bike_id": "155a644ca77c3d20acb8119853684cf9"}, {"lon": -77.0385845, "lat": 38.911678, "name": "c95ae594ccfcfe8ef2ec9ff3cae1b521", "fusion_lat": 0.0, "fusion_lon": 0.0, "rental_uris": {"android": "https://dc.lft.to/lastmile_qr_scan", "ios": "https://dc.lft.to/lastmile_qr_scan"}, "is_reserved": 0, "is_disabled": 0, "type": "electric_scooter", "bike_id": "c95ae594ccfcfe8ef2ec9ff3cae1b521"}, {"lon": -77.024108, "lat": 38.9208585, "name": "bf764b53d64ee198e8da06b18f7f7e00", "fusion_lat": 0.0, "fusion_lon": 0.0, "rental_uris": {"android": "https://dc.lft.to/lastmile_qr_scan", "ios": "https://dc.lft.to/lastmile_qr_scan"}, "is_reserved": 0, "is_disabled": 0, "type": "electric_scooter", "bike_id": "bf764b53d64ee198e8da06b18f7f7e00"}, {"lon": -77.06282083333333, "lat": 38.904848666666666, "name": "18e32d4c10bbafe30d49bef0d4294fe9", "fusion_lat": 0.0, "fusion_lon": 0.0, "rental_uris": {"android": "https://dc.lft.to/lastmile_qr_scan", "ios": "https://dc.lft.to/lastmile_qr_scan"}, "is_reserved": 0, "is_disabled": 0, "type": "electric_scooter", "bike_id": "18e32d4c10bbafe30d49bef0d4294fe9"}, {"lon": -76.9237235, "lat": 38.88374916666667, "name": "f7e702747e21dba2367652cb951941e7", "fusion_lat": 0.0, "fusion_lon": 0.0, "rental_uris": {"android": "https://dc.lft.to/lastmile_qr_scan", "ios": "https://dc.lft.to/lastmile_qr_scan"}, "is_reserved": 0, "is_disabled": 0, "type": "electric_bike", "bike_id": "f7e702747e21dba2367652cb951941e7"}, {"lon": -77.0419825, "lat": 38.9186805, "name": "9db02d7ae03d6aa971469b67226f87fe", "fusion_lat": 0.0, "fusion_lon": 0.0, "rental_uris": {"android": "https://dc.lft.to/lastmile_qr_scan", "ios": "https://dc.lft.to/lastmile_qr_scan"}, "is_reserved": 0, "is_disabled": 0, "type": "electric_scooter", "bike_id": "9db02d7ae03d6aa971469b67226f87fe"}, {"lon": -77.00812983333333, "lat": 38.905756, "name": "7dd3ba6714f2b79d62a2931397d8bf7b", "fusion_lat": 0.0, "fusion_lon": 0.0, "rental_uris": {"android": "https://dc.lft.to/lastmile_qr_scan", "ios": "https://dc.lft.to/lastmile_qr_scan"}, "is_reserved": 0, "is_disabled": 0, "type": "electric_scooter", "bike_id": "7dd3ba6714f2b79d62a2931397d8bf7b"}, {"lon": -77.0271865, "lat": 38.924857833333334, "name": "3ff22c168bfefd66434da40437211133", "fusion_lat": 0.0, "fusion_lon": 0.0, "rental_uris": {"android": "https://dc.lft.to/lastmile_qr_scan", "ios": "https://dc.lft.to/lastmile_qr_scan"}, "is_reserved": 0, "is_disabled": 0, "type": "electric_bike", "bike_id": "3ff22c168bfefd66434da40437211133"}, {"lon": -76.93179416666666, "lat": 38.89881533333333, "name": "d906797a66780551f4877759c020d58a", "fusion_lat": 0.0, "fusion_lon": 0.0, "rental_uris": {"android": "https://dc.lft.to/lastmile_qr_scan", "ios": "https://dc.lft.to/lastmile_qr_scan"}, "is_reserved": 0, "is_disabled": 0, "type": "electric_scooter", "bike_id": "d906797a66780551f4877759c020d58a"}, {"lon": -77.02289783333333, "lat": 38.95645866666667, "name": "282dc9460f09f46fe137f0ad8b4a57e9", "fusion_lat": 0.0, "fusion_lon": 0.0, "rental_uris": {"android": "https://dc.lft.to/lastmile_qr_scan", "ios": "https://dc.lft.to/lastmile_qr_scan"}, "is_reserved": 0, "is_disabled": 0, "type": "electric_scooter", "bike_id": "282dc9460f09f46fe137f0ad8b4a57e9"}, {"lon": -76.91923633333333, "lat": 38.890741166666665, "name": "09e47cd5f61683c3c5f3af981229fe3e", "fusion_lat": 0.0, "fusion_lon": 0.0, "rental_uris": {"android": "https://dc.lft.to/lastmile_qr_scan", "ios": "https://dc.lft.to/lastmile_qr_scan"}, "is_reserved": 0, "is_disabled": 0, "type": "electric_scooter", "bike_id": "09e47cd5f61683c3c5f3af981229fe3e"}, {"lon": -77.03815283333333, "lat": 38.92059016666666, "name": "59c00f3f01a770bf71315cb3258d172a", "fusion_lat": 0.0, "fusion_lon": 0.0, "rental_uris": {"android": "https://dc.lft.to/lastmile_qr_scan", "ios": "https://dc.lft.to/lastmile_qr_scan"}, "is_reserved": 0, "is_disabled": 0, "type": "electric_scooter", "bike_id": "59c00f3f01a770bf71315cb3258d172a"}, {"lon": -77.051434, "lat": 38.90205566666667, "name": "8b718f7ec0f3fa32b41f06efed9acaf7", "fusion_lat": 0.0, "fusion_lon": 0.0, "rental_uris": {"android": "https://dc.lft.to/lastmile_qr_scan", "ios": "https://dc.lft.to/lastmile_qr_scan"}, "is_reserved": 0, "is_disabled": 0, "type": "electric_scooter", "bike_id": "8b718f7ec0f3fa32b41f06efed9acaf7"}, {"lon": -77.03745733333334, "lat": 38.935899666666664, "name": "db641a72d89d4dccefefdacac9239d0c", "fusion_lat": 0.0, "fusion_lon": 0.0, "rental_uris": {"android": "https://dc.lft.to/lastmile_qr_scan", "ios": "https://dc.lft.to/lastmile_qr_scan"}, "is_reserved": 0, "is_disabled": 0, "type": "electric_scooter", "bike_id": "db641a72d89d4dccefefdacac9239d0c"}, {"lon": -77.04508416666667, "lat": 38.91110616666667, "name": "2a91fb33f5474994c22f930f99146847", "fusion_lat": 0.0, "fusion_lon": 0.0, "rental_uris": {"android": "https://dc.lft.to/lastmile_qr_scan", "ios": "https://dc.lft.to/lastmile_qr_scan"}, "is_reserved": 0, "is_disabled": 0, "type": "electric_scooter", "bike_id": "2a91fb33f5474994c22f930f99146847"}, {"lon": -76.9958695, "lat": 38.95502066666667, "name": "d3e17764588f0926009e95c0d47d06e6", "fusion_lat": 0.0, "fusion_lon": 0.0, "rental_uris": {"android": "https://dc.lft.to/lastmile_qr_scan", "ios": "https://dc.lft.to/lastmile_qr_scan"}, "is_reserved": 0, "is_disabled": 0, "type": "electric_scooter", "bike_id": "d3e17764588f0926009e95c0d47d06e6"}, {"lon": -77.02761333333333, "lat": 38.9134415, "name": "dc32b6898e8fdde0409f8794bd4995b6", "fusion_lat": 0.0, "fusion_lon": 0.0, "rental_uris": {"android": "https://dc.lft.to/lastmile_qr_scan", "ios": "https://dc.lft.to/lastmile_qr_scan"}, "is_reserved": 0, "is_disabled": 0, "type": "electric_scooter", "bike_id": "dc32b6898e8fdde0409f8794bd4995b6"}, {"lon": -77.02850216666667, "lat": 38.925693333333335, "name": "bc9db4b95dc436503d5e9f2073146fad", "fusion_lat": 0.0, "fusion_lon": 0.0, "rental_uris": {"android": "https://dc.lft.to/lastmile_qr_scan", "ios": "https://dc.lft.to/lastmile_qr_scan"}, "is_reserved": 0, "is_disabled": 0, "type": "electric_scooter", "bike_id": "bc9db4b95dc436503d5e9f2073146fad"}, {"lon": -77.03258433333333, "lat": 38.90710516666667, "name": "e387ad14cafd1efc9fcc9e6b2de6e652", "fusion_lat": 0.0, "fusion_lon": 0.0, "rental_uris": {"android": "https://dc.lft.to/lastmile_qr_scan", "ios": "https://dc.lft.to/lastmile_qr_scan"}, "is_reserved": 0, "is_disabled": 0, "type": "electric_scooter", "bike_id": "e387ad14cafd1efc9fcc9e6b2de6e652"}, {"lon": -77.0236465, "lat": 38.920697, "name": "4a6d725e4f690f062b76397d48d43896", "fusion_lat": 0.0, "fusion_lon": 0.0, "rental_uris": {"android": "https://dc.lft.to/lastmile_qr_scan", "ios": "https://dc.lft.to/lastmile_qr_scan"}, "is_reserved": 0, "is_disabled": 0, "type": "electric_scooter", "bike_id": "4a6d725e4f690f062b76397d48d43896"}, {"lon": -76.995793, "lat": 38.9003065, "name": "c07993527e46d7200b36f534fede3d03", "fusion_lat": 0.0, "fusion_lon": 0.0, "rental_uris": {"android": "https://dc.lft.to/lastmile_qr_scan", "ios": "https://dc.lft.to/lastmile_qr_scan"}, "is_reserved": 0, "is_disabled": 0, "type": "electric_scooter", "bike_id": "c07993527e46d7200b36f534fede3d03"}, {"lon": -77.07493733333334, "lat": 38.9067, "name": "bfd26d80998f964bb389ee5b35e8ab9b", "fusion_lat": 0.0, "fusion_lon": 0.0, "rental_uris": {"android": "https://dc.lft.to/lastmile_qr_scan", "ios": "https://dc.lft.to/lastmile_qr_scan"}, "is_reserved": 0, "is_disabled": 0, "type": "electric_scooter", "bike_id": "bfd26d80998f964bb389ee5b35e8ab9b"}, {"lon": -77.0479115, "lat": 38.8937045, "name": "12a9d7927964d927d5ec67b24d14c355", "fusion_lat": 0.0, "fusion_lon": 0.0, "rental_uris": {"android": "https://dc.lft.to/lastmile_qr_scan", "ios": "https://dc.lft.to/lastmile_qr_scan"}, "is_reserved": 0, "is_disabled": 0, "type": "electric_scooter", "bike_id": "12a9d7927964d927d5ec67b24d14c355"}, {"lon": -77.03162166666667, "lat": 38.89380666666667, "name": "7a2b0be1013439af8f88b74068b9ddb3", "fusion_lat": 0.0, "fusion_lon": 0.0, "rental_uris": {"android": "https://dc.lft.to/lastmile_qr_scan", "ios": "https://dc.lft.to/lastmile_qr_scan"}, "is_reserved": 0, "is_disabled": 0, "type": "electric_scooter", "bike_id": "7a2b0be1013439af8f88b74068b9ddb3"}, {"lon": -77.02611966666667, "lat": 38.961990166666666, "name": "98f60b43d4c6257fe34b4ade5778ac0c", "fusion_lat": 0.0, "fusion_lon": 0.0, "rental_uris": {"android": "https://dc.lft.to/lastmile_qr_scan", "ios": "https://dc.lft.to/lastmile_qr_scan"}, "is_reserved": 0, "is_disabled": 0, "type": "electric_bike", "bike_id": "98f60b43d4c6257fe34b4ade5778ac0c"}, {"lon": -77.01337033333333, "lat": 38.96610116666667, "name": "a8a480e1688d6a5afa97b04136edefa7", "fusion_lat": 0.0, "fusion_lon": 0.0, "rental_uris": {"android": "https://dc.lft.to/lastmile_qr_scan", "ios": "https://dc.lft.to/lastmile_qr_scan"}, "is_reserved": 0, "is_disabled": 0, "type": "electric_scooter", "bike_id": "a8a480e1688d6a5afa97b04136edefa7"}, {"lon": -77.02310316666667, "lat": 38.88337116666667, "name": "cf9f6adb82018f0469dd76274bba7f3e", "fusion_lat": 0.0, "fusion_lon": 0.0, "rental_uris": {"android": "https://dc.lft.to/lastmile_qr_scan", "ios": "https://dc.lft.to/lastmile_qr_scan"}, "is_reserved": 0, "is_disabled": 0, "type": "electric_scooter", "bike_id": "cf9f6adb82018f0469dd76274bba7f3e"}, {"lon": -77.0916445, "lat": 38.96756533333333, "name": "24a70aac22fd2a506531224305a41b38", "fusion_lat": 0.0, "fusion_lon": 0.0, "rental_uris": {"android": "https://dc.lft.to/lastmile_qr_scan", "ios": "https://dc.lft.to/lastmile_qr_scan"}, "is_reserved": 0, "is_disabled": 0, "type": "electric_bike", "bike_id": "24a70aac22fd2a506531224305a41b38"}, {"lon": -77.04406866666666, "lat": 38.874274, "name": "3e72b9c5758b34b586ff5bc9055a5274", "fusion_lat": 0.0, "fusion_lon": 0.0, "rental_uris": {"android": "https://dc.lft.to/lastmile_qr_scan", "ios": "https://dc.lft.to/lastmile_qr_scan"}, "is_reserved": 0, "is_disabled": 0, "type": "electric_scooter", "bike_id": "3e72b9c5758b34b586ff5bc9055a5274"}, {"lon": -76.96178583333334, "lat": 38.918578833333335, "name": "a422be7f85871dcc3e73cd06bb6d6e9b", "fusion_lat": 0.0, "fusion_lon": 0.0, "rental_uris": {"android": "https://dc.lft.to/lastmile_qr_scan", "ios": "https://dc.lft.to/lastmile_qr_scan"}, "is_reserved": 0, "is_disabled": 0, "type": "electric_bike", "bike_id": "a422be7f85871dcc3e73cd06bb6d6e9b"}, {"lon": -77.03125633333333, "lat": 38.97374466666667, "name": "2003c31f5b306d786e5de1c2f7174b39", "fusion_lat": 0.0, "fusion_lon": 0.0, "rental_uris": {"android": "https://dc.lft.to/lastmile_qr_scan", "ios": "https://dc.lft.to/lastmile_qr_scan"}, "is_reserved": 0, "is_disabled": 0, "type": "electric_scooter", "bike_id": "2003c31f5b306d786e5de1c2f7174b39"}, {"lon": -77.02429533333333, "lat": 38.9097745, "name": "e0f5dab10515b88913ac0f2adab5aac7", "fusion_lat": 0.0, "fusion_lon": 0.0, "rental_uris": {"android": "https://dc.lft.to/lastmile_qr_scan", "ios": "https://dc.lft.to/lastmile_qr_scan"}, "is_reserved": 0, "is_disabled": 0, "type": "electric_scooter", "bike_id": "e0f5dab10515b88913ac0f2adab5aac7"}, {"lon": -77.0380835, "lat": 38.93610566666667, "name": "58b86bcabb1b1ee87cef44922165f73f", "fusion_lat": 0.0, "fusion_lon": 0.0, "rental_uris": {"android": "https://dc.lft.to/lastmile_qr_scan", "ios": "https://dc.lft.to/lastmile_qr_scan"}, "is_reserved": 0, "is_disabled": 0, "type": "electric_scooter", "bike_id": "58b86bcabb1b1ee87cef44922165f73f"}, {"lon": -77.02310633333333, "lat": 38.9177845, "name": "b823e70c1972077eefc2ad9259ea0819", "fusion_lat": 0.0, "fusion_lon": 0.0, "rental_uris": {"android": "https://dc.lft.to/lastmile_qr_scan", "ios": "https://dc.lft.to/lastmile_qr_scan"}, "is_reserved": 0, "is_disabled": 0, "type": "electric_scooter", "bike_id": "b823e70c1972077eefc2ad9259ea0819"}, {"lon": -77.03375583333333, "lat": 38.910473833333334, "name": "5e9e63aff1b0ac2b19771d7a10111a7f", "fusion_lat": 0.0, "fusion_lon": 0.0, "rental_uris": {"android": "https://dc.lft.to/lastmile_qr_scan", "ios": "https://dc.lft.to/lastmile_qr_scan"}, "is_reserved": 0, "is_disabled": 0, "type": "electric_scooter", "bike_id": "5e9e63aff1b0ac2b19771d7a10111a7f"}, {"lon": -77.05596033333333, "lat": 38.93699683333333, "name": "a81bba903dfb5152517f6b56e5d51ffa", "fusion_lat": 0.0, "fusion_lon": 0.0, "rental_uris": {"android": "https://dc.lft.to/lastmile_qr_scan", "ios": "https://dc.lft.to/lastmile_qr_scan"}, "is_reserved": 0, "is_disabled": 0, "type": "electric_scooter", "bike_id": "a81bba903dfb5152517f6b56e5d51ffa"}, {"lon": -77.03234016666667, "lat": 38.89641616666667, "name": "4fa882db89c0ebc46e79cbcc1689bf72", "fusion_lat": 0.0, "fusion_lon": 0.0, "rental_uris": {"android": "https://dc.lft.to/lastmile_qr_scan", "ios": "https://dc.lft.to/lastmile_qr_scan"}, "is_reserved": 0, "is_disabled": 0, "type": "electric_scooter", "bike_id": "4fa882db89c0ebc46e79cbcc1689bf72"}, {"lon": -77.130954, "lat": 38.86161, "name": "04e298af981abc55ffef96528a9dc110", "fusion_lat": 0.0, "fusion_lon": 0.0, "rental_uris": {"android": "https://dc.lft.to/lastmile_qr_scan", "ios": "https://dc.lft.to/lastmile_qr_scan"}, "is_reserved": 0, "is_disabled": 0, "type": "electric_bike", "bike_id": "04e298af981abc55ffef96528a9dc110"}, {"lon": -77.04196366666666, "lat": 38.920497, "name": "ec62f365784674dff0239966d5206b54", "fusion_lat": 0.0, "fusion_lon": 0.0, "rental_uris": {"android": "https://dc.lft.to/lastmile_qr_scan", "ios": "https://dc.lft.to/lastmile_qr_scan"}, "is_reserved": 0, "is_disabled": 0, "type": "electric_scooter", "bike_id": "ec62f365784674dff0239966d5206b54"}, {"lon": -77.04196816666666, "lat": 38.901373166666666, "name": "ca16b16d7ffb2ee1ed39eecc3ec9562a", "fusion_lat": 0.0, "fusion_lon": 0.0, "rental_uris": {"android": "https://dc.lft.to/lastmile_qr_scan", "ios": "https://dc.lft.to/lastmile_qr_scan"}, "is_reserved": 0, "is_disabled": 0, "type": "electric_scooter", "bike_id": "ca16b16d7ffb2ee1ed39eecc3ec9562a"}, {"lon": -77.028702, "lat": 38.90715766666667, "name": "ccbfa935a38566ad440f1c78e087a0b1", "fusion_lat": 0.0, "fusion_lon": 0.0, "rental_uris": {"android": "https://dc.lft.to/lastmile_qr_scan", "ios": "https://dc.lft.to/lastmile_qr_scan"}, "is_reserved": 0, "is_disabled": 0, "type": "electric_scooter", "bike_id": "ccbfa935a38566ad440f1c78e087a0b1"}, {"lon": -77.04155466666667, "lat": 38.9023315, "name": "c34c8c4d8b769312e60eb6c91af3afdf", "fusion_lat": 0.0, "fusion_lon": 0.0, "rental_uris": {"android": "https://dc.lft.to/lastmile_qr_scan", "ios": "https://dc.lft.to/lastmile_qr_scan"}, "is_reserved": 0, "is_disabled": 0, "type": "electric_scooter", "bike_id": "c34c8c4d8b769312e60eb6c91af3afdf"}, {"lon": -77.0385005, "lat": 38.910385833333336, "name": "6b468900ba8a3862c359dcdb81c18411", "fusion_lat": 0.0, "fusion_lon": 0.0, "rental_uris": {"android": "https://dc.lft.to/lastmile_qr_scan", "ios": "https://dc.lft.to/lastmile_qr_scan"}, "is_reserved": 0, "is_disabled": 0, "type": "electric_scooter", "bike_id": "6b468900ba8a3862c359dcdb81c18411"}, {"lon": -77.03371833333334, "lat": 38.90278883333333, "name": "873c1b7b6596578e25f4fce86ffa15f2", "fusion_lat": 0.0, "fusion_lon": 0.0, "rental_uris": {"android": "https://dc.lft.to/lastmile_qr_scan", "ios": "https://dc.lft.to/lastmile_qr_scan"}, "is_reserved": 0, "is_disabled": 0, "type": "electric_scooter", "bike_id": "873c1b7b6596578e25f4fce86ffa15f2"}, {"lon": -77.03263183333334, "lat": 38.938992999999996, "name": "7652e6762515113c19738bbb764bab74", "fusion_lat": 0.0, "fusion_lon": 0.0, "rental_uris": {"android": "https://dc.lft.to/lastmile_qr_scan", "ios": "https://dc.lft.to/lastmile_qr_scan"}, "is_reserved": 0, "is_disabled": 0, "type": "electric_bike", "bike_id": "7652e6762515113c19738bbb764bab74"}, {"lon": -76.9759725, "lat": 38.90330133333333, "name": "2e58b2db5997332769f0331a443693de", "fusion_lat": 0.0, "fusion_lon": 0.0, "rental_uris": {"android": "https://dc.lft.to/lastmile_qr_scan", "ios": "https://dc.lft.to/lastmile_qr_scan"}, "is_reserved": 0, "is_disabled": 0, "type": "electric_scooter", "bike_id": "2e58b2db5997332769f0331a443693de"}, {"lon": -77.06439433333334, "lat": 38.910374, "name": "7f429e969222fe4cfa8eee2dcca70e8a", "fusion_lat": 0.0, "fusion_lon": 0.0, "rental_uris": {"android": "https://dc.lft.to/lastmile_qr_scan", "ios": "https://dc.lft.to/lastmile_qr_scan"}, "is_reserved": 0, "is_disabled": 0, "type": "electric_scooter", "bike_id": "7f429e969222fe4cfa8eee2dcca70e8a"}, {"lon": -77.00340016666667, "lat": 38.893525833333335, "name": "29d92747398f3b32416fa73694bc3819", "fusion_lat": 0.0, "fusion_lon": 0.0, "rental_uris": {"android": "https://dc.lft.to/lastmile_qr_scan", "ios": "https://dc.lft.to/lastmile_qr_scan"}, "is_reserved": 0, "is_disabled": 0, "type": "electric_scooter", "bike_id": "29d92747398f3b32416fa73694bc3819"}, {"lon": -77.05000966666667, "lat": 38.9012885, "name": "85bfc0dce2056f0536c61c817137fb1d", "fusion_lat": 0.0, "fusion_lon": 0.0, "rental_uris": {"android": "https://dc.lft.to/lastmile_qr_scan", "ios": "https://dc.lft.to/lastmile_qr_scan"}, "is_reserved": 0, "is_disabled": 0, "type": "electric_scooter", "bike_id": "85bfc0dce2056f0536c61c817137fb1d"}, {"lon": -77.04367666666667, "lat": 38.93335233333333, "name": "f9c1d39827f6ef546468a3cad3ad411c", "fusion_lat": 0.0, "fusion_lon": 0.0, "rental_uris": {"android": "https://dc.lft.to/lastmile_qr_scan", "ios": "https://dc.lft.to/lastmile_qr_scan"}, "is_reserved": 0, "is_disabled": 0, "type": "electric_scooter", "bike_id": "f9c1d39827f6ef546468a3cad3ad411c"}, {"lon": -77.03365733333334, "lat": 38.935903833333334, "name": "dcdd6b31fbfc1ee8e25d4a7fbfc7210b", "fusion_lat": 0.0, "fusion_lon": 0.0, "rental_uris": {"android": "https://dc.lft.to/lastmile_qr_scan", "ios": "https://dc.lft.to/lastmile_qr_scan"}, "is_reserved": 0, "is_disabled": 0, "type": "electric_scooter", "bike_id": "dcdd6b31fbfc1ee8e25d4a7fbfc7210b"}, {"lon": -77.0260145, "lat": 38.88737533333333, "name": "455565e3d987838963e2eef5e564a1a7", "fusion_lat": 0.0, "fusion_lon": 0.0, "rental_uris": {"android": "https://dc.lft.to/lastmile_qr_scan", "ios": "https://dc.lft.to/lastmile_qr_scan"}, "is_reserved": 0, "is_disabled": 0, "type": "electric_scooter", "bike_id": "455565e3d987838963e2eef5e564a1a7"}, {"lon": -77.0320355, "lat": 38.91637133333333, "name": "9a9201d46c6cca75924ca7cfe2737f1d", "fusion_lat": 0.0, "fusion_lon": 0.0, "rental_uris": {"android": "https://dc.lft.to/lastmile_qr_scan", "ios": "https://dc.lft.to/lastmile_qr_scan"}, "is_reserved": 0, "is_disabled": 0, "type": "electric_scooter", "bike_id": "9a9201d46c6cca75924ca7cfe2737f1d"}, {"lon": -77.07166183333334, "lat": 38.90776816666666, "name": "c387f844410a47138381b0bed6fbb2cc", "fusion_lat": 0.0, "fusion_lon": 0.0, "rental_uris": {"android": "https://dc.lft.to/lastmile_qr_scan", "ios": "https://dc.lft.to/lastmile_qr_scan"}, "is_reserved": 0, "is_disabled": 0, "type": "electric_scooter", "bike_id": "c387f844410a47138381b0bed6fbb2cc"}, {"lon": -77.03186133333334, "lat": 38.91928083333333, "name": "4992824239df9d26379b532214293109", "fusion_lat": 0.0, "fusion_lon": 0.0, "rental_uris": {"android": "https://dc.lft.to/lastmile_qr_scan", "ios": "https://dc.lft.to/lastmile_qr_scan"}, "is_reserved": 0, "is_disabled": 0, "type": "electric_scooter", "bike_id": "4992824239df9d26379b532214293109"}, {"lon": -77.03221816666667, "lat": 38.89221783333333, "name": "b8feeba8899b29087a7e71a1b90dc8d2", "fusion_lat": 0.0, "fusion_lon": 0.0, "rental_uris": {"android": "https://dc.lft.to/lastmile_qr_scan", "ios": "https://dc.lft.to/lastmile_qr_scan"}, "is_reserved": 0, "is_disabled": 0, "type": "electric_scooter", "bike_id": "b8feeba8899b29087a7e71a1b90dc8d2"}, {"lon": -76.998285, "lat": 38.84419483333333, "name": "4cfa6e370dae75faf7e4e8c5612e7da2", "fusion_lat": 0.0, "fusion_lon": 0.0, "rental_uris": {"android": "https://dc.lft.to/lastmile_qr_scan", "ios": "https://dc.lft.to/lastmile_qr_scan"}, "is_reserved": 0, "is_disabled": 0, "type": "electric_scooter", "bike_id": "4cfa6e370dae75faf7e4e8c5612e7da2"}, {"lon": -77.032948, "lat": 38.89880516666667, "name": "9ed40e1961c05619b815d60c7e2bc802", "fusion_lat": 0.0, "fusion_lon": 0.0, "rental_uris": {"android": "https://dc.lft.to/lastmile_qr_scan", "ios": "https://dc.lft.to/lastmile_qr_scan"}, "is_reserved": 0, "is_disabled": 0, "type": "electric_scooter", "bike_id": "9ed40e1961c05619b815d60c7e2bc802"}, {"lon": -76.98741633333333, "lat": 38.8578905, "name": "7449575dd9100d57f722e93251a224e9", "fusion_lat": 0.0, "fusion_lon": 0.0, "rental_uris": {"android": "https://dc.lft.to/lastmile_qr_scan", "ios": "https://dc.lft.to/lastmile_qr_scan"}, "is_reserved": 0, "is_disabled": 0, "type": "electric_bike", "bike_id": "7449575dd9100d57f722e93251a224e9"}, {"lon": -77.02970266666667, "lat": 38.892219, "name": "001879945ccc045b23e9fe3213b44198", "fusion_lat": 0.0, "fusion_lon": 0.0, "rental_uris": {"android": "https://dc.lft.to/lastmile_qr_scan", "ios": "https://dc.lft.to/lastmile_qr_scan"}, "is_reserved": 0, "is_disabled": 0, "type": "electric_scooter", "bike_id": "001879945ccc045b23e9fe3213b44198"}, {"lon": -76.98400516666666, "lat": 38.921956, "name": "6990a8907b787f7acd6a0f90aef81aad", "fusion_lat": 0.0, "fusion_lon": 0.0, "rental_uris": {"android": "https://dc.lft.to/lastmile_qr_scan", "ios": "https://dc.lft.to/lastmile_qr_scan"}, "is_reserved": 0, "is_disabled": 0, "type": "electric_bike", "bike_id": "6990a8907b787f7acd6a0f90aef81aad"}, {"lon": -77.031308, "lat": 38.91029966666667, "name": "b685ea5bfd03b45a190957f07a8403a5", "fusion_lat": 0.0, "fusion_lon": 0.0, "rental_uris": {"android": "https://dc.lft.to/lastmile_qr_scan", "ios": "https://dc.lft.to/lastmile_qr_scan"}, "is_reserved": 0, "is_disabled": 0, "type": "electric_scooter", "bike_id": "b685ea5bfd03b45a190957f07a8403a5"}, {"lon": -77.04330683333333, "lat": 38.9037235, "name": "f3d1cb1e7a5a70b2387cb5e18e1a0838", "fusion_lat": 0.0, "fusion_lon": 0.0, "rental_uris": {"android": "https://dc.lft.to/lastmile_qr_scan", "ios": "https://dc.lft.to/lastmile_qr_scan"}, "is_reserved": 0, "is_disabled": 0, "type": "electric_scooter", "bike_id": "f3d1cb1e7a5a70b2387cb5e18e1a0838"}, {"lon": -77.0400465, "lat": 38.898691666666664, "name": "2b8512a65666e280f840f06fdf20774c", "fusion_lat": 0.0, "fusion_lon": 0.0, "rental_uris": {"android": "https://dc.lft.to/lastmile_qr_scan", "ios": "https://dc.lft.to/lastmile_qr_scan"}, "is_reserved": 0, "is_disabled": 0, "type": "electric_scooter", "bike_id": "2b8512a65666e280f840f06fdf20774c"}, {"lon": -77.12628366666667, "lat": 39.05812133333333, "name": "76048aa566d24eb3f2df62d709b88318", "fusion_lat": 0.0, "fusion_lon": 0.0, "rental_uris": {"android": "https://dc.lft.to/lastmile_qr_scan", "ios": "https://dc.lft.to/lastmile_qr_scan"}, "is_reserved": 0, "is_disabled": 0, "type": "electric_bike", "bike_id": "76048aa566d24eb3f2df62d709b88318"}, {"lon": -76.97629733333333, "lat": 38.8928245, "name": "485816c461453bcf4fc22d0077d53d5b", "fusion_lat": 0.0, "fusion_lon": 0.0, "rental_uris": {"android": "https://dc.lft.to/lastmile_qr_scan", "ios": "https://dc.lft.to/lastmile_qr_scan"}, "is_reserved": 0, "is_disabled": 0, "type": "electric_bike", "bike_id": "485816c461453bcf4fc22d0077d53d5b"}, {"lon": -77.0425085, "lat": 38.92063666666667, "name": "873c54034eb18cd0274ed210fc23572d", "fusion_lat": 0.0, "fusion_lon": 0.0, "rental_uris": {"android": "https://dc.lft.to/lastmile_qr_scan", "ios": "https://dc.lft.to/lastmile_qr_scan"}, "is_reserved": 0, "is_disabled": 0, "type": "electric_scooter", "bike_id": "873c54034eb18cd0274ed210fc23572d"}, {"lon": -77.0059545, "lat": 38.90615416666667, "name": "d5d4d5fc39e690fe6b6b13e4a0e7cdc3", "fusion_lat": 0.0, "fusion_lon": 0.0, "rental_uris": {"android": "https://dc.lft.to/lastmile_qr_scan", "ios": "https://dc.lft.to/lastmile_qr_scan"}, "is_reserved": 0, "is_disabled": 0, "type": "electric_scooter", "bike_id": "d5d4d5fc39e690fe6b6b13e4a0e7cdc3"}, {"lon": -77.06394383333334, "lat": 38.9290905, "name": "7a53ce61cdafde64dbe52c0ecd422fd2", "fusion_lat": 0.0, "fusion_lon": 0.0, "rental_uris": {"android": "https://dc.lft.to/lastmile_qr_scan", "ios": "https://dc.lft.to/lastmile_qr_scan"}, "is_reserved": 0, "is_disabled": 0, "type": "electric_scooter", "bike_id": "7a53ce61cdafde64dbe52c0ecd422fd2"}, {"lon": -77.02702816666667, "lat": 38.91809166666667, "name": "8f8215ff3954e1ea5507ec394543ea2b", "fusion_lat": 0.0, "fusion_lon": 0.0, "rental_uris": {"android": "https://dc.lft.to/lastmile_qr_scan", "ios": "https://dc.lft.to/lastmile_qr_scan"}, "is_reserved": 0, "is_disabled": 0, "type": "electric_scooter", "bike_id": "8f8215ff3954e1ea5507ec394543ea2b"}, {"lon": -77.00595033333333, "lat": 38.90559283333333, "name": "fa88090c3cd4e228f665c256cf6ccec8", "fusion_lat": 0.0, "fusion_lon": 0.0, "rental_uris": {"android": "https://dc.lft.to/lastmile_qr_scan", "ios": "https://dc.lft.to/lastmile_qr_scan"}, "is_reserved": 0, "is_disabled": 0, "type": "electric_scooter", "bike_id": "fa88090c3cd4e228f665c256cf6ccec8"}, {"lon": -77.02831783333333, "lat": 38.92472733333334, "name": "9367718575733671952867cd812f27f4", "fusion_lat": 0.0, "fusion_lon": 0.0, "rental_uris": {"android": "https://dc.lft.to/lastmile_qr_scan", "ios": "https://dc.lft.to/lastmile_qr_scan"}, "is_reserved": 0, "is_disabled": 0, "type": "electric_scooter", "bike_id": "9367718575733671952867cd812f27f4"}, {"lon": -77.02693116666667, "lat": 38.922508666666666, "name": "50e75ce147f2a870949147bde0c083fe", "fusion_lat": 0.0, "fusion_lon": 0.0, "rental_uris": {"android": "https://dc.lft.to/lastmile_qr_scan", "ios": "https://dc.lft.to/lastmile_qr_scan"}, "is_reserved": 0, "is_disabled": 0, "type": "electric_scooter", "bike_id": "50e75ce147f2a870949147bde0c083fe"}, {"lon": -77.02770166666667, "lat": 38.89199633333333, "name": "f43f252ec17dc33d0f2f5bea8f7c1bfd", "fusion_lat": 0.0, "fusion_lon": 0.0, "rental_uris": {"android": "https://dc.lft.to/lastmile_qr_scan", "ios": "https://dc.lft.to/lastmile_qr_scan"}, "is_reserved": 0, "is_disabled": 0, "type": "electric_scooter", "bike_id": "f43f252ec17dc33d0f2f5bea8f7c1bfd"}, {"lon": -77.01781533333333, "lat": 38.900372833333336, "name": "696a3242d560a66800d03f7d12960823", "fusion_lat": 0.0, "fusion_lon": 0.0, "rental_uris": {"android": "https://dc.lft.to/lastmile_qr_scan", "ios": "https://dc.lft.to/lastmile_qr_scan"}, "is_reserved": 0, "is_disabled": 0, "type": "electric_scooter", "bike_id": "696a3242d560a66800d03f7d12960823"}, {"lon": -77.0107755, "lat": 38.95652966666667, "name": "af6ed23c8a7296d917a4c4fe691ad3e9", "fusion_lat": 0.0, "fusion_lon": 0.0, "rental_uris": {"android": "https://dc.lft.to/lastmile_qr_scan", "ios": "https://dc.lft.to/lastmile_qr_scan"}, "is_reserved": 0, "is_disabled": 0, "type": "electric_bike", "bike_id": "af6ed23c8a7296d917a4c4fe691ad3e9"}, {"lon": -77.03448116666667, "lat": 38.91837783333333, "name": "45451f7fdb320882ce6c1db106e013d7", "fusion_lat": 0.0, "fusion_lon": 0.0, "rental_uris": {"android": "https://dc.lft.to/lastmile_qr_scan", "ios": "https://dc.lft.to/lastmile_qr_scan"}, "is_reserved": 0, "is_disabled": 0, "type": "electric_scooter", "bike_id": "45451f7fdb320882ce6c1db106e013d7"}, {"lon": -77.0393535, "lat": 38.9027745, "name": "b325a5540d1561f1aaebebd495442778", "fusion_lat": 0.0, "fusion_lon": 0.0, "rental_uris": {"android": "https://dc.lft.to/lastmile_qr_scan", "ios": "https://dc.lft.to/lastmile_qr_scan"}, "is_reserved": 0, "is_disabled": 0, "type": "electric_scooter", "bike_id": "b325a5540d1561f1aaebebd495442778"}, {"lon": -77.00213683333334, "lat": 38.897224333333334, "name": "7d554060fd38c4509537d030e69cac40", "fusion_lat": 0.0, "fusion_lon": 0.0, "rental_uris": {"android": "https://dc.lft.to/lastmile_qr_scan", "ios": "https://dc.lft.to/lastmile_qr_scan"}, "is_reserved": 0, "is_disabled": 0, "type": "electric_scooter", "bike_id": "7d554060fd38c4509537d030e69cac40"}, {"lon": -77.05298666666667, "lat": 38.9101665, "name": "b224b10f1a419788518cdfbd5ce89bec", "fusion_lat": 0.0, "fusion_lon": 0.0, "rental_uris": {"android": "https://dc.lft.to/lastmile_qr_scan", "ios": "https://dc.lft.to/lastmile_qr_scan"}, "is_reserved": 0, "is_disabled": 0, "type": "electric_scooter", "bike_id": "b224b10f1a419788518cdfbd5ce89bec"}, {"lon": -77.02184283333334, "lat": 38.91131883333333, "name": "8fcce3e4090260d952a92d17ed5153ea", "fusion_lat": 0.0, "fusion_lon": 0.0, "rental_uris": {"android": "https://dc.lft.to/lastmile_qr_scan", "ios": "https://dc.lft.to/lastmile_qr_scan"}, "is_reserved": 0, "is_disabled": 0, "type": "electric_scooter", "bike_id": "8fcce3e4090260d952a92d17ed5153ea"}, {"lon": -77.02601733333333, "lat": 38.88403266666667, "name": "bdda219a331fa630da61bcd387a77bf9", "fusion_lat": 0.0, "fusion_lon": 0.0, "rental_uris": {"android": "https://dc.lft.to/lastmile_qr_scan", "ios": "https://dc.lft.to/lastmile_qr_scan"}, "is_reserved": 0, "is_disabled": 0, "type": "electric_scooter", "bike_id": "bdda219a331fa630da61bcd387a77bf9"}, {"lon": -76.97331083333333, "lat": 38.85060883333333, "name": "492d3cd19982418d6831f86b2e5ec409", "fusion_lat": 0.0, "fusion_lon": 0.0, "rental_uris": {"android": "https://dc.lft.to/lastmile_qr_scan", "ios": "https://dc.lft.to/lastmile_qr_scan"}, "is_reserved": 0, "is_disabled": 0, "type": "electric_bike", "bike_id": "492d3cd19982418d6831f86b2e5ec409"}, {"lon": -77.045408, "lat": 38.91937383333333, "name": "20c441c0891202f13fe27340af1417c1", "fusion_lat": 0.0, "fusion_lon": 0.0, "rental_uris": {"android": "https://dc.lft.to/lastmile_qr_scan", "ios": "https://dc.lft.to/lastmile_qr_scan"}, "is_reserved": 0, "is_disabled": 0, "type": "electric_scooter", "bike_id": "20c441c0891202f13fe27340af1417c1"}, {"lon": -77.02074933333333, "lat": 38.902616, "name": "bab7c8ffa49febfc608a555ef5b1c592", "fusion_lat": 0.0, "fusion_lon": 0.0, "rental_uris": {"android": "https://dc.lft.to/lastmile_qr_scan", "ios": "https://dc.lft.to/lastmile_qr_scan"}, "is_reserved": 0, "is_disabled": 0, "type": "electric_scooter", "bike_id": "bab7c8ffa49febfc608a555ef5b1c592"}, {"lon": -77.0381275, "lat": 38.9142585, "name": "fa067a7407ae33ac7a95499ee3664324", "fusion_lat": 0.0, "fusion_lon": 0.0, "rental_uris": {"android": "https://dc.lft.to/lastmile_qr_scan", "ios": "https://dc.lft.to/lastmile_qr_scan"}, "is_reserved": 0, "is_disabled": 0, "type": "electric_scooter", "bike_id": "fa067a7407ae33ac7a95499ee3664324"}, {"lon": -77.01765266666666, "lat": 38.91263416666666, "name": "68a1bbcbdf11032672297088539f548c", "fusion_lat": 0.0, "fusion_lon": 0.0, "rental_uris": {"android": "https://dc.lft.to/lastmile_qr_scan", "ios": "https://dc.lft.to/lastmile_qr_scan"}, "is_reserved": 0, "is_disabled": 0, "type": "electric_scooter", "bike_id": "68a1bbcbdf11032672297088539f548c"}, {"lon": -77.0465755, "lat": 38.914270333333334, "name": "3762122292862c2758b3b054fcb55be2", "fusion_lat": 0.0, "fusion_lon": 0.0, "rental_uris": {"android": "https://dc.lft.to/lastmile_qr_scan", "ios": "https://dc.lft.to/lastmile_qr_scan"}, "is_reserved": 0, "is_disabled": 0, "type": "electric_scooter", "bike_id": "3762122292862c2758b3b054fcb55be2"}, {"lon": -77.03230233333333, "lat": 38.8921955, "name": "5cdb9ccd0234db52c0b5d44a191d0370", "fusion_lat": 0.0, "fusion_lon": 0.0, "rental_uris": {"android": "https://dc.lft.to/lastmile_qr_scan", "ios": "https://dc.lft.to/lastmile_qr_scan"}, "is_reserved": 0, "is_disabled": 0, "type": "electric_scooter", "bike_id": "5cdb9ccd0234db52c0b5d44a191d0370"}, {"lon": -77.03273633333333, "lat": 38.93445, "name": "308302f4baf51930acc423fac69d4e80", "fusion_lat": 0.0, "fusion_lon": 0.0, "rental_uris": {"android": "https://dc.lft.to/lastmile_qr_scan", "ios": "https://dc.lft.to/lastmile_qr_scan"}, "is_reserved": 0, "is_disabled": 0, "type": "electric_scooter", "bike_id": "308302f4baf51930acc423fac69d4e80"}, {"lon": -77.07727433333334, "lat": 38.9470655, "name": "5cfa749bd4c77767139dda763c341005", "fusion_lat": 0.0, "fusion_lon": 0.0, "rental_uris": {"android": "https://dc.lft.to/lastmile_qr_scan", "ios": "https://dc.lft.to/lastmile_qr_scan"}, "is_reserved": 0, "is_disabled": 0, "type": "electric_scooter", "bike_id": "5cfa749bd4c77767139dda763c341005"}, {"lon": -77.03363083333333, "lat": 38.932287333333335, "name": "89011a12512efa747afcd6ddcb5952e6", "fusion_lat": 0.0, "fusion_lon": 0.0, "rental_uris": {"android": "https://dc.lft.to/lastmile_qr_scan", "ios": "https://dc.lft.to/lastmile_qr_scan"}, "is_reserved": 0, "is_disabled": 0, "type": "electric_scooter", "bike_id": "89011a12512efa747afcd6ddcb5952e6"}, {"lon": -77.023858, "lat": 38.90696533333333, "name": "500f4e85d556158fa5ec45db15c91f5c", "fusion_lat": 0.0, "fusion_lon": 0.0, "rental_uris": {"android": "https://dc.lft.to/lastmile_qr_scan", "ios": "https://dc.lft.to/lastmile_qr_scan"}, "is_reserved": 0, "is_disabled": 0, "type": "electric_scooter", "bike_id": "500f4e85d556158fa5ec45db15c91f5c"}, {"lon": -76.97311133333334, "lat": 38.919887333333335, "name": "5c88818a6b89ca0b80bf4beccba7af47", "fusion_lat": 0.0, "fusion_lon": 0.0, "rental_uris": {"android": "https://dc.lft.to/lastmile_qr_scan", "ios": "https://dc.lft.to/lastmile_qr_scan"}, "is_reserved": 0, "is_disabled": 0, "type": "electric_scooter", "bike_id": "5c88818a6b89ca0b80bf4beccba7af47"}, {"lon": -77.00598283333333, "lat": 38.88490916666667, "name": "3604994e15ef8b74c5579236e61c2310", "fusion_lat": 0.0, "fusion_lon": 0.0, "rental_uris": {"android": "https://dc.lft.to/lastmile_qr_scan", "ios": "https://dc.lft.to/lastmile_qr_scan"}, "is_reserved": 0, "is_disabled": 0, "type": "electric_scooter", "bike_id": "3604994e15ef8b74c5579236e61c2310"}, {"lon": -77.01412716666667, "lat": 38.89090383333333, "name": "58ac9ace9d25d74851de10b59261b243", "fusion_lat": 0.0, "fusion_lon": 0.0, "rental_uris": {"android": "https://dc.lft.to/lastmile_qr_scan", "ios": "https://dc.lft.to/lastmile_qr_scan"}, "is_reserved": 0, "is_disabled": 0, "type": "electric_scooter", "bike_id": "58ac9ace9d25d74851de10b59261b243"}, {"lon": -77.00067133333333, "lat": 38.8736535, "name": "0181e4a0f8c06ee1a802def427154c2e", "fusion_lat": 0.0, "fusion_lon": 0.0, "rental_uris": {"android": "https://dc.lft.to/lastmile_qr_scan", "ios": "https://dc.lft.to/lastmile_qr_scan"}, "is_reserved": 0, "is_disabled": 0, "type": "electric_scooter", "bike_id": "0181e4a0f8c06ee1a802def427154c2e"}, {"lon": -77.02213433333333, "lat": 38.9208825, "name": "b2dea994eeca68841a6419ad63b12a7d", "fusion_lat": 0.0, "fusion_lon": 0.0, "rental_uris": {"android": "https://dc.lft.to/lastmile_qr_scan", "ios": "https://dc.lft.to/lastmile_qr_scan"}, "is_reserved": 0, "is_disabled": 0, "type": "electric_scooter", "bike_id": "b2dea994eeca68841a6419ad63b12a7d"}, {"lon": -77.02411316666667, "lat": 38.920876166666666, "name": "276dc08a4799568442a294a8fb0740e7", "fusion_lat": 0.0, "fusion_lon": 0.0, "rental_uris": {"android": "https://dc.lft.to/lastmile_qr_scan", "ios": "https://dc.lft.to/lastmile_qr_scan"}, "is_reserved": 0, "is_disabled": 0, "type": "electric_scooter", "bike_id": "276dc08a4799568442a294a8fb0740e7"}, {"lon": -77.00207183333333, "lat": 38.900557, "name": "c9b81366b8dab738f99a069693041418", "fusion_lat": 0.0, "fusion_lon": 0.0, "rental_uris": {"android": "https://dc.lft.to/lastmile_qr_scan", "ios": "https://dc.lft.to/lastmile_qr_scan"}, "is_reserved": 0, "is_disabled": 0, "type": "electric_scooter", "bike_id": "c9b81366b8dab738f99a069693041418"}, {"lon": -77.04799633333333, "lat": 38.91870383333333, "name": "946de99131eeff2f5b513df37d217221", "fusion_lat": 0.0, "fusion_lon": 0.0, "rental_uris": {"android": "https://dc.lft.to/lastmile_qr_scan", "ios": "https://dc.lft.to/lastmile_qr_scan"}, "is_reserved": 0, "is_disabled": 0, "type": "electric_scooter", "bike_id": "946de99131eeff2f5b513df37d217221"}, {"lon": -77.0481255, "lat": 38.9005435, "name": "e7a43d6693aefb7d048b195b8d51a02c", "fusion_lat": 0.0, "fusion_lon": 0.0, "rental_uris": {"android": "https://dc.lft.to/lastmile_qr_scan", "ios": "https://dc.lft.to/lastmile_qr_scan"}, "is_reserved": 0, "is_disabled": 0, "type": "electric_scooter", "bike_id": "e7a43d6693aefb7d048b195b8d51a02c"}, {"lon": -77.14123483333333, "lat": 38.816006333333334, "name": "7df388b19c064ba2f041db2c43c418f8", "fusion_lat": 0.0, "fusion_lon": 0.0, "rental_uris": {"android": "https://dc.lft.to/lastmile_qr_scan", "ios": "https://dc.lft.to/lastmile_qr_scan"}, "is_reserved": 0, "is_disabled": 0, "type": "electric_bike", "bike_id": "7df388b19c064ba2f041db2c43c418f8"}, {"lon": -77.00675283333334, "lat": 38.874765833333335, "name": "30eb3b55ded2bf243a600390c7b58b5b", "fusion_lat": 0.0, "fusion_lon": 0.0, "rental_uris": {"android": "https://dc.lft.to/lastmile_qr_scan", "ios": "https://dc.lft.to/lastmile_qr_scan"}, "is_reserved": 0, "is_disabled": 0, "type": "electric_scooter", "bike_id": "30eb3b55ded2bf243a600390c7b58b5b"}, {"lon": -77.02771016666667, "lat": 38.8919615, "name": "592b3705d535418b2321d68ad91507d4", "fusion_lat": 0.0, "fusion_lon": 0.0, "rental_uris": {"android": "https://dc.lft.to/lastmile_qr_scan", "ios": "https://dc.lft.to/lastmile_qr_scan"}, "is_reserved": 0, "is_disabled": 0, "type": "electric_scooter", "bike_id": "592b3705d535418b2321d68ad91507d4"}, {"lon": -77.03330466666667, "lat": 38.90120233333333, "name": "ec9e3f0bcd9b1a2d86556f60b57d3089", "fusion_lat": 0.0, "fusion_lon": 0.0, "rental_uris": {"android": "https://dc.lft.to/lastmile_qr_scan", "ios": "https://dc.lft.to/lastmile_qr_scan"}, "is_reserved": 0, "is_disabled": 0, "type": "electric_scooter", "bike_id": "ec9e3f0bcd9b1a2d86556f60b57d3089"}, {"lon": -77.02495766666667, "lat": 38.9180635, "name": "dc619fa92abd3cc27f7b73a3683bbb82", "fusion_lat": 0.0, "fusion_lon": 0.0, "rental_uris": {"android": "https://dc.lft.to/lastmile_qr_scan", "ios": "https://dc.lft.to/lastmile_qr_scan"}, "is_reserved": 0, "is_disabled": 0, "type": "electric_scooter", "bike_id": "dc619fa92abd3cc27f7b73a3683bbb82"}, {"lon": -77.12748983333333, "lat": 38.88821516666667, "name": "24bb5a974c9e1138b58b0702bd28c189", "fusion_lat": 0.0, "fusion_lon": 0.0, "rental_uris": {"android": "https://dc.lft.to/lastmile_qr_scan", "ios": "https://dc.lft.to/lastmile_qr_scan"}, "is_reserved": 0, "is_disabled": 0, "type": "electric_bike", "bike_id": "24bb5a974c9e1138b58b0702bd28c189"}, {"lon": -77.02949516666666, "lat": 38.90785666666667, "name": "c626fa69bc3f10063a14a851f4f62d9d", "fusion_lat": 0.0, "fusion_lon": 0.0, "rental_uris": {"android": "https://dc.lft.to/lastmile_qr_scan", "ios": "https://dc.lft.to/lastmile_qr_scan"}, "is_reserved": 0, "is_disabled": 0, "type": "electric_scooter", "bike_id": "c626fa69bc3f10063a14a851f4f62d9d"}, {"lon": -76.98767666666667, "lat": 38.911674, "name": "2aa1962eb0db5ceeb0a26f6f3aa0d4c4", "fusion_lat": 0.0, "fusion_lon": 0.0, "rental_uris": {"android": "https://dc.lft.to/lastmile_qr_scan", "ios": "https://dc.lft.to/lastmile_qr_scan"}, "is_reserved": 0, "is_disabled": 0, "type": "electric_scooter", "bike_id": "2aa1962eb0db5ceeb0a26f6f3aa0d4c4"}, {"lon": -76.93164733333333, "lat": 38.8987835, "name": "8c26eae4f5b59e717953c81b4c22fa94", "fusion_lat": 0.0, "fusion_lon": 0.0, "rental_uris": {"android": "https://dc.lft.to/lastmile_qr_scan", "ios": "https://dc.lft.to/lastmile_qr_scan"}, "is_reserved": 0, "is_disabled": 0, "type": "electric_scooter", "bike_id": "8c26eae4f5b59e717953c81b4c22fa94"}, {"lon": -77.0337955, "lat": 38.91047183333333, "name": "ab057fe1147f742edca47ad17dd2497e", "fusion_lat": 0.0, "fusion_lon": 0.0, "rental_uris": {"android": "https://dc.lft.to/lastmile_qr_scan", "ios": "https://dc.lft.to/lastmile_qr_scan"}, "is_reserved": 0, "is_disabled": 0, "type": "electric_scooter", "bike_id": "ab057fe1147f742edca47ad17dd2497e"}, {"lon": -77.02590466666666, "lat": 38.89246216666667, "name": "610756c291f38231c8972085fbf6c1a8", "fusion_lat": 0.0, "fusion_lon": 0.0, "rental_uris": {"android": "https://dc.lft.to/lastmile_qr_scan", "ios": "https://dc.lft.to/lastmile_qr_scan"}, "is_reserved": 0, "is_disabled": 0, "type": "electric_scooter", "bike_id": "610756c291f38231c8972085fbf6c1a8"}, {"lon": -77.04699916666667, "lat": 38.90221016666667, "name": "75b60ee87796344ddf3c5836c28741b9", "fusion_lat": 0.0, "fusion_lon": 0.0, "rental_uris": {"android": "https://dc.lft.to/lastmile_qr_scan", "ios": "https://dc.lft.to/lastmile_qr_scan"}, "is_reserved": 0, "is_disabled": 0, "type": "electric_scooter", "bike_id": "75b60ee87796344ddf3c5836c28741b9"}, {"lon": -76.9352115, "lat": 38.908737, "name": "a5459168a88f81336f762c825541c5cb", "fusion_lat": 0.0, "fusion_lon": 0.0, "rental_uris": {"android": "https://dc.lft.to/lastmile_qr_scan", "ios": "https://dc.lft.to/lastmile_qr_scan"}, "is_reserved": 0, "is_disabled": 0, "type": "electric_scooter", "bike_id": "a5459168a88f81336f762c825541c5cb"}, {"lon": -76.99160183333333, "lat": 38.893437, "name": "07bf1239e1ca2cbd505f5ec99dcfd04f", "fusion_lat": 0.0, "fusion_lon": 0.0, "rental_uris": {"android": "https://dc.lft.to/lastmile_qr_scan", "ios": "https://dc.lft.to/lastmile_qr_scan"}, "is_reserved": 0, "is_disabled": 0, "type": "electric_scooter", "bike_id": "07bf1239e1ca2cbd505f5ec99dcfd04f"}, {"lon": -76.93811816666667, "lat": 38.9130125, "name": "e555406df3c884bad954a3f9389dfb78", "fusion_lat": 0.0, "fusion_lon": 0.0, "rental_uris": {"android": "https://dc.lft.to/lastmile_qr_scan", "ios": "https://dc.lft.to/lastmile_qr_scan"}, "is_reserved": 0, "is_disabled": 0, "type": "electric_scooter", "bike_id": "e555406df3c884bad954a3f9389dfb78"}, {"lon": -77.05009366666667, "lat": 38.90186766666667, "name": "5d1a54a101ae0a8064526c05e17848c5", "fusion_lat": 0.0, "fusion_lon": 0.0, "rental_uris": {"android": "https://dc.lft.to/lastmile_qr_scan", "ios": "https://dc.lft.to/lastmile_qr_scan"}, "is_reserved": 0, "is_disabled": 0, "type": "electric_scooter", "bike_id": "5d1a54a101ae0a8064526c05e17848c5"}, {"lon": -77.023938, "lat": 38.887362, "name": "5b22fdf4ee0dd2e7e3b12e1b81b21232", "fusion_lat": 0.0, "fusion_lon": 0.0, "rental_uris": {"android": "https://dc.lft.to/lastmile_qr_scan", "ios": "https://dc.lft.to/lastmile_qr_scan"}, "is_reserved": 0, "is_disabled": 0, "type": "electric_scooter", "bike_id": "5b22fdf4ee0dd2e7e3b12e1b81b21232"}, {"lon": -77.06165533333333, "lat": 38.94232616666667, "name": "22f46141473f6df0f3b8467084540e39", "fusion_lat": 0.0, "fusion_lon": 0.0, "rental_uris": {"android": "https://dc.lft.to/lastmile_qr_scan", "ios": "https://dc.lft.to/lastmile_qr_scan"}, "is_reserved": 0, "is_disabled": 0, "type": "electric_scooter", "bike_id": "22f46141473f6df0f3b8467084540e39"}, {"lon": -77.00222716666667, "lat": 38.8944525, "name": "b9913f47ece7c5079ed8da0a3796e86a", "fusion_lat": 0.0, "fusion_lon": 0.0, "rental_uris": {"android": "https://dc.lft.to/lastmile_qr_scan", "ios": "https://dc.lft.to/lastmile_qr_scan"}, "is_reserved": 0, "is_disabled": 0, "type": "electric_scooter", "bike_id": "b9913f47ece7c5079ed8da0a3796e86a"}, {"lon": -77.03878583333334, "lat": 38.90814066666667, "name": "c4a5569faf59866b89badfeb8c15de68", "fusion_lat": 0.0, "fusion_lon": 0.0, "rental_uris": {"android": "https://dc.lft.to/lastmile_qr_scan", "ios": "https://dc.lft.to/lastmile_qr_scan"}, "is_reserved": 0, "is_disabled": 0, "type": "electric_scooter", "bike_id": "c4a5569faf59866b89badfeb8c15de68"}, {"lon": -77.03304666666666, "lat": 38.902956, "name": "1b705a6272ab66689a828b99b52902b3", "fusion_lat": 0.0, "fusion_lon": 0.0, "rental_uris": {"android": "https://dc.lft.to/lastmile_qr_scan", "ios": "https://dc.lft.to/lastmile_qr_scan"}, "is_reserved": 0, "is_disabled": 0, "type": "electric_scooter", "bike_id": "1b705a6272ab66689a828b99b52902b3"}, {"lon": -77.04287833333333, "lat": 38.90715983333333, "name": "22d4e89ded57f2ae3dadbaf09b02082a", "fusion_lat": 0.0, "fusion_lon": 0.0, "rental_uris": {"android": "https://dc.lft.to/lastmile_qr_scan", "ios": "https://dc.lft.to/lastmile_qr_scan"}, "is_reserved": 0, "is_disabled": 0, "type": "electric_scooter", "bike_id": "22d4e89ded57f2ae3dadbaf09b02082a"}, {"lon": -77.0241445, "lat": 38.92092266666667, "name": "b3fb1606df50833dd536b13e83b0b285", "fusion_lat": 0.0, "fusion_lon": 0.0, "rental_uris": {"android": "https://dc.lft.to/lastmile_qr_scan", "ios": "https://dc.lft.to/lastmile_qr_scan"}, "is_reserved": 0, "is_disabled": 0, "type": "electric_scooter", "bike_id": "b3fb1606df50833dd536b13e83b0b285"}, {"lon": -77.02114133333333, "lat": 38.902254666666664, "name": "ef5fe857d990aa9fca112c8f4b63f56e", "fusion_lat": 0.0, "fusion_lon": 0.0, "rental_uris": {"android": "https://dc.lft.to/lastmile_qr_scan", "ios": "https://dc.lft.to/lastmile_qr_scan"}, "is_reserved": 0, "is_disabled": 0, "type": "electric_scooter", "bike_id": "ef5fe857d990aa9fca112c8f4b63f56e"}, {"lon": -76.9288085, "lat": 38.884419666666666, "name": "a77c5a9f9278173ffd46a0d31ecd5c87", "fusion_lat": 0.0, "fusion_lon": 0.0, "rental_uris": {"android": "https://dc.lft.to/lastmile_qr_scan", "ios": "https://dc.lft.to/lastmile_qr_scan"}, "is_reserved": 0, "is_disabled": 0, "type": "electric_scooter", "bike_id": "a77c5a9f9278173ffd46a0d31ecd5c87"}, {"lon": -77.03258466666666, "lat": 38.918156833333335, "name": "1680a80400eb3b52432d23a88ee7dcf9", "fusion_lat": 0.0, "fusion_lon": 0.0, "rental_uris": {"android": "https://dc.lft.to/lastmile_qr_scan", "ios": "https://dc.lft.to/lastmile_qr_scan"}, "is_reserved": 0, "is_disabled": 0, "type": "electric_scooter", "bike_id": "1680a80400eb3b52432d23a88ee7dcf9"}, {"lon": -77.08048883333333, "lat": 38.848456166666665, "name": "65319a0378185cfefd8df2f4b1c61138", "fusion_lat": 0.0, "fusion_lon": 0.0, "rental_uris": {"android": "https://dc.lft.to/lastmile_qr_scan", "ios": "https://dc.lft.to/lastmile_qr_scan"}, "is_reserved": 0, "is_disabled": 0, "type": "electric_bike", "bike_id": "65319a0378185cfefd8df2f4b1c61138"}, {"lon": -77.0610615, "lat": 38.90500483333334, "name": "e17d4ed78d775e9a6a9dfb2777a55370", "fusion_lat": 0.0, "fusion_lon": 0.0, "rental_uris": {"android": "https://dc.lft.to/lastmile_qr_scan", "ios": "https://dc.lft.to/lastmile_qr_scan"}, "is_reserved": 0, "is_disabled": 0, "type": "electric_scooter", "bike_id": "e17d4ed78d775e9a6a9dfb2777a55370"}, {"lon": -77.04004766666667, "lat": 38.91818133333334, "name": "4f3961ef6025224e0450532ac88180d2", "fusion_lat": 0.0, "fusion_lon": 0.0, "rental_uris": {"android": "https://dc.lft.to/lastmile_qr_scan", "ios": "https://dc.lft.to/lastmile_qr_scan"}, "is_reserved": 0, "is_disabled": 0, "type": "electric_scooter", "bike_id": "4f3961ef6025224e0450532ac88180d2"}, {"lon": -77.03652466666666, "lat": 38.90279966666667, "name": "640822995f2038ad0ab1f0476d0d6f35", "fusion_lat": 0.0, "fusion_lon": 0.0, "rental_uris": {"android": "https://dc.lft.to/lastmile_qr_scan", "ios": "https://dc.lft.to/lastmile_qr_scan"}, "is_reserved": 0, "is_disabled": 0, "type": "electric_scooter", "bike_id": "640822995f2038ad0ab1f0476d0d6f35"}, {"lon": -76.9948505, "lat": 38.89967933333333, "name": "abe2f1b293273c79cec3a93bef1042e5", "fusion_lat": 0.0, "fusion_lon": 0.0, "rental_uris": {"android": "https://dc.lft.to/lastmile_qr_scan", "ios": "https://dc.lft.to/lastmile_qr_scan"}, "is_reserved": 0, "is_disabled": 0, "type": "electric_bike", "bike_id": "abe2f1b293273c79cec3a93bef1042e5"}, {"lon": -76.956797, "lat": 38.947318833333334, "name": "934d2f9cd5a37f1b122ef5cf78c8de84", "fusion_lat": 0.0, "fusion_lon": 0.0, "rental_uris": {"android": "https://dc.lft.to/lastmile_qr_scan", "ios": "https://dc.lft.to/lastmile_qr_scan"}, "is_reserved": 0, "is_disabled": 0, "type": "electric_bike", "bike_id": "934d2f9cd5a37f1b122ef5cf78c8de84"}, {"lon": -76.99522166666667, "lat": 38.900304166666665, "name": "f55b557b139519105241b94f7f42296d", "fusion_lat": 0.0, "fusion_lon": 0.0, "rental_uris": {"android": "https://dc.lft.to/lastmile_qr_scan", "ios": "https://dc.lft.to/lastmile_qr_scan"}, "is_reserved": 0, "is_disabled": 0, "type": "electric_scooter", "bike_id": "f55b557b139519105241b94f7f42296d"}, {"lon": -77.00588083333334, "lat": 38.905592, "name": "6214625ebe28d8824dbea4c35b0a900c", "fusion_lat": 0.0, "fusion_lon": 0.0, "rental_uris": {"android": "https://dc.lft.to/lastmile_qr_scan", "ios": "https://dc.lft.to/lastmile_qr_scan"}, "is_reserved": 0, "is_disabled": 0, "type": "electric_scooter", "bike_id": "6214625ebe28d8824dbea4c35b0a900c"}, {"lon": -77.01115533333333, "lat": 38.870781666666666, "name": "45a411ebc667b105839688fede2232c4", "fusion_lat": 0.0, "fusion_lon": 0.0, "rental_uris": {"android": "https://dc.lft.to/lastmile_qr_scan", "ios": "https://dc.lft.to/lastmile_qr_scan"}, "is_reserved": 0, "is_disabled": 0, "type": "electric_scooter", "bike_id": "45a411ebc667b105839688fede2232c4"}, {"lon": -76.951101, "lat": 38.88791716666667, "name": "73f50bff1ac4e004bdb474fa80779a21", "fusion_lat": 0.0, "fusion_lon": 0.0, "rental_uris": {"android": "https://dc.lft.to/lastmile_qr_scan", "ios": "https://dc.lft.to/lastmile_qr_scan"}, "is_reserved": 0, "is_disabled": 0, "type": "electric_scooter", "bike_id": "73f50bff1ac4e004bdb474fa80779a21"},