{"data": {"bikes": [{"lon": -76.95196616666667, "bike_id": "35f17b0d59ff52aae4637a5f38da607e", "lat": 38.90002166666667, "fusion_lon": 0.0, "fusion_lat": 0.0, "type": "electric_scooter", "name": "35f17b0d59ff52aae4637a5f38da607e", "is_disabled": 0, "rental_uris": {"ios": "https://dc.lft.to/lastmile_qr_scan", "android": "https://dc.lft.to/lastmile_qr_scan"}, "is_reserved": 0}, {"lon": -77.0248575, "bike_id": "e0190f1e07b9b2943afd38e41b029641", "lat": 38.919189833333334, "fusion_lon": 0.0, "fusion_lat": 0.0, "type": "electric_scooter", "name": "e0190f1e07b9b2943afd38e41b029641", "is_disabled": 0, "rental_uris": {"ios": "https://dc.lft.to/lastmile_qr_scan", "android": "https://dc.lft.to/lastmile_qr_scan"}, "is_reserved": 0}, {"lon": -77.03346216666667, "bike_id": "f44ee53f977cec7e668b4343dd503600", "lat": 38.947123500000004, "fusion_lon": 0.0, "fusion_lat": 0.0, "type": "electric_scooter", "name": "f44ee53f977cec7e668b4343dd503600", "is_disabled": 0, "rental_uris": {"ios": "https://dc.lft.to/lastmile_qr_scan", "android": "https://dc.lft.to/lastmile_qr_scan"}, "is_reserved": 0}, {"lon": -77.015777, "bike_id": "5c655e76dc1aa05a2ab2f16548b98c1a", "lat": 38.894662833333335, "fusion_lon": 0.0, "fusion_lat": 0.0, "type": "electric_scooter", "name": "5c655e76dc1aa05a2ab2f16548b98c1a", "is_disabled": 0, "rental_uris": {"ios": "https://dc.lft.to/lastmile_qr_scan", "android": "https://dc.lft.to/lastmile_qr_scan"}, "is_reserved": 0}, {"lon": -76.98365433333333, "bike_id": "0e8378945dbee0ae8d95d413a6b847c5", "lat": 38.8610855, "fusion_lon": 0.0, "fusion_lat": 0.0, "type": "electric_scooter", "name": "0e8378945dbee0ae8d95d413a6b847c5", "is_disabled": 0, "rental_uris": {"ios": "https://dc.lft.to/lastmile_qr_scan", "android": "https://dc.lft.to/lastmile_qr_scan"}, "is_reserved": 0}, {"lon": -76.99843216666666, "bike_id": "5bdbd311be795f89500b9bd318801d34", "lat": 38.900342333333334, "fusion_lon": 0.0, "fusion_lat": 0.0, "type": "electric_scooter", "name": "5bdbd311be795f89500b9bd318801d34", "is_disabled": 0, "rental_uris": {"ios": "https://dc.lft.to/lastmile_qr_scan", "android": "https://dc.lft.to/lastmile_qr_scan"}, "is_reserved": 0}, {"lon": -77.02379416666666, "bike_id": "ddab7525e378146e37b4b0fce9eb0a95", "lat": 38.909546166666665, "fusion_lon": 0.0, "fusion_lat": 0.0, "type": "electric_scooter", "name": "ddab7525e378146e37b4b0fce9eb0a95", "is_disabled": 0, "rental_uris": {"ios": "https://dc.lft.to/lastmile_qr_scan", "android": "https://dc.lft.to/lastmile_qr_scan"}, "is_reserved": 0}, {"lon": -77.02485233333333, "bike_id": "bde09e1697601d84e0a33d18c51f51a7", "lat": 38.93098033333333, "fusion_lon": 0.0, "fusion_lat": 0.0, "type": "electric_scooter", "name": "bde09e1697601d84e0a33d18c51f51a7", "is_disabled": 0, "rental_uris": {"ios": "https://dc.lft.to/lastmile_qr_scan", "android": "https://dc.lft.to/lastmile_qr_scan"}, "is_reserved": 0}, {"lon": -77.03879416666666, "bike_id": "3a927eddc93689c767eb3d2cf05fbcc8", "lat": 38.91108083333334, "fusion_lon": 0.0, "fusion_lat": 0.0, "type": "electric_scooter", "name": "3a927eddc93689c767eb3d2cf05fbcc8", "is_disabled": 0, "rental_uris": {"ios": "https://dc.lft.to/lastmile_qr_scan", "android": "https://dc.lft.to/lastmile_qr_scan"}, "is_reserved": 0}, {"lon": -77.03759733333334, "bike_id": "3dcf4242f1d93d2e445998d64e6a2f04", "lat": 38.9078225, "fusion_lon": 0.0, "fusion_lat": 0.0, "type": "electric_scooter", "name": "3dcf4242f1d93d2e445998d64e6a2f04", "is_disabled": 0, "rental_uris": {"ios": "https://dc.lft.to/lastmile_qr_scan", "android": "https://dc.lft.to/lastmile_qr_scan"}, "is_reserved": 0}, {"lon": -77.00808533333333, "bike_id": "c85610b4d487554e38b4e2e2aaddcc2a", "lat": 38.916918833333334, "fusion_lon": 0.0, "fusion_lat": 0.0, "type": "electric_scooter", "name": "c85610b4d487554e38b4e2e2aaddcc2a", "is_disabled": 0, "rental_uris": {"ios": "https://dc.lft.to/lastmile_qr_scan", "android": "https://dc.lft.to/lastmile_qr_scan"}, "is_reserved": 0}, {"lon": -77.03194816666667, "bike_id": "8783f6652e2ab692d68d8db6a04ee44c", "lat": 38.9142055, "fusion_lon": 0.0, "fusion_lat": 0.0, "type": "electric_scooter", "name": "8783f6652e2ab692d68d8db6a04ee44c", "is_disabled": 0, "rental_uris": {"ios": "https://dc.lft.to/lastmile_qr_scan", "android": "https://dc.lft.to/lastmile_qr_scan"}, "is_reserved": 0}, {"lon": -77.029587, "bike_id": "9aeefef3e6574b82d1a42488d903c58d", "lat": 38.905002333333336, "fusion_lon": 0.0, "fusion_lat": 0.0, "type": "electric_scooter", "name": "9aeefef3e6574b82d1a42488d903c58d", "is_disabled": 0, "rental_uris": {"ios": "https://dc.lft.to/lastmile_qr_scan", "android": "https://dc.lft.to/lastmile_qr_scan"}, "is_reserved": 0}, {"lon": -76.93367, "bike_id": "83941fdb539190c651001d46a7f89199", "lat": 38.8991395, "fusion_lon": 0.0, "fusion_lat": 0.0, "type": "electric_scooter", "name": "83941fdb539190c651001d46a7f89199", "is_disabled": 0, "rental_uris": {"ios": "https://dc.lft.to/lastmile_qr_scan", "android": "https://dc.lft.to/lastmile_qr_scan"}, "is_reserved": 0}, {"lon": -76.99569533333333, "bike_id": "d4a6e295f8b56cb94d1894bdeed52aa1", "lat": 38.85179866666667, "fusion_lon": 0.0, "fusion_lat": 0.0, "type": "electric_bike", "name": "d4a6e295f8b56cb94d1894bdeed52aa1", "is_disabled": 0, "rental_uris": {"ios": "https://dc.lft.to/lastmile_qr_scan", "android": "https://dc.lft.to/lastmile_qr_scan"}, "is_reserved": 0}, {"lon": -77.016087, "bike_id": "0fa330327e33b129bfae6eb0e3511d1c", "lat": 38.91065283333333, "fusion_lon": 0.0, "fusion_lat": 0.0, "type": "electric_scooter", "name": "0fa330327e33b129bfae6eb0e3511d1c", "is_disabled": 0, "rental_uris": {"ios": "https://dc.lft.to/lastmile_qr_scan", "android": "https://dc.lft.to/lastmile_qr_scan"}, "is_reserved": 0}, {"lon": -77.05640166666667, "bike_id": "4dab44583138c396fa636ae3576f2522", "lat": 38.894261166666666, "fusion_lon": 0.0, "fusion_lat": 0.0, "type": "electric_scooter", "name": "4dab44583138c396fa636ae3576f2522", "is_disabled": 0, "rental_uris": {"ios": "https://dc.lft.to/lastmile_qr_scan", "android": "https://dc.lft.to/lastmile_qr_scan"}, "is_reserved": 0}, {"lon": -76.93175616666667, "bike_id": "2b1e586f5bb6c4740ec1a10850d45557", "lat": 38.89882033333333, "fusion_lon": 0.0, "fusion_lat": 0.0, "type": "electric_scooter", "name": "2b1e586f5bb6c4740ec1a10850d45557", "is_disabled": 0, "rental_uris": {"ios": "https://dc.lft.to/lastmile_qr_scan", "android": "https://dc.lft.to/lastmile_qr_scan"}, "is_reserved": 0}, {"lon": -76.9974815, "bike_id": "1ada07854dbfd4fee0420b780033fb2d", "lat": 38.90968383333333, "fusion_lon": 0.0, "fusion_lat": 0.0, "type": "electric_scooter", "name": "1ada07854dbfd4fee0420b780033fb2d", "is_disabled": 0, "rental_uris": {"ios": "https://dc.lft.to/lastmile_qr_scan", "android": "https://dc.lft.to/lastmile_qr_scan"}, "is_reserved": 0}, {"lon": -76.9960605, "bike_id": "33be7a12b834692bf02f1eb3bfe8397a", "lat": 38.883115833333335, "fusion_lon": 0.0, "fusion_lat": 0.0, "type": "electric_scooter", "name": "33be7a12b834692bf02f1eb3bfe8397a", "is_disabled": 0, "rental_uris": {"ios": "https://dc.lft.to/lastmile_qr_scan", "android": "https://dc.lft.to/lastmile_qr_scan"}, "is_reserved": 0}, {"lon": -77.0410025, "bike_id": "173bba6568138d6766d0611accb5ec77", "lat": 38.92031, "fusion_lon": 0.0, "fusion_lat": 0.0, "type": "electric_scooter", "name": "173bba6568138d6766d0611accb5ec77", "is_disabled": 0, "rental_uris": {"ios": "https://dc.lft.to/lastmile_qr_scan", "android": "https://dc.lft.to/lastmile_qr_scan"}, "is_reserved": 0}, {"lon": -77.04464733333333, "bike_id": "108c2dd7d640b97dbc5aac6f63366e2b", "lat": 38.919446666666666, "fusion_lon": 0.0, "fusion_lat": 0.0, "type": "electric_scooter", "name": "108c2dd7d640b97dbc5aac6f63366e2b", "is_disabled": 0, "rental_uris": {"ios": "https://dc.lft.to/lastmile_qr_scan", "android": "https://dc.lft.to/lastmile_qr_scan"}, "is_reserved": 0}, {"lon": -77.04491516666667, "bike_id": "ef0f3dec845987954154459bf3b26a47", "lat": 38.91940366666667, "fusion_lon": 0.0, "fusion_lat": 0.0, "type": "electric_scooter", "name": "ef0f3dec845987954154459bf3b26a47", "is_disabled": 0, "rental_uris": {"ios": "https://dc.lft.to/lastmile_qr_scan", "android": "https://dc.lft.to/lastmile_qr_scan"}, "is_reserved": 0}, {"lon": -77.02222183333333, "bike_id": "0c0bfbeed2fab7cbf94c1f8930967a65", "lat": 38.892191333333336, "fusion_lon": 0.0, "fusion_lat": 0.0, "type": "electric_scooter", "name": "0c0bfbeed2fab7cbf94c1f8930967a65", "is_disabled": 0, "rental_uris": {"ios": "https://dc.lft.to/lastmile_qr_scan", "android": "https://dc.lft.to/lastmile_qr_scan"}, "is_reserved": 0}, {"lon": -77.01743366666666, "bike_id": "dde5caf9e9b9aefdf9fe396b8b609ebf", "lat": 38.880595, "fusion_lon": 0.0, "fusion_lat": 0.0, "type": "electric_scooter", "name": "dde5caf9e9b9aefdf9fe396b8b609ebf", "is_disabled": 0, "rental_uris": {"ios": "https://dc.lft.to/lastmile_qr_scan", "android": "https://dc.lft.to/lastmile_qr_scan"}, "is_reserved": 0}, {"lon": -77.08592933333334, "bike_id": "b9c4cddb00987356fd46c9f0eea915cc", "lat": 38.9086765, "fusion_lon": 0.0, "fusion_lat": 0.0, "type": "electric_scooter", "name": "b9c4cddb00987356fd46c9f0eea915cc", "is_disabled": 0, "rental_uris": {"ios": "https://dc.lft.to/lastmile_qr_scan", "android": "https://dc.lft.to/lastmile_qr_scan"}, "is_reserved": 0}, {"lon": -77.04179433333333, "bike_id": "13f9a7f18f26b4d52cfafb3cf5082055", "lat": 38.91131816666667, "fusion_lon": 0.0, "fusion_lat": 0.0, "type": "electric_scooter", "name": "13f9a7f18f26b4d52cfafb3cf5082055", "is_disabled": 0, "rental_uris": {"ios": "https://dc.lft.to/lastmile_qr_scan", "android": "https://dc.lft.to/lastmile_qr_scan"}, "is_reserved": 0}, {"lon": -77.02179866666667, "bike_id": "e6761da9a508551c45956ed9dabcc3a4", "lat": 38.9142095, "fusion_lon": 0.0, "fusion_lat": 0.0, "type": "electric_scooter", "name": "e6761da9a508551c45956ed9dabcc3a4", "is_disabled": 0, "rental_uris": {"ios": "https://dc.lft.to/lastmile_qr_scan", "android": "https://dc.lft.to/lastmile_qr_scan"}, "is_reserved": 0}, {"lon": -77.01747733333333, "bike_id": "690a23ef4385b195427537f66dbf3c34", "lat": 38.88118, "fusion_lon": 0.0, "fusion_lat": 0.0, "type": "electric_scooter", "name": "690a23ef4385b195427537f66dbf3c34", "is_disabled": 0, "rental_uris": {"ios": "https://dc.lft.to/lastmile_qr_scan", "android": "https://dc.lft.to/lastmile_qr_scan"}, "is_reserved": 0}, {"lon": -77.034216, "bike_id": "1fedbf43ee3458ba5408c74bc4d7224b", "lat": 38.91802766666667, "fusion_lon": 0.0, "fusion_lat": 0.0, "type": "electric_scooter", "name": "1fedbf43ee3458ba5408c74bc4d7224b", "is_disabled": 0, "rental_uris": {"ios": "https://dc.lft.to/lastmile_qr_scan", "android": "https://dc.lft.to/lastmile_qr_scan"}, "is_reserved": 0}, {"lon": -76.99062, "bike_id": "22c5a1512528ce83e1960a3756142f95", "lat": 38.90027633333333, "fusion_lon": 0.0, "fusion_lat": 0.0, "type": "electric_scooter", "name": "22c5a1512528ce83e1960a3756142f95", "is_disabled": 0, "rental_uris": {"ios": "https://dc.lft.to/lastmile_qr_scan", "android": "https://dc.lft.to/lastmile_qr_scan"}, "is_reserved": 0}, {"lon": -77.031662, "bike_id": "e423f2293675025f5a4659a2af617ec0", "lat": 38.90352883333333, "fusion_lon": 0.0, "fusion_lat": 0.0, "type": "electric_scooter", "name": "e423f2293675025f5a4659a2af617ec0", "is_disabled": 0, "rental_uris": {"ios": "https://dc.lft.to/lastmile_qr_scan", "android": "https://dc.lft.to/lastmile_qr_scan"}, "is_reserved": 0}, {"lon": -76.94637566666667, "bike_id": "b950cc24a6f45de2756b819ce9835893", "lat": 38.898333666666666, "fusion_lon": 0.0, "fusion_lat": 0.0, "type": "electric_scooter", "name": "b950cc24a6f45de2756b819ce9835893", "is_disabled": 0, "rental_uris": {"ios": "https://dc.lft.to/lastmile_qr_scan", "android": "https://dc.lft.to/lastmile_qr_scan"}, "is_reserved": 0}, {"lon": -77.00923433333334, "bike_id": "417181aaac6e152ef4c44a074d00e034", "lat": 38.910964, "fusion_lon": 0.0, "fusion_lat": 0.0, "type": "electric_scooter", "name": "417181aaac6e152ef4c44a074d00e034", "is_disabled": 0, "rental_uris": {"ios": "https://dc.lft.to/lastmile_qr_scan", "android": "https://dc.lft.to/lastmile_qr_scan"}, "is_reserved": 0}, {"lon": -76.98962233333333, "bike_id": "896f62dfa44e1cd3c54035619a205774", "lat": 38.901246666666665, "fusion_lon": 0.0, "fusion_lat": 0.0, "type": "electric_scooter", "name": "896f62dfa44e1cd3c54035619a205774", "is_disabled": 0, "rental_uris": {"ios": "https://dc.lft.to/lastmile_qr_scan", "android": "https://dc.lft.to/lastmile_qr_scan"}, "is_reserved": 0}, {"lon": -77.01366683333333, "bike_id": "24b60507ee773db861ecd77d3d5b02a6", "lat": 38.9061965, "fusion_lon": 0.0, "fusion_lat": 0.0, "type": "electric_scooter", "name": "24b60507ee773db861ecd77d3d5b02a6", "is_disabled": 0, "rental_uris": {"ios": "https://dc.lft.to/lastmile_qr_scan", "android": "https://dc.lft.to/lastmile_qr_scan"}, "is_reserved": 0}, {"lon": -77.02508, "bike_id": "2b740b4cf5974552d8286c48d120a36d", "lat": 38.93092883333333, "fusion_lon": 0.0, "fusion_lat": 0.0, "type": "electric_scooter", "name": "2b740b4cf5974552d8286c48d120a36d", "is_disabled": 0, "rental_uris": {"ios": "https://dc.lft.to/lastmile_qr_scan", "android": "https://dc.lft.to/lastmile_qr_scan"}, "is_reserved": 0}, {"lon": -77.0222245, "bike_id": "a7c98bc857d44be1fa49a432c715db72", "lat": 38.892176166666665, "fusion_lon": 0.0, "fusion_lat": 0.0, "type": "electric_scooter", "name": "a7c98bc857d44be1fa49a432c715db72", "is_disabled": 0, "rental_uris": {"ios": "https://dc.lft.to/lastmile_qr_scan", "android": "https://dc.lft.to/lastmile_qr_scan"}, "is_reserved": 0}, {"lon": -77.04802216666667, "bike_id": "502ec6d5b508179626bb4138b40ac8aa", "lat": 38.90948616666667, "fusion_lon": 0.0, "fusion_lat": 0.0, "type": "electric_scooter", "name": "502ec6d5b508179626bb4138b40ac8aa", "is_disabled": 0, "rental_uris": {"ios": "https://dc.lft.to/lastmile_qr_scan", "android": "https://dc.lft.to/lastmile_qr_scan"}, "is_reserved": 0}, {"lon": -76.93358883333333, "bike_id": "12852f9007194d80ebea2625246c3169", "lat": 38.887943, "fusion_lon": 0.0, "fusion_lat": 0.0, "type": "electric_scooter", "name": "12852f9007194d80ebea2625246c3169", "is_disabled": 0, "rental_uris": {"ios": "https://dc.lft.to/lastmile_qr_scan", "android": "https://dc.lft.to/lastmile_qr_scan"}, "is_reserved": 0}, {"lon": -76.94636766666666, "bike_id": "956876ab7585a161a01de6dfc7ac21a3", "lat": 38.8983325, "fusion_lon": 0.0, "fusion_lat": 0.0, "type": "electric_scooter", "name": "956876ab7585a161a01de6dfc7ac21a3", "is_disabled": 0, "rental_uris": {"ios": "https://dc.lft.to/lastmile_qr_scan", "android": "https://dc.lft.to/lastmile_qr_scan"}, "is_reserved": 0}, {"lon": -77.04257766666667, "bike_id": "984febeccb3c9efde4c2bf1187e190ad", "lat": 38.90697483333334, "fusion_lon": 0.0, "fusion_lat": 0.0, "type": "electric_scooter", "name": "984febeccb3c9efde4c2bf1187e190ad", "is_disabled": 0, "rental_uris": {"ios": "https://dc.lft.to/lastmile_qr_scan", "android": "https://dc.lft.to/lastmile_qr_scan"}, "is_reserved": 0}, {"lon": -77.03173733333334, "bike_id": "283f2b126785124d69b3354d34a8c78a", "lat": 38.91418633333333, "fusion_lon": 0.0, "fusion_lat": 0.0, "type": "electric_scooter", "name": "283f2b126785124d69b3354d34a8c78a", "is_disabled": 0, "rental_uris": {"ios": "https://dc.lft.to/lastmile_qr_scan", "android": "https://dc.lft.to/lastmile_qr_scan"}, "is_reserved": 0}, {"lon": -77.02949916666667, "bike_id": "d7054346a3821b3d818554dbcfd83574", "lat": 38.92370016666667, "fusion_lon": 0.0, "fusion_lat": 0.0, "type": "electric_scooter", "name": "d7054346a3821b3d818554dbcfd83574", "is_disabled": 0, "rental_uris": {"ios": "https://dc.lft.to/lastmile_qr_scan", "android": "https://dc.lft.to/lastmile_qr_scan"}, "is_reserved": 0}, {"lon": -77.03278783333333, "bike_id": "65f251c2fd6b066c5a3fc58c615c5d30", "lat": 38.932534, "fusion_lon": 0.0, "fusion_lat": 0.0, "type": "electric_scooter", "name": "65f251c2fd6b066c5a3fc58c615c5d30", "is_disabled": 0, "rental_uris": {"ios": "https://dc.lft.to/lastmile_qr_scan", "android": "https://dc.lft.to/lastmile_qr_scan"}, "is_reserved": 0}, {"lon": -77.00999666666667, "bike_id": "a379636b63a0d9ea4b497b8844544b62", "lat": 38.91923116666667, "fusion_lon": 0.0, "fusion_lat": 0.0, "type": "electric_scooter", "name": "a379636b63a0d9ea4b497b8844544b62", "is_disabled": 0, "rental_uris": {"ios": "https://dc.lft.to/lastmile_qr_scan", "android": "https://dc.lft.to/lastmile_qr_scan"}, "is_reserved": 0}, {"lon": -77.02725383333333, "bike_id": "386d766ce38a8e723e088b679da326ff", "lat": 38.897836, "fusion_lon": 0.0, "fusion_lat": 0.0, "type": "electric_scooter", "name": "386d766ce38a8e723e088b679da326ff", "is_disabled": 0, "rental_uris": {"ios": "https://dc.lft.to/lastmile_qr_scan", "android": "https://dc.lft.to/lastmile_qr_scan"}, "is_reserved": 0}, {"lon": -77.03182783333334, "bike_id": "41b22c47dcc69ea1aaff36eac59b87c7", "lat": 38.897775333333335, "fusion_lon": 0.0, "fusion_lat": 0.0, "type": "electric_scooter", "name": "41b22c47dcc69ea1aaff36eac59b87c7", "is_disabled": 0, "rental_uris": {"ios": "https://dc.lft.to/lastmile_qr_scan", "android": "https://dc.lft.to/lastmile_qr_scan"}, "is_reserved": 0}, {"lon": -77.02353866666667, "bike_id": "55478b6575e9dc7b48fa77dd6841ca3f", "lat": 38.89630183333333, "fusion_lon": 0.0, "fusion_lat": 0.0, "type": "electric_scooter", "name": "55478b6575e9dc7b48fa77dd6841ca3f", "is_disabled": 0, "rental_uris": {"ios": "https://dc.lft.to/lastmile_qr_scan", "android": "https://dc.lft.to/lastmile_qr_scan"}, "is_reserved": 0}, {"lon": -77.04278816666667, "bike_id": "aff4f0dcb88ee06e6d20adfacd361954", "lat": 38.934119, "fusion_lon": 0.0, "fusion_lat": 0.0, "type": "electric_scooter", "name": "aff4f0dcb88ee06e6d20adfacd361954", "is_disabled": 0, "rental_uris": {"ios": "https://dc.lft.to/lastmile_qr_scan", "android": "https://dc.lft.to/lastmile_qr_scan"}, "is_reserved": 0}, {"lon": -77.021665, "bike_id": "8a8ee6bf0bd7862f58d3a578afd8f20c", "lat": 38.897174166666666, "fusion_lon": 0.0, "fusion_lat": 0.0, "type": "electric_scooter", "name": "8a8ee6bf0bd7862f58d3a578afd8f20c", "is_disabled": 0, "rental_uris": {"ios": "https://dc.lft.to/lastmile_qr_scan", "android": "https://dc.lft.to/lastmile_qr_scan"}, "is_reserved": 0}, {"lon": -77.030773, "bike_id": "8539d1b13ebed5f3ed08af381bf2fe25", "lat": 38.880370666666664, "fusion_lon": 0.0, "fusion_lat": 0.0, "type": "electric_scooter", "name": "8539d1b13ebed5f3ed08af381bf2fe25", "is_disabled": 0, "rental_uris": {"ios": "https://dc.lft.to/lastmile_qr_scan", "android": "https://dc.lft.to/lastmile_qr_scan"}, "is_reserved": 0}, {"lon": -77.02493366666667, "bike_id": "bb2924bd88dfec5f1fa71beabb9aa0f6", "lat": 38.919512833333336, "fusion_lon": 0.0, "fusion_lat": 0.0, "type": "electric_scooter", "name": "bb2924bd88dfec5f1fa71beabb9aa0f6", "is_disabled": 0, "rental_uris": {"ios": "https://dc.lft.to/lastmile_qr_scan", "android": "https://dc.lft.to/lastmile_qr_scan"}, "is_reserved": 0}, {"lon": -77.03854666666666, "bike_id": "5f399333dc7a52112f3977ea6df07e02", "lat": 38.916638, "fusion_lon": 0.0, "fusion_lat": 0.0, "type": "electric_scooter", "name": "5f399333dc7a52112f3977ea6df07e02", "is_disabled": 0, "rental_uris": {"ios": "https://dc.lft.to/lastmile_qr_scan", "android": "https://dc.lft.to/lastmile_qr_scan"}, "is_reserved": 0}, {"lon": -76.98877483333334, "bike_id": "e8f3c030624eb365157f3c7b1f0dc333", "lat": 38.866506, "fusion_lon": 0.0, "fusion_lat": 0.0, "type": "electric_scooter", "name": "e8f3c030624eb365157f3c7b1f0dc333", "is_disabled": 0, "rental_uris": {"ios": "https://dc.lft.to/lastmile_qr_scan", "android": "https://dc.lft.to/lastmile_qr_scan"}, "is_reserved": 0}, {"lon": -77.02581216666667, "bike_id": "70c6d9ea62c2e4eb5708697396b54010", "lat": 38.887381500000004, "fusion_lon": 0.0, "fusion_lat": 0.0, "type": "electric_scooter", "name": "70c6d9ea62c2e4eb5708697396b54010", "is_disabled": 0, "rental_uris": {"ios": "https://dc.lft.to/lastmile_qr_scan", "android": "https://dc.lft.to/lastmile_qr_scan"}, "is_reserved": 0}, {"lon": -77.04231783333333, "bike_id": "a91e9e577383bb13fd0f7483a257944d", "lat": 38.907829166666666, "fusion_lon": 0.0, "fusion_lat": 0.0, "type": "electric_scooter", "name": "a91e9e577383bb13fd0f7483a257944d", "is_disabled": 0, "rental_uris": {"ios": "https://dc.lft.to/lastmile_qr_scan", "android": "https://dc.lft.to/lastmile_qr_scan"}, "is_reserved": 0}, {"lon": -77.029673, "bike_id": "1192a496bdd3153a553fe939c44bd95f", "lat": 38.904937833333335, "fusion_lon": 0.0, "fusion_lat": 0.0, "type": "electric_scooter", "name": "1192a496bdd3153a553fe939c44bd95f", "is_disabled": 0, "rental_uris": {"ios": "https://dc.lft.to/lastmile_qr_scan", "android": "https://dc.lft.to/lastmile_qr_scan"}, "is_reserved": 0}, {"lon": -76.99465166666667, "bike_id": "5ef4c36b6a2f76d20b76113652b9b738", "lat": 38.940675666666664, "fusion_lon": 0.0, "fusion_lat": 0.0, "type": "electric_bike", "name": "5ef4c36b6a2f76d20b76113652b9b738", "is_disabled": 0, "rental_uris": {"ios": "https://dc.lft.to/lastmile_qr_scan", "android": "https://dc.lft.to/lastmile_qr_scan"}, "is_reserved": 0}, {"lon": -77.0056935, "bike_id": "7218b2c44118b685345fd278b7fe81f8", "lat": 38.9055585, "fusion_lon": 0.0, "fusion_lat": 0.0, "type": "electric_scooter", "name": "7218b2c44118b685345fd278b7fe81f8", "is_disabled": 0, "rental_uris": {"ios": "https://dc.lft.to/lastmile_qr_scan", "android": "https://dc.lft.to/lastmile_qr_scan"}, "is_reserved": 0}, {"lon": -77.03260966666667, "bike_id": "ef645a5c702fd3a7be760f8e44fb1594", "lat": 38.9415035, "fusion_lon": 0.0, "fusion_lat": 0.0, "type": "electric_scooter", "name": "ef645a5c702fd3a7be760f8e44fb1594", "is_disabled": 0, "rental_uris": {"ios": "https://dc.lft.to/lastmile_qr_scan", "android": "https://dc.lft.to/lastmile_qr_scan"}, "is_reserved": 0}, {"lon": -77.02442683333334, "bike_id": "d5eef6a23362afcc0c2484a8407644cd", "lat": 38.92349166666666, "fusion_lon": 0.0, "fusion_lat": 0.0, "type": "electric_scooter", "name": "d5eef6a23362afcc0c2484a8407644cd", "is_disabled": 0, "rental_uris": {"ios": "https://dc.lft.to/lastmile_qr_scan", "android": "https://dc.lft.to/lastmile_qr_scan"}, "is_reserved": 0}, {"lon": -76.9917655, "bike_id": "a9acfc19168860bcd52a1ec0def6eb49", "lat": 38.889809666666665, "fusion_lon": 0.0, "fusion_lat": 0.0, "type": "electric_scooter", "name": "a9acfc19168860bcd52a1ec0def6eb49", "is_disabled": 0, "rental_uris": {"ios": "https://dc.lft.to/lastmile_qr_scan", "android": "https://dc.lft.to/lastmile_qr_scan"}, "is_reserved": 0}, {"lon": -77.00346766666667, "bike_id": "e2c35d26a1e0e59ccf1a0085477c6fea", "lat": 38.91623116666667, "fusion_lon": 0.0, "fusion_lat": 0.0, "type": "electric_scooter", "name": "e2c35d26a1e0e59ccf1a0085477c6fea", "is_disabled": 0, "rental_uris": {"ios": "https://dc.lft.to/lastmile_qr_scan", "android": "https://dc.lft.to/lastmile_qr_scan"}, "is_reserved": 0}, {"lon": -77.0409125, "bike_id": "31121d4fc61fcc7de132ed2d2df7a5af", "lat": 38.9095465, "fusion_lon": 0.0, "fusion_lat": 0.0, "type": "electric_scooter", "name": "31121d4fc61fcc7de132ed2d2df7a5af", "is_disabled": 0, "rental_uris": {"ios": "https://dc.lft.to/lastmile_qr_scan", "android": "https://dc.lft.to/lastmile_qr_scan"}, "is_reserved": 0}, {"lon": -77.02222733333333, "bike_id": "34902ace6ad8fb6f12dde77c41f5fbb6", "lat": 38.89220366666667, "fusion_lon": 0.0, "fusion_lat": 0.0, "type": "electric_scooter", "name": "34902ace6ad8fb6f12dde77c41f5fbb6", "is_disabled": 0, "rental_uris": {"ios": "https://dc.lft.to/lastmile_qr_scan", "android": "https://dc.lft.to/lastmile_qr_scan"}, "is_reserved": 0}, {"lon": -77.0505695, "bike_id": "9115bae5846401a7ad8fcaceaf833ba7", "lat": 38.925839, "fusion_lon": 0.0, "fusion_lat": 0.0, "type": "electric_scooter", "name": "9115bae5846401a7ad8fcaceaf833ba7", "is_disabled": 0, "rental_uris": {"ios": "https://dc.lft.to/lastmile_qr_scan", "android": "https://dc.lft.to/lastmile_qr_scan"}, "is_reserved": 0}, {"lon": -77.03764783333334, "bike_id": "d2f291866c83d32422d3ead31fb17e6f", "lat": 38.9288385, "fusion_lon": 0.0, "fusion_lat": 0.0, "type": "electric_scooter", "name": "d2f291866c83d32422d3ead31fb17e6f", "is_disabled": 0, "rental_uris": {"ios": "https://dc.lft.to/lastmile_qr_scan", "android": "https://dc.lft.to/lastmile_qr_scan"}, "is_reserved": 0}, {"lon": -76.98458933333333, "bike_id": "d36c649c52fdaa651e69d6842a804402", "lat": 38.90549816666667, "fusion_lon": 0.0, "fusion_lat": 0.0, "type": "electric_scooter", "name": "d36c649c52fdaa651e69d6842a804402", "is_disabled": 0, "rental_uris": {"ios": "https://dc.lft.to/lastmile_qr_scan", "android": "https://dc.lft.to/lastmile_qr_scan"}, "is_reserved": 0}, {"lon": -77.0364065, "bike_id": "98a847b6d3513043f2ae7b5f8958891c", "lat": 38.916843666666665, "fusion_lon": 0.0, "fusion_lat": 0.0, "type": "electric_scooter", "name": "98a847b6d3513043f2ae7b5f8958891c", "is_disabled": 0, "rental_uris": {"ios": "https://dc.lft.to/lastmile_qr_scan", "android": "https://dc.lft.to/lastmile_qr_scan"}, "is_reserved": 0}, {"lon": -77.036806, "bike_id": "ad5f1ed5f8586edd165142269bcabac2", "lat": 38.9083275, "fusion_lon": 0.0, "fusion_lat": 0.0, "type": "electric_scooter", "name": "ad5f1ed5f8586edd165142269bcabac2", "is_disabled": 0, "rental_uris": {"ios": "https://dc.lft.to/lastmile_qr_scan", "android": "https://dc.lft.to/lastmile_qr_scan"}, "is_reserved": 0}, {"lon": -77.01034783333333, "bike_id": "c96cccd66e15fbfa652185d3d1187145", "lat": 38.921227333333334, "fusion_lon": 0.0, "fusion_lat": 0.0, "type": "electric_scooter", "name": "c96cccd66e15fbfa652185d3d1187145", "is_disabled": 0, "rental_uris": {"ios": "https://dc.lft.to/lastmile_qr_scan", "android": "https://dc.lft.to/lastmile_qr_scan"}, "is_reserved": 0}, {"lon": -76.96601916666667, "bike_id": "c4b3f50f900d43fdefb039c0e9e396da", "lat": 38.871116, "fusion_lon": 0.0, "fusion_lat": 0.0, "type": "electric_scooter", "name": "c4b3f50f900d43fdefb039c0e9e396da", "is_disabled": 0, "rental_uris": {"ios": "https://dc.lft.to/lastmile_qr_scan", "android": "https://dc.lft.to/lastmile_qr_scan"}, "is_reserved": 0}, {"lon": -77.02186716666667, "bike_id": "4e9bc37433b4ce34f829c82e4844477e", "lat": 38.89710683333333, "fusion_lon": 0.0, "fusion_lat": 0.0, "type": "electric_scooter", "name": "4e9bc37433b4ce34f829c82e4844477e", "is_disabled": 0, "rental_uris": {"ios": "https://dc.lft.to/lastmile_qr_scan", "android": "https://dc.lft.to/lastmile_qr_scan"}, "is_reserved": 0}, {"lon": -77.03217516666666, "bike_id": "813bda4e4cd9313fbd79ae6d327f9bc0", "lat": 38.90725833333333, "fusion_lon": 0.0, "fusion_lat": 0.0, "type": "electric_scooter", "name": "813bda4e4cd9313fbd79ae6d327f9bc0", "is_disabled": 0, "rental_uris": {"ios": "https://dc.lft.to/lastmile_qr_scan", "android": "https://dc.lft.to/lastmile_qr_scan"}, "is_reserved": 0}, {"lon": -77.021865, "bike_id": "205233a38dfc282cc918d285c102db6f", "lat": 38.909379333333334, "fusion_lon": 0.0, "fusion_lat": 0.0, "type": "electric_scooter", "name": "205233a38dfc282cc918d285c102db6f", "is_disabled": 0, "rental_uris": {"ios": "https://dc.lft.to/lastmile_qr_scan", "android": "https://dc.lft.to/lastmile_qr_scan"}, "is_reserved": 0}, {"lon": -77.04668183333334, "bike_id": "42de1c224bdab8f8bd8a4caab7be15e2", "lat": 38.90552433333333, "fusion_lon": 0.0, "fusion_lat": 0.0, "type": "electric_scooter", "name": "42de1c224bdab8f8bd8a4caab7be15e2", "is_disabled": 0, "rental_uris": {"ios": "https://dc.lft.to/lastmile_qr_scan", "android": "https://dc.lft.to/lastmile_qr_scan"}, "is_reserved": 0}, {"lon": -77.0378515, "bike_id": "1174795504b6f44f0fb7bc621cf49c41", "lat": 38.9360285, "fusion_lon": 0.0, "fusion_lat": 0.0, "type": "electric_scooter", "name": "1174795504b6f44f0fb7bc621cf49c41", "is_disabled": 0, "rental_uris": {"ios": "https://dc.lft.to/lastmile_qr_scan", "android": "https://dc.lft.to/lastmile_qr_scan"}, "is_reserved": 0}, {"lon": -77.02404083333333, "bike_id": "e8b7831a51a29f9d992a6fb8a0d18511", "lat": 38.882827, "fusion_lon": 0.0, "fusion_lat": 0.0, "type": "electric_scooter", "name": "e8b7831a51a29f9d992a6fb8a0d18511", "is_disabled": 0, "rental_uris": {"ios": "https://dc.lft.to/lastmile_qr_scan", "android": "https://dc.lft.to/lastmile_qr_scan"}, "is_reserved": 0}, {"lon": -77.036646, "bike_id": "3d84c16084e38743ab98e23288d3524a", "lat": 38.91815116666667, "fusion_lon": 0.0, "fusion_lat": 0.0, "type": "electric_scooter", "name": "3d84c16084e38743ab98e23288d3524a", "is_disabled": 0, "rental_uris": {"ios": "https://dc.lft.to/lastmile_qr_scan", "android": "https://dc.lft.to/lastmile_qr_scan"}, "is_reserved": 0}, {"lon": -77.02806816666667, "bike_id": "7529a78ded38c8112802f20fd7f00edf", "lat": 38.916828833333334, "fusion_lon": 0.0, "fusion_lat": 0.0, "type": "electric_scooter", "name": "7529a78ded38c8112802f20fd7f00edf", "is_disabled": 0, "rental_uris": {"ios": "https://dc.lft.to/lastmile_qr_scan", "android": "https://dc.lft.to/lastmile_qr_scan"}, "is_reserved": 0}, {"lon": -76.92624383333333, "bike_id": "9514df47ed3e83fa82149bfded887f44", "lat": 38.88453766666667, "fusion_lon": 0.0, "fusion_lat": 0.0, "type": "electric_scooter", "name": "9514df47ed3e83fa82149bfded887f44", "is_disabled": 0, "rental_uris": {"ios": "https://dc.lft.to/lastmile_qr_scan", "android": "https://dc.lft.to/lastmile_qr_scan"}, "is_reserved": 0}, {"lon": -77.0221365, "bike_id": "3b7ddd6df012128a38a509d4f00f344c", "lat": 38.8935545, "fusion_lon": 0.0, "fusion_lat": 0.0, "type": "electric_scooter", "name": "3b7ddd6df012128a38a509d4f00f344c", "is_disabled": 0, "rental_uris": {"ios": "https://dc.lft.to/lastmile_qr_scan", "android": "https://dc.lft.to/lastmile_qr_scan"}, "is_reserved": 0}, {"lon": -77.014774, "bike_id": "4bd4ed0b59de648bfc9af35ebb78b58e", "lat": 38.94064316666667, "fusion_lon": 0.0, "fusion_lat": 0.0, "type": "electric_bike", "name": "4bd4ed0b59de648bfc9af35ebb78b58e", "is_disabled": 0, "rental_uris": {"ios": "https://dc.lft.to/lastmile_qr_scan", "android": "https://dc.lft.to/lastmile_qr_scan"}, "is_reserved": 0}, {"lon": -77.02213633333334, "bike_id": "85ff374932a1d7eee10f762c02256a5c", "lat": 38.905711333333336, "fusion_lon": 0.0, "fusion_lat": 0.0, "type": "electric_scooter", "name": "85ff374932a1d7eee10f762c02256a5c", "is_disabled": 0, "rental_uris": {"ios": "https://dc.lft.to/lastmile_qr_scan", "android": "https://dc.lft.to/lastmile_qr_scan"}, "is_reserved": 0}, {"lon": -77.022679, "bike_id": "7dd7927d622494e45e55a04b48bd4598", "lat": 38.93762816666667, "fusion_lon": 0.0, "fusion_lat": 0.0, "type": "electric_scooter", "name": "7dd7927d622494e45e55a04b48bd4598", "is_disabled": 0, "rental_uris": {"ios": "https://dc.lft.to/lastmile_qr_scan", "android": "https://dc.lft.to/lastmile_qr_scan"}, "is_reserved": 0}, {"lon": -77.00211416666667, "bike_id": "047359527bcd78f2f8cd663a763d71a2", "lat": 38.895425833333334, "fusion_lon": 0.0, "fusion_lat": 0.0, "type": "electric_scooter", "name": "047359527bcd78f2f8cd663a763d71a2", "is_disabled": 0, "rental_uris": {"ios": "https://dc.lft.to/lastmile_qr_scan", "android": "https://dc.lft.to/lastmile_qr_scan"}, "is_reserved": 0}, {"lon": -77.0541635, "bike_id": "ae4cd69c9e1bca29371ba8058eb5ced4", "lat": 38.95045266666666, "fusion_lon": 0.0, "fusion_lat": 0.0, "type": "electric_scooter", "name": "ae4cd69c9e1bca29371ba8058eb5ced4", "is_disabled": 0, "rental_uris": {"ios": "https://dc.lft.to/lastmile_qr_scan", "android": "https://dc.lft.to/lastmile_qr_scan"}, "is_reserved": 0}, {"lon": -77.02978283333333, "bike_id": "4cf45ed983cfe7a1dd551fe43dc7c26d", "lat": 38.939311833333335, "fusion_lon": 0.0, "fusion_lat": 0.0, "type": "electric_scooter", "name": "4cf45ed983cfe7a1dd551fe43dc7c26d", "is_disabled": 0, "rental_uris": {"ios": "https://dc.lft.to/lastmile_qr_scan", "android": "https://dc.lft.to/lastmile_qr_scan"}, "is_reserved": 0}, {"lon": -77.0318715, "bike_id": "ea1650ce4d392cf0eee1e18d9a3c9e18", "lat": 38.88414083333333, "fusion_lon": 0.0, "fusion_lat": 0.0, "type": "electric_scooter", "name": "ea1650ce4d392cf0eee1e18d9a3c9e18", "is_disabled": 0, "rental_uris": {"ios": "https://dc.lft.to/lastmile_qr_scan", "android": "https://dc.lft.to/lastmile_qr_scan"}, "is_reserved": 0}, {"lon": -76.98271583333333, "bike_id": "2a971bebda85121e6588a5dd1424ec73", "lat": 38.885298666666664, "fusion_lon": 0.0, "fusion_lat": 0.0, "type": "electric_scooter", "name": "2a971bebda85121e6588a5dd1424ec73", "is_disabled": 0, "rental_uris": {"ios": "https://dc.lft.to/lastmile_qr_scan", "android": "https://dc.lft.to/lastmile_qr_scan"}, "is_reserved": 0}, {"lon": -76.98338383333333, "bike_id": "a60051af3038eb4727d973f61d2792e8", "lat": 38.90093566666667, "fusion_lon": 0.0, "fusion_lat": 0.0, "type": "electric_scooter", "name": "a60051af3038eb4727d973f61d2792e8", "is_disabled": 0, "rental_uris": {"ios": "https://dc.lft.to/lastmile_qr_scan", "android": "https://dc.lft.to/lastmile_qr_scan"}, "is_reserved": 0}, {"lon": -77.02040683333334, "bike_id": "a3a23dcc323935ca5d24869abf774dc2", "lat": 38.9086425, "fusion_lon": 0.0, "fusion_lat": 0.0, "type": "electric_scooter", "name": "a3a23dcc323935ca5d24869abf774dc2", "is_disabled": 0, "rental_uris": {"ios": "https://dc.lft.to/lastmile_qr_scan", "android": "https://dc.lft.to/lastmile_qr_scan"}, "is_reserved": 0}, {"lon": -77.0052655, "bike_id": "8185ea4e34566cddbc26686ffd7a8583", "lat": 38.92973333333333, "fusion_lon": 0.0, "fusion_lat": 0.0, "type": "electric_scooter", "name": "8185ea4e34566cddbc26686ffd7a8583", "is_disabled": 0, "rental_uris": {"ios": "https://dc.lft.to/lastmile_qr_scan", "android": "https://dc.lft.to/lastmile_qr_scan"}, "is_reserved": 0}, {"lon": -77.0456665, "bike_id": "55787f2c1d99322d5fc87a247f8c28ac", "lat": 38.9175265, "fusion_lon": 0.0, "fusion_lat": 0.0, "type": "electric_scooter", "name": "55787f2c1d99322d5fc87a247f8c28ac", "is_disabled": 0, "rental_uris": {"ios": "https://dc.lft.to/lastmile_qr_scan", "android": "https://dc.lft.to/lastmile_qr_scan"}, "is_reserved": 0}, {"lon": -76.99273116666667, "bike_id": "f95c5f152c4ea9da91dfaee0fa43813a", "lat": 38.896115, "fusion_lon": 0.0, "fusion_lat": 0.0, "type": "electric_scooter", "name": "f95c5f152c4ea9da91dfaee0fa43813a", "is_disabled": 0, "rental_uris": {"ios": "https://dc.lft.to/lastmile_qr_scan", "android": "https://dc.lft.to/lastmile_qr_scan"}, "is_reserved": 0}, {"lon": -77.01768766666666, "bike_id": "500c9dc532f705f5bd657ddffd8bce2b", "lat": 38.90081966666666, "fusion_lon": 0.0, "fusion_lat": 0.0, "type": "electric_scooter", "name": "500c9dc532f705f5bd657ddffd8bce2b", "is_disabled": 0, "rental_uris": {"ios": "https://dc.lft.to/lastmile_qr_scan", "android": "https://dc.lft.to/lastmile_qr_scan"}, "is_reserved": 0}, {"lon": -77.03291233333333, "bike_id": "c460e121e87587974a82c5c053e083e7", "lat": 38.956527, "fusion_lon": 0.0, "fusion_lat": 0.0, "type": "electric_scooter", "name": "c460e121e87587974a82c5c053e083e7", "is_disabled": 0, "rental_uris": {"ios": "https://dc.lft.to/lastmile_qr_scan", "android": "https://dc.lft.to/lastmile_qr_scan"}, "is_reserved": 0}, {"lon": -76.97324416666666, "bike_id": "4b639db5955361cacad9934c4d6de3ec", "lat": 38.90477333333333, "fusion_lon": 0.0, "fusion_lat": 0.0, "type": "electric_bike", "name": "4b639db5955361cacad9934c4d6de3ec", "is_disabled": 0, "rental_uris": {"ios": "https://dc.lft.to/lastmile_qr_scan", "android": "https://dc.lft.to/lastmile_qr_scan"}, "is_reserved": 0}, {"lon": -76.99793483333333, "bike_id": "e1412ad3729441fd3d78a73378a13510", "lat": 38.9564385, "fusion_lon": 0.0, "fusion_lat": 0.0, "type": "electric_bike", "name": "e1412ad3729441fd3d78a73378a13510", "is_disabled": 0, "rental_uris": {"ios": "https://dc.lft.to/lastmile_qr_scan", "android": "https://dc.lft.to/lastmile_qr_scan"}, "is_reserved": 0}, {"lon": -77.03175283333333, "bike_id": "07e404dda167bc9106735b388ac93307", "lat": 38.91829216666667, "fusion_lon": 0.0, "fusion_lat": 0.0, "type": "electric_scooter", "name": "07e404dda167bc9106735b388ac93307", "is_disabled": 0, "rental_uris": {"ios": "https://dc.lft.to/lastmile_qr_scan", "android": "https://dc.lft.to/lastmile_qr_scan"}, "is_reserved": 0}, {"lon": -77.031838, "bike_id": "68824a4827a582a9638bb81d69ea3dd3", "lat": 38.8923845, "fusion_lon": 0.0, "fusion_lat": 0.0, "type": "electric_scooter", "name": "68824a4827a582a9638bb81d69ea3dd3", "is_disabled": 0, "rental_uris": {"ios": "https://dc.lft.to/lastmile_qr_scan", "android": "https://dc.lft.to/lastmile_qr_scan"}, "is_reserved": 0}, {"lon": -77.00051066666667, "bike_id": "1eed70938bf4d80b9b992069b479c0cc", "lat": 38.874754333333335, "fusion_lon": 0.0, "fusion_lat": 0.0, "type": "electric_scooter", "name": "1eed70938bf4d80b9b992069b479c0cc", "is_disabled": 0, "rental_uris": {"ios": "https://dc.lft.to/lastmile_qr_scan", "android": "https://dc.lft.to/lastmile_qr_scan"}, "is_reserved": 0}, {"lon": -77.02395133333333, "bike_id": "fa0320f0c826e736daf29075feadb85d", "lat": 38.8813545, "fusion_lon": 0.0, "fusion_lat": 0.0, "type": "electric_scooter", "name": "fa0320f0c826e736daf29075feadb85d", "is_disabled": 0, "rental_uris": {"ios": "https://dc.lft.to/lastmile_qr_scan", "android": "https://dc.lft.to/lastmile_qr_scan"}, "is_reserved": 0}, {"lon": -77.04719483333334, "bike_id": "97b21b809ffdc499042186fa59878455", "lat": 38.8996495, "fusion_lon": 0.0, "fusion_lat": 0.0, "type": "electric_scooter", "name": "97b21b809ffdc499042186fa59878455", "is_disabled": 0, "rental_uris": {"ios": "https://dc.lft.to/lastmile_qr_scan", "android": "https://dc.lft.to/lastmile_qr_scan"}, "is_reserved": 0}, {"lon": -77.05723183333333, "bike_id": "fa758178160932fa00d6352849048b75", "lat": 38.93362783333333, "fusion_lon": 0.0, "fusion_lat": 0.0, "type": "electric_scooter", "name": "fa758178160932fa00d6352849048b75", "is_disabled": 0, "rental_uris": {"ios": "https://dc.lft.to/lastmile_qr_scan", "android": "https://dc.lft.to/lastmile_qr_scan"}, "is_reserved": 0}, {"lon": -77.0317765, "bike_id": "a2d7bd377043d0ac8c801992560cda40", "lat": 38.8922165, "fusion_lon": 0.0, "fusion_lat": 0.0, "type": "electric_scooter", "name": "a2d7bd377043d0ac8c801992560cda40", "is_disabled": 0, "rental_uris": {"ios": "https://dc.lft.to/lastmile_qr_scan", "android": "https://dc.lft.to/lastmile_qr_scan"}, "is_reserved": 0}, {"lon": -77.045018, "bike_id": "636293051dd50bdce0e8e899993e424d", "lat": 38.91109816666667, "fusion_lon": 0.0, "fusion_lat": 0.0, "type": "electric_scooter", "name": "636293051dd50bdce0e8e899993e424d", "is_disabled": 0, "rental_uris": {"ios": "https://dc.lft.to/lastmile_qr_scan", "android": "https://dc.lft.to/lastmile_qr_scan"}, "is_reserved": 0}, {"lon": -77.0302585, "bike_id": "8edc0babfcf57de07548ecff371f211e", "lat": 38.93108933333333, "fusion_lon": 0.0, "fusion_lat": 0.0, "type": "electric_scooter", "name": "8edc0babfcf57de07548ecff371f211e", "is_disabled": 0, "rental_uris": {"ios": "https://dc.lft.to/lastmile_qr_scan", "android": "https://dc.lft.to/lastmile_qr_scan"}, "is_reserved": 0}, {"lon": -77.02085016666666, "bike_id": "a62584fbd61f02ad6812c44aa85a7c9e", "lat": 38.88184433333333, "fusion_lon": 0.0, "fusion_lat": 0.0, "type": "electric_scooter", "name": "a62584fbd61f02ad6812c44aa85a7c9e", "is_disabled": 0, "rental_uris": {"ios": "https://dc.lft.to/lastmile_qr_scan", "android": "https://dc.lft.to/lastmile_qr_scan"}, "is_reserved": 0}, {"lon": -77.02526483333334, "bike_id": "26517b7d83e8d0a45f9f7442866ee022", "lat": 38.928905, "fusion_lon": 0.0, "fusion_lat": 0.0, "type": "electric_scooter", "name": "26517b7d83e8d0a45f9f7442866ee022", "is_disabled": 0, "rental_uris": {"ios": "https://dc.lft.to/lastmile_qr_scan", "android": "https://dc.lft.to/lastmile_qr_scan"}, "is_reserved": 0}, {"lon": -76.96528683333334, "bike_id": "8973b6ff86eb8676b0a111fe29d92506", "lat": 38.8763175, "fusion_lon": 0.0, "fusion_lat": 0.0, "type": "electric_scooter", "name": "8973b6ff86eb8676b0a111fe29d92506", "is_disabled": 0, "rental_uris": {"ios": "https://dc.lft.to/lastmile_qr_scan", "android": "https://dc.lft.to/lastmile_qr_scan"}, "is_reserved": 0}, {"lon": -77.02491583333334, "bike_id": "210290ef5e5c94cbd5677fba03647e80", "lat": 38.91807716666667, "fusion_lon": 0.0, "fusion_lat": 0.0, "type": "electric_scooter", "name": "210290ef5e5c94cbd5677fba03647e80", "is_disabled": 0, "rental_uris": {"ios": "https://dc.lft.to/lastmile_qr_scan", "android": "https://dc.lft.to/lastmile_qr_scan"}, "is_reserved": 0}, {"lon": -77.0058505, "bike_id": "6c7f45a1a38d3b56ce6178e76678c296", "lat": 38.905602333333334, "fusion_lon": 0.0, "fusion_lat": 0.0, "type": "electric_scooter", "name": "6c7f45a1a38d3b56ce6178e76678c296", "is_disabled": 0, "rental_uris": {"ios": "https://dc.lft.to/lastmile_qr_scan", "android": "https://dc.lft.to/lastmile_qr_scan"}, "is_reserved": 0}, {"lon": -77.02873983333333, "bike_id": "eb506cbe0f5858e6464a3035412b65fb", "lat": 38.916868666666666, "fusion_lon": 0.0, "fusion_lat": 0.0, "type": "electric_scooter", "name": "eb506cbe0f5858e6464a3035412b65fb", "is_disabled": 0, "rental_uris": {"ios": "https://dc.lft.to/lastmile_qr_scan", "android": "https://dc.lft.to/lastmile_qr_scan"}, "is_reserved": 0}, {"lon": -77.02841866666667, "bike_id": "d22247bd2b686f84e2998b6afefdf359", "lat": 38.93414766666667, "fusion_lon": 0.0, "fusion_lat": 0.0, "type": "electric_scooter", "name": "d22247bd2b686f84e2998b6afefdf359", "is_disabled": 0, "rental_uris": {"ios": "https://dc.lft.to/lastmile_qr_scan", "android": "https://dc.lft.to/lastmile_qr_scan"}, "is_reserved": 0}, {"lon": -77.0375885, "bike_id": "857e78acde5e57592efb8dee54ca175a", "lat": 38.907832666666664, "fusion_lon": 0.0, "fusion_lat": 0.0, "type": "electric_scooter", "name": "857e78acde5e57592efb8dee54ca175a", "is_disabled": 0, "rental_uris": {"ios": "https://dc.lft.to/lastmile_qr_scan", "android": "https://dc.lft.to/lastmile_qr_scan"}, "is_reserved": 0}, {"lon": -77.10026216666667, "bike_id": "12941c78d4cec5c803f75a2b2bad483d", "lat": 38.8713295, "fusion_lon": 0.0, "fusion_lat": 0.0, "type": "electric_bike", "name": "12941c78d4cec5c803f75a2b2bad483d", "is_disabled": 0, "rental_uris": {"ios": "https://dc.lft.to/lastmile_qr_scan", "android": "https://dc.lft.to/lastmile_qr_scan"}, "is_reserved": 0}, {"lon": -77.03342316666667, "bike_id": "73fffbe82cd2bf61af93be81f1a4d9de", "lat": 38.89822933333333, "fusion_lon": 0.0, "fusion_lat": 0.0, "type": "electric_scooter", "name": "73fffbe82cd2bf61af93be81f1a4d9de", "is_disabled": 0, "rental_uris": {"ios": "https://dc.lft.to/lastmile_qr_scan", "android": "https://dc.lft.to/lastmile_qr_scan"}, "is_reserved": 0}, {"lon": -77.013463, "bike_id": "f81a28e9ae99f9cbf91f1801638daa7a", "lat": 38.878130166666665, "fusion_lon": 0.0, "fusion_lat": 0.0, "type": "electric_scooter", "name": "f81a28e9ae99f9cbf91f1801638daa7a", "is_disabled": 0, "rental_uris": {"ios": "https://dc.lft.to/lastmile_qr_scan", "android": "https://dc.lft.to/lastmile_qr_scan"}, "is_reserved": 0}, {"lon": -77.03560016666667, "bike_id": "07af55a56fd4a28680d34632b010f9f5", "lat": 38.92746616666667, "fusion_lon": 0.0, "fusion_lat": 0.0, "type": "electric_scooter", "name": "07af55a56fd4a28680d34632b010f9f5", "is_disabled": 0, "rental_uris": {"ios": "https://dc.lft.to/lastmile_qr_scan", "android": "https://dc.lft.to/lastmile_qr_scan"}, "is_reserved": 0}, {"lon": -77.00887016666667, "bike_id": "f120fb7bc551fa13a1fa115c926c1cc7", "lat": 38.917122666666664, "fusion_lon": 0.0, "fusion_lat": 0.0, "type": "electric_scooter", "name": "f120fb7bc551fa13a1fa115c926c1cc7", "is_disabled": 0, "rental_uris": {"ios": "https://dc.lft.to/lastmile_qr_scan", "android": "https://dc.lft.to/lastmile_qr_scan"}, "is_reserved": 0}, {"lon": -77.0032285, "bike_id": "6c6f82e4e25ade245ba27131d170e6b3", "lat": 38.902693, "fusion_lon": 0.0, "fusion_lat": 0.0, "type": "electric_scooter", "name": "6c6f82e4e25ade245ba27131d170e6b3", "is_disabled": 0, "rental_uris": {"ios": "https://dc.lft.to/lastmile_qr_scan", "android": "https://dc.lft.to/lastmile_qr_scan"}, "is_reserved": 0}, {"lon": -76.99033233333333, "bike_id": "c6c25fa7e00b685daa17d62ee75e81f8", "lat": 38.89847433333333, "fusion_lon": 0.0, "fusion_lat": 0.0, "type": "electric_scooter", "name": "c6c25fa7e00b685daa17d62ee75e81f8", "is_disabled": 0, "rental_uris": {"ios": "https://dc.lft.to/lastmile_qr_scan", "android": "https://dc.lft.to/lastmile_qr_scan"}, "is_reserved": 0}, {"lon": -77.03402766666666, "bike_id": "b94db464c35b714344af45671c0698de", "lat": 38.931253833333336, "fusion_lon": 0.0, "fusion_lat": 0.0, "type": "electric_scooter", "name": "b94db464c35b714344af45671c0698de", "is_disabled": 0, "rental_uris": {"ios": "https://dc.lft.to/lastmile_qr_scan", "android": "https://dc.lft.to/lastmile_qr_scan"}, "is_reserved": 0}, {"lon": -77.027693, "bike_id": "b7376767d25ad1d19a096f404854e03a", "lat": 38.892199833333336, "fusion_lon": 0.0, "fusion_lat": 0.0, "type": "electric_scooter", "name": "b7376767d25ad1d19a096f404854e03a", "is_disabled": 0, "rental_uris": {"ios": "https://dc.lft.to/lastmile_qr_scan", "android": "https://dc.lft.to/lastmile_qr_scan"}, "is_reserved": 0}, {"lon": -77.040064, "bike_id": "f18005bc833f1f313f1c9e90fa67ab7c", "lat": 38.90395433333333, "fusion_lon": 0.0, "fusion_lat": 0.0, "type": "electric_scooter", "name": "f18005bc833f1f313f1c9e90fa67ab7c", "is_disabled": 0, "rental_uris": {"ios": "https://dc.lft.to/lastmile_qr_scan", "android": "https://dc.lft.to/lastmile_qr_scan"}, "is_reserved": 0}, {"lon": -77.03183883333334, "bike_id": "97c29df715b92ddc2ad5b3205ad90c36", "lat": 38.897716833333334, "fusion_lon": 0.0, "fusion_lat": 0.0, "type": "electric_scooter", "name": "97c29df715b92ddc2ad5b3205ad90c36", "is_disabled": 0, "rental_uris": {"ios": "https://dc.lft.to/lastmile_qr_scan", "android": "https://dc.lft.to/lastmile_qr_scan"}, "is_reserved": 0}, {"lon": -77.01914333333333, "bike_id": "c84875bcc68c8ce3b1de991a54b99176", "lat": 38.8774065, "fusion_lon": 0.0, "fusion_lat": 0.0, "type": "electric_scooter", "name": "c84875bcc68c8ce3b1de991a54b99176", "is_disabled": 0, "rental_uris": {"ios": "https://dc.lft.to/lastmile_qr_scan", "android": "https://dc.lft.to/lastmile_qr_scan"}, "is_reserved": 0}, {"lon": -77.03866116666667, "bike_id": "73180c919bf45437daf9839b3bb75a2f", "lat": 38.915501, "fusion_lon": 0.0, "fusion_lat": 0.0, "type": "electric_scooter", "name": "73180c919bf45437daf9839b3bb75a2f", "is_disabled": 0, "rental_uris": {"ios": "https://dc.lft.to/lastmile_qr_scan", "android": "https://dc.lft.to/lastmile_qr_scan"}, "is_reserved": 0}, {"lon": -77.04799733333333, "bike_id": "66e9db071d8e27f889559ac9778e8803", "lat": 38.914009666666665, "fusion_lon": 0.0, "fusion_lat": 0.0, "type": "electric_scooter", "name": "66e9db071d8e27f889559ac9778e8803", "is_disabled": 0, "rental_uris": {"ios": "https://dc.lft.to/lastmile_qr_scan", "android": "https://dc.lft.to/lastmile_qr_scan"}, "is_reserved": 0}, {"lon": -77.02187066666667, "bike_id": "dcfae90599eb8ddb952c4eb5c5e520a3", "lat": 38.90951483333333, "fusion_lon": 0.0, "fusion_lat": 0.0, "type": "electric_scooter", "name": "dcfae90599eb8ddb952c4eb5c5e520a3", "is_disabled": 0, "rental_uris": {"ios": "https://dc.lft.to/lastmile_qr_scan", "android": "https://dc.lft.to/lastmile_qr_scan"}, "is_reserved": 0}, {"lon": -76.98237816666666, "bike_id": "24c3e7dff1e6ea7ee4d0d4ab17f47672", "lat": 38.8886525, "fusion_lon": 0.0, "fusion_lat": 0.0, "type": "electric_scooter", "name": "24c3e7dff1e6ea7ee4d0d4ab17f47672", "is_disabled": 0, "rental_uris": {"ios": "https://dc.lft.to/lastmile_qr_scan", "android": "https://dc.lft.to/lastmile_qr_scan"}, "is_reserved": 0}, {"lon": -77.026712, "bike_id": "9b89fd89edb95208327261bb67fc66c9", "lat": 38.971912833333334, "fusion_lon": 0.0, "fusion_lat": 0.0, "type": "electric_scooter", "name": "9b89fd89edb95208327261bb67fc66c9", "is_disabled": 0, "rental_uris": {"ios": "https://dc.lft.to/lastmile_qr_scan", "android": "https://dc.lft.to/lastmile_qr_scan"}, "is_reserved": 0}, {"lon": -77.03360133333334, "bike_id": "39d16755b9f65337cf581f1cf833c01a", "lat": 38.9234645, "fusion_lon": 0.0, "fusion_lat": 0.0, "type": "electric_scooter", "name": "39d16755b9f65337cf581f1cf833c01a", "is_disabled": 0, "rental_uris": {"ios": "https://dc.lft.to/lastmile_qr_scan", "android": "https://dc.lft.to/lastmile_qr_scan"}, "is_reserved": 0}, {"lon": -77.06492833333333, "bike_id": "0aaf4e15596f4c29920279b1c1f0eb6a", "lat": 38.92908216666667, "fusion_lon": 0.0, "fusion_lat": 0.0, "type": "electric_scooter", "name": "0aaf4e15596f4c29920279b1c1f0eb6a", "is_disabled": 0, "rental_uris": {"ios": "https://dc.lft.to/lastmile_qr_scan", "android": "https://dc.lft.to/lastmile_qr_scan"}, "is_reserved": 0}, {"lon": -77.02536883333333, "bike_id": "fef1e0cbd017818486687107835129d9", "lat": 38.883951, "fusion_lon": 0.0, "fusion_lat": 0.0, "type": "electric_scooter", "name": "fef1e0cbd017818486687107835129d9", "is_disabled": 0, "rental_uris": {"ios": "https://dc.lft.to/lastmile_qr_scan", "android": "https://dc.lft.to/lastmile_qr_scan"}, "is_reserved": 0}, {"lon": -76.99037033333333, "bike_id": "83eefd9166b1bc4b4812a5037e21ef41", "lat": 38.88752783333333, "fusion_lon": 0.0, "fusion_lat": 0.0, "type": "electric_scooter", "name": "83eefd9166b1bc4b4812a5037e21ef41", "is_disabled": 0, "rental_uris": {"ios": "https://dc.lft.to/lastmile_qr_scan", "android": "https://dc.lft.to/lastmile_qr_scan"}, "is_reserved": 0}, {"lon": -77.031824, "bike_id": "008d46aa6cb3f8986e65235775fbe882", "lat": 38.89750866666667, "fusion_lon": 0.0, "fusion_lat": 0.0, "type": "electric_scooter", "name": "008d46aa6cb3f8986e65235775fbe882", "is_disabled": 0, "rental_uris": {"ios": "https://dc.lft.to/lastmile_qr_scan", "android": "https://dc.lft.to/lastmile_qr_scan"}, "is_reserved": 0}, {"lon": -77.04049933333333, "bike_id": "069e0c3beae9925f940c8e6451e5f5dd", "lat": 38.92876066666667, "fusion_lon": 0.0, "fusion_lat": 0.0, "type": "electric_scooter", "name": "069e0c3beae9925f940c8e6451e5f5dd", "is_disabled": 0, "rental_uris": {"ios": "https://dc.lft.to/lastmile_qr_scan", "android": "https://dc.lft.to/lastmile_qr_scan"}, "is_reserved": 0}, {"lon": -77.0321175, "bike_id": "4f4fac31b113028d689e107bf5178969", "lat": 38.907255666666664, "fusion_lon": 0.0, "fusion_lat": 0.0, "type": "electric_scooter", "name": "4f4fac31b113028d689e107bf5178969", "is_disabled": 0, "rental_uris": {"ios": "https://dc.lft.to/lastmile_qr_scan", "android": "https://dc.lft.to/lastmile_qr_scan"}, "is_reserved": 0}, {"lon": -77.03199183333334, "bike_id": "ed89130ea63803671bbc32bbf052fae8", "lat": 38.90971366666667, "fusion_lon": 0.0, "fusion_lat": 0.0, "type": "electric_scooter", "name": "ed89130ea63803671bbc32bbf052fae8", "is_disabled": 0, "rental_uris": {"ios": "https://dc.lft.to/lastmile_qr_scan", "android": "https://dc.lft.to/lastmile_qr_scan"}, "is_reserved": 0}, {"lon": -76.980848, "bike_id": "1124067d1f2b6d885dc6d6304e443e66", "lat": 38.87938583333333, "fusion_lon": 0.0, "fusion_lat": 0.0, "type": "electric_bike", "name": "1124067d1f2b6d885dc6d6304e443e66", "is_disabled": 0, "rental_uris": {"ios": "https://dc.lft.to/lastmile_qr_scan", "android": "https://dc.lft.to/lastmile_qr_scan"}, "is_reserved": 0}, {"lon": -77.000456, "bike_id": "1935f6626c4ce85ad0fb200b23cf1702", "lat": 38.923953166666664, "fusion_lon": 0.0, "fusion_lat": 0.0, "type": "electric_scooter", "name": "1935f6626c4ce85ad0fb200b23cf1702", "is_disabled": 0, "rental_uris": {"ios": "https://dc.lft.to/lastmile_qr_scan", "android": "https://dc.lft.to/lastmile_qr_scan"}, "is_reserved": 0}, {"lon": -77.02317216666667, "bike_id": "da84534374776e4baf69ad9cadf489d7", "lat": 38.894785666666664, "fusion_lon": 0.0, "fusion_lat": 0.0, "type": "electric_scooter", "name": "da84534374776e4baf69ad9cadf489d7", "is_disabled": 0, "rental_uris": {"ios": "https://dc.lft.to/lastmile_qr_scan", "android": "https://dc.lft.to/lastmile_qr_scan"}, "is_reserved": 0}, {"lon": -77.0476695, "bike_id": "0b16241fc41742ee332174653b7d2a25", "lat": 38.917385333333335, "fusion_lon": 0.0, "fusion_lat": 0.0, "type": "electric_scooter", "name": "0b16241fc41742ee332174653b7d2a25", "is_disabled": 0, "rental_uris": {"ios": "https://dc.lft.to/lastmile_qr_scan", "android": "https://dc.lft.to/lastmile_qr_scan"}, "is_reserved": 0}, {"lon": -77.0015245, "bike_id": "8a224d6c6a16fe65e4834040f9aad0aa", "lat": 38.9107865, "fusion_lon": 0.0, "fusion_lat": 0.0, "type": "electric_scooter", "name": "8a224d6c6a16fe65e4834040f9aad0aa", "is_disabled": 0, "rental_uris": {"ios": "https://dc.lft.to/lastmile_qr_scan", "android": "https://dc.lft.to/lastmile_qr_scan"}, "is_reserved": 0}, {"lon": -76.98531066666666, "bike_id": "97b4353c6a1670801e4fa3a21f1f9c56", "lat": 38.9045885, "fusion_lon": 0.0, "fusion_lat": 0.0, "type": "electric_scooter", "name": "97b4353c6a1670801e4fa3a21f1f9c56", "is_disabled": 0, "rental_uris": {"ios": "https://dc.lft.to/lastmile_qr_scan", "android": "https://dc.lft.to/lastmile_qr_scan"}, "is_reserved": 0}, {"lon": -77.01199733333333, "bike_id": "31431b81f2c0c9a0bd6317ea76d479fc", "lat": 38.82403983333333, "fusion_lon": 0.0, "fusion_lat": 0.0, "type": "electric_bike", "name": "31431b81f2c0c9a0bd6317ea76d479fc", "is_disabled": 0, "rental_uris": {"ios": "https://dc.lft.to/lastmile_qr_scan", "android": "https://dc.lft.to/lastmile_qr_scan"}, "is_reserved": 0}, {"lon": -76.957476, "bike_id": "cffa85d0a722f2674b64b45d7f90e0a4", "lat": 38.8842675, "fusion_lon": 0.0, "fusion_lat": 0.0, "type": "electric_scooter", "name": "cffa85d0a722f2674b64b45d7f90e0a4", "is_disabled": 0, "rental_uris": {"ios": "https://dc.lft.to/lastmile_qr_scan", "android": "https://dc.lft.to/lastmile_qr_scan"}, "is_reserved": 0}, {"lon": -77.032189, "bike_id": "83655600db35d914e8a10f209d3e4ab2", "lat": 38.91929283333333, "fusion_lon": 0.0, "fusion_lat": 0.0, "type": "electric_scooter", "name": "83655600db35d914e8a10f209d3e4ab2", "is_disabled": 0, "rental_uris": {"ios": "https://dc.lft.to/lastmile_qr_scan", "android": "https://dc.lft.to/lastmile_qr_scan"}, "is_reserved": 0}, {"lon": -77.02360183333333, "bike_id": "df51e90b01c78693e4e3fec11ea08d6e", "lat": 38.9222395, "fusion_lon": 0.0, "fusion_lat": 0.0, "type": "electric_scooter", "name": "df51e90b01c78693e4e3fec11ea08d6e", "is_disabled": 0, "rental_uris": {"ios": "https://dc.lft.to/lastmile_qr_scan", "android": "https://dc.lft.to/lastmile_qr_scan"}, "is_reserved": 0}, {"lon": -77.0033535, "bike_id": "ff8ff267f72a13319b193d203b82b362", "lat": 38.89186933333333, "fusion_lon": 0.0, "fusion_lat": 0.0, "type": "electric_scooter", "name": "ff8ff267f72a13319b193d203b82b362", "is_disabled": 0, "rental_uris": {"ios": "https://dc.lft.to/lastmile_qr_scan", "android": "https://dc.lft.to/lastmile_qr_scan"}, "is_reserved": 0}, {"lon": -77.117092, "bike_id": "8eafa9e745f57351e5d8a433c392cc4a", "lat": 38.86746933333333, "fusion_lon": 0.0, "fusion_lat": 0.0, "type": "electric_bike", "name": "8eafa9e745f57351e5d8a433c392cc4a", "is_disabled": 0, "rental_uris": {"ios": "https://dc.lft.to/lastmile_qr_scan", "android": "https://dc.lft.to/lastmile_qr_scan"}, "is_reserved": 0}, {"lon": -77.04591833333333, "bike_id": "4c82b95b0ac0c6d364bb47a57e602afe", "lat": 38.91358966666667, "fusion_lon": 0.0, "fusion_lat": 0.0, "type": "electric_scooter", "name": "4c82b95b0ac0c6d364bb47a57e602afe", "is_disabled": 0, "rental_uris": {"ios": "https://dc.lft.to/lastmile_qr_scan", "android": "https://dc.lft.to/lastmile_qr_scan"}, "is_reserved": 0}, {"lon": -77.026542, "bike_id": "730d51d16a0cd484d379e30dbd82a8ad", "lat": 38.88112483333333, "fusion_lon": 0.0, "fusion_lat": 0.0, "type": "electric_scooter", "name": "730d51d16a0cd484d379e30dbd82a8ad", "is_disabled": 0, "rental_uris": {"ios": "https://dc.lft.to/lastmile_qr_scan", "android": "https://dc.lft.to/lastmile_qr_scan"}, "is_reserved": 0}, {"lon": -77.00308916666667, "bike_id": "21e7deff93cc04d49551dd23fb597f55", "lat": 38.895159666666665, "fusion_lon": 0.0, "fusion_lat": 0.0, "type": "electric_scooter", "name": "21e7deff93cc04d49551dd23fb597f55", "is_disabled": 0, "rental_uris": {"ios": "https://dc.lft.to/lastmile_qr_scan", "android": "https://dc.lft.to/lastmile_qr_scan"}, "is_reserved": 0}, {"lon": -76.99787666666667, "bike_id": "1c03bdbdd085667fe30b8e3c6379d2d1", "lat": 38.890887166666666, "fusion_lon": 0.0, "fusion_lat": 0.0, "type": "electric_scooter", "name": "1c03bdbdd085667fe30b8e3c6379d2d1", "is_disabled": 0, "rental_uris": {"ios": "https://dc.lft.to/lastmile_qr_scan", "android": "https://dc.lft.to/lastmile_qr_scan"}, "is_reserved": 0}, {"lon": -77.00957033333333, "bike_id": "8ec2deace1a258d7d5b905d5eef62df9", "lat": 38.9213355, "fusion_lon": 0.0, "fusion_lat": 0.0, "type": "electric_scooter", "name": "8ec2deace1a258d7d5b905d5eef62df9", "is_disabled": 0, "rental_uris": {"ios": "https://dc.lft.to/lastmile_qr_scan", "android": "https://dc.lft.to/lastmile_qr_scan"}, "is_reserved": 0}, {"lon": -76.98107133333333, "bike_id": "41439ab28d1a23981a4b06d9712726af", "lat": 38.8773285, "fusion_lon": 0.0, "fusion_lat": 0.0, "type": "electric_bike", "name": "41439ab28d1a23981a4b06d9712726af", "is_disabled": 0, "rental_uris": {"ios": "https://dc.lft.to/lastmile_qr_scan", "android": "https://dc.lft.to/lastmile_qr_scan"}, "is_reserved": 0}, {"lon": -77.027197, "bike_id": "130161cb0213578ac1022cb917b86eaf", "lat": 38.8978115, "fusion_lon": 0.0, "fusion_lat": 0.0, "type": "electric_scooter", "name": "130161cb0213578ac1022cb917b86eaf", "is_disabled": 0, "rental_uris": {"ios": "https://dc.lft.to/lastmile_qr_scan", "android": "https://dc.lft.to/lastmile_qr_scan"}, "is_reserved": 0}, {"lon": -77.02689533333333, "bike_id": "8a783b6199ff7f9663f9b6bbf57a5562", "lat": 38.90399883333333, "fusion_lon": 0.0, "fusion_lat": 0.0, "type": "electric_scooter", "name": "8a783b6199ff7f9663f9b6bbf57a5562", "is_disabled": 0, "rental_uris": {"ios": "https://dc.lft.to/lastmile_qr_scan", "android": "https://dc.lft.to/lastmile_qr_scan"}, "is_reserved": 0}, {"lon": -77.033413, "bike_id": "7a3c6b00ca4e493e1edc8d239f325618", "lat": 38.9351545, "fusion_lon": 0.0, "fusion_lat": 0.0, "type": "electric_scooter", "name": "7a3c6b00ca4e493e1edc8d239f325618", "is_disabled": 0, "rental_uris": {"ios": "https://dc.lft.to/lastmile_qr_scan", "android": "https://dc.lft.to/lastmile_qr_scan"}, "is_reserved": 0}, {"lon": -77.03659033333334, "bike_id": "6be006bb1f7e693f972046198ebb4284", "lat": 38.933237, "fusion_lon": 0.0, "fusion_lat": 0.0, "type": "electric_scooter", "name": "6be006bb1f7e693f972046198ebb4284", "is_disabled": 0, "rental_uris": {"ios": "https://dc.lft.to/lastmile_qr_scan", "android": "https://dc.lft.to/lastmile_qr_scan"}, "is_reserved": 0}, {"lon": -76.99921383333333, "bike_id": "e2cb1437afb0476bdec301cee3099641", "lat": 38.889746, "fusion_lon": 0.0, "fusion_lat": 0.0, "type": "electric_scooter", "name": "e2cb1437afb0476bdec301cee3099641", "is_disabled": 0, "rental_uris": {"ios": "https://dc.lft.to/lastmile_qr_scan", "android": "https://dc.lft.to/lastmile_qr_scan"}, "is_reserved": 0}, {"lon": -77.007955, "bike_id": "06200e27d3a3c552f6ca1e75b310b7f9", "lat": 38.9173315, "fusion_lon": 0.0, "fusion_lat": 0.0, "type": "electric_scooter", "name": "06200e27d3a3c552f6ca1e75b310b7f9", "is_disabled": 0, "rental_uris": {"ios": "https://dc.lft.to/lastmile_qr_scan", "android": "https://dc.lft.to/lastmile_qr_scan"}, "is_reserved": 0}, {"lon": -76.982476, "bike_id": "3136425ab1b79c996c50e7cbe67cbcc4", "lat": 38.86457033333333, "fusion_lon": 0.0, "fusion_lat": 0.0, "type": "electric_scooter", "name": "3136425ab1b79c996c50e7cbe67cbcc4", "is_disabled": 0, "rental_uris": {"ios": "https://dc.lft.to/lastmile_qr_scan", "android": "https://dc.lft.to/lastmile_qr_scan"}, "is_reserved": 0}, {"lon": -77.01480966666666, "bike_id": "b0d1dfcffe0281c2b5a9aeaf3284294b", "lat": 38.919295, "fusion_lon": 0.0, "fusion_lat": 0.0, "type": "electric_scooter", "name": "b0d1dfcffe0281c2b5a9aeaf3284294b", "is_disabled": 0, "rental_uris": {"ios": "https://dc.lft.to/lastmile_qr_scan", "android": "https://dc.lft.to/lastmile_qr_scan"}, "is_reserved": 0}, {"lon": -77.03663716666667, "bike_id": "364f8c879176ebb3b8cf43b345350c59", "lat": 38.93337916666667, "fusion_lon": 0.0, "fusion_lat": 0.0, "type": "electric_scooter", "name": "364f8c879176ebb3b8cf43b345350c59", "is_disabled": 0, "rental_uris": {"ios": "https://dc.lft.to/lastmile_qr_scan", "android": "https://dc.lft.to/lastmile_qr_scan"}, "is_reserved": 0}, {"lon": -77.04697316666666, "bike_id": "8082db943cd5ac4a806d2fc9deebd1d2", "lat": 38.91895933333333, "fusion_lon": 0.0, "fusion_lat": 0.0, "type": "electric_scooter", "name": "8082db943cd5ac4a806d2fc9deebd1d2", "is_disabled": 0, "rental_uris": {"ios": "https://dc.lft.to/lastmile_qr_scan", "android": "https://dc.lft.to/lastmile_qr_scan"}, "is_reserved": 0}, {"lon": -77.04706966666667, "bike_id": "6ce41d8e2aaeb4952d1d49c746dde2cf", "lat": 38.920601833333336, "fusion_lon": 0.0, "fusion_lat": 0.0, "type": "electric_scooter", "name": "6ce41d8e2aaeb4952d1d49c746dde2cf", "is_disabled": 0, "rental_uris": {"ios": "https://dc.lft.to/lastmile_qr_scan", "android": "https://dc.lft.to/lastmile_qr_scan"}, "is_reserved": 0}, {"lon": -76.94938983333333, "bike_id": "6a62c9118255d516dd4f078b530c4b21", "lat": 38.903635, "fusion_lon": 0.0, "fusion_lat": 0.0, "type": "electric_scooter", "name": "6a62c9118255d516dd4f078b530c4b21", "is_disabled": 0, "rental_uris": {"ios": "https://dc.lft.to/lastmile_qr_scan", "android": "https://dc.lft.to/lastmile_qr_scan"}, "is_reserved": 0}, {"lon": -77.03275233333333, "bike_id": "dd632a69701efa57c0c7b566cddda4e0", "lat": 38.932264333333336, "fusion_lon": 0.0, "fusion_lat": 0.0, "type": "electric_scooter", "name": "dd632a69701efa57c0c7b566cddda4e0", "is_disabled": 0, "rental_uris": {"ios": "https://dc.lft.to/lastmile_qr_scan", "android": "https://dc.lft.to/lastmile_qr_scan"}, "is_reserved": 0}, {"lon": -76.998677, "bike_id": "623347034c33ca22ae9be674c81f053b", "lat": 38.90028216666666, "fusion_lon": 0.0, "fusion_lat": 0.0, "type": "electric_scooter", "name": "623347034c33ca22ae9be674c81f053b", "is_disabled": 0, "rental_uris": {"ios": "https://dc.lft.to/lastmile_qr_scan", "android": "https://dc.lft.to/lastmile_qr_scan"}, "is_reserved": 0}, {"lon": -77.11572233333334, "bike_id": "570423dd544c6a1add416eec700f664a", "lat": 38.993475833333335, "fusion_lon": 0.0, "fusion_lat": 0.0, "type": "electric_bike", "name": "570423dd544c6a1add416eec700f664a", "is_disabled": 0, "rental_uris": {"ios": "https://dc.lft.to/lastmile_qr_scan", "android": "https://dc.lft.to/lastmile_qr_scan"}, "is_reserved": 0}, {"lon": -77.00200183333334, "bike_id": "44559595596bc5019520493aff21e013", "lat": 38.90236483333333, "fusion_lon": 0.0, "fusion_lat": 0.0, "type": "electric_scooter", "name": "44559595596bc5019520493aff21e013", "is_disabled": 0, "rental_uris": {"ios": "https://dc.lft.to/lastmile_qr_scan", "android": "https://dc.lft.to/lastmile_qr_scan"}, "is_reserved": 0}, {"lon": -77.0593415, "bike_id": "668cd6451b1402946bda2bb897306c49", "lat": 38.9052945, "fusion_lon": 0.0, "fusion_lat": 0.0, "type": "electric_bike", "name": "668cd6451b1402946bda2bb897306c49", "is_disabled": 0, "rental_uris": {"ios": "https://dc.lft.to/lastmile_qr_scan", "android": "https://dc.lft.to/lastmile_qr_scan"}, "is_reserved": 0}, {"lon": -77.029031, "bike_id": "584a5784e6a13558f3198280499913bb", "lat": 38.916839833333334, "fusion_lon": 0.0, "fusion_lat": 0.0, "type": "electric_scooter", "name": "584a5784e6a13558f3198280499913bb", "is_disabled": 0, "rental_uris": {"ios": "https://dc.lft.to/lastmile_qr_scan", "android": "https://dc.lft.to/lastmile_qr_scan"}, "is_reserved": 0}, {"lon": -77.05913616666666, "bike_id": "0067fc45ba3d2dfcb05e44aaa2db0710", "lat": 38.903816, "fusion_lon": 0.0, "fusion_lat": 0.0, "type": "electric_scooter", "name": "0067fc45ba3d2dfcb05e44aaa2db0710", "is_disabled": 0, "rental_uris": {"ios": "https://dc.lft.to/lastmile_qr_scan", "android": "https://dc.lft.to/lastmile_qr_scan"}, "is_reserved": 0}, {"lon": -77.07387116666666, "bike_id": "93c9a3fd784f8f9c6ffd456b9457c593", "lat": 38.96222516666667, "fusion_lon": 0.0, "fusion_lat": 0.0, "type": "electric_scooter", "name": "93c9a3fd784f8f9c6ffd456b9457c593", "is_disabled": 0, "rental_uris": {"ios": "https://dc.lft.to/lastmile_qr_scan", "android": "https://dc.lft.to/lastmile_qr_scan"}, "is_reserved": 0}, {"lon": -77.02965566666667, "bike_id": "92d61d800141f41ed8618ab8aa1eecbe", "lat": 38.916542, "fusion_lon": 0.0, "fusion_lat": 0.0, "type": "electric_scooter", "name": "92d61d800141f41ed8618ab8aa1eecbe", "is_disabled": 0, "rental_uris": {"ios": "https://dc.lft.to/lastmile_qr_scan", "android": "https://dc.lft.to/lastmile_qr_scan"}, "is_reserved": 0}, {"lon": -76.98523883333333, "bike_id": "52646eb2e0f328ee8909b19ebfef2e0f", "lat": 38.86686066666667, "fusion_lon": 0.0, "fusion_lat": 0.0, "type": "electric_scooter", "name": "52646eb2e0f328ee8909b19ebfef2e0f", "is_disabled": 0, "rental_uris": {"ios": "https://dc.lft.to/lastmile_qr_scan", "android": "https://dc.lft.to/lastmile_qr_scan"}, "is_reserved": 0}, {"lon": -77.02680866666667, "bike_id": "2ccbf4a4844b8b9c992430d05b85be81", "lat": 38.902661333333334, "fusion_lon": 0.0, "fusion_lat": 0.0, "type": "electric_scooter", "name": "2ccbf4a4844b8b9c992430d05b85be81", "is_disabled": 0, "rental_uris": {"ios": "https://dc.lft.to/lastmile_qr_scan", "android": "https://dc.lft.to/lastmile_qr_scan"}, "is_reserved": 0}, {"lon": -77.01481716666666, "bike_id": "93ae734a96b2de3ea3d39c413c4a0fa7", "lat": 38.95867, "fusion_lon": 0.0, "fusion_lat": 0.0, "type": "electric_scooter", "name": "93ae734a96b2de3ea3d39c413c4a0fa7", "is_disabled": 0, "rental_uris": {"ios": "https://dc.lft.to/lastmile_qr_scan", "android": "https://dc.lft.to/lastmile_qr_scan"}, "is_reserved": 0}, {"lon": -77.0344875, "bike_id": "d45947a13585dea355a4c55d6b2b948c", "lat": 38.9360925, "fusion_lon": 0.0, "fusion_lat": 0.0, "type": "electric_scooter", "name": "d45947a13585dea355a4c55d6b2b948c", "is_disabled": 0, "rental_uris": {"ios": "https://dc.lft.to/lastmile_qr_scan", "android": "https://dc.lft.to/lastmile_qr_scan"}, "is_reserved": 0}, {"lon": -77.041778, "bike_id": "dbc823f995c4f21a359069c795ebc92c", "lat": 38.906342, "fusion_lon": 0.0, "fusion_lat": 0.0, "type": "electric_scooter", "name": "dbc823f995c4f21a359069c795ebc92c", "is_disabled": 0, "rental_uris": {"ios": "https://dc.lft.to/lastmile_qr_scan", "android": "https://dc.lft.to/lastmile_qr_scan"}, "is_reserved": 0}, {"lon": -77.03862033333333, "bike_id": "9d15a2685acc312af1a9b5dedd1bb667", "lat": 38.915525, "fusion_lon": 0.0, "fusion_lat": 0.0, "type": "electric_scooter", "name": "9d15a2685acc312af1a9b5dedd1bb667", "is_disabled": 0, "rental_uris": {"ios": "https://dc.lft.to/lastmile_qr_scan", "android": "https://dc.lft.to/lastmile_qr_scan"}, "is_reserved": 0}, {"lon": -77.03668333333333, "bike_id": "ceb1a1d4c25306dd757a47692445f743", "lat": 38.91817733333333, "fusion_lon": 0.0, "fusion_lat": 0.0, "type": "electric_scooter", "name": "ceb1a1d4c25306dd757a47692445f743", "is_disabled": 0, "rental_uris": {"ios": "https://dc.lft.to/lastmile_qr_scan", "android": "https://dc.lft.to/lastmile_qr_scan"}, "is_reserved": 0}, {"lon": -77.05268983333333, "bike_id": "ecac72b4f7982701aa5b2709f5342a9c", "lat": 38.8996975, "fusion_lon": 0.0, "fusion_lat": 0.0, "type": "electric_scooter", "name": "ecac72b4f7982701aa5b2709f5342a9c", "is_disabled": 0, "rental_uris": {"ios": "https://dc.lft.to/lastmile_qr_scan", "android": "https://dc.lft.to/lastmile_qr_scan"}, "is_reserved": 0}, {"lon": -76.985448, "bike_id": "68ef5784f225911567af275aa479f244", "lat": 38.89655616666667, "fusion_lon": 0.0, "fusion_lat": 0.0, "type": "electric_scooter", "name": "68ef5784f225911567af275aa479f244", "is_disabled": 0, "rental_uris": {"ios": "https://dc.lft.to/lastmile_qr_scan", "android": "https://dc.lft.to/lastmile_qr_scan"}, "is_reserved": 0}, {"lon": -77.02308133333334, "bike_id": "4222426c1f34d7d9a13663cf3874efa3", "lat": 38.92749583333333, "fusion_lon": 0.0, "fusion_lat": 0.0, "type": "electric_scooter", "name": "4222426c1f34d7d9a13663cf3874efa3", "is_disabled": 0, "rental_uris": {"ios": "https://dc.lft.to/lastmile_qr_scan", "android": "https://dc.lft.to/lastmile_qr_scan"}, "is_reserved": 0}, {"lon": -76.990179, "bike_id": "6e1335c55c2acfadb125ebf7e70807fe", "lat": 38.88161866666667, "fusion_lon": 0.0, "fusion_lat": 0.0, "type": "electric_scooter", "name": "6e1335c55c2acfadb125ebf7e70807fe", "is_disabled": 0, "rental_uris": {"ios": "https://dc.lft.to/lastmile_qr_scan", "android": "https://dc.lft.to/lastmile_qr_scan"}, "is_reserved": 0}, {"lon": -77.053667, "bike_id": "25693f5f41d6b25502a5425c5a773887", "lat": 38.927223, "fusion_lon": 0.0, "fusion_lat": 0.0, "type": "electric_scooter", "name": "25693f5f41d6b25502a5425c5a773887", "is_disabled": 0, "rental_uris": {"ios": "https://dc.lft.to/lastmile_qr_scan", "android": "https://dc.lft.to/lastmile_qr_scan"}, "is_reserved": 0}, {"lon": -77.038541, "bike_id": "feaff80c77a6c4e5914920d3f645315e", "lat": 38.917824833333334, "fusion_lon": 0.0, "fusion_lat": 0.0, "type": "electric_scooter", "name": "feaff80c77a6c4e5914920d3f645315e", "is_disabled": 0, "rental_uris": {"ios": "https://dc.lft.to/lastmile_qr_scan", "android": "https://dc.lft.to/lastmile_qr_scan"}, "is_reserved": 0}, {"lon": -77.01941033333334, "bike_id": "5ca1d0bd07bb47e7de1e2538f01c88e9", "lat": 38.936901166666665, "fusion_lon": 0.0, "fusion_lat": 0.0, "type": "electric_scooter", "name": "5ca1d0bd07bb47e7de1e2538f01c88e9", "is_disabled": 0, "rental_uris": {"ios": "https://dc.lft.to/lastmile_qr_scan", "android": "https://dc.lft.to/lastmile_qr_scan"}, "is_reserved": 0}, {"lon": -76.9330705, "bike_id": "87162113b8440c2d6f17ce6c99db3ed9", "lat": 38.89472216666667, "fusion_lon": 0.0, "fusion_lat": 0.0, "type": "electric_scooter", "name": "87162113b8440c2d6f17ce6c99db3ed9", "is_disabled": 0, "rental_uris": {"ios": "https://dc.lft.to/lastmile_qr_scan", "android": "https://dc.lft.to/lastmile_qr_scan"}, "is_reserved": 0}, {"lon": -77.0434295, "bike_id": "a8432303ac8ba6eb5d5e5b2472c069d9", "lat": 38.91103066666667, "fusion_lon": 0.0, "fusion_lat": 0.0, "type": "electric_scooter", "name": "a8432303ac8ba6eb5d5e5b2472c069d9", "is_disabled": 0, "rental_uris": {"ios": "https://dc.lft.to/lastmile_qr_scan", "android": "https://dc.lft.to/lastmile_qr_scan"}, "is_reserved": 0}, {"lon": -76.99532433333333, "bike_id": "1be9d091f76fd906aa58ada6a5ebfae1", "lat": 38.88368166666667, "fusion_lon": 0.0, "fusion_lat": 0.0, "type": "electric_scooter", "name": "1be9d091f76fd906aa58ada6a5ebfae1", "is_disabled": 0, "rental_uris": {"ios": "https://dc.lft.to/lastmile_qr_scan", "android": "https://dc.lft.to/lastmile_qr_scan"}, "is_reserved": 0}, {"lon": -77.04513, "bike_id": "6d920cac255ca92ea7a7375d2c3595b2", "lat": 38.88601516666667, "fusion_lon": 0.0, "fusion_lat": 0.0, "type": "electric_scooter", "name": "6d920cac255ca92ea7a7375d2c3595b2", "is_disabled": 0, "rental_uris": {"ios": "https://dc.lft.to/lastmile_qr_scan", "android": "https://dc.lft.to/lastmile_qr_scan"}, "is_reserved": 0}, {"lon": -77.10921916666666, "bike_id": "1f0df88950e8fa3b50a1edee66dc4a10", "lat": 39.052024333333335, "fusion_lon": 0.0, "fusion_lat": 0.0, "type": "electric_bike", "name": "1f0df88950e8fa3b50a1edee66dc4a10", "is_disabled": 0, "rental_uris": {"ios": "https://dc.lft.to/lastmile_qr_scan", "android": "https://dc.lft.to/lastmile_qr_scan"}, "is_reserved": 0}, {"lon": -77.02299533333333, "bike_id": "aadebfd1cfc5ad21baadcc975fc305ad", "lat": 38.91682633333333, "fusion_lon": 0.0, "fusion_lat": 0.0, "type": "electric_scooter", "name": "aadebfd1cfc5ad21baadcc975fc305ad", "is_disabled": 0, "rental_uris": {"ios": "https://dc.lft.to/lastmile_qr_scan", "android": "https://dc.lft.to/lastmile_qr_scan"}, "is_reserved": 0}, {"lon": -77.03885716666667, "bike_id": "109074445476d778d48a867e64d1b3d6", "lat": 38.920102666666665, "fusion_lon": 0.0, "fusion_lat": 0.0, "type": "electric_scooter", "name": "109074445476d778d48a867e64d1b3d6", "is_disabled": 0, "rental_uris": {"ios": "https://dc.lft.to/lastmile_qr_scan", "android": "https://dc.lft.to/lastmile_qr_scan"}, "is_reserved": 0}, {"lon": -77.027134, "bike_id": "f77ad8c73f2414b3eeda66de392f4e64", "lat": 38.9276875, "fusion_lon": 0.0, "fusion_lat": 0.0, "type": "electric_scooter", "name": "f77ad8c73f2414b3eeda66de392f4e64", "is_disabled": 0, "rental_uris": {"ios": "https://dc.lft.to/lastmile_qr_scan", "android": "https://dc.lft.to/lastmile_qr_scan"}, "is_reserved": 0}, {"lon": -77.03212466666666, "bike_id": "aa94c905f2b79b90de3a062f01f5b343", "lat": 38.896447333333334, "fusion_lon": 0.0, "fusion_lat": 0.0, "type": "electric_scooter", "name": "aa94c905f2b79b90de3a062f01f5b343", "is_disabled": 0, "rental_uris": {"ios": "https://dc.lft.to/lastmile_qr_scan", "android": "https://dc.lft.to/lastmile_qr_scan"}, "is_reserved": 0}, {"lon": -76.929979, "bike_id": "621d7e5d42616d4bb6c7c93e63887faa", "lat": 38.9018485, "fusion_lon": 0.0, "fusion_lat": 0.0, "type": "electric_scooter", "name": "621d7e5d42616d4bb6c7c93e63887faa", "is_disabled": 0, "rental_uris": {"ios": "https://dc.lft.to/lastmile_qr_scan", "android": "https://dc.lft.to/lastmile_qr_scan"}, "is_reserved": 0}, {"lon": -77.03575166666667, "bike_id": "6a1cdaf9ce2e074ddfac930c084734ab", "lat": 38.917599333333335, "fusion_lon": 0.0, "fusion_lat": 0.0, "type": "electric_scooter", "name": "6a1cdaf9ce2e074ddfac930c084734ab", "is_disabled": 0, "rental_uris": {"ios": "https://dc.lft.to/lastmile_qr_scan", "android": "https://dc.lft.to/lastmile_qr_scan"}, "is_reserved": 0}, {"lon": -77.043251, "bike_id": "80b3484ecf596345753dbda6a0fcb372", "lat": 38.90733066666667, "fusion_lon": 0.0, "fusion_lat": 0.0, "type": "electric_scooter", "name": "80b3484ecf596345753dbda6a0fcb372", "is_disabled": 0, "rental_uris": {"ios": "https://dc.lft.to/lastmile_qr_scan", "android": "https://dc.lft.to/lastmile_qr_scan"}, "is_reserved": 0}, {"lon": -77.04018183333334, "bike_id": "1402addca4b9440d0db7f10ccdb8f563", "lat": 38.911125, "fusion_lon": 0.0, "fusion_lat": 0.0, "type": "electric_scooter", "name": "1402addca4b9440d0db7f10ccdb8f563", "is_disabled": 0, "rental_uris": {"ios": "https://dc.lft.to/lastmile_qr_scan", "android": "https://dc.lft.to/lastmile_qr_scan"}, "is_reserved": 0}, {"lon": -77.01410683333333, "bike_id": "42fd29d2762880a4d54b7661d63f399c", "lat": 38.9282795, "fusion_lon": 0.0, "fusion_lat": 0.0, "type": "electric_scooter", "name": "42fd29d2762880a4d54b7661d63f399c", "is_disabled": 0, "rental_uris": {"ios": "https://dc.lft.to/lastmile_qr_scan", "android": "https://dc.lft.to/lastmile_qr_scan"}, "is_reserved": 0}, {"lon": -77.00501416666667, "bike_id": "4237f298379dfcc85275ab9332175730", "lat": 38.90554233333334, "fusion_lon": 0.0, "fusion_lat": 0.0, "type": "electric_scooter", "name": "4237f298379dfcc85275ab9332175730", "is_disabled": 0, "rental_uris": {"ios": "https://dc.lft.to/lastmile_qr_scan", "android": "https://dc.lft.to/lastmile_qr_scan"}, "is_reserved": 0}, {"lon": -77.01499333333334, "bike_id": "59ef218760ed52675369033b84f04409", "lat": 38.900167333333336, "fusion_lon": 0.0, "fusion_lat": 0.0, "type": "electric_scooter", "name": "59ef218760ed52675369033b84f04409", "is_disabled": 0, "rental_uris": {"ios": "https://dc.lft.to/lastmile_qr_scan", "android": "https://dc.lft.to/lastmile_qr_scan"}, "is_reserved": 0}, {"lon": -77.03608616666666, "bike_id": "ff6a1c61c9a2150383639afdb48fc2ac", "lat": 38.931555333333336, "fusion_lon": 0.0, "fusion_lat": 0.0, "type": "electric_scooter", "name": "ff6a1c61c9a2150383639afdb48fc2ac", "is_disabled": 0, "rental_uris": {"ios": "https://dc.lft.to/lastmile_qr_scan", "android": "https://dc.lft.to/lastmile_qr_scan"}, "is_reserved": 0}, {"lon": -77.0234405, "bike_id": "512d9d79a6aab657f4e3988e459c6497", "lat": 38.922469166666666, "fusion_lon": 0.0, "fusion_lat": 0.0, "type": "electric_scooter", "name": "512d9d79a6aab657f4e3988e459c6497", "is_disabled": 0, "rental_uris": {"ios": "https://dc.lft.to/lastmile_qr_scan", "android": "https://dc.lft.to/lastmile_qr_scan"}, "is_reserved": 0}, {"lon": -76.98684666666666, "bike_id": "8dce744817427cc17a1e2039423c6a54", "lat": 38.912196333333334, "fusion_lon": 0.0, "fusion_lat": 0.0, "type": "electric_scooter", "name": "8dce744817427cc17a1e2039423c6a54", "is_disabled": 0, "rental_uris": {"ios": "https://dc.lft.to/lastmile_qr_scan", "android": "https://dc.lft.to/lastmile_qr_scan"}, "is_reserved": 0}, {"lon": -77.00097516666666, "bike_id": "3fb08f5f99417f18635fffa8f25588c2", "lat": 38.912415, "fusion_lon": 0.0, "fusion_lat": 0.0, "type": "electric_scooter", "name": "3fb08f5f99417f18635fffa8f25588c2", "is_disabled": 0, "rental_uris": {"ios": "https://dc.lft.to/lastmile_qr_scan", "android": "https://dc.lft.to/lastmile_qr_scan"}, "is_reserved": 0}, {"lon": -77.02796366666666, "bike_id": "1947b7ae6cc77ccc21737aef0b745af0", "lat": 38.92958683333333, "fusion_lon": 0.0, "fusion_lat": 0.0, "type": "electric_scooter", "name": "1947b7ae6cc77ccc21737aef0b745af0", "is_disabled": 0, "rental_uris": {"ios": "https://dc.lft.to/lastmile_qr_scan", "android": "https://dc.lft.to/lastmile_qr_scan"}, "is_reserved": 0}, {"lon": -77.2332955, "bike_id": "c7e4cb3a4ef4462caa4e3ea839403815", "lat": 38.872759, "fusion_lon": 0.0, "fusion_lat": 0.0, "type": "electric_bike", "name": "c7e4cb3a4ef4462caa4e3ea839403815", "is_disabled": 0, "rental_uris": {"ios": "https://dc.lft.to/lastmile_qr_scan", "android": "https://dc.lft.to/lastmile_qr_scan"}, "is_reserved": 0}, {"lon": -76.98525183333334, "bike_id": "efd2958c9694e0bc67d0c028865c3d59", "lat": 38.86680783333333, "fusion_lon": 0.0, "fusion_lat": 0.0, "type": "electric_scooter", "name": "efd2958c9694e0bc67d0c028865c3d59", "is_disabled": 0, "rental_uris": {"ios": "https://dc.lft.to/lastmile_qr_scan", "android": "https://dc.lft.to/lastmile_qr_scan"}, "is_reserved": 0}, {"lon": -77.03064283333333, "bike_id": "63fbaa7cf3a5858106e998cd61f1bb72", "lat": 38.88382283333333, "fusion_lon": 0.0, "fusion_lat": 0.0, "type": "electric_scooter", "name": "63fbaa7cf3a5858106e998cd61f1bb72", "is_disabled": 0, "rental_uris": {"ios": "https://dc.lft.to/lastmile_qr_scan", "android": "https://dc.lft.to/lastmile_qr_scan"}, "is_reserved": 0}, {"lon": -77.03978933333333, "bike_id": "22807cebd44272f78c671356c010b8d4", "lat": 38.92800116666667, "fusion_lon": 0.0, "fusion_lat": 0.0, "type": "electric_scooter", "name": "22807cebd44272f78c671356c010b8d4", "is_disabled": 0, "rental_uris": {"ios": "https://dc.lft.to/lastmile_qr_scan", "android": "https://dc.lft.to/lastmile_qr_scan"}, "is_reserved": 0}, {"lon": -77.03183083333333, "bike_id": "84c10d115b92e7c2c35f2c94d1347af2", "lat": 38.903577, "fusion_lon": 0.0, "fusion_lat": 0.0, "type": "electric_scooter", "name": "84c10d115b92e7c2c35f2c94d1347af2", "is_disabled": 0, "rental_uris": {"ios": "https://dc.lft.to/lastmile_qr_scan", "android": "https://dc.lft.to/lastmile_qr_scan"}, "is_reserved": 0}, {"lon": -77.038566, "bike_id": "ce587a1d6e5f277534bf4943ae72353b", "lat": 38.91663783333333, "fusion_lon": 0.0, "fusion_lat": 0.0, "type": "electric_scooter", "name": "ce587a1d6e5f277534bf4943ae72353b", "is_disabled": 0, "rental_uris": {"ios": "https://dc.lft.to/lastmile_qr_scan", "android": "https://dc.lft.to/lastmile_qr_scan"}, "is_reserved": 0}, {"lon": -77.02538083333333, "bike_id": "9fc7844023f1e5feb6ad1a3123521c3e", "lat": 38.907187666666665, "fusion_lon": 0.0, "fusion_lat": 0.0, "type": "electric_scooter", "name": "9fc7844023f1e5feb6ad1a3123521c3e", "is_disabled": 0, "rental_uris": {"ios": "https://dc.lft.to/lastmile_qr_scan", "android": "https://dc.lft.to/lastmile_qr_scan"}, "is_reserved": 0}, {"lon": -76.95005083333334, "bike_id": "636c917d41544c356905588bacdb8935", "lat": 38.8938425, "fusion_lon": 0.0, "fusion_lat": 0.0, "type": "electric_scooter", "name": "636c917d41544c356905588bacdb8935", "is_disabled": 0, "rental_uris": {"ios": "https://dc.lft.to/lastmile_qr_scan", "android": "https://dc.lft.to/lastmile_qr_scan"}, "is_reserved": 0}, {"lon": -76.99449233333333, "bike_id": "9a8c9e997e075ad872654f04d009d8f7", "lat": 38.862811666666666, "fusion_lon": 0.0, "fusion_lat": 0.0, "type": "electric_scooter", "name": "9a8c9e997e075ad872654f04d009d8f7", "is_disabled": 0, "rental_uris": {"ios": "https://dc.lft.to/lastmile_qr_scan", "android": "https://dc.lft.to/lastmile_qr_scan"}, "is_reserved": 0}, {"lon": -77.23321016666667, "bike_id": "f20bdf857733d168707076eefbedbe01", "lat": 38.872841666666666, "fusion_lon": 0.0, "fusion_lat": 0.0, "type": "electric_bike", "name": "f20bdf857733d168707076eefbedbe01", "is_disabled": 0, "rental_uris": {"ios": "https://dc.lft.to/lastmile_qr_scan", "android": "https://dc.lft.to/lastmile_qr_scan"}, "is_reserved": 0}, {"lon": -76.9654235, "bike_id": "bb1857b6bb6f46ac5c33cf477d3601b2", "lat": 38.918383666666664, "fusion_lon": 0.0, "fusion_lat": 0.0, "type": "electric_scooter", "name": "bb1857b6bb6f46ac5c33cf477d3601b2", "is_disabled": 0, "rental_uris": {"ios": "https://dc.lft.to/lastmile_qr_scan", "android": "https://dc.lft.to/lastmile_qr_scan"}, "is_reserved": 0}, {"lon": -76.98883866666667, "bike_id": "b616ec6569116e8d129fb005e32b1b46", "lat": 38.8664725, "fusion_lon": 0.0, "fusion_lat": 0.0, "type": "electric_scooter", "name": "b616ec6569116e8d129fb005e32b1b46", "is_disabled": 0, "rental_uris": {"ios": "https://dc.lft.to/lastmile_qr_scan", "android": "https://dc.lft.to/lastmile_qr_scan"}, "is_reserved": 0}, {"lon": -76.9730075, "bike_id": "ac96e171e4f76c9764470b01bd7136ce", "lat": 38.9164865, "fusion_lon": 0.0, "fusion_lat": 0.0, "type": "electric_bike", "name": "ac96e171e4f76c9764470b01bd7136ce", "is_disabled": 0, "rental_uris": {"ios": "https://dc.lft.to/lastmile_qr_scan", "android": "https://dc.lft.to/lastmile_qr_scan"}, "is_reserved": 0}, {"lon": -77.00887316666666, "bike_id": "2d96e830fb629ff8d6d6054600aaec11", "lat": 38.922780333333336, "fusion_lon": 0.0, "fusion_lat": 0.0, "type": "electric_scooter", "name": "2d96e830fb629ff8d6d6054600aaec11", "is_disabled": 0, "rental_uris": {"ios": "https://dc.lft.to/lastmile_qr_scan", "android": "https://dc.lft.to/lastmile_qr_scan"}, "is_reserved": 0}, {"lon": -77.03264983333334, "bike_id": "deba79136af541e485a3ddc751533e7b", "lat": 38.925304833333335, "fusion_lon": 0.0, "fusion_lat": 0.0, "type": "electric_scooter", "name": "deba79136af541e485a3ddc751533e7b", "is_disabled": 0, "rental_uris": {"ios": "https://dc.lft.to/lastmile_qr_scan", "android": "https://dc.lft.to/lastmile_qr_scan"}, "is_reserved": 0}, {"lon": -77.05299566666666, "bike_id": "d78eae3d10771b98598bf1f148aacf0b", "lat": 38.898857666666665, "fusion_lon": 0.0, "fusion_lat": 0.0, "type": "electric_scooter", "name": "d78eae3d10771b98598bf1f148aacf0b", "is_disabled": 0, "rental_uris": {"ios": "https://dc.lft.to/lastmile_qr_scan", "android": "https://dc.lft.to/lastmile_qr_scan"}, "is_reserved": 0}, {"lon": -77.02495, "bike_id": "ab4afaef7631efd95c9d1e245b7355e5", "lat": 38.91931366666667, "fusion_lon": 0.0, "fusion_lat": 0.0, "type": "electric_scooter", "name": "ab4afaef7631efd95c9d1e245b7355e5", "is_disabled": 0, "rental_uris": {"ios": "https://dc.lft.to/lastmile_qr_scan", "android": "https://dc.lft.to/lastmile_qr_scan"}, "is_reserved": 0}, {"lon": -77.02380766666667, "bike_id": "f0af84ee138af6bf60d43f1ed0b2d5c0", "lat": 38.902061, "fusion_lon": 0.0, "fusion_lat": 0.0, "type": "electric_scooter", "name": "f0af84ee138af6bf60d43f1ed0b2d5c0", "is_disabled": 0, "rental_uris": {"ios": "https://dc.lft.to/lastmile_qr_scan", "android": "https://dc.lft.to/lastmile_qr_scan"}, "is_reserved": 0}, {"lon": -76.97703433333334, "bike_id": "49a1d829a55dd9a5dde8be19ebb529a8", "lat": 38.94916766666667, "fusion_lon": 0.0, "fusion_lat": 0.0, "type": "electric_bike", "name": "49a1d829a55dd9a5dde8be19ebb529a8", "is_disabled": 0, "rental_uris": {"ios": "https://dc.lft.to/lastmile_qr_scan", "android": "https://dc.lft.to/lastmile_qr_scan"}, "is_reserved": 0}, {"lon": -77.03284433333333, "bike_id": "7e3844cc7245b3f99e771245a5f7ca80", "lat": 38.93974383333333, "fusion_lon": 0.0, "fusion_lat": 0.0, "type": "electric_scooter", "name": "7e3844cc7245b3f99e771245a5f7ca80", "is_disabled": 0, "rental_uris": {"ios": "https://dc.lft.to/lastmile_qr_scan", "android": "https://dc.lft.to/lastmile_qr_scan"}, "is_reserved": 0}, {"lon": -76.9473005, "bike_id": "99a6aee88c3bf408d238a3ba27e236fe", "lat": 38.89734266666667, "fusion_lon": 0.0, "fusion_lat": 0.0, "type": "electric_scooter", "name": "99a6aee88c3bf408d238a3ba27e236fe", "is_disabled": 0, "rental_uris": {"ios": "https://dc.lft.to/lastmile_qr_scan", "android": "https://dc.lft.to/lastmile_qr_scan"}, "is_reserved": 0}, {"lon": -77.02694483333333, "bike_id": "2a925020101987a1682f9f8e161bb82a", "lat": 38.906678166666666, "fusion_lon": 0.0, "fusion_lat": 0.0, "type": "electric_scooter", "name": "2a925020101987a1682f9f8e161bb82a", "is_disabled": 0, "rental_uris": {"ios": "https://dc.lft.to/lastmile_qr_scan", "android": "https://dc.lft.to/lastmile_qr_scan"}, "is_reserved": 0}, {"lon": -77.01626733333333, "bike_id": "4ecf6a282b080d73d355041a6952a8d6", "lat": 38.9657505, "fusion_lon": 0.0, "fusion_lat": 0.0, "type": "electric_scooter", "name": "4ecf6a282b080d73d355041a6952a8d6", "is_disabled": 0, "rental_uris": {"ios": "https://dc.lft.to/lastmile_qr_scan", "android": "https://dc.lft.to/lastmile_qr_scan"}, "is_reserved": 0}, {"lon": -76.904696, "bike_id": "aa3492fd2725107c0c0805f564dc0af1", "lat": 39.002925166666664, "fusion_lon": 0.0, "fusion_lat": 0.0, "type": "electric_bike", "name": "aa3492fd2725107c0c0805f564dc0af1", "is_disabled": 0, "rental_uris": {"ios": "https://dc.lft.to/lastmile_qr_scan", "android": "https://dc.lft.to/lastmile_qr_scan"}, "is_reserved": 0}, {"lon": -77.03284216666667, "bike_id": "7b25f7495b005328d085873fe99d78c5", "lat": 38.9320065, "fusion_lon": 0.0, "fusion_lat": 0.0, "type": "electric_scooter", "name": "7b25f7495b005328d085873fe99d78c5", "is_disabled": 0, "rental_uris": {"ios": "https://dc.lft.to/lastmile_qr_scan", "android": "https://dc.lft.to/lastmile_qr_scan"}, "is_reserved": 0}, {"lon": -77.36089433333333, "bike_id": "6ce958b5dc0a222cdcfde11fe78330ba", "lat": 38.939571, "fusion_lon": 0.0, "fusion_lat": 0.0, "type": "electric_bike", "name": "6ce958b5dc0a222cdcfde11fe78330ba", "is_disabled": 0, "rental_uris": {"ios": "https://dc.lft.to/lastmile_qr_scan", "android": "https://dc.lft.to/lastmile_qr_scan"}, "is_reserved": 0}, {"lon": -77.01207983333333, "bike_id": "c15efd55cb718ef378dcb0de13eacc7e", "lat": 38.88552033333333, "fusion_lon": 0.0, "fusion_lat": 0.0, "type": "electric_scooter", "name": "c15efd55cb718ef378dcb0de13eacc7e", "is_disabled": 0, "rental_uris": {"ios": "https://dc.lft.to/lastmile_qr_scan", "android": "https://dc.lft.to/lastmile_qr_scan"}, "is_reserved": 0}, {"lon": -77.06525183333333, "bike_id": "f36f3f62f96ead43a61ffbd0c97b28e2", "lat": 38.90545516666667, "fusion_lon": 0.0, "fusion_lat": 0.0, "type": "electric_bike", "name": "f36f3f62f96ead43a61ffbd0c97b28e2", "is_disabled": 0, "rental_uris": {"ios": "https://dc.lft.to/lastmile_qr_scan", "android": "https://dc.lft.to/lastmile_qr_scan"}, "is_reserved": 0}, {"lon": -77.035591, "bike_id": "49c438b4348601476cc9fac68bab9eb1", "lat": 38.92740883333333, "fusion_lon": 0.0, "fusion_lat": 0.0, "type": "electric_scooter", "name": "49c438b4348601476cc9fac68bab9eb1", "is_disabled": 0, "rental_uris": {"ios": "https://dc.lft.to/lastmile_qr_scan", "android": "https://dc.lft.to/lastmile_qr_scan"}, "is_reserved": 0}, {"lon": -77.020154, "bike_id": "512f5d8ac13d0f40968aba7f8ee5c18c", "lat": 38.924204333333336, "fusion_lon": 0.0, "fusion_lat": 0.0, "type": "electric_scooter", "name": "512f5d8ac13d0f40968aba7f8ee5c18c", "is_disabled": 0, "rental_uris": {"ios": "https://dc.lft.to/lastmile_qr_scan", "android": "https://dc.lft.to/lastmile_qr_scan"}, "is_reserved": 0}, {"lon": -77.00547966666667, "bike_id": "8df000ac941a0134079a5247e2befa9d", "lat": 38.8745815, "fusion_lon": 0.0, "fusion_lat": 0.0, "type": "electric_scooter", "name": "8df000ac941a0134079a5247e2befa9d", "is_disabled": 0, "rental_uris": {"ios": "https://dc.lft.to/lastmile_qr_scan", "android": "https://dc.lft.to/lastmile_qr_scan"}, "is_reserved": 0}, {"lon": -77.00070983333333, "bike_id": "a256eba0590f17d0229ef85e230ff2e0", "lat": 38.8972405, "fusion_lon": 0.0, "fusion_lat": 0.0, "type": "electric_scooter", "name": "a256eba0590f17d0229ef85e230ff2e0", "is_disabled": 0, "rental_uris": {"ios": "https://dc.lft.to/lastmile_qr_scan", "android": "https://dc.lft.to/lastmile_qr_scan"}, "is_reserved": 0}, {"lon": -77.0541795, "bike_id": "6e0885942574d978caa9f7c4f5750f08", "lat": 38.90145716666667, "fusion_lon": 0.0, "fusion_lat": 0.0, "type": "electric_scooter", "name": "6e0885942574d978caa9f7c4f5750f08", "is_disabled": 0, "rental_uris": {"ios": "https://dc.lft.to/lastmile_qr_scan", "android": "https://dc.lft.to/lastmile_qr_scan"}, "is_reserved": 0}, {"lon": -77.034379, "bike_id": "fbd0c580d73c1bfb1ae3eb51235fed5f", "lat": 38.9179485, "fusion_lon": 0.0, "fusion_lat": 0.0, "type": "electric_scooter", "name": "fbd0c580d73c1bfb1ae3eb51235fed5f", "is_disabled": 0, "rental_uris": {"ios": "https://dc.lft.to/lastmile_qr_scan", "android": "https://dc.lft.to/lastmile_qr_scan"}, "is_reserved": 0}, {"lon": -77.00030033333333, "bike_id": "40b98488827ecfd1f56c168b7bc3dcbe", "lat": 38.96818, "fusion_lon": 0.0, "fusion_lat": 0.0, "type": "electric_bike", "name": "40b98488827ecfd1f56c168b7bc3dcbe", "is_disabled": 0, "rental_uris": {"ios": "https://dc.lft.to/lastmile_qr_scan", "android": "https://dc.lft.to/lastmile_qr_scan"}, "is_reserved": 0}, {"lon": -77.03350366666666, "bike_id": "f2455379805fdda389179bcc846195fc", "lat": 38.897278, "fusion_lon": 0.0, "fusion_lat": 0.0, "type": "electric_scooter", "name": "f2455379805fdda389179bcc846195fc", "is_disabled": 0, "rental_uris": {"ios": "https://dc.lft.to/lastmile_qr_scan", "android": "https://dc.lft.to/lastmile_qr_scan"}, "is_reserved": 0}, {"lon": -77.03445083333334, "bike_id": "a6d41123d3eea8377a4c33ad4f4d8aab", "lat": 38.90970633333333, "fusion_lon": 0.0, "fusion_lat": 0.0, "type": "electric_scooter", "name": "a6d41123d3eea8377a4c33ad4f4d8aab", "is_disabled": 0, "rental_uris": {"ios": "https://dc.lft.to/lastmile_qr_scan", "android": "https://dc.lft.to/lastmile_qr_scan"}, "is_reserved": 0}, {"lon": -77.03440483333334, "bike_id": "1197d467352622ab5c92353a20ce6efb", "lat": 38.918041, "fusion_lon": 0.0, "fusion_lat": 0.0, "type": "electric_scooter", "name": "1197d467352622ab5c92353a20ce6efb", "is_disabled": 0, "rental_uris": {"ios": "https://dc.lft.to/lastmile_qr_scan", "android": "https://dc.lft.to/lastmile_qr_scan"}, "is_reserved": 0}, {"lon": -77.0320655, "bike_id": "3958e479830e10b550796d8c612d1cac", "lat": 38.944074, "fusion_lon": 0.0, "fusion_lat": 0.0, "type": "electric_scooter", "name": "3958e479830e10b550796d8c612d1cac", "is_disabled": 0, "rental_uris": {"ios": "https://dc.lft.to/lastmile_qr_scan", "android": "https://dc.lft.to/lastmile_qr_scan"}, "is_reserved": 0}, {"lon": -77.03657333333334, "bike_id": "33ee96d7fe1df1fae1eb8985578468dd", "lat": 38.920922, "fusion_lon": 0.0, "fusion_lat": 0.0, "type": "electric_scooter", "name": "33ee96d7fe1df1fae1eb8985578468dd", "is_disabled": 0, "rental_uris": {"ios": "https://dc.lft.to/lastmile_qr_scan", "android": "https://dc.lft.to/lastmile_qr_scan"}, "is_reserved": 0}, {"lon": -77.03770883333334, "bike_id": "6ba5f7ef210499063e0538bd3974f87f", "lat": 38.9294315, "fusion_lon": 0.0, "fusion_lat": 0.0, "type": "electric_scooter", "name": "6ba5f7ef210499063e0538bd3974f87f", "is_disabled": 0, "rental_uris": {"ios": "https://dc.lft.to/lastmile_qr_scan", "android": "https://dc.lft.to/lastmile_qr_scan"}, "is_reserved": 0}, {"lon": -77.0318425, "bike_id": "8420b2cb0df4c2d935617a4d4f884f2d", "lat": 38.8957335, "fusion_lon": 0.0, "fusion_lat": 0.0, "type": "electric_scooter", "name": "8420b2cb0df4c2d935617a4d4f884f2d", "is_disabled": 0, "rental_uris": {"ios": "https://dc.lft.to/lastmile_qr_scan", "android": "https://dc.lft.to/lastmile_qr_scan"}, "is_reserved": 0}, {"lon": -77.02448083333333, "bike_id": "998d3483c81e37ab714f391db6874d74", "lat": 38.91414116666667, "fusion_lon": 0.0, "fusion_lat": 0.0, "type": "electric_scooter", "name": "998d3483c81e37ab714f391db6874d74", "is_disabled": 0, "rental_uris": {"ios": "https://dc.lft.to/lastmile_qr_scan", "android": "https://dc.lft.to/lastmile_qr_scan"}, "is_reserved": 0}, {"lon": -77.0237195, "bike_id": "d8659cf1ffcc8c014f6c15ef0a0c064f", "lat": 38.90210966666667, "fusion_lon": 0.0, "fusion_lat": 0.0, "type": "electric_scooter", "name": "d8659cf1ffcc8c014f6c15ef0a0c064f", "is_disabled": 0, "rental_uris": {"ios": "https://dc.lft.to/lastmile_qr_scan", "android": "https://dc.lft.to/lastmile_qr_scan"}, "is_reserved": 0}, {"lon": -77.022898, "bike_id": "a9b12bb54c5848c83a6a9fbc665f7191", "lat": 38.90978116666667, "fusion_lon": 0.0, "fusion_lat": 0.0, "type": "electric_scooter", "name": "a9b12bb54c5848c83a6a9fbc665f7191", "is_disabled": 0, "rental_uris": {"ios": "https://dc.lft.to/lastmile_qr_scan", "android": "https://dc.lft.to/lastmile_qr_scan"}, "is_reserved": 0}, {"lon": -77.0731945, "bike_id": "0fc403d574905050b040275359664027", "lat": 38.92503216666667, "fusion_lon": 0.0, "fusion_lat": 0.0, "type": "electric_bike", "name": "0fc403d574905050b040275359664027", "is_disabled": 0, "rental_uris": {"ios": "https://dc.lft.to/lastmile_qr_scan", "android": "https://dc.lft.to/lastmile_qr_scan"}, "is_reserved": 0}, {"lon": -77.06754116666667, "bike_id": "2cfb3a1d3550467c67e699e426371a3f", "lat": 38.90335433333333, "fusion_lon": 0.0, "fusion_lat": 0.0, "type": "electric_scooter", "name": "2cfb3a1d3550467c67e699e426371a3f", "is_disabled": 0, "rental_uris": {"ios": "https://dc.lft.to/lastmile_qr_scan", "android": "https://dc.lft.to/lastmile_qr_scan"}, "is_reserved": 0}, {"lon": -76.93358133333334, "bike_id": "be7de7d0ec73a2a4e0418da56540b31b", "lat": 38.899158666666665, "fusion_lon": 0.0, "fusion_lat": 0.0, "type": "electric_scooter", "name": "be7de7d0ec73a2a4e0418da56540b31b", "is_disabled": 0, "rental_uris": {"ios": "https://dc.lft.to/lastmile_qr_scan", "android": "https://dc.lft.to/lastmile_qr_scan"}, "is_reserved": 0}, {"lon": -77.0297835, "bike_id": "9847c8e05055ae672b35c8cbf5ff702d", "lat": 38.93282283333333, "fusion_lon": 0.0, "fusion_lat": 0.0, "type": "electric_scooter", "name": "9847c8e05055ae672b35c8cbf5ff702d", "is_disabled": 0, "rental_uris": {"ios": "https://dc.lft.to/lastmile_qr_scan", "android": "https://dc.lft.to/lastmile_qr_scan"}, "is_reserved": 0}, {"lon": -77.0366345, "bike_id": "c8ea95b01185f6bc5f07014bee5d3dc1", "lat": 38.92262516666667, "fusion_lon": 0.0, "fusion_lat": 0.0, "type": "electric_scooter", "name": "c8ea95b01185f6bc5f07014bee5d3dc1", "is_disabled": 0, "rental_uris": {"ios": "https://dc.lft.to/lastmile_qr_scan", "android": "https://dc.lft.to/lastmile_qr_scan"}, "is_reserved": 0}, {"lon": -77.023807, "bike_id": "9711ead3f3adf62562883c5773343557", "lat": 38.90729866666667, "fusion_lon": 0.0, "fusion_lat": 0.0, "type": "electric_scooter", "name": "9711ead3f3adf62562883c5773343557", "is_disabled": 0, "rental_uris": {"ios": "https://dc.lft.to/lastmile_qr_scan", "android": "https://dc.lft.to/lastmile_qr_scan"}, "is_reserved": 0}, {"lon": -77.03939983333333, "bike_id": "6bf128e0fc2cfdc543bf3200a803bb48", "lat": 38.93058383333333, "fusion_lon": 0.0, "fusion_lat": 0.0, "type": "electric_scooter", "name": "6bf128e0fc2cfdc543bf3200a803bb48", "is_disabled": 0, "rental_uris": {"ios": "https://dc.lft.to/lastmile_qr_scan", "android": "https://dc.lft.to/lastmile_qr_scan"}, "is_reserved": 0}, {"lon": -77.03181433333333, "bike_id": "43ca8cec8b697430471d8535241d24be", "lat": 38.911981833333336, "fusion_lon": 0.0, "fusion_lat": 0.0, "type": "electric_scooter", "name": "43ca8cec8b697430471d8535241d24be", "is_disabled": 0, "rental_uris": {"ios": "https://dc.lft.to/lastmile_qr_scan", "android": "https://dc.lft.to/lastmile_qr_scan"}, "is_reserved": 0}, {"lon": -77.04338283333334, "bike_id": "7b9e648bd33f7e4efbebd278ce4a158d", "lat": 38.92968583333333, "fusion_lon": 0.0, "fusion_lat": 0.0, "type": "electric_scooter", "name": "7b9e648bd33f7e4efbebd278ce4a158d", "is_disabled": 0, "rental_uris": {"ios": "https://dc.lft.to/lastmile_qr_scan", "android": "https://dc.lft.to/lastmile_qr_scan"}, "is_reserved": 0}, {"lon": -77.0281765, "bike_id": "28e8874361c02e2e63e7096995540872", "lat": 38.90243016666667, "fusion_lon": 0.0, "fusion_lat": 0.0, "type": "electric_scooter", "name": "28e8874361c02e2e63e7096995540872", "is_disabled": 0, "rental_uris": {"ios": "https://dc.lft.to/lastmile_qr_scan", "android": "https://dc.lft.to/lastmile_qr_scan"}, "is_reserved": 0}, {"lon": -76.98371466666667, "bike_id": "379f752d47adeef95cd4f13eb1da396d", "lat": 38.899782333333334, "fusion_lon": 0.0, "fusion_lat": 0.0, "type": "electric_scooter", "name": "379f752d47adeef95cd4f13eb1da396d", "is_disabled": 0, "rental_uris": {"ios": "https://dc.lft.to/lastmile_qr_scan", "android": "https://dc.lft.to/lastmile_qr_scan"}, "is_reserved": 0}, {"lon": -77.03196766666667, "bike_id": "4a0d0ee3758657a77468de360ee25699", "lat": 38.8873355, "fusion_lon": 0.0, "fusion_lat": 0.0, "type": "electric_scooter", "name": "4a0d0ee3758657a77468de360ee25699", "is_disabled": 0, "rental_uris": {"ios": "https://dc.lft.to/lastmile_qr_scan", "android": "https://dc.lft.to/lastmile_qr_scan"}, "is_reserved": 0}, {"lon": -77.0358055, "bike_id": "959067706f8967c5d84c40a32f6a7d6b", "lat": 38.917622, "fusion_lon": 0.0, "fusion_lat": 0.0, "type": "electric_scooter", "name": "959067706f8967c5d84c40a32f6a7d6b", "is_disabled": 0, "rental_uris": {"ios": "https://dc.lft.to/lastmile_qr_scan", "android": "https://dc.lft.to/lastmile_qr_scan"}, "is_reserved": 0}, {"lon": -76.97840983333333, "bike_id": "b8721f20b8c7f2b2bb21649d846936c8", "lat": 38.8656455, "fusion_lon": 0.0, "fusion_lat": 0.0, "type": "electric_scooter", "name": "b8721f20b8c7f2b2bb21649d846936c8", "is_disabled": 0, "rental_uris": {"ios": "https://dc.lft.to/lastmile_qr_scan", "android": "https://dc.lft.to/lastmile_qr_scan"}, "is_reserved": 0}, {"lon": -77.02381083333333, "bike_id": "6132dcb88042e92801c7df597b04205b", "lat": 38.90727716666667, "fusion_lon": 0.0, "fusion_lat": 0.0, "type": "electric_scooter", "name": "6132dcb88042e92801c7df597b04205b", "is_disabled": 0, "rental_uris": {"ios": "https://dc.lft.to/lastmile_qr_scan", "android": "https://dc.lft.to/lastmile_qr_scan"}, "is_reserved": 0}, {"lon": -76.94894916666667, "bike_id": "3e51e5771216f239052c370436ee1ed2", "lat": 38.895278833333336, "fusion_lon": 0.0, "fusion_lat": 0.0, "type": "electric_scooter", "name": "3e51e5771216f239052c370436ee1ed2", "is_disabled": 0, "rental_uris": {"ios": "https://dc.lft.to/lastmile_qr_scan", "android": "https://dc.lft.to/lastmile_qr_scan"}, "is_reserved": 0}, {"lon": -77.03905666666667, "bike_id": "74e750cd5b15e2ea06b4445ebdf86d22", "lat": 38.923387, "fusion_lon": 0.0, "fusion_lat": 0.0, "type": "electric_scooter", "name": "74e750cd5b15e2ea06b4445ebdf86d22", "is_disabled": 0, "rental_uris": {"ios": "https://dc.lft.to/lastmile_qr_scan", "android": "https://dc.lft.to/lastmile_qr_scan"}, "is_reserved": 0}, {"lon": -77.03178866666667, "bike_id": "55dfb660111ad1cab17382d36dd72ea9", "lat": 38.905156166666664, "fusion_lon": 0.0, "fusion_lat": 0.0, "type": "electric_scooter", "name": "55dfb660111ad1cab17382d36dd72ea9", "is_disabled": 0, "rental_uris": {"ios": "https://dc.lft.to/lastmile_qr_scan", "android": "https://dc.lft.to/lastmile_qr_scan"}, "is_reserved": 0}, {"lon": -77.03862266666667, "bike_id": "86d1e772392380d9a09dabbc72eceec8", "lat": 38.909503, "fusion_lon": 0.0, "fusion_lat": 0.0, "type": "electric_scooter", "name": "86d1e772392380d9a09dabbc72eceec8", "is_disabled": 0, "rental_uris": {"ios": "https://dc.lft.to/lastmile_qr_scan", "android": "https://dc.lft.to/lastmile_qr_scan"}, "is_reserved": 0}, {"lon": -77.02443783333334, "bike_id": "08eafb4ca4584819ee1af084af61c951", "lat": 38.935999333333335, "fusion_lon": 0.0, "fusion_lat": 0.0, "type": "electric_scooter", "name": "08eafb4ca4584819ee1af084af61c951", "is_disabled": 0, "rental_uris": {"ios": "https://dc.lft.to/lastmile_qr_scan", "android": "https://dc.lft.to/lastmile_qr_scan"}, "is_reserved": 0}, {"lon": -77.024765, "bike_id": "d71c9c7c87e0c6d168e007fb6a6030e7", "lat": 38.92591083333333, "fusion_lon": 0.0, "fusion_lat": 0.0, "type": "electric_scooter", "name": "d71c9c7c87e0c6d168e007fb6a6030e7", "is_disabled": 0, "rental_uris": {"ios": "https://dc.lft.to/lastmile_qr_scan", "android": "https://dc.lft.to/lastmile_qr_scan"}, "is_reserved": 0},