{"data": {"bikes": [{"rental_uris": {"ios": "https://dc.lft.to/lastmile_qr_scan", "android": "https://dc.lft.to/lastmile_qr_scan"}, "lon": -77.01699583333334, "type": "electric_scooter", "fusion_lat": 0.0, "lat": 38.879245, "name": "e7a20d32b50359f4b760f3b6dd7e3c11", "fusion_lon": 0.0, "bike_id": "e7a20d32b50359f4b760f3b6dd7e3c11", "is_disabled": 0, "is_reserved": 0}, {"rental_uris": {"ios": "https://dc.lft.to/lastmile_qr_scan", "android": "https://dc.lft.to/lastmile_qr_scan"}, "lon": -77.00052366666667, "type": "electric_scooter", "fusion_lat": 0.0, "lat": 38.88897983333333, "name": "7084824ac63e06192486ac40ec42baae", "fusion_lon": 0.0, "bike_id": "7084824ac63e06192486ac40ec42baae", "is_disabled": 0, "is_reserved": 0}, {"rental_uris": {"ios": "https://dc.lft.to/lastmile_qr_scan", "android": "https://dc.lft.to/lastmile_qr_scan"}, "lon": -77.03706666666666, "type": "electric_bike", "fusion_lat": 0.0, "lat": 38.935582333333336, "name": "1cbf933e85f5bcaaf50fef6eab19396f", "fusion_lon": 0.0, "bike_id": "1cbf933e85f5bcaaf50fef6eab19396f", "is_disabled": 0, "is_reserved": 0}, {"rental_uris": {"ios": "https://dc.lft.to/lastmile_qr_scan", "android": "https://dc.lft.to/lastmile_qr_scan"}, "lon": -77.01289316666667, "type": "electric_bike", "fusion_lat": 0.0, "lat": 39.00385083333333, "name": "90d95d5b733e3a783279d2676510c1a0", "fusion_lon": 0.0, "bike_id": "90d95d5b733e3a783279d2676510c1a0", "is_disabled": 0, "is_reserved": 0}, {"rental_uris": {"ios": "https://dc.lft.to/lastmile_qr_scan", "android": "https://dc.lft.to/lastmile_qr_scan"}, "lon": -77.0455915, "type": "electric_scooter", "fusion_lat": 0.0, "lat": 38.91471266666667, "name": "88f06a138e15ea3c89f203460f083244", "fusion_lon": 0.0, "bike_id": "88f06a138e15ea3c89f203460f083244", "is_disabled": 0, "is_reserved": 0}, {"rental_uris": {"ios": "https://dc.lft.to/lastmile_qr_scan", "android": "https://dc.lft.to/lastmile_qr_scan"}, "lon": -77.03837583333333, "type": "electric_scooter", "fusion_lat": 0.0, "lat": 38.910932333333335, "name": "44cb30e40ad04b92dc8303f648206d6c", "fusion_lon": 0.0, "bike_id": "44cb30e40ad04b92dc8303f648206d6c", "is_disabled": 0, "is_reserved": 0}, {"rental_uris": {"ios": "https://dc.lft.to/lastmile_qr_scan", "android": "https://dc.lft.to/lastmile_qr_scan"}, "lon": -77.032055, "type": "electric_scooter", "fusion_lat": 0.0, "lat": 38.909933, "name": "2245f76a26c0d25f4623219865d2fff1", "fusion_lon": 0.0, "bike_id": "2245f76a26c0d25f4623219865d2fff1", "is_disabled": 0, "is_reserved": 0}, {"rental_uris": {"ios": "https://dc.lft.to/lastmile_qr_scan", "android": "https://dc.lft.to/lastmile_qr_scan"}, "lon": -77.01115916666667, "type": "electric_scooter", "fusion_lat": 0.0, "lat": 38.903662, "name": "f13018fe682006596699d318f239e431", "fusion_lon": 0.0, "bike_id": "f13018fe682006596699d318f239e431", "is_disabled": 0, "is_reserved": 0}, {"rental_uris": {"ios": "https://dc.lft.to/lastmile_qr_scan", "android": "https://dc.lft.to/lastmile_qr_scan"}, "lon": -77.0884375, "type": "electric_bike", "fusion_lat": 0.0, "lat": 38.840904333333334, "name": "1cffdf58b1162d33e0b0f50e6386149a", "fusion_lon": 0.0, "bike_id": "1cffdf58b1162d33e0b0f50e6386149a", "is_disabled": 0, "is_reserved": 0}, {"rental_uris": {"ios": "https://dc.lft.to/lastmile_qr_scan", "android": "https://dc.lft.to/lastmile_qr_scan"}, "lon": -77.0255185, "type": "electric_scooter", "fusion_lat": 0.0, "lat": 38.892346, "name": "f6b355e1ccc88fa889e5de98a16b5818", "fusion_lon": 0.0, "bike_id": "f6b355e1ccc88fa889e5de98a16b5818", "is_disabled": 0, "is_reserved": 0}, {"rental_uris": {"ios": "https://dc.lft.to/lastmile_qr_scan", "android": "https://dc.lft.to/lastmile_qr_scan"}, "lon": -77.07557716666666, "type": "electric_bike", "fusion_lat": 0.0, "lat": 38.9104175, "name": "0167b8a148dfbdacc649a07f4b1bef48", "fusion_lon": 0.0, "bike_id": "0167b8a148dfbdacc649a07f4b1bef48", "is_disabled": 0, "is_reserved": 0}, {"rental_uris": {"ios": "https://dc.lft.to/lastmile_qr_scan", "android": "https://dc.lft.to/lastmile_qr_scan"}, "lon": -77.033008, "type": "electric_scooter", "fusion_lat": 0.0, "lat": 38.900475666666665, "name": "6a7dcf9e46380e1032d5e5f2200cdab7", "fusion_lon": 0.0, "bike_id": "6a7dcf9e46380e1032d5e5f2200cdab7", "is_disabled": 0, "is_reserved": 0}, {"rental_uris": {"ios": "https://dc.lft.to/lastmile_qr_scan", "android": "https://dc.lft.to/lastmile_qr_scan"}, "lon": -77.04155716666666, "type": "electric_scooter", "fusion_lat": 0.0, "lat": 38.9141805, "name": "c2051b35c09d7eb513c8e4aa12d96606", "fusion_lon": 0.0, "bike_id": "c2051b35c09d7eb513c8e4aa12d96606", "is_disabled": 0, "is_reserved": 0}, {"rental_uris": {"ios": "https://dc.lft.to/lastmile_qr_scan", "android": "https://dc.lft.to/lastmile_qr_scan"}, "lon": -76.9472805, "type": "electric_scooter", "fusion_lat": 0.0, "lat": 38.896766666666664, "name": "336a92b8c017427c623b5ff76826e01f", "fusion_lon": 0.0, "bike_id": "336a92b8c017427c623b5ff76826e01f", "is_disabled": 0, "is_reserved": 0}, {"rental_uris": {"ios": "https://dc.lft.to/lastmile_qr_scan", "android": "https://dc.lft.to/lastmile_qr_scan"}, "lon": -77.04157316666667, "type": "electric_scooter", "fusion_lat": 0.0, "lat": 38.918057833333336, "name": "2e13a69735da0e9625b6e5a7b53b7fd7", "fusion_lon": 0.0, "bike_id": "2e13a69735da0e9625b6e5a7b53b7fd7", "is_disabled": 0, "is_reserved": 0}, {"rental_uris": {"ios": "https://dc.lft.to/lastmile_qr_scan", "android": "https://dc.lft.to/lastmile_qr_scan"}, "lon": -77.04377633333333, "type": "electric_scooter", "fusion_lat": 0.0, "lat": 38.917903333333335, "name": "9ce71d5321baeaaf179f163d5261ee2b", "fusion_lon": 0.0, "bike_id": "9ce71d5321baeaaf179f163d5261ee2b", "is_disabled": 0, "is_reserved": 0}, {"rental_uris": {"ios": "https://dc.lft.to/lastmile_qr_scan", "android": "https://dc.lft.to/lastmile_qr_scan"}, "lon": -77.04189, "type": "electric_scooter", "fusion_lat": 0.0, "lat": 38.926229, "name": "31cd3c2648b06ceaabef3ac825948482", "fusion_lon": 0.0, "bike_id": "31cd3c2648b06ceaabef3ac825948482", "is_disabled": 0, "is_reserved": 0}, {"rental_uris": {"ios": "https://dc.lft.to/lastmile_qr_scan", "android": "https://dc.lft.to/lastmile_qr_scan"}, "lon": -77.04644716666667, "type": "electric_bike", "fusion_lat": 0.0, "lat": 38.85213866666667, "name": "f1a7e69805c542b6beb95ecff489394b", "fusion_lon": 0.0, "bike_id": "f1a7e69805c542b6beb95ecff489394b", "is_disabled": 0, "is_reserved": 0}, {"rental_uris": {"ios": "https://dc.lft.to/lastmile_qr_scan", "android": "https://dc.lft.to/lastmile_qr_scan"}, "lon": -77.018391, "type": "electric_scooter", "fusion_lat": 0.0, "lat": 38.9197085, "name": "07846c09a28ecf98012b257a7fb403ad", "fusion_lon": 0.0, "bike_id": "07846c09a28ecf98012b257a7fb403ad", "is_disabled": 0, "is_reserved": 0}, {"rental_uris": {"ios": "https://dc.lft.to/lastmile_qr_scan", "android": "https://dc.lft.to/lastmile_qr_scan"}, "lon": -77.0113005, "type": "electric_scooter", "fusion_lat": 0.0, "lat": 38.895070833333335, "name": "31b655e9099ddf93bef5a44d2909c8b0", "fusion_lon": 0.0, "bike_id": "31b655e9099ddf93bef5a44d2909c8b0", "is_disabled": 0, "is_reserved": 0}, {"rental_uris": {"ios": "https://dc.lft.to/lastmile_qr_scan", "android": "https://dc.lft.to/lastmile_qr_scan"}, "lon": -77.02563233333333, "type": "electric_scooter", "fusion_lat": 0.0, "lat": 38.925416166666665, "name": "7f789ec81211a875489565b6926870cd", "fusion_lon": 0.0, "bike_id": "7f789ec81211a875489565b6926870cd", "is_disabled": 0, "is_reserved": 0}, {"rental_uris": {"ios": "https://dc.lft.to/lastmile_qr_scan", "android": "https://dc.lft.to/lastmile_qr_scan"}, "lon": -76.99950366666667, "type": "electric_scooter", "fusion_lat": 0.0, "lat": 38.84298533333333, "name": "2eda8af5083bb08bbd6f92741a80b5a3", "fusion_lon": 0.0, "bike_id": "2eda8af5083bb08bbd6f92741a80b5a3", "is_disabled": 0, "is_reserved": 0}, {"rental_uris": {"ios": "https://dc.lft.to/lastmile_qr_scan", "android": "https://dc.lft.to/lastmile_qr_scan"}, "lon": -77.0086715, "type": "electric_scooter", "fusion_lat": 0.0, "lat": 38.90511816666667, "name": "a50321c39a04930ba90f656eeb6f4c28", "fusion_lon": 0.0, "bike_id": "a50321c39a04930ba90f656eeb6f4c28", "is_disabled": 0, "is_reserved": 0}, {"rental_uris": {"ios": "https://dc.lft.to/lastmile_qr_scan", "android": "https://dc.lft.to/lastmile_qr_scan"}, "lon": -77.0164115, "type": "electric_scooter", "fusion_lat": 0.0, "lat": 38.9293425, "name": "29632d9889c12466bc88493d0c0d8c8a", "fusion_lon": 0.0, "bike_id": "29632d9889c12466bc88493d0c0d8c8a", "is_disabled": 0, "is_reserved": 0}, {"rental_uris": {"ios": "https://dc.lft.to/lastmile_qr_scan", "android": "https://dc.lft.to/lastmile_qr_scan"}, "lon": -77.009179, "type": "electric_scooter", "fusion_lat": 0.0, "lat": 38.909334333333334, "name": "1be56db5351e86753ab69df8b6bef4cb", "fusion_lon": 0.0, "bike_id": "1be56db5351e86753ab69df8b6bef4cb", "is_disabled": 0, "is_reserved": 0}, {"rental_uris": {"ios": "https://dc.lft.to/lastmile_qr_scan", "android": "https://dc.lft.to/lastmile_qr_scan"}, "lon": -77.038367, "type": "electric_scooter", "fusion_lat": 0.0, "lat": 38.907529, "name": "9b5c2b707a6311594f76fcffc46bf480", "fusion_lon": 0.0, "bike_id": "9b5c2b707a6311594f76fcffc46bf480", "is_disabled": 0, "is_reserved": 0}, {"rental_uris": {"ios": "https://dc.lft.to/lastmile_qr_scan", "android": "https://dc.lft.to/lastmile_qr_scan"}, "lon": -77.03262966666667, "type": "electric_scooter", "fusion_lat": 0.0, "lat": 38.91623333333333, "name": "000d471ebbe918e76c4fb6914b522602", "fusion_lon": 0.0, "bike_id": "000d471ebbe918e76c4fb6914b522602", "is_disabled": 0, "is_reserved": 0}, {"rental_uris": {"ios": "https://dc.lft.to/lastmile_qr_scan", "android": "https://dc.lft.to/lastmile_qr_scan"}, "lon": -77.04033066666666, "type": "electric_scooter", "fusion_lat": 0.0, "lat": 38.9243285, "name": "73e0d2d56b917747f7fa429400808caf", "fusion_lon": 0.0, "bike_id": "73e0d2d56b917747f7fa429400808caf", "is_disabled": 0, "is_reserved": 0}, {"rental_uris": {"ios": "https://dc.lft.to/lastmile_qr_scan", "android": "https://dc.lft.to/lastmile_qr_scan"}, "lon": -77.02935033333333, "type": "electric_scooter", "fusion_lat": 0.0, "lat": 38.93325466666667, "name": "7873001d14d7dd89a001ea4fbe433657", "fusion_lon": 0.0, "bike_id": "7873001d14d7dd89a001ea4fbe433657", "is_disabled": 0, "is_reserved": 0}, {"rental_uris": {"ios": "https://dc.lft.to/lastmile_qr_scan", "android": "https://dc.lft.to/lastmile_qr_scan"}, "lon": -76.9490945, "type": "electric_scooter", "fusion_lat": 0.0, "lat": 38.895647833333335, "name": "5535e64a90e5901343fcfaf17c28c97e", "fusion_lon": 0.0, "bike_id": "5535e64a90e5901343fcfaf17c28c97e", "is_disabled": 0, "is_reserved": 0}, {"rental_uris": {"ios": "https://dc.lft.to/lastmile_qr_scan", "android": "https://dc.lft.to/lastmile_qr_scan"}, "lon": -77.10331733333334, "type": "electric_bike", "fusion_lat": 0.0, "lat": 38.96513066666667, "name": "f2f9736b9c161db254af7e371ca94505", "fusion_lon": 0.0, "bike_id": "f2f9736b9c161db254af7e371ca94505", "is_disabled": 0, "is_reserved": 0}, {"rental_uris": {"ios": "https://dc.lft.to/lastmile_qr_scan", "android": "https://dc.lft.to/lastmile_qr_scan"}, "lon": -76.95186466666667, "type": "electric_scooter", "fusion_lat": 0.0, "lat": 38.89138366666667, "name": "dbfe50565045dc32e70a56eac84d3deb", "fusion_lon": 0.0, "bike_id": "dbfe50565045dc32e70a56eac84d3deb", "is_disabled": 0, "is_reserved": 0}, {"rental_uris": {"ios": "https://dc.lft.to/lastmile_qr_scan", "android": "https://dc.lft.to/lastmile_qr_scan"}, "lon": -77.0174345, "type": "electric_scooter", "fusion_lat": 0.0, "lat": 38.90575183333333, "name": "1e8684c7f5788b4e60e633cbabef3bc3", "fusion_lon": 0.0, "bike_id": "1e8684c7f5788b4e60e633cbabef3bc3", "is_disabled": 0, "is_reserved": 0}, {"rental_uris": {"ios": "https://dc.lft.to/lastmile_qr_scan", "android": "https://dc.lft.to/lastmile_qr_scan"}, "lon": -77.033035, "type": "electric_scooter", "fusion_lat": 0.0, "lat": 38.90151683333333, "name": "f1b858f31114c230d50483bcb356c714", "fusion_lon": 0.0, "bike_id": "f1b858f31114c230d50483bcb356c714", "is_disabled": 0, "is_reserved": 0}, {"rental_uris": {"ios": "https://dc.lft.to/lastmile_qr_scan", "android": "https://dc.lft.to/lastmile_qr_scan"}, "lon": -77.03483766666666, "type": "electric_scooter", "fusion_lat": 0.0, "lat": 38.917146333333335, "name": "e7d2062d5850a73352492c7e5499e1ff", "fusion_lon": 0.0, "bike_id": "e7d2062d5850a73352492c7e5499e1ff", "is_disabled": 0, "is_reserved": 0}, {"rental_uris": {"ios": "https://dc.lft.to/lastmile_qr_scan", "android": "https://dc.lft.to/lastmile_qr_scan"}, "lon": -77.06373316666667, "type": "electric_scooter", "fusion_lat": 0.0, "lat": 38.905147666666664, "name": "bc17276f4ecfeb9e9917ef29cda2fd9e", "fusion_lon": 0.0, "bike_id": "bc17276f4ecfeb9e9917ef29cda2fd9e", "is_disabled": 0, "is_reserved": 0}, {"rental_uris": {"ios": "https://dc.lft.to/lastmile_qr_scan", "android": "https://dc.lft.to/lastmile_qr_scan"}, "lon": -77.036156, "type": "electric_scooter", "fusion_lat": 0.0, "lat": 38.937447666666664, "name": "0f95403085c461da10e3953ae10d997a", "fusion_lon": 0.0, "bike_id": "0f95403085c461da10e3953ae10d997a", "is_disabled": 0, "is_reserved": 0}, {"rental_uris": {"ios": "https://dc.lft.to/lastmile_qr_scan", "android": "https://dc.lft.to/lastmile_qr_scan"}, "lon": -77.0026, "type": "electric_bike", "fusion_lat": 0.0, "lat": 38.9118415, "name": "3d5dbc3022b9ed0ea09abc6df132cbd6", "fusion_lon": 0.0, "bike_id": "3d5dbc3022b9ed0ea09abc6df132cbd6", "is_disabled": 0, "is_reserved": 0}, {"rental_uris": {"ios": "https://dc.lft.to/lastmile_qr_scan", "android": "https://dc.lft.to/lastmile_qr_scan"}, "lon": -77.0044995, "type": "electric_scooter", "fusion_lat": 0.0, "lat": 38.9118495, "name": "03059bf199f9c70fceb202f1aa228a47", "fusion_lon": 0.0, "bike_id": "03059bf199f9c70fceb202f1aa228a47", "is_disabled": 0, "is_reserved": 0}, {"rental_uris": {"ios": "https://dc.lft.to/lastmile_qr_scan", "android": "https://dc.lft.to/lastmile_qr_scan"}, "lon": -77.018606, "type": "electric_scooter", "fusion_lat": 0.0, "lat": 38.8926235, "name": "f2546bbf2d4706c7282cb83dccc35325", "fusion_lon": 0.0, "bike_id": "f2546bbf2d4706c7282cb83dccc35325", "is_disabled": 0, "is_reserved": 0}, {"rental_uris": {"ios": "https://dc.lft.to/lastmile_qr_scan", "android": "https://dc.lft.to/lastmile_qr_scan"}, "lon": -77.1829695, "type": "electric_bike", "fusion_lat": 0.0, "lat": 38.883479333333334, "name": "d8fbf5c5b5a69573f57674768fc21f05", "fusion_lon": 0.0, "bike_id": "d8fbf5c5b5a69573f57674768fc21f05", "is_disabled": 0, "is_reserved": 0}, {"rental_uris": {"ios": "https://dc.lft.to/lastmile_qr_scan", "android": "https://dc.lft.to/lastmile_qr_scan"}, "lon": -77.0254695, "type": "electric_scooter", "fusion_lat": 0.0, "lat": 38.89228883333333, "name": "ff2fbd4ccdfd9762675a239ec46c9999", "fusion_lon": 0.0, "bike_id": "ff2fbd4ccdfd9762675a239ec46c9999", "is_disabled": 0, "is_reserved": 0}, {"rental_uris": {"ios": "https://dc.lft.to/lastmile_qr_scan", "android": "https://dc.lft.to/lastmile_qr_scan"}, "lon": -77.048532, "type": "electric_scooter", "fusion_lat": 0.0, "lat": 38.919684333333336, "name": "da82088b6dadec51bb8c18afa1a14f10", "fusion_lon": 0.0, "bike_id": "da82088b6dadec51bb8c18afa1a14f10", "is_disabled": 0, "is_reserved": 0}, {"rental_uris": {"ios": "https://dc.lft.to/lastmile_qr_scan", "android": "https://dc.lft.to/lastmile_qr_scan"}, "lon": -77.00656283333333, "type": "electric_scooter", "fusion_lat": 0.0, "lat": 38.90562716666667, "name": "40fe37f7254fcb55eade09f84c998a13", "fusion_lon": 0.0, "bike_id": "40fe37f7254fcb55eade09f84c998a13", "is_disabled": 0, "is_reserved": 0}, {"rental_uris": {"ios": "https://dc.lft.to/lastmile_qr_scan", "android": "https://dc.lft.to/lastmile_qr_scan"}, "lon": -77.0384585, "type": "electric_scooter", "fusion_lat": 0.0, "lat": 38.90801783333333, "name": "816ced1b4cfe417c3c4ed7c859bc62a8", "fusion_lon": 0.0, "bike_id": "816ced1b4cfe417c3c4ed7c859bc62a8", "is_disabled": 0, "is_reserved": 0}, {"rental_uris": {"ios": "https://dc.lft.to/lastmile_qr_scan", "android": "https://dc.lft.to/lastmile_qr_scan"}, "lon": -76.978212, "type": "electric_scooter", "fusion_lat": 0.0, "lat": 38.8953255, "name": "7fcd6033560b256b6791e44250c9f73e", "fusion_lon": 0.0, "bike_id": "7fcd6033560b256b6791e44250c9f73e", "is_disabled": 0, "is_reserved": 0}, {"rental_uris": {"ios": "https://dc.lft.to/lastmile_qr_scan", "android": "https://dc.lft.to/lastmile_qr_scan"}, "lon": -76.990185, "type": "electric_scooter", "fusion_lat": 0.0, "lat": 38.8587115, "name": "fc00b134c952e39401ea7c9509a9ac66", "fusion_lon": 0.0, "bike_id": "fc00b134c952e39401ea7c9509a9ac66", "is_disabled": 0, "is_reserved": 0}, {"rental_uris": {"ios": "https://dc.lft.to/lastmile_qr_scan", "android": "https://dc.lft.to/lastmile_qr_scan"}, "lon": -77.03963583333334, "type": "electric_scooter", "fusion_lat": 0.0, "lat": 38.9002875, "name": "bdd5fde3392287ac1171edc23508f441", "fusion_lon": 0.0, "bike_id": "bdd5fde3392287ac1171edc23508f441", "is_disabled": 0, "is_reserved": 0}, {"rental_uris": {"ios": "https://dc.lft.to/lastmile_qr_scan", "android": "https://dc.lft.to/lastmile_qr_scan"}, "lon": -77.0335045, "type": "electric_scooter", "fusion_lat": 0.0, "lat": 38.88508083333333, "name": "0024b2b4cedfab24ac69aeef42010b97", "fusion_lon": 0.0, "bike_id": "0024b2b4cedfab24ac69aeef42010b97", "is_disabled": 0, "is_reserved": 0}, {"rental_uris": {"ios": "https://dc.lft.to/lastmile_qr_scan", "android": "https://dc.lft.to/lastmile_qr_scan"}, "lon": -77.021792, "type": "electric_scooter", "fusion_lat": 0.0, "lat": 38.916881833333335, "name": "020f19400a5a8a7d3267ccab40bf896c", "fusion_lon": 0.0, "bike_id": "020f19400a5a8a7d3267ccab40bf896c", "is_disabled": 0, "is_reserved": 0}, {"rental_uris": {"ios": "https://dc.lft.to/lastmile_qr_scan", "android": "https://dc.lft.to/lastmile_qr_scan"}, "lon": -77.03464883333334, "type": "electric_scooter", "fusion_lat": 0.0, "lat": 38.934552333333336, "name": "ca8b0f8350aedf80a3be7491e17c8814", "fusion_lon": 0.0, "bike_id": "ca8b0f8350aedf80a3be7491e17c8814", "is_disabled": 0, "is_reserved": 0}, {"rental_uris": {"ios": "https://dc.lft.to/lastmile_qr_scan", "android": "https://dc.lft.to/lastmile_qr_scan"}, "lon": -77.02178983333333, "type": "electric_scooter", "fusion_lat": 0.0, "lat": 38.915748666666666, "name": "863f058af8c800b9af2c128c564e8583", "fusion_lon": 0.0, "bike_id": "863f058af8c800b9af2c128c564e8583", "is_disabled": 0, "is_reserved": 0}, {"rental_uris": {"ios": "https://dc.lft.to/lastmile_qr_scan", "android": "https://dc.lft.to/lastmile_qr_scan"}, "lon": -77.02625816666666, "type": "electric_bike", "fusion_lat": 0.0, "lat": 38.96225316666667, "name": "664562f922681cca8695d29e4a95a7a8", "fusion_lon": 0.0, "bike_id": "664562f922681cca8695d29e4a95a7a8", "is_disabled": 0, "is_reserved": 0}, {"rental_uris": {"ios": "https://dc.lft.to/lastmile_qr_scan", "android": "https://dc.lft.to/lastmile_qr_scan"}, "lon": -77.01491633333333, "type": "electric_scooter", "fusion_lat": 0.0, "lat": 38.9177555, "name": "2744c209b5e4ced70d8dc8b0f9e5cd3a", "fusion_lon": 0.0, "bike_id": "2744c209b5e4ced70d8dc8b0f9e5cd3a", "is_disabled": 0, "is_reserved": 0}, {"rental_uris": {"ios": "https://dc.lft.to/lastmile_qr_scan", "android": "https://dc.lft.to/lastmile_qr_scan"}, "lon": -77.04100833333334, "type": "electric_scooter", "fusion_lat": 0.0, "lat": 38.91857866666667, "name": "9a7d444d6d45bcb936d922920b435f51", "fusion_lon": 0.0, "bike_id": "9a7d444d6d45bcb936d922920b435f51", "is_disabled": 0, "is_reserved": 0}, {"rental_uris": {"ios": "https://dc.lft.to/lastmile_qr_scan", "android": "https://dc.lft.to/lastmile_qr_scan"}, "lon": -77.00724983333333, "type": "electric_scooter", "fusion_lat": 0.0, "lat": 38.88494333333333, "name": "924d553e6278082184580d38072fa91a", "fusion_lon": 0.0, "bike_id": "924d553e6278082184580d38072fa91a", "is_disabled": 0, "is_reserved": 0}, {"rental_uris": {"ios": "https://dc.lft.to/lastmile_qr_scan", "android": "https://dc.lft.to/lastmile_qr_scan"}, "lon": -77.0345065, "type": "electric_scooter", "fusion_lat": 0.0, "lat": 38.90273883333333, "name": "55d84ef6e24d6cd400ffae9c8e595c17", "fusion_lon": 0.0, "bike_id": "55d84ef6e24d6cd400ffae9c8e595c17", "is_disabled": 0, "is_reserved": 0}, {"rental_uris": {"ios": "https://dc.lft.to/lastmile_qr_scan", "android": "https://dc.lft.to/lastmile_qr_scan"}, "lon": -77.00657633333333, "type": "electric_scooter", "fusion_lat": 0.0, "lat": 38.90574933333333, "name": "ec660bd35e87f837ed9db3f7747b220e", "fusion_lon": 0.0, "bike_id": "ec660bd35e87f837ed9db3f7747b220e", "is_disabled": 0, "is_reserved": 0}, {"rental_uris": {"ios": "https://dc.lft.to/lastmile_qr_scan", "android": "https://dc.lft.to/lastmile_qr_scan"}, "lon": -77.03453283333333, "type": "electric_scooter", "fusion_lat": 0.0, "lat": 38.945713833333336, "name": "f7240bad8b81a9b0dbec4a13df96924d", "fusion_lon": 0.0, "bike_id": "f7240bad8b81a9b0dbec4a13df96924d", "is_disabled": 0, "is_reserved": 0}, {"rental_uris": {"ios": "https://dc.lft.to/lastmile_qr_scan", "android": "https://dc.lft.to/lastmile_qr_scan"}, "lon": -77.178452, "type": "electric_bike", "fusion_lat": 0.0, "lat": 39.08902416666667, "name": "49124c945c47a9c12d0673ab2a842eb3", "fusion_lon": 0.0, "bike_id": "49124c945c47a9c12d0673ab2a842eb3", "is_disabled": 0, "is_reserved": 0}, {"rental_uris": {"ios": "https://dc.lft.to/lastmile_qr_scan", "android": "https://dc.lft.to/lastmile_qr_scan"}, "lon": -77.0423835, "type": "electric_scooter", "fusion_lat": 0.0, "lat": 38.907214333333336, "name": "60131ee30d3570cdaf9b222bfba12827", "fusion_lon": 0.0, "bike_id": "60131ee30d3570cdaf9b222bfba12827", "is_disabled": 0, "is_reserved": 0}, {"rental_uris": {"ios": "https://dc.lft.to/lastmile_qr_scan", "android": "https://dc.lft.to/lastmile_qr_scan"}, "lon": -77.044228, "type": "electric_scooter", "fusion_lat": 0.0, "lat": 38.89227, "name": "2768e20d6f51516777be8d6d3b1a888e", "fusion_lon": 0.0, "bike_id": "2768e20d6f51516777be8d6d3b1a888e", "is_disabled": 0, "is_reserved": 0}, {"rental_uris": {"ios": "https://dc.lft.to/lastmile_qr_scan", "android": "https://dc.lft.to/lastmile_qr_scan"}, "lon": -77.08541016666666, "type": "electric_bike", "fusion_lat": 0.0, "lat": 38.856242333333334, "name": "47860188f2ff7e5466666e612f2102c9", "fusion_lon": 0.0, "bike_id": "47860188f2ff7e5466666e612f2102c9", "is_disabled": 0, "is_reserved": 0}, {"rental_uris": {"ios": "https://dc.lft.to/lastmile_qr_scan", "android": "https://dc.lft.to/lastmile_qr_scan"}, "lon": -77.04566966666667, "type": "electric_scooter", "fusion_lat": 0.0, "lat": 38.910528, "name": "c1343d5395bbf60055c8138b0a79713f", "fusion_lon": 0.0, "bike_id": "c1343d5395bbf60055c8138b0a79713f", "is_disabled": 0, "is_reserved": 0}, {"rental_uris": {"ios": "https://dc.lft.to/lastmile_qr_scan", "android": "https://dc.lft.to/lastmile_qr_scan"}, "lon": -77.018518, "type": "electric_scooter", "fusion_lat": 0.0, "lat": 38.939999666666665, "name": "d12e8b77f15c0763c29ded060c17413c", "fusion_lon": 0.0, "bike_id": "d12e8b77f15c0763c29ded060c17413c", "is_disabled": 0, "is_reserved": 0}, {"rental_uris": {"ios": "https://dc.lft.to/lastmile_qr_scan", "android": "https://dc.lft.to/lastmile_qr_scan"}, "lon": -77.02403516666666, "type": "electric_scooter", "fusion_lat": 0.0, "lat": 38.91107183333333, "name": "669f449b20324ef8bf50dde859708d7a", "fusion_lon": 0.0, "bike_id": "669f449b20324ef8bf50dde859708d7a", "is_disabled": 0, "is_reserved": 0}, {"rental_uris": {"ios": "https://dc.lft.to/lastmile_qr_scan", "android": "https://dc.lft.to/lastmile_qr_scan"}, "lon": -77.03187783333334, "type": "electric_scooter", "fusion_lat": 0.0, "lat": 38.9179865, "name": "851aa9a3a5824e919a8e08b294eb8a6c", "fusion_lon": 0.0, "bike_id": "851aa9a3a5824e919a8e08b294eb8a6c", "is_disabled": 0, "is_reserved": 0}, {"rental_uris": {"ios": "https://dc.lft.to/lastmile_qr_scan", "android": "https://dc.lft.to/lastmile_qr_scan"}, "lon": -77.02539666666667, "type": "electric_scooter", "fusion_lat": 0.0, "lat": 38.9274225, "name": "f45e8eae9754b4f913c5f42bb863fd6f", "fusion_lon": 0.0, "bike_id": "f45e8eae9754b4f913c5f42bb863fd6f", "is_disabled": 0, "is_reserved": 0}, {"rental_uris": {"ios": "https://dc.lft.to/lastmile_qr_scan", "android": "https://dc.lft.to/lastmile_qr_scan"}, "lon": -77.03879333333333, "type": "electric_scooter", "fusion_lat": 0.0, "lat": 38.932421166666664, "name": "ba967f069b359492d67894229d7484a9", "fusion_lon": 0.0, "bike_id": "ba967f069b359492d67894229d7484a9", "is_disabled": 0, "is_reserved": 0}, {"rental_uris": {"ios": "https://dc.lft.to/lastmile_qr_scan", "android": "https://dc.lft.to/lastmile_qr_scan"}, "lon": -77.03822633333333, "type": "electric_scooter", "fusion_lat": 0.0, "lat": 38.907773666666664, "name": "cf4e0b6c53c7fa3b290060c5c0ba708e", "fusion_lon": 0.0, "bike_id": "cf4e0b6c53c7fa3b290060c5c0ba708e", "is_disabled": 0, "is_reserved": 0}, {"rental_uris": {"ios": "https://dc.lft.to/lastmile_qr_scan", "android": "https://dc.lft.to/lastmile_qr_scan"}, "lon": -77.02834233333333, "type": "electric_scooter", "fusion_lat": 0.0, "lat": 38.887714833333334, "name": "6a35e9891a746128d85d44dfda7ab498", "fusion_lon": 0.0, "bike_id": "6a35e9891a746128d85d44dfda7ab498", "is_disabled": 0, "is_reserved": 0}, {"rental_uris": {"ios": "https://dc.lft.to/lastmile_qr_scan", "android": "https://dc.lft.to/lastmile_qr_scan"}, "lon": -77.01282916666666, "type": "electric_scooter", "fusion_lat": 0.0, "lat": 38.90043816666667, "name": "c7b429be76088b04361914efebe8e52d", "fusion_lon": 0.0, "bike_id": "c7b429be76088b04361914efebe8e52d", "is_disabled": 0, "is_reserved": 0}, {"rental_uris": {"ios": "https://dc.lft.to/lastmile_qr_scan", "android": "https://dc.lft.to/lastmile_qr_scan"}, "lon": -77.02198516666667, "type": "electric_scooter", "fusion_lat": 0.0, "lat": 38.91552033333333, "name": "3493b3b892ad9a57cb238c0d7772bce7", "fusion_lon": 0.0, "bike_id": "3493b3b892ad9a57cb238c0d7772bce7", "is_disabled": 0, "is_reserved": 0}, {"rental_uris": {"ios": "https://dc.lft.to/lastmile_qr_scan", "android": "https://dc.lft.to/lastmile_qr_scan"}, "lon": -77.038956, "type": "electric_scooter", "fusion_lat": 0.0, "lat": 38.922274333333334, "name": "ede0f3b194579e55fe7690156d266130", "fusion_lon": 0.0, "bike_id": "ede0f3b194579e55fe7690156d266130", "is_disabled": 0, "is_reserved": 0}, {"rental_uris": {"ios": "https://dc.lft.to/lastmile_qr_scan", "android": "https://dc.lft.to/lastmile_qr_scan"}, "lon": -77.03211766666666, "type": "electric_scooter", "fusion_lat": 0.0, "lat": 38.917600666666665, "name": "f2ae996d475e690a7d43d82c7a7faf72", "fusion_lon": 0.0, "bike_id": "f2ae996d475e690a7d43d82c7a7faf72", "is_disabled": 0, "is_reserved": 0}, {"rental_uris": {"ios": "https://dc.lft.to/lastmile_qr_scan", "android": "https://dc.lft.to/lastmile_qr_scan"}, "lon": -77.03034466666666, "type": "electric_scooter", "fusion_lat": 0.0, "lat": 38.9168835, "name": "e6512b84d6ebebd64a818a1f95eb55d4", "fusion_lon": 0.0, "bike_id": "e6512b84d6ebebd64a818a1f95eb55d4", "is_disabled": 0, "is_reserved": 0}, {"rental_uris": {"ios": "https://dc.lft.to/lastmile_qr_scan", "android": "https://dc.lft.to/lastmile_qr_scan"}, "lon": -76.99929733333333, "type": "electric_scooter", "fusion_lat": 0.0, "lat": 38.896223666666664, "name": "fc45d479915753ca83cbfb3b3c0ebe36", "fusion_lon": 0.0, "bike_id": "fc45d479915753ca83cbfb3b3c0ebe36", "is_disabled": 0, "is_reserved": 0}, {"rental_uris": {"ios": "https://dc.lft.to/lastmile_qr_scan", "android": "https://dc.lft.to/lastmile_qr_scan"}, "lon": -77.0169795, "type": "electric_scooter", "fusion_lat": 0.0, "lat": 38.920199833333335, "name": "90accfba5cc36b7959d906f4853ea207", "fusion_lon": 0.0, "bike_id": "90accfba5cc36b7959d906f4853ea207", "is_disabled": 0, "is_reserved": 0}, {"rental_uris": {"ios": "https://dc.lft.to/lastmile_qr_scan", "android": "https://dc.lft.to/lastmile_qr_scan"}, "lon": -77.03606866666667, "type": "electric_scooter", "fusion_lat": 0.0, "lat": 38.90262833333333, "name": "a42c053748cd6f1a85cab3fd6c36bdc8", "fusion_lon": 0.0, "bike_id": "a42c053748cd6f1a85cab3fd6c36bdc8", "is_disabled": 0, "is_reserved": 0}, {"rental_uris": {"ios": "https://dc.lft.to/lastmile_qr_scan", "android": "https://dc.lft.to/lastmile_qr_scan"}, "lon": -77.02351116666667, "type": "electric_scooter", "fusion_lat": 0.0, "lat": 38.922812, "name": "2b18d09291bb4c8c9fb272a2a86b7973", "fusion_lon": 0.0, "bike_id": "2b18d09291bb4c8c9fb272a2a86b7973", "is_disabled": 0, "is_reserved": 0}, {"rental_uris": {"ios": "https://dc.lft.to/lastmile_qr_scan", "android": "https://dc.lft.to/lastmile_qr_scan"}, "lon": -77.06782633333333, "type": "electric_scooter", "fusion_lat": 0.0, "lat": 38.952147833333335, "name": "43fa578554f7a87d010f41381a67be58", "fusion_lon": 0.0, "bike_id": "43fa578554f7a87d010f41381a67be58", "is_disabled": 0, "is_reserved": 0}, {"rental_uris": {"ios": "https://dc.lft.to/lastmile_qr_scan", "android": "https://dc.lft.to/lastmile_qr_scan"}, "lon": -77.00209183333334, "type": "electric_scooter", "fusion_lat": 0.0, "lat": 38.90217966666667, "name": "3918079d3e4a5d54c3022a4c60187793", "fusion_lon": 0.0, "bike_id": "3918079d3e4a5d54c3022a4c60187793", "is_disabled": 0, "is_reserved": 0}, {"rental_uris": {"ios": "https://dc.lft.to/lastmile_qr_scan", "android": "https://dc.lft.to/lastmile_qr_scan"}, "lon": -77.03211233333333, "type": "electric_scooter", "fusion_lat": 0.0, "lat": 38.9135725, "name": "78e2042fa9be96b824641f08f9312b45", "fusion_lon": 0.0, "bike_id": "78e2042fa9be96b824641f08f9312b45", "is_disabled": 0, "is_reserved": 0}, {"rental_uris": {"ios": "https://dc.lft.to/lastmile_qr_scan", "android": "https://dc.lft.to/lastmile_qr_scan"}, "lon": -77.03212783333333, "type": "electric_scooter", "fusion_lat": 0.0, "lat": 38.91193283333333, "name": "6ef973f356f7c94aabbef3eeab7bc9a3", "fusion_lon": 0.0, "bike_id": "6ef973f356f7c94aabbef3eeab7bc9a3", "is_disabled": 0, "is_reserved": 0}, {"rental_uris": {"ios": "https://dc.lft.to/lastmile_qr_scan", "android": "https://dc.lft.to/lastmile_qr_scan"}, "lon": -77.03186216666667, "type": "electric_scooter", "fusion_lat": 0.0, "lat": 38.915711333333334, "name": "1acde480000c545155619b76d4f2dd81", "fusion_lon": 0.0, "bike_id": "1acde480000c545155619b76d4f2dd81", "is_disabled": 0, "is_reserved": 0}, {"rental_uris": {"ios": "https://dc.lft.to/lastmile_qr_scan", "android": "https://dc.lft.to/lastmile_qr_scan"}, "lon": -77.03486766666667, "type": "electric_scooter", "fusion_lat": 0.0, "lat": 38.91710416666667, "name": "186c7529277fa8f0807efac79e074ce6", "fusion_lon": 0.0, "bike_id": "186c7529277fa8f0807efac79e074ce6", "is_disabled": 0, "is_reserved": 0}, {"rental_uris": {"ios": "https://dc.lft.to/lastmile_qr_scan", "android": "https://dc.lft.to/lastmile_qr_scan"}, "lon": -77.03265566666667, "type": "electric_scooter", "fusion_lat": 0.0, "lat": 38.9324175, "name": "9f59fc5c3b9b3197e3bccadf7934921f", "fusion_lon": 0.0, "bike_id": "9f59fc5c3b9b3197e3bccadf7934921f", "is_disabled": 0, "is_reserved": 0}, {"rental_uris": {"ios": "https://dc.lft.to/lastmile_qr_scan", "android": "https://dc.lft.to/lastmile_qr_scan"}, "lon": -77.0073805, "type": "electric_scooter", "fusion_lat": 0.0, "lat": 38.95528916666667, "name": "869094cc59f097842741afd5c4d2e848", "fusion_lon": 0.0, "bike_id": "869094cc59f097842741afd5c4d2e848", "is_disabled": 0, "is_reserved": 0}, {"rental_uris": {"ios": "https://dc.lft.to/lastmile_qr_scan", "android": "https://dc.lft.to/lastmile_qr_scan"}, "lon": -77.03223566666666, "type": "electric_scooter", "fusion_lat": 0.0, "lat": 38.91629616666667, "name": "6f215602a900103abe79b18b447463d6", "fusion_lon": 0.0, "bike_id": "6f215602a900103abe79b18b447463d6", "is_disabled": 0, "is_reserved": 0}, {"rental_uris": {"ios": "https://dc.lft.to/lastmile_qr_scan", "android": "https://dc.lft.to/lastmile_qr_scan"}, "lon": -77.007993, "type": "electric_bike", "fusion_lat": 0.0, "lat": 38.949277, "name": "7cb8f5c5378fe21f6f8a4fcfeb2e6d7a", "fusion_lon": 0.0, "bike_id": "7cb8f5c5378fe21f6f8a4fcfeb2e6d7a", "is_disabled": 0, "is_reserved": 0}, {"rental_uris": {"ios": "https://dc.lft.to/lastmile_qr_scan", "android": "https://dc.lft.to/lastmile_qr_scan"}, "lon": -77.05905083333333, "type": "electric_bike", "fusion_lat": 0.0, "lat": 38.90453933333333, "name": "498964150e083df44ae63e8ccc199157", "fusion_lon": 0.0, "bike_id": "498964150e083df44ae63e8ccc199157", "is_disabled": 0, "is_reserved": 0}, {"rental_uris": {"ios": "https://dc.lft.to/lastmile_qr_scan", "android": "https://dc.lft.to/lastmile_qr_scan"}, "lon": -77.02977433333334, "type": "electric_scooter", "fusion_lat": 0.0, "lat": 38.940492166666665, "name": "8ce19d05b6190b62896c373f89f33f86", "fusion_lon": 0.0, "bike_id": "8ce19d05b6190b62896c373f89f33f86", "is_disabled": 0, "is_reserved": 0}, {"rental_uris": {"ios": "https://dc.lft.to/lastmile_qr_scan", "android": "https://dc.lft.to/lastmile_qr_scan"}, "lon": -77.0067145, "type": "electric_scooter", "fusion_lat": 0.0, "lat": 38.87475933333333, "name": "34868dc3acc091f081a597ef7d32affc", "fusion_lon": 0.0, "bike_id": "34868dc3acc091f081a597ef7d32affc", "is_disabled": 0, "is_reserved": 0}, {"rental_uris": {"ios": "https://dc.lft.to/lastmile_qr_scan", "android": "https://dc.lft.to/lastmile_qr_scan"}, "lon": -77.02765083333334, "type": "electric_scooter", "fusion_lat": 0.0, "lat": 38.892021166666666, "name": "5452896a0dcc5b2c6d52f85fa447c03d", "fusion_lon": 0.0, "bike_id": "5452896a0dcc5b2c6d52f85fa447c03d", "is_disabled": 0, "is_reserved": 0}, {"rental_uris": {"ios": "https://dc.lft.to/lastmile_qr_scan", "android": "https://dc.lft.to/lastmile_qr_scan"}, "lon": -77.00042516666667, "type": "electric_scooter", "fusion_lat": 0.0, "lat": 38.873925166666666, "name": "8f0ffb035072e3ea2e2014d0d5c5c6a7", "fusion_lon": 0.0, "bike_id": "8f0ffb035072e3ea2e2014d0d5c5c6a7", "is_disabled": 0, "is_reserved": 0}, {"rental_uris": {"ios": "https://dc.lft.to/lastmile_qr_scan", "android": "https://dc.lft.to/lastmile_qr_scan"}, "lon": -77.03848233333333, "type": "electric_scooter", "fusion_lat": 0.0, "lat": 38.903711, "name": "8bbd2d87b60262aa077759169ecd5e3b", "fusion_lon": 0.0, "bike_id": "8bbd2d87b60262aa077759169ecd5e3b", "is_disabled": 0, "is_reserved": 0}, {"rental_uris": {"ios": "https://dc.lft.to/lastmile_qr_scan", "android": "https://dc.lft.to/lastmile_qr_scan"}, "lon": -77.1411975, "type": "electric_bike", "fusion_lat": 0.0, "lat": 38.8160495, "name": "f1554a35627342c6d60f2c267d4a9d87", "fusion_lon": 0.0, "bike_id": "f1554a35627342c6d60f2c267d4a9d87", "is_disabled": 0, "is_reserved": 0}, {"rental_uris": {"ios": "https://dc.lft.to/lastmile_qr_scan", "android": "https://dc.lft.to/lastmile_qr_scan"}, "lon": -77.03423583333333, "type": "electric_scooter", "fusion_lat": 0.0, "lat": 38.91490833333334, "name": "2086ce26f859d909c6766e7f0608a910", "fusion_lon": 0.0, "bike_id": "2086ce26f859d909c6766e7f0608a910", "is_disabled": 0, "is_reserved": 0}, {"rental_uris": {"ios": "https://dc.lft.to/lastmile_qr_scan", "android": "https://dc.lft.to/lastmile_qr_scan"}, "lon": -77.03426933333333, "type": "electric_scooter", "fusion_lat": 0.0, "lat": 38.905279, "name": "63f19000a9734ae54d1ef71e105e1f90", "fusion_lon": 0.0, "bike_id": "63f19000a9734ae54d1ef71e105e1f90", "is_disabled": 0, "is_reserved": 0}, {"rental_uris": {"ios": "https://dc.lft.to/lastmile_qr_scan", "android": "https://dc.lft.to/lastmile_qr_scan"}, "lon": -77.03237816666666, "type": "electric_scooter", "fusion_lat": 0.0, "lat": 38.914827833333334, "name": "94ecdab9529178573df59f64f87d280a", "fusion_lon": 0.0, "bike_id": "94ecdab9529178573df59f64f87d280a", "is_disabled": 0, "is_reserved": 0}, {"rental_uris": {"ios": "https://dc.lft.to/lastmile_qr_scan", "android": "https://dc.lft.to/lastmile_qr_scan"}, "lon": -76.99820633333333, "type": "electric_scooter", "fusion_lat": 0.0, "lat": 38.88878066666667, "name": "5f8b8482ca647df0bbd4829f6aae92f4", "fusion_lon": 0.0, "bike_id": "5f8b8482ca647df0bbd4829f6aae92f4", "is_disabled": 0, "is_reserved": 0}, {"rental_uris": {"ios": "https://dc.lft.to/lastmile_qr_scan", "android": "https://dc.lft.to/lastmile_qr_scan"}, "lon": -77.0162085, "type": "electric_scooter", "fusion_lat": 0.0, "lat": 38.90718833333333, "name": "fffa78fe54b45a4e627e9b6d416998cc", "fusion_lon": 0.0, "bike_id": "fffa78fe54b45a4e627e9b6d416998cc", "is_disabled": 0, "is_reserved": 0}, {"rental_uris": {"ios": "https://dc.lft.to/lastmile_qr_scan", "android": "https://dc.lft.to/lastmile_qr_scan"}, "lon": -77.04136116666666, "type": "electric_scooter", "fusion_lat": 0.0, "lat": 38.92164833333333, "name": "4f7e5cc58d283621016337b30fa0531b", "fusion_lon": 0.0, "bike_id": "4f7e5cc58d283621016337b30fa0531b", "is_disabled": 0, "is_reserved": 0}, {"rental_uris": {"ios": "https://dc.lft.to/lastmile_qr_scan", "android": "https://dc.lft.to/lastmile_qr_scan"}, "lon": -77.04343483333334, "type": "electric_scooter", "fusion_lat": 0.0, "lat": 38.896487, "name": "0999974e21713b006fc4d72a0218921d", "fusion_lon": 0.0, "bike_id": "0999974e21713b006fc4d72a0218921d", "is_disabled": 0, "is_reserved": 0}, {"rental_uris": {"ios": "https://dc.lft.to/lastmile_qr_scan", "android": "https://dc.lft.to/lastmile_qr_scan"}, "lon": -77.026256, "type": "electric_scooter", "fusion_lat": 0.0, "lat": 38.88430833333334, "name": "d221e63b56048e0a456018ec1e829996", "fusion_lon": 0.0, "bike_id": "d221e63b56048e0a456018ec1e829996", "is_disabled": 0, "is_reserved": 0}, {"rental_uris": {"ios": "https://dc.lft.to/lastmile_qr_scan", "android": "https://dc.lft.to/lastmile_qr_scan"}, "lon": -77.01896233333333, "type": "electric_scooter", "fusion_lat": 0.0, "lat": 38.911938166666665, "name": "ff977750b95d1d1c8d8a768fbca65d75", "fusion_lon": 0.0, "bike_id": "ff977750b95d1d1c8d8a768fbca65d75", "is_disabled": 0, "is_reserved": 0}, {"rental_uris": {"ios": "https://dc.lft.to/lastmile_qr_scan", "android": "https://dc.lft.to/lastmile_qr_scan"}, "lon": -77.03206483333334, "type": "electric_scooter", "fusion_lat": 0.0, "lat": 38.91693733333334, "name": "0c5e7a24b1d760b040735e284a983206", "fusion_lon": 0.0, "bike_id": "0c5e7a24b1d760b040735e284a983206", "is_disabled": 0, "is_reserved": 0}, {"rental_uris": {"ios": "https://dc.lft.to/lastmile_qr_scan", "android": "https://dc.lft.to/lastmile_qr_scan"}, "lon": -77.006432, "type": "electric_scooter", "fusion_lat": 0.0, "lat": 38.905537833333334, "name": "93e037524681f5998963aba1e847466d", "fusion_lon": 0.0, "bike_id": "93e037524681f5998963aba1e847466d", "is_disabled": 0, "is_reserved": 0}, {"rental_uris": {"ios": "https://dc.lft.to/lastmile_qr_scan", "android": "https://dc.lft.to/lastmile_qr_scan"}, "lon": -76.99960316666667, "type": "electric_scooter", "fusion_lat": 0.0, "lat": 38.90921383333333, "name": "2bb6f3db623482812d752de3c2548fa1", "fusion_lon": 0.0, "bike_id": "2bb6f3db623482812d752de3c2548fa1", "is_disabled": 0, "is_reserved": 0}, {"rental_uris": {"ios": "https://dc.lft.to/lastmile_qr_scan", "android": "https://dc.lft.to/lastmile_qr_scan"}, "lon": -76.985112, "type": "electric_scooter", "fusion_lat": 0.0, "lat": 38.90611583333333, "name": "7d71d7e41c835b5b23702c319f7c9591", "fusion_lon": 0.0, "bike_id": "7d71d7e41c835b5b23702c319f7c9591", "is_disabled": 0, "is_reserved": 0}, {"rental_uris": {"ios": "https://dc.lft.to/lastmile_qr_scan", "android": "https://dc.lft.to/lastmile_qr_scan"}, "lon": -77.03554066666666, "type": "electric_bike", "fusion_lat": 0.0, "lat": 38.96469533333333, "name": "2f7a7035354de2045611d1496f93346a", "fusion_lon": 0.0, "bike_id": "2f7a7035354de2045611d1496f93346a", "is_disabled": 0, "is_reserved": 0}, {"rental_uris": {"ios": "https://dc.lft.to/lastmile_qr_scan", "android": "https://dc.lft.to/lastmile_qr_scan"}, "lon": -77.00629266666667, "type": "electric_scooter", "fusion_lat": 0.0, "lat": 38.87712066666667, "name": "f3dc71bcfaa75b53260f6f576b1b8e01", "fusion_lon": 0.0, "bike_id": "f3dc71bcfaa75b53260f6f576b1b8e01", "is_disabled": 0, "is_reserved": 0}, {"rental_uris": {"ios": "https://dc.lft.to/lastmile_qr_scan", "android": "https://dc.lft.to/lastmile_qr_scan"}, "lon": -77.03521, "type": "electric_scooter", "fusion_lat": 0.0, "lat": 38.9222705, "name": "290a5d9c5d730ec03db501fe382926af", "fusion_lon": 0.0, "bike_id": "290a5d9c5d730ec03db501fe382926af", "is_disabled": 0, "is_reserved": 0}, {"rental_uris": {"ios": "https://dc.lft.to/lastmile_qr_scan", "android": "https://dc.lft.to/lastmile_qr_scan"}, "lon": -77.03709933333333, "type": "electric_scooter", "fusion_lat": 0.0, "lat": 38.926395666666664, "name": "0a30e2b0fc21a2f9498a91cd02360e56", "fusion_lon": 0.0, "bike_id": "0a30e2b0fc21a2f9498a91cd02360e56", "is_disabled": 0, "is_reserved": 0}, {"rental_uris": {"ios": "https://dc.lft.to/lastmile_qr_scan", "android": "https://dc.lft.to/lastmile_qr_scan"}, "lon": -76.94854566666666, "type": "electric_scooter", "fusion_lat": 0.0, "lat": 38.88304133333333, "name": "3508c14182cb7a8ed1d682203e916497", "fusion_lon": 0.0, "bike_id": "3508c14182cb7a8ed1d682203e916497", "is_disabled": 0, "is_reserved": 0}, {"rental_uris": {"ios": "https://dc.lft.to/lastmile_qr_scan", "android": "https://dc.lft.to/lastmile_qr_scan"}, "lon": -77.038489, "type": "electric_scooter", "fusion_lat": 0.0, "lat": 38.908692, "name": "8de578e04b70f25a9e0bf4a583829f89", "fusion_lon": 0.0, "bike_id": "8de578e04b70f25a9e0bf4a583829f89", "is_disabled": 0, "is_reserved": 0}, {"rental_uris": {"ios": "https://dc.lft.to/lastmile_qr_scan", "android": "https://dc.lft.to/lastmile_qr_scan"}, "lon": -77.0415255, "type": "electric_scooter", "fusion_lat": 0.0, "lat": 38.9181065, "name": "03719daa032ea88e1afc32320909ddbf", "fusion_lon": 0.0, "bike_id": "03719daa032ea88e1afc32320909ddbf", "is_disabled": 0, "is_reserved": 0}, {"rental_uris": {"ios": "https://dc.lft.to/lastmile_qr_scan", "android": "https://dc.lft.to/lastmile_qr_scan"}, "lon": -77.00762316666666, "type": "electric_scooter", "fusion_lat": 0.0, "lat": 38.906579, "name": "d01dd367f4c7273184bbda62a58e4462", "fusion_lon": 0.0, "bike_id": "d01dd367f4c7273184bbda62a58e4462", "is_disabled": 0, "is_reserved": 0}, {"rental_uris": {"ios": "https://dc.lft.to/lastmile_qr_scan", "android": "https://dc.lft.to/lastmile_qr_scan"}, "lon": -77.02214616666667, "type": "electric_scooter", "fusion_lat": 0.0, "lat": 38.905764166666664, "name": "38a3ef9733fd615f2da4fcf2b29cce6e", "fusion_lon": 0.0, "bike_id": "38a3ef9733fd615f2da4fcf2b29cce6e", "is_disabled": 0, "is_reserved": 0}, {"rental_uris": {"ios": "https://dc.lft.to/lastmile_qr_scan", "android": "https://dc.lft.to/lastmile_qr_scan"}, "lon": -77.02526883333333, "type": "electric_scooter", "fusion_lat": 0.0, "lat": 38.924915666666664, "name": "d20df9f195649ebfd9d287e7bdd8583c", "fusion_lon": 0.0, "bike_id": "d20df9f195649ebfd9d287e7bdd8583c", "is_disabled": 0, "is_reserved": 0}, {"rental_uris": {"ios": "https://dc.lft.to/lastmile_qr_scan", "android": "https://dc.lft.to/lastmile_qr_scan"}, "lon": -77.01206333333333, "type": "electric_scooter", "fusion_lat": 0.0, "lat": 38.870918833333334, "name": "541b33e335ac8d3d1ed903f72fc9c0c2", "fusion_lon": 0.0, "bike_id": "541b33e335ac8d3d1ed903f72fc9c0c2", "is_disabled": 0, "is_reserved": 0}, {"rental_uris": {"ios": "https://dc.lft.to/lastmile_qr_scan", "android": "https://dc.lft.to/lastmile_qr_scan"}, "lon": -77.04208183333333, "type": "electric_scooter", "fusion_lat": 0.0, "lat": 38.905401499999996, "name": "98626c31f5f9738a40784589a7952550", "fusion_lon": 0.0, "bike_id": "98626c31f5f9738a40784589a7952550", "is_disabled": 0, "is_reserved": 0}, {"rental_uris": {"ios": "https://dc.lft.to/lastmile_qr_scan", "android": "https://dc.lft.to/lastmile_qr_scan"}, "lon": -77.04113016666666, "type": "electric_scooter", "fusion_lat": 0.0, "lat": 38.92448133333333, "name": "f7be6d3caff06e93a395de02df1446c5", "fusion_lon": 0.0, "bike_id": "f7be6d3caff06e93a395de02df1446c5", "is_disabled": 0, "is_reserved": 0}, {"rental_uris": {"ios": "https://dc.lft.to/lastmile_qr_scan", "android": "https://dc.lft.to/lastmile_qr_scan"}, "lon": -77.01944866666666, "type": "electric_scooter", "fusion_lat": 0.0, "lat": 38.90363333333333, "name": "895d8def47393a21f803735b9af5f4fa", "fusion_lon": 0.0, "bike_id": "895d8def47393a21f803735b9af5f4fa", "is_disabled": 0, "is_reserved": 0}, {"rental_uris": {"ios": "https://dc.lft.to/lastmile_qr_scan", "android": "https://dc.lft.to/lastmile_qr_scan"}, "lon": -77.07890383333333, "type": "electric_scooter", "fusion_lat": 0.0, "lat": 38.919198333333334, "name": "21f243ace971b652e12868714dcde6f5", "fusion_lon": 0.0, "bike_id": "21f243ace971b652e12868714dcde6f5", "is_disabled": 0, "is_reserved": 0}, {"rental_uris": {"ios": "https://dc.lft.to/lastmile_qr_scan", "android": "https://dc.lft.to/lastmile_qr_scan"}, "lon": -77.0344905, "type": "electric_scooter", "fusion_lat": 0.0, "lat": 38.909553833333334, "name": "6713c993fec4967e83f9ed200d502c08", "fusion_lon": 0.0, "bike_id": "6713c993fec4967e83f9ed200d502c08", "is_disabled": 0, "is_reserved": 0}, {"rental_uris": {"ios": "https://dc.lft.to/lastmile_qr_scan", "android": "https://dc.lft.to/lastmile_qr_scan"}, "lon": -77.032623, "type": "electric_scooter", "fusion_lat": 0.0, "lat": 38.927445166666665, "name": "d869e622744bf06b92d24776bd81fbbc", "fusion_lon": 0.0, "bike_id": "d869e622744bf06b92d24776bd81fbbc", "is_disabled": 0, "is_reserved": 0}, {"rental_uris": {"ios": "https://dc.lft.to/lastmile_qr_scan", "android": "https://dc.lft.to/lastmile_qr_scan"}, "lon": -77.0341795, "type": "electric_scooter", "fusion_lat": 0.0, "lat": 38.9034475, "name": "634706d89c6faa8ba448191a612ef2b5", "fusion_lon": 0.0, "bike_id": "634706d89c6faa8ba448191a612ef2b5", "is_disabled": 0, "is_reserved": 0}, {"rental_uris": {"ios": "https://dc.lft.to/lastmile_qr_scan", "android": "https://dc.lft.to/lastmile_qr_scan"}, "lon": -76.937176, "type": "electric_scooter", "fusion_lat": 0.0, "lat": 38.89591716666666, "name": "9008fc5c0c7b5496d2ecd9b070e1cbdb", "fusion_lon": 0.0, "bike_id": "9008fc5c0c7b5496d2ecd9b070e1cbdb", "is_disabled": 0, "is_reserved": 0}, {"rental_uris": {"ios": "https://dc.lft.to/lastmile_qr_scan", "android": "https://dc.lft.to/lastmile_qr_scan"}, "lon": -76.97616033333334, "type": "electric_bike", "fusion_lat": 0.0, "lat": 38.8958265, "name": "79a74488547cc19769955801622cc278", "fusion_lon": 0.0, "bike_id": "79a74488547cc19769955801622cc278", "is_disabled": 0, "is_reserved": 0}, {"rental_uris": {"ios": "https://dc.lft.to/lastmile_qr_scan", "android": "https://dc.lft.to/lastmile_qr_scan"}, "lon": -77.042848, "type": "electric_scooter", "fusion_lat": 0.0, "lat": 38.908637166666665, "name": "eca69abbc35d6e12ea946b6053f10d17", "fusion_lon": 0.0, "bike_id": "eca69abbc35d6e12ea946b6053f10d17", "is_disabled": 0, "is_reserved": 0}, {"rental_uris": {"ios": "https://dc.lft.to/lastmile_qr_scan", "android": "https://dc.lft.to/lastmile_qr_scan"}, "lon": -77.02960233333333, "type": "electric_scooter", "fusion_lat": 0.0, "lat": 38.92334733333333, "name": "52af675ba59f2a15c985c4e88e661380", "fusion_lon": 0.0, "bike_id": "52af675ba59f2a15c985c4e88e661380", "is_disabled": 0, "is_reserved": 0}, {"rental_uris": {"ios": "https://dc.lft.to/lastmile_qr_scan", "android": "https://dc.lft.to/lastmile_qr_scan"}, "lon": -77.01076383333333, "type": "electric_scooter", "fusion_lat": 0.0, "lat": 38.89519683333333, "name": "0e874058e52f2f64d23864caa0d20c5a", "fusion_lon": 0.0, "bike_id": "0e874058e52f2f64d23864caa0d20c5a", "is_disabled": 0, "is_reserved": 0}, {"rental_uris": {"ios": "https://dc.lft.to/lastmile_qr_scan", "android": "https://dc.lft.to/lastmile_qr_scan"}, "lon": -77.02045483333333, "type": "electric_scooter", "fusion_lat": 0.0, "lat": 38.91553416666667, "name": "371631d04ff88a215d42c4da9a0608b6", "fusion_lon": 0.0, "bike_id": "371631d04ff88a215d42c4da9a0608b6", "is_disabled": 0, "is_reserved": 0}, {"rental_uris": {"ios": "https://dc.lft.to/lastmile_qr_scan", "android": "https://dc.lft.to/lastmile_qr_scan"}, "lon": -77.01867166666666, "type": "electric_scooter", "fusion_lat": 0.0, "lat": 38.915746666666664, "name": "5380a64754b42144186e415951bca47f", "fusion_lon": 0.0, "bike_id": "5380a64754b42144186e415951bca47f", "is_disabled": 0, "is_reserved": 0}, {"rental_uris": {"ios": "https://dc.lft.to/lastmile_qr_scan", "android": "https://dc.lft.to/lastmile_qr_scan"}, "lon": -77.0411955, "type": "electric_scooter", "fusion_lat": 0.0, "lat": 38.90585766666667, "name": "3cb31461fcd48fe4c07223e957444476", "fusion_lon": 0.0, "bike_id": "3cb31461fcd48fe4c07223e957444476", "is_disabled": 0, "is_reserved": 0}, {"rental_uris": {"ios": "https://dc.lft.to/lastmile_qr_scan", "android": "https://dc.lft.to/lastmile_qr_scan"}, "lon": -77.03497216666666, "type": "electric_scooter", "fusion_lat": 0.0, "lat": 38.9037525, "name": "3487a67d43301cab8c458bdc03468799", "fusion_lon": 0.0, "bike_id": "3487a67d43301cab8c458bdc03468799", "is_disabled": 0, "is_reserved": 0}, {"rental_uris": {"ios": "https://dc.lft.to/lastmile_qr_scan", "android": "https://dc.lft.to/lastmile_qr_scan"}, "lon": -77.02604233333334, "type": "electric_scooter", "fusion_lat": 0.0, "lat": 38.90808966666667, "name": "4fc1a9418d39fa05f9b56847220bdbd8", "fusion_lon": 0.0, "bike_id": "4fc1a9418d39fa05f9b56847220bdbd8", "is_disabled": 0, "is_reserved": 0}, {"rental_uris": {"ios": "https://dc.lft.to/lastmile_qr_scan", "android": "https://dc.lft.to/lastmile_qr_scan"}, "lon": -77.007948, "type": "electric_scooter", "fusion_lat": 0.0, "lat": 38.917076, "name": "9a46b5054c5207eda63604febf84fb78", "fusion_lon": 0.0, "bike_id": "9a46b5054c5207eda63604febf84fb78", "is_disabled": 0, "is_reserved": 0}, {"rental_uris": {"ios": "https://dc.lft.to/lastmile_qr_scan", "android": "https://dc.lft.to/lastmile_qr_scan"}, "lon": -77.03178666666666, "type": "electric_bike", "fusion_lat": 0.0, "lat": 38.905212166666665, "name": "cce9a51c2646bc986505dbcbb51b8c9a", "fusion_lon": 0.0, "bike_id": "cce9a51c2646bc986505dbcbb51b8c9a", "is_disabled": 0, "is_reserved": 0}, {"rental_uris": {"ios": "https://dc.lft.to/lastmile_qr_scan", "android": "https://dc.lft.to/lastmile_qr_scan"}, "lon": -77.01654166666667, "type": "electric_scooter", "fusion_lat": 0.0, "lat": 38.953324, "name": "0076941be307d98d523c8cb4c0a1cf26", "fusion_lon": 0.0, "bike_id": "0076941be307d98d523c8cb4c0a1cf26", "is_disabled": 0, "is_reserved": 0}, {"rental_uris": {"ios": "https://dc.lft.to/lastmile_qr_scan", "android": "https://dc.lft.to/lastmile_qr_scan"}, "lon": -77.00258916666667, "type": "electric_scooter", "fusion_lat": 0.0, "lat": 38.87746633333333, "name": "16a263400bc554e001ec656c8be8aeec", "fusion_lon": 0.0, "bike_id": "16a263400bc554e001ec656c8be8aeec", "is_disabled": 0, "is_reserved": 0}, {"rental_uris": {"ios": "https://dc.lft.to/lastmile_qr_scan", "android": "https://dc.lft.to/lastmile_qr_scan"}, "lon": -77.0543845, "type": "electric_scooter", "fusion_lat": 0.0, "lat": 38.89610183333333, "name": "90bbdd2822f33dab6b1bb815092b191d", "fusion_lon": 0.0, "bike_id": "90bbdd2822f33dab6b1bb815092b191d", "is_disabled": 0, "is_reserved": 0}, {"rental_uris": {"ios": "https://dc.lft.to/lastmile_qr_scan", "android": "https://dc.lft.to/lastmile_qr_scan"}, "lon": -77.01837366666666, "type": "electric_scooter", "fusion_lat": 0.0, "lat": 38.908833333333334, "name": "a45744f402c3fbd62c61ef006a4db32e", "fusion_lon": 0.0, "bike_id": "a45744f402c3fbd62c61ef006a4db32e", "is_disabled": 0, "is_reserved": 0}, {"rental_uris": {"ios": "https://dc.lft.to/lastmile_qr_scan", "android": "https://dc.lft.to/lastmile_qr_scan"}, "lon": -77.04403766666667, "type": "electric_scooter", "fusion_lat": 0.0, "lat": 38.905814166666666, "name": "12833510511af577b83953a66e581561", "fusion_lon": 0.0, "bike_id": "12833510511af577b83953a66e581561", "is_disabled": 0, "is_reserved": 0}, {"rental_uris": {"ios": "https://dc.lft.to/lastmile_qr_scan", "android": "https://dc.lft.to/lastmile_qr_scan"}, "lon": -77.02885033333334, "type": "electric_bike", "fusion_lat": 0.0, "lat": 38.907162166666666, "name": "2e223e497a8cc7f3f400e70bfb8d230d", "fusion_lon": 0.0, "bike_id": "2e223e497a8cc7f3f400e70bfb8d230d", "is_disabled": 0, "is_reserved": 0}, {"rental_uris": {"ios": "https://dc.lft.to/lastmile_qr_scan", "android": "https://dc.lft.to/lastmile_qr_scan"}, "lon": -77.03387133333334, "type": "electric_scooter", "fusion_lat": 0.0, "lat": 38.9384235, "name": "8bb149a858632cf257148b1473c154f3", "fusion_lon": 0.0, "bike_id": "8bb149a858632cf257148b1473c154f3", "is_disabled": 0, "is_reserved": 0}, {"rental_uris": {"ios": "https://dc.lft.to/lastmile_qr_scan", "android": "https://dc.lft.to/lastmile_qr_scan"}, "lon": -77.04791966666667, "type": "electric_scooter", "fusion_lat": 0.0, "lat": 38.893755166666665, "name": "eb3ab775521b9c873e3f5e2d6e02404f", "fusion_lon": 0.0, "bike_id": "eb3ab775521b9c873e3f5e2d6e02404f", "is_disabled": 0, "is_reserved": 0}, {"rental_uris": {"ios": "https://dc.lft.to/lastmile_qr_scan", "android": "https://dc.lft.to/lastmile_qr_scan"}, "lon": -77.03490633333334, "type": "electric_scooter", "fusion_lat": 0.0, "lat": 38.917086, "name": "f64e38c079b6609a8643723ce88bc392", "fusion_lon": 0.0, "bike_id": "f64e38c079b6609a8643723ce88bc392", "is_disabled": 0, "is_reserved": 0}, {"rental_uris": {"ios": "https://dc.lft.to/lastmile_qr_scan", "android": "https://dc.lft.to/lastmile_qr_scan"}, "lon": -77.01107833333333, "type": "electric_scooter", "fusion_lat": 0.0, "lat": 38.90017183333333, "name": "ad96f715d9fd287113571af31b9fb9da", "fusion_lon": 0.0, "bike_id": "ad96f715d9fd287113571af31b9fb9da", "is_disabled": 0, "is_reserved": 0}, {"rental_uris": {"ios": "https://dc.lft.to/lastmile_qr_scan", "android": "https://dc.lft.to/lastmile_qr_scan"}, "lon": -76.98260683333334, "type": "electric_scooter", "fusion_lat": 0.0, "lat": 38.86354383333333, "name": "d6afce6c5db4e2fc38a97063d7672d22", "fusion_lon": 0.0, "bike_id": "d6afce6c5db4e2fc38a97063d7672d22", "is_disabled": 0, "is_reserved": 0}, {"rental_uris": {"ios": "https://dc.lft.to/lastmile_qr_scan", "android": "https://dc.lft.to/lastmile_qr_scan"}, "lon": -77.0381275, "type": "electric_scooter", "fusion_lat": 0.0, "lat": 38.909705833333334, "name": "37c0701db89c3c108638a3cc10912744", "fusion_lon": 0.0, "bike_id": "37c0701db89c3c108638a3cc10912744", "is_disabled": 0, "is_reserved": 0}, {"rental_uris": {"ios": "https://dc.lft.to/lastmile_qr_scan", "android": "https://dc.lft.to/lastmile_qr_scan"}, "lon": -77.02341583333333, "type": "electric_scooter", "fusion_lat": 0.0, "lat": 38.96209116666667, "name": "0130d0ff75aa888bbcda6bfe79fadba7", "fusion_lon": 0.0, "bike_id": "0130d0ff75aa888bbcda6bfe79fadba7", "is_disabled": 0, "is_reserved": 0}, {"rental_uris": {"ios": "https://dc.lft.to/lastmile_qr_scan", "android": "https://dc.lft.to/lastmile_qr_scan"}, "lon": -77.05727216666666, "type": "electric_scooter", "fusion_lat": 0.0, "lat": 38.933665833333336, "name": "77fb67bdd5080038dad3fc6c408870d5", "fusion_lon": 0.0, "bike_id": "77fb67bdd5080038dad3fc6c408870d5", "is_disabled": 0, "is_reserved": 0}, {"rental_uris": {"ios": "https://dc.lft.to/lastmile_qr_scan", "android": "https://dc.lft.to/lastmile_qr_scan"}, "lon": -77.00517916666666, "type": "electric_scooter", "fusion_lat": 0.0, "lat": 38.929019833333335, "name": "c4cd5f8ad2a115b93927cc7030a212aa", "fusion_lon": 0.0, "bike_id": "c4cd5f8ad2a115b93927cc7030a212aa", "is_disabled": 0, "is_reserved": 0}, {"rental_uris": {"ios": "https://dc.lft.to/lastmile_qr_scan", "android": "https://dc.lft.to/lastmile_qr_scan"}, "lon": -77.0318525, "type": "electric_scooter", "fusion_lat": 0.0, "lat": 38.91734966666667, "name": "c1b1301874070e10e674f5d390370b84", "fusion_lon": 0.0, "bike_id": "c1b1301874070e10e674f5d390370b84", "is_disabled": 0, "is_reserved": 0}, {"rental_uris": {"ios": "https://dc.lft.to/lastmile_qr_scan", "android": "https://dc.lft.to/lastmile_qr_scan"}, "lon": -77.03441516666666, "type": "electric_scooter", "fusion_lat": 0.0, "lat": 38.9079295, "name": "6df054ebfba08783d23e707d1db16b9d", "fusion_lon": 0.0, "bike_id": "6df054ebfba08783d23e707d1db16b9d", "is_disabled": 0, "is_reserved": 0}, {"rental_uris": {"ios": "https://dc.lft.to/lastmile_qr_scan", "android": "https://dc.lft.to/lastmile_qr_scan"}, "lon": -77.04818616666667, "type": "electric_scooter", "fusion_lat": 0.0, "lat": 38.897397, "name": "7f54b1432803c2e749d06fc13bdfd29d", "fusion_lon": 0.0, "bike_id": "7f54b1432803c2e749d06fc13bdfd29d", "is_disabled": 0, "is_reserved": 0}, {"rental_uris": {"ios": "https://dc.lft.to/lastmile_qr_scan", "android": "https://dc.lft.to/lastmile_qr_scan"}, "lon": -76.99033933333334, "type": "electric_scooter", "fusion_lat": 0.0, "lat": 38.88882366666667, "name": "db512894c4e6bafdd43b42c984c20368", "fusion_lon": 0.0, "bike_id": "db512894c4e6bafdd43b42c984c20368", "is_disabled": 0, "is_reserved": 0}, {"rental_uris": {"ios": "https://dc.lft.to/lastmile_qr_scan", "android": "https://dc.lft.to/lastmile_qr_scan"}, "lon": -77.03017266666667, "type": "electric_scooter", "fusion_lat": 0.0, "lat": 38.93108483333334, "name": "6d79a20c339afb391697d649ec48d26d", "fusion_lon": 0.0, "bike_id": "6d79a20c339afb391697d649ec48d26d", "is_disabled": 0, "is_reserved": 0}, {"rental_uris": {"ios": "https://dc.lft.to/lastmile_qr_scan", "android": "https://dc.lft.to/lastmile_qr_scan"}, "lon": -77.05319533333333, "type": "electric_scooter", "fusion_lat": 0.0, "lat": 38.923525833333336, "name": "71ad8677e0e80f116624b2f9e713162a", "fusion_lon": 0.0, "bike_id": "71ad8677e0e80f116624b2f9e713162a", "is_disabled": 0, "is_reserved": 0}, {"rental_uris": {"ios": "https://dc.lft.to/lastmile_qr_scan", "android": "https://dc.lft.to/lastmile_qr_scan"}, "lon": -77.03876816666667, "type": "electric_scooter", "fusion_lat": 0.0, "lat": 38.908133, "name": "0a43c7f0478fb17cc904ea86693e777f", "fusion_lon": 0.0, "bike_id": "0a43c7f0478fb17cc904ea86693e777f", "is_disabled": 0, "is_reserved": 0}, {"rental_uris": {"ios": "https://dc.lft.to/lastmile_qr_scan", "android": "https://dc.lft.to/lastmile_qr_scan"}, "lon": -77.021796, "type": "electric_scooter", "fusion_lat": 0.0, "lat": 38.8963685, "name": "da5761f1487ccedffab7110c231eb68b", "fusion_lon": 0.0, "bike_id": "da5761f1487ccedffab7110c231eb68b", "is_disabled": 0, "is_reserved": 0}, {"rental_uris": {"ios": "https://dc.lft.to/lastmile_qr_scan", "android": "https://dc.lft.to/lastmile_qr_scan"}, "lon": -77.012032, "type": "electric_scooter", "fusion_lat": 0.0, "lat": 38.90010066666667, "name": "7e5baa2da097b0e43d72bed3c6856aec", "fusion_lon": 0.0, "bike_id": "7e5baa2da097b0e43d72bed3c6856aec", "is_disabled": 0, "is_reserved": 0}, {"rental_uris": {"ios": "https://dc.lft.to/lastmile_qr_scan", "android": "https://dc.lft.to/lastmile_qr_scan"}, "lon": -77.0056555, "type": "electric_scooter", "fusion_lat": 0.0, "lat": 38.927248, "name": "17524a151882f141bcd37eaa018455d5", "fusion_lon": 0.0, "bike_id": "17524a151882f141bcd37eaa018455d5", "is_disabled": 0, "is_reserved": 0}, {"rental_uris": {"ios": "https://dc.lft.to/lastmile_qr_scan", "android": "https://dc.lft.to/lastmile_qr_scan"}, "lon": -77.03876383333333, "type": "electric_scooter", "fusion_lat": 0.0, "lat": 38.917089, "name": "38a6cb50aeb3c91fee73816670d60af4", "fusion_lon": 0.0, "bike_id": "38a6cb50aeb3c91fee73816670d60af4", "is_disabled": 0, "is_reserved": 0}, {"rental_uris": {"ios": "https://dc.lft.to/lastmile_qr_scan", "android": "https://dc.lft.to/lastmile_qr_scan"}, "lon": -76.98935266666666, "type": "electric_bike", "fusion_lat": 0.0, "lat": 38.9286385, "name": "59ec9d219a0b93d173d94066dc74bd5c", "fusion_lon": 0.0, "bike_id": "59ec9d219a0b93d173d94066dc74bd5c", "is_disabled": 0, "is_reserved": 0}, {"rental_uris": {"ios": "https://dc.lft.to/lastmile_qr_scan", "android": "https://dc.lft.to/lastmile_qr_scan"}, "lon": -77.0209975, "type": "electric_scooter", "fusion_lat": 0.0, "lat": 38.93453133333333, "name": "7a526e9eaaaa8dbfa0d89acf4bc6b5eb", "fusion_lon": 0.0, "bike_id": "7a526e9eaaaa8dbfa0d89acf4bc6b5eb", "is_disabled": 0, "is_reserved": 0}, {"rental_uris": {"ios": "https://dc.lft.to/lastmile_qr_scan", "android": "https://dc.lft.to/lastmile_qr_scan"}, "lon": -77.038423, "type": "electric_scooter", "fusion_lat": 0.0, "lat": 38.90366366666667, "name": "bff46d0c29a6669047967ca0c4b30f4f", "fusion_lon": 0.0, "bike_id": "bff46d0c29a6669047967ca0c4b30f4f", "is_disabled": 0, "is_reserved": 0}, {"rental_uris": {"ios": "https://dc.lft.to/lastmile_qr_scan", "android": "https://dc.lft.to/lastmile_qr_scan"}, "lon": -77.00656166666667, "type": "electric_scooter", "fusion_lat": 0.0, "lat": 38.9055795, "name": "18bf1bbef61fd5115df18efd62edb6f4", "fusion_lon": 0.0, "bike_id": "18bf1bbef61fd5115df18efd62edb6f4", "is_disabled": 0, "is_reserved": 0}, {"rental_uris": {"ios": "https://dc.lft.to/lastmile_qr_scan", "android": "https://dc.lft.to/lastmile_qr_scan"}, "lon": -76.9466385, "type": "electric_scooter", "fusion_lat": 0.0, "lat": 38.89873566666667, "name": "09b499284a089a7f16e6933bcdd7732c", "fusion_lon": 0.0, "bike_id": "09b499284a089a7f16e6933bcdd7732c", "is_disabled": 0, "is_reserved": 0}, {"rental_uris": {"ios": "https://dc.lft.to/lastmile_qr_scan", "android": "https://dc.lft.to/lastmile_qr_scan"}, "lon": -77.011907, "type": "electric_scooter", "fusion_lat": 0.0, "lat": 38.915577666666664, "name": "f1024cee76be6556ff4011e8e6bc8056", "fusion_lon": 0.0, "bike_id": "f1024cee76be6556ff4011e8e6bc8056", "is_disabled": 0, "is_reserved": 0}, {"rental_uris": {"ios": "https://dc.lft.to/lastmile_qr_scan", "android": "https://dc.lft.to/lastmile_qr_scan"}, "lon": -77.0320955, "type": "electric_scooter", "fusion_lat": 0.0, "lat": 38.917209, "name": "cb4af88a422956d09d98ee03a53f70cc", "fusion_lon": 0.0, "bike_id": "cb4af88a422956d09d98ee03a53f70cc", "is_disabled": 0, "is_reserved": 0}, {"rental_uris": {"ios": "https://dc.lft.to/lastmile_qr_scan", "android": "https://dc.lft.to/lastmile_qr_scan"}, "lon": -77.04815583333334, "type": "electric_scooter", "fusion_lat": 0.0, "lat": 38.92036783333333, "name": "4c1796cadb820c8fdd2c1021d4528ce3", "fusion_lon": 0.0, "bike_id": "4c1796cadb820c8fdd2c1021d4528ce3", "is_disabled": 0, "is_reserved": 0}, {"rental_uris": {"ios": "https://dc.lft.to/lastmile_qr_scan", "android": "https://dc.lft.to/lastmile_qr_scan"}, "lon": -77.04638783333333, "type": "electric_scooter", "fusion_lat": 0.0, "lat": 38.892297666666664, "name": "059ca1c042a7e6d693685d7cc735afb6", "fusion_lon": 0.0, "bike_id": "059ca1c042a7e6d693685d7cc735afb6", "is_disabled": 0, "is_reserved": 0}, {"rental_uris": {"ios": "https://dc.lft.to/lastmile_qr_scan", "android": "https://dc.lft.to/lastmile_qr_scan"}, "lon": -77.00662116666666, "type": "electric_scooter", "fusion_lat": 0.0, "lat": 38.95566183333333, "name": "f099eba6957350c03c0c292a910f622c", "fusion_lon": 0.0, "bike_id": "f099eba6957350c03c0c292a910f622c", "is_disabled": 0, "is_reserved": 0}, {"rental_uris": {"ios": "https://dc.lft.to/lastmile_qr_scan", "android": "https://dc.lft.to/lastmile_qr_scan"}, "lon": -76.94212116666667, "type": "electric_scooter", "fusion_lat": 0.0, "lat": 38.896728, "name": "54e17a2b830d7bf2199dc6ac3c3aef74", "fusion_lon": 0.0, "bike_id": "54e17a2b830d7bf2199dc6ac3c3aef74", "is_disabled": 0, "is_reserved": 0}, {"rental_uris": {"ios": "https://dc.lft.to/lastmile_qr_scan", "android": "https://dc.lft.to/lastmile_qr_scan"}, "lon": -76.996909, "type": "electric_scooter", "fusion_lat": 0.0, "lat": 38.9007735, "name": "9cd5006f850062f5ec69b5f361e2a6cb", "fusion_lon": 0.0, "bike_id": "9cd5006f850062f5ec69b5f361e2a6cb", "is_disabled": 0, "is_reserved": 0}, {"rental_uris": {"ios": "https://dc.lft.to/lastmile_qr_scan", "android": "https://dc.lft.to/lastmile_qr_scan"}, "lon": -77.1295995, "type": "electric_bike", "fusion_lat": 0.0, "lat": 38.85219433333333, "name": "e40a1620a035de5b28a2ac5fce5216ad", "fusion_lon": 0.0, "bike_id": "e40a1620a035de5b28a2ac5fce5216ad", "is_disabled": 0, "is_reserved": 0}, {"rental_uris": {"ios": "https://dc.lft.to/lastmile_qr_scan", "android": "https://dc.lft.to/lastmile_qr_scan"}, "lon": -77.0920145, "type": "electric_scooter", "fusion_lat": 0.0, "lat": 38.94135133333333, "name": "9dfb9fc2233631276880d5f86db8d9ca", "fusion_lon": 0.0, "bike_id": "9dfb9fc2233631276880d5f86db8d9ca", "is_disabled": 0, "is_reserved": 0}, {"rental_uris": {"ios": "https://dc.lft.to/lastmile_qr_scan", "android": "https://dc.lft.to/lastmile_qr_scan"}, "lon": -77.0221995, "type": "electric_scooter", "fusion_lat": 0.0, "lat": 38.91252516666667, "name": "e8d3689acb34a326e0ac386660d22384", "fusion_lon": 0.0, "bike_id": "e8d3689acb34a326e0ac386660d22384", "is_disabled": 0, "is_reserved": 0}, {"rental_uris": {"ios": "https://dc.lft.to/lastmile_qr_scan", "android": "https://dc.lft.to/lastmile_qr_scan"}, "lon": -76.93228566666667, "type": "electric_bike", "fusion_lat": 0.0, "lat": 38.865962333333336, "name": "2d6367cf15913879c81174fa57df5ee7", "fusion_lon": 0.0, "bike_id": "2d6367cf15913879c81174fa57df5ee7", "is_disabled": 0, "is_reserved": 0}, {"rental_uris": {"ios": "https://dc.lft.to/lastmile_qr_scan", "android": "https://dc.lft.to/lastmile_qr_scan"}, "lon": -77.05475333333334, "type": "electric_scooter", "fusion_lat": 0.0, "lat": 38.89390566666667, "name": "1826a5e17c1c42b66bfdaf30904a0a93", "fusion_lon": 0.0, "bike_id": "1826a5e17c1c42b66bfdaf30904a0a93", "is_disabled": 0, "is_reserved": 0}, {"rental_uris": {"ios": "https://dc.lft.to/lastmile_qr_scan", "android": "https://dc.lft.to/lastmile_qr_scan"}, "lon": -77.0033325, "type": "electric_scooter", "fusion_lat": 0.0, "lat": 38.89360166666667, "name": "9fb95e6a6c27e1ae98387b8cbc931dff", "fusion_lon": 0.0, "bike_id": "9fb95e6a6c27e1ae98387b8cbc931dff", "is_disabled": 0, "is_reserved": 0}, {"rental_uris": {"ios": "https://dc.lft.to/lastmile_qr_scan", "android": "https://dc.lft.to/lastmile_qr_scan"}, "lon": -77.00714616666667, "type": "electric_scooter", "fusion_lat": 0.0, "lat": 38.8791375, "name": "7d05c39d9e0efc771fa2053e6d62ec18", "fusion_lon": 0.0, "bike_id": "7d05c39d9e0efc771fa2053e6d62ec18", "is_disabled": 0, "is_reserved": 0}, {"rental_uris": {"ios": "https://dc.lft.to/lastmile_qr_scan", "android": "https://dc.lft.to/lastmile_qr_scan"}, "lon": -77.04879066666666, "type": "electric_scooter", "fusion_lat": 0.0, "lat": 38.90643383333333, "name": "b3de56d8864e6a0da2873a703970a0a9", "fusion_lon": 0.0, "bike_id": "b3de56d8864e6a0da2873a703970a0a9", "is_disabled": 0, "is_reserved": 0}, {"rental_uris": {"ios": "https://dc.lft.to/lastmile_qr_scan", "android": "https://dc.lft.to/lastmile_qr_scan"}, "lon": -76.995159, "type": "electric_scooter", "fusion_lat": 0.0, "lat": 38.8948635, "name": "a0ca12540f17cf390218536142684e05", "fusion_lon": 0.0, "bike_id": "a0ca12540f17cf390218536142684e05", "is_disabled": 0, "is_reserved": 0}, {"rental_uris": {"ios": "https://dc.lft.to/lastmile_qr_scan", "android": "https://dc.lft.to/lastmile_qr_scan"}, "lon": -77.00655716666667, "type": "electric_scooter", "fusion_lat": 0.0, "lat": 38.90867033333333, "name": "dd11ecf41e97bdaadf05f86ea970e80c", "fusion_lon": 0.0, "bike_id": "dd11ecf41e97bdaadf05f86ea970e80c", "is_disabled": 0, "is_reserved": 0}, {"rental_uris": {"ios": "https://dc.lft.to/lastmile_qr_scan", "android": "https://dc.lft.to/lastmile_qr_scan"}, "lon": -77.034476, "type": "electric_scooter", "fusion_lat": 0.0, "lat": 38.9095325, "name": "8a977afd53ef9b0daa24259a36634baa", "fusion_lon": 0.0, "bike_id": "8a977afd53ef9b0daa24259a36634baa", "is_disabled": 0, "is_reserved": 0}, {"rental_uris": {"ios": "https://dc.lft.to/lastmile_qr_scan", "android": "https://dc.lft.to/lastmile_qr_scan"}, "lon": -77.003497, "type": "electric_scooter", "fusion_lat": 0.0, "lat": 38.891605, "name": "fe129308a0a5a636e24ee07225b79bd3", "fusion_lon": 0.0, "bike_id": "fe129308a0a5a636e24ee07225b79bd3", "is_disabled": 0, "is_reserved": 0}, {"rental_uris": {"ios": "https://dc.lft.to/lastmile_qr_scan", "android": "https://dc.lft.to/lastmile_qr_scan"}, "lon": -77.19910283333333, "type": "electric_bike", "fusion_lat": 0.0, "lat": 38.87532933333333, "name": "cda5054d52b8d43d2a51f8ddddba8d0b", "fusion_lon": 0.0, "bike_id": "cda5054d52b8d43d2a51f8ddddba8d0b", "is_disabled": 0, "is_reserved": 0}, {"rental_uris": {"ios": "https://dc.lft.to/lastmile_qr_scan", "android": "https://dc.lft.to/lastmile_qr_scan"}, "lon": -77.02954733333333, "type": "electric_bike", "fusion_lat": 0.0, "lat": 38.91162, "name": "4cbeb60d943780f59aa11342bf638895", "fusion_lon": 0.0, "bike_id": "4cbeb60d943780f59aa11342bf638895", "is_disabled": 0, "is_reserved": 0}, {"rental_uris": {"ios": "https://dc.lft.to/lastmile_qr_scan", "android": "https://dc.lft.to/lastmile_qr_scan"}, "lon": -77.14984966666667, "type": "electric_bike", "fusion_lat": 0.0, "lat": 39.094625, "name": "c5e07dbf05b950df6f8e25e72244a788", "fusion_lon": 0.0, "bike_id": "c5e07dbf05b950df6f8e25e72244a788", "is_disabled": 0, "is_reserved": 0}, {"rental_uris": {"ios": "https://dc.lft.to/lastmile_qr_scan", "android": "https://dc.lft.to/lastmile_qr_scan"}, "lon": -77.024751, "type": "electric_scooter", "fusion_lat": 0.0, "lat": 38.933572, "name": "d6ace1f03343085342181dc6c7b6c340", "fusion_lon": 0.0, "bike_id": "d6ace1f03343085342181dc6c7b6c340", "is_disabled": 0, "is_reserved": 0}, {"rental_uris": {"ios": "https://dc.lft.to/lastmile_qr_scan", "android": "https://dc.lft.to/lastmile_qr_scan"}, "lon": -77.02481016666667, "type": "electric_scooter", "fusion_lat": 0.0, "lat": 38.931006, "name": "b08bde82593ef3c8ee2b3b212deb6105", "fusion_lon": 0.0, "bike_id": "b08bde82593ef3c8ee2b3b212deb6105", "is_disabled": 0, "is_reserved": 0}, {"rental_uris": {"ios": "https://dc.lft.to/lastmile_qr_scan", "android": "https://dc.lft.to/lastmile_qr_scan"}, "lon": -77.05517066666667, "type": "electric_scooter", "fusion_lat": 0.0, "lat": 38.9284565, "name": "a767f2739fc44a7dd9e703e0c1967412", "fusion_lon": 0.0, "bike_id": "a767f2739fc44a7dd9e703e0c1967412", "is_disabled": 0, "is_reserved": 0}, {"rental_uris": {"ios": "https://dc.lft.to/lastmile_qr_scan", "android": "https://dc.lft.to/lastmile_qr_scan"}, "lon": -77.03364083333334, "type": "electric_scooter", "fusion_lat": 0.0, "lat": 38.928908, "name": "2b38c644d051a06aec8cf420d97650f6", "fusion_lon": 0.0, "bike_id": "2b38c644d051a06aec8cf420d97650f6", "is_disabled": 0, "is_reserved": 0}, {"rental_uris": {"ios": "https://dc.lft.to/lastmile_qr_scan", "android": "https://dc.lft.to/lastmile_qr_scan"}, "lon": -76.98758383333333, "type": "electric_scooter", "fusion_lat": 0.0, "lat": 38.845041, "name": "5225cb3d9a5ffc3b9ad58fb16967ebeb", "fusion_lon": 0.0, "bike_id": "5225cb3d9a5ffc3b9ad58fb16967ebeb", "is_disabled": 0, "is_reserved": 0}, {"rental_uris": {"ios": "https://dc.lft.to/lastmile_qr_scan", "android": "https://dc.lft.to/lastmile_qr_scan"}, "lon": -77.04610683333334, "type": "electric_scooter", "fusion_lat": 0.0, "lat": 38.90969616666667, "name": "2de68e6703fb21d0657dcc34332c537a", "fusion_lon": 0.0, "bike_id": "2de68e6703fb21d0657dcc34332c537a", "is_disabled": 0, "is_reserved": 0}, {"rental_uris": {"ios": "https://dc.lft.to/lastmile_qr_scan", "android": "https://dc.lft.to/lastmile_qr_scan"}, "lon": -77.0257255, "type": "electric_scooter", "fusion_lat": 0.0, "lat": 38.887477, "name": "13ee20bc079d72abead6e3c27e1af2cf", "fusion_lon": 0.0, "bike_id": "13ee20bc079d72abead6e3c27e1af2cf", "is_disabled": 0, "is_reserved": 0}, {"rental_uris": {"ios": "https://dc.lft.to/lastmile_qr_scan", "android": "https://dc.lft.to/lastmile_qr_scan"}, "lon": -77.0574895, "type": "electric_scooter", "fusion_lat": 0.0, "lat": 38.93417983333333, "name": "7a29d182980033a4d2ad027ddc475e96", "fusion_lon": 0.0, "bike_id": "7a29d182980033a4d2ad027ddc475e96", "is_disabled": 0, "is_reserved": 0}, {"rental_uris": {"ios": "https://dc.lft.to/lastmile_qr_scan", "android": "https://dc.lft.to/lastmile_qr_scan"}, "lon": -77.0718585, "type": "electric_scooter", "fusion_lat": 0.0, "lat": 38.919973666666664, "name": "1c1722cc6dcc44b7156fe25f956e0d59", "fusion_lon": 0.0, "bike_id": "1c1722cc6dcc44b7156fe25f956e0d59", "is_disabled": 0, "is_reserved": 0}, {"rental_uris": {"ios": "https://dc.lft.to/lastmile_qr_scan", "android": "https://dc.lft.to/lastmile_qr_scan"}, "lon": -77.03527283333334, "type": "electric_scooter", "fusion_lat": 0.0, "lat": 38.9359695, "name": "3e12aee652ba7a264ee8aeaf7e714bb6", "fusion_lon": 0.0, "bike_id": "3e12aee652ba7a264ee8aeaf7e714bb6", "is_disabled": 0, "is_reserved": 0}, {"rental_uris": {"ios": "https://dc.lft.to/lastmile_qr_scan", "android": "https://dc.lft.to/lastmile_qr_scan"}, "lon": -77.0326145, "type": "electric_bike", "fusion_lat": 0.0, "lat": 38.935710666666665, "name": "9e327ccdd3aeb122bd6fc7ddc2a98500", "fusion_lon": 0.0, "bike_id": "9e327ccdd3aeb122bd6fc7ddc2a98500", "is_disabled": 0, "is_reserved": 0}, {"rental_uris": {"ios": "https://dc.lft.to/lastmile_qr_scan", "android": "https://dc.lft.to/lastmile_qr_scan"}, "lon": -77.02605716666666, "type": "electric_scooter", "fusion_lat": 0.0, "lat": 38.91677833333333, "name": "df36e56acf7e3cdf617fd900b0db0bb0", "fusion_lon": 0.0, "bike_id": "df36e56acf7e3cdf617fd900b0db0bb0", "is_disabled": 0, "is_reserved": 0}, {"rental_uris": {"ios": "https://dc.lft.to/lastmile_qr_scan", "android": "https://dc.lft.to/lastmile_qr_scan"}, "lon": -76.9835825, "type": "electric_scooter", "fusion_lat": 0.0, "lat": 38.882701, "name": "3d8f3d74fd75655ffbde93f6a3e06d57", "fusion_lon": 0.0, "bike_id": "3d8f3d74fd75655ffbde93f6a3e06d57", "is_disabled": 0, "is_reserved": 0}, {"rental_uris": {"ios": "https://dc.lft.to/lastmile_qr_scan", "android": "https://dc.lft.to/lastmile_qr_scan"}, "lon": -76.99921866666666, "type": "electric_scooter", "fusion_lat": 0.0, "lat": 38.9091175, "name": "0998cf9dc49967332e0f5ed4a043da69", "fusion_lon": 0.0, "bike_id": "0998cf9dc49967332e0f5ed4a043da69", "is_disabled": 0, "is_reserved": 0}, {"rental_uris": {"ios": "https://dc.lft.to/lastmile_qr_scan", "android": "https://dc.lft.to/lastmile_qr_scan"}, "lon": -76.98231833333334, "type": "electric_scooter", "fusion_lat": 0.0, "lat": 38.86763283333333, "name": "31173245db6196cb782c49bf31fcdd3e", "fusion_lon": 0.0, "bike_id": "31173245db6196cb782c49bf31fcdd3e", "is_disabled": 0, "is_reserved": 0}, {"rental_uris": {"ios": "https://dc.lft.to/lastmile_qr_scan", "android": "https://dc.lft.to/lastmile_qr_scan"}, "lon": -77.03826483333333, "type": "electric_scooter", "fusion_lat": 0.0, "lat": 38.931166, "name": "75b32fb277cf8ba88a0779bd007e92f8", "fusion_lon": 0.0, "bike_id": "75b32fb277cf8ba88a0779bd007e92f8", "is_disabled": 0, "is_reserved": 0}, {"rental_uris": {"ios": "https://dc.lft.to/lastmile_qr_scan", "android": "https://dc.lft.to/lastmile_qr_scan"}, "lon": -77.0111915, "type": "electric_scooter", "fusion_lat": 0.0, "lat": 38.91617816666667, "name": "b955e2b0da5c0c4e212e515d33b50763", "fusion_lon": 0.0, "bike_id": "b955e2b0da5c0c4e212e515d33b50763", "is_disabled": 0, "is_reserved": 0}, {"rental_uris": {"ios": "https://dc.lft.to/lastmile_qr_scan", "android": "https://dc.lft.to/lastmile_qr_scan"}, "lon": -77.04347833333334, "type": "electric_scooter", "fusion_lat": 0.0, "lat": 38.921746166666665, "name": "66214b37682f103eac570f24178cfa73", "fusion_lon": 0.0, "bike_id": "66214b37682f103eac570f24178cfa73", "is_disabled": 0, "is_reserved": 0}, {"rental_uris": {"ios": "https://dc.lft.to/lastmile_qr_scan", "android": "https://dc.lft.to/lastmile_qr_scan"}, "lon": -76.91656233333333, "type": "electric_bike", "fusion_lat": 0.0, "lat": 38.8686345, "name": "b5ab3a9fc01a051e660ce78cde2115b3", "fusion_lon": 0.0, "bike_id": "b5ab3a9fc01a051e660ce78cde2115b3", "is_disabled": 0, "is_reserved": 0}, {"rental_uris": {"ios": "https://dc.lft.to/lastmile_qr_scan", "android": "https://dc.lft.to/lastmile_qr_scan"}, "lon": -77.03534833333333, "type": "electric_scooter", "fusion_lat": 0.0, "lat": 38.924133833333336, "name": "64674f4be9e044e5fd3cfef69a4aa36c", "fusion_lon": 0.0, "bike_id": "64674f4be9e044e5fd3cfef69a4aa36c", "is_disabled": 0, "is_reserved": 0}, {"rental_uris": {"ios": "https://dc.lft.to/lastmile_qr_scan", "android": "https://dc.lft.to/lastmile_qr_scan"}, "lon": -77.12735283333333, "type": "electric_bike", "fusion_lat": 0.0, "lat": 38.895637, "name": "7591ccf9b0ee11bd96437158cc8ed553", "fusion_lon": 0.0, "bike_id": "7591ccf9b0ee11bd96437158cc8ed553", "is_disabled": 0, "is_reserved": 0}, {"rental_uris": {"ios": "https://dc.lft.to/lastmile_qr_scan", "android": "https://dc.lft.to/lastmile_qr_scan"}, "lon": -77.00204766666667, "type": "electric_scooter", "fusion_lat": 0.0, "lat": 38.902229, "name": "4ad45458d306fd2e06f70f281abc6028", "fusion_lon": 0.0, "bike_id": "4ad45458d306fd2e06f70f281abc6028", "is_disabled": 0, "is_reserved": 0}, {"rental_uris": {"ios": "https://dc.lft.to/lastmile_qr_scan", "android": "https://dc.lft.to/lastmile_qr_scan"}, "lon": -77.03114016666666, "type": "electric_scooter", "fusion_lat": 0.0, "lat": 38.90429733333333, "name": "d31fe373fe304bb104d386842eed2ea4", "fusion_lon": 0.0, "bike_id": "d31fe373fe304bb104d386842eed2ea4", "is_disabled": 0, "is_reserved": 0}, {"rental_uris": {"ios": "https://dc.lft.to/lastmile_qr_scan", "android": "https://dc.lft.to/lastmile_qr_scan"}, "lon": -77.02693016666667, "type": "electric_scooter", "fusion_lat": 0.0, "lat": 38.91706833333333, "name": "5f3101a7dc194af38b637806d11e93bd", "fusion_lon": 0.0, "bike_id": "5f3101a7dc194af38b637806d11e93bd", "is_disabled": 0, "is_reserved": 0}, {"rental_uris": {"ios": "https://dc.lft.to/lastmile_qr_scan", "android": "https://dc.lft.to/lastmile_qr_scan"}, "lon": -77.04368616666666, "type": "electric_scooter", "fusion_lat": 0.0, "lat": 38.9038785, "name": "4f7529c0b296ed822c9aad5a345231f1", "fusion_lon": 0.0, "bike_id": "4f7529c0b296ed822c9aad5a345231f1", "is_disabled": 0, "is_reserved": 0}, {"rental_uris": {"ios": "https://dc.lft.to/lastmile_qr_scan", "android": "https://dc.lft.to/lastmile_qr_scan"}, "lon": -77.0057855, "type": "electric_scooter", "fusion_lat": 0.0, "lat": 38.872068666666664, "name": "5ef2fc0c6ae658575cae2c4785c6b4a7", "fusion_lon": 0.0, "bike_id": "5ef2fc0c6ae658575cae2c4785c6b4a7", "is_disabled": 0, "is_reserved": 0}, {"rental_uris": {"ios": "https://dc.lft.to/lastmile_qr_scan", "android": "https://dc.lft.to/lastmile_qr_scan"}, "lon": -77.11222533333333, "type": "electric_bike", "fusion_lat": 0.0, "lat": 38.828751833333335, "name": "07eacb7c00dc117af4f6be55118816e2", "fusion_lon": 0.0, "bike_id": "07eacb7c00dc117af4f6be55118816e2", "is_disabled": 0, "is_reserved": 0}, {"rental_uris": {"ios": "https://dc.lft.to/lastmile_qr_scan", "android": "https://dc.lft.to/lastmile_qr_scan"}, "lon": -77.03219816666666, "type": "electric_scooter", "fusion_lat": 0.0, "lat": 38.9178275, "name": "ef86c6c2dec6fc9fae4ab2b4e96a412f", "fusion_lon": 0.0, "bike_id": "ef86c6c2dec6fc9fae4ab2b4e96a412f", "is_disabled": 0, "is_reserved": 0}, {"rental_uris": {"ios": "https://dc.lft.to/lastmile_qr_scan", "android": "https://dc.lft.to/lastmile_qr_scan"}, "lon": -76.99170066666667, "type": "electric_scooter", "fusion_lat": 0.0, "lat": 38.90452233333333, "name": "acfa3f01e660975e68bb6e332846cdc3", "fusion_lon": 0.0, "bike_id": "acfa3f01e660975e68bb6e332846cdc3", "is_disabled": 0, "is_reserved": 0}, {"rental_uris": {"ios": "https://dc.lft.to/lastmile_qr_scan", "android": "https://dc.lft.to/lastmile_qr_scan"}, "lon": -77.05088283333333, "type": "electric_scooter", "fusion_lat": 0.0, "lat": 38.92458533333333, "name": "6ac54a112af179130189705998428e89", "fusion_lon": 0.0, "bike_id": "6ac54a112af179130189705998428e89", "is_disabled": 0, "is_reserved": 0}, {"rental_uris": {"ios": "https://dc.lft.to/lastmile_qr_scan", "android": "https://dc.lft.to/lastmile_qr_scan"}, "lon": -77.003703, "type": "electric_scooter", "fusion_lat": 0.0, "lat": 38.876635, "name": "9852649adfcf1f836582ad9d99490d80", "fusion_lon": 0.0, "bike_id": "9852649adfcf1f836582ad9d99490d80", "is_disabled": 0, "is_reserved": 0}, {"rental_uris": {"ios": "https://dc.lft.to/lastmile_qr_scan", "android": "https://dc.lft.to/lastmile_qr_scan"}, "lon": -77.02694066666666, "type": "electric_scooter", "fusion_lat": 0.0, "lat": 38.91641033333333, "name": "2be86740acd1411f7d8035027b745afe", "fusion_lon": 0.0, "bike_id": "2be86740acd1411f7d8035027b745afe", "is_disabled": 0, "is_reserved": 0}, {"rental_uris": {"ios": "https://dc.lft.to/lastmile_qr_scan", "android": "https://dc.lft.to/lastmile_qr_scan"}, "lon": -77.006411, "type": "electric_scooter", "fusion_lat": 0.0, "lat": 38.9057085, "name": "1d0565d5bb12a6f49325b3cad214d55c", "fusion_lon": 0.0, "bike_id": "1d0565d5bb12a6f49325b3cad214d55c", "is_disabled": 0, "is_reserved": 0}, {"rental_uris": {"ios": "https://dc.lft.to/lastmile_qr_scan", "android": "https://dc.lft.to/lastmile_qr_scan"}, "lon": -76.87498016666666, "type": "electric_bike", "fusion_lat": 0.0, "lat": 38.990914333333336, "name": "580406f72293a34352ff418fb9988811", "fusion_lon": 0.0, "bike_id": "580406f72293a34352ff418fb9988811", "is_disabled": 0, "is_reserved": 0}, {"rental_uris": {"ios": "https://dc.lft.to/lastmile_qr_scan", "android": "https://dc.lft.to/lastmile_qr_scan"}, "lon": -76.93157466666666, "type": "electric_scooter", "fusion_lat": 0.0, "lat": 38.8988185, "name": "65ade3c2b2447e320428b3f235317c2c", "fusion_lon": 0.0, "bike_id": "65ade3c2b2447e320428b3f235317c2c", "is_disabled": 0, "is_reserved": 0}, {"rental_uris": {"ios": "https://dc.lft.to/lastmile_qr_scan", "android": "https://dc.lft.to/lastmile_qr_scan"}, "lon": -77.01202783333333, "type": "electric_scooter", "fusion_lat": 0.0, "lat": 38.91978266666667, "name": "ae9f7a3c0b78befd409e67af38e6a850", "fusion_lon": 0.0, "bike_id": "ae9f7a3c0b78befd409e67af38e6a850", "is_disabled": 0, "is_reserved": 0}, {"rental_uris": {"ios": "https://dc.lft.to/lastmile_qr_scan", "android": "https://dc.lft.to/lastmile_qr_scan"}, "lon": -76.98732, "type": "electric_scooter", "fusion_lat": 0.0, "lat": 38.867145, "name": "7f59d83f2a91e98c5c9c5ae32320711b", "fusion_lon": 0.0, "bike_id": "7f59d83f2a91e98c5c9c5ae32320711b", "is_disabled": 0, "is_reserved": 0}, {"rental_uris": {"ios": "https://dc.lft.to/lastmile_qr_scan", "android": "https://dc.lft.to/lastmile_qr_scan"}, "lon": -77.08078483333334, "type": "electric_bike", "fusion_lat": 0.0, "lat": 38.90691116666667, "name": "60b3f1ec2d9d399e4712f6e059c55de2", "fusion_lon": 0.0, "bike_id": "60b3f1ec2d9d399e4712f6e059c55de2", "is_disabled": 0, "is_reserved": 0}, {"rental_uris": {"ios": "https://dc.lft.to/lastmile_qr_scan", "android": "https://dc.lft.to/lastmile_qr_scan"}, "lon": -77.0244225, "type": "electric_scooter", "fusion_lat": 0.0, "lat": 38.91914216666667, "name": "8a70ade7a1935d9c9a5105c0398b5f16", "fusion_lon": 0.0, "bike_id": "8a70ade7a1935d9c9a5105c0398b5f16", "is_disabled": 0, "is_reserved": 0}, {"rental_uris": {"ios": "https://dc.lft.to/lastmile_qr_scan", "android": "https://dc.lft.to/lastmile_qr_scan"}, "lon": -77.03975816666667, "type": "electric_scooter", "fusion_lat": 0.0, "lat": 38.901395666666666, "name": "9020281137877925cc04fcd3895c078b", "fusion_lon": 0.0, "bike_id": "9020281137877925cc04fcd3895c078b", "is_disabled": 0, "is_reserved": 0}, {"rental_uris": {"ios": "https://dc.lft.to/lastmile_qr_scan", "android": "https://dc.lft.to/lastmile_qr_scan"}, "lon": -77.08824316666667, "type": "electric_bike", "fusion_lat": 0.0, "lat": 38.909763166666664, "name": "af1a2c9061309340e5efa4a3a0454ccb", "fusion_lon": 0.0, "bike_id": "af1a2c9061309340e5efa4a3a0454ccb", "is_disabled": 0, "is_reserved": 0}, {"rental_uris": {"ios": "https://dc.lft.to/lastmile_qr_scan", "android": "https://dc.lft.to/lastmile_qr_scan"}, "lon": -76.94747883333334, "type": "electric_scooter", "fusion_lat": 0.0, "lat": 38.89682, "name": "5ad600c1679a1eb16b024d7483f38813", "fusion_lon": 0.0, "bike_id": "5ad600c1679a1eb16b024d7483f38813", "is_disabled": 0, "is_reserved": 0}, {"rental_uris": {"ios": "https://dc.lft.to/lastmile_qr_scan", "android": "https://dc.lft.to/lastmile_qr_scan"}, "lon": -77.03602833333333, "type": "electric_scooter", "fusion_lat": 0.0, "lat": 38.956161333333334, "name": "3f43bd894e73ba2db14a88b287a8764b", "fusion_lon": 0.0, "bike_id": "3f43bd894e73ba2db14a88b287a8764b", "is_disabled": 0, "is_reserved": 0}, {"rental_uris": {"ios": "https://dc.lft.to/lastmile_qr_scan", "android": "https://dc.lft.to/lastmile_qr_scan"}, "lon": -77.0996185, "type": "electric_bike", "fusion_lat": 0.0, "lat": 38.857951, "name": "beb74e569295b31fa04664837df8cb66", "fusion_lon": 0.0, "bike_id": "beb74e569295b31fa04664837df8cb66", "is_disabled": 0, "is_reserved": 0}, {"rental_uris": {"ios": "https://dc.lft.to/lastmile_qr_scan", "android": "https://dc.lft.to/lastmile_qr_scan"}, "lon": -77.028912, "type": "electric_scooter", "fusion_lat": 0.0, "lat": 38.95842416666667, "name": "b54641556f18da63601f3bd9bc05f7ea", "fusion_lon": 0.0, "bike_id": "b54641556f18da63601f3bd9bc05f7ea", "is_disabled": 0, "is_reserved": 0}, {"rental_uris": {"ios": "https://dc.lft.to/lastmile_qr_scan", "android": "https://dc.lft.to/lastmile_qr_scan"}, "lon": -77.03210066666666, "type": "electric_scooter", "fusion_lat": 0.0, "lat": 38.915709, "name": "25de6018dff10f39261f955000946188", "fusion_lon": 0.0, "bike_id": "25de6018dff10f39261f955000946188", "is_disabled": 0, "is_reserved": 0}, {"rental_uris": {"ios": "https://dc.lft.to/lastmile_qr_scan", "android": "https://dc.lft.to/lastmile_qr_scan"}, "lon": -77.0150645, "type": "electric_scooter", "fusion_lat": 0.0, "lat": 38.91057833333333, "name": "1a9ed1b0a864a5ec8aaac9d37ac70d5e", "fusion_lon": 0.0, "bike_id": "1a9ed1b0a864a5ec8aaac9d37ac70d5e", "is_disabled": 0, "is_reserved": 0}, {"rental_uris": {"ios": "https://dc.lft.to/lastmile_qr_scan", "android": "https://dc.lft.to/lastmile_qr_scan"}, "lon": -77.03673166666667, "type": "electric_scooter", "fusion_lat": 0.0, "lat": 38.9069265, "name": "b0330872290d806c266019eb8fe0e187", "fusion_lon": 0.0, "bike_id": "b0330872290d806c266019eb8fe0e187", "is_disabled": 0, "is_reserved": 0}, {"rental_uris": {"ios": "https://dc.lft.to/lastmile_qr_scan", "android": "https://dc.lft.to/lastmile_qr_scan"}, "lon": -77.07163783333333, "type": "electric_scooter", "fusion_lat": 0.0, "lat": 38.90782516666667, "name": "48b4cb5eaeba7ff0b38a78d2ffb61737", "fusion_lon": 0.0, "bike_id": "48b4cb5eaeba7ff0b38a78d2ffb61737", "is_disabled": 0, "is_reserved": 0}, {"rental_uris": {"ios": "https://dc.lft.to/lastmile_qr_scan", "android": "https://dc.lft.to/lastmile_qr_scan"}, "lon": -77.02970766666667, "type": "electric_scooter", "fusion_lat": 0.0, "lat": 38.892062, "name": "9254e5b320773f84f89ed946f2d3197f", "fusion_lon": 0.0, "bike_id": "9254e5b320773f84f89ed946f2d3197f", "is_disabled": 0, "is_reserved": 0}, {"rental_uris": {"ios": "https://dc.lft.to/lastmile_qr_scan", "android": "https://dc.lft.to/lastmile_qr_scan"}, "lon": -76.97831616666667, "type": "electric_bike", "fusion_lat": 0.0, "lat": 38.846125, "name": "0afb94c24c1e5e302fe6f0e77b169cff", "fusion_lon": 0.0, "bike_id": "0afb94c24c1e5e302fe6f0e77b169cff", "is_disabled": 0, "is_reserved": 0}, {"rental_uris": {"ios": "https://dc.lft.to/lastmile_qr_scan", "android": "https://dc.lft.to/lastmile_qr_scan"}, "lon": -77.03125616666667, "type": "electric_scooter", "fusion_lat": 0.0, "lat": 38.91036483333333, "name": "bd32969adc8218c76b18af29648d3f72", "fusion_lon": 0.0, "bike_id": "bd32969adc8218c76b18af29648d3f72", "is_disabled": 0, "is_reserved": 0}, {"rental_uris": {"ios": "https://dc.lft.to/lastmile_qr_scan", "android": "https://dc.lft.to/lastmile_qr_scan"}, "lon": -76.9839115, "type": "electric_bike", "fusion_lat": 0.0, "lat": 38.9220535, "name": "7e794117678090fd6ce252169f7fbef0", "fusion_lon": 0.0, "bike_id": "7e794117678090fd6ce252169f7fbef0", "is_disabled": 0, "is_reserved": 0}, {"rental_uris": {"ios": "https://dc.lft.to/lastmile_qr_scan", "android": "https://dc.lft.to/lastmile_qr_scan"}, "lon": -77.126266, "type": "electric_bike", "fusion_lat": 0.0, "lat": 39.0581365, "name": "bc6beae5481e6bb575d5f92c11efe432", "fusion_lon": 0.0, "bike_id": "bc6beae5481e6bb575d5f92c11efe432", "is_disabled": 0, "is_reserved": 0}, {"rental_uris": {"ios": "https://dc.lft.to/lastmile_qr_scan", "android": "https://dc.lft.to/lastmile_qr_scan"}, "lon": -77.0434125, "type": "electric_scooter", "fusion_lat": 0.0, "lat": 38.90379433333333, "name": "361924f68bb2f81ce2fc5ce76c8953ea", "fusion_lon": 0.0, "bike_id": "361924f68bb2f81ce2fc5ce76c8953ea", "is_disabled": 0, "is_reserved": 0}, {"rental_uris": {"ios": "https://dc.lft.to/lastmile_qr_scan", "android": "https://dc.lft.to/lastmile_qr_scan"}, "lon": -77.00649533333333, "type": "electric_scooter", "fusion_lat": 0.0, "lat": 38.905548, "name": "7a513e59482223a842676341be7a787a", "fusion_lon": 0.0, "bike_id": "7a513e59482223a842676341be7a787a", "is_disabled": 0, "is_reserved": 0}, {"rental_uris": {"ios": "https://dc.lft.to/lastmile_qr_scan", "android": "https://dc.lft.to/lastmile_qr_scan"}, "lon": -77.0322255, "type": "electric_scooter", "fusion_lat": 0.0, "lat": 38.89230233333333, "name": "73234e62be25ec88edc67e56cfb4ac23", "fusion_lon": 0.0, "bike_id": "73234e62be25ec88edc67e56cfb4ac23", "is_disabled": 0, "is_reserved": 0}, {"rental_uris": {"ios": "https://dc.lft.to/lastmile_qr_scan", "android": "https://dc.lft.to/lastmile_qr_scan"}, "lon": -77.0204175, "type": "electric_scooter", "fusion_lat": 0.0, "lat": 38.9155605, "name": "ff3c558e4035c531e0ba94528e8c9752", "fusion_lon": 0.0, "bike_id": "ff3c558e4035c531e0ba94528e8c9752", "is_disabled": 0, "is_reserved": 0}, {"rental_uris": {"ios": "https://dc.lft.to/lastmile_qr_scan", "android": "https://dc.lft.to/lastmile_qr_scan"}, "lon": -77.0332745, "type": "electric_scooter", "fusion_lat": 0.0, "lat": 38.898988, "name": "986fd6a080d748c8ff7816e9fa26595e", "fusion_lon": 0.0, "bike_id": "986fd6a080d748c8ff7816e9fa26595e", "is_disabled": 0, "is_reserved": 0}, {"rental_uris": {"ios": "https://dc.lft.to/lastmile_qr_scan", "android": "https://dc.lft.to/lastmile_qr_scan"}, "lon": -76.99598683333333, "type": "electric_scooter", "fusion_lat": 0.0, "lat": 38.9002965, "name": "a3a4ad4734cf1a04dd45efaeb9a7d59f", "fusion_lon": 0.0, "bike_id": "a3a4ad4734cf1a04dd45efaeb9a7d59f", "is_disabled": 0, "is_reserved": 0}, {"rental_uris": {"ios": "https://dc.lft.to/lastmile_qr_scan", "android": "https://dc.lft.to/lastmile_qr_scan"}, "lon": -76.98569783333333, "type": "electric_scooter", "fusion_lat": 0.0, "lat": 38.898944666666665, "name": "344d712884fc5d86115aac29c0f0255d", "fusion_lon": 0.0, "bike_id": "344d712884fc5d86115aac29c0f0255d", "is_disabled": 0, "is_reserved": 0}, {"rental_uris": {"ios": "https://dc.lft.to/lastmile_qr_scan", "android": "https://dc.lft.to/lastmile_qr_scan"}, "lon": -77.018123, "type": "electric_scooter", "fusion_lat": 0.0, "lat": 38.9119195, "name": "2f3936812f5d00b2646b26ec18f8b963", "fusion_lon": 0.0, "bike_id": "2f3936812f5d00b2646b26ec18f8b963", "is_disabled": 0, "is_reserved": 0}, {"rental_uris": {"ios": "https://dc.lft.to/lastmile_qr_scan", "android": "https://dc.lft.to/lastmile_qr_scan"}, "lon": -77.04688383333334, "type": "electric_scooter", "fusion_lat": 0.0, "lat": 38.892244166666664, "name": "dce8fc41d308d6ce5c74d515fec201f5", "fusion_lon": 0.0, "bike_id": "dce8fc41d308d6ce5c74d515fec201f5", "is_disabled": 0, "is_reserved": 0}, {"rental_uris": {"ios": "https://dc.lft.to/lastmile_qr_scan", "android": "https://dc.lft.to/lastmile_qr_scan"}, "lon": -77.0628135, "type": "electric_scooter", "fusion_lat": 0.0, "lat": 38.9068215, "name": "53824f0d7258824720d15ac570c23b20", "fusion_lon": 0.0, "bike_id": "53824f0d7258824720d15ac570c23b20", "is_disabled": 0, "is_reserved": 0}, {"rental_uris": {"ios": "https://dc.lft.to/lastmile_qr_scan", "android": "https://dc.lft.to/lastmile_qr_scan"}, "lon": -77.1002595, "type": "electric_bike", "fusion_lat": 0.0, "lat": 38.990675, "name": "bd00258897d843ca524360b40a1bfaae", "fusion_lon": 0.0, "bike_id": "bd00258897d843ca524360b40a1bfaae", "is_disabled": 0, "is_reserved": 0}, {"rental_uris": {"ios": "https://dc.lft.to/lastmile_qr_scan", "android": "https://dc.lft.to/lastmile_qr_scan"}, "lon": -77.03997483333333, "type": "electric_scooter", "fusion_lat": 0.0, "lat": 38.9141935, "name": "1db6adc1d88e7ba732aa6c3f4f27d2b3", "fusion_lon": 0.0, "bike_id": "1db6adc1d88e7ba732aa6c3f4f27d2b3", "is_disabled": 0, "is_reserved": 0}, {"rental_uris": {"ios": "https://dc.lft.to/lastmile_qr_scan", "android": "https://dc.lft.to/lastmile_qr_scan"}, "lon": -76.94650416666667, "type": "electric_scooter", "fusion_lat": 0.0, "lat": 38.89826433333333, "name": "d48e8918b5e437cb0e06d139c8d7019b", "fusion_lon": 0.0, "bike_id": "d48e8918b5e437cb0e06d139c8d7019b", "is_disabled": 0, "is_reserved": 0}, {"rental_uris": {"ios": "https://dc.lft.to/lastmile_qr_scan", "android": "https://dc.lft.to/lastmile_qr_scan"}, "lon": -77.04142866666666, "type": "electric_scooter", "fusion_lat": 0.0, "lat": 38.911916, "name": "4534cc5cd02af773b67044ba4134d387", "fusion_lon": 0.0, "bike_id": "4534cc5cd02af773b67044ba4134d387", "is_disabled": 0, "is_reserved": 0}, {"rental_uris": {"ios": "https://dc.lft.to/lastmile_qr_scan", "android": "https://dc.lft.to/lastmile_qr_scan"}, "lon": -77.02224483333333, "type": "electric_scooter", "fusion_lat": 0.0, "lat": 38.92742116666667, "name": "a43a6ae9c68ce7636adcd2d79058745c", "fusion_lon": 0.0, "bike_id": "a43a6ae9c68ce7636adcd2d79058745c", "is_disabled": 0, "is_reserved": 0}, {"rental_uris": {"ios": "https://dc.lft.to/lastmile_qr_scan", "android": "https://dc.lft.to/lastmile_qr_scan"}, "lon": -77.0046745, "type": "electric_scooter", "fusion_lat": 0.0, "lat": 38.877514, "name": "c6c6cfb4a453d55c43ff19f1a6ac743d", "fusion_lon": 0.0, "bike_id": "c6c6cfb4a453d55c43ff19f1a6ac743d", "is_disabled": 0, "is_reserved": 0}, {"rental_uris": {"ios": "https://dc.lft.to/lastmile_qr_scan", "android": "https://dc.lft.to/lastmile_qr_scan"}, "lon": -77.03430083333333, "type": "electric_scooter", "fusion_lat": 0.0, "lat": 38.93977433333333, "name": "0da038e6607eb39456565cf5edec2052", "fusion_lon": 0.0, "bike_id": "0da038e6607eb39456565cf5edec2052", "is_disabled": 0, "is_reserved": 0}, {"rental_uris": {"ios": "https://dc.lft.to/lastmile_qr_scan", "android": "https://dc.lft.to/lastmile_qr_scan"}, "lon": -77.0490335, "type": "electric_bike", "fusion_lat": 0.0, "lat": 38.8749715, "name": "73900c0ec33c4a22e19a8da401ce3e91", "fusion_lon": 0.0, "bike_id": "73900c0ec33c4a22e19a8da401ce3e91", "is_disabled": 0, "is_reserved": 0}, {"rental_uris": {"ios": "https://dc.lft.to/lastmile_qr_scan", "android": "https://dc.lft.to/lastmile_qr_scan"}, "lon": -77.03210233333333, "type": "electric_scooter", "fusion_lat": 0.0, "lat": 38.907255666666664, "name": "ecba3581a1b7925a47dd31e87389444c", "fusion_lon": 0.0, "bike_id": "ecba3581a1b7925a47dd31e87389444c", "is_disabled": 0, "is_reserved": 0}, {"rental_uris": {"ios": "https://dc.lft.to/lastmile_qr_scan", "android": "https://dc.lft.to/lastmile_qr_scan"}, "lon": -77.025623, "type": "electric_scooter", "fusion_lat": 0.0, "lat": 38.92471466666667, "name": "a42a7df590b37359f16f39569d98892d", "fusion_lon": 0.0, "bike_id": "a42a7df590b37359f16f39569d98892d", "is_disabled": 0, "is_reserved": 0}, {"rental_uris": {"ios": "https://dc.lft.to/lastmile_qr_scan", "android": "https://dc.lft.to/lastmile_qr_scan"}, "lon": -76.90969966666667, "type": "electric_bike", "fusion_lat": 0.0, "lat": 38.85443933333333, "name": "73f189a6472fd11a24170f29085b621f", "fusion_lon": 0.0, "bike_id": "73f189a6472fd11a24170f29085b621f", "is_disabled": 0, "is_reserved": 0}, {"rental_uris": {"ios": "https://dc.lft.to/lastmile_qr_scan", "android": "https://dc.lft.to/lastmile_qr_scan"}, "lon": -77.04195833333333, "type": "electric_scooter", "fusion_lat": 0.0, "lat": 38.920067, "name": "21347990cf44ddcddbcc409b0e918217", "fusion_lon": 0.0, "bike_id": "21347990cf44ddcddbcc409b0e918217", "is_disabled": 0, "is_reserved": 0}, {"rental_uris": {"ios": "https://dc.lft.to/lastmile_qr_scan", "android": "https://dc.lft.to/lastmile_qr_scan"}, "lon": -76.98258666666666, "type": "electric_scooter", "fusion_lat": 0.0, "lat": 38.9086835, "name": "53e55f0251879e60d0ca1c59f144f46b", "fusion_lon": 0.0, "bike_id": "53e55f0251879e60d0ca1c59f144f46b", "is_disabled": 0, "is_reserved": 0}, {"rental_uris": {"ios": "https://dc.lft.to/lastmile_qr_scan", "android": "https://dc.lft.to/lastmile_qr_scan"}, "lon": -77.030436, "type": "electric_scooter", "fusion_lat": 0.0, "lat": 38.909492666666665, "name": "ae9e76ba66460a08f00c3a15c6d403f6", "fusion_lon": 0.0, "bike_id": "ae9e76ba66460a08f00c3a15c6d403f6", "is_disabled": 0, "is_reserved": 0}, {"rental_uris": {"ios": "https://dc.lft.to/lastmile_qr_scan", "android": "https://dc.lft.to/lastmile_qr_scan"}, "lon": -77.03230083333334, "type": "electric_scooter", "fusion_lat": 0.0, "lat": 38.9314255, "name": "beee03c0b71dd51fa9eda7f7cf25fe72", "fusion_lon": 0.0, "bike_id": "beee03c0b71dd51fa9eda7f7cf25fe72", "is_disabled": 0, "is_reserved": 0}, {"rental_uris": {"ios": "https://dc.lft.to/lastmile_qr_scan", "android": "https://dc.lft.to/lastmile_qr_scan"}, "lon": -76.98179983333333, "type": "electric_scooter", "fusion_lat": 0.0, "lat": 38.89582683333333, "name": "208887c20fe17701d9adcfc7a730409a", "fusion_lon": 0.0, "bike_id": "208887c20fe17701d9adcfc7a730409a", "is_disabled": 0, "is_reserved": 0}, {"rental_uris": {"ios": "https://dc.lft.to/lastmile_qr_scan", "android": "https://dc.lft.to/lastmile_qr_scan"}, "lon": -77.03263733333333, "type": "electric_scooter", "fusion_lat": 0.0, "lat": 38.928204666666666, "name": "fc13b4f973cef613ab1834bf8ce10346", "fusion_lon": 0.0, "bike_id": "fc13b4f973cef613ab1834bf8ce10346", "is_disabled": 0, "is_reserved": 0}, {"rental_uris": {"ios": "https://dc.lft.to/lastmile_qr_scan", "android": "https://dc.lft.to/lastmile_qr_scan"}, "lon": -76.9918325, "type": "electric_bike", "fusion_lat": 0.0, "lat": 38.902467666666666, "name": "fe1f6fb5836dc4c235d1dd21dfcd70af", "fusion_lon": 0.0, "bike_id": "fe1f6fb5836dc4c235d1dd21dfcd70af", "is_disabled": 0, "is_reserved": 0}, {"rental_uris": {"ios": "https://dc.lft.to/lastmile_qr_scan", "android": "https://dc.lft.to/lastmile_qr_scan"}, "lon": -77.01935616666667, "type": "electric_scooter", "fusion_lat": 0.0, "lat": 38.902466833333335, "name": "66e3814cd40c153fa0cfb6ae07ed15b9", "fusion_lon": 0.0, "bike_id": "66e3814cd40c153fa0cfb6ae07ed15b9", "is_disabled": 0, "is_reserved": 0}, {"rental_uris": {"ios": "https://dc.lft.to/lastmile_qr_scan", "android": "https://dc.lft.to/lastmile_qr_scan"}, "lon": -77.031886, "type": "electric_scooter", "fusion_lat": 0.0, "lat": 38.913295, "name": "b319e549f8cf0512a1838916edb3c2e4", "fusion_lon": 0.0, "bike_id": "b319e549f8cf0512a1838916edb3c2e4", "is_disabled": 0, "is_reserved": 0}, {"rental_uris": {"ios": "https://dc.lft.to/lastmile_qr_scan", "android": "https://dc.lft.to/lastmile_qr_scan"}, "lon": -77.03189416666666, "type": "electric_scooter", "fusion_lat": 0.0, "lat": 38.918030333333334, "name": "4e4f824e19d5c48a5c42ab162759bcb1", "fusion_lon": 0.0, "bike_id": "4e4f824e19d5c48a5c42ab162759bcb1", "is_disabled": 0, "is_reserved": 0}, {"rental_uris": {"ios": "https://dc.lft.to/lastmile_qr_scan", "android": "https://dc.lft.to/lastmile_qr_scan"}, "lon": -77.01874, "type": "electric_scooter", "fusion_lat": 0.0, "lat": 38.887491, "name": "27427cce851074b5552311b59fb2b382", "fusion_lon": 0.0, "bike_id": "27427cce851074b5552311b59fb2b382", "is_disabled": 0, "is_reserved": 0}, {"rental_uris": {"ios": "https://dc.lft.to/lastmile_qr_scan", "android": "https://dc.lft.to/lastmile_qr_scan"}, "lon": -77.0454815, "type": "electric_scooter", "fusion_lat": 0.0, "lat": 38.93392683333333, "name": "74b8884db8c5648c13f413cebc592012", "fusion_lon": 0.0, "bike_id": "74b8884db8c5648c13f413cebc592012", "is_disabled": 0, "is_reserved": 0}, {"rental_uris": {"ios": "https://dc.lft.to/lastmile_qr_scan", "android": "https://dc.lft.to/lastmile_qr_scan"}, "lon": -77.00067433333334, "type": "electric_scooter", "fusion_lat": 0.0, "lat": 38.9005555, "name": "a53765a641b2a2089dafea75bcd44693", "fusion_lon": 0.0, "bike_id": "a53765a641b2a2089dafea75bcd44693", "is_disabled": 0, "is_reserved": 0}, {"rental_uris": {"ios": "https://dc.lft.to/lastmile_qr_scan", "android": "https://dc.lft.to/lastmile_qr_scan"}, "lon": -77.01379533333333, "type": "electric_scooter", "fusion_lat": 0.0, "lat": 38.928268, "name": "f5d1965aeb87d39e9e72368e9b14d333", "fusion_lon": 0.0, "bike_id": "f5d1965aeb87d39e9e72368e9b14d333", "is_disabled": 0, "is_reserved": 0}, {"rental_uris": {"ios": "https://dc.lft.to/lastmile_qr_scan", "android": "https://dc.lft.to/lastmile_qr_scan"},