{"data": {"bikes": [{"lon": -76.98354566666667, "bike_id": "8b478df091c9ada44e7b1fc6f357f4ee", "lat": 38.88766666666667, "fusion_lon": 0.0, "fusion_lat": 0.0, "type": "electric_scooter", "name": "8b478df091c9ada44e7b1fc6f357f4ee", "is_disabled": 0, "rental_uris": {"ios": "https://dc.lft.to/lastmile_qr_scan", "android": "https://dc.lft.to/lastmile_qr_scan"}, "is_reserved": 0}, {"lon": -76.94635616666666, "bike_id": "e37077fb935f3b32ad2d48a6854bd110", "lat": 38.89832716666667, "fusion_lon": 0.0, "fusion_lat": 0.0, "type": "electric_scooter", "name": "e37077fb935f3b32ad2d48a6854bd110", "is_disabled": 0, "rental_uris": {"ios": "https://dc.lft.to/lastmile_qr_scan", "android": "https://dc.lft.to/lastmile_qr_scan"}, "is_reserved": 0}, {"lon": -77.06341366666666, "bike_id": "08aee224d2434d5444bf7213036d3bea", "lat": 38.906816166666665, "fusion_lon": 0.0, "fusion_lat": 0.0, "type": "electric_scooter", "name": "08aee224d2434d5444bf7213036d3bea", "is_disabled": 0, "rental_uris": {"ios": "https://dc.lft.to/lastmile_qr_scan", "android": "https://dc.lft.to/lastmile_qr_scan"}, "is_reserved": 0}, {"lon": -77.03452766666666, "bike_id": "8ba5c1bd38f74ada1dcb3966f39b4438", "lat": 38.90807866666667, "fusion_lon": 0.0, "fusion_lat": 0.0, "type": "electric_scooter", "name": "8ba5c1bd38f74ada1dcb3966f39b4438", "is_disabled": 0, "rental_uris": {"ios": "https://dc.lft.to/lastmile_qr_scan", "android": "https://dc.lft.to/lastmile_qr_scan"}, "is_reserved": 0}, {"lon": -77.08457966666667, "bike_id": "64c16388c84d8ed7bb26a8b8a0df7c2a", "lat": 38.848190333333335, "fusion_lon": 0.0, "fusion_lat": 0.0, "type": "electric_bike", "name": "64c16388c84d8ed7bb26a8b8a0df7c2a", "is_disabled": 0, "rental_uris": {"ios": "https://dc.lft.to/lastmile_qr_scan", "android": "https://dc.lft.to/lastmile_qr_scan"}, "is_reserved": 0}, {"lon": -77.03508383333333, "bike_id": "d405d20de122cd32693c4685c91fe915", "lat": 38.91251116666667, "fusion_lon": 0.0, "fusion_lat": 0.0, "type": "electric_scooter", "name": "d405d20de122cd32693c4685c91fe915", "is_disabled": 0, "rental_uris": {"ios": "https://dc.lft.to/lastmile_qr_scan", "android": "https://dc.lft.to/lastmile_qr_scan"}, "is_reserved": 0}, {"lon": -77.0343815, "bike_id": "e6e45d44c59504a756b40fdec766c3a0", "lat": 38.922378333333334, "fusion_lon": 0.0, "fusion_lat": 0.0, "type": "electric_scooter", "name": "e6e45d44c59504a756b40fdec766c3a0", "is_disabled": 0, "rental_uris": {"ios": "https://dc.lft.to/lastmile_qr_scan", "android": "https://dc.lft.to/lastmile_qr_scan"}, "is_reserved": 0}, {"lon": -76.97547933333334, "bike_id": "cb0f14b5348f5558be6b5b644458d2ca", "lat": 38.90322316666666, "fusion_lon": 0.0, "fusion_lat": 0.0, "type": "electric_scooter", "name": "cb0f14b5348f5558be6b5b644458d2ca", "is_disabled": 0, "rental_uris": {"ios": "https://dc.lft.to/lastmile_qr_scan", "android": "https://dc.lft.to/lastmile_qr_scan"}, "is_reserved": 0}, {"lon": -77.02174683333334, "bike_id": "2de511ce7bb7637481a508996f02733e", "lat": 38.91625066666667, "fusion_lon": 0.0, "fusion_lat": 0.0, "type": "electric_scooter", "name": "2de511ce7bb7637481a508996f02733e", "is_disabled": 0, "rental_uris": {"ios": "https://dc.lft.to/lastmile_qr_scan", "android": "https://dc.lft.to/lastmile_qr_scan"}, "is_reserved": 0}, {"lon": -76.97391116666667, "bike_id": "8554b263b064f2efb3b623b05740bab0", "lat": 38.90557, "fusion_lon": 0.0, "fusion_lat": 0.0, "type": "electric_scooter", "name": "8554b263b064f2efb3b623b05740bab0", "is_disabled": 0, "rental_uris": {"ios": "https://dc.lft.to/lastmile_qr_scan", "android": "https://dc.lft.to/lastmile_qr_scan"}, "is_reserved": 0}, {"lon": -77.03393916666667, "bike_id": "5f9f237b5e35f4a329cd2a4f4ab57c25", "lat": 38.90971366666667, "fusion_lon": 0.0, "fusion_lat": 0.0, "type": "electric_scooter", "name": "5f9f237b5e35f4a329cd2a4f4ab57c25", "is_disabled": 0, "rental_uris": {"ios": "https://dc.lft.to/lastmile_qr_scan", "android": "https://dc.lft.to/lastmile_qr_scan"}, "is_reserved": 0}, {"lon": -77.045645, "bike_id": "1697885820dd61ce180a2840c8ab936d", "lat": 38.914042333333335, "fusion_lon": 0.0, "fusion_lat": 0.0, "type": "electric_scooter", "name": "1697885820dd61ce180a2840c8ab936d", "is_disabled": 0, "rental_uris": {"ios": "https://dc.lft.to/lastmile_qr_scan", "android": "https://dc.lft.to/lastmile_qr_scan"}, "is_reserved": 0}, {"lon": -77.035004, "bike_id": "5acbd0e520c9874b862ce6df7b942e54", "lat": 38.937515833333336, "fusion_lon": 0.0, "fusion_lat": 0.0, "type": "electric_scooter", "name": "5acbd0e520c9874b862ce6df7b942e54", "is_disabled": 0, "rental_uris": {"ios": "https://dc.lft.to/lastmile_qr_scan", "android": "https://dc.lft.to/lastmile_qr_scan"}, "is_reserved": 0}, {"lon": -77.02708133333333, "bike_id": "329628ab15024988e19fa17154b2448e", "lat": 38.897056166666665, "fusion_lon": 0.0, "fusion_lat": 0.0, "type": "electric_scooter", "name": "329628ab15024988e19fa17154b2448e", "is_disabled": 0, "rental_uris": {"ios": "https://dc.lft.to/lastmile_qr_scan", "android": "https://dc.lft.to/lastmile_qr_scan"}, "is_reserved": 0}, {"lon": -76.995039, "bike_id": "386ea237c5a61a0edd590da452754e19", "lat": 38.862448, "fusion_lon": 0.0, "fusion_lat": 0.0, "type": "electric_scooter", "name": "386ea237c5a61a0edd590da452754e19", "is_disabled": 0, "rental_uris": {"ios": "https://dc.lft.to/lastmile_qr_scan", "android": "https://dc.lft.to/lastmile_qr_scan"}, "is_reserved": 0}, {"lon": -77.00974816666667, "bike_id": "f96fbdd902c9b34c77981c2e49bb0c31", "lat": 38.87068683333333, "fusion_lon": 0.0, "fusion_lat": 0.0, "type": "electric_scooter", "name": "f96fbdd902c9b34c77981c2e49bb0c31", "is_disabled": 0, "rental_uris": {"ios": "https://dc.lft.to/lastmile_qr_scan", "android": "https://dc.lft.to/lastmile_qr_scan"}, "is_reserved": 0}, {"lon": -77.139327, "bike_id": "61a5da681fb108b048bf16dbaa62baa0", "lat": 38.872976333333334, "fusion_lon": 0.0, "fusion_lat": 0.0, "type": "electric_bike", "name": "61a5da681fb108b048bf16dbaa62baa0", "is_disabled": 0, "rental_uris": {"ios": "https://dc.lft.to/lastmile_qr_scan", "android": "https://dc.lft.to/lastmile_qr_scan"}, "is_reserved": 0}, {"lon": -77.03814816666667, "bike_id": "ec586745d319b80dbd9672392ad27eb6", "lat": 38.930961, "fusion_lon": 0.0, "fusion_lat": 0.0, "type": "electric_scooter", "name": "ec586745d319b80dbd9672392ad27eb6", "is_disabled": 0, "rental_uris": {"ios": "https://dc.lft.to/lastmile_qr_scan", "android": "https://dc.lft.to/lastmile_qr_scan"}, "is_reserved": 0}, {"lon": -77.00876333333333, "bike_id": "908fcdba0158a54796b0de354d0302b1", "lat": 38.82532116666667, "fusion_lon": 0.0, "fusion_lat": 0.0, "type": "electric_scooter", "name": "908fcdba0158a54796b0de354d0302b1", "is_disabled": 0, "rental_uris": {"ios": "https://dc.lft.to/lastmile_qr_scan", "android": "https://dc.lft.to/lastmile_qr_scan"}, "is_reserved": 0}, {"lon": -77.04489066666666, "bike_id": "86ea2744de720a81b752ae42f6b75017", "lat": 38.91331, "fusion_lon": 0.0, "fusion_lat": 0.0, "type": "electric_scooter", "name": "86ea2744de720a81b752ae42f6b75017", "is_disabled": 0, "rental_uris": {"ios": "https://dc.lft.to/lastmile_qr_scan", "android": "https://dc.lft.to/lastmile_qr_scan"}, "is_reserved": 0}, {"lon": -76.98835616666666, "bike_id": "b9f07522346be4f7d4cdff76f4f96332", "lat": 38.896684666666665, "fusion_lon": 0.0, "fusion_lat": 0.0, "type": "electric_scooter", "name": "b9f07522346be4f7d4cdff76f4f96332", "is_disabled": 0, "rental_uris": {"ios": "https://dc.lft.to/lastmile_qr_scan", "android": "https://dc.lft.to/lastmile_qr_scan"}, "is_reserved": 0}, {"lon": -77.05575066666667, "bike_id": "f9dbbc17df300eb73bc826855f54e48a", "lat": 38.93054266666667, "fusion_lon": 0.0, "fusion_lat": 0.0, "type": "electric_scooter", "name": "f9dbbc17df300eb73bc826855f54e48a", "is_disabled": 0, "rental_uris": {"ios": "https://dc.lft.to/lastmile_qr_scan", "android": "https://dc.lft.to/lastmile_qr_scan"}, "is_reserved": 0}, {"lon": -77.02209333333333, "bike_id": "75bea2c931332bd15694bd0b406b37e9", "lat": 38.89352616666667, "fusion_lon": 0.0, "fusion_lat": 0.0, "type": "electric_scooter", "name": "75bea2c931332bd15694bd0b406b37e9", "is_disabled": 0, "rental_uris": {"ios": "https://dc.lft.to/lastmile_qr_scan", "android": "https://dc.lft.to/lastmile_qr_scan"}, "is_reserved": 0}, {"lon": -77.0776515, "bike_id": "266c394481b77ce47e494a3d107c0a4f", "lat": 38.95772916666667, "fusion_lon": 0.0, "fusion_lat": 0.0, "type": "electric_scooter", "name": "266c394481b77ce47e494a3d107c0a4f", "is_disabled": 0, "rental_uris": {"ios": "https://dc.lft.to/lastmile_qr_scan", "android": "https://dc.lft.to/lastmile_qr_scan"}, "is_reserved": 0}, {"lon": -77.12428366666667, "bike_id": "8ec26e350fbbb2d32bc42d2e69460412", "lat": 38.853806166666665, "fusion_lon": 0.0, "fusion_lat": 0.0, "type": "electric_bike", "name": "8ec26e350fbbb2d32bc42d2e69460412", "is_disabled": 0, "rental_uris": {"ios": "https://dc.lft.to/lastmile_qr_scan", "android": "https://dc.lft.to/lastmile_qr_scan"}, "is_reserved": 0}, {"lon": -76.97204866666667, "bike_id": "197f4b0e472c7f8ccedaf3dec896410b", "lat": 38.892883166666664, "fusion_lon": 0.0, "fusion_lat": 0.0, "type": "electric_bike", "name": "197f4b0e472c7f8ccedaf3dec896410b", "is_disabled": 0, "rental_uris": {"ios": "https://dc.lft.to/lastmile_qr_scan", "android": "https://dc.lft.to/lastmile_qr_scan"}, "is_reserved": 0}, {"lon": -77.03662183333333, "bike_id": "1eba153c04041d9bbc3e4a3916ad4df3", "lat": 38.91711216666667, "fusion_lon": 0.0, "fusion_lat": 0.0, "type": "electric_scooter", "name": "1eba153c04041d9bbc3e4a3916ad4df3", "is_disabled": 0, "rental_uris": {"ios": "https://dc.lft.to/lastmile_qr_scan", "android": "https://dc.lft.to/lastmile_qr_scan"}, "is_reserved": 0}, {"lon": -77.00603033333333, "bike_id": "5760766bf1bfb3db6a001b96f8b97c4a", "lat": 38.872993, "fusion_lon": 0.0, "fusion_lat": 0.0, "type": "electric_scooter", "name": "5760766bf1bfb3db6a001b96f8b97c4a", "is_disabled": 0, "rental_uris": {"ios": "https://dc.lft.to/lastmile_qr_scan", "android": "https://dc.lft.to/lastmile_qr_scan"}, "is_reserved": 0}, {"lon": -77.0385865, "bike_id": "7c48833b17b8707e3f5b49f7e649ec0e", "lat": 38.9171615, "fusion_lon": 0.0, "fusion_lat": 0.0, "type": "electric_scooter", "name": "7c48833b17b8707e3f5b49f7e649ec0e", "is_disabled": 0, "rental_uris": {"ios": "https://dc.lft.to/lastmile_qr_scan", "android": "https://dc.lft.to/lastmile_qr_scan"}, "is_reserved": 0}, {"lon": -77.03628883333333, "bike_id": "2e4e5078f6b35294feab3b1825a3b548", "lat": 38.92463883333333, "fusion_lon": 0.0, "fusion_lat": 0.0, "type": "electric_scooter", "name": "2e4e5078f6b35294feab3b1825a3b548", "is_disabled": 0, "rental_uris": {"ios": "https://dc.lft.to/lastmile_qr_scan", "android": "https://dc.lft.to/lastmile_qr_scan"}, "is_reserved": 0}, {"lon": -77.02452733333334, "bike_id": "995b70c171f9594c068d165a0141aa4d", "lat": 38.938341333333334, "fusion_lon": 0.0, "fusion_lat": 0.0, "type": "electric_scooter", "name": "995b70c171f9594c068d165a0141aa4d", "is_disabled": 0, "rental_uris": {"ios": "https://dc.lft.to/lastmile_qr_scan", "android": "https://dc.lft.to/lastmile_qr_scan"}, "is_reserved": 0}, {"lon": -77.048748, "bike_id": "342050f1af755788cc909a4e686770c0", "lat": 38.89234716666667, "fusion_lon": 0.0, "fusion_lat": 0.0, "type": "electric_scooter", "name": "342050f1af755788cc909a4e686770c0", "is_disabled": 0, "rental_uris": {"ios": "https://dc.lft.to/lastmile_qr_scan", "android": "https://dc.lft.to/lastmile_qr_scan"}, "is_reserved": 0}, {"lon": -77.02069083333333, "bike_id": "354023da9ec555efef9628f5496091f3", "lat": 38.92700833333333, "fusion_lon": 0.0, "fusion_lat": 0.0, "type": "electric_scooter", "name": "354023da9ec555efef9628f5496091f3", "is_disabled": 0, "rental_uris": {"ios": "https://dc.lft.to/lastmile_qr_scan", "android": "https://dc.lft.to/lastmile_qr_scan"}, "is_reserved": 0}, {"lon": -77.036606, "bike_id": "c4992bed28e8cbe29f2550996e991aaf", "lat": 38.907923333333336, "fusion_lon": 0.0, "fusion_lat": 0.0, "type": "electric_scooter", "name": "c4992bed28e8cbe29f2550996e991aaf", "is_disabled": 0, "rental_uris": {"ios": "https://dc.lft.to/lastmile_qr_scan", "android": "https://dc.lft.to/lastmile_qr_scan"}, "is_reserved": 0}, {"lon": -77.04157566666666, "bike_id": "cde615ebe337471de16227a836cfd85d", "lat": 38.9179745, "fusion_lon": 0.0, "fusion_lat": 0.0, "type": "electric_scooter", "name": "cde615ebe337471de16227a836cfd85d", "is_disabled": 0, "rental_uris": {"ios": "https://dc.lft.to/lastmile_qr_scan", "android": "https://dc.lft.to/lastmile_qr_scan"}, "is_reserved": 0}, {"lon": -76.98829983333333, "bike_id": "26494cdf96257e059a132120fdc7ab46", "lat": 38.901252166666666, "fusion_lon": 0.0, "fusion_lat": 0.0, "type": "electric_scooter", "name": "26494cdf96257e059a132120fdc7ab46", "is_disabled": 0, "rental_uris": {"ios": "https://dc.lft.to/lastmile_qr_scan", "android": "https://dc.lft.to/lastmile_qr_scan"}, "is_reserved": 0}, {"lon": -77.09493766666667, "bike_id": "ee05b202fcae2c8894936fbb2c6e2a63", "lat": 38.807642666666666, "fusion_lon": 0.0, "fusion_lat": 0.0, "type": "electric_bike", "name": "ee05b202fcae2c8894936fbb2c6e2a63", "is_disabled": 0, "rental_uris": {"ios": "https://dc.lft.to/lastmile_qr_scan", "android": "https://dc.lft.to/lastmile_qr_scan"}, "is_reserved": 0}, {"lon": -77.0175755, "bike_id": "c2adfb64da5cc69be99762c0a15eeb40", "lat": 38.902606166666665, "fusion_lon": 0.0, "fusion_lat": 0.0, "type": "electric_scooter", "name": "c2adfb64da5cc69be99762c0a15eeb40", "is_disabled": 0, "rental_uris": {"ios": "https://dc.lft.to/lastmile_qr_scan", "android": "https://dc.lft.to/lastmile_qr_scan"}, "is_reserved": 0}, {"lon": -77.04489666666667, "bike_id": "ed3189f60916764e4a1c2d1345852701", "lat": 38.90376066666666, "fusion_lon": 0.0, "fusion_lat": 0.0, "type": "electric_scooter", "name": "ed3189f60916764e4a1c2d1345852701", "is_disabled": 0, "rental_uris": {"ios": "https://dc.lft.to/lastmile_qr_scan", "android": "https://dc.lft.to/lastmile_qr_scan"}, "is_reserved": 0}, {"lon": -77.04465416666666, "bike_id": "58d9d4b619c073cc78f54ddf84ffafa6", "lat": 38.92433233333333, "fusion_lon": 0.0, "fusion_lat": 0.0, "type": "electric_scooter", "name": "58d9d4b619c073cc78f54ddf84ffafa6", "is_disabled": 0, "rental_uris": {"ios": "https://dc.lft.to/lastmile_qr_scan", "android": "https://dc.lft.to/lastmile_qr_scan"}, "is_reserved": 0}, {"lon": -77.04725233333333, "bike_id": "568bf447bc6657d9b52beea820000593", "lat": 38.9030055, "fusion_lon": 0.0, "fusion_lat": 0.0, "type": "electric_scooter", "name": "568bf447bc6657d9b52beea820000593", "is_disabled": 0, "rental_uris": {"ios": "https://dc.lft.to/lastmile_qr_scan", "android": "https://dc.lft.to/lastmile_qr_scan"}, "is_reserved": 0}, {"lon": -77.00887433333334, "bike_id": "1cbeb67b5c823bda5d3bdf5414e63ceb", "lat": 38.9611405, "fusion_lon": 0.0, "fusion_lat": 0.0, "type": "electric_scooter", "name": "1cbeb67b5c823bda5d3bdf5414e63ceb", "is_disabled": 0, "rental_uris": {"ios": "https://dc.lft.to/lastmile_qr_scan", "android": "https://dc.lft.to/lastmile_qr_scan"}, "is_reserved": 0}, {"lon": -76.9460105, "bike_id": "fd6a9c6681b1db64e773b88c2aeaa378", "lat": 38.90145566666666, "fusion_lon": 0.0, "fusion_lat": 0.0, "type": "electric_scooter", "name": "fd6a9c6681b1db64e773b88c2aeaa378", "is_disabled": 0, "rental_uris": {"ios": "https://dc.lft.to/lastmile_qr_scan", "android": "https://dc.lft.to/lastmile_qr_scan"}, "is_reserved": 0}, {"lon": -77.03271716666667, "bike_id": "28c20bc9ec8bdbbc315da2605da991f0", "lat": 38.90140533333334, "fusion_lon": 0.0, "fusion_lat": 0.0, "type": "electric_scooter", "name": "28c20bc9ec8bdbbc315da2605da991f0", "is_disabled": 0, "rental_uris": {"ios": "https://dc.lft.to/lastmile_qr_scan", "android": "https://dc.lft.to/lastmile_qr_scan"}, "is_reserved": 0}, {"lon": -76.93187466666667, "bike_id": "142846bfd907aee05fab286bb155470c", "lat": 38.8987545, "fusion_lon": 0.0, "fusion_lat": 0.0, "type": "electric_scooter", "name": "142846bfd907aee05fab286bb155470c", "is_disabled": 0, "rental_uris": {"ios": "https://dc.lft.to/lastmile_qr_scan", "android": "https://dc.lft.to/lastmile_qr_scan"}, "is_reserved": 0}, {"lon": -77.02965916666666, "bike_id": "a96a66b9755337741593413eba11a61f", "lat": 38.92290033333333, "fusion_lon": 0.0, "fusion_lat": 0.0, "type": "electric_scooter", "name": "a96a66b9755337741593413eba11a61f", "is_disabled": 0, "rental_uris": {"ios": "https://dc.lft.to/lastmile_qr_scan", "android": "https://dc.lft.to/lastmile_qr_scan"}, "is_reserved": 0}, {"lon": -76.97396633333334, "bike_id": "4110570bc8664a289d3195f754bac9fb", "lat": 38.902960666666665, "fusion_lon": 0.0, "fusion_lat": 0.0, "type": "electric_scooter", "name": "4110570bc8664a289d3195f754bac9fb", "is_disabled": 0, "rental_uris": {"ios": "https://dc.lft.to/lastmile_qr_scan", "android": "https://dc.lft.to/lastmile_qr_scan"}, "is_reserved": 0}, {"lon": -76.9903545, "bike_id": "4f23b8d616d8d4052f39325801209bdb", "lat": 38.8887435, "fusion_lon": 0.0, "fusion_lat": 0.0, "type": "electric_scooter", "name": "4f23b8d616d8d4052f39325801209bdb", "is_disabled": 0, "rental_uris": {"ios": "https://dc.lft.to/lastmile_qr_scan", "android": "https://dc.lft.to/lastmile_qr_scan"}, "is_reserved": 0}, {"lon": -77.02588433333334, "bike_id": "cb98145998e59fabf1f0eb3160b1f8ce", "lat": 38.94202383333333, "fusion_lon": 0.0, "fusion_lat": 0.0, "type": "electric_scooter", "name": "cb98145998e59fabf1f0eb3160b1f8ce", "is_disabled": 0, "rental_uris": {"ios": "https://dc.lft.to/lastmile_qr_scan", "android": "https://dc.lft.to/lastmile_qr_scan"}, "is_reserved": 0}, {"lon": -77.02714183333333, "bike_id": "906f16d3bf21b3a12278ea57425318ff", "lat": 38.9246395, "fusion_lon": 0.0, "fusion_lat": 0.0, "type": "electric_scooter", "name": "906f16d3bf21b3a12278ea57425318ff", "is_disabled": 0, "rental_uris": {"ios": "https://dc.lft.to/lastmile_qr_scan", "android": "https://dc.lft.to/lastmile_qr_scan"}, "is_reserved": 0}, {"lon": -77.03211883333333, "bike_id": "8b2aaebb972f06c717f0bb6c783112d4", "lat": 38.91480133333334, "fusion_lon": 0.0, "fusion_lat": 0.0, "type": "electric_scooter", "name": "8b2aaebb972f06c717f0bb6c783112d4", "is_disabled": 0, "rental_uris": {"ios": "https://dc.lft.to/lastmile_qr_scan", "android": "https://dc.lft.to/lastmile_qr_scan"}, "is_reserved": 0}, {"lon": -77.02826933333333, "bike_id": "1a7e68881d1fa12ecb5e55ba8b164b10", "lat": 38.887311833333335, "fusion_lon": 0.0, "fusion_lat": 0.0, "type": "electric_scooter", "name": "1a7e68881d1fa12ecb5e55ba8b164b10", "is_disabled": 0, "rental_uris": {"ios": "https://dc.lft.to/lastmile_qr_scan", "android": "https://dc.lft.to/lastmile_qr_scan"}, "is_reserved": 0}, {"lon": -76.98923466666666, "bike_id": "4cfd866f78fd21f8cf5637adfbcaef1e", "lat": 38.86492416666667, "fusion_lon": 0.0, "fusion_lat": 0.0, "type": "electric_scooter", "name": "4cfd866f78fd21f8cf5637adfbcaef1e", "is_disabled": 0, "rental_uris": {"ios": "https://dc.lft.to/lastmile_qr_scan", "android": "https://dc.lft.to/lastmile_qr_scan"}, "is_reserved": 0}, {"lon": -77.08490333333333, "bike_id": "1b5e5c0ae693c01dbbd64d84d75c4557", "lat": 38.84846533333333, "fusion_lon": 0.0, "fusion_lat": 0.0, "type": "electric_bike", "name": "1b5e5c0ae693c01dbbd64d84d75c4557", "is_disabled": 0, "rental_uris": {"ios": "https://dc.lft.to/lastmile_qr_scan", "android": "https://dc.lft.to/lastmile_qr_scan"}, "is_reserved": 0}, {"lon": -77.04280666666666, "bike_id": "3b197cbf299815cca0b64bf3fa158f0e", "lat": 38.900311, "fusion_lon": 0.0, "fusion_lat": 0.0, "type": "electric_scooter", "name": "3b197cbf299815cca0b64bf3fa158f0e", "is_disabled": 0, "rental_uris": {"ios": "https://dc.lft.to/lastmile_qr_scan", "android": "https://dc.lft.to/lastmile_qr_scan"}, "is_reserved": 0}, {"lon": -77.031815, "bike_id": "cb4d76ffefa69e924da05d699b38f923", "lat": 38.93051366666667, "fusion_lon": 0.0, "fusion_lat": 0.0, "type": "electric_scooter", "name": "cb4d76ffefa69e924da05d699b38f923", "is_disabled": 0, "rental_uris": {"ios": "https://dc.lft.to/lastmile_qr_scan", "android": "https://dc.lft.to/lastmile_qr_scan"}, "is_reserved": 0}, {"lon": -77.02602133333333, "bike_id": "35a418d373c02f53f631ce27e7db20e0", "lat": 38.906545, "fusion_lon": 0.0, "fusion_lat": 0.0, "type": "electric_scooter", "name": "35a418d373c02f53f631ce27e7db20e0", "is_disabled": 0, "rental_uris": {"ios": "https://dc.lft.to/lastmile_qr_scan", "android": "https://dc.lft.to/lastmile_qr_scan"}, "is_reserved": 0}, {"lon": -77.0161045, "bike_id": "d8320701ef786ecc69ea67d05f7052e6", "lat": 38.876974833333335, "fusion_lon": 0.0, "fusion_lat": 0.0, "type": "electric_scooter", "name": "d8320701ef786ecc69ea67d05f7052e6", "is_disabled": 0, "rental_uris": {"ios": "https://dc.lft.to/lastmile_qr_scan", "android": "https://dc.lft.to/lastmile_qr_scan"}, "is_reserved": 0}, {"lon": -77.04873, "bike_id": "28a60408114c71a93bbad9529dcfe30a", "lat": 38.892279, "fusion_lon": 0.0, "fusion_lat": 0.0, "type": "electric_scooter", "name": "28a60408114c71a93bbad9529dcfe30a", "is_disabled": 0, "rental_uris": {"ios": "https://dc.lft.to/lastmile_qr_scan", "android": "https://dc.lft.to/lastmile_qr_scan"}, "is_reserved": 0}, {"lon": -77.02105566666667, "bike_id": "27513b0ae13ecd039770a22e1d8fcf31", "lat": 38.905604, "fusion_lon": 0.0, "fusion_lat": 0.0, "type": "electric_scooter", "name": "27513b0ae13ecd039770a22e1d8fcf31", "is_disabled": 0, "rental_uris": {"ios": "https://dc.lft.to/lastmile_qr_scan", "android": "https://dc.lft.to/lastmile_qr_scan"}, "is_reserved": 0}, {"lon": -77.0514765, "bike_id": "940f8bc9357180cafa8fe0b5ab8d1e97", "lat": 38.9236985, "fusion_lon": 0.0, "fusion_lat": 0.0, "type": "electric_scooter", "name": "940f8bc9357180cafa8fe0b5ab8d1e97", "is_disabled": 0, "rental_uris": {"ios": "https://dc.lft.to/lastmile_qr_scan", "android": "https://dc.lft.to/lastmile_qr_scan"}, "is_reserved": 0}, {"lon": -77.02327533333333, "bike_id": "24c007cc4f25937f149797cf58b7d2eb", "lat": 38.92407133333333, "fusion_lon": 0.0, "fusion_lat": 0.0, "type": "electric_scooter", "name": "24c007cc4f25937f149797cf58b7d2eb", "is_disabled": 0, "rental_uris": {"ios": "https://dc.lft.to/lastmile_qr_scan", "android": "https://dc.lft.to/lastmile_qr_scan"}, "is_reserved": 0}, {"lon": -77.0418, "bike_id": "008d9746e4cf5264c22d60d5a959f030", "lat": 38.919851333333334, "fusion_lon": 0.0, "fusion_lat": 0.0, "type": "electric_scooter", "name": "008d9746e4cf5264c22d60d5a959f030", "is_disabled": 0, "rental_uris": {"ios": "https://dc.lft.to/lastmile_qr_scan", "android": "https://dc.lft.to/lastmile_qr_scan"}, "is_reserved": 0}, {"lon": -77.03681233333333, "bike_id": "f64aa56ecaf0331576520df8769ebab7", "lat": 38.9392575, "fusion_lon": 0.0, "fusion_lat": 0.0, "type": "electric_scooter", "name": "f64aa56ecaf0331576520df8769ebab7", "is_disabled": 0, "rental_uris": {"ios": "https://dc.lft.to/lastmile_qr_scan", "android": "https://dc.lft.to/lastmile_qr_scan"}, "is_reserved": 0}, {"lon": -77.0297535, "bike_id": "bb0f9d5e3d4b21844e4f95909420e9e3", "lat": 38.9166415, "fusion_lon": 0.0, "fusion_lat": 0.0, "type": "electric_scooter", "name": "bb0f9d5e3d4b21844e4f95909420e9e3", "is_disabled": 0, "rental_uris": {"ios": "https://dc.lft.to/lastmile_qr_scan", "android": "https://dc.lft.to/lastmile_qr_scan"}, "is_reserved": 0}, {"lon": -77.03871716666667, "bike_id": "607193cef4448b1df87501fbb52c662d", "lat": 38.9214785, "fusion_lon": 0.0, "fusion_lat": 0.0, "type": "electric_scooter", "name": "607193cef4448b1df87501fbb52c662d", "is_disabled": 0, "rental_uris": {"ios": "https://dc.lft.to/lastmile_qr_scan", "android": "https://dc.lft.to/lastmile_qr_scan"}, "is_reserved": 0}, {"lon": -77.03332983333334, "bike_id": "091b1c888ffd9f53ed81798e2080f6a0", "lat": 38.89841666666667, "fusion_lon": 0.0, "fusion_lat": 0.0, "type": "electric_scooter", "name": "091b1c888ffd9f53ed81798e2080f6a0", "is_disabled": 0, "rental_uris": {"ios": "https://dc.lft.to/lastmile_qr_scan", "android": "https://dc.lft.to/lastmile_qr_scan"}, "is_reserved": 0}, {"lon": -77.064182, "bike_id": "6f8f68ece2a0695501adf3e286d6e735", "lat": 38.993336166666666, "fusion_lon": 0.0, "fusion_lat": 0.0, "type": "electric_scooter", "name": "6f8f68ece2a0695501adf3e286d6e735", "is_disabled": 0, "rental_uris": {"ios": "https://dc.lft.to/lastmile_qr_scan", "android": "https://dc.lft.to/lastmile_qr_scan"}, "is_reserved": 0}, {"lon": -76.94032083333333, "bike_id": "16cea5a49bc332f3969f3b85baf33c75", "lat": 38.90819416666667, "fusion_lon": 0.0, "fusion_lat": 0.0, "type": "electric_bike", "name": "16cea5a49bc332f3969f3b85baf33c75", "is_disabled": 0, "rental_uris": {"ios": "https://dc.lft.to/lastmile_qr_scan", "android": "https://dc.lft.to/lastmile_qr_scan"}, "is_reserved": 0}, {"lon": -77.03632566666667, "bike_id": "3670372ec739c55b58da676de1e0f2e8", "lat": 38.944913666666665, "fusion_lon": 0.0, "fusion_lat": 0.0, "type": "electric_scooter", "name": "3670372ec739c55b58da676de1e0f2e8", "is_disabled": 0, "rental_uris": {"ios": "https://dc.lft.to/lastmile_qr_scan", "android": "https://dc.lft.to/lastmile_qr_scan"}, "is_reserved": 0}, {"lon": -77.03512916666666, "bike_id": "514911da2fd2eb361d5892bd1bb782ff", "lat": 38.927308333333336, "fusion_lon": 0.0, "fusion_lat": 0.0, "type": "electric_scooter", "name": "514911da2fd2eb361d5892bd1bb782ff", "is_disabled": 0, "rental_uris": {"ios": "https://dc.lft.to/lastmile_qr_scan", "android": "https://dc.lft.to/lastmile_qr_scan"}, "is_reserved": 0}, {"lon": -76.96522016666667, "bike_id": "7e9fd49938cb7116841b34fc156557b4", "lat": 38.876284166666665, "fusion_lon": 0.0, "fusion_lat": 0.0, "type": "electric_scooter", "name": "7e9fd49938cb7116841b34fc156557b4", "is_disabled": 0, "rental_uris": {"ios": "https://dc.lft.to/lastmile_qr_scan", "android": "https://dc.lft.to/lastmile_qr_scan"}, "is_reserved": 0}, {"lon": -77.0546845, "bike_id": "bd9ee636488c09e7aff9e94f36c77266", "lat": 38.92573066666667, "fusion_lon": 0.0, "fusion_lat": 0.0, "type": "electric_scooter", "name": "bd9ee636488c09e7aff9e94f36c77266", "is_disabled": 0, "rental_uris": {"ios": "https://dc.lft.to/lastmile_qr_scan", "android": "https://dc.lft.to/lastmile_qr_scan"}, "is_reserved": 0}, {"lon": -77.02595916666667, "bike_id": "0ea0022b66f804de0f43e79b83c8d720", "lat": 38.899948333333334, "fusion_lon": 0.0, "fusion_lat": 0.0, "type": "electric_scooter", "name": "0ea0022b66f804de0f43e79b83c8d720", "is_disabled": 0, "rental_uris": {"ios": "https://dc.lft.to/lastmile_qr_scan", "android": "https://dc.lft.to/lastmile_qr_scan"}, "is_reserved": 0}, {"lon": -76.989387, "bike_id": "d77d0aed3d744a5359dbb395b5c4d430", "lat": 38.867080666666666, "fusion_lon": 0.0, "fusion_lat": 0.0, "type": "electric_bike", "name": "d77d0aed3d744a5359dbb395b5c4d430", "is_disabled": 0, "rental_uris": {"ios": "https://dc.lft.to/lastmile_qr_scan", "android": "https://dc.lft.to/lastmile_qr_scan"}, "is_reserved": 0}, {"lon": -77.04339383333334, "bike_id": "b54860ab33b27d593220c2b335f99b80", "lat": 38.907770166666666, "fusion_lon": 0.0, "fusion_lat": 0.0, "type": "electric_scooter", "name": "b54860ab33b27d593220c2b335f99b80", "is_disabled": 0, "rental_uris": {"ios": "https://dc.lft.to/lastmile_qr_scan", "android": "https://dc.lft.to/lastmile_qr_scan"}, "is_reserved": 0}, {"lon": -76.9858535, "bike_id": "f0a812d7dcad90f9dc322682d95ce224", "lat": 38.866835, "fusion_lon": 0.0, "fusion_lat": 0.0, "type": "electric_scooter", "name": "f0a812d7dcad90f9dc322682d95ce224", "is_disabled": 0, "rental_uris": {"ios": "https://dc.lft.to/lastmile_qr_scan", "android": "https://dc.lft.to/lastmile_qr_scan"}, "is_reserved": 0}, {"lon": -77.054399, "bike_id": "927adc7ba7f2724065d91a57ce8f6745", "lat": 38.90368383333333, "fusion_lon": 0.0, "fusion_lat": 0.0, "type": "electric_scooter", "name": "927adc7ba7f2724065d91a57ce8f6745", "is_disabled": 0, "rental_uris": {"ios": "https://dc.lft.to/lastmile_qr_scan", "android": "https://dc.lft.to/lastmile_qr_scan"}, "is_reserved": 0}, {"lon": -77.03444233333333, "bike_id": "ead9cfed40ee7de5508fcc2bbdd29521", "lat": 38.90572783333333, "fusion_lon": 0.0, "fusion_lat": 0.0, "type": "electric_scooter", "name": "ead9cfed40ee7de5508fcc2bbdd29521", "is_disabled": 0, "rental_uris": {"ios": "https://dc.lft.to/lastmile_qr_scan", "android": "https://dc.lft.to/lastmile_qr_scan"}, "is_reserved": 0}, {"lon": -77.02534816666666, "bike_id": "f51e4f48196ab9867d54987568dfd0dd", "lat": 38.9207675, "fusion_lon": 0.0, "fusion_lat": 0.0, "type": "electric_scooter", "name": "f51e4f48196ab9867d54987568dfd0dd", "is_disabled": 0, "rental_uris": {"ios": "https://dc.lft.to/lastmile_qr_scan", "android": "https://dc.lft.to/lastmile_qr_scan"}, "is_reserved": 0}, {"lon": -77.00077883333333, "bike_id": "d8a4ff5013c99b4af4248ea3c6e74394", "lat": 38.87377033333333, "fusion_lon": 0.0, "fusion_lat": 0.0, "type": "electric_scooter", "name": "d8a4ff5013c99b4af4248ea3c6e74394", "is_disabled": 0, "rental_uris": {"ios": "https://dc.lft.to/lastmile_qr_scan", "android": "https://dc.lft.to/lastmile_qr_scan"}, "is_reserved": 0}, {"lon": -77.04180233333334, "bike_id": "dddbdc309db43fa2a0ba4b9e1c75c6a3", "lat": 38.919798666666665, "fusion_lon": 0.0, "fusion_lat": 0.0, "type": "electric_scooter", "name": "dddbdc309db43fa2a0ba4b9e1c75c6a3", "is_disabled": 0, "rental_uris": {"ios": "https://dc.lft.to/lastmile_qr_scan", "android": "https://dc.lft.to/lastmile_qr_scan"}, "is_reserved": 0}, {"lon": -76.980193, "bike_id": "304f0b225133f71215844ab917aa7d5e", "lat": 38.85320466666667, "fusion_lon": 0.0, "fusion_lat": 0.0, "type": "electric_bike", "name": "304f0b225133f71215844ab917aa7d5e", "is_disabled": 0, "rental_uris": {"ios": "https://dc.lft.to/lastmile_qr_scan", "android": "https://dc.lft.to/lastmile_qr_scan"}, "is_reserved": 0}, {"lon": -77.04139083333334, "bike_id": "bbff53313b0f05cbd884dd22fee34166", "lat": 38.9197755, "fusion_lon": 0.0, "fusion_lat": 0.0, "type": "electric_scooter", "name": "bbff53313b0f05cbd884dd22fee34166", "is_disabled": 0, "rental_uris": {"ios": "https://dc.lft.to/lastmile_qr_scan", "android": "https://dc.lft.to/lastmile_qr_scan"}, "is_reserved": 0}, {"lon": -77.03209966666667, "bike_id": "27b9a071af0ef1de0d78a289e5e97c81", "lat": 38.91474483333333, "fusion_lon": 0.0, "fusion_lat": 0.0, "type": "electric_scooter", "name": "27b9a071af0ef1de0d78a289e5e97c81", "is_disabled": 0, "rental_uris": {"ios": "https://dc.lft.to/lastmile_qr_scan", "android": "https://dc.lft.to/lastmile_qr_scan"}, "is_reserved": 0}, {"lon": -76.9488175, "bike_id": "da613a4aac246a4a1c6de770d8e8e083", "lat": 38.89508333333333, "fusion_lon": 0.0, "fusion_lat": 0.0, "type": "electric_scooter", "name": "da613a4aac246a4a1c6de770d8e8e083", "is_disabled": 0, "rental_uris": {"ios": "https://dc.lft.to/lastmile_qr_scan", "android": "https://dc.lft.to/lastmile_qr_scan"}, "is_reserved": 0}, {"lon": -76.99032383333333, "bike_id": "ed7a9d3e62988038e92cfc5aba4270f6", "lat": 38.88871133333333, "fusion_lon": 0.0, "fusion_lat": 0.0, "type": "electric_scooter", "name": "ed7a9d3e62988038e92cfc5aba4270f6", "is_disabled": 0, "rental_uris": {"ios": "https://dc.lft.to/lastmile_qr_scan", "android": "https://dc.lft.to/lastmile_qr_scan"}, "is_reserved": 0}, {"lon": -76.99521283333333, "bike_id": "5df3c4b89a14f767150abddb83669e91", "lat": 38.862613, "fusion_lon": 0.0, "fusion_lat": 0.0, "type": "electric_scooter", "name": "5df3c4b89a14f767150abddb83669e91", "is_disabled": 0, "rental_uris": {"ios": "https://dc.lft.to/lastmile_qr_scan", "android": "https://dc.lft.to/lastmile_qr_scan"}, "is_reserved": 0}, {"lon": -77.03447333333334, "bike_id": "7493fa7468b958b3f6e2a0315af63fc6", "lat": 38.909744333333336, "fusion_lon": 0.0, "fusion_lat": 0.0, "type": "electric_scooter", "name": "7493fa7468b958b3f6e2a0315af63fc6", "is_disabled": 0, "rental_uris": {"ios": "https://dc.lft.to/lastmile_qr_scan", "android": "https://dc.lft.to/lastmile_qr_scan"}, "is_reserved": 0}, {"lon": -77.0190555, "bike_id": "1f28e17cd77b7eca306a6a05469eb65d", "lat": 39.01179233333333, "fusion_lon": 0.0, "fusion_lat": 0.0, "type": "electric_bike", "name": "1f28e17cd77b7eca306a6a05469eb65d", "is_disabled": 0, "rental_uris": {"ios": "https://dc.lft.to/lastmile_qr_scan", "android": "https://dc.lft.to/lastmile_qr_scan"}, "is_reserved": 0}, {"lon": -77.01994066666667, "bike_id": "3f783870cfbd3cfcd7ef53095a910b08", "lat": 38.924158, "fusion_lon": 0.0, "fusion_lat": 0.0, "type": "electric_scooter", "name": "3f783870cfbd3cfcd7ef53095a910b08", "is_disabled": 0, "rental_uris": {"ios": "https://dc.lft.to/lastmile_qr_scan", "android": "https://dc.lft.to/lastmile_qr_scan"}, "is_reserved": 0}, {"lon": -76.98987533333333, "bike_id": "971901444d049a18b416ee8bc359447e", "lat": 38.93360833333333, "fusion_lon": 0.0, "fusion_lat": 0.0, "type": "electric_scooter", "name": "971901444d049a18b416ee8bc359447e", "is_disabled": 0, "rental_uris": {"ios": "https://dc.lft.to/lastmile_qr_scan", "android": "https://dc.lft.to/lastmile_qr_scan"}, "is_reserved": 0}, {"lon": -77.00760283333334, "bike_id": "5a7546d7b0d10d78f3297be1deef4a6a", "lat": 38.89788716666666, "fusion_lon": 0.0, "fusion_lat": 0.0, "type": "electric_bike", "name": "5a7546d7b0d10d78f3297be1deef4a6a", "is_disabled": 0, "rental_uris": {"ios": "https://dc.lft.to/lastmile_qr_scan", "android": "https://dc.lft.to/lastmile_qr_scan"}, "is_reserved": 0}, {"lon": -77.03278083333333, "bike_id": "f68c6b3a6a4ae90a245478bf4da10511", "lat": 38.901487, "fusion_lon": 0.0, "fusion_lat": 0.0, "type": "electric_scooter", "name": "f68c6b3a6a4ae90a245478bf4da10511", "is_disabled": 0, "rental_uris": {"ios": "https://dc.lft.to/lastmile_qr_scan", "android": "https://dc.lft.to/lastmile_qr_scan"}, "is_reserved": 0}, {"lon": -77.05746783333333, "bike_id": "f657ab51c8fc71b578e6785a2a690af3", "lat": 38.9334395, "fusion_lon": 0.0, "fusion_lat": 0.0, "type": "electric_scooter", "name": "f657ab51c8fc71b578e6785a2a690af3", "is_disabled": 0, "rental_uris": {"ios": "https://dc.lft.to/lastmile_qr_scan", "android": "https://dc.lft.to/lastmile_qr_scan"}, "is_reserved": 0}, {"lon": -77.07962233333333, "bike_id": "5b33f27764774ce2ac1eca1b41c6e435", "lat": 38.85731366666667, "fusion_lon": 0.0, "fusion_lat": 0.0, "type": "electric_bike", "name": "5b33f27764774ce2ac1eca1b41c6e435", "is_disabled": 0, "rental_uris": {"ios": "https://dc.lft.to/lastmile_qr_scan", "android": "https://dc.lft.to/lastmile_qr_scan"}, "is_reserved": 0}, {"lon": -77.0208275, "bike_id": "adadffb624f257c2fa61b4e52c9ac9ae", "lat": 38.904059333333336, "fusion_lon": 0.0, "fusion_lat": 0.0, "type": "electric_scooter", "name": "adadffb624f257c2fa61b4e52c9ac9ae", "is_disabled": 0, "rental_uris": {"ios": "https://dc.lft.to/lastmile_qr_scan", "android": "https://dc.lft.to/lastmile_qr_scan"}, "is_reserved": 0}, {"lon": -77.0310965, "bike_id": "c7e32e1afe5473b74a107481dcda14e7", "lat": 38.915639, "fusion_lon": 0.0, "fusion_lat": 0.0, "type": "electric_scooter", "name": "c7e32e1afe5473b74a107481dcda14e7", "is_disabled": 0, "rental_uris": {"ios": "https://dc.lft.to/lastmile_qr_scan", "android": "https://dc.lft.to/lastmile_qr_scan"}, "is_reserved": 0}, {"lon": -77.00798966666666, "bike_id": "1dfa4bbbecfe604c09f42fbae231b86a", "lat": 38.89718216666667, "fusion_lon": 0.0, "fusion_lat": 0.0, "type": "electric_scooter", "name": "1dfa4bbbecfe604c09f42fbae231b86a", "is_disabled": 0, "rental_uris": {"ios": "https://dc.lft.to/lastmile_qr_scan", "android": "https://dc.lft.to/lastmile_qr_scan"}, "is_reserved": 0}, {"lon": -77.02308683333334, "bike_id": "18d5acb6cd62ce54ebd5d5c2ad2f3f13", "lat": 38.9183575, "fusion_lon": 0.0, "fusion_lat": 0.0, "type": "electric_scooter", "name": "18d5acb6cd62ce54ebd5d5c2ad2f3f13", "is_disabled": 0, "rental_uris": {"ios": "https://dc.lft.to/lastmile_qr_scan", "android": "https://dc.lft.to/lastmile_qr_scan"}, "is_reserved": 0}, {"lon": -77.02438966666666, "bike_id": "223db298f4384fd345a5e2fb7b6ac33e", "lat": 38.90251633333333, "fusion_lon": 0.0, "fusion_lat": 0.0, "type": "electric_scooter", "name": "223db298f4384fd345a5e2fb7b6ac33e", "is_disabled": 0, "rental_uris": {"ios": "https://dc.lft.to/lastmile_qr_scan", "android": "https://dc.lft.to/lastmile_qr_scan"}, "is_reserved": 0}, {"lon": -76.98108183333333, "bike_id": "d067b958a8978bbcb2fac455132a632e", "lat": 38.877312333333336, "fusion_lon": 0.0, "fusion_lat": 0.0, "type": "electric_bike", "name": "d067b958a8978bbcb2fac455132a632e", "is_disabled": 0, "rental_uris": {"ios": "https://dc.lft.to/lastmile_qr_scan", "android": "https://dc.lft.to/lastmile_qr_scan"}, "is_reserved": 0}, {"lon": -76.99917683333334, "bike_id": "cdd7d3edfe8384bddbc376218e40d145", "lat": 38.889747666666665, "fusion_lon": 0.0, "fusion_lat": 0.0, "type": "electric_scooter", "name": "cdd7d3edfe8384bddbc376218e40d145", "is_disabled": 0, "rental_uris": {"ios": "https://dc.lft.to/lastmile_qr_scan", "android": "https://dc.lft.to/lastmile_qr_scan"}, "is_reserved": 0}, {"lon": -77.03237616666667, "bike_id": "4a32bedafd36244bb2703ea561fe3b59", "lat": 38.9298715, "fusion_lon": 0.0, "fusion_lat": 0.0, "type": "electric_scooter", "name": "4a32bedafd36244bb2703ea561fe3b59", "is_disabled": 0, "rental_uris": {"ios": "https://dc.lft.to/lastmile_qr_scan", "android": "https://dc.lft.to/lastmile_qr_scan"}, "is_reserved": 0}, {"lon": -77.03304716666666, "bike_id": "cdf1a23461774f5b3a764af0ce5d7b9b", "lat": 38.930295, "fusion_lon": 0.0, "fusion_lat": 0.0, "type": "electric_scooter", "name": "cdf1a23461774f5b3a764af0ce5d7b9b", "is_disabled": 0, "rental_uris": {"ios": "https://dc.lft.to/lastmile_qr_scan", "android": "https://dc.lft.to/lastmile_qr_scan"}, "is_reserved": 0}, {"lon": -77.03662383333334, "bike_id": "54506a55fc04f8bb6efdda7f6adda5f0", "lat": 38.933426833333336, "fusion_lon": 0.0, "fusion_lat": 0.0, "type": "electric_scooter", "name": "54506a55fc04f8bb6efdda7f6adda5f0", "is_disabled": 0, "rental_uris": {"ios": "https://dc.lft.to/lastmile_qr_scan", "android": "https://dc.lft.to/lastmile_qr_scan"}, "is_reserved": 0}, {"lon": -77.0332775, "bike_id": "f2064ef716c6350f8ae0a8d49545183a", "lat": 38.926499666666665, "fusion_lon": 0.0, "fusion_lat": 0.0, "type": "electric_scooter", "name": "f2064ef716c6350f8ae0a8d49545183a", "is_disabled": 0, "rental_uris": {"ios": "https://dc.lft.to/lastmile_qr_scan", "android": "https://dc.lft.to/lastmile_qr_scan"}, "is_reserved": 0}, {"lon": -77.03860483333334, "bike_id": "c91adb77e7960363a7f3376f412ae33e", "lat": 38.91719116666667, "fusion_lon": 0.0, "fusion_lat": 0.0, "type": "electric_scooter", "name": "c91adb77e7960363a7f3376f412ae33e", "is_disabled": 0, "rental_uris": {"ios": "https://dc.lft.to/lastmile_qr_scan", "android": "https://dc.lft.to/lastmile_qr_scan"}, "is_reserved": 0}, {"lon": -77.03117033333334, "bike_id": "d698947cf4085b0c6a3e84bc72e9481b", "lat": 38.897261, "fusion_lon": 0.0, "fusion_lat": 0.0, "type": "electric_scooter", "name": "d698947cf4085b0c6a3e84bc72e9481b", "is_disabled": 0, "rental_uris": {"ios": "https://dc.lft.to/lastmile_qr_scan", "android": "https://dc.lft.to/lastmile_qr_scan"}, "is_reserved": 0}, {"lon": -77.0007185, "bike_id": "7d7cd62ddc74a5ab51978fdef815cf3f", "lat": 38.90138983333333, "fusion_lon": 0.0, "fusion_lat": 0.0, "type": "electric_scooter", "name": "7d7cd62ddc74a5ab51978fdef815cf3f", "is_disabled": 0, "rental_uris": {"ios": "https://dc.lft.to/lastmile_qr_scan", "android": "https://dc.lft.to/lastmile_qr_scan"}, "is_reserved": 0}, {"lon": -77.00958516666667, "bike_id": "fa0e0cb2ad4b357075bdd4a2b82190db", "lat": 38.9212655, "fusion_lon": 0.0, "fusion_lat": 0.0, "type": "electric_scooter", "name": "fa0e0cb2ad4b357075bdd4a2b82190db", "is_disabled": 0, "rental_uris": {"ios": "https://dc.lft.to/lastmile_qr_scan", "android": "https://dc.lft.to/lastmile_qr_scan"}, "is_reserved": 0}, {"lon": -76.98248616666666, "bike_id": "ec0e329657bcdfc2d6c59b89638b99b9", "lat": 38.864579166666665, "fusion_lon": 0.0, "fusion_lat": 0.0, "type": "electric_scooter", "name": "ec0e329657bcdfc2d6c59b89638b99b9", "is_disabled": 0, "rental_uris": {"ios": "https://dc.lft.to/lastmile_qr_scan", "android": "https://dc.lft.to/lastmile_qr_scan"}, "is_reserved": 0}, {"lon": -77.0006505, "bike_id": "d62c27dd39d35a06dcf81bf936b9cdea", "lat": 38.8867575, "fusion_lon": 0.0, "fusion_lat": 0.0, "type": "electric_scooter", "name": "d62c27dd39d35a06dcf81bf936b9cdea", "is_disabled": 0, "rental_uris": {"ios": "https://dc.lft.to/lastmile_qr_scan", "android": "https://dc.lft.to/lastmile_qr_scan"}, "is_reserved": 0}, {"lon": -76.99789, "bike_id": "fd3dd16aea05dd558a2ff3cb86b628cb", "lat": 38.89088616666667, "fusion_lon": 0.0, "fusion_lat": 0.0, "type": "electric_scooter", "name": "fd3dd16aea05dd558a2ff3cb86b628cb", "is_disabled": 0, "rental_uris": {"ios": "https://dc.lft.to/lastmile_qr_scan", "android": "https://dc.lft.to/lastmile_qr_scan"}, "is_reserved": 0}, {"lon": -76.985245, "bike_id": "51f3bd1bf2e8a5591e33275df1511e9c", "lat": 38.866846833333334, "fusion_lon": 0.0, "fusion_lat": 0.0, "type": "electric_scooter", "name": "51f3bd1bf2e8a5591e33275df1511e9c", "is_disabled": 0, "rental_uris": {"ios": "https://dc.lft.to/lastmile_qr_scan", "android": "https://dc.lft.to/lastmile_qr_scan"}, "is_reserved": 0}, {"lon": -77.03122533333334, "bike_id": "ee1b01c59fb8f7b8b386626ad10260ab", "lat": 38.92028916666667, "fusion_lon": 0.0, "fusion_lat": 0.0, "type": "electric_scooter", "name": "ee1b01c59fb8f7b8b386626ad10260ab", "is_disabled": 0, "rental_uris": {"ios": "https://dc.lft.to/lastmile_qr_scan", "android": "https://dc.lft.to/lastmile_qr_scan"}, "is_reserved": 0}, {"lon": -77.04864683333334, "bike_id": "f09889fe75eb7986a9c6b1f77f7f6e45", "lat": 38.89219883333333, "fusion_lon": 0.0, "fusion_lat": 0.0, "type": "electric_scooter", "name": "f09889fe75eb7986a9c6b1f77f7f6e45", "is_disabled": 0, "rental_uris": {"ios": "https://dc.lft.to/lastmile_qr_scan", "android": "https://dc.lft.to/lastmile_qr_scan"}, "is_reserved": 0}, {"lon": -77.00561816666666, "bike_id": "fef7f659123186ff5e22c91b88c5c149", "lat": 38.874719999999996, "fusion_lon": 0.0, "fusion_lat": 0.0, "type": "electric_scooter", "name": "fef7f659123186ff5e22c91b88c5c149", "is_disabled": 0, "rental_uris": {"ios": "https://dc.lft.to/lastmile_qr_scan", "android": "https://dc.lft.to/lastmile_qr_scan"}, "is_reserved": 0}, {"lon": -76.90740933333333, "bike_id": "6f158a3a78befdb3f3e5f5ab5d2273fa", "lat": 38.89616733333333, "fusion_lon": 0.0, "fusion_lat": 0.0, "type": "electric_bike", "name": "6f158a3a78befdb3f3e5f5ab5d2273fa", "is_disabled": 0, "rental_uris": {"ios": "https://dc.lft.to/lastmile_qr_scan", "android": "https://dc.lft.to/lastmile_qr_scan"}, "is_reserved": 0}, {"lon": -77.02295116666667, "bike_id": "b94c586fd1f524c8a9225fc654ca12d1", "lat": 38.93056983333334, "fusion_lon": 0.0, "fusion_lat": 0.0, "type": "electric_scooter", "name": "b94c586fd1f524c8a9225fc654ca12d1", "is_disabled": 0, "rental_uris": {"ios": "https://dc.lft.to/lastmile_qr_scan", "android": "https://dc.lft.to/lastmile_qr_scan"}, "is_reserved": 0}, {"lon": -77.00084916666667, "bike_id": "cebe31733db36888b757c0ba2925a3e9", "lat": 38.873751166666665, "fusion_lon": 0.0, "fusion_lat": 0.0, "type": "electric_scooter", "name": "cebe31733db36888b757c0ba2925a3e9", "is_disabled": 0, "rental_uris": {"ios": "https://dc.lft.to/lastmile_qr_scan", "android": "https://dc.lft.to/lastmile_qr_scan"}, "is_reserved": 0}, {"lon": -77.027657, "bike_id": "4f580d825179c9d89f95347859a29f1b", "lat": 38.954228666666666, "fusion_lon": 0.0, "fusion_lat": 0.0, "type": "electric_scooter", "name": "4f580d825179c9d89f95347859a29f1b", "is_disabled": 0, "rental_uris": {"ios": "https://dc.lft.to/lastmile_qr_scan", "android": "https://dc.lft.to/lastmile_qr_scan"}, "is_reserved": 0}, {"lon": -76.9793515, "bike_id": "ec700fe17c7d2ad77169bc92ab26ffbd", "lat": 38.90240566666667, "fusion_lon": 0.0, "fusion_lat": 0.0, "type": "electric_scooter", "name": "ec700fe17c7d2ad77169bc92ab26ffbd", "is_disabled": 0, "rental_uris": {"ios": "https://dc.lft.to/lastmile_qr_scan", "android": "https://dc.lft.to/lastmile_qr_scan"}, "is_reserved": 0}, {"lon": -77.04468833333334, "bike_id": "2328072430cf599216f61764f7eb0639", "lat": 38.923893666666665, "fusion_lon": 0.0, "fusion_lat": 0.0, "type": "electric_scooter", "name": "2328072430cf599216f61764f7eb0639", "is_disabled": 0, "rental_uris": {"ios": "https://dc.lft.to/lastmile_qr_scan", "android": "https://dc.lft.to/lastmile_qr_scan"}, "is_reserved": 0}, {"lon": -77.0398455, "bike_id": "65ac05a2f94e5982812740289fc6db87", "lat": 38.93337016666667, "fusion_lon": 0.0, "fusion_lat": 0.0, "type": "electric_scooter", "name": "65ac05a2f94e5982812740289fc6db87", "is_disabled": 0, "rental_uris": {"ios": "https://dc.lft.to/lastmile_qr_scan", "android": "https://dc.lft.to/lastmile_qr_scan"}, "is_reserved": 0}, {"lon": -77.02119333333333, "bike_id": "1c01b3dcf6126c4229ac6c903c57fd50", "lat": 38.93012266666667, "fusion_lon": 0.0, "fusion_lat": 0.0, "type": "electric_scooter", "name": "1c01b3dcf6126c4229ac6c903c57fd50", "is_disabled": 0, "rental_uris": {"ios": "https://dc.lft.to/lastmile_qr_scan", "android": "https://dc.lft.to/lastmile_qr_scan"}, "is_reserved": 0}, {"lon": -76.9463035, "bike_id": "468401565ecd55f8bba7d61ea912fdea", "lat": 38.89832116666667, "fusion_lon": 0.0, "fusion_lat": 0.0, "type": "electric_scooter", "name": "468401565ecd55f8bba7d61ea912fdea", "is_disabled": 0, "rental_uris": {"ios": "https://dc.lft.to/lastmile_qr_scan", "android": "https://dc.lft.to/lastmile_qr_scan"}, "is_reserved": 0}, {"lon": -77.0308725, "bike_id": "31824b8016e383d3eb4ced1b88770200", "lat": 38.90996533333333, "fusion_lon": 0.0, "fusion_lat": 0.0, "type": "electric_scooter", "name": "31824b8016e383d3eb4ced1b88770200", "is_disabled": 0, "rental_uris": {"ios": "https://dc.lft.to/lastmile_qr_scan", "android": "https://dc.lft.to/lastmile_qr_scan"}, "is_reserved": 0}, {"lon": -77.00027483333334, "bike_id": "218fb96cd0adbc524259175692875325", "lat": 38.906994166666664, "fusion_lon": 0.0, "fusion_lat": 0.0, "type": "electric_scooter", "name": "218fb96cd0adbc524259175692875325", "is_disabled": 0, "rental_uris": {"ios": "https://dc.lft.to/lastmile_qr_scan", "android": "https://dc.lft.to/lastmile_qr_scan"}, "is_reserved": 0}, {"lon": -76.98378566666666, "bike_id": "a9c9e05e34b432d21f7d1c5a0f4cf93a", "lat": 38.906383, "fusion_lon": 0.0, "fusion_lat": 0.0, "type": "electric_scooter", "name": "a9c9e05e34b432d21f7d1c5a0f4cf93a", "is_disabled": 0, "rental_uris": {"ios": "https://dc.lft.to/lastmile_qr_scan", "android": "https://dc.lft.to/lastmile_qr_scan"}, "is_reserved": 0}, {"lon": -77.06891583333334, "bike_id": "9721e7ced6935d59b3a6743c3006efdc", "lat": 38.9051335, "fusion_lon": 0.0, "fusion_lat": 0.0, "type": "electric_scooter", "name": "9721e7ced6935d59b3a6743c3006efdc", "is_disabled": 0, "rental_uris": {"ios": "https://dc.lft.to/lastmile_qr_scan", "android": "https://dc.lft.to/lastmile_qr_scan"}, "is_reserved": 0}, {"lon": -77.003082, "bike_id": "a12ea64445979e2bd1e6c1338da6cdb5", "lat": 38.9235145, "fusion_lon": 0.0, "fusion_lat": 0.0, "type": "electric_scooter", "name": "a12ea64445979e2bd1e6c1338da6cdb5", "is_disabled": 0, "rental_uris": {"ios": "https://dc.lft.to/lastmile_qr_scan", "android": "https://dc.lft.to/lastmile_qr_scan"}, "is_reserved": 0}, {"lon": -77.03641666666667, "bike_id": "f971ac27a4665843efb5f997f017d067", "lat": 38.9117975, "fusion_lon": 0.0, "fusion_lat": 0.0, "type": "electric_scooter", "name": "f971ac27a4665843efb5f997f017d067", "is_disabled": 0, "rental_uris": {"ios": "https://dc.lft.to/lastmile_qr_scan", "android": "https://dc.lft.to/lastmile_qr_scan"}, "is_reserved": 0}, {"lon": -77.023169, "bike_id": "aaf63a42fca868762790d731909c4b87", "lat": 38.87879266666667, "fusion_lon": 0.0, "fusion_lat": 0.0, "type": "electric_scooter", "name": "aaf63a42fca868762790d731909c4b87", "is_disabled": 0, "rental_uris": {"ios": "https://dc.lft.to/lastmile_qr_scan", "android": "https://dc.lft.to/lastmile_qr_scan"}, "is_reserved": 0}, {"lon": -77.0226695, "bike_id": "7eecfc34a17eba6d6728752780fcc683", "lat": 38.926654166666665, "fusion_lon": 0.0, "fusion_lat": 0.0, "type": "electric_scooter", "name": "7eecfc34a17eba6d6728752780fcc683", "is_disabled": 0, "rental_uris": {"ios": "https://dc.lft.to/lastmile_qr_scan", "android": "https://dc.lft.to/lastmile_qr_scan"}, "is_reserved": 0}, {"lon": -77.043353, "bike_id": "f8350c29888fcd27934fc861db8a00a0", "lat": 38.90783316666667, "fusion_lon": 0.0, "fusion_lat": 0.0, "type": "electric_scooter", "name": "f8350c29888fcd27934fc861db8a00a0", "is_disabled": 0, "rental_uris": {"ios": "https://dc.lft.to/lastmile_qr_scan", "android": "https://dc.lft.to/lastmile_qr_scan"}, "is_reserved": 0}, {"lon": -77.01419616666666, "bike_id": "d1c2a3f866267c2ec176f059d60be99f", "lat": 38.92805933333333, "fusion_lon": 0.0, "fusion_lat": 0.0, "type": "electric_scooter", "name": "d1c2a3f866267c2ec176f059d60be99f", "is_disabled": 0, "rental_uris": {"ios": "https://dc.lft.to/lastmile_qr_scan", "android": "https://dc.lft.to/lastmile_qr_scan"}, "is_reserved": 0}, {"lon": -77.02713383333334, "bike_id": "94d3384581a6a9be0dda902049eb8b35", "lat": 38.9259075, "fusion_lon": 0.0, "fusion_lat": 0.0, "type": "electric_scooter", "name": "94d3384581a6a9be0dda902049eb8b35", "is_disabled": 0, "rental_uris": {"ios": "https://dc.lft.to/lastmile_qr_scan", "android": "https://dc.lft.to/lastmile_qr_scan"}, "is_reserved": 0}, {"lon": -77.0402275, "bike_id": "5bdfc2182cc7f187809217ba008f11da", "lat": 38.91114866666667, "fusion_lon": 0.0, "fusion_lat": 0.0, "type": "electric_scooter", "name": "5bdfc2182cc7f187809217ba008f11da", "is_disabled": 0, "rental_uris": {"ios": "https://dc.lft.to/lastmile_qr_scan", "android": "https://dc.lft.to/lastmile_qr_scan"}, "is_reserved": 0}, {"lon": -77.07369666666666, "bike_id": "14effc9ba2c04722ed247d9b86719d98", "lat": 38.961952333333336, "fusion_lon": 0.0, "fusion_lat": 0.0, "type": "electric_bike", "name": "14effc9ba2c04722ed247d9b86719d98", "is_disabled": 0, "rental_uris": {"ios": "https://dc.lft.to/lastmile_qr_scan", "android": "https://dc.lft.to/lastmile_qr_scan"}, "is_reserved": 0}, {"lon": -77.03573416666667, "bike_id": "47860aa501bbd36f51bf7c80a978138f", "lat": 38.91776216666667, "fusion_lon": 0.0, "fusion_lat": 0.0, "type": "electric_scooter", "name": "47860aa501bbd36f51bf7c80a978138f", "is_disabled": 0, "rental_uris": {"ios": "https://dc.lft.to/lastmile_qr_scan", "android": "https://dc.lft.to/lastmile_qr_scan"}, "is_reserved": 0}, {"lon": -76.929996, "bike_id": "fb6473e99f3f4ea542e442cb23609dc7", "lat": 38.90181966666667, "fusion_lon": 0.0, "fusion_lat": 0.0, "type": "electric_scooter", "name": "fb6473e99f3f4ea542e442cb23609dc7", "is_disabled": 0, "rental_uris": {"ios": "https://dc.lft.to/lastmile_qr_scan", "android": "https://dc.lft.to/lastmile_qr_scan"}, "is_reserved": 0}, {"lon": -77.0320925, "bike_id": "fddbacd9a1284a1b8e02b1fb3f3323b0", "lat": 38.8964765, "fusion_lon": 0.0, "fusion_lat": 0.0, "type": "electric_scooter", "name": "fddbacd9a1284a1b8e02b1fb3f3323b0", "is_disabled": 0, "rental_uris": {"ios": "https://dc.lft.to/lastmile_qr_scan", "android": "https://dc.lft.to/lastmile_qr_scan"}, "is_reserved": 0}, {"lon": -77.01973966666667, "bike_id": "3f9ded63350c1bd90ecc2a42351a3cbc", "lat": 38.90236816666667, "fusion_lon": 0.0, "fusion_lat": 0.0, "type": "electric_scooter", "name": "3f9ded63350c1bd90ecc2a42351a3cbc", "is_disabled": 0, "rental_uris": {"ios": "https://dc.lft.to/lastmile_qr_scan", "android": "https://dc.lft.to/lastmile_qr_scan"}, "is_reserved": 0}, {"lon": -77.03861366666666, "bike_id": "079493bbd243d7c42fca6c436365d4ec", "lat": 38.906624, "fusion_lon": 0.0, "fusion_lat": 0.0, "type": "electric_scooter", "name": "079493bbd243d7c42fca6c436365d4ec", "is_disabled": 0, "rental_uris": {"ios": "https://dc.lft.to/lastmile_qr_scan", "android": "https://dc.lft.to/lastmile_qr_scan"}, "is_reserved": 0}, {"lon": -77.031147, "bike_id": "523e424ef80feb5d7e03ecd9c0a03920", "lat": 38.907263, "fusion_lon": 0.0, "fusion_lat": 0.0, "type": "electric_bike", "name": "523e424ef80feb5d7e03ecd9c0a03920", "is_disabled": 0, "rental_uris": {"ios": "https://dc.lft.to/lastmile_qr_scan", "android": "https://dc.lft.to/lastmile_qr_scan"}, "is_reserved": 0}, {"lon": -77.02477983333333, "bike_id": "a36c08a0044a4340aaefb61a426173df", "lat": 38.88018116666667, "fusion_lon": 0.0, "fusion_lat": 0.0, "type": "electric_scooter", "name": "a36c08a0044a4340aaefb61a426173df", "is_disabled": 0, "rental_uris": {"ios": "https://dc.lft.to/lastmile_qr_scan", "android": "https://dc.lft.to/lastmile_qr_scan"}, "is_reserved": 0}, {"lon": -77.02324866666666, "bike_id": "09c11706850930275ea1ef0beda18e56", "lat": 38.922258666666664, "fusion_lon": 0.0, "fusion_lat": 0.0, "type": "electric_scooter", "name": "09c11706850930275ea1ef0beda18e56", "is_disabled": 0, "rental_uris": {"ios": "https://dc.lft.to/lastmile_qr_scan", "android": "https://dc.lft.to/lastmile_qr_scan"}, "is_reserved": 0}, {"lon": -77.03318066666667, "bike_id": "ecf7c3e76ed041c89e1575f2f750abbb", "lat": 38.90376033333333, "fusion_lon": 0.0, "fusion_lat": 0.0, "type": "electric_scooter", "name": "ecf7c3e76ed041c89e1575f2f750abbb", "is_disabled": 0, "rental_uris": {"ios": "https://dc.lft.to/lastmile_qr_scan", "android": "https://dc.lft.to/lastmile_qr_scan"}, "is_reserved": 0}, {"lon": -77.031243, "bike_id": "ea4cdcbae398cf6189f11bbf168961ff", "lat": 38.917116, "fusion_lon": 0.0, "fusion_lat": 0.0, "type": "electric_scooter", "name": "ea4cdcbae398cf6189f11bbf168961ff", "is_disabled": 0, "rental_uris": {"ios": "https://dc.lft.to/lastmile_qr_scan", "android": "https://dc.lft.to/lastmile_qr_scan"}, "is_reserved": 0}, {"lon": -77.02568933333333, "bike_id": "94bbe61d6764140dfa90d891cbe8a0e7", "lat": 38.89731416666667, "fusion_lon": 0.0, "fusion_lat": 0.0, "type": "electric_scooter", "name": "94bbe61d6764140dfa90d891cbe8a0e7", "is_disabled": 0, "rental_uris": {"ios": "https://dc.lft.to/lastmile_qr_scan", "android": "https://dc.lft.to/lastmile_qr_scan"}, "is_reserved": 0}, {"lon": -77.05574666666666, "bike_id": "ce0a45101622bf47d73a529b3b3c3676", "lat": 38.91597933333333, "fusion_lon": 0.0, "fusion_lat": 0.0, "type": "electric_scooter", "name": "ce0a45101622bf47d73a529b3b3c3676", "is_disabled": 0, "rental_uris": {"ios": "https://dc.lft.to/lastmile_qr_scan", "android": "https://dc.lft.to/lastmile_qr_scan"}, "is_reserved": 0}, {"lon": -76.9900045, "bike_id": "b36ebba2c530a893b5df8cdf48777043", "lat": 38.8650595, "fusion_lon": 0.0, "fusion_lat": 0.0, "type": "electric_scooter", "name": "b36ebba2c530a893b5df8cdf48777043", "is_disabled": 0, "rental_uris": {"ios": "https://dc.lft.to/lastmile_qr_scan", "android": "https://dc.lft.to/lastmile_qr_scan"}, "is_reserved": 0}, {"lon": -77.03337716666667, "bike_id": "cd143c65906ee47153b398046f436392", "lat": 38.936341666666664, "fusion_lon": 0.0, "fusion_lat": 0.0, "type": "electric_scooter", "name": "cd143c65906ee47153b398046f436392", "is_disabled": 0, "rental_uris": {"ios": "https://dc.lft.to/lastmile_qr_scan", "android": "https://dc.lft.to/lastmile_qr_scan"}, "is_reserved": 0}, {"lon": -77.04420016666667, "bike_id": "078730dccc8a84899835cadfe881176c", "lat": 38.91129333333333, "fusion_lon": 0.0, "fusion_lat": 0.0, "type": "electric_scooter", "name": "078730dccc8a84899835cadfe881176c", "is_disabled": 0, "rental_uris": {"ios": "https://dc.lft.to/lastmile_qr_scan", "android": "https://dc.lft.to/lastmile_qr_scan"}, "is_reserved": 0}, {"lon": -76.98703866666666, "bike_id": "0e144ff02b4214bff1e83a14d46b94ff", "lat": 38.865392166666666, "fusion_lon": 0.0, "fusion_lat": 0.0, "type": "electric_scooter", "name": "0e144ff02b4214bff1e83a14d46b94ff", "is_disabled": 0, "rental_uris": {"ios": "https://dc.lft.to/lastmile_qr_scan", "android": "https://dc.lft.to/lastmile_qr_scan"}, "is_reserved": 0}, {"lon": -76.98723266666667, "bike_id": "a11dcc9e061990516d0a4f6e7437a852", "lat": 38.867045166666664, "fusion_lon": 0.0, "fusion_lat": 0.0, "type": "electric_scooter", "name": "a11dcc9e061990516d0a4f6e7437a852", "is_disabled": 0, "rental_uris": {"ios": "https://dc.lft.to/lastmile_qr_scan", "android": "https://dc.lft.to/lastmile_qr_scan"}, "is_reserved": 0}, {"lon": -77.02092566666667, "bike_id": "968fbce482ac200d91da17db6e573d80", "lat": 38.95745216666667, "fusion_lon": 0.0, "fusion_lat": 0.0, "type": "electric_scooter", "name": "968fbce482ac200d91da17db6e573d80", "is_disabled": 0, "rental_uris": {"ios": "https://dc.lft.to/lastmile_qr_scan", "android": "https://dc.lft.to/lastmile_qr_scan"}, "is_reserved": 0}, {"lon": -77.03932466666667, "bike_id": "af545d45c7e326da9b01431ab4894825", "lat": 38.926157833333335, "fusion_lon": 0.0, "fusion_lat": 0.0, "type": "electric_scooter", "name": "af545d45c7e326da9b01431ab4894825", "is_disabled": 0, "rental_uris": {"ios": "https://dc.lft.to/lastmile_qr_scan", "android": "https://dc.lft.to/lastmile_qr_scan"}, "is_reserved": 0}, {"lon": -76.9335245, "bike_id": "dbc19f0a19d34aa28b4b0de01a06abf9", "lat": 38.89905433333333, "fusion_lon": 0.0, "fusion_lat": 0.0, "type": "electric_scooter", "name": "dbc19f0a19d34aa28b4b0de01a06abf9", "is_disabled": 0, "rental_uris": {"ios": "https://dc.lft.to/lastmile_qr_scan", "android": "https://dc.lft.to/lastmile_qr_scan"}, "is_reserved": 0}, {"lon": -77.04445666666666, "bike_id": "499230dab4edb58b2849458149dd6a29", "lat": 38.91873066666667, "fusion_lon": 0.0, "fusion_lat": 0.0, "type": "electric_scooter", "name": "499230dab4edb58b2849458149dd6a29", "is_disabled": 0, "rental_uris": {"ios": "https://dc.lft.to/lastmile_qr_scan", "android": "https://dc.lft.to/lastmile_qr_scan"}, "is_reserved": 0}, {"lon": -76.981877, "bike_id": "79738456b337e9f6365ac4e3d7669f28", "lat": 38.92600233333334, "fusion_lon": 0.0, "fusion_lat": 0.0, "type": "electric_scooter", "name": "79738456b337e9f6365ac4e3d7669f28", "is_disabled": 0, "rental_uris": {"ios": "https://dc.lft.to/lastmile_qr_scan", "android": "https://dc.lft.to/lastmile_qr_scan"}, "is_reserved": 0}, {"lon": -76.985713, "bike_id": "e129f02fce71bc3d9f767b8b6a2d04c8", "lat": 38.899541166666666, "fusion_lon": 0.0, "fusion_lat": 0.0, "type": "electric_scooter", "name": "e129f02fce71bc3d9f767b8b6a2d04c8", "is_disabled": 0, "rental_uris": {"ios": "https://dc.lft.to/lastmile_qr_scan", "android": "https://dc.lft.to/lastmile_qr_scan"}, "is_reserved": 0}, {"lon": -77.03828333333334, "bike_id": "9353c73a1ac6e678393cce651cee3837", "lat": 38.91120516666667, "fusion_lon": 0.0, "fusion_lat": 0.0, "type": "electric_scooter", "name": "9353c73a1ac6e678393cce651cee3837", "is_disabled": 0, "rental_uris": {"ios": "https://dc.lft.to/lastmile_qr_scan", "android": "https://dc.lft.to/lastmile_qr_scan"}, "is_reserved": 0}, {"lon": -77.03844183333334, "bike_id": "a8e48145139a7692a586e87d7ed850ce", "lat": 38.9104355, "fusion_lon": 0.0, "fusion_lat": 0.0, "type": "electric_scooter", "name": "a8e48145139a7692a586e87d7ed850ce", "is_disabled": 0, "rental_uris": {"ios": "https://dc.lft.to/lastmile_qr_scan", "android": "https://dc.lft.to/lastmile_qr_scan"}, "is_reserved": 0}, {"lon": -77.07165266666667, "bike_id": "d7f713cd84a4d9018f3c512bc9b1b856", "lat": 38.90777583333333, "fusion_lon": 0.0, "fusion_lat": 0.0, "type": "electric_scooter", "name": "d7f713cd84a4d9018f3c512bc9b1b856", "is_disabled": 0, "rental_uris": {"ios": "https://dc.lft.to/lastmile_qr_scan", "android": "https://dc.lft.to/lastmile_qr_scan"}, "is_reserved": 0}, {"lon": -76.99107066666667, "bike_id": "570cd794afd74bf3a076d393f5af5502", "lat": 38.9031775, "fusion_lon": 0.0, "fusion_lat": 0.0, "type": "electric_scooter", "name": "570cd794afd74bf3a076d393f5af5502", "is_disabled": 0, "rental_uris": {"ios": "https://dc.lft.to/lastmile_qr_scan", "android": "https://dc.lft.to/lastmile_qr_scan"}, "is_reserved": 0}, {"lon": -77.04627316666667, "bike_id": "21e8ccad50923511ce6e931730d11766", "lat": 38.919083666666666, "fusion_lon": 0.0, "fusion_lat": 0.0, "type": "electric_scooter", "name": "21e8ccad50923511ce6e931730d11766", "is_disabled": 0, "rental_uris": {"ios": "https://dc.lft.to/lastmile_qr_scan", "android": "https://dc.lft.to/lastmile_qr_scan"}, "is_reserved": 0}, {"lon": -77.12654866666666, "bike_id": "404b50eb52d5e49843aad48fb641b5e3", "lat": 38.81506366666667, "fusion_lon": 0.0, "fusion_lat": 0.0, "type": "electric_bike", "name": "404b50eb52d5e49843aad48fb641b5e3", "is_disabled": 0, "rental_uris": {"ios": "https://dc.lft.to/lastmile_qr_scan", "android": "https://dc.lft.to/lastmile_qr_scan"}, "is_reserved": 0}, {"lon": -77.02682766666666, "bike_id": "8ba087fd7ded3fbc86134d5fcdc688e3", "lat": 38.943274, "fusion_lon": 0.0, "fusion_lat": 0.0, "type": "electric_scooter", "name": "8ba087fd7ded3fbc86134d5fcdc688e3", "is_disabled": 0, "rental_uris": {"ios": "https://dc.lft.to/lastmile_qr_scan", "android": "https://dc.lft.to/lastmile_qr_scan"}, "is_reserved": 0}, {"lon": -76.9337675, "bike_id": "5a572b475b786364cc889c8ddf04d340", "lat": 38.91028816666667, "fusion_lon": 0.0, "fusion_lat": 0.0, "type": "electric_scooter", "name": "5a572b475b786364cc889c8ddf04d340", "is_disabled": 0, "rental_uris": {"ios": "https://dc.lft.to/lastmile_qr_scan", "android": "https://dc.lft.to/lastmile_qr_scan"}, "is_reserved": 0}, {"lon": -77.03607566666666, "bike_id": "2a3ad0f6284e25ae58a42d7df58c8b3d", "lat": 38.9368385, "fusion_lon": 0.0, "fusion_lat": 0.0, "type": "electric_scooter", "name": "2a3ad0f6284e25ae58a42d7df58c8b3d", "is_disabled": 0, "rental_uris": {"ios": "https://dc.lft.to/lastmile_qr_scan", "android": "https://dc.lft.to/lastmile_qr_scan"}, "is_reserved": 0}, {"lon": -77.01755166666666, "bike_id": "81c661bf6fd714e444807206e8256b27", "lat": 38.903873833333336, "fusion_lon": 0.0, "fusion_lat": 0.0, "type": "electric_scooter", "name": "81c661bf6fd714e444807206e8256b27", "is_disabled": 0, "rental_uris": {"ios": "https://dc.lft.to/lastmile_qr_scan", "android": "https://dc.lft.to/lastmile_qr_scan"}, "is_reserved": 0}, {"lon": -77.02708133333333, "bike_id": "21f85ad83bb775973babc41374854757", "lat": 38.92662416666667, "fusion_lon": 0.0, "fusion_lat": 0.0, "type": "electric_scooter", "name": "21f85ad83bb775973babc41374854757", "is_disabled": 0, "rental_uris": {"ios": "https://dc.lft.to/lastmile_qr_scan", "android": "https://dc.lft.to/lastmile_qr_scan"}, "is_reserved": 0}, {"lon": -76.95746933333334, "bike_id": "e8bf8115682ef24f89d38fd9e96b5c0a", "lat": 38.884261333333335, "fusion_lon": 0.0, "fusion_lat": 0.0, "type": "electric_scooter", "name": "e8bf8115682ef24f89d38fd9e96b5c0a", "is_disabled": 0, "rental_uris": {"ios": "https://dc.lft.to/lastmile_qr_scan", "android": "https://dc.lft.to/lastmile_qr_scan"}, "is_reserved": 0}, {"lon": -77.04190483333333, "bike_id": "48c6aa3a6b23a90f8dcafe9e36f3ab4c", "lat": 38.89978216666667, "fusion_lon": 0.0, "fusion_lat": 0.0, "type": "electric_scooter", "name": "48c6aa3a6b23a90f8dcafe9e36f3ab4c", "is_disabled": 0, "rental_uris": {"ios": "https://dc.lft.to/lastmile_qr_scan", "android": "https://dc.lft.to/lastmile_qr_scan"}, "is_reserved": 0}, {"lon": -77.02283783333333, "bike_id": "828f1ea099398bdfea22df53812b7885", "lat": 38.90970166666666, "fusion_lon": 0.0, "fusion_lat": 0.0, "type": "electric_scooter", "name": "828f1ea099398bdfea22df53812b7885", "is_disabled": 0, "rental_uris": {"ios": "https://dc.lft.to/lastmile_qr_scan", "android": "https://dc.lft.to/lastmile_qr_scan"}, "is_reserved": 0}, {"lon": -77.1170825, "bike_id": "3013d606924387e44c1969ebc46e5adb", "lat": 38.867444, "fusion_lon": 0.0, "fusion_lat": 0.0, "type": "electric_bike", "name": "3013d606924387e44c1969ebc46e5adb", "is_disabled": 0, "rental_uris": {"ios": "https://dc.lft.to/lastmile_qr_scan", "android": "https://dc.lft.to/lastmile_qr_scan"}, "is_reserved": 0}, {"lon": -77.0004515, "bike_id": "dfedd619c0236076ececaaf1370fa60c", "lat": 38.92396683333333, "fusion_lon": 0.0, "fusion_lat": 0.0, "type": "electric_scooter", "name": "dfedd619c0236076ececaaf1370fa60c", "is_disabled": 0, "rental_uris": {"ios": "https://dc.lft.to/lastmile_qr_scan", "android": "https://dc.lft.to/lastmile_qr_scan"}, "is_reserved": 0}, {"lon": -76.98384266666666, "bike_id": "b912cae276d69a27875a47ebfecc7d44", "lat": 38.898850333333336, "fusion_lon": 0.0, "fusion_lat": 0.0, "type": "electric_bike", "name": "b912cae276d69a27875a47ebfecc7d44", "is_disabled": 0, "rental_uris": {"ios": "https://dc.lft.to/lastmile_qr_scan", "android": "https://dc.lft.to/lastmile_qr_scan"}, "is_reserved": 0}, {"lon": -76.9406795, "bike_id": "acb87c7db7f2cd9d5818532f71aab504", "lat": 38.89321, "fusion_lon": 0.0, "fusion_lat": 0.0, "type": "electric_scooter", "name": "acb87c7db7f2cd9d5818532f71aab504", "is_disabled": 0, "rental_uris": {"ios": "https://dc.lft.to/lastmile_qr_scan", "android": "https://dc.lft.to/lastmile_qr_scan"}, "is_reserved": 0}, {"lon": -77.0302665, "bike_id": "77e12f0eb36cecb0b8715de563975e56", "lat": 38.884434666666664, "fusion_lon": 0.0, "fusion_lat": 0.0, "type": "electric_scooter", "name": "77e12f0eb36cecb0b8715de563975e56", "is_disabled": 0, "rental_uris": {"ios": "https://dc.lft.to/lastmile_qr_scan", "android": "https://dc.lft.to/lastmile_qr_scan"}, "is_reserved": 0}, {"lon": -77.03210033333333, "bike_id": "3f17a6dd748a9d6c42a73de9b77693f5", "lat": 38.90686733333333, "fusion_lon": 0.0, "fusion_lat": 0.0, "type": "electric_scooter", "name": "3f17a6dd748a9d6c42a73de9b77693f5", "is_disabled": 0, "rental_uris": {"ios": "https://dc.lft.to/lastmile_qr_scan", "android": "https://dc.lft.to/lastmile_qr_scan"}, "is_reserved": 0}, {"lon": -77.02327933333333, "bike_id": "29ad81c555e9ffa5796a5e78cfeca11f", "lat": 38.89493383333333, "fusion_lon": 0.0, "fusion_lat": 0.0, "type": "electric_scooter", "name": "29ad81c555e9ffa5796a5e78cfeca11f", "is_disabled": 0, "rental_uris": {"ios": "https://dc.lft.to/lastmile_qr_scan", "android": "https://dc.lft.to/lastmile_qr_scan"}, "is_reserved": 0}, {"lon": -76.99806966666667, "bike_id": "309bcb9dd6a8a4acd2ccca8aaea8a737", "lat": 38.829141, "fusion_lon": 0.0, "fusion_lat": 0.0, "type": "electric_bike", "name": "309bcb9dd6a8a4acd2ccca8aaea8a737", "is_disabled": 0, "rental_uris": {"ios": "https://dc.lft.to/lastmile_qr_scan", "android": "https://dc.lft.to/lastmile_qr_scan"}, "is_reserved": 0}, {"lon": -77.0236015, "bike_id": "7f2c73a4fc158cfbacd085dcbe69c220", "lat": 38.92222316666667, "fusion_lon": 0.0, "fusion_lat": 0.0, "type": "electric_scooter", "name": "7f2c73a4fc158cfbacd085dcbe69c220", "is_disabled": 0, "rental_uris": {"ios": "https://dc.lft.to/lastmile_qr_scan", "android": "https://dc.lft.to/lastmile_qr_scan"}, "is_reserved": 0}, {"lon": -77.01697383333334, "bike_id": "a9095241fe942f0dcc80003cdfe41223", "lat": 38.914235833333336, "fusion_lon": 0.0, "fusion_lat": 0.0, "type": "electric_scooter", "name": "a9095241fe942f0dcc80003cdfe41223", "is_disabled": 0, "rental_uris": {"ios": "https://dc.lft.to/lastmile_qr_scan", "android": "https://dc.lft.to/lastmile_qr_scan"}, "is_reserved": 0}, {"lon": -77.03100983333333, "bike_id": "8de719ff47a020340828f40b1bd9aa4d", "lat": 38.91917883333333, "fusion_lon": 0.0, "fusion_lat": 0.0, "type": "electric_scooter", "name": "8de719ff47a020340828f40b1bd9aa4d", "is_disabled": 0, "rental_uris": {"ios": "https://dc.lft.to/lastmile_qr_scan", "android": "https://dc.lft.to/lastmile_qr_scan"}, "is_reserved": 0}, {"lon": -76.9887975, "bike_id": "56baa841ac1c9e080791d3b0fbe87f56", "lat": 38.86660716666667, "fusion_lon": 0.0, "fusion_lat": 0.0, "type": "electric_scooter", "name": "56baa841ac1c9e080791d3b0fbe87f56", "is_disabled": 0, "rental_uris": {"ios": "https://dc.lft.to/lastmile_qr_scan", "android": "https://dc.lft.to/lastmile_qr_scan"}, "is_reserved": 0}, {"lon": -77.03289783333334, "bike_id": "0f95f507856a251fbfb14194534e39d0", "lat": 38.90137983333334, "fusion_lon": 0.0, "fusion_lat": 0.0, "type": "electric_scooter", "name": "0f95f507856a251fbfb14194534e39d0", "is_disabled": 0, "rental_uris": {"ios": "https://dc.lft.to/lastmile_qr_scan", "android": "https://dc.lft.to/lastmile_qr_scan"}, "is_reserved": 0}, {"lon": -77.0500525, "bike_id": "10b4aed925d0343a120037ff7b0bcba0", "lat": 38.905253333333334, "fusion_lon": 0.0, "fusion_lat": 0.0, "type": "electric_scooter", "name": "10b4aed925d0343a120037ff7b0bcba0", "is_disabled": 0, "rental_uris": {"ios": "https://dc.lft.to/lastmile_qr_scan", "android": "https://dc.lft.to/lastmile_qr_scan"}, "is_reserved": 0}, {"lon": -77.03250266666667, "bike_id": "3e57297d514994dd21b012d6214dea96", "lat": 38.90963516666667, "fusion_lon": 0.0, "fusion_lat": 0.0, "type": "electric_scooter", "name": "3e57297d514994dd21b012d6214dea96", "is_disabled": 0, "rental_uris": {"ios": "https://dc.lft.to/lastmile_qr_scan", "android": "https://dc.lft.to/lastmile_qr_scan"}, "is_reserved": 0}, {"lon": -77.02688883333333, "bike_id": "1666560613fe5df14cdd90e4db62b4a8", "lat": 38.906695666666664, "fusion_lon": 0.0, "fusion_lat": 0.0, "type": "electric_scooter", "name": "1666560613fe5df14cdd90e4db62b4a8", "is_disabled": 0, "rental_uris": {"ios": "https://dc.lft.to/lastmile_qr_scan", "android": "https://dc.lft.to/lastmile_qr_scan"}, "is_reserved": 0}, {"lon": -77.011744, "bike_id": "29d05bf13e7daea9dc8162bc62fc30e8", "lat": 38.9002685, "fusion_lon": 0.0, "fusion_lat": 0.0, "type": "electric_scooter", "name": "29d05bf13e7daea9dc8162bc62fc30e8", "is_disabled": 0, "rental_uris": {"ios": "https://dc.lft.to/lastmile_qr_scan", "android": "https://dc.lft.to/lastmile_qr_scan"}, "is_reserved": 0}, {"lon": -77.04344633333334, "bike_id": "5d3a9ccc29cd495412e9cc5a659a7d45", "lat": 38.93333483333333, "fusion_lon": 0.0, "fusion_lat": 0.0, "type": "electric_scooter", "name": "5d3a9ccc29cd495412e9cc5a659a7d45", "is_disabled": 0, "rental_uris": {"ios": "https://dc.lft.to/lastmile_qr_scan", "android": "https://dc.lft.to/lastmile_qr_scan"}, "is_reserved": 0}, {"lon": -77.04148983333333, "bike_id": "cc5d1516b3a3f4477aa3997b583b5c4a", "lat": 38.89923433333333, "fusion_lon": 0.0, "fusion_lat": 0.0, "type": "electric_scooter", "name": "cc5d1516b3a3f4477aa3997b583b5c4a", "is_disabled": 0, "rental_uris": {"ios": "https://dc.lft.to/lastmile_qr_scan", "android": "https://dc.lft.to/lastmile_qr_scan"}, "is_reserved": 0}, {"lon": -77.030755, "bike_id": "be584acbd12479115efec86c89922ac8", "lat": 38.880334500000004, "fusion_lon": 0.0, "fusion_lat": 0.0, "type": "electric_scooter", "name": "be584acbd12479115efec86c89922ac8", "is_disabled": 0, "rental_uris": {"ios": "https://dc.lft.to/lastmile_qr_scan", "android": "https://dc.lft.to/lastmile_qr_scan"}, "is_reserved": 0}, {"lon": -77.03132383333333, "bike_id": "49e23a815d4521ccffbbf4d105f801c0", "lat": 38.9296015, "fusion_lon": 0.0, "fusion_lat": 0.0, "type": "electric_scooter", "name": "49e23a815d4521ccffbbf4d105f801c0", "is_disabled": 0, "rental_uris": {"ios": "https://dc.lft.to/lastmile_qr_scan", "android": "https://dc.lft.to/lastmile_qr_scan"}, "is_reserved": 0}, {"lon": -77.02690483333333, "bike_id": "70bc3282d7d2cb156d2b948f734fce20", "lat": 38.91229533333333, "fusion_lon": 0.0, "fusion_lat": 0.0, "type": "electric_scooter", "name": "70bc3282d7d2cb156d2b948f734fce20", "is_disabled": 0, "rental_uris": {"ios": "https://dc.lft.to/lastmile_qr_scan", "android": "https://dc.lft.to/lastmile_qr_scan"}, "is_reserved": 0}, {"lon": -77.0311365, "bike_id": "2e7fb4ac55f3cbdbfaa08cea4637d91d", "lat": 38.8874475, "fusion_lon": 0.0, "fusion_lat": 0.0, "type": "electric_scooter", "name": "2e7fb4ac55f3cbdbfaa08cea4637d91d", "is_disabled": 0, "rental_uris": {"ios": "https://dc.lft.to/lastmile_qr_scan", "android": "https://dc.lft.to/lastmile_qr_scan"}, "is_reserved": 0}, {"lon": -77.00059933333333, "bike_id": "ec6bf3294485fedcb6185113c6e995ab", "lat": 38.9080525, "fusion_lon": 0.0, "fusion_lat": 0.0, "type": "electric_scooter", "name": "ec6bf3294485fedcb6185113c6e995ab", "is_disabled": 0, "rental_uris": {"ios": "https://dc.lft.to/lastmile_qr_scan", "android": "https://dc.lft.to/lastmile_qr_scan"}, "is_reserved": 0}, {"lon": -77.0120845, "bike_id": "82d1a60935ff60cc4ff607666637263f", "lat": 38.885510833333335, "fusion_lon": 0.0, "fusion_lat": 0.0, "type": "electric_scooter", "name": "82d1a60935ff60cc4ff607666637263f", "is_disabled": 0, "rental_uris": {"ios": "https://dc.lft.to/lastmile_qr_scan", "android": "https://dc.lft.to/lastmile_qr_scan"}, "is_reserved": 0}, {"lon": -77.024434, "bike_id": "4c60ef9185531a5d0dbe99c15f0c0f46", "lat": 38.938331166666664, "fusion_lon": 0.0, "fusion_lat": 0.0, "type": "electric_scooter", "name": "4c60ef9185531a5d0dbe99c15f0c0f46", "is_disabled": 0, "rental_uris": {"ios": "https://dc.lft.to/lastmile_qr_scan", "android": "https://dc.lft.to/lastmile_qr_scan"}, "is_reserved": 0}, {"lon": -77.03262583333333, "bike_id": "82f3db4073714279a41b519ca7a2db4b", "lat": 38.939171, "fusion_lon": 0.0, "fusion_lat": 0.0, "type": "electric_scooter", "name": "82f3db4073714279a41b519ca7a2db4b", "is_disabled": 0, "rental_uris": {"ios": "https://dc.lft.to/lastmile_qr_scan", "android": "https://dc.lft.to/lastmile_qr_scan"}, "is_reserved": 0}, {"lon": -77.00520583333333, "bike_id": "82b3cffbb9ebc99bbb9f719db4753f62", "lat": 38.914781166666664, "fusion_lon": 0.0, "fusion_lat": 0.0, "type": "electric_bike", "name": "82b3cffbb9ebc99bbb9f719db4753f62", "is_disabled": 0, "rental_uris": {"ios": "https://dc.lft.to/lastmile_qr_scan", "android": "https://dc.lft.to/lastmile_qr_scan"}, "is_reserved": 0}, {"lon": -77.03830466666666, "bike_id": "026fef4440fe3277d862aa1920af1507", "lat": 38.908866, "fusion_lon": 0.0, "fusion_lat": 0.0, "type": "electric_scooter", "name": "026fef4440fe3277d862aa1920af1507", "is_disabled": 0, "rental_uris": {"ios": "https://dc.lft.to/lastmile_qr_scan", "android": "https://dc.lft.to/lastmile_qr_scan"}, "is_reserved": 0}, {"lon": -77.02114883333333, "bike_id": "d1893efc046285505dbf66eb82d93a0e", "lat": 38.9096895, "fusion_lon": 0.0, "fusion_lat": 0.0, "type": "electric_scooter", "name": "d1893efc046285505dbf66eb82d93a0e", "is_disabled": 0, "rental_uris": {"ios": "https://dc.lft.to/lastmile_qr_scan", "android": "https://dc.lft.to/lastmile_qr_scan"}, "is_reserved": 0}, {"lon": -77.05859233333334, "bike_id": "711b2a8407d8293aa6307d63d1581d80", "lat": 38.93608366666667, "fusion_lon": 0.0, "fusion_lat": 0.0, "type": "electric_scooter", "name": "711b2a8407d8293aa6307d63d1581d80", "is_disabled": 0, "rental_uris": {"ios": "https://dc.lft.to/lastmile_qr_scan", "android": "https://dc.lft.to/lastmile_qr_scan"}, "is_reserved": 0}, {"lon": -77.024506, "bike_id": "2f0eac91367fe2d7aca33eff0e44b8ac", "lat": 38.90078066666667, "fusion_lon": 0.0, "fusion_lat": 0.0, "type": "electric_scooter", "name": "2f0eac91367fe2d7aca33eff0e44b8ac", "is_disabled": 0, "rental_uris": {"ios": "https://dc.lft.to/lastmile_qr_scan", "android": "https://dc.lft.to/lastmile_qr_scan"}, "is_reserved": 0}, {"lon": -77.05263883333333, "bike_id": "db38ad1360ebcd102ae85eec51a8d838", "lat": 38.92776966666667, "fusion_lon": 0.0, "fusion_lat": 0.0, "type": "electric_scooter", "name": "db38ad1360ebcd102ae85eec51a8d838", "is_disabled": 0, "rental_uris": {"ios": "https://dc.lft.to/lastmile_qr_scan", "android": "https://dc.lft.to/lastmile_qr_scan"}, "is_reserved": 0}, {"lon": -77.04345816666667, "bike_id": "1ccfe380dcc8976f816b9f6bfbd1d853", "lat": 38.9025595, "fusion_lon": 0.0, "fusion_lat": 0.0, "type": "electric_scooter", "name": "1ccfe380dcc8976f816b9f6bfbd1d853", "is_disabled": 0, "rental_uris": {"ios": "https://dc.lft.to/lastmile_qr_scan", "android": "https://dc.lft.to/lastmile_qr_scan"}, "is_reserved": 0}, {"lon": -77.038397, "bike_id": "7419f5ad53a9b058501ae333d016ec90", "lat": 38.906705333333335, "fusion_lon": 0.0, "fusion_lat": 0.0, "type": "electric_scooter", "name": "7419f5ad53a9b058501ae333d016ec90", "is_disabled": 0, "rental_uris": {"ios": "https://dc.lft.to/lastmile_qr_scan", "android": "https://dc.lft.to/lastmile_qr_scan"}, "is_reserved": 0}, {"lon": -77.0275405, "bike_id": "4552b2717b956320d1f0e2064a3ad047", "lat": 38.9440565, "fusion_lon": 0.0, "fusion_lat": 0.0, "type": "electric_scooter", "name": "4552b2717b956320d1f0e2064a3ad047", "is_disabled": 0, "rental_uris": {"ios": "https://dc.lft.to/lastmile_qr_scan", "android": "https://dc.lft.to/lastmile_qr_scan"}, "is_reserved": 0}, {"lon": -77.03071216666666, "bike_id": "c816cea9f92ce6ae1e0cdb6e0ca48281", "lat": 38.9027025, "fusion_lon": 0.0, "fusion_lat": 0.0, "type": "electric_scooter", "name": "c816cea9f92ce6ae1e0cdb6e0ca48281", "is_disabled": 0, "rental_uris": {"ios": "https://dc.lft.to/lastmile_qr_scan", "android": "https://dc.lft.to/lastmile_qr_scan"}, "is_reserved": 0}, {"lon": -77.045422, "bike_id": "84f00efda4492ef0b3c5138a52c30a87", "lat": 38.91595083333333, "fusion_lon": 0.0, "fusion_lat": 0.0, "type": "electric_scooter", "name": "84f00efda4492ef0b3c5138a52c30a87", "is_disabled": 0, "rental_uris": {"ios": "https://dc.lft.to/lastmile_qr_scan", "android": "https://dc.lft.to/lastmile_qr_scan"}, "is_reserved": 0}, {"lon": -77.0340965, "bike_id": "76d4e7f0206884090f332ee82eef142d", "lat": 38.92315983333334, "fusion_lon": 0.0, "fusion_lat": 0.0, "type": "electric_scooter", "name": "76d4e7f0206884090f332ee82eef142d", "is_disabled": 0, "rental_uris": {"ios": "https://dc.lft.to/lastmile_qr_scan", "android": "https://dc.lft.to/lastmile_qr_scan"}, "is_reserved": 0}, {"lon": -77.0209525, "bike_id": "b9c96db842a3fe8aebe8aeed8568e9b8", "lat": 38.90404616666667, "fusion_lon": 0.0, "fusion_lat": 0.0, "type": "electric_scooter", "name": "b9c96db842a3fe8aebe8aeed8568e9b8", "is_disabled": 0, "rental_uris": {"ios": "https://dc.lft.to/lastmile_qr_scan", "android": "https://dc.lft.to/lastmile_qr_scan"}, "is_reserved": 0}, {"lon": -76.98937516666666, "bike_id": "3fdc1260101cf6546d1c43a203a580a1", "lat": 38.918337666666666, "fusion_lon": 0.0, "fusion_lat": 0.0, "type": "electric_scooter", "name": "3fdc1260101cf6546d1c43a203a580a1", "is_disabled": 0, "rental_uris": {"ios": "https://dc.lft.to/lastmile_qr_scan", "android": "https://dc.lft.to/lastmile_qr_scan"}, "is_reserved": 0}, {"lon": -76.98778083333333, "bike_id": "30f890c30d7a21d5ec9729b06392c613", "lat": 38.866072833333334, "fusion_lon": 0.0, "fusion_lat": 0.0, "type": "electric_bike", "name": "30f890c30d7a21d5ec9729b06392c613", "is_disabled": 0, "rental_uris": {"ios": "https://dc.lft.to/lastmile_qr_scan", "android": "https://dc.lft.to/lastmile_qr_scan"}, "is_reserved": 0}, {"lon": -76.9962505, "bike_id": "e94793f46c1d965696dd6a16dd5a6a23", "lat": 38.901052, "fusion_lon": 0.0, "fusion_lat": 0.0, "type": "electric_scooter", "name": "e94793f46c1d965696dd6a16dd5a6a23", "is_disabled": 0, "rental_uris": {"ios": "https://dc.lft.to/lastmile_qr_scan", "android": "https://dc.lft.to/lastmile_qr_scan"}, "is_reserved": 0}, {"lon": -77.02566783333333, "bike_id": "2bdf73ea422450a4b08fde3b09de08e4", "lat": 38.91338783333333, "fusion_lon": 0.0, "fusion_lat": 0.0, "type": "electric_scooter", "name": "2bdf73ea422450a4b08fde3b09de08e4", "is_disabled": 0, "rental_uris": {"ios": "https://dc.lft.to/lastmile_qr_scan", "android": "https://dc.lft.to/lastmile_qr_scan"}, "is_reserved": 0}, {"lon": -77.04319133333334, "bike_id": "fe80f94f10c9bcfa368d24f8b40560fc", "lat": 38.9224845, "fusion_lon": 0.0, "fusion_lat": 0.0, "type": "electric_scooter", "name": "fe80f94f10c9bcfa368d24f8b40560fc", "is_disabled": 0, "rental_uris": {"ios": "https://dc.lft.to/lastmile_qr_scan", "android": "https://dc.lft.to/lastmile_qr_scan"}, "is_reserved": 0}, {"lon": -77.02621116666667, "bike_id": "9e4b115e351525450939bc6a5174ab7c", "lat": 38.93353666666667, "fusion_lon": 0.0, "fusion_lat": 0.0, "type": "electric_scooter", "name": "9e4b115e351525450939bc6a5174ab7c", "is_disabled": 0, "rental_uris": {"ios": "https://dc.lft.to/lastmile_qr_scan", "android": "https://dc.lft.to/lastmile_qr_scan"}, "is_reserved": 0}, {"lon": -77.04183066666667, "bike_id": "bbc404b1ade190bd8a7c66836d053f84", "lat": 38.9198735, "fusion_lon": 0.0, "fusion_lat": 0.0, "type": "electric_scooter", "name": "bbc404b1ade190bd8a7c66836d053f84", "is_disabled": 0, "rental_uris": {"ios": "https://dc.lft.to/lastmile_qr_scan", "android": "https://dc.lft.to/lastmile_qr_scan"}, "is_reserved": 0}, {"lon": -77.0254005, "bike_id": "bc345f4624b67f0d258a1e48758f33bb", "lat": 38.94102183333333, "fusion_lon": 0.0, "fusion_lat": 0.0, "type": "electric_scooter", "name": "bc345f4624b67f0d258a1e48758f33bb", "is_disabled": 0, "rental_uris": {"ios": "https://dc.lft.to/lastmile_qr_scan", "android": "https://dc.lft.to/lastmile_qr_scan"}, "is_reserved": 0}, {"lon": -77.0450995, "bike_id": "984491e56b4e01703e954916d9d162bd", "lat": 38.88601966666667, "fusion_lon": 0.0, "fusion_lat": 0.0, "type": "electric_scooter", "name": "984491e56b4e01703e954916d9d162bd", "is_disabled": 0, "rental_uris": {"ios": "https://dc.lft.to/lastmile_qr_scan", "android": "https://dc.lft.to/lastmile_qr_scan"}, "is_reserved": 0}, {"lon": -77.03776716666667, "bike_id": "f600d516299f01efcd274fe398262cbb", "lat": 38.92968183333333, "fusion_lon": 0.0, "fusion_lat": 0.0, "type": "electric_scooter", "name": "f600d516299f01efcd274fe398262cbb", "is_disabled": 0, "rental_uris": {"ios": "https://dc.lft.to/lastmile_qr_scan", "android": "https://dc.lft.to/lastmile_qr_scan"}, "is_reserved": 0}, {"lon": -77.03968216666667, "bike_id": "583278602b0e48acefcac51b2b380955", "lat": 38.91621133333334, "fusion_lon": 0.0, "fusion_lat": 0.0, "type": "electric_scooter", "name": "583278602b0e48acefcac51b2b380955", "is_disabled": 0, "rental_uris": {"ios": "https://dc.lft.to/lastmile_qr_scan", "android": "https://dc.lft.to/lastmile_qr_scan"}, "is_reserved": 0}, {"lon": -76.98406616666666, "bike_id": "dd1dcc91abc984cda652df4709536703", "lat": 38.906272666666666, "fusion_lon": 0.0, "fusion_lat": 0.0, "type": "electric_scooter", "name": "dd1dcc91abc984cda652df4709536703", "is_disabled": 0, "rental_uris": {"ios": "https://dc.lft.to/lastmile_qr_scan", "android": "https://dc.lft.to/lastmile_qr_scan"}, "is_reserved": 0}, {"lon": -77.04876666666667, "bike_id": "ebdf2be2c8599c589c86055f481e2966", "lat": 38.89236483333333, "fusion_lon": 0.0, "fusion_lat": 0.0, "type": "electric_scooter", "name": "ebdf2be2c8599c589c86055f481e2966", "is_disabled": 0, "rental_uris": {"ios": "https://dc.lft.to/lastmile_qr_scan", "android": "https://dc.lft.to/lastmile_qr_scan"}, "is_reserved": 0}, {"lon": -77.0228455, "bike_id": "884f9b947fe90e496a48e5613380d63a", "lat": 38.908615, "fusion_lon": 0.0, "fusion_lat": 0.0, "type": "electric_scooter", "name": "884f9b947fe90e496a48e5613380d63a", "is_disabled": 0, "rental_uris": {"ios": "https://dc.lft.to/lastmile_qr_scan", "android": "https://dc.lft.to/lastmile_qr_scan"}, "is_reserved": 0}, {"lon": -77.02710783333333, "bike_id": "13a4d2391484c8526b3b09ed63ea8e4d", "lat": 38.897145333333334, "fusion_lon": 0.0, "fusion_lat": 0.0, "type": "electric_scooter", "name": "13a4d2391484c8526b3b09ed63ea8e4d", "is_disabled": 0, "rental_uris": {"ios": "https://dc.lft.to/lastmile_qr_scan", "android": "https://dc.lft.to/lastmile_qr_scan"}, "is_reserved": 0}, {"lon": -77.03871683333334, "bike_id": "06e8ae9ece2963194196d834b2baeae5", "lat": 38.9214625, "fusion_lon": 0.0, "fusion_lat": 0.0, "type": "electric_scooter", "name": "06e8ae9ece2963194196d834b2baeae5", "is_disabled": 0, "rental_uris": {"ios": "https://dc.lft.to/lastmile_qr_scan", "android": "https://dc.lft.to/lastmile_qr_scan"}, "is_reserved": 0}, {"lon": -77.04355366666667, "bike_id": "592a83a294aea756f34562bb6298ba88", "lat": 39.01539483333333, "fusion_lon": 0.0, "fusion_lat": 0.0, "type": "electric_bike", "name": "592a83a294aea756f34562bb6298ba88", "is_disabled": 0, "rental_uris": {"ios": "https://dc.lft.to/lastmile_qr_scan", "android": "https://dc.lft.to/lastmile_qr_scan"}, "is_reserved": 0}, {"lon": -76.97842016666667, "bike_id": "17b6b4d7f43bca783377566799cbecc1", "lat": 38.865694, "fusion_lon": 0.0, "fusion_lat": 0.0, "type": "electric_scooter", "name": "17b6b4d7f43bca783377566799cbecc1", "is_disabled": 0, "rental_uris": {"ios": "https://dc.lft.to/lastmile_qr_scan", "android": "https://dc.lft.to/lastmile_qr_scan"}, "is_reserved": 0}, {"lon": -77.03471666666667, "bike_id": "721c80a54efd918c89e96ee8630c54de", "lat": 38.917056333333335, "fusion_lon": 0.0, "fusion_lat": 0.0, "type": "electric_scooter", "name": "721c80a54efd918c89e96ee8630c54de", "is_disabled": 0, "rental_uris": {"ios": "https://dc.lft.to/lastmile_qr_scan", "android": "https://dc.lft.to/lastmile_qr_scan"}, "is_reserved": 0}, {"lon": -77.0387255, "bike_id": "d8288c1294d775db5ee185fd60bc4d3f", "lat": 38.91265716666667, "fusion_lon": 0.0, "fusion_lat": 0.0, "type": "electric_scooter", "name": "d8288c1294d775db5ee185fd60bc4d3f", "is_disabled": 0, "rental_uris": {"ios": "https://dc.lft.to/lastmile_qr_scan", "android": "https://dc.lft.to/lastmile_qr_scan"}, "is_reserved": 0}, {"lon": -77.03902716666667, "bike_id": "69cba0eb3f83b4d6768bcd4f8dde4fc4", "lat": 38.92337333333333, "fusion_lon": 0.0, "fusion_lat": 0.0, "type": "electric_scooter", "name": "69cba0eb3f83b4d6768bcd4f8dde4fc4", "is_disabled": 0, "rental_uris": {"ios": "https://dc.lft.to/lastmile_qr_scan", "android": "https://dc.lft.to/lastmile_qr_scan"}, "is_reserved": 0}, {"lon": -77.03863966666667, "bike_id": "89e34b54d121f4a011dfa690cc3d4b1a", "lat": 38.909712666666664, "fusion_lon": 0.0, "fusion_lat": 0.0, "type": "electric_scooter", "name": "89e34b54d121f4a011dfa690cc3d4b1a", "is_disabled": 0, "rental_uris": {"ios": "https://dc.lft.to/lastmile_qr_scan", "android": "https://dc.lft.to/lastmile_qr_scan"}, "is_reserved": 0}, {"lon": -76.99475966666667, "bike_id": "8d101466254101466d77935b1fa7b9d6", "lat": 38.877377333333335, "fusion_lon": 0.0, "fusion_lat": 0.0, "type": "electric_scooter", "name": "8d101466254101466d77935b1fa7b9d6", "is_disabled": 0, "rental_uris": {"ios": "https://dc.lft.to/lastmile_qr_scan", "android": "https://dc.lft.to/lastmile_qr_scan"}, "is_reserved": 0}, {"lon": -76.99028883333334, "bike_id": "d97678efa79d1b70c51b8f2ec5ee5716", "lat": 38.86403683333333, "fusion_lon": 0.0, "fusion_lat": 0.0, "type": "electric_scooter", "name": "d97678efa79d1b70c51b8f2ec5ee5716", "is_disabled": 0, "rental_uris": {"ios": "https://dc.lft.to/lastmile_qr_scan", "android": "https://dc.lft.to/lastmile_qr_scan"}, "is_reserved": 0}, {"lon": -76.99068366666667, "bike_id": "56fd35d76ff8f6095f0260b99eeb6434", "lat": 38.927433, "fusion_lon": 0.0, "fusion_lat": 0.0, "type": "electric_scooter", "name": "56fd35d76ff8f6095f0260b99eeb6434", "is_disabled": 0, "rental_uris": {"ios": "https://dc.lft.to/lastmile_qr_scan", "android": "https://dc.lft.to/lastmile_qr_scan"}, "is_reserved": 0}, {"lon": -77.062966, "bike_id": "30495c74630f2f2cc5729da35bec0783", "lat": 38.906021, "fusion_lon": 0.0, "fusion_lat": 0.0, "type": "electric_scooter", "name": "30495c74630f2f2cc5729da35bec0783", "is_disabled": 0, "rental_uris": {"ios": "https://dc.lft.to/lastmile_qr_scan", "android": "https://dc.lft.to/lastmile_qr_scan"}, "is_reserved": 0}, {"lon": -77.02980316666667, "bike_id": "7f081622910d7e2923d3589ca225ae24", "lat": 38.9163165, "fusion_lon": 0.0, "fusion_lat": 0.0, "type": "electric_scooter", "name": "7f081622910d7e2923d3589ca225ae24", "is_disabled": 0, "rental_uris": {"ios": "https://dc.lft.to/lastmile_qr_scan", "android": "https://dc.lft.to/lastmile_qr_scan"}, "is_reserved": 0}, {"lon": -77.03206933333334, "bike_id": "f28ca695a6a2f623ea1a97bbd67b83bf", "lat": 38.909005, "fusion_lon": 0.0, "fusion_lat": 0.0, "type": "electric_scooter", "name": "f28ca695a6a2f623ea1a97bbd67b83bf", "is_disabled": 0, "rental_uris": {"ios": "https://dc.lft.to/lastmile_qr_scan", "android": "https://dc.lft.to/lastmile_qr_scan"}, "is_reserved": 0}, {"lon": -76.9691005, "bike_id": "4709307b2c9a2ec8c6d4daf030258be0", "lat": 38.84608333333333, "fusion_lon": 0.0, "fusion_lat": 0.0, "type": "electric_bike", "name": "4709307b2c9a2ec8c6d4daf030258be0", "is_disabled": 0, "rental_uris": {"ios": "https://dc.lft.to/lastmile_qr_scan", "android": "https://dc.lft.to/lastmile_qr_scan"}, "is_reserved": 0}, {"lon": -77.03212733333334, "bike_id": "8d8af771e30e8d9534a81347c7e939a5", "lat": 38.892427166666664, "fusion_lon": 0.0, "fusion_lat": 0.0, "type": "electric_scooter", "name": "8d8af771e30e8d9534a81347c7e939a5", "is_disabled": 0, "rental_uris": {"ios": "https://dc.lft.to/lastmile_qr_scan", "android": "https://dc.lft.to/lastmile_qr_scan"}, "is_reserved": 0}, {"lon": -77.11592733333333, "bike_id": "c884c1bb7f1109bf7f372ce479cc0a12", "lat": 39.07494533333333, "fusion_lon": 0.0, "fusion_lat": 0.0, "type": "electric_bike", "name": "c884c1bb7f1109bf7f372ce479cc0a12", "is_disabled": 0, "rental_uris": {"ios": "https://dc.lft.to/lastmile_qr_scan", "android": "https://dc.lft.to/lastmile_qr_scan"}, "is_reserved": 0}, {"lon": -77.02684733333334, "bike_id": "60cadd1ad08925950c2ae877ceb6f12e", "lat": 38.90958966666667, "fusion_lon": 0.0, "fusion_lat": 0.0, "type": "electric_scooter", "name": "60cadd1ad08925950c2ae877ceb6f12e", "is_disabled": 0, "rental_uris": {"ios": "https://dc.lft.to/lastmile_qr_scan", "android": "https://dc.lft.to/lastmile_qr_scan"}, "is_reserved": 0}, {"lon": -77.03120633333333, "bike_id": "3aa70472033fbc04090037564359109c", "lat": 38.912606333333336, "fusion_lon": 0.0, "fusion_lat": 0.0, "type": "electric_scooter", "name": "3aa70472033fbc04090037564359109c", "is_disabled": 0, "rental_uris": {"ios": "https://dc.lft.to/lastmile_qr_scan", "android": "https://dc.lft.to/lastmile_qr_scan"}, "is_reserved": 0}, {"lon": -77.02405816666666, "bike_id": "fca5a19c652657ff29b18ef15b7314ec", "lat": 38.904276, "fusion_lon": 0.0, "fusion_lat": 0.0, "type": "electric_scooter", "name": "fca5a19c652657ff29b18ef15b7314ec", "is_disabled": 0, "rental_uris": {"ios": "https://dc.lft.to/lastmile_qr_scan", "android": "https://dc.lft.to/lastmile_qr_scan"}, "is_reserved": 0}, {"lon": -76.99771483333333, "bike_id": "f6f9778d8434584f337c14ffbdf847fc", "lat": 38.922932333333335, "fusion_lon": 0.0, "fusion_lat": 0.0, "type": "electric_scooter", "name": "f6f9778d8434584f337c14ffbdf847fc", "is_disabled": 0, "rental_uris": {"ios": "https://dc.lft.to/lastmile_qr_scan", "android": "https://dc.lft.to/lastmile_qr_scan"}, "is_reserved": 0}, {"lon": -76.99873866666667, "bike_id": "1638a602710f119acffbe7099870335d", "lat": 38.9002925, "fusion_lon": 0.0, "fusion_lat": 0.0, "type": "electric_scooter", "name": "1638a602710f119acffbe7099870335d", "is_disabled": 0, "rental_uris": {"ios": "https://dc.lft.to/lastmile_qr_scan", "android": "https://dc.lft.to/lastmile_qr_scan"}, "is_reserved": 0}, {"lon": -76.963599, "bike_id": "59500fa5f6e4564ac9b2e9cdefc5b130", "lat": 38.93497883333333, "fusion_lon": 0.0, "fusion_lat": 0.0, "type": "electric_scooter", "name": "59500fa5f6e4564ac9b2e9cdefc5b130", "is_disabled": 0, "rental_uris": {"ios": "https://dc.lft.to/lastmile_qr_scan", "android": "https://dc.lft.to/lastmile_qr_scan"}, "is_reserved": 0}, {"lon": -77.00061916666667, "bike_id": "71df6040365653c69aa7b2ac1f7f6626", "lat": 38.92433183333333, "fusion_lon": 0.0, "fusion_lat": 0.0, "type": "electric_scooter", "name": "71df6040365653c69aa7b2ac1f7f6626", "is_disabled": 0, "rental_uris": {"ios": "https://dc.lft.to/lastmile_qr_scan", "android": "https://dc.lft.to/lastmile_qr_scan"}, "is_reserved": 0}, {"lon": -77.02112766666667, "bike_id": "a5dcbf1b26c0c25113d138b347f43cb7", "lat": 38.936932166666665, "fusion_lon": 0.0, "fusion_lat": 0.0, "type": "electric_scooter", "name": "a5dcbf1b26c0c25113d138b347f43cb7", "is_disabled": 0, "rental_uris": {"ios": "https://dc.lft.to/lastmile_qr_scan", "android": "https://dc.lft.to/lastmile_qr_scan"}, "is_reserved": 0}, {"lon": -77.024823, "bike_id": "fbdea6f93629b03e23a3f6702d98ecdc", "lat": 38.90557716666667, "fusion_lon": 0.0, "fusion_lat": 0.0, "type": "electric_scooter", "name": "fbdea6f93629b03e23a3f6702d98ecdc", "is_disabled": 0, "rental_uris": {"ios": "https://dc.lft.to/lastmile_qr_scan", "android": "https://dc.lft.to/lastmile_qr_scan"}, "is_reserved": 0}, {"lon": -77.02174966666666, "bike_id": "ac5826f55fc63ec685f03f20d73677b0", "lat": 38.916302333333334, "fusion_lon": 0.0, "fusion_lat": 0.0, "type": "electric_scooter", "name": "ac5826f55fc63ec685f03f20d73677b0", "is_disabled": 0, "rental_uris": {"ios": "https://dc.lft.to/lastmile_qr_scan", "android": "https://dc.lft.to/lastmile_qr_scan"}, "is_reserved": 0}, {"lon": -77.03817366666667, "bike_id": "937b2bb19cd155d13f6fc0b7f7e0b02c", "lat": 38.93092433333333, "fusion_lon": 0.0, "fusion_lat": 0.0, "type": "electric_scooter", "name": "937b2bb19cd155d13f6fc0b7f7e0b02c", "is_disabled": 0, "rental_uris": {"ios": "https://dc.lft.to/lastmile_qr_scan", "android": "https://dc.lft.to/lastmile_qr_scan"}, "is_reserved": 0}, {"lon": -76.9828695, "bike_id": "242b58e1f43a5af85f6fd6eb9d266f7f", "lat": 38.901100666666665, "fusion_lon": 0.0, "fusion_lat": 0.0, "type": "electric_scooter", "name": "242b58e1f43a5af85f6fd6eb9d266f7f", "is_disabled": 0, "rental_uris": {"ios": "https://dc.lft.to/lastmile_qr_scan", "android": "https://dc.lft.to/lastmile_qr_scan"}, "is_reserved": 0}, {"lon": -77.00913483333333, "bike_id": "1a99d1ffcbde5fdcddca7c2339fdc163", "lat": 38.827844166666665, "fusion_lon": 0.0, "fusion_lat": 0.0, "type": "electric_bike", "name": "1a99d1ffcbde5fdcddca7c2339fdc163", "is_disabled": 0, "rental_uris": {"ios": "https://dc.lft.to/lastmile_qr_scan", "android": "https://dc.lft.to/lastmile_qr_scan"}, "is_reserved": 0}, {"lon": -77.0217635, "bike_id": "d818ca3436cd546e5b6f03b04ea7e9a7", "lat": 38.895950666666664, "fusion_lon": 0.0, "fusion_lat": 0.0, "type": "electric_scooter", "name": "d818ca3436cd546e5b6f03b04ea7e9a7", "is_disabled": 0, "rental_uris": {"ios": "https://dc.lft.to/lastmile_qr_scan", "android": "https://dc.lft.to/lastmile_qr_scan"}, "is_reserved": 0}, {"lon": -76.97476883333333, "bike_id": "cc11d2e55bc3780dfdd6ce51513ac2b9", "lat": 38.90351966666667, "fusion_lon": 0.0, "fusion_lat": 0.0, "type": "electric_scooter", "name": "cc11d2e55bc3780dfdd6ce51513ac2b9", "is_disabled": 0, "rental_uris": {"ios": "https://dc.lft.to/lastmile_qr_scan", "android": "https://dc.lft.to/lastmile_qr_scan"}, "is_reserved": 0}, {"lon": -77.0806695, "bike_id": "76c0bb7597880ddfbf6abcb6251b66b5", "lat": 39.052791, "fusion_lon": 0.0, "fusion_lat": 0.0, "type": "electric_bike", "name": "76c0bb7597880ddfbf6abcb6251b66b5", "is_disabled": 0, "rental_uris": {"ios": "https://dc.lft.to/lastmile_qr_scan", "android": "https://dc.lft.to/lastmile_qr_scan"}, "is_reserved": 0}, {"lon": -77.065065, "bike_id": "c1c17cd35dee3ae2154253eadca1a760", "lat": 38.90399383333333, "fusion_lon": 0.0, "fusion_lat": 0.0, "type": "electric_scooter", "name": "c1c17cd35dee3ae2154253eadca1a760", "is_disabled": 0, "rental_uris": {"ios": "https://dc.lft.to/lastmile_qr_scan", "android": "https://dc.lft.to/lastmile_qr_scan"}, "is_reserved": 0}, {"lon": -76.99087533333334, "bike_id": "40bbe0d81cda5b9089d24c7d5538c71e", "lat": 38.862370166666665, "fusion_lon": 0.0, "fusion_lat": 0.0, "type": "electric_bike", "name": "40bbe0d81cda5b9089d24c7d5538c71e", "is_disabled": 0, "rental_uris": {"ios": "https://dc.lft.to/lastmile_qr_scan", "android": "https://dc.lft.to/lastmile_qr_scan"}, "is_reserved": 0}, {"lon": -76.99017933333333, "bike_id": "b912cced1eede8c0d6dfc0ea47d03d86", "lat": 38.86640833333333, "fusion_lon": 0.0, "fusion_lat": 0.0, "type": "electric_scooter", "name": "b912cced1eede8c0d6dfc0ea47d03d86", "is_disabled": 0, "rental_uris": {"ios": "https://dc.lft.to/lastmile_qr_scan", "android": "https://dc.lft.to/lastmile_qr_scan"}, "is_reserved": 0}, {"lon": -77.051804, "bike_id": "29a23c7ee347002da60dd5e058c588f0", "lat": 38.89932566666667, "fusion_lon": 0.0, "fusion_lat": 0.0, "type": "electric_scooter", "name": "29a23c7ee347002da60dd5e058c588f0", "is_disabled": 0, "rental_uris": {"ios": "https://dc.lft.to/lastmile_qr_scan", "android": "https://dc.lft.to/lastmile_qr_scan"}, "is_reserved": 0}, {"lon": -77.031762, "bike_id": "95a367d059e783462c3d1b41b43e7ec9", "lat": 38.91263133333333, "fusion_lon": 0.0, "fusion_lat": 0.0, "type": "electric_scooter", "name": "95a367d059e783462c3d1b41b43e7ec9", "is_disabled": 0, "rental_uris": {"ios": "https://dc.lft.to/lastmile_qr_scan", "android": "https://dc.lft.to/lastmile_qr_scan"}, "is_reserved": 0}, {"lon": -77.01936866666667, "bike_id": "c9fbdaf8a002744cf163f35867650b3d", "lat": 38.935264, "fusion_lon": 0.0, "fusion_lat": 0.0, "type": "electric_scooter", "name": "c9fbdaf8a002744cf163f35867650b3d", "is_disabled": 0, "rental_uris": {"ios": "https://dc.lft.to/lastmile_qr_scan", "android": "https://dc.lft.to/lastmile_qr_scan"}, "is_reserved": 0}, {"lon": -77.03436533333333, "bike_id": "d0e2949bac8f858092d62b757f137bb2", "lat": 38.909628833333336, "fusion_lon": 0.0, "fusion_lat": 0.0, "type": "electric_scooter", "name": "d0e2949bac8f858092d62b757f137bb2", "is_disabled": 0, "rental_uris": {"ios": "https://dc.lft.to/lastmile_qr_scan", "android": "https://dc.lft.to/lastmile_qr_scan"}, "is_reserved": 0}, {"lon": -77.03197866666666, "bike_id": "d51753bb05703c86ae86563c4e0d9a12", "lat": 38.9191755, "fusion_lon": 0.0, "fusion_lat": 0.0, "type": "electric_scooter", "name": "d51753bb05703c86ae86563c4e0d9a12", "is_disabled": 0, "rental_uris": {"ios": "https://dc.lft.to/lastmile_qr_scan", "android": "https://dc.lft.to/lastmile_qr_scan"}, "is_reserved": 0}, {"lon": -77.0250015, "bike_id": "393c1351dda3ba355cc16bcd78ec0cae", "lat": 38.920768333333335, "fusion_lon": 0.0, "fusion_lat": 0.0, "type": "electric_scooter", "name": "393c1351dda3ba355cc16bcd78ec0cae", "is_disabled": 0, "rental_uris": {"ios": "https://dc.lft.to/lastmile_qr_scan", "android": "https://dc.lft.to/lastmile_qr_scan"}, "is_reserved": 0}, {"lon": -76.99532016666667, "bike_id": "a7995b54a8e95bd792a877c0cdd54918", "lat": 38.88367566666667, "fusion_lon": 0.0, "fusion_lat": 0.0, "type": "electric_scooter", "name": "a7995b54a8e95bd792a877c0cdd54918", "is_disabled": 0, "rental_uris": {"ios": "https://dc.lft.to/lastmile_qr_scan", "android": "https://dc.lft.to/lastmile_qr_scan"}, "is_reserved": 0}, {"lon": -77.0278185, "bike_id": "01dc54f0f660cb6e1954002672c4a2cb", "lat": 38.917094666666664, "fusion_lon": 0.0, "fusion_lat": 0.0, "type": "electric_scooter", "name": "01dc54f0f660cb6e1954002672c4a2cb", "is_disabled": 0, "rental_uris": {"ios": "https://dc.lft.to/lastmile_qr_scan", "android": "https://dc.lft.to/lastmile_qr_scan"}, "is_reserved": 0}, {"lon": -77.00202616666667, "bike_id": "cd4d644bf0e00b277e437aae39c0c0bb", "lat": 38.900300666666666, "fusion_lon": 0.0, "fusion_lat": 0.0, "type": "electric_scooter", "name": "cd4d644bf0e00b277e437aae39c0c0bb", "is_disabled": 0, "rental_uris": {"ios": "https://dc.lft.to/lastmile_qr_scan", "android": "https://dc.lft.to/lastmile_qr_scan"}, "is_reserved": 0}, {"lon": -77.00643683333334, "bike_id": "0a6e62e8399cd7dd4d83a69a35204b2c", "lat": 38.92614583333334, "fusion_lon": 0.0, "fusion_lat": 0.0, "type": "electric_scooter", "name": "0a6e62e8399cd7dd4d83a69a35204b2c", "is_disabled": 0, "rental_uris": {"ios": "https://dc.lft.to/lastmile_qr_scan", "android": "https://dc.lft.to/lastmile_qr_scan"}, "is_reserved": 0}, {"lon": -77.03443966666667, "bike_id": "8579e97fb97d4126cf29108d9f9a5c9a", "lat": 38.91673183333333, "fusion_lon": 0.0, "fusion_lat": 0.0, "type": "electric_scooter", "name": "8579e97fb97d4126cf29108d9f9a5c9a", "is_disabled": 0, "rental_uris": {"ios": "https://dc.lft.to/lastmile_qr_scan", "android": "https://dc.lft.to/lastmile_qr_scan"}, "is_reserved": 0}, {"lon": -77.0361245, "bike_id": "bd527114ac99e16c9bedc6ad9a237c47", "lat": 38.936815, "fusion_lon": 0.0, "fusion_lat": 0.0, "type": "electric_scooter", "name": "bd527114ac99e16c9bedc6ad9a237c47", "is_disabled": 0, "rental_uris": {"ios": "https://dc.lft.to/lastmile_qr_scan", "android": "https://dc.lft.to/lastmile_qr_scan"}, "is_reserved": 0}, {"lon": -76.96091466666667, "bike_id": "3ce7919ca0b38226dd721787c69ec870", "lat": 38.918615, "fusion_lon": 0.0, "fusion_lat": 0.0, "type": "electric_bike", "name": "3ce7919ca0b38226dd721787c69ec870", "is_disabled": 0, "rental_uris": {"ios": "https://dc.lft.to/lastmile_qr_scan", "android": "https://dc.lft.to/lastmile_qr_scan"}, "is_reserved": 0}, {"lon": -77.07004816666667, "bike_id": "dacd91abcec9ee2dc055084be0e8317e", "lat": 38.95850316666667, "fusion_lon": 0.0, "fusion_lat": 0.0, "type": "electric_scooter", "name": "dacd91abcec9ee2dc055084be0e8317e", "is_disabled": 0, "rental_uris": {"ios": "https://dc.lft.to/lastmile_qr_scan", "android": "https://dc.lft.to/lastmile_qr_scan"}, "is_reserved": 0}, {"lon": -77.03221916666666, "bike_id": "6ddeb9daa9c247244f838e58c53f4863", "lat": 38.9286385, "fusion_lon": 0.0, "fusion_lat": 0.0, "type": "electric_scooter", "name": "6ddeb9daa9c247244f838e58c53f4863", "is_disabled": 0, "rental_uris": {"ios": "https://dc.lft.to/lastmile_qr_scan", "android": "https://dc.lft.to/lastmile_qr_scan"},