{"data": {"bikes": [{"name": "8dda3435f5ddd37388e9bcca648ea606", "is_reserved": 0, "type": "electric_scooter", "rental_uris": {"ios": "https://dc.lft.to/lastmile_qr_scan", "android": "https://dc.lft.to/lastmile_qr_scan"}, "lat": 38.942609, "lon": -77.02530216666666, "bike_id": "8dda3435f5ddd37388e9bcca648ea606", "fusion_lat": 0.0, "is_disabled": 0, "fusion_lon": 0.0}, {"name": "dd2b25be7b221a84bb04bbf0e863194c", "is_reserved": 0, "type": "electric_scooter", "rental_uris": {"ios": "https://dc.lft.to/lastmile_qr_scan", "android": "https://dc.lft.to/lastmile_qr_scan"}, "lat": 38.919245333333336, "lon": -77.0336485, "bike_id": "dd2b25be7b221a84bb04bbf0e863194c", "fusion_lat": 0.0, "is_disabled": 0, "fusion_lon": 0.0}, {"name": "2c5c50faacf7cf91d3603fcb59e7ed17", "is_reserved": 0, "type": "electric_scooter", "rental_uris": {"ios": "https://dc.lft.to/lastmile_qr_scan", "android": "https://dc.lft.to/lastmile_qr_scan"}, "lat": 38.938722, "lon": -77.02484283333334, "bike_id": "2c5c50faacf7cf91d3603fcb59e7ed17", "fusion_lat": 0.0, "is_disabled": 0, "fusion_lon": 0.0}, {"name": "30b8d506897b420984f4ac3e5c79e88b", "is_reserved": 0, "type": "electric_scooter", "rental_uris": {"ios": "https://dc.lft.to/lastmile_qr_scan", "android": "https://dc.lft.to/lastmile_qr_scan"}, "lat": 38.8759405, "lon": -77.02001716666666, "bike_id": "30b8d506897b420984f4ac3e5c79e88b", "fusion_lat": 0.0, "is_disabled": 0, "fusion_lon": 0.0}, {"name": "83e44f28563d21d289cb195582a41ab7", "is_reserved": 0, "type": "electric_scooter", "rental_uris": {"ios": "https://dc.lft.to/lastmile_qr_scan", "android": "https://dc.lft.to/lastmile_qr_scan"}, "lat": 38.886107, "lon": -76.98744133333334, "bike_id": "83e44f28563d21d289cb195582a41ab7", "fusion_lat": 0.0, "is_disabled": 0, "fusion_lon": 0.0}, {"name": "899282f2b5547b3327318e0436412015", "is_reserved": 0, "type": "electric_scooter", "rental_uris": {"ios": "https://dc.lft.to/lastmile_qr_scan", "android": "https://dc.lft.to/lastmile_qr_scan"}, "lat": 38.9181685, "lon": -77.03214083333333, "bike_id": "899282f2b5547b3327318e0436412015", "fusion_lat": 0.0, "is_disabled": 0, "fusion_lon": 0.0}, {"name": "07b83342d9b23cbc5513c052a688a688", "is_reserved": 0, "type": "electric_scooter", "rental_uris": {"ios": "https://dc.lft.to/lastmile_qr_scan", "android": "https://dc.lft.to/lastmile_qr_scan"}, "lat": 38.9072675, "lon": -77.02972633333333, "bike_id": "07b83342d9b23cbc5513c052a688a688", "fusion_lat": 0.0, "is_disabled": 0, "fusion_lon": 0.0}, {"name": "028f41a6d5f2b104a3fab8a20c253086", "is_reserved": 0, "type": "electric_scooter", "rental_uris": {"ios": "https://dc.lft.to/lastmile_qr_scan", "android": "https://dc.lft.to/lastmile_qr_scan"}, "lat": 38.916973166666665, "lon": -77.03779733333333, "bike_id": "028f41a6d5f2b104a3fab8a20c253086", "fusion_lat": 0.0, "is_disabled": 0, "fusion_lon": 0.0}, {"name": "61c41c6d3c833fb4f6f70bbbb1790744", "is_reserved": 0, "type": "electric_scooter", "rental_uris": {"ios": "https://dc.lft.to/lastmile_qr_scan", "android": "https://dc.lft.to/lastmile_qr_scan"}, "lat": 38.919590666666664, "lon": -77.04855933333333, "bike_id": "61c41c6d3c833fb4f6f70bbbb1790744", "fusion_lat": 0.0, "is_disabled": 0, "fusion_lon": 0.0}, {"name": "4d1099ba66d60f4a4473427f68bd3811", "is_reserved": 0, "type": "electric_scooter", "rental_uris": {"ios": "https://dc.lft.to/lastmile_qr_scan", "android": "https://dc.lft.to/lastmile_qr_scan"}, "lat": 38.92422466666667, "lon": -77.01949466666667, "bike_id": "4d1099ba66d60f4a4473427f68bd3811", "fusion_lat": 0.0, "is_disabled": 0, "fusion_lon": 0.0}, {"name": "23f1ee0057f4e28b893398501bde53fc", "is_reserved": 0, "type": "electric_scooter", "rental_uris": {"ios": "https://dc.lft.to/lastmile_qr_scan", "android": "https://dc.lft.to/lastmile_qr_scan"}, "lat": 38.866620166666664, "lon": -76.98881533333333, "bike_id": "23f1ee0057f4e28b893398501bde53fc", "fusion_lat": 0.0, "is_disabled": 0, "fusion_lon": 0.0}, {"name": "b4f8bd1a836c5924993bc41ca35c56b0", "is_reserved": 0, "type": "electric_scooter", "rental_uris": {"ios": "https://dc.lft.to/lastmile_qr_scan", "android": "https://dc.lft.to/lastmile_qr_scan"}, "lat": 38.892245833333334, "lon": -77.0398835, "bike_id": "b4f8bd1a836c5924993bc41ca35c56b0", "fusion_lat": 0.0, "is_disabled": 0, "fusion_lon": 0.0}, {"name": "232c7ec5a731c2ab45ceadd9e743cb1a", "is_reserved": 0, "type": "electric_scooter", "rental_uris": {"ios": "https://dc.lft.to/lastmile_qr_scan", "android": "https://dc.lft.to/lastmile_qr_scan"}, "lat": 38.919449166666666, "lon": -77.03205766666666, "bike_id": "232c7ec5a731c2ab45ceadd9e743cb1a", "fusion_lat": 0.0, "is_disabled": 0, "fusion_lon": 0.0}, {"name": "3b333adf4667e897d87e4d67fd07088e", "is_reserved": 0, "type": "electric_scooter", "rental_uris": {"ios": "https://dc.lft.to/lastmile_qr_scan", "android": "https://dc.lft.to/lastmile_qr_scan"}, "lat": 38.90370766666667, "lon": -77.04196083333333, "bike_id": "3b333adf4667e897d87e4d67fd07088e", "fusion_lat": 0.0, "is_disabled": 0, "fusion_lon": 0.0}, {"name": "8192a0f5613505725cd3cbecc900b5c2", "is_reserved": 0, "type": "electric_scooter", "rental_uris": {"ios": "https://dc.lft.to/lastmile_qr_scan", "android": "https://dc.lft.to/lastmile_qr_scan"}, "lat": 38.937512166666664, "lon": -77.024907, "bike_id": "8192a0f5613505725cd3cbecc900b5c2", "fusion_lat": 0.0, "is_disabled": 0, "fusion_lon": 0.0}, {"name": "6fd11219f769ddfeb704b7d5fb8e61a4", "is_reserved": 0, "type": "electric_scooter", "rental_uris": {"ios": "https://dc.lft.to/lastmile_qr_scan", "android": "https://dc.lft.to/lastmile_qr_scan"}, "lat": 38.9003525, "lon": -76.9984745, "bike_id": "6fd11219f769ddfeb704b7d5fb8e61a4", "fusion_lat": 0.0, "is_disabled": 0, "fusion_lon": 0.0}, {"name": "3c15c57983a222f33f8dec26adcef690", "is_reserved": 0, "type": "electric_scooter", "rental_uris": {"ios": "https://dc.lft.to/lastmile_qr_scan", "android": "https://dc.lft.to/lastmile_qr_scan"}, "lat": 38.925670833333335, "lon": -77.05260366666667, "bike_id": "3c15c57983a222f33f8dec26adcef690", "fusion_lat": 0.0, "is_disabled": 0, "fusion_lon": 0.0}, {"name": "a2f241412670bd75291cfa6dfe12d7a6", "is_reserved": 0, "type": "electric_scooter", "rental_uris": {"ios": "https://dc.lft.to/lastmile_qr_scan", "android": "https://dc.lft.to/lastmile_qr_scan"}, "lat": 38.933947333333336, "lon": -77.05740733333333, "bike_id": "a2f241412670bd75291cfa6dfe12d7a6", "fusion_lat": 0.0, "is_disabled": 0, "fusion_lon": 0.0}, {"name": "4f3e88ba487edb65ff31af5aff89e00b", "is_reserved": 0, "type": "electric_scooter", "rental_uris": {"ios": "https://dc.lft.to/lastmile_qr_scan", "android": "https://dc.lft.to/lastmile_qr_scan"}, "lat": 38.90025266666667, "lon": -76.996289, "bike_id": "4f3e88ba487edb65ff31af5aff89e00b", "fusion_lat": 0.0, "is_disabled": 0, "fusion_lon": 0.0}, {"name": "8c76c9a62309926041906a3c83fc0669", "is_reserved": 0, "type": "electric_scooter", "rental_uris": {"ios": "https://dc.lft.to/lastmile_qr_scan", "android": "https://dc.lft.to/lastmile_qr_scan"}, "lat": 38.918183666666664, "lon": -77.01357533333334, "bike_id": "8c76c9a62309926041906a3c83fc0669", "fusion_lat": 0.0, "is_disabled": 0, "fusion_lon": 0.0}, {"name": "4c3976b3aa86094faf4ec4353ee40248", "is_reserved": 0, "type": "electric_scooter", "rental_uris": {"ios": "https://dc.lft.to/lastmile_qr_scan", "android": "https://dc.lft.to/lastmile_qr_scan"}, "lat": 38.895537, "lon": -76.948791, "bike_id": "4c3976b3aa86094faf4ec4353ee40248", "fusion_lat": 0.0, "is_disabled": 0, "fusion_lon": 0.0}, {"name": "3c63209cfb89eacaca95968b2ecfc36b", "is_reserved": 0, "type": "electric_scooter", "rental_uris": {"ios": "https://dc.lft.to/lastmile_qr_scan", "android": "https://dc.lft.to/lastmile_qr_scan"}, "lat": 38.9261195, "lon": -77.073269, "bike_id": "3c63209cfb89eacaca95968b2ecfc36b", "fusion_lat": 0.0, "is_disabled": 0, "fusion_lon": 0.0}, {"name": "d3b9248efd22bd5a38d6572bec739103", "is_reserved": 0, "type": "electric_scooter", "rental_uris": {"ios": "https://dc.lft.to/lastmile_qr_scan", "android": "https://dc.lft.to/lastmile_qr_scan"}, "lat": 38.93895633333333, "lon": -77.03262983333333, "bike_id": "d3b9248efd22bd5a38d6572bec739103", "fusion_lat": 0.0, "is_disabled": 0, "fusion_lon": 0.0}, {"name": "99a88774312338714c5a5f31a915bfed", "is_reserved": 0, "type": "electric_bike", "rental_uris": {"ios": "https://dc.lft.to/lastmile_qr_scan", "android": "https://dc.lft.to/lastmile_qr_scan"}, "lat": 38.971877, "lon": -76.99382066666666, "bike_id": "99a88774312338714c5a5f31a915bfed", "fusion_lat": 0.0, "is_disabled": 0, "fusion_lon": 0.0}, {"name": "e7dbc31a00ff50944033c8dc320909ce", "is_reserved": 0, "type": "electric_scooter", "rental_uris": {"ios": "https://dc.lft.to/lastmile_qr_scan", "android": "https://dc.lft.to/lastmile_qr_scan"}, "lat": 38.92331983333333, "lon": -77.0430485, "bike_id": "e7dbc31a00ff50944033c8dc320909ce", "fusion_lat": 0.0, "is_disabled": 0, "fusion_lon": 0.0}, {"name": "c337cc07ad324bbe3fb8332ab40335a5", "is_reserved": 0, "type": "electric_scooter", "rental_uris": {"ios": "https://dc.lft.to/lastmile_qr_scan", "android": "https://dc.lft.to/lastmile_qr_scan"}, "lat": 38.92963666666667, "lon": -77.0322305, "bike_id": "c337cc07ad324bbe3fb8332ab40335a5", "fusion_lat": 0.0, "is_disabled": 0, "fusion_lon": 0.0}, {"name": "fcb2a9896f3b5d76a9a3e3b15fe88316", "is_reserved": 0, "type": "electric_scooter", "rental_uris": {"ios": "https://dc.lft.to/lastmile_qr_scan", "android": "https://dc.lft.to/lastmile_qr_scan"}, "lat": 38.93941, "lon": -77.03595766666666, "bike_id": "fcb2a9896f3b5d76a9a3e3b15fe88316", "fusion_lat": 0.0, "is_disabled": 0, "fusion_lon": 0.0}, {"name": "3ffdb33d6a2d1ca63de97952893309f6", "is_reserved": 0, "type": "electric_scooter", "rental_uris": {"ios": "https://dc.lft.to/lastmile_qr_scan", "android": "https://dc.lft.to/lastmile_qr_scan"}, "lat": 38.9052745, "lon": -76.98303216666666, "bike_id": "3ffdb33d6a2d1ca63de97952893309f6", "fusion_lat": 0.0, "is_disabled": 0, "fusion_lon": 0.0}, {"name": "ae5b4c8f1ae7c20db166408744e6c7f3", "is_reserved": 0, "type": "electric_scooter", "rental_uris": {"ios": "https://dc.lft.to/lastmile_qr_scan", "android": "https://dc.lft.to/lastmile_qr_scan"}, "lat": 38.93198833333334, "lon": -77.03856766666667, "bike_id": "ae5b4c8f1ae7c20db166408744e6c7f3", "fusion_lat": 0.0, "is_disabled": 0, "fusion_lon": 0.0}, {"name": "2095d6265c09dc7fe5420777ffec6cae", "is_reserved": 0, "type": "electric_bike", "rental_uris": {"ios": "https://dc.lft.to/lastmile_qr_scan", "android": "https://dc.lft.to/lastmile_qr_scan"}, "lat": 38.9524205, "lon": -76.976741, "bike_id": "2095d6265c09dc7fe5420777ffec6cae", "fusion_lat": 0.0, "is_disabled": 0, "fusion_lon": 0.0}, {"name": "9d8cf524065e18d6a2871e8cb582d461", "is_reserved": 0, "type": "electric_scooter", "rental_uris": {"ios": "https://dc.lft.to/lastmile_qr_scan", "android": "https://dc.lft.to/lastmile_qr_scan"}, "lat": 38.90432033333333, "lon": -77.03267366666667, "bike_id": "9d8cf524065e18d6a2871e8cb582d461", "fusion_lat": 0.0, "is_disabled": 0, "fusion_lon": 0.0}, {"name": "d921f2b8ed153598372839a3d9d53a46", "is_reserved": 0, "type": "electric_scooter", "rental_uris": {"ios": "https://dc.lft.to/lastmile_qr_scan", "android": "https://dc.lft.to/lastmile_qr_scan"}, "lat": 38.93250483333333, "lon": -77.07238333333333, "bike_id": "d921f2b8ed153598372839a3d9d53a46", "fusion_lat": 0.0, "is_disabled": 0, "fusion_lon": 0.0}, {"name": "26daa15f5291c8ec813c4d3ef1b1efaf", "is_reserved": 0, "type": "electric_scooter", "rental_uris": {"ios": "https://dc.lft.to/lastmile_qr_scan", "android": "https://dc.lft.to/lastmile_qr_scan"}, "lat": 38.9247695, "lon": -77.02553316666666, "bike_id": "26daa15f5291c8ec813c4d3ef1b1efaf", "fusion_lat": 0.0, "is_disabled": 0, "fusion_lon": 0.0}, {"name": "a9ca7b2a0e718100acc90a484bc36123", "is_reserved": 0, "type": "electric_scooter", "rental_uris": {"ios": "https://dc.lft.to/lastmile_qr_scan", "android": "https://dc.lft.to/lastmile_qr_scan"}, "lat": 38.92682116666667, "lon": -77.0299545, "bike_id": "a9ca7b2a0e718100acc90a484bc36123", "fusion_lat": 0.0, "is_disabled": 0, "fusion_lon": 0.0}, {"name": "f92c86591883b33a6d24cfd54fef3ba2", "is_reserved": 0, "type": "electric_scooter", "rental_uris": {"ios": "https://dc.lft.to/lastmile_qr_scan", "android": "https://dc.lft.to/lastmile_qr_scan"}, "lat": 38.894504166666664, "lon": -77.00188933333334, "bike_id": "f92c86591883b33a6d24cfd54fef3ba2", "fusion_lat": 0.0, "is_disabled": 0, "fusion_lon": 0.0}, {"name": "1834005df9bec62c7cd0cb39caf129a1", "is_reserved": 0, "type": "electric_scooter", "rental_uris": {"ios": "https://dc.lft.to/lastmile_qr_scan", "android": "https://dc.lft.to/lastmile_qr_scan"}, "lat": 38.902370833333336, "lon": -77.05903166666667, "bike_id": "1834005df9bec62c7cd0cb39caf129a1", "fusion_lat": 0.0, "is_disabled": 0, "fusion_lon": 0.0}, {"name": "56fb0c627cfae5373be982e29b8c444a", "is_reserved": 0, "type": "electric_scooter", "rental_uris": {"ios": "https://dc.lft.to/lastmile_qr_scan", "android": "https://dc.lft.to/lastmile_qr_scan"}, "lat": 38.924008666666666, "lon": -77.0254235, "bike_id": "56fb0c627cfae5373be982e29b8c444a", "fusion_lat": 0.0, "is_disabled": 0, "fusion_lon": 0.0}, {"name": "e22716eb07fce515986d3fd4cad34a2f", "is_reserved": 0, "type": "electric_scooter", "rental_uris": {"ios": "https://dc.lft.to/lastmile_qr_scan", "android": "https://dc.lft.to/lastmile_qr_scan"}, "lat": 38.90278433333334, "lon": -76.98197966666666, "bike_id": "e22716eb07fce515986d3fd4cad34a2f", "fusion_lat": 0.0, "is_disabled": 0, "fusion_lon": 0.0}, {"name": "4e38ca377ed2ef2b9743bb8e65916622", "is_reserved": 0, "type": "electric_scooter", "rental_uris": {"ios": "https://dc.lft.to/lastmile_qr_scan", "android": "https://dc.lft.to/lastmile_qr_scan"}, "lat": 38.907718833333334, "lon": -77.05590266666667, "bike_id": "4e38ca377ed2ef2b9743bb8e65916622", "fusion_lat": 0.0, "is_disabled": 0, "fusion_lon": 0.0}, {"name": "5030048bb6932002d8a4a86ad0154172", "is_reserved": 0, "type": "electric_scooter", "rental_uris": {"ios": "https://dc.lft.to/lastmile_qr_scan", "android": "https://dc.lft.to/lastmile_qr_scan"}, "lat": 38.950086, "lon": -77.02729216666667, "bike_id": "5030048bb6932002d8a4a86ad0154172", "fusion_lat": 0.0, "is_disabled": 0, "fusion_lon": 0.0}, {"name": "326dc0857aadba18432d5e492dc78bfc", "is_reserved": 0, "type": "electric_scooter", "rental_uris": {"ios": "https://dc.lft.to/lastmile_qr_scan", "android": "https://dc.lft.to/lastmile_qr_scan"}, "lat": 38.892122, "lon": -77.0236915, "bike_id": "326dc0857aadba18432d5e492dc78bfc", "fusion_lat": 0.0, "is_disabled": 0, "fusion_lon": 0.0}, {"name": "3ce226ced40b1df0e76da4531d20776f", "is_reserved": 0, "type": "electric_scooter", "rental_uris": {"ios": "https://dc.lft.to/lastmile_qr_scan", "android": "https://dc.lft.to/lastmile_qr_scan"}, "lat": 38.9104505, "lon": -77.04381983333333, "bike_id": "3ce226ced40b1df0e76da4531d20776f", "fusion_lat": 0.0, "is_disabled": 0, "fusion_lon": 0.0}, {"name": "c820ad043ac94ecde66424a0d7775720", "is_reserved": 0, "type": "electric_scooter", "rental_uris": {"ios": "https://dc.lft.to/lastmile_qr_scan", "android": "https://dc.lft.to/lastmile_qr_scan"}, "lat": 38.923665, "lon": -77.00387633333334, "bike_id": "c820ad043ac94ecde66424a0d7775720", "fusion_lat": 0.0, "is_disabled": 0, "fusion_lon": 0.0}, {"name": "ad23191cd8c15abfa00cf5f510a7208e", "is_reserved": 0, "type": "electric_scooter", "rental_uris": {"ios": "https://dc.lft.to/lastmile_qr_scan", "android": "https://dc.lft.to/lastmile_qr_scan"}, "lat": 38.902549, "lon": -77.03245916666667, "bike_id": "ad23191cd8c15abfa00cf5f510a7208e", "fusion_lat": 0.0, "is_disabled": 0, "fusion_lon": 0.0}, {"name": "00a0566eb6257514931c63a9a747b798", "is_reserved": 0, "type": "electric_scooter", "rental_uris": {"ios": "https://dc.lft.to/lastmile_qr_scan", "android": "https://dc.lft.to/lastmile_qr_scan"}, "lat": 38.908286333333336, "lon": -77.04466466666666, "bike_id": "00a0566eb6257514931c63a9a747b798", "fusion_lat": 0.0, "is_disabled": 0, "fusion_lon": 0.0}, {"name": "53a8374d767c12db8cc8d28b9e224559", "is_reserved": 0, "type": "electric_scooter", "rental_uris": {"ios": "https://dc.lft.to/lastmile_qr_scan", "android": "https://dc.lft.to/lastmile_qr_scan"}, "lat": 38.89877, "lon": -76.93182266666666, "bike_id": "53a8374d767c12db8cc8d28b9e224559", "fusion_lat": 0.0, "is_disabled": 0, "fusion_lon": 0.0}, {"name": "9202c71449ffd6a390b2c0e4eda293c3", "is_reserved": 0, "type": "electric_scooter", "rental_uris": {"ios": "https://dc.lft.to/lastmile_qr_scan", "android": "https://dc.lft.to/lastmile_qr_scan"}, "lat": 38.9750585, "lon": -77.01698816666666, "bike_id": "9202c71449ffd6a390b2c0e4eda293c3", "fusion_lat": 0.0, "is_disabled": 0, "fusion_lon": 0.0}, {"name": "98329219dd7a3cfec38dbfe9e126f13b", "is_reserved": 0, "type": "electric_scooter", "rental_uris": {"ios": "https://dc.lft.to/lastmile_qr_scan", "android": "https://dc.lft.to/lastmile_qr_scan"}, "lat": 38.92249366666667, "lon": -77.03086, "bike_id": "98329219dd7a3cfec38dbfe9e126f13b", "fusion_lat": 0.0, "is_disabled": 0, "fusion_lon": 0.0}, {"name": "a258a2731a0438154376549a4e1478bc", "is_reserved": 0, "type": "electric_scooter", "rental_uris": {"ios": "https://dc.lft.to/lastmile_qr_scan", "android": "https://dc.lft.to/lastmile_qr_scan"}, "lat": 38.90412083333333, "lon": -76.9733085, "bike_id": "a258a2731a0438154376549a4e1478bc", "fusion_lat": 0.0, "is_disabled": 0, "fusion_lon": 0.0}, {"name": "106d9ba9531aa54a2ba9325fb7a78b71", "is_reserved": 0, "type": "electric_scooter", "rental_uris": {"ios": "https://dc.lft.to/lastmile_qr_scan", "android": "https://dc.lft.to/lastmile_qr_scan"}, "lat": 38.92965016666667, "lon": -77.02553883333333, "bike_id": "106d9ba9531aa54a2ba9325fb7a78b71", "fusion_lat": 0.0, "is_disabled": 0, "fusion_lon": 0.0}, {"name": "1e5ef7476bb0a6fef394c4fb662618c6", "is_reserved": 0, "type": "electric_scooter", "rental_uris": {"ios": "https://dc.lft.to/lastmile_qr_scan", "android": "https://dc.lft.to/lastmile_qr_scan"}, "lat": 38.899664, "lon": -77.055696, "bike_id": "1e5ef7476bb0a6fef394c4fb662618c6", "fusion_lat": 0.0, "is_disabled": 0, "fusion_lon": 0.0}, {"name": "c5a1e834f3207e858b7efd04c82da9ec", "is_reserved": 0, "type": "electric_scooter", "rental_uris": {"ios": "https://dc.lft.to/lastmile_qr_scan", "android": "https://dc.lft.to/lastmile_qr_scan"}, "lat": 38.900103333333334, "lon": -77.00041216666666, "bike_id": "c5a1e834f3207e858b7efd04c82da9ec", "fusion_lat": 0.0, "is_disabled": 0, "fusion_lon": 0.0}, {"name": "9323aad6a20b63187cdb40f157426b72", "is_reserved": 0, "type": "electric_scooter", "rental_uris": {"ios": "https://dc.lft.to/lastmile_qr_scan", "android": "https://dc.lft.to/lastmile_qr_scan"}, "lat": 38.8922075, "lon": -77.04342733333333, "bike_id": "9323aad6a20b63187cdb40f157426b72", "fusion_lat": 0.0, "is_disabled": 0, "fusion_lon": 0.0}, {"name": "261244f72f5b90f6cd250cd7a06fb7ed", "is_reserved": 0, "type": "electric_scooter", "rental_uris": {"ios": "https://dc.lft.to/lastmile_qr_scan", "android": "https://dc.lft.to/lastmile_qr_scan"}, "lat": 38.8949395, "lon": -77.00291166666666, "bike_id": "261244f72f5b90f6cd250cd7a06fb7ed", "fusion_lat": 0.0, "is_disabled": 0, "fusion_lon": 0.0}, {"name": "318c83b8b6670a8921626251d7c344f0", "is_reserved": 0, "type": "electric_scooter", "rental_uris": {"ios": "https://dc.lft.to/lastmile_qr_scan", "android": "https://dc.lft.to/lastmile_qr_scan"}, "lat": 38.905417666666665, "lon": -77.04880833333333, "bike_id": "318c83b8b6670a8921626251d7c344f0", "fusion_lat": 0.0, "is_disabled": 0, "fusion_lon": 0.0}, {"name": "f59011e443797ec5edc21230ba2a54ca", "is_reserved": 0, "type": "electric_scooter", "rental_uris": {"ios": "https://dc.lft.to/lastmile_qr_scan", "android": "https://dc.lft.to/lastmile_qr_scan"}, "lat": 38.90794416666667, "lon": -77.0319905, "bike_id": "f59011e443797ec5edc21230ba2a54ca", "fusion_lat": 0.0, "is_disabled": 0, "fusion_lon": 0.0}, {"name": "854a55c58e340759d368439f870f177a", "is_reserved": 0, "type": "electric_scooter", "rental_uris": {"ios": "https://dc.lft.to/lastmile_qr_scan", "android": "https://dc.lft.to/lastmile_qr_scan"}, "lat": 38.9434895, "lon": -77.06290833333334, "bike_id": "854a55c58e340759d368439f870f177a", "fusion_lat": 0.0, "is_disabled": 0, "fusion_lon": 0.0}, {"name": "ee63818a6dbb75f848b51fb3124a0f2b", "is_reserved": 0, "type": "electric_scooter", "rental_uris": {"ios": "https://dc.lft.to/lastmile_qr_scan", "android": "https://dc.lft.to/lastmile_qr_scan"}, "lat": 38.92840983333333, "lon": -76.99364616666666, "bike_id": "ee63818a6dbb75f848b51fb3124a0f2b", "fusion_lat": 0.0, "is_disabled": 0, "fusion_lon": 0.0}, {"name": "71f7bb9878657ba02938a5fc86e96df4", "is_reserved": 0, "type": "electric_scooter", "rental_uris": {"ios": "https://dc.lft.to/lastmile_qr_scan", "android": "https://dc.lft.to/lastmile_qr_scan"}, "lat": 38.9140635, "lon": -77.02942816666666, "bike_id": "71f7bb9878657ba02938a5fc86e96df4", "fusion_lat": 0.0, "is_disabled": 0, "fusion_lon": 0.0}, {"name": "e597baacab10a287b6e556e53d17db68", "is_reserved": 0, "type": "electric_scooter", "rental_uris": {"ios": "https://dc.lft.to/lastmile_qr_scan", "android": "https://dc.lft.to/lastmile_qr_scan"}, "lat": 38.907929833333334, "lon": -77.03191316666667, "bike_id": "e597baacab10a287b6e556e53d17db68", "fusion_lat": 0.0, "is_disabled": 0, "fusion_lon": 0.0}, {"name": "d754be6b0ad35a7e34555a4c564e236e", "is_reserved": 0, "type": "electric_scooter", "rental_uris": {"ios": "https://dc.lft.to/lastmile_qr_scan", "android": "https://dc.lft.to/lastmile_qr_scan"}, "lat": 38.89735433333333, "lon": -77.00373766666667, "bike_id": "d754be6b0ad35a7e34555a4c564e236e", "fusion_lat": 0.0, "is_disabled": 0, "fusion_lon": 0.0}, {"name": "4b8467d032325eb7389ca1fa241adea9", "is_reserved": 0, "type": "electric_scooter", "rental_uris": {"ios": "https://dc.lft.to/lastmile_qr_scan", "android": "https://dc.lft.to/lastmile_qr_scan"}, "lat": 38.92154566666667, "lon": -77.04347166666666, "bike_id": "4b8467d032325eb7389ca1fa241adea9", "fusion_lat": 0.0, "is_disabled": 0, "fusion_lon": 0.0}, {"name": "68185b944063374ad55cee761c22456d", "is_reserved": 0, "type": "electric_scooter", "rental_uris": {"ios": "https://dc.lft.to/lastmile_qr_scan", "android": "https://dc.lft.to/lastmile_qr_scan"}, "lat": 38.8625275, "lon": -76.986959, "bike_id": "68185b944063374ad55cee761c22456d", "fusion_lat": 0.0, "is_disabled": 0, "fusion_lon": 0.0}, {"name": "8fe18c8dc4a199896692bea73b5be472", "is_reserved": 0, "type": "electric_scooter", "rental_uris": {"ios": "https://dc.lft.to/lastmile_qr_scan", "android": "https://dc.lft.to/lastmile_qr_scan"}, "lat": 38.92333716666667, "lon": -77.02696316666666, "bike_id": "8fe18c8dc4a199896692bea73b5be472", "fusion_lat": 0.0, "is_disabled": 0, "fusion_lon": 0.0}, {"name": "c1aa9727e01017f9f0c4b3c73c0e8fd4", "is_reserved": 0, "type": "electric_scooter", "rental_uris": {"ios": "https://dc.lft.to/lastmile_qr_scan", "android": "https://dc.lft.to/lastmile_qr_scan"}, "lat": 38.904081166666664, "lon": -76.973314, "bike_id": "c1aa9727e01017f9f0c4b3c73c0e8fd4", "fusion_lat": 0.0, "is_disabled": 0, "fusion_lon": 0.0}, {"name": "08f24c4675fa33d886168f00dd3a1340", "is_reserved": 0, "type": "electric_scooter", "rental_uris": {"ios": "https://dc.lft.to/lastmile_qr_scan", "android": "https://dc.lft.to/lastmile_qr_scan"}, "lat": 38.936056666666666, "lon": -77.03655516666667, "bike_id": "08f24c4675fa33d886168f00dd3a1340", "fusion_lat": 0.0, "is_disabled": 0, "fusion_lon": 0.0}, {"name": "9bae6659a4619c13da042d62e1af12b1", "is_reserved": 0, "type": "electric_scooter", "rental_uris": {"ios": "https://dc.lft.to/lastmile_qr_scan", "android": "https://dc.lft.to/lastmile_qr_scan"}, "lat": 38.895439, "lon": -77.0020715, "bike_id": "9bae6659a4619c13da042d62e1af12b1", "fusion_lat": 0.0, "is_disabled": 0, "fusion_lon": 0.0}, {"name": "dd47c32d479afc9cbb136670c54ea044", "is_reserved": 0, "type": "electric_scooter", "rental_uris": {"ios": "https://dc.lft.to/lastmile_qr_scan", "android": "https://dc.lft.to/lastmile_qr_scan"}, "lat": 38.8923195, "lon": -77.05001183333333, "bike_id": "dd47c32d479afc9cbb136670c54ea044", "fusion_lat": 0.0, "is_disabled": 0, "fusion_lon": 0.0}, {"name": "30a500569631cc48749037e6a3bc95b1", "is_reserved": 0, "type": "electric_scooter", "rental_uris": {"ios": "https://dc.lft.to/lastmile_qr_scan", "android": "https://dc.lft.to/lastmile_qr_scan"}, "lat": 38.947554333333336, "lon": -77.07965966666667, "bike_id": "30a500569631cc48749037e6a3bc95b1", "fusion_lat": 0.0, "is_disabled": 0, "fusion_lon": 0.0}, {"name": "cfe5f8c3b2f556c916f57a4170cb4f06", "is_reserved": 0, "type": "electric_scooter", "rental_uris": {"ios": "https://dc.lft.to/lastmile_qr_scan", "android": "https://dc.lft.to/lastmile_qr_scan"}, "lat": 38.91039466666667, "lon": -77.0436505, "bike_id": "cfe5f8c3b2f556c916f57a4170cb4f06", "fusion_lat": 0.0, "is_disabled": 0, "fusion_lon": 0.0}, {"name": "515d65e26daaa0551874d8a9189b742f", "is_reserved": 0, "type": "electric_scooter", "rental_uris": {"ios": "https://dc.lft.to/lastmile_qr_scan", "android": "https://dc.lft.to/lastmile_qr_scan"}, "lat": 38.909706166666666, "lon": -77.02162416666667, "bike_id": "515d65e26daaa0551874d8a9189b742f", "fusion_lat": 0.0, "is_disabled": 0, "fusion_lon": 0.0}, {"name": "35771789882211235e5168dd96248e3e", "is_reserved": 0, "type": "electric_scooter", "rental_uris": {"ios": "https://dc.lft.to/lastmile_qr_scan", "android": "https://dc.lft.to/lastmile_qr_scan"}, "lat": 38.918118666666665, "lon": -77.0343875, "bike_id": "35771789882211235e5168dd96248e3e", "fusion_lat": 0.0, "is_disabled": 0, "fusion_lon": 0.0}, {"name": "4d1eb80ebc96928c2a3d4b7c0c14fc5f", "is_reserved": 0, "type": "electric_scooter", "rental_uris": {"ios": "https://dc.lft.to/lastmile_qr_scan", "android": "https://dc.lft.to/lastmile_qr_scan"}, "lat": 38.87652116666667, "lon": -77.00447283333334, "bike_id": "4d1eb80ebc96928c2a3d4b7c0c14fc5f", "fusion_lat": 0.0, "is_disabled": 0, "fusion_lon": 0.0}, {"name": "59bdc267388cdc6c2ddaedbfff92724a", "is_reserved": 0, "type": "electric_scooter", "rental_uris": {"ios": "https://dc.lft.to/lastmile_qr_scan", "android": "https://dc.lft.to/lastmile_qr_scan"}, "lat": 38.899234666666665, "lon": -76.982748, "bike_id": "59bdc267388cdc6c2ddaedbfff92724a", "fusion_lat": 0.0, "is_disabled": 0, "fusion_lon": 0.0}, {"name": "d49507fdaf027f373a3804c5c1b7315a", "is_reserved": 0, "type": "electric_scooter", "rental_uris": {"ios": "https://dc.lft.to/lastmile_qr_scan", "android": "https://dc.lft.to/lastmile_qr_scan"}, "lat": 38.9054305, "lon": -77.04757016666667, "bike_id": "d49507fdaf027f373a3804c5c1b7315a", "fusion_lat": 0.0, "is_disabled": 0, "fusion_lon": 0.0}, {"name": "f83ed3a874afb07c7c8cad55c459e11d", "is_reserved": 0, "type": "electric_scooter", "rental_uris": {"ios": "https://dc.lft.to/lastmile_qr_scan", "android": "https://dc.lft.to/lastmile_qr_scan"}, "lat": 38.93094033333333, "lon": -77.03134833333333, "bike_id": "f83ed3a874afb07c7c8cad55c459e11d", "fusion_lat": 0.0, "is_disabled": 0, "fusion_lon": 0.0}, {"name": "ecbcbc9a016e9732b7d470bae12a6e15", "is_reserved": 0, "type": "electric_scooter", "rental_uris": {"ios": "https://dc.lft.to/lastmile_qr_scan", "android": "https://dc.lft.to/lastmile_qr_scan"}, "lat": 38.94154283333334, "lon": -77.03263833333334, "bike_id": "ecbcbc9a016e9732b7d470bae12a6e15", "fusion_lat": 0.0, "is_disabled": 0, "fusion_lon": 0.0}, {"name": "27b042adeac351879d8f662588741006", "is_reserved": 0, "type": "electric_scooter", "rental_uris": {"ios": "https://dc.lft.to/lastmile_qr_scan", "android": "https://dc.lft.to/lastmile_qr_scan"}, "lat": 38.9060385, "lon": -77.05690133333333, "bike_id": "27b042adeac351879d8f662588741006", "fusion_lat": 0.0, "is_disabled": 0, "fusion_lon": 0.0}, {"name": "2888ce15c6d3151e99d4c562e8ff7e9b", "is_reserved": 0, "type": "electric_scooter", "rental_uris": {"ios": "https://dc.lft.to/lastmile_qr_scan", "android": "https://dc.lft.to/lastmile_qr_scan"}, "lat": 38.91783483333333, "lon": -77.03178616666666, "bike_id": "2888ce15c6d3151e99d4c562e8ff7e9b", "fusion_lat": 0.0, "is_disabled": 0, "fusion_lon": 0.0}, {"name": "6b697114b6e40492028ce2fa80edc18d", "is_reserved": 0, "type": "electric_bike", "rental_uris": {"ios": "https://dc.lft.to/lastmile_qr_scan", "android": "https://dc.lft.to/lastmile_qr_scan"}, "lat": 38.86239366666667, "lon": -76.99085666666667, "bike_id": "6b697114b6e40492028ce2fa80edc18d", "fusion_lat": 0.0, "is_disabled": 0, "fusion_lon": 0.0}, {"name": "ffbb36b26c7957b8d9b8228a899ea7b3", "is_reserved": 0, "type": "electric_scooter", "rental_uris": {"ios": "https://dc.lft.to/lastmile_qr_scan", "android": "https://dc.lft.to/lastmile_qr_scan"}, "lat": 38.91704283333333, "lon": -77.02632583333333, "bike_id": "ffbb36b26c7957b8d9b8228a899ea7b3", "fusion_lat": 0.0, "is_disabled": 0, "fusion_lon": 0.0}, {"name": "b51b1c1ad723e1e1cfcb0134e60cee7b", "is_reserved": 0, "type": "electric_scooter", "rental_uris": {"ios": "https://dc.lft.to/lastmile_qr_scan", "android": "https://dc.lft.to/lastmile_qr_scan"}, "lat": 38.92112066666667, "lon": -77.0318215, "bike_id": "b51b1c1ad723e1e1cfcb0134e60cee7b", "fusion_lat": 0.0, "is_disabled": 0, "fusion_lon": 0.0}, {"name": "0e1cab15acdb33329cda90b726a34cc9", "is_reserved": 0, "type": "electric_scooter", "rental_uris": {"ios": "https://dc.lft.to/lastmile_qr_scan", "android": "https://dc.lft.to/lastmile_qr_scan"}, "lat": 38.918092333333334, "lon": -77.00928266666666, "bike_id": "0e1cab15acdb33329cda90b726a34cc9", "fusion_lat": 0.0, "is_disabled": 0, "fusion_lon": 0.0}, {"name": "4d64918a3df9289793906b693d69c430", "is_reserved": 0, "type": "electric_scooter", "rental_uris": {"ios": "https://dc.lft.to/lastmile_qr_scan", "android": "https://dc.lft.to/lastmile_qr_scan"}, "lat": 38.903150333333336, "lon": -76.97800533333333, "bike_id": "4d64918a3df9289793906b693d69c430", "fusion_lat": 0.0, "is_disabled": 0, "fusion_lon": 0.0}, {"name": "d3de334b50730b67e13ab286902b8bfb", "is_reserved": 0, "type": "electric_scooter", "rental_uris": {"ios": "https://dc.lft.to/lastmile_qr_scan", "android": "https://dc.lft.to/lastmile_qr_scan"}, "lat": 38.91283883333333, "lon": -77.03847133333333, "bike_id": "d3de334b50730b67e13ab286902b8bfb", "fusion_lat": 0.0, "is_disabled": 0, "fusion_lon": 0.0}, {"name": "7889846955af56c47000ca0677f7e105", "is_reserved": 0, "type": "electric_scooter", "rental_uris": {"ios": "https://dc.lft.to/lastmile_qr_scan", "android": "https://dc.lft.to/lastmile_qr_scan"}, "lat": 38.9097475, "lon": -77.034378, "bike_id": "7889846955af56c47000ca0677f7e105", "fusion_lat": 0.0, "is_disabled": 0, "fusion_lon": 0.0}, {"name": "400d6abffce096ec1b27d27aaa202328", "is_reserved": 0, "type": "electric_scooter", "rental_uris": {"ios": "https://dc.lft.to/lastmile_qr_scan", "android": "https://dc.lft.to/lastmile_qr_scan"}, "lat": 38.95635633333333, "lon": -77.03305316666666, "bike_id": "400d6abffce096ec1b27d27aaa202328", "fusion_lat": 0.0, "is_disabled": 0, "fusion_lon": 0.0}, {"name": "03778a36f5691fbf77c6bd9347fec950", "is_reserved": 0, "type": "electric_scooter", "rental_uris": {"ios": "https://dc.lft.to/lastmile_qr_scan", "android": "https://dc.lft.to/lastmile_qr_scan"}, "lat": 38.89626116666667, "lon": -77.029568, "bike_id": "03778a36f5691fbf77c6bd9347fec950", "fusion_lat": 0.0, "is_disabled": 0, "fusion_lon": 0.0}, {"name": "958901147ba91842877c0448599ae6a3", "is_reserved": 0, "type": "electric_scooter", "rental_uris": {"ios": "https://dc.lft.to/lastmile_qr_scan", "android": "https://dc.lft.to/lastmile_qr_scan"}, "lat": 38.94303383333333, "lon": -77.05889116666667, "bike_id": "958901147ba91842877c0448599ae6a3", "fusion_lat": 0.0, "is_disabled": 0, "fusion_lon": 0.0}, {"name": "cfb111da593cb62363d3b51632c7d965", "is_reserved": 0, "type": "electric_scooter", "rental_uris": {"ios": "https://dc.lft.to/lastmile_qr_scan", "android": "https://dc.lft.to/lastmile_qr_scan"}, "lat": 38.95425433333333, "lon": -77.02769666666667, "bike_id": "cfb111da593cb62363d3b51632c7d965", "fusion_lat": 0.0, "is_disabled": 0, "fusion_lon": 0.0}, {"name": "c2442e72732291ac2baafb1789f77f32", "is_reserved": 0, "type": "electric_scooter", "rental_uris": {"ios": "https://dc.lft.to/lastmile_qr_scan", "android": "https://dc.lft.to/lastmile_qr_scan"}, "lat": 38.91558466666667, "lon": -77.021714, "bike_id": "c2442e72732291ac2baafb1789f77f32", "fusion_lat": 0.0, "is_disabled": 0, "fusion_lon": 0.0}, {"name": "d4ed21cbad1576ca3eb1479e4bcaa101", "is_reserved": 0, "type": "electric_scooter", "rental_uris": {"ios": "https://dc.lft.to/lastmile_qr_scan", "android": "https://dc.lft.to/lastmile_qr_scan"}, "lat": 38.901545, "lon": -77.03317133333333, "bike_id": "d4ed21cbad1576ca3eb1479e4bcaa101", "fusion_lat": 0.0, "is_disabled": 0, "fusion_lon": 0.0}, {"name": "27826ba99ed386327cd4ff3de634d643", "is_reserved": 0, "type": "electric_scooter", "rental_uris": {"ios": "https://dc.lft.to/lastmile_qr_scan", "android": "https://dc.lft.to/lastmile_qr_scan"}, "lat": 38.952496, "lon": -77.00699133333333, "bike_id": "27826ba99ed386327cd4ff3de634d643", "fusion_lat": 0.0, "is_disabled": 0, "fusion_lon": 0.0}, {"name": "05465f77787b8c69ea951a0eb40188f8", "is_reserved": 0, "type": "electric_scooter", "rental_uris": {"ios": "https://dc.lft.to/lastmile_qr_scan", "android": "https://dc.lft.to/lastmile_qr_scan"}, "lat": 38.92458883333333, "lon": -77.02716833333334, "bike_id": "05465f77787b8c69ea951a0eb40188f8", "fusion_lat": 0.0, "is_disabled": 0, "fusion_lon": 0.0}, {"name": "f49826c2f64df8f0e69b295dec04c6ee", "is_reserved": 0, "type": "electric_scooter", "rental_uris": {"ios": "https://dc.lft.to/lastmile_qr_scan", "android": "https://dc.lft.to/lastmile_qr_scan"}, "lat": 38.927933333333335, "lon": -77.01416516666667, "bike_id": "f49826c2f64df8f0e69b295dec04c6ee", "fusion_lat": 0.0, "is_disabled": 0, "fusion_lon": 0.0}, {"name": "2a5ba30f4d250d7fc98646b6d6c6c37f", "is_reserved": 0, "type": "electric_bike", "rental_uris": {"ios": "https://dc.lft.to/lastmile_qr_scan", "android": "https://dc.lft.to/lastmile_qr_scan"}, "lat": 38.9375495, "lon": -76.990354, "bike_id": "2a5ba30f4d250d7fc98646b6d6c6c37f", "fusion_lat": 0.0, "is_disabled": 0, "fusion_lon": 0.0}, {"name": "158e52e606eb7baabb445bebc58fe031", "is_reserved": 0, "type": "electric_scooter", "rental_uris": {"ios": "https://dc.lft.to/lastmile_qr_scan", "android": "https://dc.lft.to/lastmile_qr_scan"}, "lat": 38.90380666666667, "lon": -77.03432766666667, "bike_id": "158e52e606eb7baabb445bebc58fe031", "fusion_lat": 0.0, "is_disabled": 0, "fusion_lon": 0.0}, {"name": "11984dce2e5fdb3497dd08127fc8e1ca", "is_reserved": 0, "type": "electric_scooter", "rental_uris": {"ios": "https://dc.lft.to/lastmile_qr_scan", "android": "https://dc.lft.to/lastmile_qr_scan"}, "lat": 38.8924955, "lon": -77.01511866666667, "bike_id": "11984dce2e5fdb3497dd08127fc8e1ca", "fusion_lat": 0.0, "is_disabled": 0, "fusion_lon": 0.0}, {"name": "2cc85ed0194fdcb87f819d0d4a19c37f", "is_reserved": 0, "type": "electric_scooter", "rental_uris": {"ios": "https://dc.lft.to/lastmile_qr_scan", "android": "https://dc.lft.to/lastmile_qr_scan"}, "lat": 38.9117575, "lon": -77.0321185, "bike_id": "2cc85ed0194fdcb87f819d0d4a19c37f", "fusion_lat": 0.0, "is_disabled": 0, "fusion_lon": 0.0}, {"name": "ee2e5521c53fe55a0376ce2d0e4dc5ee", "is_reserved": 0, "type": "electric_scooter", "rental_uris": {"ios": "https://dc.lft.to/lastmile_qr_scan", "android": "https://dc.lft.to/lastmile_qr_scan"}, "lat": 38.92725566666667, "lon": -77.03668966666666, "bike_id": "ee2e5521c53fe55a0376ce2d0e4dc5ee", "fusion_lat": 0.0, "is_disabled": 0, "fusion_lon": 0.0}, {"name": "ef458ff82eb9d714ee66118c82d202d0", "is_reserved": 0, "type": "electric_scooter", "rental_uris": {"ios": "https://dc.lft.to/lastmile_qr_scan", "android": "https://dc.lft.to/lastmile_qr_scan"}, "lat": 38.88587966666667, "lon": -77.01769033333333, "bike_id": "ef458ff82eb9d714ee66118c82d202d0", "fusion_lat": 0.0, "is_disabled": 0, "fusion_lon": 0.0}, {"name": "56dfa4a2ca4055366d13fc3712212455", "is_reserved": 0, "type": "electric_scooter", "rental_uris": {"ios": "https://dc.lft.to/lastmile_qr_scan", "android": "https://dc.lft.to/lastmile_qr_scan"}, "lat": 38.903781333333335, "lon": -77.06620916666667, "bike_id": "56dfa4a2ca4055366d13fc3712212455", "fusion_lat": 0.0, "is_disabled": 0, "fusion_lon": 0.0}, {"name": "9863b961aad61f10f8dcdddea66c370f", "is_reserved": 0, "type": "electric_scooter", "rental_uris": {"ios": "https://dc.lft.to/lastmile_qr_scan", "android": "https://dc.lft.to/lastmile_qr_scan"}, "lat": 38.90409983333333, "lon": -77.031169, "bike_id": "9863b961aad61f10f8dcdddea66c370f", "fusion_lat": 0.0, "is_disabled": 0, "fusion_lon": 0.0}, {"name": "aaa47f7e8d9de46bb6783ed461e43fe6", "is_reserved": 0, "type": "electric_bike", "rental_uris": {"ios": "https://dc.lft.to/lastmile_qr_scan", "android": "https://dc.lft.to/lastmile_qr_scan"}, "lat": 38.96527533333333, "lon": -77.03435, "bike_id": "aaa47f7e8d9de46bb6783ed461e43fe6", "fusion_lat": 0.0, "is_disabled": 0, "fusion_lon": 0.0}, {"name": "a818e317258f3c62a367e7c9287f32d9", "is_reserved": 0, "type": "electric_scooter", "rental_uris": {"ios": "https://dc.lft.to/lastmile_qr_scan", "android": "https://dc.lft.to/lastmile_qr_scan"}, "lat": 38.911114833333336, "lon": -77.043568, "bike_id": "a818e317258f3c62a367e7c9287f32d9", "fusion_lat": 0.0, "is_disabled": 0, "fusion_lon": 0.0}, {"name": "f18f4e70fbcb0b46381b4db9df6e6956", "is_reserved": 0, "type": "electric_scooter", "rental_uris": {"ios": "https://dc.lft.to/lastmile_qr_scan", "android": "https://dc.lft.to/lastmile_qr_scan"}, "lat": 38.948254166666665, "lon": -76.99896150000001, "bike_id": "f18f4e70fbcb0b46381b4db9df6e6956", "fusion_lat": 0.0, "is_disabled": 0, "fusion_lon": 0.0}, {"name": "4f3372c7aeaa76465e7ff6b84d06d72e", "is_reserved": 0, "type": "electric_scooter", "rental_uris": {"ios": "https://dc.lft.to/lastmile_qr_scan", "android": "https://dc.lft.to/lastmile_qr_scan"}, "lat": 38.94808416666667, "lon": -77.0790705, "bike_id": "4f3372c7aeaa76465e7ff6b84d06d72e", "fusion_lat": 0.0, "is_disabled": 0, "fusion_lon": 0.0}, {"name": "0f5dd9f3ed85abea62f469217651c876", "is_reserved": 0, "type": "electric_scooter", "rental_uris": {"ios": "https://dc.lft.to/lastmile_qr_scan", "android": "https://dc.lft.to/lastmile_qr_scan"}, "lat": 38.901522666666665, "lon": -76.94598616666667, "bike_id": "0f5dd9f3ed85abea62f469217651c876", "fusion_lat": 0.0, "is_disabled": 0, "fusion_lon": 0.0}, {"name": "b07229ba15c22e60027c68440efe8009", "is_reserved": 0, "type": "electric_scooter", "rental_uris": {"ios": "https://dc.lft.to/lastmile_qr_scan", "android": "https://dc.lft.to/lastmile_qr_scan"}, "lat": 38.930463833333334, "lon": -77.01814683333333, "bike_id": "b07229ba15c22e60027c68440efe8009", "fusion_lat": 0.0, "is_disabled": 0, "fusion_lon": 0.0}, {"name": "bc67aeefb4ca800c35a391a056f7c5ba", "is_reserved": 0, "type": "electric_scooter", "rental_uris": {"ios": "https://dc.lft.to/lastmile_qr_scan", "android": "https://dc.lft.to/lastmile_qr_scan"}, "lat": 38.86535383333333, "lon": -76.98969783333334, "bike_id": "bc67aeefb4ca800c35a391a056f7c5ba", "fusion_lat": 0.0, "is_disabled": 0, "fusion_lon": 0.0}, {"name": "89755d8d1fe0bb6f53536cc3ce38f2c8", "is_reserved": 0, "type": "electric_scooter", "rental_uris": {"ios": "https://dc.lft.to/lastmile_qr_scan", "android": "https://dc.lft.to/lastmile_qr_scan"}, "lat": 38.90046683333333, "lon": -77.01629716666666, "bike_id": "89755d8d1fe0bb6f53536cc3ce38f2c8", "fusion_lat": 0.0, "is_disabled": 0, "fusion_lon": 0.0}, {"name": "81bc8651db0136c44efeed264b610de9", "is_reserved": 0, "type": "electric_bike", "rental_uris": {"ios": "https://dc.lft.to/lastmile_qr_scan", "android": "https://dc.lft.to/lastmile_qr_scan"}, "lat": 38.958759, "lon": -77.00147883333334, "bike_id": "81bc8651db0136c44efeed264b610de9", "fusion_lat": 0.0, "is_disabled": 0, "fusion_lon": 0.0}, {"name": "c5a5e92fe047b793ad689e4de7ad50be", "is_reserved": 0, "type": "electric_scooter", "rental_uris": {"ios": "https://dc.lft.to/lastmile_qr_scan", "android": "https://dc.lft.to/lastmile_qr_scan"}, "lat": 38.870952833333334, "lon": -76.96868116666667, "bike_id": "c5a5e92fe047b793ad689e4de7ad50be", "fusion_lat": 0.0, "is_disabled": 0, "fusion_lon": 0.0}, {"name": "2c5df9c3bebb50704020b1f7b46613f6", "is_reserved": 0, "type": "electric_scooter", "rental_uris": {"ios": "https://dc.lft.to/lastmile_qr_scan", "android": "https://dc.lft.to/lastmile_qr_scan"}, "lat": 38.904128666666665, "lon": -77.065967, "bike_id": "2c5df9c3bebb50704020b1f7b46613f6", "fusion_lat": 0.0, "is_disabled": 0, "fusion_lon": 0.0}, {"name": "085dc2d721c2011d045740599828c749", "is_reserved": 0, "type": "electric_scooter", "rental_uris": {"ios": "https://dc.lft.to/lastmile_qr_scan", "android": "https://dc.lft.to/lastmile_qr_scan"}, "lat": 38.90731483333333, "lon": -77.01137816666666, "bike_id": "085dc2d721c2011d045740599828c749", "fusion_lat": 0.0, "is_disabled": 0, "fusion_lon": 0.0}, {"name": "1a163a36ea1e63b90b7afd2431de55c1", "is_reserved": 0, "type": "electric_scooter", "rental_uris": {"ios": "https://dc.lft.to/lastmile_qr_scan", "android": "https://dc.lft.to/lastmile_qr_scan"}, "lat": 38.900119, "lon": -77.0004165, "bike_id": "1a163a36ea1e63b90b7afd2431de55c1", "fusion_lat": 0.0, "is_disabled": 0, "fusion_lon": 0.0}, {"name": "4dc04313758d69899930b1d2efafc77b", "is_reserved": 0, "type": "electric_scooter", "rental_uris": {"ios": "https://dc.lft.to/lastmile_qr_scan", "android": "https://dc.lft.to/lastmile_qr_scan"}, "lat": 38.918746166666665, "lon": -77.0390345, "bike_id": "4dc04313758d69899930b1d2efafc77b", "fusion_lat": 0.0, "is_disabled": 0, "fusion_lon": 0.0}, {"name": "a54f9771c870d44bf7117f34a41f0558", "is_reserved": 0, "type": "electric_scooter", "rental_uris": {"ios": "https://dc.lft.to/lastmile_qr_scan", "android": "https://dc.lft.to/lastmile_qr_scan"}, "lat": 38.90735033333333, "lon": -77.063442, "bike_id": "a54f9771c870d44bf7117f34a41f0558", "fusion_lat": 0.0, "is_disabled": 0, "fusion_lon": 0.0}, {"name": "b71f2784bb22f7c7031b4ca1bb1ce0f1", "is_reserved": 0, "type": "electric_scooter", "rental_uris": {"ios": "https://dc.lft.to/lastmile_qr_scan", "android": "https://dc.lft.to/lastmile_qr_scan"}, "lat": 38.922347, "lon": -77.02200233333333, "bike_id": "b71f2784bb22f7c7031b4ca1bb1ce0f1", "fusion_lat": 0.0, "is_disabled": 0, "fusion_lon": 0.0}, {"name": "777f380b3b9d4c9899079ad7e9e5265f", "is_reserved": 0, "type": "electric_scooter", "rental_uris": {"ios": "https://dc.lft.to/lastmile_qr_scan", "android": "https://dc.lft.to/lastmile_qr_scan"}, "lat": 38.92470683333333, "lon": -77.02714233333333, "bike_id": "777f380b3b9d4c9899079ad7e9e5265f", "fusion_lat": 0.0, "is_disabled": 0, "fusion_lon": 0.0}, {"name": "ebecff5ed61c68e26a8148783b445f1d", "is_reserved": 0, "type": "electric_scooter", "rental_uris": {"ios": "https://dc.lft.to/lastmile_qr_scan", "android": "https://dc.lft.to/lastmile_qr_scan"}, "lat": 38.900043, "lon": -77.03373, "bike_id": "ebecff5ed61c68e26a8148783b445f1d", "fusion_lat": 0.0, "is_disabled": 0, "fusion_lon": 0.0}, {"name": "1e7f26c8437326a128270697ae521f1f", "is_reserved": 0, "type": "electric_scooter", "rental_uris": {"ios": "https://dc.lft.to/lastmile_qr_scan", "android": "https://dc.lft.to/lastmile_qr_scan"}, "lat": 38.915258666666666, "lon": -77.01958666666667, "bike_id": "1e7f26c8437326a128270697ae521f1f", "fusion_lat": 0.0, "is_disabled": 0, "fusion_lon": 0.0}, {"name": "06f8a2a8ac95ded165396c2a4c632663", "is_reserved": 0, "type": "electric_scooter", "rental_uris": {"ios": "https://dc.lft.to/lastmile_qr_scan", "android": "https://dc.lft.to/lastmile_qr_scan"}, "lat": 38.9133045, "lon": -77.01981383333333, "bike_id": "06f8a2a8ac95ded165396c2a4c632663", "fusion_lat": 0.0, "is_disabled": 0, "fusion_lon": 0.0}, {"name": "de9ea6bb406bd5965d39218ec7dceb5d", "is_reserved": 0, "type": "electric_scooter", "rental_uris": {"ios": "https://dc.lft.to/lastmile_qr_scan", "android": "https://dc.lft.to/lastmile_qr_scan"}, "lat": 38.90546766666667, "lon": -76.934845, "bike_id": "de9ea6bb406bd5965d39218ec7dceb5d", "fusion_lat": 0.0, "is_disabled": 0, "fusion_lon": 0.0}, {"name": "63d3674e23b23cf794d33ad81eb5386a", "is_reserved": 0, "type": "electric_scooter", "rental_uris": {"ios": "https://dc.lft.to/lastmile_qr_scan", "android": "https://dc.lft.to/lastmile_qr_scan"}, "lat": 38.92182866666667, "lon": -77.047005, "bike_id": "63d3674e23b23cf794d33ad81eb5386a", "fusion_lat": 0.0, "is_disabled": 0, "fusion_lon": 0.0}, {"name": "ff42a80f30dde72f5e31f511ec143059", "is_reserved": 0, "type": "electric_scooter", "rental_uris": {"ios": "https://dc.lft.to/lastmile_qr_scan", "android": "https://dc.lft.to/lastmile_qr_scan"}, "lat": 38.902983166666665, "lon": -76.9739755, "bike_id": "ff42a80f30dde72f5e31f511ec143059", "fusion_lat": 0.0, "is_disabled": 0, "fusion_lon": 0.0}, {"name": "e8ad04901c60ead181694af04bda84c6", "is_reserved": 0, "type": "electric_scooter", "rental_uris": {"ios": "https://dc.lft.to/lastmile_qr_scan", "android": "https://dc.lft.to/lastmile_qr_scan"}, "lat": 38.90445916666667, "lon": -77.0612875, "bike_id": "e8ad04901c60ead181694af04bda84c6", "fusion_lat": 0.0, "is_disabled": 0, "fusion_lon": 0.0}, {"name": "24e8b728622ae2ccd1011413ab3149a7", "is_reserved": 0, "type": "electric_scooter", "rental_uris": {"ios": "https://dc.lft.to/lastmile_qr_scan", "android": "https://dc.lft.to/lastmile_qr_scan"}, "lat": 38.901028833333335, "lon": -77.05916366666666, "bike_id": "24e8b728622ae2ccd1011413ab3149a7", "fusion_lat": 0.0, "is_disabled": 0, "fusion_lon": 0.0}, {"name": "b61137c4bf043e355e7e392c61578500", "is_reserved": 0, "type": "electric_scooter", "rental_uris": {"ios": "https://dc.lft.to/lastmile_qr_scan", "android": "https://dc.lft.to/lastmile_qr_scan"}, "lat": 38.88740266666667, "lon": -77.01534116666667, "bike_id": "b61137c4bf043e355e7e392c61578500", "fusion_lat": 0.0, "is_disabled": 0, "fusion_lon": 0.0}, {"name": "178c5f0f0384f65400b1f837ef5ea354", "is_reserved": 0, "type": "electric_scooter", "rental_uris": {"ios": "https://dc.lft.to/lastmile_qr_scan", "android": "https://dc.lft.to/lastmile_qr_scan"}, "lat": 38.918247666666666, "lon": -77.04518066666667, "bike_id": "178c5f0f0384f65400b1f837ef5ea354", "fusion_lat": 0.0, "is_disabled": 0, "fusion_lon": 0.0}, {"name": "8d5e37e5d1c9f4346f417cd8d77e56b9", "is_reserved": 0, "type": "electric_scooter", "rental_uris": {"ios": "https://dc.lft.to/lastmile_qr_scan", "android": "https://dc.lft.to/lastmile_qr_scan"}, "lat": 38.9204955, "lon": -77.03370433333333, "bike_id": "8d5e37e5d1c9f4346f417cd8d77e56b9", "fusion_lat": 0.0, "is_disabled": 0, "fusion_lon": 0.0}, {"name": "77f35575362427fe3a5ff421801dc3cd", "is_reserved": 0, "type": "electric_scooter", "rental_uris": {"ios": "https://dc.lft.to/lastmile_qr_scan", "android": "https://dc.lft.to/lastmile_qr_scan"}, "lat": 38.900401333333335, "lon": -77.00666183333334, "bike_id": "77f35575362427fe3a5ff421801dc3cd", "fusion_lat": 0.0, "is_disabled": 0, "fusion_lon": 0.0}, {"name": "11cd8478a6e2274c462802310860b5d6", "is_reserved": 0, "type": "electric_scooter", "rental_uris": {"ios": "https://dc.lft.to/lastmile_qr_scan", "android": "https://dc.lft.to/lastmile_qr_scan"}, "lat": 38.881439666666665, "lon": -76.944039, "bike_id": "11cd8478a6e2274c462802310860b5d6", "fusion_lat": 0.0, "is_disabled": 0, "fusion_lon": 0.0}, {"name": "b1852688bff0c071f8e4ef7db002c685", "is_reserved": 0, "type": "electric_scooter", "rental_uris": {"ios": "https://dc.lft.to/lastmile_qr_scan", "android": "https://dc.lft.to/lastmile_qr_scan"}, "lat": 38.906495, "lon": -77.05118633333333, "bike_id": "b1852688bff0c071f8e4ef7db002c685", "fusion_lat": 0.0, "is_disabled": 0, "fusion_lon": 0.0}, {"name": "f11148d363e153ea7b9bd5043e5ec90a", "is_reserved": 0, "type": "electric_scooter", "rental_uris": {"ios": "https://dc.lft.to/lastmile_qr_scan", "android": "https://dc.lft.to/lastmile_qr_scan"}, "lat": 38.92129083333333, "lon": -77.04574916666667, "bike_id": "f11148d363e153ea7b9bd5043e5ec90a", "fusion_lat": 0.0, "is_disabled": 0, "fusion_lon": 0.0}, {"name": "0c115a06c106e7be9b4f6a455cb420e7", "is_reserved": 0, "type": "electric_scooter", "rental_uris": {"ios": "https://dc.lft.to/lastmile_qr_scan", "android": "https://dc.lft.to/lastmile_qr_scan"}, "lat": 38.88321666666667, "lon": -76.9983495, "bike_id": "0c115a06c106e7be9b4f6a455cb420e7", "fusion_lat": 0.0, "is_disabled": 0, "fusion_lon": 0.0}, {"name": "a3c1382a11b72ff68388f9e00bcb62c9", "is_reserved": 0, "type": "electric_scooter", "rental_uris": {"ios": "https://dc.lft.to/lastmile_qr_scan", "android": "https://dc.lft.to/lastmile_qr_scan"}, "lat": 38.89931, "lon": -77.02702783333334, "bike_id": "a3c1382a11b72ff68388f9e00bcb62c9", "fusion_lat": 0.0, "is_disabled": 0, "fusion_lon": 0.0}, {"name": "f8f0abffe3b11fa1696a5c1b450f55e8", "is_reserved": 0, "type": "electric_scooter", "rental_uris": {"ios": "https://dc.lft.to/lastmile_qr_scan", "android": "https://dc.lft.to/lastmile_qr_scan"}, "lat": 38.906866, "lon": -77.06358266666666, "bike_id": "f8f0abffe3b11fa1696a5c1b450f55e8", "fusion_lat": 0.0, "is_disabled": 0, "fusion_lon": 0.0}, {"name": "ba2020bb11343b13b799f9a8a5476967", "is_reserved": 0, "type": "electric_scooter", "rental_uris": {"ios": "https://dc.lft.to/lastmile_qr_scan", "android": "https://dc.lft.to/lastmile_qr_scan"}, "lat": 38.90978416666667, "lon": -77.031892, "bike_id": "ba2020bb11343b13b799f9a8a5476967", "fusion_lat": 0.0, "is_disabled": 0, "fusion_lon": 0.0}, {"name": "0531a6e2207078fd15b62f320b594c8d", "is_reserved": 0, "type": "electric_scooter", "rental_uris": {"ios": "https://dc.lft.to/lastmile_qr_scan", "android": "https://dc.lft.to/lastmile_qr_scan"}, "lat": 38.887458, "lon": -76.99848616666667, "bike_id": "0531a6e2207078fd15b62f320b594c8d", "fusion_lat": 0.0, "is_disabled": 0, "fusion_lon": 0.0}, {"name": "de32f4eceba53e0ee0284fd5a43a6dac", "is_reserved": 0, "type": "electric_scooter", "rental_uris": {"ios": "https://dc.lft.to/lastmile_qr_scan", "android": "https://dc.lft.to/lastmile_qr_scan"}, "lat": 38.93408816666667, "lon": -77.0377725, "bike_id": "de32f4eceba53e0ee0284fd5a43a6dac", "fusion_lat": 0.0, "is_disabled": 0, "fusion_lon": 0.0}, {"name": "ae10ba0499fffa925a4fe9c1f0b86f87", "is_reserved": 0, "type": "electric_scooter", "rental_uris": {"ios": "https://dc.lft.to/lastmile_qr_scan", "android": "https://dc.lft.to/lastmile_qr_scan"}, "lat": 38.92619, "lon": -77.04198216666667, "bike_id": "ae10ba0499fffa925a4fe9c1f0b86f87", "fusion_lat": 0.0, "is_disabled": 0, "fusion_lon": 0.0}, {"name": "f2faf4d66b02959c2ca715aa3894e717", "is_reserved": 0, "type": "electric_scooter", "rental_uris": {"ios": "https://dc.lft.to/lastmile_qr_scan", "android": "https://dc.lft.to/lastmile_qr_scan"}, "lat": 38.90175033333333, "lon": -76.978167, "bike_id": "f2faf4d66b02959c2ca715aa3894e717", "fusion_lat": 0.0, "is_disabled": 0, "fusion_lon": 0.0}, {"name": "db5da0536deb3d15781a183a2a421194", "is_reserved": 0, "type": "electric_scooter", "rental_uris": {"ios": "https://dc.lft.to/lastmile_qr_scan", "android": "https://dc.lft.to/lastmile_qr_scan"}, "lat": 38.90241666666667, "lon": -77.05423116666667, "bike_id": "db5da0536deb3d15781a183a2a421194", "fusion_lat": 0.0, "is_disabled": 0, "fusion_lon": 0.0}, {"name": "f3650be77ae420364bfe53a6bc25ce58", "is_reserved": 0, "type": "electric_scooter", "rental_uris": {"ios": "https://dc.lft.to/lastmile_qr_scan", "android": "https://dc.lft.to/lastmile_qr_scan"}, "lat": 38.88339883333333, "lon": -76.99373366666667, "bike_id": "f3650be77ae420364bfe53a6bc25ce58", "fusion_lat": 0.0, "is_disabled": 0, "fusion_lon": 0.0}, {"name": "d5e83a0a2332d2197e7ca6d9d0d25a40", "is_reserved": 0, "type": "electric_bike", "rental_uris": {"ios": "https://dc.lft.to/lastmile_qr_scan", "android": "https://dc.lft.to/lastmile_qr_scan"}, "lat": 38.88136983333333, "lon": -76.98089916666666, "bike_id": "d5e83a0a2332d2197e7ca6d9d0d25a40", "fusion_lat": 0.0, "is_disabled": 0, "fusion_lon": 0.0}, {"name": "cfd72a6653a518259a5585e366343dd8", "is_reserved": 0, "type": "electric_scooter", "rental_uris": {"ios": "https://dc.lft.to/lastmile_qr_scan", "android": "https://dc.lft.to/lastmile_qr_scan"}, "lat": 38.8924775, "lon": -76.98837566666667, "bike_id": "cfd72a6653a518259a5585e366343dd8", "fusion_lat": 0.0, "is_disabled": 0, "fusion_lon": 0.0}, {"name": "894217c54a886f2269dabe14558afbdd", "is_reserved": 0, "type": "electric_scooter", "rental_uris": {"ios": "https://dc.lft.to/lastmile_qr_scan", "android": "https://dc.lft.to/lastmile_qr_scan"}, "lat": 38.899147666666664, "lon": -76.9336575, "bike_id": "894217c54a886f2269dabe14558afbdd", "fusion_lat": 0.0, "is_disabled": 0, "fusion_lon": 0.0}, {"name": "6d349242ec9a4033097953ceda5a51be", "is_reserved": 0, "type": "electric_scooter", "rental_uris": {"ios": "https://dc.lft.to/lastmile_qr_scan", "android": "https://dc.lft.to/lastmile_qr_scan"}, "lat": 38.91710666666667, "lon": -77.03197216666666, "bike_id": "6d349242ec9a4033097953ceda5a51be", "fusion_lat": 0.0, "is_disabled": 0, "fusion_lon": 0.0}, {"name": "79e59d1dd76dece97bcfe4bf972d762a", "is_reserved": 0, "type": "electric_scooter", "rental_uris": {"ios": "https://dc.lft.to/lastmile_qr_scan", "android": "https://dc.lft.to/lastmile_qr_scan"}, "lat": 38.8984695, "lon": -76.94632833333333, "bike_id": "79e59d1dd76dece97bcfe4bf972d762a", "fusion_lat": 0.0, "is_disabled": 0, "fusion_lon": 0.0}, {"name": "7675d12cb25ec10fca00767811f167f8", "is_reserved": 0, "type": "electric_scooter", "rental_uris": {"ios": "https://dc.lft.to/lastmile_qr_scan", "android": "https://dc.lft.to/lastmile_qr_scan"}, "lat": 38.90808916666667, "lon": -77.03671083333333, "bike_id": "7675d12cb25ec10fca00767811f167f8", "fusion_lat": 0.0, "is_disabled": 0, "fusion_lon": 0.0}, {"name": "ce62260aca9ceb813107c597eed51f9f", "is_reserved": 0, "type": "electric_scooter", "rental_uris": {"ios": "https://dc.lft.to/lastmile_qr_scan", "android": "https://dc.lft.to/lastmile_qr_scan"}, "lat": 38.8940925, "lon": -76.91167233333333, "bike_id": "ce62260aca9ceb813107c597eed51f9f", "fusion_lat": 0.0, "is_disabled": 0, "fusion_lon": 0.0}, {"name": "d8a78c3605f99a44c0199860e9a557ea", "is_reserved": 0, "type": "electric_scooter", "rental_uris": {"ios": "https://dc.lft.to/lastmile_qr_scan", "android": "https://dc.lft.to/lastmile_qr_scan"}, "lat": 38.903325833333334, "lon": -77.031753, "bike_id": "d8a78c3605f99a44c0199860e9a557ea", "fusion_lat": 0.0, "is_disabled": 0, "fusion_lon": 0.0}, {"name": "c9b2218868111d3448e618545a6f1123", "is_reserved": 0, "type": "electric_scooter", "rental_uris": {"ios": "https://dc.lft.to/lastmile_qr_scan", "android": "https://dc.lft.to/lastmile_qr_scan"}, "lat": 38.9227185, "lon": -77.02186633333334, "bike_id": "c9b2218868111d3448e618545a6f1123", "fusion_lat": 0.0, "is_disabled": 0, "fusion_lon": 0.0}, {"name": "deb4bee6e7f685e00e93632752ef6fdb", "is_reserved": 0, "type": "electric_scooter", "rental_uris": {"ios": "https://dc.lft.to/lastmile_qr_scan", "android": "https://dc.lft.to/lastmile_qr_scan"}, "lat": 38.921567, "lon": -77.03319433333333, "bike_id": "deb4bee6e7f685e00e93632752ef6fdb", "fusion_lat": 0.0, "is_disabled": 0, "fusion_lon": 0.0}, {"name": "4f7dd1a09297198cbfdba33a1c825837", "is_reserved": 0, "type": "electric_scooter", "rental_uris": {"ios": "https://dc.lft.to/lastmile_qr_scan", "android": "https://dc.lft.to/lastmile_qr_scan"}, "lat": 38.936752166666665, "lon": -77.03284983333333, "bike_id": "4f7dd1a09297198cbfdba33a1c825837", "fusion_lat": 0.0, "is_disabled": 0, "fusion_lon": 0.0}, {"name": "67dea042d32422669c397921502c726b", "is_reserved": 0, "type": "electric_scooter", "rental_uris": {"ios": "https://dc.lft.to/lastmile_qr_scan", "android": "https://dc.lft.to/lastmile_qr_scan"}, "lat": 38.92829533333333, "lon": -77.05438916666667, "bike_id": "67dea042d32422669c397921502c726b", "fusion_lat": 0.0, "is_disabled": 0, "fusion_lon": 0.0}, {"name": "3c46699e9aeea1a397b53841be390c03", "is_reserved": 0, "type": "electric_scooter", "rental_uris": {"ios": "https://dc.lft.to/lastmile_qr_scan", "android": "https://dc.lft.to/lastmile_qr_scan"}, "lat": 38.9076905, "lon": -77.0632865, "bike_id": "3c46699e9aeea1a397b53841be390c03", "fusion_lat": 0.0, "is_disabled": 0, "fusion_lon": 0.0}, {"name": "1983b566f37e7b6d25a94cf90092b499", "is_reserved": 0, "type": "electric_scooter", "rental_uris": {"ios": "https://dc.lft.to/lastmile_qr_scan", "android": "https://dc.lft.to/lastmile_qr_scan"}, "lat": 38.914124, "lon": -77.018189, "bike_id": "1983b566f37e7b6d25a94cf90092b499", "fusion_lat": 0.0, "is_disabled": 0, "fusion_lon": 0.0}, {"name": "7a03bf36173f90273b2217e65a4367da", "is_reserved": 0, "type": "electric_scooter", "rental_uris": {"ios": "https://dc.lft.to/lastmile_qr_scan", "android": "https://dc.lft.to/lastmile_qr_scan"}, "lat": 38.9001825, "lon": -77.01163816666667, "bike_id": "7a03bf36173f90273b2217e65a4367da", "fusion_lat": 0.0, "is_disabled": 0, "fusion_lon": 0.0}, {"name": "45663f8ce917231ed3daba772443afdf", "is_reserved": 0, "type": "electric_scooter", "rental_uris": {"ios": "https://dc.lft.to/lastmile_qr_scan", "android": "https://dc.lft.to/lastmile_qr_scan"}, "lat": 38.901073333333336, "lon": -77.02403983333333, "bike_id": "45663f8ce917231ed3daba772443afdf", "fusion_lat": 0.0, "is_disabled": 0, "fusion_lon": 0.0}, {"name": "60119c2d57980883c6c3d9da0cea2f75", "is_reserved": 0, "type": "electric_scooter", "rental_uris": {"ios": "https://dc.lft.to/lastmile_qr_scan", "android": "https://dc.lft.to/lastmile_qr_scan"}, "lat": 38.9235275, "lon": -77.05343683333334, "bike_id": "60119c2d57980883c6c3d9da0cea2f75", "fusion_lat": 0.0, "is_disabled": 0, "fusion_lon": 0.0}, {"name": "a645247ae2cb8eb273d26d624fa9df36", "is_reserved": 0, "type": "electric_scooter", "rental_uris": {"ios": "https://dc.lft.to/lastmile_qr_scan", "android": "https://dc.lft.to/lastmile_qr_scan"}, "lat": 38.923228333333334, "lon": -77.02149833333333, "bike_id": "a645247ae2cb8eb273d26d624fa9df36", "fusion_lat": 0.0, "is_disabled": 0, "fusion_lon": 0.0}, {"name": "3c87a619b56137af0dcd246d7f72708b", "is_reserved": 0, "type": "electric_scooter", "rental_uris": {"ios": "https://dc.lft.to/lastmile_qr_scan", "android": "https://dc.lft.to/lastmile_qr_scan"}, "lat": 38.935830333333335, "lon": -77.02745833333333, "bike_id": "3c87a619b56137af0dcd246d7f72708b", "fusion_lat": 0.0, "is_disabled": 0, "fusion_lon": 0.0}, {"name": "03402e2b4fcde9654cc881f4584c7ee2", "is_reserved": 0, "type": "electric_scooter", "rental_uris": {"ios": "https://dc.lft.to/lastmile_qr_scan", "android": "https://dc.lft.to/lastmile_qr_scan"}, "lat": 38.9039675, "lon": -77.06300033333333, "bike_id": "03402e2b4fcde9654cc881f4584c7ee2", "fusion_lat": 0.0, "is_disabled": 0, "fusion_lon": 0.0}, {"name": "580e305b6b17b90391eb34a2de9b105b", "is_reserved": 0, "type": "electric_scooter", "rental_uris": {"ios": "https://dc.lft.to/lastmile_qr_scan", "android": "https://dc.lft.to/lastmile_qr_scan"}, "lat": 38.9028225, "lon": -76.98195983333333, "bike_id": "580e305b6b17b90391eb34a2de9b105b", "fusion_lat": 0.0, "is_disabled": 0, "fusion_lon": 0.0}, {"name": "de25693dcfddd45438bbdf8b4418ab9b", "is_reserved": 0, "type": "electric_scooter", "rental_uris": {"ios": "https://dc.lft.to/lastmile_qr_scan", "android": "https://dc.lft.to/lastmile_qr_scan"}, "lat": 38.8973065, "lon": -77.0217025, "bike_id": "de25693dcfddd45438bbdf8b4418ab9b", "fusion_lat": 0.0, "is_disabled": 0, "fusion_lon": 0.0}, {"name": "1b470c2f82084ddf756cfed853380142", "is_reserved": 0, "type": "electric_scooter", "rental_uris": {"ios": "https://dc.lft.to/lastmile_qr_scan", "android": "https://dc.lft.to/lastmile_qr_scan"}, "lat": 38.95427266666667, "lon": -77.02763633333333, "bike_id": "1b470c2f82084ddf756cfed853380142", "fusion_lat": 0.0, "is_disabled": 0, "fusion_lon": 0.0}, {"name": "548315620077734e76bba0867aad5c28", "is_reserved": 0, "type": "electric_scooter", "rental_uris": {"ios": "https://dc.lft.to/lastmile_qr_scan", "android": "https://dc.lft.to/lastmile_qr_scan"}, "lat": 38.86256366666667, "lon": -76.98698216666666, "bike_id": "548315620077734e76bba0867aad5c28", "fusion_lat": 0.0, "is_disabled": 0, "fusion_lon": 0.0}, {"name": "acb61be7a8a52224c37c276d81845d5c", "is_reserved": 0, "type": "electric_scooter", "rental_uris": {"ios": "https://dc.lft.to/lastmile_qr_scan", "android": "https://dc.lft.to/lastmile_qr_scan"}, "lat": 38.916860666666665, "lon": -77.02959816666667, "bike_id": "acb61be7a8a52224c37c276d81845d5c", "fusion_lat": 0.0, "is_disabled": 0, "fusion_lon": 0.0}, {"name": "38dece814da255cb64950538fa6e8234", "is_reserved": 0, "type": "electric_scooter", "rental_uris": {"ios": "https://dc.lft.to/lastmile_qr_scan", "android": "https://dc.lft.to/lastmile_qr_scan"}, "lat": 38.915551, "lon": -77.03173466666667, "bike_id": "38dece814da255cb64950538fa6e8234", "fusion_lat": 0.0, "is_disabled": 0, "fusion_lon": 0.0}, {"name": "ea3300f394b19d814e0b5d95e17fe3e7", "is_reserved": 0, "type": "electric_scooter", "rental_uris": {"ios": "https://dc.lft.to/lastmile_qr_scan", "android": "https://dc.lft.to/lastmile_qr_scan"}, "lat": 38.92461733333333, "lon": -76.9990745, "bike_id": "ea3300f394b19d814e0b5d95e17fe3e7", "fusion_lat": 0.0, "is_disabled": 0, "fusion_lon": 0.0}, {"name": "12e1c34df776ec0e88751ed767257a1d", "is_reserved": 0, "type": "electric_scooter", "rental_uris": {"ios": "https://dc.lft.to/lastmile_qr_scan", "android": "https://dc.lft.to/lastmile_qr_scan"}, "lat": 38.903771166666665, "lon": -77.05135933333334, "bike_id": "12e1c34df776ec0e88751ed767257a1d", "fusion_lat": 0.0, "is_disabled": 0, "fusion_lon": 0.0}, {"name": "59661975392de283375df9e011412e9d", "is_reserved": 0, "type": "electric_scooter", "rental_uris": {"ios": "https://dc.lft.to/lastmile_qr_scan", "android": "https://dc.lft.to/lastmile_qr_scan"}, "lat": 38.8811085, "lon": -77.04295866666666, "bike_id": "59661975392de283375df9e011412e9d", "fusion_lat": 0.0, "is_disabled": 0, "fusion_lon": 0.0}, {"name": "af27b42f5b629eb1ee7987aa06c09e8b", "is_reserved": 0, "type": "electric_scooter", "rental_uris": {"ios": "https://dc.lft.to/lastmile_qr_scan", "android": "https://dc.lft.to/lastmile_qr_scan"}, "lat": 38.936562, "lon": -77.05503383333334, "bike_id": "af27b42f5b629eb1ee7987aa06c09e8b", "fusion_lat": 0.0, "is_disabled": 0, "fusion_lon": 0.0}, {"name": "a71ba035fa7b6caf50eafaef0fb798a2", "is_reserved": 0, "type": "electric_bike", "rental_uris": {"ios": "https://dc.lft.to/lastmile_qr_scan", "android": "https://dc.lft.to/lastmile_qr_scan"}, "lat": 38.86168833333333, "lon": -77.13147866666667, "bike_id": "a71ba035fa7b6caf50eafaef0fb798a2", "fusion_lat": 0.0, "is_disabled": 0, "fusion_lon": 0.0}, {"name": "4dc66dbcc5008410f19700485f338d6e", "is_reserved": 0, "type": "electric_scooter", "rental_uris": {"ios": "https://dc.lft.to/lastmile_qr_scan", "android": "https://dc.lft.to/lastmile_qr_scan"}, "lat": 38.90327883333333, "lon": -77.0517135, "bike_id": "4dc66dbcc5008410f19700485f338d6e", "fusion_lat": 0.0, "is_disabled": 0, "fusion_lon": 0.0}, {"name": "c642a1523d038e422251de58c2d403ce", "is_reserved": 0, "type": "electric_scooter", "rental_uris": {"ios": "https://dc.lft.to/lastmile_qr_scan", "android": "https://dc.lft.to/lastmile_qr_scan"}, "lat": 38.9291035, "lon": -77.07410316666666, "bike_id": "c642a1523d038e422251de58c2d403ce", "fusion_lat": 0.0, "is_disabled": 0, "fusion_lon": 0.0}, {"name": "8c28070d1de1ec9f9b3d8e286e1197f5", "is_reserved": 0, "type": "electric_scooter", "rental_uris": {"ios": "https://dc.lft.to/lastmile_qr_scan", "android": "https://dc.lft.to/lastmile_qr_scan"}, "lat": 38.935874166666665, "lon": -77.02436416666667, "bike_id": "8c28070d1de1ec9f9b3d8e286e1197f5", "fusion_lat": 0.0, "is_disabled": 0, "fusion_lon": 0.0}, {"name": "2dc184c07baea5e9f5fd8d9b78b3a2d0", "is_reserved": 0, "type": "electric_bike", "rental_uris": {"ios": "https://dc.lft.to/lastmile_qr_scan", "android": "https://dc.lft.to/lastmile_qr_scan"}, "lat": 38.9178705, "lon": -76.97190283333333, "bike_id": "2dc184c07baea5e9f5fd8d9b78b3a2d0", "fusion_lat": 0.0, "is_disabled": 0, "fusion_lon": 0.0}, {"name": "64aee36785227683a1714b5b4bb062a2", "is_reserved": 0, "type": "electric_scooter", "rental_uris": {"ios": "https://dc.lft.to/lastmile_qr_scan", "android": "https://dc.lft.to/lastmile_qr_scan"}, "lat": 38.90402316666667, "lon": -77.05126066666666, "bike_id": "64aee36785227683a1714b5b4bb062a2", "fusion_lat": 0.0, "is_disabled": 0, "fusion_lon": 0.0}, {"name": "d474b2918a3a5e941b9caceed70f5635", "is_reserved": 0, "type": "electric_scooter", "rental_uris": {"ios": "https://dc.lft.to/lastmile_qr_scan", "android": "https://dc.lft.to/lastmile_qr_scan"}, "lat": 38.9255685, "lon": -77.0330135, "bike_id": "d474b2918a3a5e941b9caceed70f5635", "fusion_lat": 0.0, "is_disabled": 0, "fusion_lon": 0.0}, {"name": "0577a73cdcb85316211f518bc39e4bf5", "is_reserved": 0, "type": "electric_scooter", "rental_uris": {"ios": "https://dc.lft.to/lastmile_qr_scan", "android": "https://dc.lft.to/lastmile_qr_scan"}, "lat": 38.9308225, "lon": -77.02567183333333, "bike_id": "0577a73cdcb85316211f518bc39e4bf5", "fusion_lat": 0.0, "is_disabled": 0, "fusion_lon": 0.0}, {"name": "fac3f0ff81956c929ee0f6cdf92ef560", "is_reserved": 0, "type": "electric_scooter", "rental_uris": {"ios": "https://dc.lft.to/lastmile_qr_scan", "android": "https://dc.lft.to/lastmile_qr_scan"}, "lat": 38.876825833333335, "lon": -77.01760533333334, "bike_id": "fac3f0ff81956c929ee0f6cdf92ef560", "fusion_lat": 0.0, "is_disabled": 0, "fusion_lon": 0.0}, {"name": "51b4a4c36533accf21cda8db208f505e", "is_reserved": 0, "type": "electric_scooter", "rental_uris": {"ios": "https://dc.lft.to/lastmile_qr_scan", "android": "https://dc.lft.to/lastmile_qr_scan"}, "lat": 38.901877666666664, "lon": -76.97941433333334, "bike_id": "51b4a4c36533accf21cda8db208f505e", "fusion_lat": 0.0, "is_disabled": 0, "fusion_lon": 0.0}, {"name": "2c3561225e6d653abd2aec6db6eeb9b9", "is_reserved": 0, "type": "electric_scooter", "rental_uris": {"ios": "https://dc.lft.to/lastmile_qr_scan", "android": "https://dc.lft.to/lastmile_qr_scan"}, "lat": 38.900303, "lon": -76.99448483333333, "bike_id": "2c3561225e6d653abd2aec6db6eeb9b9", "fusion_lat": 0.0, "is_disabled": 0, "fusion_lon": 0.0}, {"name": "270545c768213e205ffe194d09c024ca", "is_reserved": 0, "type": "electric_scooter", "rental_uris": {"ios": "https://dc.lft.to/lastmile_qr_scan", "android": "https://dc.lft.to/lastmile_qr_scan"}, "lat": 38.907656333333335, "lon": -77.05956433333333, "bike_id": "270545c768213e205ffe194d09c024ca", "fusion_lat": 0.0, "is_disabled": 0, "fusion_lon": 0.0}, {"name": "c3d785e911f9e62bee9d463d23773713", "is_reserved": 0, "type": "electric_scooter", "rental_uris": {"ios": "https://dc.lft.to/lastmile_qr_scan", "android": "https://dc.lft.to/lastmile_qr_scan"}, "lat": 38.909755, "lon": -77.02158933333334, "bike_id": "c3d785e911f9e62bee9d463d23773713", "fusion_lat": 0.0, "is_disabled": 0, "fusion_lon": 0.0}, {"name": "7663c1751e4ad09acc5114aff64d9954", "is_reserved": 0, "type": "electric_scooter", "rental_uris": {"ios": "https://dc.lft.to/lastmile_qr_scan", "android": "https://dc.lft.to/lastmile_qr_scan"}, "lat": 38.9187535, "lon": -77.04478316666666, "bike_id": "7663c1751e4ad09acc5114aff64d9954", "fusion_lat": 0.0, "is_disabled": 0, "fusion_lon": 0.0}, {"name": "4de73df8846678d2d2a3e0389eb12831", "is_reserved": 0, "type": "electric_scooter", "rental_uris": {"ios": "https://dc.lft.to/lastmile_qr_scan", "android": "https://dc.lft.to/lastmile_qr_scan"}, "lat": 38.893853166666666, "lon": -77.02806916666667, "bike_id": "4de73df8846678d2d2a3e0389eb12831", "fusion_lat": 0.0, "is_disabled": 0, "fusion_lon": 0.0}, {"name": "c8e842c5c230fce27d8c28e90af18856", "is_reserved": 0, "type": "electric_scooter", "rental_uris": {"ios": "https://dc.lft.to/lastmile_qr_scan", "android": "https://dc.lft.to/lastmile_qr_scan"}, "lat": 38.896839166666666, "lon": -76.93611333333334, "bike_id": "c8e842c5c230fce27d8c28e90af18856", "fusion_lat": 0.0, "is_disabled": 0, "fusion_lon": 0.0}, {"name": "5aec9d5278cc62c9a0442315c96503c5", "is_reserved": 0, "type": "electric_scooter", "rental_uris": {"ios": "https://dc.lft.to/lastmile_qr_scan", "android": "https://dc.lft.to/lastmile_qr_scan"}, "lat": 38.896878, "lon": -77.0050555, "bike_id": "5aec9d5278cc62c9a0442315c96503c5", "fusion_lat": 0.0, "is_disabled": 0, "fusion_lon": 0.0}, {"name": "ebb36c15fdd4b49eeb7363a0821516e9", "is_reserved": 0, "type": "electric_scooter", "rental_uris": {"ios": "https://dc.lft.to/lastmile_qr_scan", "android": "https://dc.lft.to/lastmile_qr_scan"}, "lat": 38.900502333333336, "lon": -77.0021635, "bike_id": "ebb36c15fdd4b49eeb7363a0821516e9", "fusion_lat": 0.0, "is_disabled": 0, "fusion_lon": 0.0}, {"name": "11131fc5f3fcada1766b155fa0281dcc", "is_reserved": 0, "type": "electric_bike", "rental_uris": {"ios": "https://dc.lft.to/lastmile_qr_scan", "android": "https://dc.lft.to/lastmile_qr_scan"}, "lat": 38.8550695, "lon": -77.120614, "bike_id": "11131fc5f3fcada1766b155fa0281dcc", "fusion_lat": 0.0, "is_disabled": 0, "fusion_lon": 0.0}, {"name": "e26fc962a52f7d62a6205ac3b7e883a3", "is_reserved": 0, "type": "electric_scooter", "rental_uris": {"ios": "https://dc.lft.to/lastmile_qr_scan", "android": "https://dc.lft.to/lastmile_qr_scan"}, "lat": 38.8967035, "lon": -77.03349883333334, "bike_id": "e26fc962a52f7d62a6205ac3b7e883a3", "fusion_lat": 0.0, "is_disabled": 0, "fusion_lon": 0.0}, {"name": "ad010981d64cde02f6c6af5a9dee95df", "is_reserved": 0, "type": "electric_scooter", "rental_uris": {"ios": "https://dc.lft.to/lastmile_qr_scan", "android": "https://dc.lft.to/lastmile_qr_scan"}, "lat": 38.9173105, "lon": -77.02297616666667, "bike_id": "ad010981d64cde02f6c6af5a9dee95df", "fusion_lat": 0.0, "is_disabled": 0, "fusion_lon": 0.0}, {"name": "d543bb5b60bac292c555587878d69fc8", "is_reserved": 0, "type": "electric_scooter", "rental_uris": {"ios": "https://dc.lft.to/lastmile_qr_scan", "android": "https://dc.lft.to/lastmile_qr_scan"}, "lat": 38.919523833333336, "lon": -77.07983616666667, "bike_id": "d543bb5b60bac292c555587878d69fc8", "fusion_lat": 0.0, "is_disabled": 0, "fusion_lon": 0.0}, {"name": "c17dfe7049c613a6d3a2174bd3f6a16b", "is_reserved": 0, "type": "electric_scooter", "rental_uris": {"ios": "https://dc.lft.to/lastmile_qr_scan", "android": "https://dc.lft.to/lastmile_qr_scan"}, "lat": 38.856925, "lon": -76.99601783333334, "bike_id": "c17dfe7049c613a6d3a2174bd3f6a16b", "fusion_lat": 0.0, "is_disabled": 0, "fusion_lon": 0.0}, {"name": "97e9382a8ec1d55cb458be15bff22bf4", "is_reserved": 0, "type": "electric_scooter", "rental_uris": {"ios": "https://dc.lft.to/lastmile_qr_scan", "android": "https://dc.lft.to/lastmile_qr_scan"}, "lat": 38.8965435, "lon": -77.009186, "bike_id": "97e9382a8ec1d55cb458be15bff22bf4", "fusion_lat": 0.0, "is_disabled": 0, "fusion_lon": 0.0}, {"name": "79fe810ddf1be73fd2a22b6194f0188e", "is_reserved": 0, "type": "electric_scooter", "rental_uris": {"ios": "https://dc.lft.to/lastmile_qr_scan", "android": "https://dc.lft.to/lastmile_qr_scan"}, "lat": 38.9181135, "lon": -77.01367283333333, "bike_id": "79fe810ddf1be73fd2a22b6194f0188e", "fusion_lat": 0.0, "is_disabled": 0, "fusion_lon": 0.0}, {"name": "0d52c37a24db4f8bf5e5bba4b5093bb9", "is_reserved": 0, "type": "electric_scooter", "rental_uris": {"ios": "https://dc.lft.to/lastmile_qr_scan", "android": "https://dc.lft.to/lastmile_qr_scan"}, "lat": 38.890797166666665, "lon": -76.98823566666667, "bike_id": "0d52c37a24db4f8bf5e5bba4b5093bb9", "fusion_lat": 0.0, "is_disabled": 0, "fusion_lon": 0.0}, {"name": "efddcc15aa4fcddbda56d4173c70cb4b", "is_reserved": 0, "type": "electric_scooter", "rental_uris": {"ios": "https://dc.lft.to/lastmile_qr_scan", "android": "https://dc.lft.to/lastmile_qr_scan"}, "lat": 38.9170835, "lon": -77.02462733333333, "bike_id": "efddcc15aa4fcddbda56d4173c70cb4b", "fusion_lat": 0.0, "is_disabled": 0, "fusion_lon": 0.0}, {"name": "617ebff56d0a5030bc3c56478a7109c4", "is_reserved": 0, "type": "electric_scooter", "rental_uris": {"ios": "https://dc.lft.to/lastmile_qr_scan", "android": "https://dc.lft.to/lastmile_qr_scan"}, "lat": 38.930978, "lon": -77.03813533333333, "bike_id": "617ebff56d0a5030bc3c56478a7109c4", "fusion_lat": 0.0, "is_disabled": 0, "fusion_lon": 0.0}, {"name": "bd1959b74f146791f39a3f6c09525169", "is_reserved": 0, "type": "electric_scooter", "rental_uris": {"ios": "https://dc.lft.to/lastmile_qr_scan", "android": "https://dc.lft.to/lastmile_qr_scan"}, "lat": 38.94804216666667, "lon": -77.0788965, "bike_id": "bd1959b74f146791f39a3f6c09525169", "fusion_lat": 0.0, "is_disabled": 0, "fusion_lon": 0.0}, {"name": "e0e33060bf8c5efaba43d63816fe4423", "is_reserved": 0, "type": "electric_scooter", "rental_uris": {"ios": "https://dc.lft.to/lastmile_qr_scan", "android": "https://dc.lft.to/lastmile_qr_scan"}, "lat": 38.90778316666667, "lon": -77.00135683333333, "bike_id": "e0e33060bf8c5efaba43d63816fe4423", "fusion_lat": 0.0, "is_disabled": 0, "fusion_lon": 0.0}, {"name": "322330196e5bda5fb4542e7d4b00dd8e", "is_reserved": 0, "type": "electric_scooter", "rental_uris": {"ios": "https://dc.lft.to/lastmile_qr_scan", "android": "https://dc.lft.to/lastmile_qr_scan"}, "lat": 38.92272633333333, "lon": -77.01984766666666, "bike_id": "322330196e5bda5fb4542e7d4b00dd8e", "fusion_lat": 0.0, "is_disabled": 0, "fusion_lon": 0.0}, {"name": "8f6384176e88cfd2edf46262e2f9c46a", "is_reserved": 0, "type": "electric_scooter", "rental_uris": {"ios": "https://dc.lft.to/lastmile_qr_scan", "android": "https://dc.lft.to/lastmile_qr_scan"}, "lat": 38.88708033333333, "lon": -77.01366666666667, "bike_id": "8f6384176e88cfd2edf46262e2f9c46a", "fusion_lat": 0.0, "is_disabled": 0, "fusion_lon": 0.0}, {"name": "188fa0def8c304791cbb0c678aad5b70", "is_reserved": 0, "type": "electric_bike", "rental_uris": {"ios": "https://dc.lft.to/lastmile_qr_scan", "android": "https://dc.lft.to/lastmile_qr_scan"}, "lat": 39.03670183333333, "lon": -77.0511115, "bike_id": "188fa0def8c304791cbb0c678aad5b70", "fusion_lat": 0.0, "is_disabled": 0, "fusion_lon": 0.0}, {"name": "1b1f824df0148fc577773e66c9bd06d3", "is_reserved": 0, "type": "electric_scooter", "rental_uris": {"ios": "https://dc.lft.to/lastmile_qr_scan", "android": "https://dc.lft.to/lastmile_qr_scan"}, "lat": 38.9072255, "lon": -76.99818066666667, "bike_id": "1b1f824df0148fc577773e66c9bd06d3", "fusion_lat": 0.0, "is_disabled": 0, "fusion_lon": 0.0}, {"name": "ca3033dc8e8e5ef19a38ad30923cccd7", "is_reserved": 0, "type": "electric_scooter", "rental_uris": {"ios": "https://dc.lft.to/lastmile_qr_scan", "android": "https://dc.lft.to/lastmile_qr_scan"}, "lat": 38.8922555, "lon": -77.03991183333333, "bike_id": "ca3033dc8e8e5ef19a38ad30923cccd7", "fusion_lat": 0.0, "is_disabled": 0, "fusion_lon": 0.0}, {"name": "bd5dbf05767332b7e63a99d4cb6ee826", "is_reserved": 0, "type": "electric_scooter", "rental_uris": {"ios": "https://dc.lft.to/lastmile_qr_scan", "android": "https://dc.lft.to/lastmile_qr_scan"}, "lat": 38.884949666666664, "lon": -77.00729633333333, "bike_id": "bd5dbf05767332b7e63a99d4cb6ee826", "fusion_lat": 0.0, "is_disabled": 0, "fusion_lon": 0.0}, {"name": "19e4b2e604a2f9a474575dd824a004bc", "is_reserved": 0, "type": "electric_scooter", "rental_uris": {"ios": "https://dc.lft.to/lastmile_qr_scan", "android": "https://dc.lft.to/lastmile_qr_scan"}, "lat": 38.86359016666667, "lon": -76.99069033333333, "bike_id": "19e4b2e604a2f9a474575dd824a004bc", "fusion_lat": 0.0, "is_disabled": 0, "fusion_lon": 0.0}, {"name": "55a71f14a7b5dbf72d5f703b8993b1c2", "is_reserved": 0, "type": "electric_scooter", "rental_uris": {"ios": "https://dc.lft.to/lastmile_qr_scan", "android": "https://dc.lft.to/lastmile_qr_scan"}, "lat": 38.914174833333334, "lon": -77.02979766666667, "bike_id": "55a71f14a7b5dbf72d5f703b8993b1c2", "fusion_lat": 0.0, "is_disabled": 0, "fusion_lon": 0.0}, {"name": "3423ee06f9447efeaaffe89ba0dd6521", "is_reserved": 0, "type": "electric_scooter", "rental_uris": {"ios": "https://dc.lft.to/lastmile_qr_scan", "android": "https://dc.lft.to/lastmile_qr_scan"}, "lat": 38.917403166666666, "lon": -77.02391816666666, "bike_id": "3423ee06f9447efeaaffe89ba0dd6521", "fusion_lat": 0.0, "is_disabled": 0, "fusion_lon": 0.0}, {"name": "f0875b7eb2f8b2276793314de06b1d8b", "is_reserved": 0, "type": "electric_scooter", "rental_uris": {"ios": "https://dc.lft.to/lastmile_qr_scan", "android": "https://dc.lft.to/lastmile_qr_scan"}, "lat": 38.9321415, "lon": -77.03090516666667, "bike_id": "f0875b7eb2f8b2276793314de06b1d8b", "fusion_lat": 0.0, "is_disabled": 0, "fusion_lon": 0.0}, {"name": "bb4bfae1bc6da4865b59c69bee2850b2", "is_reserved": 0, "type": "electric_scooter", "rental_uris": {"ios": "https://dc.lft.to/lastmile_qr_scan", "android": "https://dc.lft.to/lastmile_qr_scan"}, "lat": 38.92115783333333, "lon": -77.04433783333333, "bike_id": "bb4bfae1bc6da4865b59c69bee2850b2", "fusion_lat": 0.0, "is_disabled": 0, "fusion_lon": 0.0}, {"name": "d2656290a631eb6207b8425ea592fdbb", "is_reserved": 0, "type": "electric_scooter", "rental_uris": {"ios": "https://dc.lft.to/lastmile_qr_scan", "android": "https://dc.lft.to/lastmile_qr_scan"}, "lat": 38.9178575, "lon": -77.03198316666666, "bike_id": "d2656290a631eb6207b8425ea592fdbb", "fusion_lat": 0.0, "is_disabled": 0, "fusion_lon": 0.0}, {"name": "d789d45b63c6f44785971de60d2b0862", "is_reserved": 0, "type": "electric_scooter", "rental_uris": {"ios": "https://dc.lft.to/lastmile_qr_scan", "android": "https://dc.lft.to/lastmile_qr_scan"}, "lat": 38.921558833333336, "lon": -77.038708, "bike_id": "d789d45b63c6f44785971de60d2b0862", "fusion_lat": 0.0, "is_disabled": 0, "fusion_lon": 0.0}, {"name": "0deb5b20bafb0630636f8519c552d308", "is_reserved": 0, "type": "electric_scooter", "rental_uris": {"ios": "https://dc.lft.to/lastmile_qr_scan", "android": "https://dc.lft.to/lastmile_qr_scan"}, "lat": 38.877139666666665, "lon": -76.96373133333333, "bike_id": "0deb5b20bafb0630636f8519c552d308", "fusion_lat": 0.0, "is_disabled": 0, "fusion_lon": 0.0}, {"name": "b6ca48805ada0a936c86e4bbf26337b9", "is_reserved": 0, "type": "electric_scooter", "rental_uris": {"ios": "https://dc.lft.to/lastmile_qr_scan", "android": "https://dc.lft.to/lastmile_qr_scan"}, "lat": 38.92862483333333, "lon": -77.02954016666666, "bike_id": "b6ca48805ada0a936c86e4bbf26337b9", "fusion_lat": 0.0, "is_disabled": 0, "fusion_lon": 0.0}, {"name": "7c9421cf3cf8f17b11c7bd8d20594c80", "is_reserved": 0, "type": "electric_scooter", "rental_uris": {"ios": "https://dc.lft.to/lastmile_qr_scan", "android": "https://dc.lft.to/lastmile_qr_scan"}, "lat": 38.91839233333334, "lon": -77.012092, "bike_id": "7c9421cf3cf8f17b11c7bd8d20594c80", "fusion_lat": 0.0, "is_disabled": 0, "fusion_lon": 0.0}, {"name": "2cc74f0044b8dcd118babedf359acfee", "is_reserved": 0, "type": "electric_scooter", "rental_uris": {"ios": "https://dc.lft.to/lastmile_qr_scan", "android": "https://dc.lft.to/lastmile_qr_scan"}, "lat": 38.9197375, "lon": -77.01222916666667, "bike_id": "2cc74f0044b8dcd118babedf359acfee", "fusion_lat": 0.0, "is_disabled": 0, "fusion_lon": 0.0}, {"name": "ddc1377a3d6f5fed0368d8336a0af84e", "is_reserved": 0, "type": "electric_scooter", "rental_uris": {"ios": "https://dc.lft.to/lastmile_qr_scan", "android": "https://dc.lft.to/lastmile_qr_scan"}, "lat": 38.91843016666667, "lon": -77.04007416666667, "bike_id": "ddc1377a3d6f5fed0368d8336a0af84e", "fusion_lat": 0.0, "is_disabled": 0, "fusion_lon": 0.0}, {"name": "877ad58142b30e4c40cd4476380bbf9a", "is_reserved": 0, "type": "electric_scooter", "rental_uris": {"ios": "https://dc.lft.to/lastmile_qr_scan", "android": "https://dc.lft.to/lastmile_qr_scan"}, "lat": 38.917566666666666, "lon": -77.03935983333334, "bike_id": "877ad58142b30e4c40cd4476380bbf9a", "fusion_lat": 0.0, "is_disabled": 0, "fusion_lon": 0.0}, {"name": "491d18b90e9c1d8a072f0528160f293a", "is_reserved": 0, "type": "electric_scooter", "rental_uris": {"ios": "https://dc.lft.to/lastmile_qr_scan", "android": "https://dc.lft.to/lastmile_qr_scan"}, "lat": 38.91716, "lon": -77.04404666666667, "bike_id": "491d18b90e9c1d8a072f0528160f293a", "fusion_lat": 0.0, "is_disabled": 0, "fusion_lon": 0.0}, {"name": "903dad9d88dac4182059c8b011cbf359", "is_reserved": 0, "type": "electric_scooter", "rental_uris": {"ios": "https://dc.lft.to/lastmile_qr_scan", "android": "https://dc.lft.to/lastmile_qr_scan"}, "lat": 38.916957833333335, "lon": -77.0289345, "bike_id": "903dad9d88dac4182059c8b011cbf359", "fusion_lat": 0.0, "is_disabled": 0, "fusion_lon": 0.0}, {"name": "0e1ec0b412f16828346d08f6d439d6dc", "is_reserved": 0, "type": "electric_scooter", "rental_uris": {"ios": "https://dc.lft.to/lastmile_qr_scan", "android": "https://dc.lft.to/lastmile_qr_scan"}, "lat": 38.93359366666667, "lon": -77.04124233333333, "bike_id": "0e1ec0b412f16828346d08f6d439d6dc", "fusion_lat": 0.0, "is_disabled": 0, "fusion_lon": 0.0}, {"name": "f85af8bbf71f37c7a656652efc4cbb56", "is_reserved": 0, "type": "electric_scooter", "rental_uris": {"ios": "https://dc.lft.to/lastmile_qr_scan", "android": "https://dc.lft.to/lastmile_qr_scan"}, "lat": 38.9067085, "lon": -77.0057725, "bike_id": "f85af8bbf71f37c7a656652efc4cbb56", "fusion_lat": 0.0, "is_disabled": 0, "fusion_lon": 0.0}, {"name": "89957869b9f13bfd75400ba5b7613605", "is_reserved": 0, "type": "electric_bike", "rental_uris": {"ios": "https://dc.lft.to/lastmile_qr_scan", "android": "https://dc.lft.to/lastmile_qr_scan"}, "lat": 38.916559, "lon": -77.02606933333334, "bike_id": "89957869b9f13bfd75400ba5b7613605", "fusion_lat": 0.0, "is_disabled": 0, "fusion_lon": 0.0}, {"name": "4b42df701b7ca72014b39d36059943ff", "is_reserved": 0, "type": "electric_scooter", "rental_uris": {"ios": "https://dc.lft.to/lastmile_qr_scan", "android": "https://dc.lft.to/lastmile_qr_scan"}, "lat": 38.92352316666667, "lon": -76.99955533333333, "bike_id": "4b42df701b7ca72014b39d36059943ff", "fusion_lat": 0.0, "is_disabled": 0, "fusion_lon": 0.0}, {"name": "d6ef426fa7b40e88a3b72f11d2e90621", "is_reserved": 0, "type": "electric_scooter", "rental_uris": {"ios": "https://dc.lft.to/lastmile_qr_scan", "android": "https://dc.lft.to/lastmile_qr_scan"}, "lat": 38.94225316666667, "lon": -77.025523, "bike_id": "d6ef426fa7b40e88a3b72f11d2e90621", "fusion_lat": 0.0, "is_disabled": 0, "fusion_lon": 0.0}, {"name": "8d04ccdb7d6256b9eba10135215333b6", "is_reserved": 0, "type": "electric_scooter", "rental_uris": {"ios": "https://dc.lft.to/lastmile_qr_scan", "android": "https://dc.lft.to/lastmile_qr_scan"}, "lat": 38.923362166666664, "lon": -77.04290083333333, "bike_id": "8d04ccdb7d6256b9eba10135215333b6", "fusion_lat": 0.0, "is_disabled": 0, "fusion_lon": 0.0}, {"name": "cd511bbbb8c51225fac9b7be55fc352d", "is_reserved": 0, "type": "electric_scooter", "rental_uris": {"ios": "https://dc.lft.to/lastmile_qr_scan", "android": "https://dc.lft.to/lastmile_qr_scan"}, "lat": 38.93714633333333, "lon": -77.02424166666667, "bike_id": "cd511bbbb8c51225fac9b7be55fc352d", "fusion_lat": 0.0, "is_disabled": 0, "fusion_lon": 0.0}, {"name": "31cf088edfab879f5ae3c4b1a2852064", "is_reserved": 0, "type": "electric_scooter", "rental_uris": {"ios": "https://dc.lft.to/lastmile_qr_scan", "android": "https://dc.lft.to/lastmile_qr_scan"}, "lat": 38.88736083333333, "lon": -77.01390083333334, "bike_id": "31cf088edfab879f5ae3c4b1a2852064", "fusion_lat": 0.0, "is_disabled": 0, "fusion_lon": 0.0}, {"name": "89a50a4198ca88e868a4a3e9a7d593d7", "is_reserved": 0, "type": "electric_scooter", "rental_uris": {"ios": "https://dc.lft.to/lastmile_qr_scan", "android": "https://dc.lft.to/lastmile_qr_scan"}, "lat": 38.922388166666664, "lon": -77.0308865, "bike_id": "89a50a4198ca88e868a4a3e9a7d593d7", "fusion_lat": 0.0, "is_disabled": 0, "fusion_lon": 0.0}, {"name": "741ff39437f50940bc161bd2c01a65b8", "is_reserved": 0, "type": "electric_scooter", "rental_uris": {"ios": "https://dc.lft.to/lastmile_qr_scan", "android": "https://dc.lft.to/lastmile_qr_scan"}, "lat": 38.924163166666666, "lon": -77.03554983333333, "bike_id": "741ff39437f50940bc161bd2c01a65b8", "fusion_lat": 0.0, "is_disabled": 0, "fusion_lon": 0.0}, {"name": "51882b4e58defef698b20fa4838c3a0d", "is_reserved": 0, "type": "electric_bike", "rental_uris": {"ios": "https://dc.lft.to/lastmile_qr_scan", "android": "https://dc.lft.to/lastmile_qr_scan"}, "lat": 39.02436266666667, "lon": -77.13105516666667, "bike_id": "51882b4e58defef698b20fa4838c3a0d", "fusion_lat": 0.0, "is_disabled": 0, "fusion_lon": 0.0}, {"name": "895edbe7eabaf800ad76645f963373a6", "is_reserved": 0, "type": "electric_bike", "rental_uris": {"ios": "https://dc.lft.to/lastmile_qr_scan", "android": "https://dc.lft.to/lastmile_qr_scan"}, "lat": 38.885860666666666, "lon": -77.0607865, "bike_id": "895edbe7eabaf800ad76645f963373a6", "fusion_lat": 0.0, "is_disabled": 0, "fusion_lon": 0.0}, {"name": "1317c06e6505b7d7817f10a4d28fb3a0", "is_reserved": 0, "type": "electric_scooter", "rental_uris": {"ios": "https://dc.lft.to/lastmile_qr_scan", "android": "https://dc.lft.to/lastmile_qr_scan"}, "lat": 38.877607, "lon": -76.99529283333334, "bike_id": "1317c06e6505b7d7817f10a4d28fb3a0", "fusion_lat": 0.0, "is_disabled": 0, "fusion_lon": 0.0}, {"name": "6331160c542e410aa4e8a41eba7da0aa", "is_reserved": 0, "type": "electric_bike", "rental_uris": {"ios": "https://dc.lft.to/lastmile_qr_scan", "android": "https://dc.lft.to/lastmile_qr_scan"}, "lat": 39.02891616666667, "lon": -77.09599466666667, "bike_id": "6331160c542e410aa4e8a41eba7da0aa", "fusion_lat": 0.0, "is_disabled": 0, "fusion_lon": 0.0}, {"name": "aa147865ff7f0a1634edf5fdf1db7aa9", "is_reserved": 0, "type": "electric_scooter", "rental_uris": {"ios": "https://dc.lft.to/lastmile_qr_scan", "android": "https://dc.lft.to/lastmile_qr_scan"}, "lat": 38.8663045, "lon": -76.98713983333333, "bike_id": "aa147865ff7f0a1634edf5fdf1db7aa9", "fusion_lat": 0.0, "is_disabled": 0, "fusion_lon": 0.0}, {"name": "30485e0dd953df533b0125beda20beb3", "is_reserved": 0, "type": "electric_scooter", "rental_uris": {"ios": "https://dc.lft.to/lastmile_qr_scan", "android": "https://dc.lft.to/lastmile_qr_scan"}, "lat": 38.908863833333335, "lon": -77.03173433333333, "bike_id": "30485e0dd953df533b0125beda20beb3", "fusion_lat": 0.0, "is_disabled": 0, "fusion_lon": 0.0}, {"name": "a53c76e3bfa5b393de7a3f4d2d82eb2b", "is_reserved": 0, "type": "electric_scooter", "rental_uris": {"ios": "https://dc.lft.to/lastmile_qr_scan", "android": "https://dc.lft.to/lastmile_qr_scan"}, "lat": 38.9067105, "lon": -77.0271185, "bike_id": "a53c76e3bfa5b393de7a3f4d2d82eb2b", "fusion_lat": 0.0, "is_disabled": 0, "fusion_lon": 0.0}, {"name": "4183d07748c6219148df9598a3b593e7", "is_reserved": 0, "type": "electric_scooter", "rental_uris": {"ios": "https://dc.lft.to/lastmile_qr_scan", "android": "https://dc.lft.to/lastmile_qr_scan"}, "lat": 38.884736833333335, "lon": -76.9540935, "bike_id": "4183d07748c6219148df9598a3b593e7", "fusion_lat": 0.0, "is_disabled": 0, "fusion_lon": 0.0}, {"name": "1aba81415da287bfb95b47d5dac8905b", "is_reserved": 0, "type": "electric_scooter", "rental_uris": {"ios": "https://dc.lft.to/lastmile_qr_scan", "android": "https://dc.lft.to/lastmile_qr_scan"}, "lat": 38.90515766666667, "lon": -77.05010683333333, "bike_id": "1aba81415da287bfb95b47d5dac8905b", "fusion_lat": 0.0, "is_disabled": 0, "fusion_lon": 0.0}, {"name": "f23f480d2903dbbb2bb55ca65e5f3870", "is_reserved": 0, "type": "electric_scooter", "rental_uris": {"ios": "https://dc.lft.to/lastmile_qr_scan", "android": "https://dc.lft.to/lastmile_qr_scan"}, "lat": 38.9441515, "lon": -77.06326566666667, "bike_id": "f23f480d2903dbbb2bb55ca65e5f3870", "fusion_lat": 0.0, "is_disabled": 0, "fusion_lon": 0.0}, {"name": "39efed2e9648c8999fba72db31c4117a", "is_reserved": 0, "type": "electric_scooter", "rental_uris": {"ios": "https://dc.lft.to/lastmile_qr_scan", "android": "https://dc.lft.to/lastmile_qr_scan"}, "lat": 38.950261166666664, "lon": -77.01981516666666, "bike_id": "39efed2e9648c8999fba72db31c4117a", "fusion_lat": 0.0, "is_disabled": 0, "fusion_lon": 0.0}, {"name": "858ad80a429ab792073fd552b62baddd", "is_reserved": 0, "type": "electric_scooter", "rental_uris": {"ios": "https://dc.lft.to/lastmile_qr_scan", "android": "https://dc.lft.to/lastmile_qr_scan"}, "lat": 38.907827166666664, "lon": -77.06924816666667, "bike_id": "858ad80a429ab792073fd552b62baddd", "fusion_lat": 0.0, "is_disabled": 0, "fusion_lon": 0.0}, {"name": "8f9f0853ee07dc7ed2b7be354533ccdc", "is_reserved": 0, "type": "electric_scooter", "rental_uris": {"ios": "https://dc.lft.to/lastmile_qr_scan", "android": "https://dc.lft.to/lastmile_qr_scan"}, "lat": 38.9216765, "lon": -77.03847233333333, "bike_id": "8f9f0853ee07dc7ed2b7be354533ccdc", "fusion_lat": 0.0, "is_disabled": 0, "fusion_lon": 0.0}, {"name": "4f701edbc9187884c9536b4d32664bbf", "is_reserved": 0, "type": "electric_scooter", "rental_uris": {"ios": "https://dc.lft.to/lastmile_qr_scan", "android": "https://dc.lft.to/lastmile_qr_scan"}, "lat": 38.90153083333333, "lon": -77.059173, "bike_id": "4f701edbc9187884c9536b4d32664bbf", "fusion_lat": 0.0, "is_disabled": 0, "fusion_lon": 0.0}, {"name": "6f2cfa0e3b544575baa66f51d453f4c6", "is_reserved": 0, "type": "electric_scooter", "rental_uris": {"ios": "https://dc.lft.to/lastmile_qr_scan", "android": "https://dc.lft.to/lastmile_qr_scan"}, "lat": 38.8859755, "lon": -77.019957, "bike_id": "6f2cfa0e3b544575baa66f51d453f4c6", "fusion_lat": 0.0, "is_disabled": 0, "fusion_lon": 0.0}, {"name": "a41f403dca124e3f8548053de62624d2", "is_reserved": 0, "type": "electric_scooter", "rental_uris": {"ios": "https://dc.lft.to/lastmile_qr_scan", "android": "https://dc.lft.to/lastmile_qr_scan"}, "lat": 38.90673116666667, "lon": -77.04887616666667, "bike_id": "a41f403dca124e3f8548053de62624d2", "fusion_lat": 0.0, "is_disabled": 0, "fusion_lon": 0.0}, {"name": "a9c860a028871e76ee3ef57bdff648a4", "is_reserved": 0, "type": "electric_scooter", "rental_uris": {"ios": "https://dc.lft.to/lastmile_qr_scan", "android": "https://dc.lft.to/lastmile_qr_scan"}, "lat": 38.9077135, "lon": -77.03544083333334, "bike_id": "a9c860a028871e76ee3ef57bdff648a4", "fusion_lat": 0.0, "is_disabled": 0, "fusion_lon": 0.0}, {"name": "f7d9f45ab810b0e5d039e5d66ec88d65", "is_reserved": 0, "type": "electric_scooter", "rental_uris": {"ios": "https://dc.lft.to/lastmile_qr_scan", "android": "https://dc.lft.to/lastmile_qr_scan"}, "lat": 38.885737666666664, "lon": -77.01753383333333, "bike_id": "f7d9f45ab810b0e5d039e5d66ec88d65", "fusion_lat": 0.0, "is_disabled": 0, "fusion_lon": 0.0}, {"name": "a74cb25aa7f146973e7c176656f6e114", "is_reserved": 0, "type": "electric_scooter", "rental_uris": {"ios": "https://dc.lft.to/lastmile_qr_scan", "android": "https://dc.lft.to/lastmile_qr_scan"}, "lat": 38.901795166666666, "lon": -77.01601266666667, "bike_id": "a74cb25aa7f146973e7c176656f6e114", "fusion_lat": 0.0, "is_disabled": 0, "fusion_lon": 0.0}, {"name": "b8eee3697d60a5d7946e9a895124b4d7", "is_reserved": 0, "type": "electric_scooter", "rental_uris": {"ios": "https://dc.lft.to/lastmile_qr_scan", "android": "https://dc.lft.to/lastmile_qr_scan"}, "lat": 38.915685833333335, "lon": -77.031222, "bike_id": "b8eee3697d60a5d7946e9a895124b4d7", "fusion_lat": 0.0, "is_disabled": 0, "fusion_lon": 0.0}, {"name": "2118dace5d03cc592ce43f2610d60660", "is_reserved": 0, "type": "electric_scooter", "rental_uris": {"ios": "https://dc.lft.to/lastmile_qr_scan", "android": "https://dc.lft.to/lastmile_qr_scan"}, "lat": 38.90011366666667, "lon": -76.9931135, "bike_id": "2118dace5d03cc592ce43f2610d60660", "fusion_lat": 0.0, "is_disabled": 0, "fusion_lon": 0.0}, {"name": "d1d8967a9955ddd9e6d116220b4f9218", "is_reserved": 0, "type": "electric_scooter", "rental_uris": {"ios": "https://dc.lft.to/lastmile_qr_scan", "android": "https://dc.lft.to/lastmile_qr_scan"}, "lat": 38.920785333333335, "lon": -77.02943, "bike_id": "d1d8967a9955ddd9e6d116220b4f9218", "fusion_lat": 0.0, "is_disabled": 0, "fusion_lon": 0.0}, {"name": "a99fb944258417feaa88cfe592e1e664", "is_reserved": 0, "type": "electric_scooter", "rental_uris": {"ios": "https://dc.lft.to/lastmile_qr_scan", "android": "https://dc.lft.to/lastmile_qr_scan"}, "lat": 38.9158105, "lon": -77.04690066666667, "bike_id": "a99fb944258417feaa88cfe592e1e664", "fusion_lat": 0.0, "is_disabled": 0, "fusion_lon": 0.0}, {"name": "a737bf111b67f114634aceb5f82897cd", "is_reserved": 0, "type": "electric_bike", "rental_uris": {"ios": "https://dc.lft.to/lastmile_qr_scan", "android": "https://dc.lft.to/lastmile_qr_scan"}, "lat": 38.886241166666665, "lon": -77.09445033333333, "bike_id": "a737bf111b67f114634aceb5f82897cd", "fusion_lat": 0.0, "is_disabled": 0, "fusion_lon": 0.0}, {"name": "2125f5fc9042dba6de38743178d7840b", "is_reserved": 0, "type": "electric_scooter", "rental_uris": {"ios": "https://dc.lft.to/lastmile_qr_scan", "android": "https://dc.lft.to/lastmile_qr_scan"}, "lat": 38.911864666666666, "lon": -77.03834283333333, "bike_id": "2125f5fc9042dba6de38743178d7840b", "fusion_lat": 0.0, "is_disabled": 0, "fusion_lon": 0.0}, {"name": "b01cd2989d9ff85eb8f558129e13ad9a", "is_reserved": 0, "type": "electric_scooter", "rental_uris": {"ios": "https://dc.lft.to/lastmile_qr_scan", "android": "https://dc.lft.to/lastmile_qr_scan"}, "lat": 38.89055033333333, "lon": -76.93751533333334, "bike_id": "b01cd2989d9ff85eb8f558129e13ad9a", "fusion_lat": 0.0, "is_disabled": 0, "fusion_lon": 0.0}, {"name": "4e9adc2bae509552a3e2059716362c42", "is_reserved": 0, "type": "electric_scooter", "rental_uris": {"ios": "https://dc.lft.to/lastmile_qr_scan", "android": "https://dc.lft.to/lastmile_qr_scan"}, "lat": 38.8899055, "lon": -77.0033915, "bike_id": "4e9adc2bae509552a3e2059716362c42", "fusion_lat": 0.0, "is_disabled": 0, "fusion_lon": 0.0}, {"name": "030b9081307b19735c9fd9a7d124dcb4", "is_reserved": 0, "type": "electric_bike", "rental_uris": {"ios": "https://dc.lft.to/lastmile_qr_scan", "android": "https://dc.lft.to/lastmile_qr_scan"}, "lat": 38.86192783333333, "lon": -76.94806483333333, "bike_id": "030b9081307b19735c9fd9a7d124dcb4", "fusion_lat": 0.0, "is_disabled": 0, "fusion_lon": 0.0}, {"name": "578e1a723a677be2082b04e1600d5c4d", "is_reserved": 0, "type": "electric_scooter", "rental_uris": {"ios": "https://dc.lft.to/lastmile_qr_scan", "android": "https://dc.lft.to/lastmile_qr_scan"}, "lat": 38.92204533333334, "lon": -77.0471615, "bike_id": "578e1a723a677be2082b04e1600d5c4d", "fusion_lat": 0.0, "is_disabled": 0, "fusion_lon": 0.0}, {"name": "9ccd5baf470565a12a0ba649fee0ad6d", "is_reserved": 0, "type": "electric_scooter", "rental_uris": {"ios": "https://dc.lft.to/lastmile_qr_scan", "android": "https://dc.lft.to/lastmile_qr_scan"}, "lat": 38.91289316666666, "lon": -77.031908, "bike_id": "9ccd5baf470565a12a0ba649fee0ad6d", "fusion_lat": 0.0, "is_disabled": 0, "fusion_lon": 0.0}, {"name": "cc0b6195cf9b77f81e978b3e39885e3e", "is_reserved": 0, "type": "electric_scooter", "rental_uris": {"ios": "https://dc.lft.to/lastmile_qr_scan", "android": "https://dc.lft.to/lastmile_qr_scan"}, "lat": 38.89611566666667, "lon": -76.9952115, "bike_id": "cc0b6195cf9b77f81e978b3e39885e3e", "fusion_lat": 0.0, "is_disabled": 0, "fusion_lon": 0.0}, {"name": "c175eef15f58aea82585e0e9ec32adac", "is_reserved": 0, "type": "electric_scooter", "rental_uris": {"ios": "https://dc.lft.to/lastmile_qr_scan", "android": "https://dc.lft.to/lastmile_qr_scan"}, "lat": 38.917372666666665, "lon": -77.03843816666667, "bike_id": "c175eef15f58aea82585e0e9ec32adac", "fusion_lat": 0.0, "is_disabled": 0, "fusion_lon": 0.0}, {"name": "b8b885ae8fd24e6f7d6d5c10b047208d", "is_reserved": 0, "type": "electric_scooter", "rental_uris": {"ios": "https://dc.lft.to/lastmile_qr_scan", "android": "https://dc.lft.to/lastmile_qr_scan"}, "lat": 38.92407883333333, "lon": -77.035428, "bike_id": "b8b885ae8fd24e6f7d6d5c10b047208d", "fusion_lat": 0.0, "is_disabled": 0, "fusion_lon": 0.0}, {"name": "82f1fa041315e267ae7ca16e052e25cc", "is_reserved": 0, "type": "electric_scooter", "rental_uris": {"ios": "https://dc.lft.to/lastmile_qr_scan", "android": "https://dc.lft.to/lastmile_qr_scan"}, "lat": 38.859089, "lon": -76.997158, "bike_id": "82f1fa041315e267ae7ca16e052e25cc", "fusion_lat": 0.0, "is_disabled": 0, "fusion_lon": 0.0}, {"name": "a134fc7e8e50c90ad1f4e8e9a2975b0d", "is_reserved": 0, "type": "electric_scooter", "rental_uris": {"ios": "https://dc.lft.to/lastmile_qr_scan", "android": "https://dc.lft.to/lastmile_qr_scan"}, "lat": 38.90725916666667, "lon": -77.02422233333333, "bike_id": "a134fc7e8e50c90ad1f4e8e9a2975b0d", "fusion_lat": 0.0, "is_disabled": 0, "fusion_lon": 0.0}, {"name": "a941b9cde3ff129ba40c469dfae7b549", "is_reserved": 0, "type": "electric_scooter", "rental_uris": {"ios": "https://dc.lft.to/lastmile_qr_scan", "android": "https://dc.lft.to/lastmile_qr_scan"}, "lat": 38.8922155, "lon": -77.02643766666667, "bike_id": "a941b9cde3ff129ba40c469dfae7b549", "fusion_lat": 0.0, "is_disabled": 0, "fusion_lon": 0.0}, {"name": "b47f2b0eb4b9a51f816d4ae2eb164db1", "is_reserved": 0, "type": "electric_scooter", "rental_uris": {"ios": "https://dc.lft.to/lastmile_qr_scan", "android": "https://dc.lft.to/lastmile_qr_scan"}, "lat": 38.91020566666667, "lon": -77.06904283333333, "bike_id": "b47f2b0eb4b9a51f816d4ae2eb164db1", "fusion_lat": 0.0, "is_disabled": 0, "fusion_lon": 0.0}, {"name": "6af500e1abeaa422435c408e4bb72cde", "is_reserved": 0, "type": "electric_scooter", "rental_uris": {"ios": "https://dc.lft.to/lastmile_qr_scan", "android": "https://dc.lft.to/lastmile_qr_scan"}, "lat": 38.9028075, "lon": -77.03438883333334, "bike_id": "6af500e1abeaa422435c408e4bb72cde", "fusion_lat": 0.0, "is_disabled": 0, "fusion_lon": 0.0}, {"name": "4d99c7a57354cd4fdca0c63555c9ffde", "is_reserved": 0, "type": "electric_scooter", "rental_uris": {"ios": "https://dc.lft.to/lastmile_qr_scan", "android": "https://dc.lft.to/lastmile_qr_scan"}, "lat": 38.92364083333333, "lon": -77.05229216666666, "bike_id": "4d99c7a57354cd4fdca0c63555c9ffde", "fusion_lat": 0.0, "is_disabled": 0, "fusion_lon": 0.0}, {"name": "30b38ee4f33cd19b32dd373477371538", "is_reserved": 0, "type": "electric_scooter", "rental_uris": {"ios": "https://dc.lft.to/lastmile_qr_scan", "android": "https://dc.lft.to/lastmile_qr_scan"}, "lat": 38.925776, "lon": -77.04007733333333, "bike_id": "30b38ee4f33cd19b32dd373477371538", "fusion_lat": 0.0, "is_disabled": 0, "fusion_lon": 0.0}, {"name": "d5d8558d9a9eb9986f86120c78c9135c", "is_reserved": 0, "type": "electric_scooter", "rental_uris": {"ios": "https://dc.lft.to/lastmile_qr_scan", "android": "https://dc.lft.to/lastmile_qr_scan"}, "lat": 38.90617, "lon": -77.02819766666667, "bike_id": "d5d8558d9a9eb9986f86120c78c9135c", "fusion_lat": 0.0, "is_disabled": 0, "fusion_lon": 0.0}, {"name": "8888917337a804c91a564fc0a749e294", "is_reserved": 0, "type": "electric_scooter", "rental_uris": {"ios": "https://dc.lft.to/lastmile_qr_scan", "android": "https://dc.lft.to/lastmile_qr_scan"}, "lat": 38.921269333333335, "lon": -77.02411466666666, "bike_id": "8888917337a804c91a564fc0a749e294", "fusion_lat": 0.0, "is_disabled": 0, "fusion_lon": 0.0}, {"name": "94594f84d1a41b3a9d31b1e3e8568e95", "is_reserved": 0, "type": "electric_scooter", "rental_uris": {"ios": "https://dc.lft.to/lastmile_qr_scan", "android": "https://dc.lft.to/lastmile_qr_scan"}, "lat": 38.866587333333335, "lon": -76.9888435, "bike_id": "94594f84d1a41b3a9d31b1e3e8568e95", "fusion_lat": 0.0, "is_disabled": 0, "fusion_lon": 0.0}, {"name": "44c622907d58a409354aeb6002600c25", "is_reserved": 0, "type": "electric_scooter", "rental_uris": {"ios": "https://dc.lft.to/lastmile_qr_scan", "android": "https://dc.lft.to/lastmile_qr_scan"}, "lat": 38.905643, "lon": -77.021753, "bike_id": "44c622907d58a409354aeb6002600c25", "fusion_lat": 0.0, "is_disabled": 0, "fusion_lon": 0.0}, {"name": "59e558b25eea698365600e0e8027f95b", "is_reserved": 0, "type": "electric_scooter", "rental_uris": {"ios": "https://dc.lft.to/lastmile_qr_scan", "android": "https://dc.lft.to/lastmile_qr_scan"}, "lat": 38.900757, "lon": -77.05002366666666, "bike_id": "59e558b25eea698365600e0e8027f95b", "fusion_lat": 0.0, "is_disabled": 0, "fusion_lon": 0.0}, {"name": "ea757d6bd93bf313dfc75294ea1900a9", "is_reserved": 0, "type": "electric_bike", "rental_uris": {"ios": "https://dc.lft.to/lastmile_qr_scan", "android": "https://dc.lft.to/lastmile_qr_scan"}, "lat": 38.8868485, "lon": -77.16089883333333, "bike_id": "ea757d6bd93bf313dfc75294ea1900a9", "fusion_lat": 0.0, "is_disabled": 0, "fusion_lon": 0.0},