{"data": {"bikes": [{"fusion_lon": 0.0, "name": "f5935c1a2c2950ab61604f00b67598d4", "rental_uris": {"android": "https://dc.lft.to/lastmile_qr_scan", "ios": "https://dc.lft.to/lastmile_qr_scan"}, "lat": 38.92422633333334, "bike_id": "f5935c1a2c2950ab61604f00b67598d4", "is_disabled": 0, "lon": -77.01946933333333, "is_reserved": 0, "fusion_lat": 0.0, "type": "electric_scooter"}, {"fusion_lon": 0.0, "name": "2f0ba3f5ad6a62c6e34b77d49dbb4b7c", "rental_uris": {"android": "https://dc.lft.to/lastmile_qr_scan", "ios": "https://dc.lft.to/lastmile_qr_scan"}, "lat": 38.929185333333336, "bike_id": "2f0ba3f5ad6a62c6e34b77d49dbb4b7c", "is_disabled": 0, "lon": -76.998165, "is_reserved": 0, "fusion_lat": 0.0, "type": "electric_scooter"}, {"fusion_lon": 0.0, "name": "aac0a3cfc5433602183b411e331467c3", "rental_uris": {"android": "https://dc.lft.to/lastmile_qr_scan", "ios": "https://dc.lft.to/lastmile_qr_scan"}, "lat": 38.935044, "bike_id": "aac0a3cfc5433602183b411e331467c3", "is_disabled": 0, "lon": -77.0200855, "is_reserved": 0, "fusion_lat": 0.0, "type": "electric_scooter"}, {"fusion_lon": 0.0, "name": "1244437ae7dc8111c5df41593a45ec94", "rental_uris": {"android": "https://dc.lft.to/lastmile_qr_scan", "ios": "https://dc.lft.to/lastmile_qr_scan"}, "lat": 38.922424166666666, "bike_id": "1244437ae7dc8111c5df41593a45ec94", "is_disabled": 0, "lon": -77.04362683333333, "is_reserved": 0, "fusion_lat": 0.0, "type": "electric_scooter"}, {"fusion_lon": 0.0, "name": "2b5f9568135ed3d4d091327fdbe38b38", "rental_uris": {"android": "https://dc.lft.to/lastmile_qr_scan", "ios": "https://dc.lft.to/lastmile_qr_scan"}, "lat": 38.9285735, "bike_id": "2b5f9568135ed3d4d091327fdbe38b38", "is_disabled": 0, "lon": -77.03047866666667, "is_reserved": 0, "fusion_lat": 0.0, "type": "electric_scooter"}, {"fusion_lon": 0.0, "name": "f75f3529569eda1fb50cd2100feb6875", "rental_uris": {"android": "https://dc.lft.to/lastmile_qr_scan", "ios": "https://dc.lft.to/lastmile_qr_scan"}, "lat": 38.91633483333333, "bike_id": "f75f3529569eda1fb50cd2100feb6875", "is_disabled": 0, "lon": -77.03199916666667, "is_reserved": 0, "fusion_lat": 0.0, "type": "electric_scooter"}, {"fusion_lon": 0.0, "name": "a6da346cde8578a1cf182d5bb920c69e", "rental_uris": {"android": "https://dc.lft.to/lastmile_qr_scan", "ios": "https://dc.lft.to/lastmile_qr_scan"}, "lat": 38.90828366666667, "bike_id": "a6da346cde8578a1cf182d5bb920c69e", "is_disabled": 0, "lon": -77.02175733333333, "is_reserved": 0, "fusion_lat": 0.0, "type": "electric_scooter"}, {"fusion_lon": 0.0, "name": "d365d77a44dd3a3cae417938726c2257", "rental_uris": {"android": "https://dc.lft.to/lastmile_qr_scan", "ios": "https://dc.lft.to/lastmile_qr_scan"}, "lat": 38.896660833333335, "bike_id": "d365d77a44dd3a3cae417938726c2257", "is_disabled": 0, "lon": -77.0434885, "is_reserved": 0, "fusion_lat": 0.0, "type": "electric_scooter"}, {"fusion_lon": 0.0, "name": "780b4e9c3062ff214169b4ddf5d83cc2", "rental_uris": {"android": "https://dc.lft.to/lastmile_qr_scan", "ios": "https://dc.lft.to/lastmile_qr_scan"}, "lat": 38.8966795, "bike_id": "780b4e9c3062ff214169b4ddf5d83cc2", "is_disabled": 0, "lon": -77.05466366666667, "is_reserved": 0, "fusion_lat": 0.0, "type": "electric_scooter"}, {"fusion_lon": 0.0, "name": "f7faeee00ddc96e9a8c7e12ba4d11a78", "rental_uris": {"android": "https://dc.lft.to/lastmile_qr_scan", "ios": "https://dc.lft.to/lastmile_qr_scan"}, "lat": 38.92156033333333, "bike_id": "f7faeee00ddc96e9a8c7e12ba4d11a78", "is_disabled": 0, "lon": -77.035056, "is_reserved": 0, "fusion_lat": 0.0, "type": "electric_scooter"}, {"fusion_lon": 0.0, "name": "b23929f89e19b359d24b04172094912c", "rental_uris": {"android": "https://dc.lft.to/lastmile_qr_scan", "ios": "https://dc.lft.to/lastmile_qr_scan"}, "lat": 38.9052305, "bike_id": "b23929f89e19b359d24b04172094912c", "is_disabled": 0, "lon": -77.06096783333334, "is_reserved": 0, "fusion_lat": 0.0, "type": "electric_scooter"}, {"fusion_lon": 0.0, "name": "5c266f5246b71a42761676745586844b", "rental_uris": {"android": "https://dc.lft.to/lastmile_qr_scan", "ios": "https://dc.lft.to/lastmile_qr_scan"}, "lat": 38.89503883333333, "bike_id": "5c266f5246b71a42761676745586844b", "is_disabled": 0, "lon": -76.93474, "is_reserved": 0, "fusion_lat": 0.0, "type": "electric_scooter"}, {"fusion_lon": 0.0, "name": "89128fca877bb396c72450c39c2bee91", "rental_uris": {"android": "https://dc.lft.to/lastmile_qr_scan", "ios": "https://dc.lft.to/lastmile_qr_scan"}, "lat": 38.92671383333333, "bike_id": "89128fca877bb396c72450c39c2bee91", "is_disabled": 0, "lon": -77.02582983333333, "is_reserved": 0, "fusion_lat": 0.0, "type": "electric_scooter"}, {"fusion_lon": 0.0, "name": "a76f01fb713ab14c7cb1bae73584bad4", "rental_uris": {"android": "https://dc.lft.to/lastmile_qr_scan", "ios": "https://dc.lft.to/lastmile_qr_scan"}, "lat": 38.91006266666667, "bike_id": "a76f01fb713ab14c7cb1bae73584bad4", "is_disabled": 0, "lon": -76.99398133333334, "is_reserved": 0, "fusion_lat": 0.0, "type": "electric_scooter"}, {"fusion_lon": 0.0, "name": "4c5124dd1a98b7b620e18e3c4168d572", "rental_uris": {"android": "https://dc.lft.to/lastmile_qr_scan", "ios": "https://dc.lft.to/lastmile_qr_scan"}, "lat": 38.87767633333333, "bike_id": "4c5124dd1a98b7b620e18e3c4168d572", "is_disabled": 0, "lon": -76.99514583333334, "is_reserved": 0, "fusion_lat": 0.0, "type": "electric_scooter"}, {"fusion_lon": 0.0, "name": "3fd6af76ab5b50c9540a520d6ea6bf71", "rental_uris": {"android": "https://dc.lft.to/lastmile_qr_scan", "ios": "https://dc.lft.to/lastmile_qr_scan"}, "lat": 38.915432, "bike_id": "3fd6af76ab5b50c9540a520d6ea6bf71", "is_disabled": 0, "lon": -77.01044666666667, "is_reserved": 0, "fusion_lat": 0.0, "type": "electric_scooter"}, {"fusion_lon": 0.0, "name": "37490fb5787483d0c226fc4357db2f0f", "rental_uris": {"android": "https://dc.lft.to/lastmile_qr_scan", "ios": "https://dc.lft.to/lastmile_qr_scan"}, "lat": 38.915893, "bike_id": "37490fb5787483d0c226fc4357db2f0f", "is_disabled": 0, "lon": -77.04483466666667, "is_reserved": 0, "fusion_lat": 0.0, "type": "electric_scooter"}, {"fusion_lon": 0.0, "name": "8d66a481b0f9e1aee6bddad498179f03", "rental_uris": {"android": "https://dc.lft.to/lastmile_qr_scan", "ios": "https://dc.lft.to/lastmile_qr_scan"}, "lat": 38.88115633333334, "bike_id": "8d66a481b0f9e1aee6bddad498179f03", "is_disabled": 0, "lon": -77.01674216666666, "is_reserved": 0, "fusion_lat": 0.0, "type": "electric_bike"}, {"fusion_lon": 0.0, "name": "8aa8d6988392b0536f97a6f5b96db081", "rental_uris": {"android": "https://dc.lft.to/lastmile_qr_scan", "ios": "https://dc.lft.to/lastmile_qr_scan"}, "lat": 38.91693, "bike_id": "8aa8d6988392b0536f97a6f5b96db081", "is_disabled": 0, "lon": -77.043289, "is_reserved": 0, "fusion_lat": 0.0, "type": "electric_scooter"}, {"fusion_lon": 0.0, "name": "1f49840a27f161e25310f1601444c4ed", "rental_uris": {"android": "https://dc.lft.to/lastmile_qr_scan", "ios": "https://dc.lft.to/lastmile_qr_scan"}, "lat": 38.892305666666665, "bike_id": "1f49840a27f161e25310f1601444c4ed", "is_disabled": 0, "lon": -77.03352083333333, "is_reserved": 0, "fusion_lat": 0.0, "type": "electric_scooter"}, {"fusion_lon": 0.0, "name": "f16e5b8b930a2cd09ece11a39d849b18", "rental_uris": {"android": "https://dc.lft.to/lastmile_qr_scan", "ios": "https://dc.lft.to/lastmile_qr_scan"}, "lat": 38.901508666666665, "bike_id": "f16e5b8b930a2cd09ece11a39d849b18", "is_disabled": 0, "lon": -77.0371545, "is_reserved": 0, "fusion_lat": 0.0, "type": "electric_scooter"}, {"fusion_lon": 0.0, "name": "7febe1f49e177939612d50b3b2646a66", "rental_uris": {"android": "https://dc.lft.to/lastmile_qr_scan", "ios": "https://dc.lft.to/lastmile_qr_scan"}, "lat": 38.8990445, "bike_id": "7febe1f49e177939612d50b3b2646a66", "is_disabled": 0, "lon": -76.98826833333334, "is_reserved": 0, "fusion_lat": 0.0, "type": "electric_scooter"}, {"fusion_lon": 0.0, "name": "fb8d47e2aedc4543d2810423e3f0e753", "rental_uris": {"android": "https://dc.lft.to/lastmile_qr_scan", "ios": "https://dc.lft.to/lastmile_qr_scan"}, "lat": 38.91647966666667, "bike_id": "fb8d47e2aedc4543d2810423e3f0e753", "is_disabled": 0, "lon": -77.01029316666667, "is_reserved": 0, "fusion_lat": 0.0, "type": "electric_scooter"}, {"fusion_lon": 0.0, "name": "87e452891d623c4b3d1416bf8647df39", "rental_uris": {"android": "https://dc.lft.to/lastmile_qr_scan", "ios": "https://dc.lft.to/lastmile_qr_scan"}, "lat": 38.909376, "bike_id": "87e452891d623c4b3d1416bf8647df39", "is_disabled": 0, "lon": -77.02396066666667, "is_reserved": 0, "fusion_lat": 0.0, "type": "electric_scooter"}, {"fusion_lon": 0.0, "name": "0c5fffeefe5a7f4f83efe8e76bd97fce", "rental_uris": {"android": "https://dc.lft.to/lastmile_qr_scan", "ios": "https://dc.lft.to/lastmile_qr_scan"}, "lat": 38.9198415, "bike_id": "0c5fffeefe5a7f4f83efe8e76bd97fce", "is_disabled": 0, "lon": -77.02746383333333, "is_reserved": 0, "fusion_lat": 0.0, "type": "electric_scooter"}, {"fusion_lon": 0.0, "name": "b7d7a5e8992ca660ddc6800450beef44", "rental_uris": {"android": "https://dc.lft.to/lastmile_qr_scan", "ios": "https://dc.lft.to/lastmile_qr_scan"}, "lat": 38.923611333333334, "bike_id": "b7d7a5e8992ca660ddc6800450beef44", "is_disabled": 0, "lon": -77.0763745, "is_reserved": 0, "fusion_lat": 0.0, "type": "electric_scooter"}, {"fusion_lon": 0.0, "name": "b280216970fb7b804a262be369677ddb", "rental_uris": {"android": "https://dc.lft.to/lastmile_qr_scan", "ios": "https://dc.lft.to/lastmile_qr_scan"}, "lat": 38.926240666666665, "bike_id": "b280216970fb7b804a262be369677ddb", "is_disabled": 0, "lon": -77.072982, "is_reserved": 0, "fusion_lat": 0.0, "type": "electric_scooter"}, {"fusion_lon": 0.0, "name": "375ab6b9fc867a8a55eebf9142c8f170", "rental_uris": {"android": "https://dc.lft.to/lastmile_qr_scan", "ios": "https://dc.lft.to/lastmile_qr_scan"}, "lat": 38.914678333333335, "bike_id": "375ab6b9fc867a8a55eebf9142c8f170", "is_disabled": 0, "lon": -77.03203783333333, "is_reserved": 0, "fusion_lat": 0.0, "type": "electric_scooter"}, {"fusion_lon": 0.0, "name": "f87bbc1f46cb9e02c915a114d44da9f7", "rental_uris": {"android": "https://dc.lft.to/lastmile_qr_scan", "ios": "https://dc.lft.to/lastmile_qr_scan"}, "lat": 38.9313885, "bike_id": "f87bbc1f46cb9e02c915a114d44da9f7", "is_disabled": 0, "lon": -77.038377, "is_reserved": 0, "fusion_lat": 0.0, "type": "electric_scooter"}, {"fusion_lon": 0.0, "name": "4834051169c9ccd3027661eba34fdc28", "rental_uris": {"android": "https://dc.lft.to/lastmile_qr_scan", "ios": "https://dc.lft.to/lastmile_qr_scan"}, "lat": 38.91796933333333, "bike_id": "4834051169c9ccd3027661eba34fdc28", "is_disabled": 0, "lon": -77.04430133333334, "is_reserved": 0, "fusion_lat": 0.0, "type": "electric_scooter"}, {"fusion_lon": 0.0, "name": "63b88b914d5dcb535301dc07c410034e", "rental_uris": {"android": "https://dc.lft.to/lastmile_qr_scan", "ios": "https://dc.lft.to/lastmile_qr_scan"}, "lat": 38.82846133333334, "bike_id": "63b88b914d5dcb535301dc07c410034e", "is_disabled": 0, "lon": -77.0589945, "is_reserved": 0, "fusion_lat": 0.0, "type": "electric_bike"}, {"fusion_lon": 0.0, "name": "041bcddacbc80c42d89a5dfa3e0dd2f2", "rental_uris": {"android": "https://dc.lft.to/lastmile_qr_scan", "ios": "https://dc.lft.to/lastmile_qr_scan"}, "lat": 38.9014515, "bike_id": "041bcddacbc80c42d89a5dfa3e0dd2f2", "is_disabled": 0, "lon": -77.0293725, "is_reserved": 0, "fusion_lat": 0.0, "type": "electric_scooter"}, {"fusion_lon": 0.0, "name": "70f4a293553143d02e96b4d48b7e4f2a", "rental_uris": {"android": "https://dc.lft.to/lastmile_qr_scan", "ios": "https://dc.lft.to/lastmile_qr_scan"}, "lat": 38.919523833333336, "bike_id": "70f4a293553143d02e96b4d48b7e4f2a", "is_disabled": 0, "lon": -77.02175133333333, "is_reserved": 0, "fusion_lat": 0.0, "type": "electric_scooter"}, {"fusion_lon": 0.0, "name": "b1feb9ecee4745203d133abbdc7545df", "rental_uris": {"android": "https://dc.lft.to/lastmile_qr_scan", "ios": "https://dc.lft.to/lastmile_qr_scan"}, "lat": 38.91922666666667, "bike_id": "b1feb9ecee4745203d133abbdc7545df", "is_disabled": 0, "lon": -77.009909, "is_reserved": 0, "fusion_lat": 0.0, "type": "electric_scooter"}, {"fusion_lon": 0.0, "name": "93f49e3912e76e66d0e54446b451aa01", "rental_uris": {"android": "https://dc.lft.to/lastmile_qr_scan", "ios": "https://dc.lft.to/lastmile_qr_scan"}, "lat": 38.88658733333333, "bike_id": "93f49e3912e76e66d0e54446b451aa01", "is_disabled": 0, "lon": -76.93673733333333, "is_reserved": 0, "fusion_lat": 0.0, "type": "electric_scooter"}, {"fusion_lon": 0.0, "name": "7582655f44cc4b7c193d973bd23516c0", "rental_uris": {"android": "https://dc.lft.to/lastmile_qr_scan", "ios": "https://dc.lft.to/lastmile_qr_scan"}, "lat": 38.92453366666667, "bike_id": "7582655f44cc4b7c193d973bd23516c0", "is_disabled": 0, "lon": -77.02155666666667, "is_reserved": 0, "fusion_lat": 0.0, "type": "electric_scooter"}, {"fusion_lon": 0.0, "name": "cc67e833f5af04772a47e1a69b60f641", "rental_uris": {"android": "https://dc.lft.to/lastmile_qr_scan", "ios": "https://dc.lft.to/lastmile_qr_scan"}, "lat": 38.91732583333334, "bike_id": "cc67e833f5af04772a47e1a69b60f641", "is_disabled": 0, "lon": -77.06844866666667, "is_reserved": 0, "fusion_lat": 0.0, "type": "electric_scooter"}, {"fusion_lon": 0.0, "name": "199c55e3727dbde43913221887551ea2", "rental_uris": {"android": "https://dc.lft.to/lastmile_qr_scan", "ios": "https://dc.lft.to/lastmile_qr_scan"}, "lat": 38.924731666666666, "bike_id": "199c55e3727dbde43913221887551ea2", "is_disabled": 0, "lon": -77.02215383333333, "is_reserved": 0, "fusion_lat": 0.0, "type": "electric_scooter"}, {"fusion_lon": 0.0, "name": "c8eed64516f0add4e41b86c60c9a974d", "rental_uris": {"android": "https://dc.lft.to/lastmile_qr_scan", "ios": "https://dc.lft.to/lastmile_qr_scan"}, "lat": 38.934754833333336, "bike_id": "c8eed64516f0add4e41b86c60c9a974d", "is_disabled": 0, "lon": -77.024024, "is_reserved": 0, "fusion_lat": 0.0, "type": "electric_scooter"}, {"fusion_lon": 0.0, "name": "0564ccc7197667ecc4d746b450cbcf74", "rental_uris": {"android": "https://dc.lft.to/lastmile_qr_scan", "ios": "https://dc.lft.to/lastmile_qr_scan"}, "lat": 38.945375166666665, "bike_id": "0564ccc7197667ecc4d746b450cbcf74", "is_disabled": 0, "lon": -77.34461466666667, "is_reserved": 0, "fusion_lat": 0.0, "type": "electric_bike"}, {"fusion_lon": 0.0, "name": "c39ca24aecc68bd70e30403675e03b95", "rental_uris": {"android": "https://dc.lft.to/lastmile_qr_scan", "ios": "https://dc.lft.to/lastmile_qr_scan"}, "lat": 38.9076105, "bike_id": "c39ca24aecc68bd70e30403675e03b95", "is_disabled": 0, "lon": -77.00761633333333, "is_reserved": 0, "fusion_lat": 0.0, "type": "electric_scooter"}, {"fusion_lon": 0.0, "name": "21b11b11a9e4756f60140a1dbddbdbca", "rental_uris": {"android": "https://dc.lft.to/lastmile_qr_scan", "ios": "https://dc.lft.to/lastmile_qr_scan"}, "lat": 38.89742416666667, "bike_id": "21b11b11a9e4756f60140a1dbddbdbca", "is_disabled": 0, "lon": -77.031168, "is_reserved": 0, "fusion_lat": 0.0, "type": "electric_scooter"}, {"fusion_lon": 0.0, "name": "cfedde8b86d9ec146495bc6e48a60e46", "rental_uris": {"android": "https://dc.lft.to/lastmile_qr_scan", "ios": "https://dc.lft.to/lastmile_qr_scan"}, "lat": 39.084331666666664, "bike_id": "cfedde8b86d9ec146495bc6e48a60e46", "is_disabled": 0, "lon": -76.95141166666667, "is_reserved": 0, "fusion_lat": 0.0, "type": "electric_bike"}, {"fusion_lon": 0.0, "name": "c0994da61bdd288914b72a93dcb4877f", "rental_uris": {"android": "https://dc.lft.to/lastmile_qr_scan", "ios": "https://dc.lft.to/lastmile_qr_scan"}, "lat": 38.92048533333333, "bike_id": "c0994da61bdd288914b72a93dcb4877f", "is_disabled": 0, "lon": -77.02375283333333, "is_reserved": 0, "fusion_lat": 0.0, "type": "electric_scooter"}, {"fusion_lon": 0.0, "name": "0d4df7c7ad42094156a0ad4ba113ec45", "rental_uris": {"android": "https://dc.lft.to/lastmile_qr_scan", "ios": "https://dc.lft.to/lastmile_qr_scan"}, "lat": 38.91849, "bike_id": "0d4df7c7ad42094156a0ad4ba113ec45", "is_disabled": 0, "lon": -77.025323, "is_reserved": 0, "fusion_lat": 0.0, "type": "electric_scooter"}, {"fusion_lon": 0.0, "name": "abfdd302f2cfdf2b03a0ff4d61429a4d", "rental_uris": {"android": "https://dc.lft.to/lastmile_qr_scan", "ios": "https://dc.lft.to/lastmile_qr_scan"}, "lat": 38.918491, "bike_id": "abfdd302f2cfdf2b03a0ff4d61429a4d", "is_disabled": 0, "lon": -77.04474133333333, "is_reserved": 0, "fusion_lat": 0.0, "type": "electric_scooter"}, {"fusion_lon": 0.0, "name": "601f41de5f6d98327951a46d158b6885", "rental_uris": {"android": "https://dc.lft.to/lastmile_qr_scan", "ios": "https://dc.lft.to/lastmile_qr_scan"}, "lat": 38.91854033333333, "bike_id": "601f41de5f6d98327951a46d158b6885", "is_disabled": 0, "lon": -77.03190466666666, "is_reserved": 0, "fusion_lat": 0.0, "type": "electric_scooter"}, {"fusion_lon": 0.0, "name": "043bd73d647eb34de8ae2e0d75655f59", "rental_uris": {"android": "https://dc.lft.to/lastmile_qr_scan", "ios": "https://dc.lft.to/lastmile_qr_scan"}, "lat": 38.88965433333333, "bike_id": "043bd73d647eb34de8ae2e0d75655f59", "is_disabled": 0, "lon": -76.92735216666667, "is_reserved": 0, "fusion_lat": 0.0, "type": "electric_scooter"}, {"fusion_lon": 0.0, "name": "57ebc70fca3eda6561f14993e06622c2", "rental_uris": {"android": "https://dc.lft.to/lastmile_qr_scan", "ios": "https://dc.lft.to/lastmile_qr_scan"}, "lat": 38.906687833333336, "bike_id": "57ebc70fca3eda6561f14993e06622c2", "is_disabled": 0, "lon": -77.0270255, "is_reserved": 0, "fusion_lat": 0.0, "type": "electric_scooter"}, {"fusion_lon": 0.0, "name": "66fc164de2f7fdf12d0bdce32606b42b", "rental_uris": {"android": "https://dc.lft.to/lastmile_qr_scan", "ios": "https://dc.lft.to/lastmile_qr_scan"}, "lat": 38.915601333333335, "bike_id": "66fc164de2f7fdf12d0bdce32606b42b", "is_disabled": 0, "lon": -77.06786633333333, "is_reserved": 0, "fusion_lat": 0.0, "type": "electric_scooter"}, {"fusion_lon": 0.0, "name": "285ef0ee22348eb93d805213327ac68e", "rental_uris": {"android": "https://dc.lft.to/lastmile_qr_scan", "ios": "https://dc.lft.to/lastmile_qr_scan"}, "lat": 38.91144283333333, "bike_id": "285ef0ee22348eb93d805213327ac68e", "is_disabled": 0, "lon": -77.04674566666667, "is_reserved": 0, "fusion_lat": 0.0, "type": "electric_scooter"}, {"fusion_lon": 0.0, "name": "a33e2aa98672f717b0ec6a534c954e81", "rental_uris": {"android": "https://dc.lft.to/lastmile_qr_scan", "ios": "https://dc.lft.to/lastmile_qr_scan"}, "lat": 38.906167333333336, "bike_id": "a33e2aa98672f717b0ec6a534c954e81", "is_disabled": 0, "lon": -77.07029083333333, "is_reserved": 0, "fusion_lat": 0.0, "type": "electric_scooter"}, {"fusion_lon": 0.0, "name": "ff1d9155223604f6e418a60914c23a07", "rental_uris": {"android": "https://dc.lft.to/lastmile_qr_scan", "ios": "https://dc.lft.to/lastmile_qr_scan"}, "lat": 38.92825116666667, "bike_id": "ff1d9155223604f6e418a60914c23a07", "is_disabled": 0, "lon": -77.02724433333333, "is_reserved": 0, "fusion_lat": 0.0, "type": "electric_scooter"}, {"fusion_lon": 0.0, "name": "0863e14d3cae7f04614801affa3f391a", "rental_uris": {"android": "https://dc.lft.to/lastmile_qr_scan", "ios": "https://dc.lft.to/lastmile_qr_scan"}, "lat": 38.94155633333333, "bike_id": "0863e14d3cae7f04614801affa3f391a", "is_disabled": 0, "lon": -77.00196033333333, "is_reserved": 0, "fusion_lat": 0.0, "type": "electric_bike"}, {"fusion_lon": 0.0, "name": "455dbaa2fe2a7505e6e7f6978f05a4ba", "rental_uris": {"android": "https://dc.lft.to/lastmile_qr_scan", "ios": "https://dc.lft.to/lastmile_qr_scan"}, "lat": 38.87312416666666, "bike_id": "455dbaa2fe2a7505e6e7f6978f05a4ba", "is_disabled": 0, "lon": -77.01386916666667, "is_reserved": 0, "fusion_lat": 0.0, "type": "electric_scooter"}, {"fusion_lon": 0.0, "name": "ae643b0a7a36d13e248f9673299e8009", "rental_uris": {"android": "https://dc.lft.to/lastmile_qr_scan", "ios": "https://dc.lft.to/lastmile_qr_scan"}, "lat": 38.92613683333333, "bike_id": "ae643b0a7a36d13e248f9673299e8009", "is_disabled": 0, "lon": -77.0216315, "is_reserved": 0, "fusion_lat": 0.0, "type": "electric_scooter"}, {"fusion_lon": 0.0, "name": "90b6671fc8110106eddbe037882d2ec3", "rental_uris": {"android": "https://dc.lft.to/lastmile_qr_scan", "ios": "https://dc.lft.to/lastmile_qr_scan"}, "lat": 38.907295500000004, "bike_id": "90b6671fc8110106eddbe037882d2ec3", "is_disabled": 0, "lon": -77.03363666666667, "is_reserved": 0, "fusion_lat": 0.0, "type": "electric_bike"}, {"fusion_lon": 0.0, "name": "210fa2367eabb29c6104be390532475a", "rental_uris": {"android": "https://dc.lft.to/lastmile_qr_scan", "ios": "https://dc.lft.to/lastmile_qr_scan"}, "lat": 38.90768816666667, "bike_id": "210fa2367eabb29c6104be390532475a", "is_disabled": 0, "lon": -77.032212, "is_reserved": 0, "fusion_lat": 0.0, "type": "electric_scooter"}, {"fusion_lon": 0.0, "name": "4a03ade81e9c0329ac2e234e86198b6c", "rental_uris": {"android": "https://dc.lft.to/lastmile_qr_scan", "ios": "https://dc.lft.to/lastmile_qr_scan"}, "lat": 38.8967755, "bike_id": "4a03ade81e9c0329ac2e234e86198b6c", "is_disabled": 0, "lon": -77.00516016666667, "is_reserved": 0, "fusion_lat": 0.0, "type": "electric_scooter"}, {"fusion_lon": 0.0, "name": "28da4cbc65811d945eadbdc6648e4619", "rental_uris": {"android": "https://dc.lft.to/lastmile_qr_scan", "ios": "https://dc.lft.to/lastmile_qr_scan"}, "lat": 38.91994533333333, "bike_id": "28da4cbc65811d945eadbdc6648e4619", "is_disabled": 0, "lon": -77.03870983333333, "is_reserved": 0, "fusion_lat": 0.0, "type": "electric_scooter"}, {"fusion_lon": 0.0, "name": "fb3476ba2674c0a3772d9221be7183a1", "rental_uris": {"android": "https://dc.lft.to/lastmile_qr_scan", "ios": "https://dc.lft.to/lastmile_qr_scan"}, "lat": 38.88073383333333, "bike_id": "fb3476ba2674c0a3772d9221be7183a1", "is_disabled": 0, "lon": -77.03717366666666, "is_reserved": 0, "fusion_lat": 0.0, "type": "electric_scooter"}, {"fusion_lon": 0.0, "name": "effd40b369d512113839b81bbe6ece68", "rental_uris": {"android": "https://dc.lft.to/lastmile_qr_scan", "ios": "https://dc.lft.to/lastmile_qr_scan"}, "lat": 38.965666166666665, "bike_id": "effd40b369d512113839b81bbe6ece68", "is_disabled": 0, "lon": -77.02772283333333, "is_reserved": 0, "fusion_lat": 0.0, "type": "electric_scooter"}, {"fusion_lon": 0.0, "name": "65fc0a2d77e09992e9ea66b65971b4ba", "rental_uris": {"android": "https://dc.lft.to/lastmile_qr_scan", "ios": "https://dc.lft.to/lastmile_qr_scan"}, "lat": 38.89626783333333, "bike_id": "65fc0a2d77e09992e9ea66b65971b4ba", "is_disabled": 0, "lon": -76.929762, "is_reserved": 0, "fusion_lat": 0.0, "type": "electric_scooter"}, {"fusion_lon": 0.0, "name": "5034f9d4c9ffe05a84e4c3ec7704fc46", "rental_uris": {"android": "https://dc.lft.to/lastmile_qr_scan", "ios": "https://dc.lft.to/lastmile_qr_scan"}, "lat": 38.924982666666665, "bike_id": "5034f9d4c9ffe05a84e4c3ec7704fc46", "is_disabled": 0, "lon": -77.02153533333333, "is_reserved": 0, "fusion_lat": 0.0, "type": "electric_scooter"}, {"fusion_lon": 0.0, "name": "7a9c33bfe92d8886c09a8494378d47a6", "rental_uris": {"android": "https://dc.lft.to/lastmile_qr_scan", "ios": "https://dc.lft.to/lastmile_qr_scan"}, "lat": 38.90199416666667, "bike_id": "7a9c33bfe92d8886c09a8494378d47a6", "is_disabled": 0, "lon": -77.0611675, "is_reserved": 0, "fusion_lat": 0.0, "type": "electric_scooter"}, {"fusion_lon": 0.0, "name": "a4de146bdd2e2b96096957844707e48b", "rental_uris": {"android": "https://dc.lft.to/lastmile_qr_scan", "ios": "https://dc.lft.to/lastmile_qr_scan"}, "lat": 38.8972785, "bike_id": "a4de146bdd2e2b96096957844707e48b", "is_disabled": 0, "lon": -77.02764666666667, "is_reserved": 0, "fusion_lat": 0.0, "type": "electric_scooter"}, {"fusion_lon": 0.0, "name": "644be2d41840c1dfd8f553a98e0a7bd4", "rental_uris": {"android": "https://dc.lft.to/lastmile_qr_scan", "ios": "https://dc.lft.to/lastmile_qr_scan"}, "lat": 38.9018075, "bike_id": "644be2d41840c1dfd8f553a98e0a7bd4", "is_disabled": 0, "lon": -76.98832433333334, "is_reserved": 0, "fusion_lat": 0.0, "type": "electric_scooter"}, {"fusion_lon": 0.0, "name": "9f35e3fbf05ba3c8e5851b6ed4e26ed4", "rental_uris": {"android": "https://dc.lft.to/lastmile_qr_scan", "ios": "https://dc.lft.to/lastmile_qr_scan"}, "lat": 38.89181683333334, "bike_id": "9f35e3fbf05ba3c8e5851b6ed4e26ed4", "is_disabled": 0, "lon": -76.93597316666667, "is_reserved": 0, "fusion_lat": 0.0, "type": "electric_scooter"}, {"fusion_lon": 0.0, "name": "2ac6719024d6cd5bdbda0377f6411395", "rental_uris": {"android": "https://dc.lft.to/lastmile_qr_scan", "ios": "https://dc.lft.to/lastmile_qr_scan"}, "lat": 38.922349, "bike_id": "2ac6719024d6cd5bdbda0377f6411395", "is_disabled": 0, "lon": -76.97532483333333, "is_reserved": 0, "fusion_lat": 0.0, "type": "electric_scooter"}, {"fusion_lon": 0.0, "name": "8f486091c233cdd96a7d804e0026384c", "rental_uris": {"android": "https://dc.lft.to/lastmile_qr_scan", "ios": "https://dc.lft.to/lastmile_qr_scan"}, "lat": 38.928391, "bike_id": "8f486091c233cdd96a7d804e0026384c", "is_disabled": 0, "lon": -77.01399683333334, "is_reserved": 0, "fusion_lat": 0.0, "type": "electric_scooter"}, {"fusion_lon": 0.0, "name": "e5a7a18b66053800346ad9bd137469af", "rental_uris": {"android": "https://dc.lft.to/lastmile_qr_scan", "ios": "https://dc.lft.to/lastmile_qr_scan"}, "lat": 38.9118205, "bike_id": "e5a7a18b66053800346ad9bd137469af", "is_disabled": 0, "lon": -77.0609315, "is_reserved": 0, "fusion_lat": 0.0, "type": "electric_scooter"}, {"fusion_lon": 0.0, "name": "c6195bd2d3dd3cf79a82725a40de6ae9", "rental_uris": {"android": "https://dc.lft.to/lastmile_qr_scan", "ios": "https://dc.lft.to/lastmile_qr_scan"}, "lat": 38.92416733333334, "bike_id": "c6195bd2d3dd3cf79a82725a40de6ae9", "is_disabled": 0, "lon": -77.019441, "is_reserved": 0, "fusion_lat": 0.0, "type": "electric_scooter"}, {"fusion_lon": 0.0, "name": "b6e161a501cac280fd43d841d17e26cb", "rental_uris": {"android": "https://dc.lft.to/lastmile_qr_scan", "ios": "https://dc.lft.to/lastmile_qr_scan"}, "lat": 38.91008566666667, "bike_id": "b6e161a501cac280fd43d841d17e26cb", "is_disabled": 0, "lon": -77.020927, "is_reserved": 0, "fusion_lat": 0.0, "type": "electric_scooter"}, {"fusion_lon": 0.0, "name": "5f4823c725cf5b3435e4da8bf84a53cf", "rental_uris": {"android": "https://dc.lft.to/lastmile_qr_scan", "ios": "https://dc.lft.to/lastmile_qr_scan"}, "lat": 38.906955833333335, "bike_id": "5f4823c725cf5b3435e4da8bf84a53cf", "is_disabled": 0, "lon": -76.9870595, "is_reserved": 0, "fusion_lat": 0.0, "type": "electric_scooter"}, {"fusion_lon": 0.0, "name": "f2c020f80aaa609df149ac329a11511f", "rental_uris": {"android": "https://dc.lft.to/lastmile_qr_scan", "ios": "https://dc.lft.to/lastmile_qr_scan"}, "lat": 38.913793, "bike_id": "f2c020f80aaa609df149ac329a11511f", "is_disabled": 0, "lon": -77.04672466666666, "is_reserved": 0, "fusion_lat": 0.0, "type": "electric_scooter"}, {"fusion_lon": 0.0, "name": "7c7000b27634f44f79daf5327dda07b7", "rental_uris": {"android": "https://dc.lft.to/lastmile_qr_scan", "ios": "https://dc.lft.to/lastmile_qr_scan"}, "lat": 38.897695666666664, "bike_id": "7c7000b27634f44f79daf5327dda07b7", "is_disabled": 0, "lon": -77.00988, "is_reserved": 0, "fusion_lat": 0.0, "type": "electric_scooter"}, {"fusion_lon": 0.0, "name": "13e45fc96456fdc976ff7c996e00cd16", "rental_uris": {"android": "https://dc.lft.to/lastmile_qr_scan", "ios": "https://dc.lft.to/lastmile_qr_scan"}, "lat": 38.880236333333336, "bike_id": "13e45fc96456fdc976ff7c996e00cd16", "is_disabled": 0, "lon": -76.943199, "is_reserved": 0, "fusion_lat": 0.0, "type": "electric_scooter"}, {"fusion_lon": 0.0, "name": "7c93b2f0fc2b5353dd21c855298958c1", "rental_uris": {"android": "https://dc.lft.to/lastmile_qr_scan", "ios": "https://dc.lft.to/lastmile_qr_scan"}, "lat": 38.92260316666667, "bike_id": "7c93b2f0fc2b5353dd21c855298958c1", "is_disabled": 0, "lon": -77.02974316666666, "is_reserved": 0, "fusion_lat": 0.0, "type": "electric_scooter"}, {"fusion_lon": 0.0, "name": "c92d36634ce130110b14bd282c613841", "rental_uris": {"android": "https://dc.lft.to/lastmile_qr_scan", "ios": "https://dc.lft.to/lastmile_qr_scan"}, "lat": 38.89680716666667, "bike_id": "c92d36634ce130110b14bd282c613841", "is_disabled": 0, "lon": -76.93667883333333, "is_reserved": 0, "fusion_lat": 0.0, "type": "electric_scooter"}, {"fusion_lon": 0.0, "name": "c06e38e5e4553d366a323753006f4a77", "rental_uris": {"android": "https://dc.lft.to/lastmile_qr_scan", "ios": "https://dc.lft.to/lastmile_qr_scan"}, "lat": 38.90016633333333, "bike_id": "c06e38e5e4553d366a323753006f4a77", "is_disabled": 0, "lon": -77.02392933333333, "is_reserved": 0, "fusion_lat": 0.0, "type": "electric_scooter"}, {"fusion_lon": 0.0, "name": "50cb4ee013d524336ff66fe55241b357", "rental_uris": {"android": "https://dc.lft.to/lastmile_qr_scan", "ios": "https://dc.lft.to/lastmile_qr_scan"}, "lat": 38.911312833333334, "bike_id": "50cb4ee013d524336ff66fe55241b357", "is_disabled": 0, "lon": -77.04423816666667, "is_reserved": 0, "fusion_lat": 0.0, "type": "electric_scooter"}, {"fusion_lon": 0.0, "name": "0f2495864ab5c7a9ace3ab1a49a07336", "rental_uris": {"android": "https://dc.lft.to/lastmile_qr_scan", "ios": "https://dc.lft.to/lastmile_qr_scan"}, "lat": 38.92413, "bike_id": "0f2495864ab5c7a9ace3ab1a49a07336", "is_disabled": 0, "lon": -76.99596583333333, "is_reserved": 0, "fusion_lat": 0.0, "type": "electric_scooter"}, {"fusion_lon": 0.0, "name": "709633d48840a029d45eccfab387bd79", "rental_uris": {"android": "https://dc.lft.to/lastmile_qr_scan", "ios": "https://dc.lft.to/lastmile_qr_scan"}, "lat": 38.86570716666667, "bike_id": "709633d48840a029d45eccfab387bd79", "is_disabled": 0, "lon": -76.9785565, "is_reserved": 0, "fusion_lat": 0.0, "type": "electric_scooter"}, {"fusion_lon": 0.0, "name": "cf5a0dd4b45d1822637c3b155bc5e0cd", "rental_uris": {"android": "https://dc.lft.to/lastmile_qr_scan", "ios": "https://dc.lft.to/lastmile_qr_scan"}, "lat": 38.91559316666667, "bike_id": "cf5a0dd4b45d1822637c3b155bc5e0cd", "is_disabled": 0, "lon": -77.0071865, "is_reserved": 0, "fusion_lat": 0.0, "type": "electric_scooter"}, {"fusion_lon": 0.0, "name": "8592b7bf2862f77af8e803d57096ab89", "rental_uris": {"android": "https://dc.lft.to/lastmile_qr_scan", "ios": "https://dc.lft.to/lastmile_qr_scan"}, "lat": 38.918762, "bike_id": "8592b7bf2862f77af8e803d57096ab89", "is_disabled": 0, "lon": -77.02749633333333, "is_reserved": 0, "fusion_lat": 0.0, "type": "electric_scooter"}, {"fusion_lon": 0.0, "name": "eef3e64eef51deb8835452c9056b30f9", "rental_uris": {"android": "https://dc.lft.to/lastmile_qr_scan", "ios": "https://dc.lft.to/lastmile_qr_scan"}, "lat": 38.803800333333335, "bike_id": "eef3e64eef51deb8835452c9056b30f9", "is_disabled": 0, "lon": -76.98813983333334, "is_reserved": 0, "fusion_lat": 0.0, "type": "electric_bike"}, {"fusion_lon": 0.0, "name": "db135eaf316c04e56e6b64483399202d", "rental_uris": {"android": "https://dc.lft.to/lastmile_qr_scan", "ios": "https://dc.lft.to/lastmile_qr_scan"}, "lat": 38.90369866666666, "bike_id": "db135eaf316c04e56e6b64483399202d", "is_disabled": 0, "lon": -77.00574883333333, "is_reserved": 0, "fusion_lat": 0.0, "type": "electric_scooter"}, {"fusion_lon": 0.0, "name": "ece88d1cf59901b391a647b3be2eb060", "rental_uris": {"android": "https://dc.lft.to/lastmile_qr_scan", "ios": "https://dc.lft.to/lastmile_qr_scan"}, "lat": 38.87683116666667, "bike_id": "ece88d1cf59901b391a647b3be2eb060", "is_disabled": 0, "lon": -77.00069733333333, "is_reserved": 0, "fusion_lat": 0.0, "type": "electric_scooter"}, {"fusion_lon": 0.0, "name": "6d4aebef70c586bb3aea0fedf7b5747f", "rental_uris": {"android": "https://dc.lft.to/lastmile_qr_scan", "ios": "https://dc.lft.to/lastmile_qr_scan"}, "lat": 38.87573583333333, "bike_id": "6d4aebef70c586bb3aea0fedf7b5747f", "is_disabled": 0, "lon": -77.00571683333334, "is_reserved": 0, "fusion_lat": 0.0, "type": "electric_scooter"}, {"fusion_lon": 0.0, "name": "d1e42b37e4a416c919f1194d51b03f79", "rental_uris": {"android": "https://dc.lft.to/lastmile_qr_scan", "ios": "https://dc.lft.to/lastmile_qr_scan"}, "lat": 38.884724, "bike_id": "d1e42b37e4a416c919f1194d51b03f79", "is_disabled": 0, "lon": -77.0197495, "is_reserved": 0, "fusion_lat": 0.0, "type": "electric_scooter"}, {"fusion_lon": 0.0, "name": "3556d1bcec05dd69a3289ef182432eda", "rental_uris": {"android": "https://dc.lft.to/lastmile_qr_scan", "ios": "https://dc.lft.to/lastmile_qr_scan"}, "lat": 38.928504333333336, "bike_id": "3556d1bcec05dd69a3289ef182432eda", "is_disabled": 0, "lon": -77.05428316666666, "is_reserved": 0, "fusion_lat": 0.0, "type": "electric_scooter"}, {"fusion_lon": 0.0, "name": "e302a9e48214972093ec084be80e1611", "rental_uris": {"android": "https://dc.lft.to/lastmile_qr_scan", "ios": "https://dc.lft.to/lastmile_qr_scan"}, "lat": 38.9072375, "bike_id": "e302a9e48214972093ec084be80e1611", "is_disabled": 0, "lon": -77.02417616666666, "is_reserved": 0, "fusion_lat": 0.0, "type": "electric_scooter"}, {"fusion_lon": 0.0, "name": "80397572bc95ab27c5bfcf06d7cc8084", "rental_uris": {"android": "https://dc.lft.to/lastmile_qr_scan", "ios": "https://dc.lft.to/lastmile_qr_scan"}, "lat": 38.8329515, "bike_id": "80397572bc95ab27c5bfcf06d7cc8084", "is_disabled": 0, "lon": -77.08409683333333, "is_reserved": 0, "fusion_lat": 0.0, "type": "electric_bike"}, {"fusion_lon": 0.0, "name": "2ae2d855c054e363ada1f0af4c13f451", "rental_uris": {"android": "https://dc.lft.to/lastmile_qr_scan", "ios": "https://dc.lft.to/lastmile_qr_scan"}, "lat": 38.9439845, "bike_id": "2ae2d855c054e363ada1f0af4c13f451", "is_disabled": 0, "lon": -77.06368366666666, "is_reserved": 0, "fusion_lat": 0.0, "type": "electric_scooter"}, {"fusion_lon": 0.0, "name": "255bd55c918823790ead69ee9f032831", "rental_uris": {"android": "https://dc.lft.to/lastmile_qr_scan", "ios": "https://dc.lft.to/lastmile_qr_scan"}, "lat": 38.884404, "bike_id": "255bd55c918823790ead69ee9f032831", "is_disabled": 0, "lon": -76.95762216666667, "is_reserved": 0, "fusion_lat": 0.0, "type": "electric_scooter"}, {"fusion_lon": 0.0, "name": "de4d40bc6efb22079c219795f0ba8cdd", "rental_uris": {"android": "https://dc.lft.to/lastmile_qr_scan", "ios": "https://dc.lft.to/lastmile_qr_scan"}, "lat": 38.89479083333333, "bike_id": "de4d40bc6efb22079c219795f0ba8cdd", "is_disabled": 0, "lon": -76.99516216666666, "is_reserved": 0, "fusion_lat": 0.0, "type": "electric_scooter"}, {"fusion_lon": 0.0, "name": "81c145ffeadf5d0a3f1918b140a67a17", "rental_uris": {"android": "https://dc.lft.to/lastmile_qr_scan", "ios": "https://dc.lft.to/lastmile_qr_scan"}, "lat": 38.919295166666664, "bike_id": "81c145ffeadf5d0a3f1918b140a67a17", "is_disabled": 0, "lon": -77.01771383333333, "is_reserved": 0, "fusion_lat": 0.0, "type": "electric_scooter"}, {"fusion_lon": 0.0, "name": "cf404f2264fe01468f81a00b690770f8", "rental_uris": {"android": "https://dc.lft.to/lastmile_qr_scan", "ios": "https://dc.lft.to/lastmile_qr_scan"}, "lat": 38.91383666666667, "bike_id": "cf404f2264fe01468f81a00b690770f8", "is_disabled": 0, "lon": -77.04606066666666, "is_reserved": 0, "fusion_lat": 0.0, "type": "electric_scooter"}, {"fusion_lon": 0.0, "name": "bfc525acc59cb88e4ca0e7245bfa5d48", "rental_uris": {"android": "https://dc.lft.to/lastmile_qr_scan", "ios": "https://dc.lft.to/lastmile_qr_scan"}, "lat": 38.90625466666667, "bike_id": "bfc525acc59cb88e4ca0e7245bfa5d48", "is_disabled": 0, "lon": -77.02601316666667, "is_reserved": 0, "fusion_lat": 0.0, "type": "electric_scooter"}, {"fusion_lon": 0.0, "name": "349f6446177afc6aaf9ae858f9c05d6f", "rental_uris": {"android": "https://dc.lft.to/lastmile_qr_scan", "ios": "https://dc.lft.to/lastmile_qr_scan"}, "lat": 38.9156505, "bike_id": "349f6446177afc6aaf9ae858f9c05d6f", "is_disabled": 0, "lon": -77.02387766666666, "is_reserved": 0, "fusion_lat": 0.0, "type": "electric_scooter"}, {"fusion_lon": 0.0, "name": "2dd082977afce29dc2763768971e0e96", "rental_uris": {"android": "https://dc.lft.to/lastmile_qr_scan", "ios": "https://dc.lft.to/lastmile_qr_scan"}, "lat": 38.919230666666664, "bike_id": "2dd082977afce29dc2763768971e0e96", "is_disabled": 0, "lon": -77.07936383333333, "is_reserved": 0, "fusion_lat": 0.0, "type": "electric_scooter"}, {"fusion_lon": 0.0, "name": "98dc8bf9f2c26f1941ae9e2a6d0c3964", "rental_uris": {"android": "https://dc.lft.to/lastmile_qr_scan", "ios": "https://dc.lft.to/lastmile_qr_scan"}, "lat": 38.899227833333335, "bike_id": "98dc8bf9f2c26f1941ae9e2a6d0c3964", "is_disabled": 0, "lon": -77.024662, "is_reserved": 0, "fusion_lat": 0.0, "type": "electric_scooter"}, {"fusion_lon": 0.0, "name": "7ec0dc85cc2ea82ef230e8dee9935d4b", "rental_uris": {"android": "https://dc.lft.to/lastmile_qr_scan", "ios": "https://dc.lft.to/lastmile_qr_scan"}, "lat": 38.874799333333335, "bike_id": "7ec0dc85cc2ea82ef230e8dee9935d4b", "is_disabled": 0, "lon": -76.9652005, "is_reserved": 0, "fusion_lat": 0.0, "type": "electric_bike"}, {"fusion_lon": 0.0, "name": "9e78db874470ec32ee866e58c1fe89f4", "rental_uris": {"android": "https://dc.lft.to/lastmile_qr_scan", "ios": "https://dc.lft.to/lastmile_qr_scan"}, "lat": 38.935355666666666, "bike_id": "9e78db874470ec32ee866e58c1fe89f4", "is_disabled": 0, "lon": -77.02347133333333, "is_reserved": 0, "fusion_lat": 0.0, "type": "electric_scooter"}, {"fusion_lon": 0.0, "name": "de6502333a555a5718b56e6041b23af8", "rental_uris": {"android": "https://dc.lft.to/lastmile_qr_scan", "ios": "https://dc.lft.to/lastmile_qr_scan"}, "lat": 38.91322983333333, "bike_id": "de6502333a555a5718b56e6041b23af8", "is_disabled": 0, "lon": -77.0453405, "is_reserved": 0, "fusion_lat": 0.0, "type": "electric_scooter"}, {"fusion_lon": 0.0, "name": "7ca9d50e44bde4b1650db6b92aea1e1b", "rental_uris": {"android": "https://dc.lft.to/lastmile_qr_scan", "ios": "https://dc.lft.to/lastmile_qr_scan"}, "lat": 38.93312383333333, "bike_id": "7ca9d50e44bde4b1650db6b92aea1e1b", "is_disabled": 0, "lon": -77.03620016666666, "is_reserved": 0, "fusion_lat": 0.0, "type": "electric_scooter"}, {"fusion_lon": 0.0, "name": "cd634ef92443a439240943763cefb140", "rental_uris": {"android": "https://dc.lft.to/lastmile_qr_scan", "ios": "https://dc.lft.to/lastmile_qr_scan"}, "lat": 38.90558683333333, "bike_id": "cd634ef92443a439240943763cefb140", "is_disabled": 0, "lon": -77.028194, "is_reserved": 0, "fusion_lat": 0.0, "type": "electric_scooter"}, {"fusion_lon": 0.0, "name": "5c4f027f9c0076104cce7786526a1d43", "rental_uris": {"android": "https://dc.lft.to/lastmile_qr_scan", "ios": "https://dc.lft.to/lastmile_qr_scan"}, "lat": 38.88232933333333, "bike_id": "5c4f027f9c0076104cce7786526a1d43", "is_disabled": 0, "lon": -76.9949235, "is_reserved": 0, "fusion_lat": 0.0, "type": "electric_scooter"}, {"fusion_lon": 0.0, "name": "98b646959814a1e87f6c2a95304e0ab0", "rental_uris": {"android": "https://dc.lft.to/lastmile_qr_scan", "ios": "https://dc.lft.to/lastmile_qr_scan"}, "lat": 38.960308166666664, "bike_id": "98b646959814a1e87f6c2a95304e0ab0", "is_disabled": 0, "lon": -77.02425766666667, "is_reserved": 0, "fusion_lat": 0.0, "type": "electric_scooter"}, {"fusion_lon": 0.0, "name": "ead924ed6cbddacd1150da8637fe8e28", "rental_uris": {"android": "https://dc.lft.to/lastmile_qr_scan", "ios": "https://dc.lft.to/lastmile_qr_scan"}, "lat": 38.91566983333333, "bike_id": "ead924ed6cbddacd1150da8637fe8e28", "is_disabled": 0, "lon": -77.04493266666667, "is_reserved": 0, "fusion_lat": 0.0, "type": "electric_scooter"}, {"fusion_lon": 0.0, "name": "6cdfa03cc48fd2337bf1c43518ec83db", "rental_uris": {"android": "https://dc.lft.to/lastmile_qr_scan", "ios": "https://dc.lft.to/lastmile_qr_scan"}, "lat": 38.90724, "bike_id": "6cdfa03cc48fd2337bf1c43518ec83db", "is_disabled": 0, "lon": -77.00353366666667, "is_reserved": 0, "fusion_lat": 0.0, "type": "electric_bike"}, {"fusion_lon": 0.0, "name": "b212a525e168b8cb768ca138da250f1c", "rental_uris": {"android": "https://dc.lft.to/lastmile_qr_scan", "ios": "https://dc.lft.to/lastmile_qr_scan"}, "lat": 38.876954833333336, "bike_id": "b212a525e168b8cb768ca138da250f1c", "is_disabled": 0, "lon": -77.00739866666666, "is_reserved": 0, "fusion_lat": 0.0, "type": "electric_scooter"}, {"fusion_lon": 0.0, "name": "c59c780a0ef7a2937a59e6d62e9e23f1", "rental_uris": {"android": "https://dc.lft.to/lastmile_qr_scan", "ios": "https://dc.lft.to/lastmile_qr_scan"}, "lat": 38.91564866666667, "bike_id": "c59c780a0ef7a2937a59e6d62e9e23f1", "is_disabled": 0, "lon": -77.030299, "is_reserved": 0, "fusion_lat": 0.0, "type": "electric_scooter"}, {"fusion_lon": 0.0, "name": "229e0bbe7e03ad3c2fee992c0f9c41ef", "rental_uris": {"android": "https://dc.lft.to/lastmile_qr_scan", "ios": "https://dc.lft.to/lastmile_qr_scan"}, "lat": 38.86219166666667, "bike_id": "229e0bbe7e03ad3c2fee992c0f9c41ef", "is_disabled": 0, "lon": -76.97915233333333, "is_reserved": 0, "fusion_lat": 0.0, "type": "electric_scooter"}, {"fusion_lon": 0.0, "name": "6ce1f1359a325a3fde6e1b79bb542824", "rental_uris": {"android": "https://dc.lft.to/lastmile_qr_scan", "ios": "https://dc.lft.to/lastmile_qr_scan"}, "lat": 38.886214833333334, "bike_id": "6ce1f1359a325a3fde6e1b79bb542824", "is_disabled": 0, "lon": -76.99575633333333, "is_reserved": 0, "fusion_lat": 0.0, "type": "electric_scooter"}, {"fusion_lon": 0.0, "name": "97d0fa49952f8486fe1dc557dac6bf10", "rental_uris": {"android": "https://dc.lft.to/lastmile_qr_scan", "ios": "https://dc.lft.to/lastmile_qr_scan"}, "lat": 38.922287833333336, "bike_id": "97d0fa49952f8486fe1dc557dac6bf10", "is_disabled": 0, "lon": -77.0430465, "is_reserved": 0, "fusion_lat": 0.0, "type": "electric_scooter"}, {"fusion_lon": 0.0, "name": "9ae75ee287c7e44fad05ba3864a93550", "rental_uris": {"android": "https://dc.lft.to/lastmile_qr_scan", "ios": "https://dc.lft.to/lastmile_qr_scan"}, "lat": 38.909534, "bike_id": "9ae75ee287c7e44fad05ba3864a93550", "is_disabled": 0, "lon": -77.03422466666666, "is_reserved": 0, "fusion_lat": 0.0, "type": "electric_scooter"}, {"fusion_lon": 0.0, "name": "3381c48f823ac284845c2c030c236b15", "rental_uris": {"android": "https://dc.lft.to/lastmile_qr_scan", "ios": "https://dc.lft.to/lastmile_qr_scan"}, "lat": 38.9165995, "bike_id": "3381c48f823ac284845c2c030c236b15", "is_disabled": 0, "lon": -77.043808, "is_reserved": 0, "fusion_lat": 0.0, "type": "electric_scooter"}, {"fusion_lon": 0.0, "name": "85ee8a5746252b47022a78d97764e6b5", "rental_uris": {"android": "https://dc.lft.to/lastmile_qr_scan", "ios": "https://dc.lft.to/lastmile_qr_scan"}, "lat": 38.90778566666667, "bike_id": "85ee8a5746252b47022a78d97764e6b5", "is_disabled": 0, "lon": -77.01829033333334, "is_reserved": 0, "fusion_lat": 0.0, "type": "electric_scooter"}, {"fusion_lon": 0.0, "name": "7350cd3465a0440ac97dce64067325b5", "rental_uris": {"android": "https://dc.lft.to/lastmile_qr_scan", "ios": "https://dc.lft.to/lastmile_qr_scan"}, "lat": 38.90876683333333, "bike_id": "7350cd3465a0440ac97dce64067325b5", "is_disabled": 0, "lon": -77.0405255, "is_reserved": 0, "fusion_lat": 0.0, "type": "electric_scooter"}, {"fusion_lon": 0.0, "name": "f0f519d5951f61c192989f8b5db17808", "rental_uris": {"android": "https://dc.lft.to/lastmile_qr_scan", "ios": "https://dc.lft.to/lastmile_qr_scan"}, "lat": 38.91830066666667, "bike_id": "f0f519d5951f61c192989f8b5db17808", "is_disabled": 0, "lon": -77.053098, "is_reserved": 0, "fusion_lat": 0.0, "type": "electric_scooter"}, {"fusion_lon": 0.0, "name": "591393dbcd338f8cfa3a3927d6a512a8", "rental_uris": {"android": "https://dc.lft.to/lastmile_qr_scan", "ios": "https://dc.lft.to/lastmile_qr_scan"}, "lat": 38.874775, "bike_id": "591393dbcd338f8cfa3a3927d6a512a8", "is_disabled": 0, "lon": -77.0041175, "is_reserved": 0, "fusion_lat": 0.0, "type": "electric_scooter"}, {"fusion_lon": 0.0, "name": "4089b2c5aa2a68d57ab44e8e1fa882b6", "rental_uris": {"android": "https://dc.lft.to/lastmile_qr_scan", "ios": "https://dc.lft.to/lastmile_qr_scan"}, "lat": 38.90992133333334, "bike_id": "4089b2c5aa2a68d57ab44e8e1fa882b6", "is_disabled": 0, "lon": -77.00908783333334, "is_reserved": 0, "fusion_lat": 0.0, "type": "electric_scooter"}, {"fusion_lon": 0.0, "name": "6f45adb91ab1d80c8fce9d7610f952fd", "rental_uris": {"android": "https://dc.lft.to/lastmile_qr_scan", "ios": "https://dc.lft.to/lastmile_qr_scan"}, "lat": 38.911052833333336, "bike_id": "6f45adb91ab1d80c8fce9d7610f952fd", "is_disabled": 0, "lon": -77.06923183333333, "is_reserved": 0, "fusion_lat": 0.0, "type": "electric_scooter"}, {"fusion_lon": 0.0, "name": "875c5a36003f995139e91c4ef52fb4a5", "rental_uris": {"android": "https://dc.lft.to/lastmile_qr_scan", "ios": "https://dc.lft.to/lastmile_qr_scan"}, "lat": 38.844661, "bike_id": "875c5a36003f995139e91c4ef52fb4a5", "is_disabled": 0, "lon": -76.98746583333333, "is_reserved": 0, "fusion_lat": 0.0, "type": "electric_bike"}, {"fusion_lon": 0.0, "name": "6b134115128ff1015b0dda6560d0b748", "rental_uris": {"android": "https://dc.lft.to/lastmile_qr_scan", "ios": "https://dc.lft.to/lastmile_qr_scan"}, "lat": 38.915471833333335, "bike_id": "6b134115128ff1015b0dda6560d0b748", "is_disabled": 0, "lon": -77.03253066666667, "is_reserved": 0, "fusion_lat": 0.0, "type": "electric_scooter"}, {"fusion_lon": 0.0, "name": "476329e68702a75314e39958eb6f06e7", "rental_uris": {"android": "https://dc.lft.to/lastmile_qr_scan", "ios": "https://dc.lft.to/lastmile_qr_scan"}, "lat": 38.91567666666667, "bike_id": "476329e68702a75314e39958eb6f06e7", "is_disabled": 0, "lon": -77.03209683333333, "is_reserved": 0, "fusion_lat": 0.0, "type": "electric_scooter"}, {"fusion_lon": 0.0, "name": "51b9222957ab35d9a3c69c21c622a110", "rental_uris": {"android": "https://dc.lft.to/lastmile_qr_scan", "ios": "https://dc.lft.to/lastmile_qr_scan"}, "lat": 38.920919833333336, "bike_id": "51b9222957ab35d9a3c69c21c622a110", "is_disabled": 0, "lon": -77.02524066666666, "is_reserved": 0, "fusion_lat": 0.0, "type": "electric_scooter"}, {"fusion_lon": 0.0, "name": "62629a4f42bfc29aa4ce45547b91d7a7", "rental_uris": {"android": "https://dc.lft.to/lastmile_qr_scan", "ios": "https://dc.lft.to/lastmile_qr_scan"}, "lat": 38.924905833333334, "bike_id": "62629a4f42bfc29aa4ce45547b91d7a7", "is_disabled": 0, "lon": -77.0392655, "is_reserved": 0, "fusion_lat": 0.0, "type": "electric_scooter"}, {"fusion_lon": 0.0, "name": "36004d00f0fa86fb4823993a86a8b5e1", "rental_uris": {"android": "https://dc.lft.to/lastmile_qr_scan", "ios": "https://dc.lft.to/lastmile_qr_scan"}, "lat": 38.83809466666666, "bike_id": "36004d00f0fa86fb4823993a86a8b5e1", "is_disabled": 0, "lon": -77.0952195, "is_reserved": 0, "fusion_lat": 0.0, "type": "electric_bike"}, {"fusion_lon": 0.0, "name": "dea9152e5d636e1743eca9fd6d3cf14b", "rental_uris": {"android": "https://dc.lft.to/lastmile_qr_scan", "ios": "https://dc.lft.to/lastmile_qr_scan"}, "lat": 38.895423, "bike_id": "dea9152e5d636e1743eca9fd6d3cf14b", "is_disabled": 0, "lon": -76.98332883333333, "is_reserved": 0, "fusion_lat": 0.0, "type": "electric_scooter"}, {"fusion_lon": 0.0, "name": "c9972b0d8094d44b08eb6ae5bc09204b", "rental_uris": {"android": "https://dc.lft.to/lastmile_qr_scan", "ios": "https://dc.lft.to/lastmile_qr_scan"}, "lat": 38.91326316666667, "bike_id": "c9972b0d8094d44b08eb6ae5bc09204b", "is_disabled": 0, "lon": -77.039958, "is_reserved": 0, "fusion_lat": 0.0, "type": "electric_scooter"}, {"fusion_lon": 0.0, "name": "504e2ecce3f5b178b67c3dda01675b47", "rental_uris": {"android": "https://dc.lft.to/lastmile_qr_scan", "ios": "https://dc.lft.to/lastmile_qr_scan"}, "lat": 38.892304333333335, "bike_id": "504e2ecce3f5b178b67c3dda01675b47", "is_disabled": 0, "lon": -77.02383633333334, "is_reserved": 0, "fusion_lat": 0.0, "type": "electric_scooter"}, {"fusion_lon": 0.0, "name": "744a5dbca6a544e4849e28eb87c4f4c6", "rental_uris": {"android": "https://dc.lft.to/lastmile_qr_scan", "ios": "https://dc.lft.to/lastmile_qr_scan"}, "lat": 38.89962383333334, "bike_id": "744a5dbca6a544e4849e28eb87c4f4c6", "is_disabled": 0, "lon": -77.02705583333334, "is_reserved": 0, "fusion_lat": 0.0, "type": "electric_scooter"}, {"fusion_lon": 0.0, "name": "949d4d1759ea81caabf855c2eb4ce241", "rental_uris": {"android": "https://dc.lft.to/lastmile_qr_scan", "ios": "https://dc.lft.to/lastmile_qr_scan"}, "lat": 38.94725433333333, "bike_id": "949d4d1759ea81caabf855c2eb4ce241", "is_disabled": 0, "lon": -77.03301916666666, "is_reserved": 0, "fusion_lat": 0.0, "type": "electric_scooter"}, {"fusion_lon": 0.0, "name": "de4c8a435ed40a4f1b2a4469a23f6567", "rental_uris": {"android": "https://dc.lft.to/lastmile_qr_scan", "ios": "https://dc.lft.to/lastmile_qr_scan"}, "lat": 38.928277, "bike_id": "de4c8a435ed40a4f1b2a4469a23f6567", "is_disabled": 0, "lon": -77.02107483333333, "is_reserved": 0, "fusion_lat": 0.0, "type": "electric_scooter"}, {"fusion_lon": 0.0, "name": "826548880b411886e20023e656b5b624", "rental_uris": {"android": "https://dc.lft.to/lastmile_qr_scan", "ios": "https://dc.lft.to/lastmile_qr_scan"}, "lat": 38.90561666666667, "bike_id": "826548880b411886e20023e656b5b624", "is_disabled": 0, "lon": -77.04341283333333, "is_reserved": 0, "fusion_lat": 0.0, "type": "electric_scooter"}, {"fusion_lon": 0.0, "name": "bd0001dd5748032fc179f1f4ab80f420", "rental_uris": {"android": "https://dc.lft.to/lastmile_qr_scan", "ios": "https://dc.lft.to/lastmile_qr_scan"}, "lat": 38.886678, "bike_id": "bd0001dd5748032fc179f1f4ab80f420", "is_disabled": 0, "lon": -77.03171516666667, "is_reserved": 0, "fusion_lat": 0.0, "type": "electric_scooter"}, {"fusion_lon": 0.0, "name": "6e288c8dd615d469b3aec9e768d269d2", "rental_uris": {"android": "https://dc.lft.to/lastmile_qr_scan", "ios": "https://dc.lft.to/lastmile_qr_scan"}, "lat": 38.896441833333334, "bike_id": "6e288c8dd615d469b3aec9e768d269d2", "is_disabled": 0, "lon": -76.94796033333333, "is_reserved": 0, "fusion_lat": 0.0, "type": "electric_scooter"}, {"fusion_lon": 0.0, "name": "3fff7e913ce281066df4cdfdd3e560d6", "rental_uris": {"android": "https://dc.lft.to/lastmile_qr_scan", "ios": "https://dc.lft.to/lastmile_qr_scan"}, "lat": 38.957046166666665, "bike_id": "3fff7e913ce281066df4cdfdd3e560d6", "is_disabled": 0, "lon": -77.03202483333334, "is_reserved": 0, "fusion_lat": 0.0, "type": "electric_scooter"}, {"fusion_lon": 0.0, "name": "6a7b9399fd28a681fd62c9d53ab8b384", "rental_uris": {"android": "https://dc.lft.to/lastmile_qr_scan", "ios": "https://dc.lft.to/lastmile_qr_scan"}, "lat": 38.905279, "bike_id": "6a7b9399fd28a681fd62c9d53ab8b384", "is_disabled": 0, "lon": -77.04160466666667, "is_reserved": 0, "fusion_lat": 0.0, "type": "electric_scooter"}, {"fusion_lon": 0.0, "name": "dcd09a20747cba300367feabbf2be4d3", "rental_uris": {"android": "https://dc.lft.to/lastmile_qr_scan", "ios": "https://dc.lft.to/lastmile_qr_scan"}, "lat": 38.92418516666667, "bike_id": "dcd09a20747cba300367feabbf2be4d3", "is_disabled": 0, "lon": -77.03536683333333, "is_reserved": 0, "fusion_lat": 0.0, "type": "electric_scooter"}, {"fusion_lon": 0.0, "name": "bb1562d6b0b80f69c161176f00304f69", "rental_uris": {"android": "https://dc.lft.to/lastmile_qr_scan", "ios": "https://dc.lft.to/lastmile_qr_scan"}, "lat": 38.896837833333336, "bike_id": "bb1562d6b0b80f69c161176f00304f69", "is_disabled": 0, "lon": -76.927906, "is_reserved": 0, "fusion_lat": 0.0, "type": "electric_scooter"}, {"fusion_lon": 0.0, "name": "38491b15653ca7ad3471b8820f8c8030", "rental_uris": {"android": "https://dc.lft.to/lastmile_qr_scan", "ios": "https://dc.lft.to/lastmile_qr_scan"}, "lat": 38.9534795, "bike_id": "38491b15653ca7ad3471b8820f8c8030", "is_disabled": 0, "lon": -77.00764683333334, "is_reserved": 0, "fusion_lat": 0.0, "type": "electric_scooter"}, {"fusion_lon": 0.0, "name": "81b983c18a41be5df6a20e76951d5214", "rental_uris": {"android": "https://dc.lft.to/lastmile_qr_scan", "ios": "https://dc.lft.to/lastmile_qr_scan"}, "lat": 38.83583983333333, "bike_id": "81b983c18a41be5df6a20e76951d5214", "is_disabled": 0, "lon": -76.990306, "is_reserved": 0, "fusion_lat": 0.0, "type": "electric_bike"}, {"fusion_lon": 0.0, "name": "d73d3e85bc6ecdfe4f87674c6e1ece00", "rental_uris": {"android": "https://dc.lft.to/lastmile_qr_scan", "ios": "https://dc.lft.to/lastmile_qr_scan"}, "lat": 38.9052295, "bike_id": "d73d3e85bc6ecdfe4f87674c6e1ece00", "is_disabled": 0, "lon": -77.06583283333333, "is_reserved": 0, "fusion_lat": 0.0, "type": "electric_scooter"}, {"fusion_lon": 0.0, "name": "96095c4ab603ea14d89c4311c938f367", "rental_uris": {"android": "https://dc.lft.to/lastmile_qr_scan", "ios": "https://dc.lft.to/lastmile_qr_scan"}, "lat": 38.91264866666667, "bike_id": "96095c4ab603ea14d89c4311c938f367", "is_disabled": 0, "lon": -77.03334466666666, "is_reserved": 0, "fusion_lat": 0.0, "type": "electric_scooter"}, {"fusion_lon": 0.0, "name": "0031484e297a0e83ecbaac7bafca8750", "rental_uris": {"android": "https://dc.lft.to/lastmile_qr_scan", "ios": "https://dc.lft.to/lastmile_qr_scan"}, "lat": 38.964033, "bike_id": "0031484e297a0e83ecbaac7bafca8750", "is_disabled": 0, "lon": -77.02584716666667, "is_reserved": 0, "fusion_lat": 0.0, "type": "electric_scooter"}, {"fusion_lon": 0.0, "name": "9a2dbb8d993ed2c73debea7aef134775", "rental_uris": {"android": "https://dc.lft.to/lastmile_qr_scan", "ios": "https://dc.lft.to/lastmile_qr_scan"}, "lat": 38.923396, "bike_id": "9a2dbb8d993ed2c73debea7aef134775", "is_disabled": 0, "lon": -77.05086733333333, "is_reserved": 0, "fusion_lat": 0.0, "type": "electric_scooter"}, {"fusion_lon": 0.0, "name": "a10eadf61d0a3fad2b3f5606a5481f27", "rental_uris": {"android": "https://dc.lft.to/lastmile_qr_scan", "ios": "https://dc.lft.to/lastmile_qr_scan"}, "lat": 38.91897433333333, "bike_id": "a10eadf61d0a3fad2b3f5606a5481f27", "is_disabled": 0, "lon": -77.10166733333334, "is_reserved": 0, "fusion_lat": 0.0, "type": "electric_bike"}, {"fusion_lon": 0.0, "name": "d4617ec54606e1aae64a5366d335b295", "rental_uris": {"android": "https://dc.lft.to/lastmile_qr_scan", "ios": "https://dc.lft.to/lastmile_qr_scan"}, "lat": 38.921518, "bike_id": "d4617ec54606e1aae64a5366d335b295", "is_disabled": 0, "lon": -77.03529816666666, "is_reserved": 0, "fusion_lat": 0.0, "type": "electric_scooter"}, {"fusion_lon": 0.0, "name": "18a6c90338d4abd31f5a3867d221de58", "rental_uris": {"android": "https://dc.lft.to/lastmile_qr_scan", "ios": "https://dc.lft.to/lastmile_qr_scan"}, "lat": 38.900836, "bike_id": "18a6c90338d4abd31f5a3867d221de58", "is_disabled": 0, "lon": -77.01826216666667, "is_reserved": 0, "fusion_lat": 0.0, "type": "electric_scooter"}, {"fusion_lon": 0.0, "name": "197de6474f96a2b4b5a8457363beac1e", "rental_uris": {"android": "https://dc.lft.to/lastmile_qr_scan", "ios": "https://dc.lft.to/lastmile_qr_scan"}, "lat": 38.892276, "bike_id": "197de6474f96a2b4b5a8457363beac1e", "is_disabled": 0, "lon": -77.00328016666667, "is_reserved": 0, "fusion_lat": 0.0, "type": "electric_scooter"}, {"fusion_lon": 0.0, "name": "63f9827581c0807e640d90ab42be8f31", "rental_uris": {"android": "https://dc.lft.to/lastmile_qr_scan", "ios": "https://dc.lft.to/lastmile_qr_scan"}, "lat": 38.891019, "bike_id": "63f9827581c0807e640d90ab42be8f31", "is_disabled": 0, "lon": -77.00207766666666, "is_reserved": 0, "fusion_lat": 0.0, "type": "electric_scooter"}, {"fusion_lon": 0.0, "name": "06ac6c1f524fd3927bae6f79faea4baf", "rental_uris": {"android": "https://dc.lft.to/lastmile_qr_scan", "ios": "https://dc.lft.to/lastmile_qr_scan"}, "lat": 38.92694683333333, "bike_id": "06ac6c1f524fd3927bae6f79faea4baf", "is_disabled": 0, "lon": -77.022748, "is_reserved": 0, "fusion_lat": 0.0, "type": "electric_scooter"}, {"fusion_lon": 0.0, "name": "7b1fe1575d07751fe3b3031c345f4390", "rental_uris": {"android": "https://dc.lft.to/lastmile_qr_scan", "ios": "https://dc.lft.to/lastmile_qr_scan"}, "lat": 38.91627733333333, "bike_id": "7b1fe1575d07751fe3b3031c345f4390", "is_disabled": 0, "lon": -77.045627, "is_reserved": 0, "fusion_lat": 0.0, "type": "electric_scooter"}, {"fusion_lon": 0.0, "name": "afdccffecf5bbce649a3de62a5b10442", "rental_uris": {"android": "https://dc.lft.to/lastmile_qr_scan", "ios": "https://dc.lft.to/lastmile_qr_scan"}, "lat": 38.90339516666667, "bike_id": "afdccffecf5bbce649a3de62a5b10442", "is_disabled": 0, "lon": -76.976121, "is_reserved": 0, "fusion_lat": 0.0, "type": "electric_scooter"}, {"fusion_lon": 0.0, "name": "70c3aa9a9e2996236aeacab66355874f", "rental_uris": {"android": "https://dc.lft.to/lastmile_qr_scan", "ios": "https://dc.lft.to/lastmile_qr_scan"}, "lat": 38.83932183333334, "bike_id": "70c3aa9a9e2996236aeacab66355874f", "is_disabled": 0, "lon": -77.07898333333333, "is_reserved": 0, "fusion_lat": 0.0, "type": "electric_bike"}, {"fusion_lon": 0.0, "name": "d65a7f139c1c67f9576406fa7343ac6a", "rental_uris": {"android": "https://dc.lft.to/lastmile_qr_scan", "ios": "https://dc.lft.to/lastmile_qr_scan"}, "lat": 38.8955055, "bike_id": "d65a7f139c1c67f9576406fa7343ac6a", "is_disabled": 0, "lon": -77.00914416666667, "is_reserved": 0, "fusion_lat": 0.0, "type": "electric_scooter"}, {"fusion_lon": 0.0, "name": "1b03ad3428d49c1836a541f8859386bb", "rental_uris": {"android": "https://dc.lft.to/lastmile_qr_scan", "ios": "https://dc.lft.to/lastmile_qr_scan"}, "lat": 38.91079, "bike_id": "1b03ad3428d49c1836a541f8859386bb", "is_disabled": 0, "lon": -77.04476566666666, "is_reserved": 0, "fusion_lat": 0.0, "type": "electric_scooter"}, {"fusion_lon": 0.0, "name": "41471f03df3f39b5468981140f4a0cba", "rental_uris": {"android": "https://dc.lft.to/lastmile_qr_scan", "ios": "https://dc.lft.to/lastmile_qr_scan"}, "lat": 38.89606366666667, "bike_id": "41471f03df3f39b5468981140f4a0cba", "is_disabled": 0, "lon": -77.00925383333333, "is_reserved": 0, "fusion_lat": 0.0, "type": "electric_scooter"}, {"fusion_lon": 0.0, "name": "5c50579b05c3f937bf57ebeaab268ece", "rental_uris": {"android": "https://dc.lft.to/lastmile_qr_scan", "ios": "https://dc.lft.to/lastmile_qr_scan"}, "lat": 38.93263316666667, "bike_id": "5c50579b05c3f937bf57ebeaab268ece", "is_disabled": 0, "lon": -77.03261783333333, "is_reserved": 0, "fusion_lat": 0.0, "type": "electric_scooter"}, {"fusion_lon": 0.0, "name": "a0cb4a69fef149dc3ec107ed8655256f", "rental_uris": {"android": "https://dc.lft.to/lastmile_qr_scan", "ios": "https://dc.lft.to/lastmile_qr_scan"}, "lat": 38.93822466666667, "bike_id": "a0cb4a69fef149dc3ec107ed8655256f", "is_disabled": 0, "lon": -77.1016615, "is_reserved": 0, "fusion_lat": 0.0, "type": "electric_bike"}, {"fusion_lon": 0.0, "name": "530e2ddbabbf30f0b234e36045df981f", "rental_uris": {"android": "https://dc.lft.to/lastmile_qr_scan", "ios": "https://dc.lft.to/lastmile_qr_scan"}, "lat": 38.90698483333333, "bike_id": "530e2ddbabbf30f0b234e36045df981f", "is_disabled": 0, "lon": -77.01114333333334, "is_reserved": 0, "fusion_lat": 0.0, "type": "electric_scooter"}, {"fusion_lon": 0.0, "name": "cc7dd2f3e9343b2f628af501a31f1466", "rental_uris": {"android": "https://dc.lft.to/lastmile_qr_scan", "ios": "https://dc.lft.to/lastmile_qr_scan"}, "lat": 38.892583, "bike_id": "cc7dd2f3e9343b2f628af501a31f1466", "is_disabled": 0, "lon": -77.00215816666666, "is_reserved": 0, "fusion_lat": 0.0, "type": "electric_scooter"}, {"fusion_lon": 0.0, "name": "ac4c235c365b6b6d907903b393e7a4e1", "rental_uris": {"android": "https://dc.lft.to/lastmile_qr_scan", "ios": "https://dc.lft.to/lastmile_qr_scan"}, "lat": 38.928442833333335, "bike_id": "ac4c235c365b6b6d907903b393e7a4e1", "is_disabled": 0, "lon": -77.01400516666666, "is_reserved": 0, "fusion_lat": 0.0, "type": "electric_scooter"}, {"fusion_lon": 0.0, "name": "ce1b1bfd989005690a40c8feee4cdb45", "rental_uris": {"android": "https://dc.lft.to/lastmile_qr_scan", "ios": "https://dc.lft.to/lastmile_qr_scan"}, "lat": 38.93702733333333, "bike_id": "ce1b1bfd989005690a40c8feee4cdb45", "is_disabled": 0, "lon": -77.024007, "is_reserved": 0, "fusion_lat": 0.0, "type": "electric_scooter"}, {"fusion_lon": 0.0, "name": "c8dde05998bbe4c1c913767beb13e92c", "rental_uris": {"android": "https://dc.lft.to/lastmile_qr_scan", "ios": "https://dc.lft.to/lastmile_qr_scan"}, "lat": 38.90775333333333, "bike_id": "c8dde05998bbe4c1c913767beb13e92c", "is_disabled": 0, "lon": -77.07172033333333, "is_reserved": 0, "fusion_lat": 0.0, "type": "electric_scooter"}, {"fusion_lon": 0.0, "name": "b143f8da54c8980e1e420a4eeb4d8bcb", "rental_uris": {"android": "https://dc.lft.to/lastmile_qr_scan", "ios": "https://dc.lft.to/lastmile_qr_scan"}, "lat": 38.8973225, "bike_id": "b143f8da54c8980e1e420a4eeb4d8bcb", "is_disabled": 0, "lon": -77.05527616666667, "is_reserved": 0, "fusion_lat": 0.0, "type": "electric_scooter"}, {"fusion_lon": 0.0, "name": "2f0e5d11ad7949f565345619b598624d", "rental_uris": {"android": "https://dc.lft.to/lastmile_qr_scan", "ios": "https://dc.lft.to/lastmile_qr_scan"}, "lat": 38.92238183333333, "bike_id": "2f0e5d11ad7949f565345619b598624d", "is_disabled": 0, "lon": -77.02115383333333, "is_reserved": 0, "fusion_lat": 0.0, "type": "electric_scooter"}, {"fusion_lon": 0.0, "name": "b47c8f9b0bb34c2ab39b4825bf9c4b80", "rental_uris": {"android": "https://dc.lft.to/lastmile_qr_scan", "ios": "https://dc.lft.to/lastmile_qr_scan"}, "lat": 38.85441516666667, "bike_id": "b47c8f9b0bb34c2ab39b4825bf9c4b80", "is_disabled": 0, "lon": -77.08317116666667, "is_reserved": 0, "fusion_lat": 0.0, "type": "electric_bike"}, {"fusion_lon": 0.0, "name": "9603c75101f5abfc9287f66692d781ff", "rental_uris": {"android": "https://dc.lft.to/lastmile_qr_scan", "ios": "https://dc.lft.to/lastmile_qr_scan"}, "lat": 38.89606783333333, "bike_id": "9603c75101f5abfc9287f66692d781ff", "is_disabled": 0, "lon": -77.0508135, "is_reserved": 0, "fusion_lat": 0.0, "type": "electric_scooter"}, {"fusion_lon": 0.0, "name": "95999b3cb7a98850539c90fcb1987770", "rental_uris": {"android": "https://dc.lft.to/lastmile_qr_scan", "ios": "https://dc.lft.to/lastmile_qr_scan"}, "lat": 38.868703333333336, "bike_id": "95999b3cb7a98850539c90fcb1987770", "is_disabled": 0, "lon": -76.98664066666667, "is_reserved": 0, "fusion_lat": 0.0, "type": "electric_scooter"}, {"fusion_lon": 0.0, "name": "ce9f6886a14bd28c5af2d2c1ec3e1a68", "rental_uris": {"android": "https://dc.lft.to/lastmile_qr_scan", "ios": "https://dc.lft.to/lastmile_qr_scan"}, "lat": 38.901406333333334, "bike_id": "ce9f6886a14bd28c5af2d2c1ec3e1a68", "is_disabled": 0, "lon": -77.0447925, "is_reserved": 0, "fusion_lat": 0.0, "type": "electric_scooter"}, {"fusion_lon": 0.0, "name": "532321050ba8b9f34001c2318bf33013", "rental_uris": {"android": "https://dc.lft.to/lastmile_qr_scan", "ios": "https://dc.lft.to/lastmile_qr_scan"}, "lat": 38.8770075, "bike_id": "532321050ba8b9f34001c2318bf33013", "is_disabled": 0, "lon": -77.00281866666667, "is_reserved": 0, "fusion_lat": 0.0, "type": "electric_bike"}, {"fusion_lon": 0.0, "name": "14cb40694f1c3207005f5a2b6e141f5d", "rental_uris": {"android": "https://dc.lft.to/lastmile_qr_scan", "ios": "https://dc.lft.to/lastmile_qr_scan"}, "lat": 38.899168, "bike_id": "14cb40694f1c3207005f5a2b6e141f5d", "is_disabled": 0, "lon": -77.033027, "is_reserved": 0, "fusion_lat": 0.0, "type": "electric_scooter"}, {"fusion_lon": 0.0, "name": "295000c86f3ef7fc58a16397d776a805", "rental_uris": {"android": "https://dc.lft.to/lastmile_qr_scan", "ios": "https://dc.lft.to/lastmile_qr_scan"}, "lat": 38.94259783333333, "bike_id": "295000c86f3ef7fc58a16397d776a805", "is_disabled": 0, "lon": -77.0284285, "is_reserved": 0, "fusion_lat": 0.0, "type": "electric_scooter"}, {"fusion_lon": 0.0, "name": "6f353c7d20d5f380b53322ccf1a0b337", "rental_uris": {"android": "https://dc.lft.to/lastmile_qr_scan", "ios": "https://dc.lft.to/lastmile_qr_scan"}, "lat": 38.862556833333336, "bike_id": "6f353c7d20d5f380b53322ccf1a0b337", "is_disabled": 0, "lon": -76.99552716666666, "is_reserved": 0, "fusion_lat": 0.0, "type": "electric_scooter"}, {"fusion_lon": 0.0, "name": "9ffb9744890557a425a68a33e93181db", "rental_uris": {"android": "https://dc.lft.to/lastmile_qr_scan", "ios": "https://dc.lft.to/lastmile_qr_scan"}, "lat": 38.895753166666665, "bike_id": "9ffb9744890557a425a68a33e93181db", "is_disabled": 0, "lon": -77.03183883333334, "is_reserved": 0, "fusion_lat": 0.0, "type": "electric_scooter"}, {"fusion_lon": 0.0, "name": "29520ebb12463ed46d3df9fc67c92f95", "rental_uris": {"android": "https://dc.lft.to/lastmile_qr_scan", "ios": "https://dc.lft.to/lastmile_qr_scan"}, "lat": 38.919031333333336, "bike_id": "29520ebb12463ed46d3df9fc67c92f95", "is_disabled": 0, "lon": -77.01366816666666, "is_reserved": 0, "fusion_lat": 0.0, "type": "electric_scooter"}, {"fusion_lon": 0.0, "name": "7e6da7a115423adc79e939432ca8edcc", "rental_uris": {"android": "https://dc.lft.to/lastmile_qr_scan", "ios": "https://dc.lft.to/lastmile_qr_scan"}, "lat": 38.91542666666667, "bike_id": "7e6da7a115423adc79e939432ca8edcc", "is_disabled": 0, "lon": -77.0444095, "is_reserved": 0, "fusion_lat": 0.0, "type": "electric_scooter"}, {"fusion_lon": 0.0, "name": "2951b2a28b55352cf2cdf4a4a2930744", "rental_uris": {"android": "https://dc.lft.to/lastmile_qr_scan", "ios": "https://dc.lft.to/lastmile_qr_scan"}, "lat": 38.92182666666667, "bike_id": "2951b2a28b55352cf2cdf4a4a2930744", "is_disabled": 0, "lon": -77.04227833333333, "is_reserved": 0, "fusion_lat": 0.0, "type": "electric_scooter"}, {"fusion_lon": 0.0, "name": "0020e34a75f63b85a49feb6bdae7c77e", "rental_uris": {"android": "https://dc.lft.to/lastmile_qr_scan", "ios": "https://dc.lft.to/lastmile_qr_scan"}, "lat": 38.9080415, "bike_id": "0020e34a75f63b85a49feb6bdae7c77e", "is_disabled": 0, "lon": -77.04340033333334, "is_reserved": 0, "fusion_lat": 0.0, "type": "electric_scooter"}, {"fusion_lon": 0.0, "name": "40cc4134d6f01a037e00e403b34329b0", "rental_uris": {"android": "https://dc.lft.to/lastmile_qr_scan", "ios": "https://dc.lft.to/lastmile_qr_scan"}, "lat": 38.92957033333333, "bike_id": "40cc4134d6f01a037e00e403b34329b0", "is_disabled": 0, "lon": -77.02757983333333, "is_reserved": 0, "fusion_lat": 0.0, "type": "electric_scooter"}, {"fusion_lon": 0.0, "name": "b8d39277ff01e9c8bcba4b6710aafde3", "rental_uris": {"android": "https://dc.lft.to/lastmile_qr_scan", "ios": "https://dc.lft.to/lastmile_qr_scan"}, "lat": 39.094371, "bike_id": "b8d39277ff01e9c8bcba4b6710aafde3", "is_disabled": 0, "lon": -77.13459016666667, "is_reserved": 0, "fusion_lat": 0.0, "type": "electric_bike"}, {"fusion_lon": 0.0, "name": "a0f596b77f5b7ecf8a6e092c679b13d9", "rental_uris": {"android": "https://dc.lft.to/lastmile_qr_scan", "ios": "https://dc.lft.to/lastmile_qr_scan"}, "lat": 38.8970275, "bike_id": "a0f596b77f5b7ecf8a6e092c679b13d9", "is_disabled": 0, "lon": -76.99119833333333, "is_reserved": 0, "fusion_lat": 0.0, "type": "electric_scooter"}, {"fusion_lon": 0.0, "name": "2a68280e93c558973a14564ca8730130", "rental_uris": {"android": "https://dc.lft.to/lastmile_qr_scan", "ios": "https://dc.lft.to/lastmile_qr_scan"}, "lat": 38.933972833333335, "bike_id": "2a68280e93c558973a14564ca8730130", "is_disabled": 0, "lon": -77.03836766666667, "is_reserved": 0, "fusion_lat": 0.0, "type": "electric_scooter"}, {"fusion_lon": 0.0, "name": "eb0afbdba7a8ec2f691635e10bbc57ce", "rental_uris": {"android": "https://dc.lft.to/lastmile_qr_scan", "ios": "https://dc.lft.to/lastmile_qr_scan"}, "lat": 38.903645, "bike_id": "eb0afbdba7a8ec2f691635e10bbc57ce", "is_disabled": 0, "lon": -77.03223916666667, "is_reserved": 0, "fusion_lat": 0.0, "type": "electric_scooter"}, {"fusion_lon": 0.0, "name": "515f869da6183963ed6008dd7006e76f", "rental_uris": {"android": "https://dc.lft.to/lastmile_qr_scan", "ios": "https://dc.lft.to/lastmile_qr_scan"}, "lat": 38.905604, "bike_id": "515f869da6183963ed6008dd7006e76f", "is_disabled": 0, "lon": -77.02796933333333, "is_reserved": 0, "fusion_lat": 0.0, "type": "electric_scooter"}, {"fusion_lon": 0.0, "name": "ffe99fb359a0d1fb25e438627f6554fd", "rental_uris": {"android": "https://dc.lft.to/lastmile_qr_scan", "ios": "https://dc.lft.to/lastmile_qr_scan"}, "lat": 38.898533, "bike_id": "ffe99fb359a0d1fb25e438627f6554fd", "is_disabled": 0, "lon": -77.053991, "is_reserved": 0, "fusion_lat": 0.0, "type": "electric_scooter"}, {"fusion_lon": 0.0, "name": "b1b4ec364e42a04bac20742447082992", "rental_uris": {"android": "https://dc.lft.to/lastmile_qr_scan", "ios": "https://dc.lft.to/lastmile_qr_scan"}, "lat": 38.92414733333333, "bike_id": "b1b4ec364e42a04bac20742447082992", "is_disabled": 0, "lon": -77.02092283333333, "is_reserved": 0, "fusion_lat": 0.0, "type": "electric_scooter"}, {"fusion_lon": 0.0, "name": "5f31173432ecc0ca1cc37a3989bdea5e", "rental_uris": {"android": "https://dc.lft.to/lastmile_qr_scan", "ios": "https://dc.lft.to/lastmile_qr_scan"}, "lat": 38.8625365, "bike_id": "5f31173432ecc0ca1cc37a3989bdea5e", "is_disabled": 0, "lon": -76.99555816666667, "is_reserved": 0, "fusion_lat": 0.0, "type": "electric_scooter"}, {"fusion_lon": 0.0, "name": "f6c2be61d564a120447ea6dad24a17f0", "rental_uris": {"android": "https://dc.lft.to/lastmile_qr_scan", "ios": "https://dc.lft.to/lastmile_qr_scan"}, "lat": 38.951068666666664, "bike_id": "f6c2be61d564a120447ea6dad24a17f0", "is_disabled": 0, "lon": -77.08875166666667, "is_reserved": 0, "fusion_lat": 0.0, "type": "electric_bike"}, {"fusion_lon": 0.0, "name": "0e2a55c7b6cf99529ceb8f00abebeec9", "rental_uris": {"android": "https://dc.lft.to/lastmile_qr_scan", "ios": "https://dc.lft.to/lastmile_qr_scan"}, "lat": 38.93464983333333, "bike_id": "0e2a55c7b6cf99529ceb8f00abebeec9", "is_disabled": 0, "lon": -77.05810266666667, "is_reserved": 0, "fusion_lat": 0.0, "type": "electric_scooter"}, {"fusion_lon": 0.0, "name": "459652518318cc5af56d0f2f1643687b", "rental_uris": {"android": "https://dc.lft.to/lastmile_qr_scan", "ios": "https://dc.lft.to/lastmile_qr_scan"}, "lat": 38.9370205, "bike_id": "459652518318cc5af56d0f2f1643687b", "is_disabled": 0, "lon": -77.05591983333333, "is_reserved": 0, "fusion_lat": 0.0, "type": "electric_scooter"}, {"fusion_lon": 0.0, "name": "29c3a3a9a1c1b1ef08528679d1c1bd1b", "rental_uris": {"android": "https://dc.lft.to/lastmile_qr_scan", "ios": "https://dc.lft.to/lastmile_qr_scan"}, "lat": 38.894907333333336, "bike_id": "29c3a3a9a1c1b1ef08528679d1c1bd1b", "is_disabled": 0, "lon": -76.94893483333334, "is_reserved": 0, "fusion_lat": 0.0, "type": "electric_scooter"}, {"fusion_lon": 0.0, "name": "6b6dbeb6dadc4f6ffde11aed3b509bfb", "rental_uris": {"android": "https://dc.lft.to/lastmile_qr_scan", "ios": "https://dc.lft.to/lastmile_qr_scan"}, "lat": 38.90327383333333, "bike_id": "6b6dbeb6dadc4f6ffde11aed3b509bfb", "is_disabled": 0, "lon": -77.02470516666666, "is_reserved": 0, "fusion_lat": 0.0, "type": "electric_scooter"}, {"fusion_lon": 0.0, "name": "5277f314ef2c40ce4bffc85c3dc6d06e", "rental_uris": {"android": "https://dc.lft.to/lastmile_qr_scan", "ios": "https://dc.lft.to/lastmile_qr_scan"}, "lat": 38.93635883333334, "bike_id": "5277f314ef2c40ce4bffc85c3dc6d06e", "is_disabled": 0, "lon": -76.95455083333333, "is_reserved": 0, "fusion_lat": 0.0, "type": "electric_bike"}, {"fusion_lon": 0.0, "name": "18e1657529ae18d03af5b563c3755423", "rental_uris": {"android": "https://dc.lft.to/lastmile_qr_scan", "ios": "https://dc.lft.to/lastmile_qr_scan"}, "lat": 38.91263283333333, "bike_id": "18e1657529ae18d03af5b563c3755423", "is_disabled": 0, "lon": -77.038038, "is_reserved": 0, "fusion_lat": 0.0, "type": "electric_scooter"}, {"fusion_lon": 0.0, "name": "05c15996a7a361e2e774e076b8230bef", "rental_uris": {"android": "https://dc.lft.to/lastmile_qr_scan", "ios": "https://dc.lft.to/lastmile_qr_scan"}, "lat": 38.900345333333334, "bike_id": "05c15996a7a361e2e774e076b8230bef", "is_disabled": 0, "lon": -76.99834266666667, "is_reserved": 0, "fusion_lat": 0.0, "type": "electric_scooter"}, {"fusion_lon": 0.0, "name": "2ae999d689b7cb2a26621b04d1dfa5ea", "rental_uris": {"android": "https://dc.lft.to/lastmile_qr_scan", "ios": "https://dc.lft.to/lastmile_qr_scan"}, "lat": 38.9036325, "bike_id": "2ae999d689b7cb2a26621b04d1dfa5ea", "is_disabled": 0, "lon": -77.01624833333334, "is_reserved": 0, "fusion_lat": 0.0, "type": "electric_scooter"}, {"fusion_lon": 0.0, "name": "c255218a2e1f631bc7b4e42e4c7098bc", "rental_uris": {"android": "https://dc.lft.to/lastmile_qr_scan", "ios": "https://dc.lft.to/lastmile_qr_scan"}, "lat": 38.91675933333333, "bike_id": "c255218a2e1f631bc7b4e42e4c7098bc", "is_disabled": 0, "lon": -77.0320295, "is_reserved": 0, "fusion_lat": 0.0, "type": "electric_scooter"}, {"fusion_lon": 0.0, "name": "a147f64415b8eebe7890c26dd0685180", "rental_uris": {"android": "https://dc.lft.to/lastmile_qr_scan", "ios": "https://dc.lft.to/lastmile_qr_scan"}, "lat": 38.88011266666667, "bike_id": "a147f64415b8eebe7890c26dd0685180", "is_disabled": 0, "lon": -77.00552566666667, "is_reserved": 0, "fusion_lat": 0.0, "type": "electric_scooter"}, {"fusion_lon": 0.0, "name": "4351c1fb097c9344d7931519694d6749", "rental_uris": {"android": "https://dc.lft.to/lastmile_qr_scan", "ios": "https://dc.lft.to/lastmile_qr_scan"}, "lat": 38.903740166666665, "bike_id": "4351c1fb097c9344d7931519694d6749", "is_disabled": 0, "lon": -77.03552583333334, "is_reserved": 0, "fusion_lat": 0.0, "type": "electric_scooter"}, {"fusion_lon": 0.0, "name": "643d9a44b6326b47f263848b7295f233", "rental_uris": {"android": "https://dc.lft.to/lastmile_qr_scan", "ios": "https://dc.lft.to/lastmile_qr_scan"}, "lat": 38.89760066666667, "bike_id": "643d9a44b6326b47f263848b7295f233", "is_disabled": 0, "lon": -77.026894, "is_reserved": 0, "fusion_lat": 0.0, "type": "electric_scooter"}, {"fusion_lon": 0.0, "name": "ed772acbdc7078c94c347dede2f37519", "rental_uris": {"android": "https://dc.lft.to/lastmile_qr_scan", "ios": "https://dc.lft.to/lastmile_qr_scan"}, "lat": 38.91235533333333, "bike_id": "ed772acbdc7078c94c347dede2f37519", "is_disabled": 0, "lon": -77.04500666666667, "is_reserved": 0, "fusion_lat": 0.0, "type": "electric_scooter"}, {"fusion_lon": 0.0, "name": "ccba930fed1f88df2e8268fe1de18e26", "rental_uris": {"android": "https://dc.lft.to/lastmile_qr_scan", "ios": "https://dc.lft.to/lastmile_qr_scan"}, "lat": 38.912725333333334, "bike_id": "ccba930fed1f88df2e8268fe1de18e26", "is_disabled": 0, "lon": -77.02967633333333, "is_reserved": 0, "fusion_lat": 0.0, "type": "electric_bike"}, {"fusion_lon": 0.0, "name": "cc39646e41701bc13efca6add9a58acb", "rental_uris": {"android": "https://dc.lft.to/lastmile_qr_scan", "ios": "https://dc.lft.to/lastmile_qr_scan"}, "lat": 38.926725166666664, "bike_id": "cc39646e41701bc13efca6add9a58acb", "is_disabled": 0, "lon": -77.03087466666666, "is_reserved": 0, "fusion_lat": 0.0, "type": "electric_scooter"}, {"fusion_lon": 0.0, "name": "25d5a68cac217def4544d7d3c71c491d", "rental_uris": {"android": "https://dc.lft.to/lastmile_qr_scan", "ios": "https://dc.lft.to/lastmile_qr_scan"}, "lat": 38.915123666666666, "bike_id": "25d5a68cac217def4544d7d3c71c491d", "is_disabled": 0, "lon": -77.04492333333333, "is_reserved": 0, "fusion_lat": 0.0, "type": "electric_scooter"}, {"fusion_lon": 0.0, "name": "362caa1e8457a21aa9b0865eeaa6e064", "rental_uris": {"android": "https://dc.lft.to/lastmile_qr_scan", "ios": "https://dc.lft.to/lastmile_qr_scan"}, "lat": 38.876529, "bike_id": "362caa1e8457a21aa9b0865eeaa6e064", "is_disabled": 0, "lon": -77.00580666666667, "is_reserved": 0, "fusion_lat": 0.0, "type": "electric_scooter"}, {"fusion_lon": 0.0, "name": "c4b0604c807868866ae2bed985e9a284", "rental_uris": {"android": "https://dc.lft.to/lastmile_qr_scan", "ios": "https://dc.lft.to/lastmile_qr_scan"}, "lat": 38.88747083333333, "bike_id": "c4b0604c807868866ae2bed985e9a284", "is_disabled": 0, "lon": -77.02861566666667, "is_reserved": 0, "fusion_lat": 0.0, "type": "electric_scooter"}, {"fusion_lon": 0.0, "name": "fd6df6c7fd656370b1fffb8ee47e38ba", "rental_uris": {"android": "https://dc.lft.to/lastmile_qr_scan", "ios": "https://dc.lft.to/lastmile_qr_scan"}, "lat": 38.8990955, "bike_id": "fd6df6c7fd656370b1fffb8ee47e38ba", "is_disabled": 0, "lon": -76.93388116666667, "is_reserved": 0, "fusion_lat": 0.0, "type": "electric_scooter"}, {"fusion_lon": 0.0, "name": "2f891c46de02ee4210e4c29b7481dc7d", "rental_uris": {"android": "https://dc.lft.to/lastmile_qr_scan", "ios": "https://dc.lft.to/lastmile_qr_scan"}, "lat": 38.934612333333334, "bike_id": "2f891c46de02ee4210e4c29b7481dc7d", "is_disabled": 0, "lon": -77.05808283333333, "is_reserved": 0, "fusion_lat": 0.0, "type": "electric_scooter"}, {"fusion_lon": 0.0, "name": "2258ef7350d41100f4fb4262b5a6942f", "rental_uris": {"android": "https://dc.lft.to/lastmile_qr_scan", "ios": "https://dc.lft.to/lastmile_qr_scan"}, "lat": 38.916124333333336, "bike_id": "2258ef7350d41100f4fb4262b5a6942f", "is_disabled": 0, "lon": -77.048602, "is_reserved": 0, "fusion_lat": 0.0, "type": "electric_scooter"}, {"fusion_lon": 0.0, "name": "3353257ed82398707a8d6d0d4b313ed3", "rental_uris": {"android": "https://dc.lft.to/lastmile_qr_scan", "ios": "https://dc.lft.to/lastmile_qr_scan"}, "lat": 38.900743166666665, "bike_id": "3353257ed82398707a8d6d0d4b313ed3", "is_disabled": 0, "lon": -77.0494, "is_reserved": 0, "fusion_lat": 0.0, "type": "electric_scooter"}, {"fusion_lon": 0.0, "name": "488dc6cdb39a4f08ced885f1047c43e3", "rental_uris": {"android": "https://dc.lft.to/lastmile_qr_scan", "ios": "https://dc.lft.to/lastmile_qr_scan"}, "lat": 38.92483416666666, "bike_id": "488dc6cdb39a4f08ced885f1047c43e3", "is_disabled": 0, "lon": -77.03830783333333, "is_reserved": 0, "fusion_lat": 0.0, "type": "electric_scooter"}, {"fusion_lon": 0.0, "name": "6dd5fd0db23cc0b55a6f194d66d15b89", "rental_uris": {"android": "https://dc.lft.to/lastmile_qr_scan", "ios": "https://dc.lft.to/lastmile_qr_scan"}, "lat": 38.881004, "bike_id": "6dd5fd0db23cc0b55a6f194d66d15b89", "is_disabled": 0, "lon": -77.026069, "is_reserved": 0, "fusion_lat": 0.0, "type": "electric_scooter"}, {"fusion_lon": 0.0, "name": "4a5f490d26f1356e7e49485863de33a0", "rental_uris": {"android": "https://dc.lft.to/lastmile_qr_scan", "ios": "https://dc.lft.to/lastmile_qr_scan"}, "lat": 38.923246666666664, "bike_id": "4a5f490d26f1356e7e49485863de33a0", "is_disabled": 0, "lon": -77.05680833333334, "is_reserved": 0, "fusion_lat": 0.0, "type": "electric_scooter"}, {"fusion_lon": 0.0, "name": "4079940a1b41aa2d1806fefb901ab206", "rental_uris": {"android": "https://dc.lft.to/lastmile_qr_scan", "ios": "https://dc.lft.to/lastmile_qr_scan"}, "lat": 38.9135425, "bike_id": "4079940a1b41aa2d1806fefb901ab206", "is_disabled": 0, "lon": -77.03348866666667, "is_reserved": 0, "fusion_lat": 0.0, "type": "electric_scooter"}, {"fusion_lon": 0.0, "name": "d8de18dbd95523b53343b3d2c7f98eed", "rental_uris": {"android": "https://dc.lft.to/lastmile_qr_scan", "ios": "https://dc.lft.to/lastmile_qr_scan"}, "lat": 38.938575, "bike_id": "d8de18dbd95523b53343b3d2c7f98eed", "is_disabled": 0, "lon": -76.99435133333333, "is_reserved": 0, "fusion_lat": 0.0, "type": "electric_scooter"}, {"fusion_lon": 0.0, "name": "ce9875dcb195f9f37e85860ededabe25", "rental_uris": {"android": "https://dc.lft.to/lastmile_qr_scan", "ios": "https://dc.lft.to/lastmile_qr_scan"}, "lat": 38.92042133333333, "bike_id": "ce9875dcb195f9f37e85860ededabe25", "is_disabled": 0, "lon": -77.0170415, "is_reserved": 0, "fusion_lat": 0.0, "type": "electric_scooter"}, {"fusion_lon": 0.0, "name": "0ff070267e57615a91397963b17f2279", "rental_uris": {"android": "https://dc.lft.to/lastmile_qr_scan", "ios": "https://dc.lft.to/lastmile_qr_scan"}, "lat": 38.891290833333336, "bike_id": "0ff070267e57615a91397963b17f2279", "is_disabled": 0, "lon": -76.94061816666667, "is_reserved": 0, "fusion_lat": 0.0, "type": "electric_bike"}, {"fusion_lon": 0.0, "name": "88d298ff0fd919057b490d51c0000000", "rental_uris": {"android": "https://dc.lft.to/lastmile_qr_scan", "ios": "https://dc.lft.to/lastmile_qr_scan"}, "lat": 38.905526, "bike_id": "88d298ff0fd919057b490d51c0000000", "is_disabled": 0, "lon": -77.02198866666667, "is_reserved": 0, "fusion_lat": 0.0, "type": "electric_scooter"}, {"fusion_lon": 0.0, "name": "7af8eacbb654bcfa8938510c759da7dc", "rental_uris": {"android": "https://dc.lft.to/lastmile_qr_scan", "ios": "https://dc.lft.to/lastmile_qr_scan"}, "lat": 38.89461516666667, "bike_id": "7af8eacbb654bcfa8938510c759da7dc", "is_disabled": 0, "lon": -77.0218715, "is_reserved": 0, "fusion_lat": 0.0, "type": "electric_scooter"}, {"fusion_lon": 0.0, "name": "5c02c3af264bf78b85be84db4a321ce9", "rental_uris": {"android": "https://dc.lft.to/lastmile_qr_scan", "ios": "https://dc.lft.to/lastmile_qr_scan"}, "lat": 38.91562366666667, "bike_id": "5c02c3af264bf78b85be84db4a321ce9", "is_disabled": 0, "lon": -77.01577266666666, "is_reserved": 0, "fusion_lat": 0.0, "type": "electric_scooter"}, {"fusion_lon": 0.0, "name": "148893560cf29a01610f96e81a52fecb", "rental_uris": {"android": "https://dc.lft.to/lastmile_qr_scan", "ios": "https://dc.lft.to/lastmile_qr_scan"}, "lat": 38.916789333333334, "bike_id": "148893560cf29a01610f96e81a52fecb", "is_disabled": 0, "lon": -77.0157135, "is_reserved": 0, "fusion_lat": 0.0, "type": "electric_scooter"}, {"fusion_lon": 0.0, "name": "de749f1e1ded8e90209c90a68249e674", "rental_uris": {"android": "https://dc.lft.to/lastmile_qr_scan", "ios": "https://dc.lft.to/lastmile_qr_scan"}, "lat": 38.924156333333336, "bike_id": "de749f1e1ded8e90209c90a68249e674", "is_disabled": 0, "lon": -77.01943816666666, "is_reserved": 0, "fusion_lat": 0.0, "type": "electric_scooter"}, {"fusion_lon": 0.0, "name": "1a342717e6deec5719f37bc9bbad0867", "rental_uris": {"android": "https://dc.lft.to/lastmile_qr_scan", "ios": "https://dc.lft.to/lastmile_qr_scan"}, "lat": 38.90567383333333, "bike_id": "1a342717e6deec5719f37bc9bbad0867", "is_disabled": 0, "lon": -77.04349833333333, "is_reserved": 0, "fusion_lat": 0.0, "type": "electric_scooter"}, {"fusion_lon": 0.0, "name": "993ac2059133ecb25e3f54dd0ee41817", "rental_uris": {"android": "https://dc.lft.to/lastmile_qr_scan", "ios": "https://dc.lft.to/lastmile_qr_scan"}, "lat": 38.913401, "bike_id": "993ac2059133ecb25e3f54dd0ee41817", "is_disabled": 0, "lon": -77.012212, "is_reserved": 0, "fusion_lat": 0.0, "type": "electric_scooter"}, {"fusion_lon": 0.0, "name": "081a3e79f78b4e9f334856558a480643", "rental_uris": {"android": "https://dc.lft.to/lastmile_qr_scan", "ios": "https://dc.lft.to/lastmile_qr_scan"}, "lat": 38.926768333333335, "bike_id": "081a3e79f78b4e9f334856558a480643", "is_disabled": 0, "lon": -77.02744333333334, "is_reserved": 0, "fusion_lat": 0.0, "type": "electric_scooter"}, {"fusion_lon": 0.0, "name": "7356ad9c87fa7b7c7976d647427954ba", "rental_uris": {"android": "https://dc.lft.to/lastmile_qr_scan", "ios": "https://dc.lft.to/lastmile_qr_scan"}, "lat": 38.906953333333334, "bike_id": "7356ad9c87fa7b7c7976d647427954ba", "is_disabled": 0, "lon": -77.00975283333334, "is_reserved": 0, "fusion_lat": 0.0, "type": "electric_scooter"}, {"fusion_lon": 0.0, "name": "53ac0fe6c01a1a7555d4987123a74b5e", "rental_uris": {"android": "https://dc.lft.to/lastmile_qr_scan", "ios": "https://dc.lft.to/lastmile_qr_scan"}, "lat": 38.919314166666666, "bike_id": "53ac0fe6c01a1a7555d4987123a74b5e", "is_disabled": 0, "lon": -77.02437633333334, "is_reserved": 0, "fusion_lat": 0.0, "type": "electric_scooter"}, {"fusion_lon": 0.0, "name": "dab3cbe8637a43d5cc269d7f6a49fd4b", "rental_uris": {"android": "https://dc.lft.to/lastmile_qr_scan", "ios": "https://dc.lft.to/lastmile_qr_scan"}, "lat": 38.90031616666667, "bike_id": "dab3cbe8637a43d5cc269d7f6a49fd4b", "is_disabled": 0, "lon": -76.98855766666667, "is_reserved": 0, "fusion_lat": 0.0, "type": "electric_scooter"}, {"fusion_lon": 0.0, "name": "c1ed96182f609fd5c13c106f2adcb4e1", "rental_uris": {"android": "https://dc.lft.to/lastmile_qr_scan", "ios": "https://dc.lft.to/lastmile_qr_scan"}, "lat": 38.892413833333336, "bike_id": "c1ed96182f609fd5c13c106f2adcb4e1", "is_disabled": 0, "lon": -77.01256433333333, "is_reserved": 0, "fusion_lat": 0.0, "type": "electric_scooter"}, {"fusion_lon": 0.0, "name": "2b5f0cda82605eeba0fda3ba123cd913", "rental_uris": {"android": "https://dc.lft.to/lastmile_qr_scan", "ios": "https://dc.lft.to/lastmile_qr_scan"}, "lat": 38.90923083333333, "bike_id": "2b5f0cda82605eeba0fda3ba123cd913", "is_disabled": 0, "lon": -76.98981666666667, "is_reserved": 0, "fusion_lat": 0.0, "type": "electric_scooter"}, {"fusion_lon": 0.0, "name": "0731efd42b4691e3263c32b3c3cf0e46", "rental_uris": {"android": "https://dc.lft.to/lastmile_qr_scan", "ios": "https://dc.lft.to/lastmile_qr_scan"}, "lat": 38.901669, "bike_id": "0731efd42b4691e3263c32b3c3cf0e46", "is_disabled": 0, "lon": -76.98073316666667, "is_reserved": 0, "fusion_lat": 0.0, "type": "electric_scooter"}, {"fusion_lon": 0.0, "name": "eade4da35b9407cf65bcf7f8e114eebb", "rental_uris": {"android": "https://dc.lft.to/lastmile_qr_scan", "ios": "https://dc.lft.to/lastmile_qr_scan"}, "lat": 39.02924566666667, "bike_id": "eade4da35b9407cf65bcf7f8e114eebb", "is_disabled": 0, "lon": -77.01357816666666, "is_reserved": 0, "fusion_lat": 0.0, "type": "electric_bike"}, {"fusion_lon": 0.0, "name": "000c9a7d00b41dc5b881860fca5b4cfd", "rental_uris": {"android": "https://dc.lft.to/lastmile_qr_scan", "ios": "https://dc.lft.to/lastmile_qr_scan"}, "lat": 38.903756333333334, "bike_id": "000c9a7d00b41dc5b881860fca5b4cfd", "is_disabled": 0, "lon": -77.0519865, "is_reserved": 0, "fusion_lat": 0.0, "type": "electric_scooter"}, {"fusion_lon": 0.0, "name": "c380e2bb60df11edb802f1a3100f1fff", "rental_uris": {"android": "https://dc.lft.to/lastmile_qr_scan", "ios": "https://dc.lft.to/lastmile_qr_scan"}, "lat": 38.888156333333335, "bike_id": "c380e2bb60df11edb802f1a3100f1fff", "is_disabled": 0, "lon": -76.97707316666667, "is_reserved": 0, "fusion_lat": 0.0, "type": "electric_scooter"}, {"fusion_lon": 0.0, "name": "6d50e39fd33795352b68cc278e0c9ff8", "rental_uris": {"android": "https://dc.lft.to/lastmile_qr_scan", "ios": "https://dc.lft.to/lastmile_qr_scan"}, "lat": 38.95065183333333, "bike_id": "6d50e39fd33795352b68cc278e0c9ff8", "is_disabled": 0, "lon": -77.00728766666667, "is_reserved": 0, "fusion_lat": 0.0, "type": "electric_bike"}, {"fusion_lon": 0.0, "name": "ec607a630ae96b0b99d74285bb04eb4f", "rental_uris": {"android": "https://dc.lft.to/lastmile_qr_scan", "ios": "https://dc.lft.to/lastmile_qr_scan"}, "lat": 38.924656, "bike_id": "ec607a630ae96b0b99d74285bb04eb4f", "is_disabled": 0, "lon": -77.02112416666667, "is_reserved": 0, "fusion_lat": 0.0, "type": "electric_scooter"}, {"fusion_lon": 0.0, "name": "40133e2630bf3878ed6d61bc143a974c", "rental_uris": {"android": "https://dc.lft.to/lastmile_qr_scan", "ios": "https://dc.lft.to/lastmile_qr_scan"}, "lat": 38.923999, "bike_id": "40133e2630bf3878ed6d61bc143a974c", "is_disabled": 0, "lon": -77.0408845, "is_reserved": 0, "fusion_lat": 0.0, "type": "electric_scooter"}, {"fusion_lon": 0.0, "name": "689c012578e62f05a58c8bbc878e82ce", "rental_uris": {"android": "https://dc.lft.to/lastmile_qr_scan", "ios": "https://dc.lft.to/lastmile_qr_scan"}, "lat": 38.92017883333333, "bike_id": "689c012578e62f05a58c8bbc878e82ce", "is_disabled": 0, "lon": -77.01907783333333, "is_reserved": 0, "fusion_lat": 0.0, "type": "electric_scooter"}, {"fusion_lon": 0.0, "name": "53055bbe6506ecf20823f3471f397c50", "rental_uris": {"android": "https://dc.lft.to/lastmile_qr_scan", "ios": "https://dc.lft.to/lastmile_qr_scan"}, "lat": 38.817393, "bike_id": "53055bbe6506ecf20823f3471f397c50", "is_disabled": 0, "lon": -77.0668455, "is_reserved": 0, "fusion_lat": 0.0, "type": "electric_bike"}, {"fusion_lon": 0.0, "name": "4afa7b494f1542d9a8bfeec2b6e7aa06", "rental_uris": {"android": "https://dc.lft.to/lastmile_qr_scan", "ios": "https://dc.lft.to/lastmile_qr_scan"}, "lat": 38.92463, "bike_id": "4afa7b494f1542d9a8bfeec2b6e7aa06", "is_disabled": 0, "lon": -77.022116, "is_reserved": 0, "fusion_lat": 0.0, "type": "electric_scooter"}, {"fusion_lon": 0.0, "name": "f8354a85fd5f5d3d05c03921b22613ae", "rental_uris": {"android": "https://dc.lft.to/lastmile_qr_scan", "ios": "https://dc.lft.to/lastmile_qr_scan"}, "lat": 38.9369685, "bike_id": "f8354a85fd5f5d3d05c03921b22613ae", "is_disabled": 0, "lon": -77.05601483333334, "is_reserved": 0, "fusion_lat": 0.0, "type": "electric_scooter"}, {"fusion_lon": 0.0, "name": "d4a15e6b5800e79e7fbd5f6c6ab0fde1", "rental_uris": {"android": "https://dc.lft.to/lastmile_qr_scan", "ios": "https://dc.lft.to/lastmile_qr_scan"}, "lat": 38.904151666666664, "bike_id": "d4a15e6b5800e79e7fbd5f6c6ab0fde1", "is_disabled": 0, "lon": -77.0406555, "is_reserved": 0, "fusion_lat": 0.0, "type": "electric_scooter"}, {"fusion_lon": 0.0, "name": "88c2773c028c6dec5822914593c96933", "rental_uris": {"android": "https://dc.lft.to/lastmile_qr_scan", "ios": "https://dc.lft.to/lastmile_qr_scan"}, "lat": 38.908355666666665, "bike_id": "88c2773c028c6dec5822914593c96933", "is_disabled": 0, "lon": -77.00390516666667, "is_reserved": 0, "fusion_lat": 0.0, "type": "electric_scooter"}, {"fusion_lon": 0.0, "name": "9dbe4ec771e1fa7922c5e9e8b7d5c6e8", "rental_uris": {"android": "https://dc.lft.to/lastmile_qr_scan", "ios": "https://dc.lft.to/lastmile_qr_scan"}, "lat": 38.887723, "bike_id": "9dbe4ec771e1fa7922c5e9e8b7d5c6e8", "is_disabled": 0, "lon": -76.93261, "is_reserved": 0, "fusion_lat": 0.0, "type": "electric_scooter"}, {"fusion_lon": 0.0, "name": "b666c998cb6a170da7df1f2657a11408", "rental_uris": {"android": "https://dc.lft.to/lastmile_qr_scan", "ios": "https://dc.lft.to/lastmile_qr_scan"}, "lat": 38.923462, "bike_id": "b666c998cb6a170da7df1f2657a11408", "is_disabled": 0, "lon": -77.021298, "is_reserved": 0, "fusion_lat": 0.0, "type": "electric_scooter"}, {"fusion_lon": 0.0, "name": "9be3c7beb0339e3003610b3f6bc04114", "rental_uris": {"android": "https://dc.lft.to/lastmile_qr_scan", "ios": "https://dc.lft.to/lastmile_qr_scan"}, "lat": 38.9136315, "bike_id": "9be3c7beb0339e3003610b3f6bc04114", "is_disabled": 0, "lon": -77.09189383333333, "is_reserved": 0, "fusion_lat": 0.0, "type": "electric_scooter"}, {"fusion_lon": 0.0, "name": "d86869d4cd2fcd72f528b7abcc530c8a", "rental_uris": {"android": "https://dc.lft.to/lastmile_qr_scan", "ios": "https://dc.lft.to/lastmile_qr_scan"}, "lat": 38.9082945, "bike_id": "d86869d4cd2fcd72f528b7abcc530c8a", "is_disabled": 0, "lon": -77.04333983333333, "is_reserved": 0, "fusion_lat": 0.0, "type": "electric_scooter"}, {"fusion_lon": 0.0, "name": "8e5f65652f7c158c9f295383d42a7217", "rental_uris": {"android": "https://dc.lft.to/lastmile_qr_scan", "ios": "https://dc.lft.to/lastmile_qr_scan"}, "lat": 38.846400833333334, "bike_id": "8e5f65652f7c158c9f295383d42a7217", "is_disabled": 0, "lon": -76.97074283333333, "is_reserved": 0, "fusion_lat": 0.0, "type": "electric_bike"}, {"fusion_lon": 0.0, "name": "a002c6d58d20ffd5779d903c21033806", "rental_uris": {"android": "https://dc.lft.to/lastmile_qr_scan", "ios": "https://dc.lft.to/lastmile_qr_scan"}, "lat": 38.896286, "bike_id": "a002c6d58d20ffd5779d903c21033806", "is_disabled": 0, "lon": -77.023831, "is_reserved": 0, "fusion_lat": 0.0, "type": "electric_scooter"}, {"fusion_lon": 0.0, "name": "a1648eb64ed66aca2500efc4d2eccdb3", "rental_uris": {"android": "https://dc.lft.to/lastmile_qr_scan", "ios": "https://dc.lft.to/lastmile_qr_scan"}, "lat": 38.8813975, "bike_id": "a1648eb64ed66aca2500efc4d2eccdb3", "is_disabled": 0, "lon": -77.022361, "is_reserved": 0, "fusion_lat": 0.0, "type": "electric_scooter"}, {"fusion_lon": 0.0, "name": "afaf72008dd72784b5bcb471d6837903", "rental_uris": {"android": "https://dc.lft.to/lastmile_qr_scan", "ios": "https://dc.lft.to/lastmile_qr_scan"}, "lat": 38.89979483333333, "bike_id": "afaf72008dd72784b5bcb471d6837903", "is_disabled": 0, "lon": -77.04190366666667, "is_reserved": 0, "fusion_lat": 0.0, "type": "electric_scooter"}, {"fusion_lon": 0.0, "name": "028fd571b7fe3942e220ad316556aa82", "rental_uris": {"android": "https://dc.lft.to/lastmile_qr_scan", "ios": "https://dc.lft.to/lastmile_qr_scan"}, "lat": 38.908480833333336, "bike_id": "028fd571b7fe3942e220ad316556aa82", "is_disabled": 0, "lon": -77.034689, "is_reserved": 0, "fusion_lat": 0.0, "type": "electric_scooter"}, {"fusion_lon": 0.0, "name": "535c92fbffd39ebc676c07e052a6fee9", "rental_uris": {"android": "https://dc.lft.to/lastmile_qr_scan", "ios": "https://dc.lft.to/lastmile_qr_scan"}, "lat": 38.93761816666667, "bike_id": "535c92fbffd39ebc676c07e052a6fee9", "is_disabled": 0, "lon": -77.0326395, "is_reserved": 0, "fusion_lat": 0.0, "type": "electric_scooter"}, {"fusion_lon": 0.0, "name": "c342c87b3f4d97eb9752ec98a3bf0a8f", "rental_uris": {"android": "https://dc.lft.to/lastmile_qr_scan", "ios": "https://dc.lft.to/lastmile_qr_scan"}, "lat": 38.87926516666667, "bike_id": "c342c87b3f4d97eb9752ec98a3bf0a8f", "is_disabled": 0, "lon": -77.009927, "is_reserved": 0, "fusion_lat": 0.0, "type": "electric_scooter"}, {"fusion_lon": 0.0, "name": "029cd546c40a8b7df137eff85686fd12", "rental_uris": {"android": "https://dc.lft.to/lastmile_qr_scan", "ios": "https://dc.lft.to/lastmile_qr_scan"}, "lat": 38.90432916666666, "bike_id": "029cd546c40a8b7df137eff85686fd12", "is_disabled": 0, "lon": -77.02503416666667, "is_reserved": 0, "fusion_lat": 0.0, "type": "electric_scooter"}, {"fusion_lon": 0.0, "name": "5a1797d27815c73ae7e3b504721f4fea", "rental_uris": {"android": "https://dc.lft.to/lastmile_qr_scan", "ios": "https://dc.lft.to/lastmile_qr_scan"}, "lat": 38.917211333333334, "bike_id": "5a1797d27815c73ae7e3b504721f4fea", "is_disabled": 0, "lon": -77.03145933333333, "is_reserved": 0, "fusion_lat": 0.0, "type": "electric_scooter"}, {"fusion_lon": 0.0, "name": "3234b0be1c51457023d40c3129e3d149", "rental_uris": {"android": "https://dc.lft.to/lastmile_qr_scan", "ios": "https://dc.lft.to/lastmile_qr_scan"}, "lat": 38.918829833333334, "bike_id": "3234b0be1c51457023d40c3129e3d149", "is_disabled": 0, "lon": -77.041744, "is_reserved": 0, "fusion_lat": 0.0, "type": "electric_scooter"}, {"fusion_lon": 0.0, "name": "a54747a3f2644d5ea35dbb03c1a85db4", "rental_uris": {"android": "https://dc.lft.to/lastmile_qr_scan", "ios": "https://dc.lft.to/lastmile_qr_scan"}, "lat": 38.881249, "bike_id": "a54747a3f2644d5ea35dbb03c1a85db4", "is_disabled": 0, "lon": -76.9927985, "is_reserved": 0, "fusion_lat": 0.0, "type": "electric_scooter"}, {"fusion_lon": 0.0, "name": "c998d24113ede34228c03a798e23ef4f", "rental_uris": {"android": "https://dc.lft.to/lastmile_qr_scan", "ios": "https://dc.lft.to/lastmile_qr_scan"}, "lat": 38.9236765, "bike_id": "c998d24113ede34228c03a798e23ef4f", "is_disabled": 0, "lon": -77.01933666666666, "is_reserved": 0, "fusion_lat": 0.0, "type": "electric_scooter"}, {"fusion_lon": 0.0, "name": "8ec0059ee317f85c0fd4bb7707f05b54", "rental_uris": {"android": "https://dc.lft.to/lastmile_qr_scan", "ios": "https://dc.lft.to/lastmile_qr_scan"}, "lat": 38.909681166666665, "bike_id": "8ec0059ee317f85c0fd4bb7707f05b54", "is_disabled": 0, "lon": -77.03432233333334, "is_reserved": 0, "fusion_lat": 0.0, "type": "electric_scooter"}, {"fusion_lon": 0.0, "name": "26bd1404cfcedd123058c6e36872fefc", "rental_uris": {"android": "https://dc.lft.to/lastmile_qr_scan", "ios": "https://dc.lft.to/lastmile_qr_scan"}, "lat": 38.9139955, "bike_id": "26bd1404cfcedd123058c6e36872fefc", "is_disabled": 0, "lon": -77.04882583333334, "is_reserved": 0, "fusion_lat": 0.0, "type": "electric_scooter"}, {"fusion_lon": 0.0, "name": "f9d15e2892e9602ccc951bbee99ec414", "rental_uris": {"android": "https://dc.lft.to/lastmile_qr_scan", "ios": "https://dc.lft.to/lastmile_qr_scan"}, "lat": 38.85813533333334, "bike_id": "f9d15e2892e9602ccc951bbee99ec414", "is_disabled": 0, "lon": -76.98995466666666, "is_reserved": 0, "fusion_lat": 0.0, "type": "electric_scooter"}, {"fusion_lon": 0.0, "name": "67e2df6f52889b2aac85b2abaa1a618e", "rental_uris": {"android": "https://dc.lft.to/lastmile_qr_scan", "ios": "https://dc.lft.to/lastmile_qr_scan"}, "lat": 38.9352995, "bike_id": "67e2df6f52889b2aac85b2abaa1a618e", "is_disabled": 0, "lon": -77.03492133333333, "is_reserved": 0, "fusion_lat": 0.0, "type": "electric_scooter"}, {"fusion_lon": 0.0, "name": "76de7c255ecb7cabd48a7cec12950311", "rental_uris": {"android": "https://dc.lft.to/lastmile_qr_scan", "ios": "https://dc.lft.to/lastmile_qr_scan"}, "lat": 38.9256585, "bike_id": "76de7c255ecb7cabd48a7cec12950311", "is_disabled": 0, "lon": -76.99956866666666, "is_reserved": 0, "fusion_lat": 0.0, "type": "electric_scooter"}, {"fusion_lon": 0.0, "name": "076766f91126d60332c2edf9c20f259d", "rental_uris": {"android": "https://dc.lft.to/lastmile_qr_scan", "ios": "https://dc.lft.to/lastmile_qr_scan"}, "lat": 38.924375833333336, "bike_id": "076766f91126d60332c2edf9c20f259d", "is_disabled": 0, "lon": -77.01938233333334, "is_reserved": 0, "fusion_lat": 0.0, "type": "electric_scooter"}, {"fusion_lon": 0.0, "name": "5ea70819185835d5d86c26c9005eb605", "rental_uris": {"android": "https://dc.lft.to/lastmile_qr_scan", "ios": "https://dc.lft.to/lastmile_qr_scan"}, "lat": 38.900614833333336, "bike_id": "5ea70819185835d5d86c26c9005eb605", "is_disabled": 0, "lon": -77.05068483333334, "is_reserved": 0, "fusion_lat": 0.0, "type": "electric_scooter"}, {"fusion_lon": 0.0, "name": "2e27462c45c85372973a40f83bfa8f25", "rental_uris": {"android": "https://dc.lft.to/lastmile_qr_scan", "ios": "https://dc.lft.to/lastmile_qr_scan"}, "lat": 38.922042166666664, "bike_id": "2e27462c45c85372973a40f83bfa8f25", "is_disabled": 0, "lon": -77.02708183333333, "is_reserved": 0, "fusion_lat": 0.0, "type": "electric_bike"}, {"fusion_lon": 0.0, "name": "2f4ecebb468dfdd2b34705e8e65fd234", "rental_uris": {"android": "https://dc.lft.to/lastmile_qr_scan", "ios": "https://dc.lft.to/lastmile_qr_scan"}, "lat": 38.903655666666666, "bike_id": "2f4ecebb468dfdd2b34705e8e65fd234", "is_disabled": 0, "lon": -76.98054116666667, "is_reserved": 0, "fusion_lat": 0.0, "type": "electric_scooter"}, {"fusion_lon": 0.0, "name": "c8becf91297f5ca21f6a3002f5b67381", "rental_uris": {"android": "https://dc.lft.to/lastmile_qr_scan", "ios": "https://dc.lft.to/lastmile_qr_scan"}, "lat": 38.89542083333333, "bike_id": "c8becf91297f5ca21f6a3002f5b67381", "is_disabled": 0, "lon": -77.01213266666667, "is_reserved": 0, "fusion_lat": 0.0, "type": "electric_scooter"}, {"fusion_lon": 0.0, "name": "a8912f4a3a7ed26b7e4126f5e5408a84", "rental_uris": {"android": "https://dc.lft.to/lastmile_qr_scan", "ios": "https://dc.lft.to/lastmile_qr_scan"}, "lat": 38.894195833333335, "bike_id": "a8912f4a3a7ed26b7e4126f5e5408a84", "is_disabled": 0, "lon": -76.99771883333334, "is_reserved": 0, "fusion_lat": 0.0, "type": "electric_scooter"}, {"fusion_lon": 0.0, "name": "470d2108b7373f6632fc04a14ae35d4f", "rental_uris": {"android": "https://dc.lft.to/lastmile_qr_scan", "ios": "https://dc.lft.to/lastmile_qr_scan"}, "lat": 38.960274, "bike_id": "470d2108b7373f6632fc04a14ae35d4f", "is_disabled": 0, "lon": -77.03011083333334, "is_reserved": 0, "fusion_lat": 0.0, "type": "electric_scooter"}, {"fusion_lon": 0.0, "name": "e0b07f0a324e6659308e98322beb4e5d", "rental_uris": {"android": "https://dc.lft.to/lastmile_qr_scan", "ios": "https://dc.lft.to/lastmile_qr_scan"}, "lat": 38.92687216666667, "bike_id": "e0b07f0a324e6659308e98322beb4e5d", "is_disabled": 0, "lon": -77.02966433333333, "is_reserved": 0, "fusion_lat": 0.0, "type": "electric_scooter"}, {"fusion_lon": 0.0, "name": "9eba18f81a2bcb7212ddaa3376cffd90", "rental_uris": {"android": "https://dc.lft.to/lastmile_qr_scan", "ios": "https://dc.lft.to/lastmile_qr_scan"}, "lat": 38.83062916666667, "bike_id": "9eba18f81a2bcb7212ddaa3376cffd90", "is_disabled": 0, "lon": -77.00200016666666, "is_reserved": 0, "fusion_lat": 0.0, "type": "electric_scooter"}, {"fusion_lon": 0.0, "name": "12667c7ab510af061a74ae9c6c96b67e", "rental_uris": {"android": "https://dc.lft.to/lastmile_qr_scan", "ios": "https://dc.lft.to/lastmile_qr_scan"}, "lat": 38.92992116666667, "bike_id": "12667c7ab510af061a74ae9c6c96b67e", "is_disabled": 0, "lon": -77.02206333333334, "is_reserved": 0, "fusion_lat": 0.0, "type": "electric_scooter"}, {"fusion_lon": 0.0, "name": "54b76ba5a8f64f94f2e9a2e7add1d77f", "rental_uris": {"android": "https://dc.lft.to/lastmile_qr_scan", "ios": "https://dc.lft.to/lastmile_qr_scan"}, "lat": 38.88609816666666, "bike_id": "54b76ba5a8f64f94f2e9a2e7add1d77f", "is_disabled": 0, "lon": -77.021678, "is_reserved": 0, "fusion_lat": 0.0, "type": "electric_scooter"}, {"fusion_lon": 0.0, "name": "e1fa82e18b583be009889a9d062e1491", "rental_uris": {"android": "https://dc.lft.to/lastmile_qr_scan", "ios": "https://dc.lft.to/lastmile_qr_scan"}, "lat": 38.91353183333333, "bike_id": "e1fa82e18b583be009889a9d062e1491", "is_disabled": 0, "lon": -77.01984366666667, "is_reserved": 0, "fusion_lat": 0.0, "type": "electric_scooter"}, {"fusion_lon": 0.0, "name": "752b075db8e2f6c22a9a2a5698790c1f", "rental_uris": {"android": "https://dc.lft.to/lastmile_qr_scan", "ios": "https://dc.lft.to/lastmile_qr_scan"}, "lat": 38.919477, "bike_id": "752b075db8e2f6c22a9a2a5698790c1f", "is_disabled": 0, "lon": -77.03953833333334, "is_reserved": 0, "fusion_lat": 0.0, "type": "electric_scooter"},