{"data": {"bikes": [{"lat": 38.842932, "is_disabled": 0, "type": "electric_scooter", "lon": -76.99950433333333, "bike_id": "66f531d5127eb406220f4b4f3d41dfee", "fusion_lat": 0.0, "name": "66f531d5127eb406220f4b4f3d41dfee", "is_reserved": 0, "rental_uris": {"android": "https://dc.lft.to/lastmile_qr_scan", "ios": "https://dc.lft.to/lastmile_qr_scan"}, "fusion_lon": 0.0}, {"lat": 38.91871283333333, "is_disabled": 0, "type": "electric_scooter", "lon": -77.0220345, "bike_id": "6ed0acb09aae6ac5b2d4e0ec08a870af", "fusion_lat": 0.0, "name": "6ed0acb09aae6ac5b2d4e0ec08a870af", "is_reserved": 0, "rental_uris": {"android": "https://dc.lft.to/lastmile_qr_scan", "ios": "https://dc.lft.to/lastmile_qr_scan"}, "fusion_lon": 0.0}, {"lat": 38.899025333333334, "is_disabled": 0, "type": "electric_scooter", "lon": -77.040675, "bike_id": "09adc8eb456e64eb175a09ca4755fc8b", "fusion_lat": 0.0, "name": "09adc8eb456e64eb175a09ca4755fc8b", "is_reserved": 0, "rental_uris": {"android": "https://dc.lft.to/lastmile_qr_scan", "ios": "https://dc.lft.to/lastmile_qr_scan"}, "fusion_lon": 0.0}, {"lat": 38.91630166666667, "is_disabled": 0, "type": "electric_scooter", "lon": -77.0399705, "bike_id": "a3c07225dfdab751372f6a127a37eee0", "fusion_lat": 0.0, "name": "a3c07225dfdab751372f6a127a37eee0", "is_reserved": 0, "rental_uris": {"android": "https://dc.lft.to/lastmile_qr_scan", "ios": "https://dc.lft.to/lastmile_qr_scan"}, "fusion_lon": 0.0}, {"lat": 38.94096416666667, "is_disabled": 0, "type": "electric_scooter", "lon": -77.03284266666667, "bike_id": "8f66f884cf129e9d67848377ab30d8db", "fusion_lat": 0.0, "name": "8f66f884cf129e9d67848377ab30d8db", "is_reserved": 0, "rental_uris": {"android": "https://dc.lft.to/lastmile_qr_scan", "ios": "https://dc.lft.to/lastmile_qr_scan"}, "fusion_lon": 0.0}, {"lat": 38.9072485, "is_disabled": 0, "type": "electric_scooter", "lon": -77.04789016666666, "bike_id": "c4ca4b43c7dc9e1a2cfb7e1ea061b2ec", "fusion_lat": 0.0, "name": "c4ca4b43c7dc9e1a2cfb7e1ea061b2ec", "is_reserved": 0, "rental_uris": {"android": "https://dc.lft.to/lastmile_qr_scan", "ios": "https://dc.lft.to/lastmile_qr_scan"}, "fusion_lon": 0.0}, {"lat": 38.876286666666665, "is_disabled": 0, "type": "electric_scooter", "lon": -76.965283, "bike_id": "1171e15038d7080985e888242298a095", "fusion_lat": 0.0, "name": "1171e15038d7080985e888242298a095", "is_reserved": 0, "rental_uris": {"android": "https://dc.lft.to/lastmile_qr_scan", "ios": "https://dc.lft.to/lastmile_qr_scan"}, "fusion_lon": 0.0}, {"lat": 38.91203133333333, "is_disabled": 0, "type": "electric_scooter", "lon": -77.0364695, "bike_id": "7542d05e660293274b84fa4bff412f2a", "fusion_lat": 0.0, "name": "7542d05e660293274b84fa4bff412f2a", "is_reserved": 0, "rental_uris": {"android": "https://dc.lft.to/lastmile_qr_scan", "ios": "https://dc.lft.to/lastmile_qr_scan"}, "fusion_lon": 0.0}, {"lat": 38.909702333333335, "is_disabled": 0, "type": "electric_scooter", "lon": -77.0339195, "bike_id": "d3c3efdba1fc77bb8c5c495281df1948", "fusion_lat": 0.0, "name": "d3c3efdba1fc77bb8c5c495281df1948", "is_reserved": 0, "rental_uris": {"android": "https://dc.lft.to/lastmile_qr_scan", "ios": "https://dc.lft.to/lastmile_qr_scan"}, "fusion_lon": 0.0}, {"lat": 38.860521166666665, "is_disabled": 0, "type": "electric_scooter", "lon": -76.985162, "bike_id": "1747b3f2f7766d6eec04c00a7a00163b", "fusion_lat": 0.0, "name": "1747b3f2f7766d6eec04c00a7a00163b", "is_reserved": 0, "rental_uris": {"android": "https://dc.lft.to/lastmile_qr_scan", "ios": "https://dc.lft.to/lastmile_qr_scan"}, "fusion_lon": 0.0}, {"lat": 38.88420416666666, "is_disabled": 0, "type": "electric_scooter", "lon": -77.03053633333333, "bike_id": "9f32d05526a001f8d82d13679d65503e", "fusion_lat": 0.0, "name": "9f32d05526a001f8d82d13679d65503e", "is_reserved": 0, "rental_uris": {"android": "https://dc.lft.to/lastmile_qr_scan", "ios": "https://dc.lft.to/lastmile_qr_scan"}, "fusion_lon": 0.0}, {"lat": 38.875066333333336, "is_disabled": 0, "type": "electric_bike", "lon": -77.02591416666667, "bike_id": "1e17b9f3ca8358ff8f94ec0687768991", "fusion_lat": 0.0, "name": "1e17b9f3ca8358ff8f94ec0687768991", "is_reserved": 0, "rental_uris": {"android": "https://dc.lft.to/lastmile_qr_scan", "ios": "https://dc.lft.to/lastmile_qr_scan"}, "fusion_lon": 0.0}, {"lat": 38.891175833333335, "is_disabled": 0, "type": "electric_scooter", "lon": -76.94093766666667, "bike_id": "11db88a953f45164b9451add268f0a9f", "fusion_lat": 0.0, "name": "11db88a953f45164b9451add268f0a9f", "is_reserved": 0, "rental_uris": {"android": "https://dc.lft.to/lastmile_qr_scan", "ios": "https://dc.lft.to/lastmile_qr_scan"}, "fusion_lon": 0.0}, {"lat": 38.899958833333336, "is_disabled": 0, "type": "electric_scooter", "lon": -76.9985925, "bike_id": "8175206060ef5adf0d9a68f752b0f820", "fusion_lat": 0.0, "name": "8175206060ef5adf0d9a68f752b0f820", "is_reserved": 0, "rental_uris": {"android": "https://dc.lft.to/lastmile_qr_scan", "ios": "https://dc.lft.to/lastmile_qr_scan"}, "fusion_lon": 0.0}, {"lat": 38.90315983333333, "is_disabled": 0, "type": "electric_scooter", "lon": -77.0518, "bike_id": "70c9de6d0f0bce54740d52b39032cbb2", "fusion_lat": 0.0, "name": "70c9de6d0f0bce54740d52b39032cbb2", "is_reserved": 0, "rental_uris": {"android": "https://dc.lft.to/lastmile_qr_scan", "ios": "https://dc.lft.to/lastmile_qr_scan"}, "fusion_lon": 0.0}, {"lat": 38.91079383333334, "is_disabled": 0, "type": "electric_scooter", "lon": -77.07649583333334, "bike_id": "41cc80d1794e2f3c5a32733c0c3fb8fc", "fusion_lat": 0.0, "name": "41cc80d1794e2f3c5a32733c0c3fb8fc", "is_reserved": 0, "rental_uris": {"android": "https://dc.lft.to/lastmile_qr_scan", "ios": "https://dc.lft.to/lastmile_qr_scan"}, "fusion_lon": 0.0}, {"lat": 38.92471, "is_disabled": 0, "type": "electric_scooter", "lon": -77.02723516666667, "bike_id": "39fb2dd9113596385c98c762280bc07b", "fusion_lat": 0.0, "name": "39fb2dd9113596385c98c762280bc07b", "is_reserved": 0, "rental_uris": {"android": "https://dc.lft.to/lastmile_qr_scan", "ios": "https://dc.lft.to/lastmile_qr_scan"}, "fusion_lon": 0.0}, {"lat": 39.01592183333333, "is_disabled": 0, "type": "electric_bike", "lon": -77.04431666666666, "bike_id": "4d0006e641d4ba2a00b7ffb79bf0b6a1", "fusion_lat": 0.0, "name": "4d0006e641d4ba2a00b7ffb79bf0b6a1", "is_reserved": 0, "rental_uris": {"android": "https://dc.lft.to/lastmile_qr_scan", "ios": "https://dc.lft.to/lastmile_qr_scan"}, "fusion_lon": 0.0}, {"lat": 38.905097833333336, "is_disabled": 0, "type": "electric_scooter", "lon": -77.0637685, "bike_id": "072d6b8a2fa55f5903b6ac97fb7de462", "fusion_lat": 0.0, "name": "072d6b8a2fa55f5903b6ac97fb7de462", "is_reserved": 0, "rental_uris": {"android": "https://dc.lft.to/lastmile_qr_scan", "ios": "https://dc.lft.to/lastmile_qr_scan"}, "fusion_lon": 0.0}, {"lat": 38.917525166666664, "is_disabled": 0, "type": "electric_scooter", "lon": -77.03199, "bike_id": "3327415aebc8d692befd40c2207c764d", "fusion_lat": 0.0, "name": "3327415aebc8d692befd40c2207c764d", "is_reserved": 0, "rental_uris": {"android": "https://dc.lft.to/lastmile_qr_scan", "ios": "https://dc.lft.to/lastmile_qr_scan"}, "fusion_lon": 0.0}, {"lat": 38.900229833333334, "is_disabled": 0, "type": "electric_scooter", "lon": -77.043264, "bike_id": "2b3d01989460b2dada56b20444900149", "fusion_lat": 0.0, "name": "2b3d01989460b2dada56b20444900149", "is_reserved": 0, "rental_uris": {"android": "https://dc.lft.to/lastmile_qr_scan", "ios": "https://dc.lft.to/lastmile_qr_scan"}, "fusion_lon": 0.0}, {"lat": 38.956108666666665, "is_disabled": 0, "type": "electric_scooter", "lon": -77.0279375, "bike_id": "4fe8b8f758fe1837040e538f5c8ce0b3", "fusion_lat": 0.0, "name": "4fe8b8f758fe1837040e538f5c8ce0b3", "is_reserved": 0, "rental_uris": {"android": "https://dc.lft.to/lastmile_qr_scan", "ios": "https://dc.lft.to/lastmile_qr_scan"}, "fusion_lon": 0.0}, {"lat": 38.89101683333333, "is_disabled": 0, "type": "electric_scooter", "lon": -77.00188583333333, "bike_id": "80e84789b2055af1829cb487886c7e1f", "fusion_lat": 0.0, "name": "80e84789b2055af1829cb487886c7e1f", "is_reserved": 0, "rental_uris": {"android": "https://dc.lft.to/lastmile_qr_scan", "ios": "https://dc.lft.to/lastmile_qr_scan"}, "fusion_lon": 0.0}, {"lat": 38.86563433333333, "is_disabled": 0, "type": "electric_scooter", "lon": -76.9895675, "bike_id": "3fbb6fa78e89464f2abfdcb4c5873f23", "fusion_lat": 0.0, "name": "3fbb6fa78e89464f2abfdcb4c5873f23", "is_reserved": 0, "rental_uris": {"android": "https://dc.lft.to/lastmile_qr_scan", "ios": "https://dc.lft.to/lastmile_qr_scan"}, "fusion_lon": 0.0}, {"lat": 38.94836266666667, "is_disabled": 0, "type": "electric_scooter", "lon": -77.02567366666666, "bike_id": "9b5cf92fd8b45f91cc1b30d8dc84abc1", "fusion_lat": 0.0, "name": "9b5cf92fd8b45f91cc1b30d8dc84abc1", "is_reserved": 0, "rental_uris": {"android": "https://dc.lft.to/lastmile_qr_scan", "ios": "https://dc.lft.to/lastmile_qr_scan"}, "fusion_lon": 0.0}, {"lat": 38.896790333333335, "is_disabled": 0, "type": "electric_scooter", "lon": -76.93608916666666, "bike_id": "1fff8f2161c8283cb66b324fefba3c53", "fusion_lat": 0.0, "name": "1fff8f2161c8283cb66b324fefba3c53", "is_reserved": 0, "rental_uris": {"android": "https://dc.lft.to/lastmile_qr_scan", "ios": "https://dc.lft.to/lastmile_qr_scan"}, "fusion_lon": 0.0}, {"lat": 38.92471966666667, "is_disabled": 0, "type": "electric_scooter", "lon": -77.027246, "bike_id": "819a274a1057d03b06bcedb6973c57f7", "fusion_lat": 0.0, "name": "819a274a1057d03b06bcedb6973c57f7", "is_reserved": 0, "rental_uris": {"android": "https://dc.lft.to/lastmile_qr_scan", "ios": "https://dc.lft.to/lastmile_qr_scan"}, "fusion_lon": 0.0}, {"lat": 38.89680933333333, "is_disabled": 0, "type": "electric_scooter", "lon": -76.99628533333333, "bike_id": "de81e1ed4d90691dda88e47504edd173", "fusion_lat": 0.0, "name": "de81e1ed4d90691dda88e47504edd173", "is_reserved": 0, "rental_uris": {"android": "https://dc.lft.to/lastmile_qr_scan", "ios": "https://dc.lft.to/lastmile_qr_scan"}, "fusion_lon": 0.0}, {"lat": 38.909564, "is_disabled": 0, "type": "electric_scooter", "lon": -77.04655416666667, "bike_id": "5df754b9f1e2d446cdccc780ec29c2f1", "fusion_lat": 0.0, "name": "5df754b9f1e2d446cdccc780ec29c2f1", "is_reserved": 0, "rental_uris": {"android": "https://dc.lft.to/lastmile_qr_scan", "ios": "https://dc.lft.to/lastmile_qr_scan"}, "fusion_lon": 0.0}, {"lat": 38.88719533333333, "is_disabled": 0, "type": "electric_scooter", "lon": -76.95475866666666, "bike_id": "d9fbdbd0f315f2bd2f1e6ea58442fbb6", "fusion_lat": 0.0, "name": "d9fbdbd0f315f2bd2f1e6ea58442fbb6", "is_reserved": 0, "rental_uris": {"android": "https://dc.lft.to/lastmile_qr_scan", "ios": "https://dc.lft.to/lastmile_qr_scan"}, "fusion_lon": 0.0}, {"lat": 38.91591966666667, "is_disabled": 0, "type": "electric_scooter", "lon": -77.0320175, "bike_id": "5a0b4060da18d9e3da50e0624dc45d04", "fusion_lat": 0.0, "name": "5a0b4060da18d9e3da50e0624dc45d04", "is_reserved": 0, "rental_uris": {"android": "https://dc.lft.to/lastmile_qr_scan", "ios": "https://dc.lft.to/lastmile_qr_scan"}, "fusion_lon": 0.0}, {"lat": 38.9113895, "is_disabled": 0, "type": "electric_scooter", "lon": -77.04486583333333, "bike_id": "975b9d690455ee665c9a0f439f6f4195", "fusion_lat": 0.0, "name": "975b9d690455ee665c9a0f439f6f4195", "is_reserved": 0, "rental_uris": {"android": "https://dc.lft.to/lastmile_qr_scan", "ios": "https://dc.lft.to/lastmile_qr_scan"}, "fusion_lon": 0.0}, {"lat": 38.8948135, "is_disabled": 0, "type": "electric_scooter", "lon": -77.02292716666666, "bike_id": "1c1e13ed8312f914d78ee57977390b75", "fusion_lat": 0.0, "name": "1c1e13ed8312f914d78ee57977390b75", "is_reserved": 0, "rental_uris": {"android": "https://dc.lft.to/lastmile_qr_scan", "ios": "https://dc.lft.to/lastmile_qr_scan"}, "fusion_lon": 0.0}, {"lat": 38.895625333333335, "is_disabled": 0, "type": "electric_scooter", "lon": -77.02195733333333, "bike_id": "ec7bc734af5ed6b0a8622a18e90b557e", "fusion_lat": 0.0, "name": "ec7bc734af5ed6b0a8622a18e90b557e", "is_reserved": 0, "rental_uris": {"android": "https://dc.lft.to/lastmile_qr_scan", "ios": "https://dc.lft.to/lastmile_qr_scan"}, "fusion_lon": 0.0}, {"lat": 38.91707266666667, "is_disabled": 0, "type": "electric_scooter", "lon": -77.0335215, "bike_id": "d994e3125477f16ca74e87c8b5b60082", "fusion_lat": 0.0, "name": "d994e3125477f16ca74e87c8b5b60082", "is_reserved": 0, "rental_uris": {"android": "https://dc.lft.to/lastmile_qr_scan", "ios": "https://dc.lft.to/lastmile_qr_scan"}, "fusion_lon": 0.0}, {"lat": 38.9256735, "is_disabled": 0, "type": "electric_scooter", "lon": -76.9701255, "bike_id": "46a4d8b6a7af43d4c16bc35226ad1777", "fusion_lat": 0.0, "name": "46a4d8b6a7af43d4c16bc35226ad1777", "is_reserved": 0, "rental_uris": {"android": "https://dc.lft.to/lastmile_qr_scan", "ios": "https://dc.lft.to/lastmile_qr_scan"}, "fusion_lon": 0.0}, {"lat": 38.9311215, "is_disabled": 0, "type": "electric_scooter", "lon": -77.02347633333333, "bike_id": "c07d873e1af114f3591137d5fe9f4c06", "fusion_lat": 0.0, "name": "c07d873e1af114f3591137d5fe9f4c06", "is_reserved": 0, "rental_uris": {"android": "https://dc.lft.to/lastmile_qr_scan", "ios": "https://dc.lft.to/lastmile_qr_scan"}, "fusion_lon": 0.0}, {"lat": 38.966015, "is_disabled": 0, "type": "electric_bike", "lon": -76.98336933333333, "bike_id": "4bc0125def84fb3947d8b291a2a428bb", "fusion_lat": 0.0, "name": "4bc0125def84fb3947d8b291a2a428bb", "is_reserved": 0, "rental_uris": {"android": "https://dc.lft.to/lastmile_qr_scan", "ios": "https://dc.lft.to/lastmile_qr_scan"}, "fusion_lon": 0.0}, {"lat": 38.937270166666664, "is_disabled": 0, "type": "electric_scooter", "lon": -77.03276766666667, "bike_id": "ac349b3fa95a84c70b8153f9747585ce", "fusion_lat": 0.0, "name": "ac349b3fa95a84c70b8153f9747585ce", "is_reserved": 0, "rental_uris": {"android": "https://dc.lft.to/lastmile_qr_scan", "ios": "https://dc.lft.to/lastmile_qr_scan"}, "fusion_lon": 0.0}, {"lat": 38.917781166666664, "is_disabled": 0, "type": "electric_scooter", "lon": -77.02312866666666, "bike_id": "d7b543e1a51c432f701dc75d2803dc2c", "fusion_lat": 0.0, "name": "d7b543e1a51c432f701dc75d2803dc2c", "is_reserved": 0, "rental_uris": {"android": "https://dc.lft.to/lastmile_qr_scan", "ios": "https://dc.lft.to/lastmile_qr_scan"}, "fusion_lon": 0.0}, {"lat": 38.938197333333335, "is_disabled": 0, "type": "electric_scooter", "lon": -77.06055033333334, "bike_id": "3173db5efb068c51e09508ec6e8e5ba2", "fusion_lat": 0.0, "name": "3173db5efb068c51e09508ec6e8e5ba2", "is_reserved": 0, "rental_uris": {"android": "https://dc.lft.to/lastmile_qr_scan", "ios": "https://dc.lft.to/lastmile_qr_scan"}, "fusion_lon": 0.0}, {"lat": 38.892513, "is_disabled": 0, "type": "electric_scooter", "lon": -77.04879416666667, "bike_id": "a1c00d20d5aafad855e162b4624d4a63", "fusion_lat": 0.0, "name": "a1c00d20d5aafad855e162b4624d4a63", "is_reserved": 0, "rental_uris": {"android": "https://dc.lft.to/lastmile_qr_scan", "ios": "https://dc.lft.to/lastmile_qr_scan"}, "fusion_lon": 0.0}, {"lat": 38.9036735, "is_disabled": 0, "type": "electric_scooter", "lon": -77.04167433333333, "bike_id": "0a6d4a05ac919dea9dc47c9e5ca05e5f", "fusion_lat": 0.0, "name": "0a6d4a05ac919dea9dc47c9e5ca05e5f", "is_reserved": 0, "rental_uris": {"android": "https://dc.lft.to/lastmile_qr_scan", "ios": "https://dc.lft.to/lastmile_qr_scan"}, "fusion_lon": 0.0}, {"lat": 38.898381666666666, "is_disabled": 0, "type": "electric_scooter", "lon": -76.931034, "bike_id": "90f1478627e392fd0cb8e212c54d8036", "fusion_lat": 0.0, "name": "90f1478627e392fd0cb8e212c54d8036", "is_reserved": 0, "rental_uris": {"android": "https://dc.lft.to/lastmile_qr_scan", "ios": "https://dc.lft.to/lastmile_qr_scan"}, "fusion_lon": 0.0}, {"lat": 38.928740833333336, "is_disabled": 0, "type": "electric_scooter", "lon": -77.02712616666666, "bike_id": "6715efe4fc741fa29ce9be99e31885b4", "fusion_lat": 0.0, "name": "6715efe4fc741fa29ce9be99e31885b4", "is_reserved": 0, "rental_uris": {"android": "https://dc.lft.to/lastmile_qr_scan", "ios": "https://dc.lft.to/lastmile_qr_scan"}, "fusion_lon": 0.0}, {"lat": 39.088517333333336, "is_disabled": 0, "type": "electric_bike", "lon": -77.17847233333333, "bike_id": "50c90f968b1cd8a5a1f78a1289d5b99a", "fusion_lat": 0.0, "name": "50c90f968b1cd8a5a1f78a1289d5b99a", "is_reserved": 0, "rental_uris": {"android": "https://dc.lft.to/lastmile_qr_scan", "ios": "https://dc.lft.to/lastmile_qr_scan"}, "fusion_lon": 0.0}, {"lat": 38.983655, "is_disabled": 0, "type": "electric_scooter", "lon": -77.02648533333333, "bike_id": "847e6d5655809e4c25b792b02cbacc9c", "fusion_lat": 0.0, "name": "847e6d5655809e4c25b792b02cbacc9c", "is_reserved": 0, "rental_uris": {"android": "https://dc.lft.to/lastmile_qr_scan", "ios": "https://dc.lft.to/lastmile_qr_scan"}, "fusion_lon": 0.0}, {"lat": 38.91554433333334, "is_disabled": 0, "type": "electric_scooter", "lon": -77.03865816666666, "bike_id": "e020aa1562db5bde3eee0d719d7e324f", "fusion_lat": 0.0, "name": "e020aa1562db5bde3eee0d719d7e324f", "is_reserved": 0, "rental_uris": {"android": "https://dc.lft.to/lastmile_qr_scan", "ios": "https://dc.lft.to/lastmile_qr_scan"}, "fusion_lon": 0.0}, {"lat": 38.907210166666665, "is_disabled": 0, "type": "electric_scooter", "lon": -77.040199, "bike_id": "e0542ba3570c20951daa184776fb49a4", "fusion_lat": 0.0, "name": "e0542ba3570c20951daa184776fb49a4", "is_reserved": 0, "rental_uris": {"android": "https://dc.lft.to/lastmile_qr_scan", "ios": "https://dc.lft.to/lastmile_qr_scan"}, "fusion_lon": 0.0}, {"lat": 38.9285225, "is_disabled": 0, "type": "electric_bike", "lon": -77.222167, "bike_id": "c55c31d5202b5172296717b28045f0d3", "fusion_lat": 0.0, "name": "c55c31d5202b5172296717b28045f0d3", "is_reserved": 0, "rental_uris": {"android": "https://dc.lft.to/lastmile_qr_scan", "ios": "https://dc.lft.to/lastmile_qr_scan"}, "fusion_lon": 0.0}, {"lat": 38.918146, "is_disabled": 0, "type": "electric_scooter", "lon": -77.02483, "bike_id": "0a840df23f6dc7af3c720660ae15f2b1", "fusion_lat": 0.0, "name": "0a840df23f6dc7af3c720660ae15f2b1", "is_reserved": 0, "rental_uris": {"android": "https://dc.lft.to/lastmile_qr_scan", "ios": "https://dc.lft.to/lastmile_qr_scan"}, "fusion_lon": 0.0}, {"lat": 38.922116, "is_disabled": 0, "type": "electric_scooter", "lon": -77.0329975, "bike_id": "d9e718e05dd186f09887eb5a3185ead3", "fusion_lat": 0.0, "name": "d9e718e05dd186f09887eb5a3185ead3", "is_reserved": 0, "rental_uris": {"android": "https://dc.lft.to/lastmile_qr_scan", "ios": "https://dc.lft.to/lastmile_qr_scan"}, "fusion_lon": 0.0}, {"lat": 38.915464, "is_disabled": 0, "type": "electric_scooter", "lon": -77.03852183333333, "bike_id": "5ae4afc9a997227202d0a3718388be3b", "fusion_lat": 0.0, "name": "5ae4afc9a997227202d0a3718388be3b", "is_reserved": 0, "rental_uris": {"android": "https://dc.lft.to/lastmile_qr_scan", "ios": "https://dc.lft.to/lastmile_qr_scan"}, "fusion_lon": 0.0}, {"lat": 38.9050095, "is_disabled": 0, "type": "electric_scooter", "lon": -77.04324366666667, "bike_id": "39a7d3bdc5b4a5798eba9ddad787421f", "fusion_lat": 0.0, "name": "39a7d3bdc5b4a5798eba9ddad787421f", "is_reserved": 0, "rental_uris": {"android": "https://dc.lft.to/lastmile_qr_scan", "ios": "https://dc.lft.to/lastmile_qr_scan"}, "fusion_lon": 0.0}, {"lat": 38.900540666666664, "is_disabled": 0, "type": "electric_bike", "lon": -77.041858, "bike_id": "7c3dc54c717a8b6a63cad4adc79d2126", "fusion_lat": 0.0, "name": "7c3dc54c717a8b6a63cad4adc79d2126", "is_reserved": 0, "rental_uris": {"android": "https://dc.lft.to/lastmile_qr_scan", "ios": "https://dc.lft.to/lastmile_qr_scan"}, "fusion_lon": 0.0}, {"lat": 38.879069333333334, "is_disabled": 0, "type": "electric_scooter", "lon": -77.02232766666667, "bike_id": "5a7203d426428292c1cdca94a3bd3234", "fusion_lat": 0.0, "name": "5a7203d426428292c1cdca94a3bd3234", "is_reserved": 0, "rental_uris": {"android": "https://dc.lft.to/lastmile_qr_scan", "ios": "https://dc.lft.to/lastmile_qr_scan"}, "fusion_lon": 0.0}, {"lat": 38.866211166666666, "is_disabled": 0, "type": "electric_scooter", "lon": -76.9870305, "bike_id": "aaccd1e583b04d253d0e010218fba62c", "fusion_lat": 0.0, "name": "aaccd1e583b04d253d0e010218fba62c", "is_reserved": 0, "rental_uris": {"android": "https://dc.lft.to/lastmile_qr_scan", "ios": "https://dc.lft.to/lastmile_qr_scan"}, "fusion_lon": 0.0}, {"lat": 38.911167, "is_disabled": 0, "type": "electric_scooter", "lon": -77.04463816666667, "bike_id": "3bfa003b630bbd99ab76b24d4fef57c3", "fusion_lat": 0.0, "name": "3bfa003b630bbd99ab76b24d4fef57c3", "is_reserved": 0, "rental_uris": {"android": "https://dc.lft.to/lastmile_qr_scan", "ios": "https://dc.lft.to/lastmile_qr_scan"}, "fusion_lon": 0.0}, {"lat": 38.918798333333335, "is_disabled": 0, "type": "electric_scooter", "lon": -77.02971783333334, "bike_id": "92cec4a24a522da0c272cd9ef6b07fe5", "fusion_lat": 0.0, "name": "92cec4a24a522da0c272cd9ef6b07fe5", "is_reserved": 0, "rental_uris": {"android": "https://dc.lft.to/lastmile_qr_scan", "ios": "https://dc.lft.to/lastmile_qr_scan"}, "fusion_lon": 0.0}, {"lat": 38.84291666666667, "is_disabled": 0, "type": "electric_scooter", "lon": -76.999567, "bike_id": "0e51b57e3bedfcc4fd618dcdbb89d910", "fusion_lat": 0.0, "name": "0e51b57e3bedfcc4fd618dcdbb89d910", "is_reserved": 0, "rental_uris": {"android": "https://dc.lft.to/lastmile_qr_scan", "ios": "https://dc.lft.to/lastmile_qr_scan"}, "fusion_lon": 0.0}, {"lat": 38.923866833333335, "is_disabled": 0, "type": "electric_scooter", "lon": -77.04089933333333, "bike_id": "e5929c4a4683c25abb5a19659ad62078", "fusion_lat": 0.0, "name": "e5929c4a4683c25abb5a19659ad62078", "is_reserved": 0, "rental_uris": {"android": "https://dc.lft.to/lastmile_qr_scan", "ios": "https://dc.lft.to/lastmile_qr_scan"}, "fusion_lon": 0.0}, {"lat": 38.8936985, "is_disabled": 0, "type": "electric_scooter", "lon": -76.950041, "bike_id": "7a026a1e7614f0137275e4058d5ebc0b", "fusion_lat": 0.0, "name": "7a026a1e7614f0137275e4058d5ebc0b", "is_reserved": 0, "rental_uris": {"android": "https://dc.lft.to/lastmile_qr_scan", "ios": "https://dc.lft.to/lastmile_qr_scan"}, "fusion_lon": 0.0}, {"lat": 38.90101116666666, "is_disabled": 0, "type": "electric_scooter", "lon": -77.01819683333333, "bike_id": "f9417f8d9b80c53087774a4384d05518", "fusion_lat": 0.0, "name": "f9417f8d9b80c53087774a4384d05518", "is_reserved": 0, "rental_uris": {"android": "https://dc.lft.to/lastmile_qr_scan", "ios": "https://dc.lft.to/lastmile_qr_scan"}, "fusion_lon": 0.0}, {"lat": 38.84270716666666, "is_disabled": 0, "type": "electric_bike", "lon": -76.98847183333334, "bike_id": "f816276718651910ec9baa5650db36e3", "fusion_lat": 0.0, "name": "f816276718651910ec9baa5650db36e3", "is_reserved": 0, "rental_uris": {"android": "https://dc.lft.to/lastmile_qr_scan", "ios": "https://dc.lft.to/lastmile_qr_scan"}, "fusion_lon": 0.0}, {"lat": 38.849357166666664, "is_disabled": 0, "type": "electric_bike", "lon": -77.100172, "bike_id": "8efe883a7f26c02c8dd57ecacb70735c", "fusion_lat": 0.0, "name": "8efe883a7f26c02c8dd57ecacb70735c", "is_reserved": 0, "rental_uris": {"android": "https://dc.lft.to/lastmile_qr_scan", "ios": "https://dc.lft.to/lastmile_qr_scan"}, "fusion_lon": 0.0}, {"lat": 38.88478683333334, "is_disabled": 0, "type": "electric_scooter", "lon": -77.01537216666667, "bike_id": "4e919073d4d55bc7f18facbed4388321", "fusion_lat": 0.0, "name": "4e919073d4d55bc7f18facbed4388321", "is_reserved": 0, "rental_uris": {"android": "https://dc.lft.to/lastmile_qr_scan", "ios": "https://dc.lft.to/lastmile_qr_scan"}, "fusion_lon": 0.0}, {"lat": 38.924645, "is_disabled": 0, "type": "electric_scooter", "lon": -77.0289495, "bike_id": "9cb22dfa6eaa403e9375ce0286e96ab6", "fusion_lat": 0.0, "name": "9cb22dfa6eaa403e9375ce0286e96ab6", "is_reserved": 0, "rental_uris": {"android": "https://dc.lft.to/lastmile_qr_scan", "ios": "https://dc.lft.to/lastmile_qr_scan"}, "fusion_lon": 0.0}, {"lat": 38.9218335, "is_disabled": 0, "type": "electric_scooter", "lon": -77.024159, "bike_id": "5c4dd964e0d2124ac19c3837fc6f4e2b", "fusion_lat": 0.0, "name": "5c4dd964e0d2124ac19c3837fc6f4e2b", "is_reserved": 0, "rental_uris": {"android": "https://dc.lft.to/lastmile_qr_scan", "ios": "https://dc.lft.to/lastmile_qr_scan"}, "fusion_lon": 0.0}, {"lat": 38.90953733333333, "is_disabled": 0, "type": "electric_scooter", "lon": -77.04832583333334, "bike_id": "cf22cfee29eae581a64e83a01c8ccfdd", "fusion_lat": 0.0, "name": "cf22cfee29eae581a64e83a01c8ccfdd", "is_reserved": 0, "rental_uris": {"android": "https://dc.lft.to/lastmile_qr_scan", "ios": "https://dc.lft.to/lastmile_qr_scan"}, "fusion_lon": 0.0}, {"lat": 38.90961083333333, "is_disabled": 0, "type": "electric_scooter", "lon": -76.9844275, "bike_id": "38334bce61eaa6d7f15b93c4defe752f", "fusion_lat": 0.0, "name": "38334bce61eaa6d7f15b93c4defe752f", "is_reserved": 0, "rental_uris": {"android": "https://dc.lft.to/lastmile_qr_scan", "ios": "https://dc.lft.to/lastmile_qr_scan"}, "fusion_lon": 0.0}, {"lat": 38.9311315, "is_disabled": 0, "type": "electric_scooter", "lon": -77.038115, "bike_id": "39cfac3833824b8c85193ef16e16861b", "fusion_lat": 0.0, "name": "39cfac3833824b8c85193ef16e16861b", "is_reserved": 0, "rental_uris": {"android": "https://dc.lft.to/lastmile_qr_scan", "ios": "https://dc.lft.to/lastmile_qr_scan"}, "fusion_lon": 0.0}, {"lat": 38.9213595, "is_disabled": 0, "type": "electric_scooter", "lon": -77.01796466666667, "bike_id": "97e8126c5795ee4a7870387243465fd7", "fusion_lat": 0.0, "name": "97e8126c5795ee4a7870387243465fd7", "is_reserved": 0, "rental_uris": {"android": "https://dc.lft.to/lastmile_qr_scan", "ios": "https://dc.lft.to/lastmile_qr_scan"}, "fusion_lon": 0.0}, {"lat": 38.87932566666667, "is_disabled": 0, "type": "electric_scooter", "lon": -77.004905, "bike_id": "474f06b821523dc3ca2e590e2a3f2307", "fusion_lat": 0.0, "name": "474f06b821523dc3ca2e590e2a3f2307", "is_reserved": 0, "rental_uris": {"android": "https://dc.lft.to/lastmile_qr_scan", "ios": "https://dc.lft.to/lastmile_qr_scan"}, "fusion_lon": 0.0}, {"lat": 38.921843, "is_disabled": 0, "type": "electric_scooter", "lon": -77.031963, "bike_id": "504b2a43ecb429d540e1a1a5dc5943c5", "fusion_lat": 0.0, "name": "504b2a43ecb429d540e1a1a5dc5943c5", "is_reserved": 0, "rental_uris": {"android": "https://dc.lft.to/lastmile_qr_scan", "ios": "https://dc.lft.to/lastmile_qr_scan"}, "fusion_lon": 0.0}, {"lat": 38.869163666666665, "is_disabled": 0, "type": "electric_scooter", "lon": -76.9830515, "bike_id": "f5ff71ba5ffeac29d4da319d956f6a20", "fusion_lat": 0.0, "name": "f5ff71ba5ffeac29d4da319d956f6a20", "is_reserved": 0, "rental_uris": {"android": "https://dc.lft.to/lastmile_qr_scan", "ios": "https://dc.lft.to/lastmile_qr_scan"}, "fusion_lon": 0.0}, {"lat": 38.91677466666667, "is_disabled": 0, "type": "electric_scooter", "lon": -77.02978366666666, "bike_id": "2b7fb71fd6dd177a12e839fe29f3a5da", "fusion_lat": 0.0, "name": "2b7fb71fd6dd177a12e839fe29f3a5da", "is_reserved": 0, "rental_uris": {"android": "https://dc.lft.to/lastmile_qr_scan", "ios": "https://dc.lft.to/lastmile_qr_scan"}, "fusion_lon": 0.0}, {"lat": 38.9865135, "is_disabled": 0, "type": "electric_bike", "lon": -77.05641483333333, "bike_id": "a34e94bb151cb015dfada03c4848a728", "fusion_lat": 0.0, "name": "a34e94bb151cb015dfada03c4848a728", "is_reserved": 0, "rental_uris": {"android": "https://dc.lft.to/lastmile_qr_scan", "ios": "https://dc.lft.to/lastmile_qr_scan"}, "fusion_lon": 0.0}, {"lat": 38.90033783333333, "is_disabled": 0, "type": "electric_scooter", "lon": -76.98839983333333, "bike_id": "b7c95088c318232e9b43db881763f1d7", "fusion_lat": 0.0, "name": "b7c95088c318232e9b43db881763f1d7", "is_reserved": 0, "rental_uris": {"android": "https://dc.lft.to/lastmile_qr_scan", "ios": "https://dc.lft.to/lastmile_qr_scan"}, "fusion_lon": 0.0}, {"lat": 38.84413216666667, "is_disabled": 0, "type": "electric_scooter", "lon": -76.9977695, "bike_id": "457c43280a4387bcc48dc8cf627d4502", "fusion_lat": 0.0, "name": "457c43280a4387bcc48dc8cf627d4502", "is_reserved": 0, "rental_uris": {"android": "https://dc.lft.to/lastmile_qr_scan", "ios": "https://dc.lft.to/lastmile_qr_scan"}, "fusion_lon": 0.0}, {"lat": 38.9323955, "is_disabled": 0, "type": "electric_scooter", "lon": -77.03606533333334, "bike_id": "2ad55735d520b753c3d892093ea37677", "fusion_lat": 0.0, "name": "2ad55735d520b753c3d892093ea37677", "is_reserved": 0, "rental_uris": {"android": "https://dc.lft.to/lastmile_qr_scan", "ios": "https://dc.lft.to/lastmile_qr_scan"}, "fusion_lon": 0.0}, {"lat": 38.90522466666667, "is_disabled": 0, "type": "electric_scooter", "lon": -77.06264933333334, "bike_id": "5d223b33264e66e61b1150d7abeb92d9", "fusion_lat": 0.0, "name": "5d223b33264e66e61b1150d7abeb92d9", "is_reserved": 0, "rental_uris": {"android": "https://dc.lft.to/lastmile_qr_scan", "ios": "https://dc.lft.to/lastmile_qr_scan"}, "fusion_lon": 0.0}, {"lat": 38.8859745, "is_disabled": 0, "type": "electric_scooter", "lon": -77.002175, "bike_id": "7783aecfa2797623e3a61716d799084b", "fusion_lat": 0.0, "name": "7783aecfa2797623e3a61716d799084b", "is_reserved": 0, "rental_uris": {"android": "https://dc.lft.to/lastmile_qr_scan", "ios": "https://dc.lft.to/lastmile_qr_scan"}, "fusion_lon": 0.0}, {"lat": 38.93128866666667, "is_disabled": 0, "type": "electric_scooter", "lon": -77.05615133333333, "bike_id": "c1249ddbe0ed452eedb16582c633150c", "fusion_lat": 0.0, "name": "c1249ddbe0ed452eedb16582c633150c", "is_reserved": 0, "rental_uris": {"android": "https://dc.lft.to/lastmile_qr_scan", "ios": "https://dc.lft.to/lastmile_qr_scan"}, "fusion_lon": 0.0}, {"lat": 38.92203266666667, "is_disabled": 0, "type": "electric_scooter", "lon": -77.04024283333334, "bike_id": "0bb72f2e78393392fbf1a3b33566dafb", "fusion_lat": 0.0, "name": "0bb72f2e78393392fbf1a3b33566dafb", "is_reserved": 0, "rental_uris": {"android": "https://dc.lft.to/lastmile_qr_scan", "ios": "https://dc.lft.to/lastmile_qr_scan"}, "fusion_lon": 0.0}, {"lat": 38.923476666666666, "is_disabled": 0, "type": "electric_bike", "lon": -76.99253183333333, "bike_id": "15f318501a17ccecce63bd751a704b77", "fusion_lat": 0.0, "name": "15f318501a17ccecce63bd751a704b77", "is_reserved": 0, "rental_uris": {"android": "https://dc.lft.to/lastmile_qr_scan", "ios": "https://dc.lft.to/lastmile_qr_scan"}, "fusion_lon": 0.0}, {"lat": 38.932407, "is_disabled": 0, "type": "electric_scooter", "lon": -77.032834, "bike_id": "c652d20bee99556bfc75fc65236bbb5f", "fusion_lat": 0.0, "name": "c652d20bee99556bfc75fc65236bbb5f", "is_reserved": 0, "rental_uris": {"android": "https://dc.lft.to/lastmile_qr_scan", "ios": "https://dc.lft.to/lastmile_qr_scan"}, "fusion_lon": 0.0}, {"lat": 38.887428166666666, "is_disabled": 0, "type": "electric_scooter", "lon": -77.02163916666667, "bike_id": "0b090984b1f18223aa8580e99d488abf", "fusion_lat": 0.0, "name": "0b090984b1f18223aa8580e99d488abf", "is_reserved": 0, "rental_uris": {"android": "https://dc.lft.to/lastmile_qr_scan", "ios": "https://dc.lft.to/lastmile_qr_scan"}, "fusion_lon": 0.0}, {"lat": 38.909797833333336, "is_disabled": 0, "type": "electric_scooter", "lon": -77.039479, "bike_id": "53007ca4272c0ea453383ed558d564a5", "fusion_lat": 0.0, "name": "53007ca4272c0ea453383ed558d564a5", "is_reserved": 0, "rental_uris": {"android": "https://dc.lft.to/lastmile_qr_scan", "ios": "https://dc.lft.to/lastmile_qr_scan"}, "fusion_lon": 0.0}, {"lat": 38.87155833333333, "is_disabled": 0, "type": "electric_scooter", "lon": -77.01316583333333, "bike_id": "36bc224cc20a404bc9d1cef7d3a3e8f0", "fusion_lat": 0.0, "name": "36bc224cc20a404bc9d1cef7d3a3e8f0", "is_reserved": 0, "rental_uris": {"android": "https://dc.lft.to/lastmile_qr_scan", "ios": "https://dc.lft.to/lastmile_qr_scan"}, "fusion_lon": 0.0}, {"lat": 38.89834183333333, "is_disabled": 0, "type": "electric_scooter", "lon": -77.04365983333334, "bike_id": "a547130d02f4fab3ed4af79981078943", "fusion_lat": 0.0, "name": "a547130d02f4fab3ed4af79981078943", "is_reserved": 0, "rental_uris": {"android": "https://dc.lft.to/lastmile_qr_scan", "ios": "https://dc.lft.to/lastmile_qr_scan"}, "fusion_lon": 0.0}, {"lat": 38.92295516666667, "is_disabled": 0, "type": "electric_scooter", "lon": -77.04306416666667, "bike_id": "98c58a56f74c5a0be4340db0550c2833", "fusion_lat": 0.0, "name": "98c58a56f74c5a0be4340db0550c2833", "is_reserved": 0, "rental_uris": {"android": "https://dc.lft.to/lastmile_qr_scan", "ios": "https://dc.lft.to/lastmile_qr_scan"}, "fusion_lon": 0.0}, {"lat": 38.84570083333333, "is_disabled": 0, "type": "electric_bike", "lon": -77.09624883333333, "bike_id": "d6d6d558bb0d2fef2b76e95b7b93575b", "fusion_lat": 0.0, "name": "d6d6d558bb0d2fef2b76e95b7b93575b", "is_reserved": 0, "rental_uris": {"android": "https://dc.lft.to/lastmile_qr_scan", "ios": "https://dc.lft.to/lastmile_qr_scan"}, "fusion_lon": 0.0}, {"lat": 38.91612, "is_disabled": 0, "type": "electric_scooter", "lon": -77.03279233333333, "bike_id": "0b42cd8e5a2cd68a1beb03d38cb4efe2", "fusion_lat": 0.0, "name": "0b42cd8e5a2cd68a1beb03d38cb4efe2", "is_reserved": 0, "rental_uris": {"android": "https://dc.lft.to/lastmile_qr_scan", "ios": "https://dc.lft.to/lastmile_qr_scan"}, "fusion_lon": 0.0}, {"lat": 38.8714335, "is_disabled": 0, "type": "electric_bike", "lon": -76.93712166666667, "bike_id": "1912a2202a992fafee8a73384c52fce2", "fusion_lat": 0.0, "name": "1912a2202a992fafee8a73384c52fce2", "is_reserved": 0, "rental_uris": {"android": "https://dc.lft.to/lastmile_qr_scan", "ios": "https://dc.lft.to/lastmile_qr_scan"}, "fusion_lon": 0.0}, {"lat": 38.884269, "is_disabled": 0, "type": "electric_bike", "lon": -76.95753733333333, "bike_id": "16ca7e97e6b435f0ac10fa39b42fbc9a", "fusion_lat": 0.0, "name": "16ca7e97e6b435f0ac10fa39b42fbc9a", "is_reserved": 0, "rental_uris": {"android": "https://dc.lft.to/lastmile_qr_scan", "ios": "https://dc.lft.to/lastmile_qr_scan"}, "fusion_lon": 0.0}, {"lat": 38.88353933333333, "is_disabled": 0, "type": "electric_scooter", "lon": -77.026352, "bike_id": "6c3e99391d4ab36bbf68c7c069bde4fb", "fusion_lat": 0.0, "name": "6c3e99391d4ab36bbf68c7c069bde4fb", "is_reserved": 0, "rental_uris": {"android": "https://dc.lft.to/lastmile_qr_scan", "ios": "https://dc.lft.to/lastmile_qr_scan"}, "fusion_lon": 0.0}, {"lat": 38.909352, "is_disabled": 0, "type": "electric_scooter", "lon": -77.02121616666666, "bike_id": "53974bebe46c750888cd80f92797e2e4", "fusion_lat": 0.0, "name": "53974bebe46c750888cd80f92797e2e4", "is_reserved": 0, "rental_uris": {"android": "https://dc.lft.to/lastmile_qr_scan", "ios": "https://dc.lft.to/lastmile_qr_scan"}, "fusion_lon": 0.0}, {"lat": 38.912671333333336, "is_disabled": 0, "type": "electric_scooter", "lon": -77.03393916666667, "bike_id": "4da12d5177c153736ae24be6137c77b9", "fusion_lat": 0.0, "name": "4da12d5177c153736ae24be6137c77b9", "is_reserved": 0, "rental_uris": {"android": "https://dc.lft.to/lastmile_qr_scan", "ios": "https://dc.lft.to/lastmile_qr_scan"}, "fusion_lon": 0.0}, {"lat": 38.909116, "is_disabled": 0, "type": "electric_scooter", "lon": -76.99260216666667, "bike_id": "3a88fe10b1750586e194791812cb6b8b", "fusion_lat": 0.0, "name": "3a88fe10b1750586e194791812cb6b8b", "is_reserved": 0, "rental_uris": {"android": "https://dc.lft.to/lastmile_qr_scan", "ios": "https://dc.lft.to/lastmile_qr_scan"}, "fusion_lon": 0.0}, {"lat": 38.89322533333333, "is_disabled": 0, "type": "electric_bike", "lon": -76.921171, "bike_id": "4023cda20cfa2b43630d8efffd5bb6cb", "fusion_lat": 0.0, "name": "4023cda20cfa2b43630d8efffd5bb6cb", "is_reserved": 0, "rental_uris": {"android": "https://dc.lft.to/lastmile_qr_scan", "ios": "https://dc.lft.to/lastmile_qr_scan"}, "fusion_lon": 0.0}, {"lat": 38.9167485, "is_disabled": 0, "type": "electric_scooter", "lon": -77.03273033333333, "bike_id": "e3fae8edc2e8b9f5ed8a11ee6a6bd3be", "fusion_lat": 0.0, "name": "e3fae8edc2e8b9f5ed8a11ee6a6bd3be", "is_reserved": 0, "rental_uris": {"android": "https://dc.lft.to/lastmile_qr_scan", "ios": "https://dc.lft.to/lastmile_qr_scan"}, "fusion_lon": 0.0}, {"lat": 38.8973685, "is_disabled": 0, "type": "electric_scooter", "lon": -77.04683816666666, "bike_id": "836ae9b746370474d4d5a3bb1f87c531", "fusion_lat": 0.0, "name": "836ae9b746370474d4d5a3bb1f87c531", "is_reserved": 0, "rental_uris": {"android": "https://dc.lft.to/lastmile_qr_scan", "ios": "https://dc.lft.to/lastmile_qr_scan"}, "fusion_lon": 0.0}, {"lat": 38.878114833333335, "is_disabled": 0, "type": "electric_scooter", "lon": -77.02250816666667, "bike_id": "b24eb77439af1ddc52c90881e065f220", "fusion_lat": 0.0, "name": "b24eb77439af1ddc52c90881e065f220", "is_reserved": 0, "rental_uris": {"android": "https://dc.lft.to/lastmile_qr_scan", "ios": "https://dc.lft.to/lastmile_qr_scan"}, "fusion_lon": 0.0}, {"lat": 38.91676666666667, "is_disabled": 0, "type": "electric_scooter", "lon": -77.029746, "bike_id": "0bd85d5905f885518df90e144af53aa2", "fusion_lat": 0.0, "name": "0bd85d5905f885518df90e144af53aa2", "is_reserved": 0, "rental_uris": {"android": "https://dc.lft.to/lastmile_qr_scan", "ios": "https://dc.lft.to/lastmile_qr_scan"}, "fusion_lon": 0.0}, {"lat": 38.903871333333335, "is_disabled": 0, "type": "electric_scooter", "lon": -77.0580505, "bike_id": "2e8b89e07281d74eb9928fce289aef8e", "fusion_lat": 0.0, "name": "2e8b89e07281d74eb9928fce289aef8e", "is_reserved": 0, "rental_uris": {"android": "https://dc.lft.to/lastmile_qr_scan", "ios": "https://dc.lft.to/lastmile_qr_scan"}, "fusion_lon": 0.0}, {"lat": 38.899134, "is_disabled": 0, "type": "electric_scooter", "lon": -77.04173, "bike_id": "b752e0f9023fad4267a63d00cda2afc5", "fusion_lat": 0.0, "name": "b752e0f9023fad4267a63d00cda2afc5", "is_reserved": 0, "rental_uris": {"android": "https://dc.lft.to/lastmile_qr_scan", "ios": "https://dc.lft.to/lastmile_qr_scan"}, "fusion_lon": 0.0}, {"lat": 38.89729483333333, "is_disabled": 0, "type": "electric_scooter", "lon": -76.94720916666667, "bike_id": "9e1374aa167111d034ec3e6323ebad7b", "fusion_lat": 0.0, "name": "9e1374aa167111d034ec3e6323ebad7b", "is_reserved": 0, "rental_uris": {"android": "https://dc.lft.to/lastmile_qr_scan", "ios": "https://dc.lft.to/lastmile_qr_scan"}, "fusion_lon": 0.0}, {"lat": 38.9030275, "is_disabled": 0, "type": "electric_scooter", "lon": -77.034499, "bike_id": "e8648717a219b1adfdcfa73904640683", "fusion_lat": 0.0, "name": "e8648717a219b1adfdcfa73904640683", "is_reserved": 0, "rental_uris": {"android": "https://dc.lft.to/lastmile_qr_scan", "ios": "https://dc.lft.to/lastmile_qr_scan"}, "fusion_lon": 0.0}, {"lat": 38.9058265, "is_disabled": 0, "type": "electric_scooter", "lon": -76.98626683333333, "bike_id": "e27f0f3699e510d9af444316200e7d60", "fusion_lat": 0.0, "name": "e27f0f3699e510d9af444316200e7d60", "is_reserved": 0, "rental_uris": {"android": "https://dc.lft.to/lastmile_qr_scan", "ios": "https://dc.lft.to/lastmile_qr_scan"}, "fusion_lon": 0.0}, {"lat": 38.914356, "is_disabled": 0, "type": "electric_scooter", "lon": -77.03664866666666, "bike_id": "79e9c4a63bcedb2be54d0de395b31901", "fusion_lat": 0.0, "name": "79e9c4a63bcedb2be54d0de395b31901", "is_reserved": 0, "rental_uris": {"android": "https://dc.lft.to/lastmile_qr_scan", "ios": "https://dc.lft.to/lastmile_qr_scan"}, "fusion_lon": 0.0}, {"lat": 38.90804383333333, "is_disabled": 0, "type": "electric_scooter", "lon": -76.998398, "bike_id": "3ee0da820425b712879e01b6c5d9c83a", "fusion_lat": 0.0, "name": "3ee0da820425b712879e01b6c5d9c83a", "is_reserved": 0, "rental_uris": {"android": "https://dc.lft.to/lastmile_qr_scan", "ios": "https://dc.lft.to/lastmile_qr_scan"}, "fusion_lon": 0.0}, {"lat": 38.91125533333334, "is_disabled": 0, "type": "electric_scooter", "lon": -77.032097, "bike_id": "7a70835819d6025c5cbc69ee9a251417", "fusion_lat": 0.0, "name": "7a70835819d6025c5cbc69ee9a251417", "is_reserved": 0, "rental_uris": {"android": "https://dc.lft.to/lastmile_qr_scan", "ios": "https://dc.lft.to/lastmile_qr_scan"}, "fusion_lon": 0.0}, {"lat": 38.9001935, "is_disabled": 0, "type": "electric_scooter", "lon": -77.01185133333334, "bike_id": "6d3f2d81f3f6982c7c20d517474257d3", "fusion_lat": 0.0, "name": "6d3f2d81f3f6982c7c20d517474257d3", "is_reserved": 0, "rental_uris": {"android": "https://dc.lft.to/lastmile_qr_scan", "ios": "https://dc.lft.to/lastmile_qr_scan"}, "fusion_lon": 0.0}, {"lat": 38.92457733333333, "is_disabled": 0, "type": "electric_scooter", "lon": -77.03958483333334, "bike_id": "de8a51a115d86775cf896eeeb7fbc32e", "fusion_lat": 0.0, "name": "de8a51a115d86775cf896eeeb7fbc32e", "is_reserved": 0, "rental_uris": {"android": "https://dc.lft.to/lastmile_qr_scan", "ios": "https://dc.lft.to/lastmile_qr_scan"}, "fusion_lon": 0.0}, {"lat": 38.91564416666667, "is_disabled": 0, "type": "electric_scooter", "lon": -77.03177116666667, "bike_id": "f349c150757b3e07303476bb61dcda7c", "fusion_lat": 0.0, "name": "f349c150757b3e07303476bb61dcda7c", "is_reserved": 0, "rental_uris": {"android": "https://dc.lft.to/lastmile_qr_scan", "ios": "https://dc.lft.to/lastmile_qr_scan"}, "fusion_lon": 0.0}, {"lat": 38.920703, "is_disabled": 0, "type": "electric_scooter", "lon": -77.04551116666667, "bike_id": "c7f6acc203102e3727e185603e551616", "fusion_lat": 0.0, "name": "c7f6acc203102e3727e185603e551616", "is_reserved": 0, "rental_uris": {"android": "https://dc.lft.to/lastmile_qr_scan", "ios": "https://dc.lft.to/lastmile_qr_scan"}, "fusion_lon": 0.0}, {"lat": 38.9051185, "is_disabled": 0, "type": "electric_bike", "lon": -77.06894033333333, "bike_id": "734a1b668e76b3e2a2b511b9623ac8c4", "fusion_lat": 0.0, "name": "734a1b668e76b3e2a2b511b9623ac8c4", "is_reserved": 0, "rental_uris": {"android": "https://dc.lft.to/lastmile_qr_scan", "ios": "https://dc.lft.to/lastmile_qr_scan"}, "fusion_lon": 0.0}, {"lat": 38.90936716666667, "is_disabled": 0, "type": "electric_scooter", "lon": -77.04486066666666, "bike_id": "a85a9981ed34c139da37a1c557d8a9e6", "fusion_lat": 0.0, "name": "a85a9981ed34c139da37a1c557d8a9e6", "is_reserved": 0, "rental_uris": {"android": "https://dc.lft.to/lastmile_qr_scan", "ios": "https://dc.lft.to/lastmile_qr_scan"}, "fusion_lon": 0.0}, {"lat": 38.844211333333334, "is_disabled": 0, "type": "electric_scooter", "lon": -76.99783783333334, "bike_id": "f2284e3e16b1242eb581f0d8fc4fb7a3", "fusion_lat": 0.0, "name": "f2284e3e16b1242eb581f0d8fc4fb7a3", "is_reserved": 0, "rental_uris": {"android": "https://dc.lft.to/lastmile_qr_scan", "ios": "https://dc.lft.to/lastmile_qr_scan"}, "fusion_lon": 0.0}, {"lat": 38.917069833333336, "is_disabled": 0, "type": "electric_scooter", "lon": -77.02631, "bike_id": "2a371367f069aca79382b0696ea0cf48", "fusion_lat": 0.0, "name": "2a371367f069aca79382b0696ea0cf48", "is_reserved": 0, "rental_uris": {"android": "https://dc.lft.to/lastmile_qr_scan", "ios": "https://dc.lft.to/lastmile_qr_scan"}, "fusion_lon": 0.0}, {"lat": 38.94550383333333, "is_disabled": 0, "type": "electric_bike", "lon": -76.89542433333334, "bike_id": "4c331e914261a23b1fcfb6470a059838", "fusion_lat": 0.0, "name": "4c331e914261a23b1fcfb6470a059838", "is_reserved": 0, "rental_uris": {"android": "https://dc.lft.to/lastmile_qr_scan", "ios": "https://dc.lft.to/lastmile_qr_scan"}, "fusion_lon": 0.0}, {"lat": 38.90860633333333, "is_disabled": 0, "type": "electric_scooter", "lon": -77.04317566666667, "bike_id": "fef80d94b4c2e3b766932f0f0a4549ba", "fusion_lat": 0.0, "name": "fef80d94b4c2e3b766932f0f0a4549ba", "is_reserved": 0, "rental_uris": {"android": "https://dc.lft.to/lastmile_qr_scan", "ios": "https://dc.lft.to/lastmile_qr_scan"}, "fusion_lon": 0.0}, {"lat": 38.91850266666667, "is_disabled": 0, "type": "electric_scooter", "lon": -77.04506116666667, "bike_id": "e5611c8476d41c810af57565fab0ea29", "fusion_lat": 0.0, "name": "e5611c8476d41c810af57565fab0ea29", "is_reserved": 0, "rental_uris": {"android": "https://dc.lft.to/lastmile_qr_scan", "ios": "https://dc.lft.to/lastmile_qr_scan"}, "fusion_lon": 0.0}, {"lat": 38.911165833333335, "is_disabled": 0, "type": "electric_scooter", "lon": -77.0437085, "bike_id": "a3e7497b6443854eacb9bb0039b18e78", "fusion_lat": 0.0, "name": "a3e7497b6443854eacb9bb0039b18e78", "is_reserved": 0, "rental_uris": {"android": "https://dc.lft.to/lastmile_qr_scan", "ios": "https://dc.lft.to/lastmile_qr_scan"}, "fusion_lon": 0.0}, {"lat": 38.897027333333334, "is_disabled": 0, "type": "electric_scooter", "lon": -77.03071266666667, "bike_id": "9bb0c332ba7bb8c469f960cd8877bf83", "fusion_lat": 0.0, "name": "9bb0c332ba7bb8c469f960cd8877bf83", "is_reserved": 0, "rental_uris": {"android": "https://dc.lft.to/lastmile_qr_scan", "ios": "https://dc.lft.to/lastmile_qr_scan"}, "fusion_lon": 0.0}, {"lat": 38.909566166666664, "is_disabled": 0, "type": "electric_scooter", "lon": -77.02380433333333, "bike_id": "4c0fc8c1800eb1520a56551999fa2ac4", "fusion_lat": 0.0, "name": "4c0fc8c1800eb1520a56551999fa2ac4", "is_reserved": 0, "rental_uris": {"android": "https://dc.lft.to/lastmile_qr_scan", "ios": "https://dc.lft.to/lastmile_qr_scan"}, "fusion_lon": 0.0}, {"lat": 38.90566616666667, "is_disabled": 0, "type": "electric_scooter", "lon": -77.06273166666666, "bike_id": "f20e369542b0f6d8025a758d361bbfc4", "fusion_lat": 0.0, "name": "f20e369542b0f6d8025a758d361bbfc4", "is_reserved": 0, "rental_uris": {"android": "https://dc.lft.to/lastmile_qr_scan", "ios": "https://dc.lft.to/lastmile_qr_scan"}, "fusion_lon": 0.0}, {"lat": 38.92504916666667, "is_disabled": 0, "type": "electric_scooter", "lon": -77.03886266666666, "bike_id": "e209d480b29f9406e5b40f6f465ac848", "fusion_lat": 0.0, "name": "e209d480b29f9406e5b40f6f465ac848", "is_reserved": 0, "rental_uris": {"android": "https://dc.lft.to/lastmile_qr_scan", "ios": "https://dc.lft.to/lastmile_qr_scan"}, "fusion_lon": 0.0}, {"lat": 38.921641, "is_disabled": 0, "type": "electric_scooter", "lon": -77.0323375, "bike_id": "8e74224616323096e848f406892a0a4b", "fusion_lat": 0.0, "name": "8e74224616323096e848f406892a0a4b", "is_reserved": 0, "rental_uris": {"android": "https://dc.lft.to/lastmile_qr_scan", "ios": "https://dc.lft.to/lastmile_qr_scan"}, "fusion_lon": 0.0}, {"lat": 38.862196833333336, "is_disabled": 0, "type": "electric_scooter", "lon": -76.99464683333333, "bike_id": "7af7d07b389f4bc91cd4c5d6f57c9a47", "fusion_lat": 0.0, "name": "7af7d07b389f4bc91cd4c5d6f57c9a47", "is_reserved": 0, "rental_uris": {"android": "https://dc.lft.to/lastmile_qr_scan", "ios": "https://dc.lft.to/lastmile_qr_scan"}, "fusion_lon": 0.0}, {"lat": 38.88095083333333, "is_disabled": 0, "type": "electric_scooter", "lon": -76.99250366666666, "bike_id": "eebbba7647d9c4aed540e830c6478353", "fusion_lat": 0.0, "name": "eebbba7647d9c4aed540e830c6478353", "is_reserved": 0, "rental_uris": {"android": "https://dc.lft.to/lastmile_qr_scan", "ios": "https://dc.lft.to/lastmile_qr_scan"}, "fusion_lon": 0.0}, {"lat": 38.9732485, "is_disabled": 0, "type": "electric_bike", "lon": -77.02153866666667, "bike_id": "e21ea439c520274e65017b1a13bd3095", "fusion_lat": 0.0, "name": "e21ea439c520274e65017b1a13bd3095", "is_reserved": 0, "rental_uris": {"android": "https://dc.lft.to/lastmile_qr_scan", "ios": "https://dc.lft.to/lastmile_qr_scan"}, "fusion_lon": 0.0}, {"lat": 38.90259316666667, "is_disabled": 0, "type": "electric_scooter", "lon": -77.038445, "bike_id": "4629ff3677d355ac2a824fe7ad0acb55", "fusion_lat": 0.0, "name": "4629ff3677d355ac2a824fe7ad0acb55", "is_reserved": 0, "rental_uris": {"android": "https://dc.lft.to/lastmile_qr_scan", "ios": "https://dc.lft.to/lastmile_qr_scan"}, "fusion_lon": 0.0}, {"lat": 38.8976805, "is_disabled": 0, "type": "electric_scooter", "lon": -77.0320785, "bike_id": "259ce7520b27d7ee8c39de9f85b30fa7", "fusion_lat": 0.0, "name": "259ce7520b27d7ee8c39de9f85b30fa7", "is_reserved": 0, "rental_uris": {"android": "https://dc.lft.to/lastmile_qr_scan", "ios": "https://dc.lft.to/lastmile_qr_scan"}, "fusion_lon": 0.0}, {"lat": 38.9178035, "is_disabled": 0, "type": "electric_scooter", "lon": -77.02305033333333, "bike_id": "e0d6506d05a02f5d4b6855dfd27ca018", "fusion_lat": 0.0, "name": "e0d6506d05a02f5d4b6855dfd27ca018", "is_reserved": 0, "rental_uris": {"android": "https://dc.lft.to/lastmile_qr_scan", "ios": "https://dc.lft.to/lastmile_qr_scan"}, "fusion_lon": 0.0}, {"lat": 38.93468566666667, "is_disabled": 0, "type": "electric_scooter", "lon": -77.01930583333333, "bike_id": "c033e98e826a2f6e585bc10763ce2255", "fusion_lat": 0.0, "name": "c033e98e826a2f6e585bc10763ce2255", "is_reserved": 0, "rental_uris": {"android": "https://dc.lft.to/lastmile_qr_scan", "ios": "https://dc.lft.to/lastmile_qr_scan"}, "fusion_lon": 0.0}, {"lat": 38.9024995, "is_disabled": 0, "type": "electric_scooter", "lon": -77.03841933333334, "bike_id": "ffd4291b1f5990463f91f7758318e26e", "fusion_lat": 0.0, "name": "ffd4291b1f5990463f91f7758318e26e", "is_reserved": 0, "rental_uris": {"android": "https://dc.lft.to/lastmile_qr_scan", "ios": "https://dc.lft.to/lastmile_qr_scan"}, "fusion_lon": 0.0}, {"lat": 38.9442995, "is_disabled": 0, "type": "electric_scooter", "lon": -76.9921305, "bike_id": "c948284199a133f79eee520a08b71c50", "fusion_lat": 0.0, "name": "c948284199a133f79eee520a08b71c50", "is_reserved": 0, "rental_uris": {"android": "https://dc.lft.to/lastmile_qr_scan", "ios": "https://dc.lft.to/lastmile_qr_scan"}, "fusion_lon": 0.0}, {"lat": 38.88499816666667, "is_disabled": 0, "type": "electric_scooter", "lon": -77.00570166666667, "bike_id": "73faf52f5fee3666e3d5f8bd09c0d24f", "fusion_lat": 0.0, "name": "73faf52f5fee3666e3d5f8bd09c0d24f", "is_reserved": 0, "rental_uris": {"android": "https://dc.lft.to/lastmile_qr_scan", "ios": "https://dc.lft.to/lastmile_qr_scan"}, "fusion_lon": 0.0}, {"lat": 38.881258, "is_disabled": 0, "type": "electric_scooter", "lon": -77.00098033333333, "bike_id": "7a9e80eb142d9eb6849c8102015dad6e", "fusion_lat": 0.0, "name": "7a9e80eb142d9eb6849c8102015dad6e", "is_reserved": 0, "rental_uris": {"android": "https://dc.lft.to/lastmile_qr_scan", "ios": "https://dc.lft.to/lastmile_qr_scan"}, "fusion_lon": 0.0}, {"lat": 38.8861475, "is_disabled": 0, "type": "electric_scooter", "lon": -77.02169666666667, "bike_id": "1e22cedf7522ead64058a459dbfcf28f", "fusion_lat": 0.0, "name": "1e22cedf7522ead64058a459dbfcf28f", "is_reserved": 0, "rental_uris": {"android": "https://dc.lft.to/lastmile_qr_scan", "ios": "https://dc.lft.to/lastmile_qr_scan"}, "fusion_lon": 0.0}, {"lat": 38.932398, "is_disabled": 0, "type": "electric_scooter", "lon": -77.03857033333334, "bike_id": "35351dc61029190a9d720042fc1f09bc", "fusion_lat": 0.0, "name": "35351dc61029190a9d720042fc1f09bc", "is_reserved": 0, "rental_uris": {"android": "https://dc.lft.to/lastmile_qr_scan", "ios": "https://dc.lft.to/lastmile_qr_scan"}, "fusion_lon": 0.0}, {"lat": 38.8939715, "is_disabled": 0, "type": "electric_scooter", "lon": -77.01083616666666, "bike_id": "f553e1ab88d4b756683604526adf7c84", "fusion_lat": 0.0, "name": "f553e1ab88d4b756683604526adf7c84", "is_reserved": 0, "rental_uris": {"android": "https://dc.lft.to/lastmile_qr_scan", "ios": "https://dc.lft.to/lastmile_qr_scan"}, "fusion_lon": 0.0}, {"lat": 38.919455666666664, "is_disabled": 0, "type": "electric_scooter", "lon": -77.04152983333333, "bike_id": "4c89f928a0f9bf98b895173d4302b601", "fusion_lat": 0.0, "name": "4c89f928a0f9bf98b895173d4302b601", "is_reserved": 0, "rental_uris": {"android": "https://dc.lft.to/lastmile_qr_scan", "ios": "https://dc.lft.to/lastmile_qr_scan"}, "fusion_lon": 0.0}, {"lat": 38.90575833333333, "is_disabled": 0, "type": "electric_scooter", "lon": -77.04114716666666, "bike_id": "e63b271f07aa2183d9638bc0e32fe1d6", "fusion_lat": 0.0, "name": "e63b271f07aa2183d9638bc0e32fe1d6", "is_reserved": 0, "rental_uris": {"android": "https://dc.lft.to/lastmile_qr_scan", "ios": "https://dc.lft.to/lastmile_qr_scan"}, "fusion_lon": 0.0}, {"lat": 38.91252816666667, "is_disabled": 0, "type": "electric_scooter", "lon": -77.0444315, "bike_id": "996e2887803b0b4e487ee86e2e63c2e3", "fusion_lat": 0.0, "name": "996e2887803b0b4e487ee86e2e63c2e3", "is_reserved": 0, "rental_uris": {"android": "https://dc.lft.to/lastmile_qr_scan", "ios": "https://dc.lft.to/lastmile_qr_scan"}, "fusion_lon": 0.0}, {"lat": 38.895086666666664, "is_disabled": 0, "type": "electric_bike", "lon": -77.07367233333333, "bike_id": "1fd9222c484a2faea7d7b510b2cd1304", "fusion_lat": 0.0, "name": "1fd9222c484a2faea7d7b510b2cd1304", "is_reserved": 0, "rental_uris": {"android": "https://dc.lft.to/lastmile_qr_scan", "ios": "https://dc.lft.to/lastmile_qr_scan"}, "fusion_lon": 0.0}, {"lat": 38.88107433333333, "is_disabled": 0, "type": "electric_scooter", "lon": -77.0267035, "bike_id": "262979451e767d2e0226bd6e31218309", "fusion_lat": 0.0, "name": "262979451e767d2e0226bd6e31218309", "is_reserved": 0, "rental_uris": {"android": "https://dc.lft.to/lastmile_qr_scan", "ios": "https://dc.lft.to/lastmile_qr_scan"}, "fusion_lon": 0.0}, {"lat": 38.92155616666667, "is_disabled": 0, "type": "electric_scooter", "lon": -77.03386516666667, "bike_id": "895330503c072bd3484002579e66e46a", "fusion_lat": 0.0, "name": "895330503c072bd3484002579e66e46a", "is_reserved": 0, "rental_uris": {"android": "https://dc.lft.to/lastmile_qr_scan", "ios": "https://dc.lft.to/lastmile_qr_scan"}, "fusion_lon": 0.0}, {"lat": 38.89343316666667, "is_disabled": 0, "type": "electric_scooter", "lon": -76.94935216666667, "bike_id": "2565f8fd048592d4e410beda2c39ff38", "fusion_lat": 0.0, "name": "2565f8fd048592d4e410beda2c39ff38", "is_reserved": 0, "rental_uris": {"android": "https://dc.lft.to/lastmile_qr_scan", "ios": "https://dc.lft.to/lastmile_qr_scan"}, "fusion_lon": 0.0}, {"lat": 38.91244916666667, "is_disabled": 0, "type": "electric_bike", "lon": -77.022321, "bike_id": "cc09c36d48947882d59ead362d71acfc", "fusion_lat": 0.0, "name": "cc09c36d48947882d59ead362d71acfc", "is_reserved": 0, "rental_uris": {"android": "https://dc.lft.to/lastmile_qr_scan", "ios": "https://dc.lft.to/lastmile_qr_scan"}, "fusion_lon": 0.0}, {"lat": 38.873779, "is_disabled": 0, "type": "electric_scooter", "lon": -77.00096966666666, "bike_id": "99cf6bf4c29a059883ecbfeeac66898a", "fusion_lat": 0.0, "name": "99cf6bf4c29a059883ecbfeeac66898a", "is_reserved": 0, "rental_uris": {"android": "https://dc.lft.to/lastmile_qr_scan", "ios": "https://dc.lft.to/lastmile_qr_scan"}, "fusion_lon": 0.0}, {"lat": 38.875327666666664, "is_disabled": 0, "type": "electric_scooter", "lon": -77.005124, "bike_id": "dc50bc6674ba3f7eb41037241bb16085", "fusion_lat": 0.0, "name": "dc50bc6674ba3f7eb41037241bb16085", "is_reserved": 0, "rental_uris": {"android": "https://dc.lft.to/lastmile_qr_scan", "ios": "https://dc.lft.to/lastmile_qr_scan"}, "fusion_lon": 0.0}, {"lat": 38.92015416666667, "is_disabled": 0, "type": "electric_scooter", "lon": -77.031411, "bike_id": "9b3355afea533feb987094ca38cc58c3", "fusion_lat": 0.0, "name": "9b3355afea533feb987094ca38cc58c3", "is_reserved": 0, "rental_uris": {"android": "https://dc.lft.to/lastmile_qr_scan", "ios": "https://dc.lft.to/lastmile_qr_scan"}, "fusion_lon": 0.0}, {"lat": 38.919291333333334, "is_disabled": 0, "type": "electric_scooter", "lon": -77.03390616666667, "bike_id": "02288c90dbd260edd4e9f4511dd6a57c", "fusion_lat": 0.0, "name": "02288c90dbd260edd4e9f4511dd6a57c", "is_reserved": 0, "rental_uris": {"android": "https://dc.lft.to/lastmile_qr_scan", "ios": "https://dc.lft.to/lastmile_qr_scan"}, "fusion_lon": 0.0}, {"lat": 38.89816733333333, "is_disabled": 0, "type": "electric_scooter", "lon": -77.03301283333333, "bike_id": "447e56c4981774a7ad150101fa477afb", "fusion_lat": 0.0, "name": "447e56c4981774a7ad150101fa477afb", "is_reserved": 0, "rental_uris": {"android": "https://dc.lft.to/lastmile_qr_scan", "ios": "https://dc.lft.to/lastmile_qr_scan"}, "fusion_lon": 0.0}, {"lat": 38.857843, "is_disabled": 0, "type": "electric_bike", "lon": -76.98747, "bike_id": "b965e7ed0b645ae3e6c07cec5d509200", "fusion_lat": 0.0, "name": "b965e7ed0b645ae3e6c07cec5d509200", "is_reserved": 0, "rental_uris": {"android": "https://dc.lft.to/lastmile_qr_scan", "ios": "https://dc.lft.to/lastmile_qr_scan"}, "fusion_lon": 0.0}, {"lat": 38.9181345, "is_disabled": 0, "type": "electric_scooter", "lon": -77.0047685, "bike_id": "873ad0d441c6d864733dd9f5f8718296", "fusion_lat": 0.0, "name": "873ad0d441c6d864733dd9f5f8718296", "is_reserved": 0, "rental_uris": {"android": "https://dc.lft.to/lastmile_qr_scan", "ios": "https://dc.lft.to/lastmile_qr_scan"}, "fusion_lon": 0.0}, {"lat": 38.92096133333333, "is_disabled": 0, "type": "electric_scooter", "lon": -77.03929516666666, "bike_id": "dc3685141165e806bbac948a00d1dd3e", "fusion_lat": 0.0, "name": "dc3685141165e806bbac948a00d1dd3e", "is_reserved": 0, "rental_uris": {"android": "https://dc.lft.to/lastmile_qr_scan", "ios": "https://dc.lft.to/lastmile_qr_scan"}, "fusion_lon": 0.0}, {"lat": 38.9257945, "is_disabled": 0, "type": "electric_scooter", "lon": -77.05763383333333, "bike_id": "a29c0d218367e6e43f5cfc54e7fbbd2c", "fusion_lat": 0.0, "name": "a29c0d218367e6e43f5cfc54e7fbbd2c", "is_reserved": 0, "rental_uris": {"android": "https://dc.lft.to/lastmile_qr_scan", "ios": "https://dc.lft.to/lastmile_qr_scan"}, "fusion_lon": 0.0}, {"lat": 38.896134333333336, "is_disabled": 0, "type": "electric_scooter", "lon": -77.0294785, "bike_id": "c5bb77f5e67420d6adf9524d9ead2ac8", "fusion_lat": 0.0, "name": "c5bb77f5e67420d6adf9524d9ead2ac8", "is_reserved": 0, "rental_uris": {"android": "https://dc.lft.to/lastmile_qr_scan", "ios": "https://dc.lft.to/lastmile_qr_scan"}, "fusion_lon": 0.0}, {"lat": 38.88420083333333, "is_disabled": 0, "type": "electric_scooter", "lon": -77.03043933333333, "bike_id": "56b30fa2705004934889d42d5121c61d", "fusion_lat": 0.0, "name": "56b30fa2705004934889d42d5121c61d", "is_reserved": 0, "rental_uris": {"android": "https://dc.lft.to/lastmile_qr_scan", "ios": "https://dc.lft.to/lastmile_qr_scan"}, "fusion_lon": 0.0}, {"lat": 38.9017435, "is_disabled": 0, "type": "electric_scooter", "lon": -77.00012516666666, "bike_id": "475ff28e5568cc8361514561c4603aa6", "fusion_lat": 0.0, "name": "475ff28e5568cc8361514561c4603aa6", "is_reserved": 0, "rental_uris": {"android": "https://dc.lft.to/lastmile_qr_scan", "ios": "https://dc.lft.to/lastmile_qr_scan"}, "fusion_lon": 0.0}, {"lat": 38.902652833333335, "is_disabled": 0, "type": "electric_scooter", "lon": -77.0180265, "bike_id": "4bacc61e091b92eebab13e24540028c7", "fusion_lat": 0.0, "name": "4bacc61e091b92eebab13e24540028c7", "is_reserved": 0, "rental_uris": {"android": "https://dc.lft.to/lastmile_qr_scan", "ios": "https://dc.lft.to/lastmile_qr_scan"}, "fusion_lon": 0.0}, {"lat": 38.87626933333333, "is_disabled": 0, "type": "electric_scooter", "lon": -77.01478733333333, "bike_id": "dc8003d44b3615428129554f490929f8", "fusion_lat": 0.0, "name": "dc8003d44b3615428129554f490929f8", "is_reserved": 0, "rental_uris": {"android": "https://dc.lft.to/lastmile_qr_scan", "ios": "https://dc.lft.to/lastmile_qr_scan"}, "fusion_lon": 0.0}, {"lat": 38.93205283333333, "is_disabled": 0, "type": "electric_bike", "lon": -76.9743355, "bike_id": "acb43c93878a9fb1403a97e396ad723f", "fusion_lat": 0.0, "name": "acb43c93878a9fb1403a97e396ad723f", "is_reserved": 0, "rental_uris": {"android": "https://dc.lft.to/lastmile_qr_scan", "ios": "https://dc.lft.to/lastmile_qr_scan"}, "fusion_lon": 0.0}, {"lat": 38.90303883333333, "is_disabled": 0, "type": "electric_scooter", "lon": -77.03462166666667, "bike_id": "41363edeeb4a5e128638a8310bfa6d41", "fusion_lat": 0.0, "name": "41363edeeb4a5e128638a8310bfa6d41", "is_reserved": 0, "rental_uris": {"android": "https://dc.lft.to/lastmile_qr_scan", "ios": "https://dc.lft.to/lastmile_qr_scan"}, "fusion_lon": 0.0}, {"lat": 38.915801, "is_disabled": 0, "type": "electric_scooter", "lon": -77.01237283333333, "bike_id": "eacd86b446cc23b99e63349681ba9540", "fusion_lat": 0.0, "name": "eacd86b446cc23b99e63349681ba9540", "is_reserved": 0, "rental_uris": {"android": "https://dc.lft.to/lastmile_qr_scan", "ios": "https://dc.lft.to/lastmile_qr_scan"}, "fusion_lon": 0.0}, {"lat": 38.92363916666667, "is_disabled": 0, "type": "electric_scooter", "lon": -77.05759583333334, "bike_id": "1f2c01ec57a92f76c463bd4dede2ac3c", "fusion_lat": 0.0, "name": "1f2c01ec57a92f76c463bd4dede2ac3c", "is_reserved": 0, "rental_uris": {"android": "https://dc.lft.to/lastmile_qr_scan", "ios": "https://dc.lft.to/lastmile_qr_scan"}, "fusion_lon": 0.0}, {"lat": 38.89714333333333, "is_disabled": 0, "type": "electric_scooter", "lon": -77.00800116666667, "bike_id": "ea18bcda4550337e3e6047c571a720ad", "fusion_lat": 0.0, "name": "ea18bcda4550337e3e6047c571a720ad", "is_reserved": 0, "rental_uris": {"android": "https://dc.lft.to/lastmile_qr_scan", "ios": "https://dc.lft.to/lastmile_qr_scan"}, "fusion_lon": 0.0}, {"lat": 38.929114, "is_disabled": 0, "type": "electric_scooter", "lon": -77.0325155, "bike_id": "7adeb15685fd6406ff42995f2c7750f0", "fusion_lat": 0.0, "name": "7adeb15685fd6406ff42995f2c7750f0", "is_reserved": 0, "rental_uris": {"android": "https://dc.lft.to/lastmile_qr_scan", "ios": "https://dc.lft.to/lastmile_qr_scan"}, "fusion_lon": 0.0}, {"lat": 38.852144333333335, "is_disabled": 0, "type": "electric_bike", "lon": -77.1296485, "bike_id": "fc58ed9c6dbee09c3311cc764ef76803", "fusion_lat": 0.0, "name": "fc58ed9c6dbee09c3311cc764ef76803", "is_reserved": 0, "rental_uris": {"android": "https://dc.lft.to/lastmile_qr_scan", "ios": "https://dc.lft.to/lastmile_qr_scan"}, "fusion_lon": 0.0}, {"lat": 38.911067, "is_disabled": 0, "type": "electric_scooter", "lon": -77.04501016666667, "bike_id": "ece41f1fe344239574b7458994d7405f", "fusion_lat": 0.0, "name": "ece41f1fe344239574b7458994d7405f", "is_reserved": 0, "rental_uris": {"android": "https://dc.lft.to/lastmile_qr_scan", "ios": "https://dc.lft.to/lastmile_qr_scan"}, "fusion_lon": 0.0}, {"lat": 38.86591966666667, "is_disabled": 0, "type": "electric_bike", "lon": -76.9323015, "bike_id": "0ffcf3ce306daaf8caf0deee4508954a", "fusion_lat": 0.0, "name": "0ffcf3ce306daaf8caf0deee4508954a", "is_reserved": 0, "rental_uris": {"android": "https://dc.lft.to/lastmile_qr_scan", "ios": "https://dc.lft.to/lastmile_qr_scan"}, "fusion_lon": 0.0}, {"lat": 38.9004745, "is_disabled": 0, "type": "electric_scooter", "lon": -77.0073875, "bike_id": "cde66237d401eb8a0df81dc66a1e3cac", "fusion_lat": 0.0, "name": "cde66237d401eb8a0df81dc66a1e3cac", "is_reserved": 0, "rental_uris": {"android": "https://dc.lft.to/lastmile_qr_scan", "ios": "https://dc.lft.to/lastmile_qr_scan"}, "fusion_lon": 0.0}, {"lat": 38.913287833333335, "is_disabled": 0, "type": "electric_scooter", "lon": -77.03193316666666, "bike_id": "a197fee65a128878c01d204dc7d2c6b2", "fusion_lat": 0.0, "name": "a197fee65a128878c01d204dc7d2c6b2", "is_reserved": 0, "rental_uris": {"android": "https://dc.lft.to/lastmile_qr_scan", "ios": "https://dc.lft.to/lastmile_qr_scan"}, "fusion_lon": 0.0}, {"lat": 38.92170683333333, "is_disabled": 0, "type": "electric_scooter", "lon": -77.0513835, "bike_id": "5c9df4fdb552b12ebdeadebb76274267", "fusion_lat": 0.0, "name": "5c9df4fdb552b12ebdeadebb76274267", "is_reserved": 0, "rental_uris": {"android": "https://dc.lft.to/lastmile_qr_scan", "ios": "https://dc.lft.to/lastmile_qr_scan"}, "fusion_lon": 0.0}, {"lat": 38.915463833333334, "is_disabled": 0, "type": "electric_scooter", "lon": -77.038459, "bike_id": "f71653f533e199afd7a14d751e2e4929", "fusion_lat": 0.0, "name": "f71653f533e199afd7a14d751e2e4929", "is_reserved": 0, "rental_uris": {"android": "https://dc.lft.to/lastmile_qr_scan", "ios": "https://dc.lft.to/lastmile_qr_scan"}, "fusion_lon": 0.0}, {"lat": 38.910715, "is_disabled": 0, "type": "electric_scooter", "lon": -77.01641683333334, "bike_id": "0006df8ae24a458e7ac4485ea6782f23", "fusion_lat": 0.0, "name": "0006df8ae24a458e7ac4485ea6782f23", "is_reserved": 0, "rental_uris": {"android": "https://dc.lft.to/lastmile_qr_scan", "ios": "https://dc.lft.to/lastmile_qr_scan"}, "fusion_lon": 0.0}, {"lat": 38.98462266666667, "is_disabled": 0, "type": "electric_bike", "lon": -76.955287, "bike_id": "c2755105283105d70108c7d813a31cea", "fusion_lat": 0.0, "name": "c2755105283105d70108c7d813a31cea", "is_reserved": 0, "rental_uris": {"android": "https://dc.lft.to/lastmile_qr_scan", "ios": "https://dc.lft.to/lastmile_qr_scan"}, "fusion_lon": 0.0}, {"lat": 38.907461, "is_disabled": 0, "type": "electric_scooter", "lon": -77.04246683333334, "bike_id": "0463ba55a25245463d22ace5bd7dd858", "fusion_lat": 0.0, "name": "0463ba55a25245463d22ace5bd7dd858", "is_reserved": 0, "rental_uris": {"android": "https://dc.lft.to/lastmile_qr_scan", "ios": "https://dc.lft.to/lastmile_qr_scan"}, "fusion_lon": 0.0}, {"lat": 38.917879666666664, "is_disabled": 0, "type": "electric_scooter", "lon": -77.02310916666667, "bike_id": "bc0921de9ae9d2cdaabc9e6f9271b53a", "fusion_lat": 0.0, "name": "bc0921de9ae9d2cdaabc9e6f9271b53a", "is_reserved": 0, "rental_uris": {"android": "https://dc.lft.to/lastmile_qr_scan", "ios": "https://dc.lft.to/lastmile_qr_scan"}, "fusion_lon": 0.0}, {"lat": 38.98592033333333, "is_disabled": 0, "type": "electric_bike", "lon": -77.03762083333334, "bike_id": "26d86db6b95ca1b5838e075b27e73f96", "fusion_lat": 0.0, "name": "26d86db6b95ca1b5838e075b27e73f96", "is_reserved": 0, "rental_uris": {"android": "https://dc.lft.to/lastmile_qr_scan", "ios": "https://dc.lft.to/lastmile_qr_scan"}, "fusion_lon": 0.0}, {"lat": 38.88773483333333, "is_disabled": 0, "type": "electric_scooter", "lon": -76.9764625, "bike_id": "8872aed7c261e5887d80b408e9bf77c8", "fusion_lat": 0.0, "name": "8872aed7c261e5887d80b408e9bf77c8", "is_reserved": 0, "rental_uris": {"android": "https://dc.lft.to/lastmile_qr_scan", "ios": "https://dc.lft.to/lastmile_qr_scan"}, "fusion_lon": 0.0}, {"lat": 38.92792033333333, "is_disabled": 0, "type": "electric_scooter", "lon": -77.03151616666666, "bike_id": "4460078522862b1c5659eeb5ef5b6ad5", "fusion_lat": 0.0, "name": "4460078522862b1c5659eeb5ef5b6ad5", "is_reserved": 0, "rental_uris": {"android": "https://dc.lft.to/lastmile_qr_scan", "ios": "https://dc.lft.to/lastmile_qr_scan"}, "fusion_lon": 0.0}, {"lat": 38.8976745, "is_disabled": 0, "type": "electric_scooter", "lon": -77.02722733333333, "bike_id": "e5330d61b3557438ac9c74e8ef5b933d", "fusion_lat": 0.0, "name": "e5330d61b3557438ac9c74e8ef5b933d", "is_reserved": 0, "rental_uris": {"android": "https://dc.lft.to/lastmile_qr_scan", "ios": "https://dc.lft.to/lastmile_qr_scan"}, "fusion_lon": 0.0}, {"lat": 38.91694783333333, "is_disabled": 0, "type": "electric_scooter", "lon": -77.02309866666667, "bike_id": "589e4cd3e341f1ad59884146c5eebb09", "fusion_lat": 0.0, "name": "589e4cd3e341f1ad59884146c5eebb09", "is_reserved": 0, "rental_uris": {"android": "https://dc.lft.to/lastmile_qr_scan", "ios": "https://dc.lft.to/lastmile_qr_scan"}, "fusion_lon": 0.0}, {"lat": 38.90008266666667, "is_disabled": 0, "type": "electric_scooter", "lon": -76.99124933333333, "bike_id": "534977182ab9b00ace25bf6839eac367", "fusion_lat": 0.0, "name": "534977182ab9b00ace25bf6839eac367", "is_reserved": 0, "rental_uris": {"android": "https://dc.lft.to/lastmile_qr_scan", "ios": "https://dc.lft.to/lastmile_qr_scan"}, "fusion_lon": 0.0}, {"lat": 38.91025166666667, "is_disabled": 0, "type": "electric_scooter", "lon": -77.03450633333334, "bike_id": "164731f9f89b032ead72d2286b4c520e", "fusion_lat": 0.0, "name": "164731f9f89b032ead72d2286b4c520e", "is_reserved": 0, "rental_uris": {"android": "https://dc.lft.to/lastmile_qr_scan", "ios": "https://dc.lft.to/lastmile_qr_scan"}, "fusion_lon": 0.0}, {"lat": 38.912569500000004, "is_disabled": 0, "type": "electric_scooter", "lon": -77.03628416666666, "bike_id": "b6ced0b250a12755843e5e3d1f176e80", "fusion_lat": 0.0, "name": "b6ced0b250a12755843e5e3d1f176e80", "is_reserved": 0, "rental_uris": {"android": "https://dc.lft.to/lastmile_qr_scan", "ios": "https://dc.lft.to/lastmile_qr_scan"}, "fusion_lon": 0.0}, {"lat": 38.87114183333333, "is_disabled": 0, "type": "electric_scooter", "lon": -77.01075033333333, "bike_id": "e9ddcd4c9dd0b889f0d2f88b6fd36f7f", "fusion_lat": 0.0, "name": "e9ddcd4c9dd0b889f0d2f88b6fd36f7f", "is_reserved": 0, "rental_uris": {"android": "https://dc.lft.to/lastmile_qr_scan", "ios": "https://dc.lft.to/lastmile_qr_scan"}, "fusion_lon": 0.0}, {"lat": 38.913463166666666, "is_disabled": 0, "type": "electric_scooter", "lon": -77.04358916666666, "bike_id": "4e6627277d8cf221ce977671999db824", "fusion_lat": 0.0, "name": "4e6627277d8cf221ce977671999db824", "is_reserved": 0, "rental_uris": {"android": "https://dc.lft.to/lastmile_qr_scan", "ios": "https://dc.lft.to/lastmile_qr_scan"}, "fusion_lon": 0.0}, {"lat": 38.951835833333334, "is_disabled": 0, "type": "electric_bike", "lon": -76.93546, "bike_id": "9c93affabde52e01ae4066905dd2c4ee", "fusion_lat": 0.0, "name": "9c93affabde52e01ae4066905dd2c4ee", "is_reserved": 0, "rental_uris": {"android": "https://dc.lft.to/lastmile_qr_scan", "ios": "https://dc.lft.to/lastmile_qr_scan"}, "fusion_lon": 0.0}, {"lat": 38.9393105, "is_disabled": 0, "type": "electric_scooter", "lon": -77.02227, "bike_id": "3d9f7cb73f878bc8ef3a942ef0635793", "fusion_lat": 0.0, "name": "3d9f7cb73f878bc8ef3a942ef0635793", "is_reserved": 0, "rental_uris": {"android": "https://dc.lft.to/lastmile_qr_scan", "ios": "https://dc.lft.to/lastmile_qr_scan"}, "fusion_lon": 0.0}, {"lat": 38.87732333333334, "is_disabled": 0, "type": "electric_bike", "lon": -77.11854066666666, "bike_id": "582bee7b53093c613b140593f80dbf97", "fusion_lat": 0.0, "name": "582bee7b53093c613b140593f80dbf97", "is_reserved": 0, "rental_uris": {"android": "https://dc.lft.to/lastmile_qr_scan", "ios": "https://dc.lft.to/lastmile_qr_scan"}, "fusion_lon": 0.0}, {"lat": 38.86370466666666, "is_disabled": 0, "type": "electric_scooter", "lon": -76.990478, "bike_id": "3083472889ebdadae9ec199bb0dc8888", "fusion_lat": 0.0, "name": "3083472889ebdadae9ec199bb0dc8888", "is_reserved": 0, "rental_uris": {"android": "https://dc.lft.to/lastmile_qr_scan", "ios": "https://dc.lft.to/lastmile_qr_scan"}, "fusion_lon": 0.0}, {"lat": 38.93982333333334, "is_disabled": 0, "type": "electric_scooter", "lon": -77.032657, "bike_id": "7620d8ce508dceb3b628982732114dd9", "fusion_lat": 0.0, "name": "7620d8ce508dceb3b628982732114dd9", "is_reserved": 0, "rental_uris": {"android": "https://dc.lft.to/lastmile_qr_scan", "ios": "https://dc.lft.to/lastmile_qr_scan"}, "fusion_lon": 0.0}, {"lat": 38.905257666666664, "is_disabled": 0, "type": "electric_scooter", "lon": -77.06541683333333, "bike_id": "871defafcd51c38991257848896ec247", "fusion_lat": 0.0, "name": "871defafcd51c38991257848896ec247", "is_reserved": 0, "rental_uris": {"android": "https://dc.lft.to/lastmile_qr_scan", "ios": "https://dc.lft.to/lastmile_qr_scan"}, "fusion_lon": 0.0}, {"lat": 38.905086833333336, "is_disabled": 0, "type": "electric_scooter", "lon": -77.06860233333333, "bike_id": "1caabcfa54de48d7184116e4a2409214", "fusion_lat": 0.0, "name": "1caabcfa54de48d7184116e4a2409214", "is_reserved": 0, "rental_uris": {"android": "https://dc.lft.to/lastmile_qr_scan", "ios": "https://dc.lft.to/lastmile_qr_scan"}, "fusion_lon": 0.0}, {"lat": 38.8777635, "is_disabled": 0, "type": "electric_scooter", "lon": -77.01440666666667, "bike_id": "b3770a1ce9cbd5cbf59a3f5a733e01b0", "fusion_lat": 0.0, "name": "b3770a1ce9cbd5cbf59a3f5a733e01b0", "is_reserved": 0, "rental_uris": {"android": "https://dc.lft.to/lastmile_qr_scan", "ios": "https://dc.lft.to/lastmile_qr_scan"}, "fusion_lon": 0.0}, {"lat": 38.8998685, "is_disabled": 0, "type": "electric_bike", "lon": -76.98124533333333, "bike_id": "d898f57c5d5e45fe3783be439a369a9c", "fusion_lat": 0.0, "name": "d898f57c5d5e45fe3783be439a369a9c", "is_reserved": 0, "rental_uris": {"android": "https://dc.lft.to/lastmile_qr_scan", "ios": "https://dc.lft.to/lastmile_qr_scan"}, "fusion_lon": 0.0}, {"lat": 38.89166266666667, "is_disabled": 0, "type": "electric_scooter", "lon": -77.01552566666666, "bike_id": "91043a159acddc1b5fc64f85be09ebc2", "fusion_lat": 0.0, "name": "91043a159acddc1b5fc64f85be09ebc2", "is_reserved": 0, "rental_uris": {"android": "https://dc.lft.to/lastmile_qr_scan", "ios": "https://dc.lft.to/lastmile_qr_scan"}, "fusion_lon": 0.0}, {"lat": 38.8970155, "is_disabled": 0, "type": "electric_scooter", "lon": -77.0311855, "bike_id": "8f5da1b80b1556a2e648f29dba474cb0", "fusion_lat": 0.0, "name": "8f5da1b80b1556a2e648f29dba474cb0", "is_reserved": 0, "rental_uris": {"android": "https://dc.lft.to/lastmile_qr_scan", "ios": "https://dc.lft.to/lastmile_qr_scan"}, "fusion_lon": 0.0}, {"lat": 38.91983333333334, "is_disabled": 0, "type": "electric_scooter", "lon": -77.04170333333333, "bike_id": "f007e2fed7af2ead9630c3f163363504", "fusion_lat": 0.0, "name": "f007e2fed7af2ead9630c3f163363504", "is_reserved": 0, "rental_uris": {"android": "https://dc.lft.to/lastmile_qr_scan", "ios": "https://dc.lft.to/lastmile_qr_scan"}, "fusion_lon": 0.0}, {"lat": 38.92747033333333, "is_disabled": 0, "type": "electric_scooter", "lon": -77.00596633333333, "bike_id": "66285544e6369eb2ae428a222622921b", "fusion_lat": 0.0, "name": "66285544e6369eb2ae428a222622921b", "is_reserved": 0, "rental_uris": {"android": "https://dc.lft.to/lastmile_qr_scan", "ios": "https://dc.lft.to/lastmile_qr_scan"}, "fusion_lon": 0.0}, {"lat": 38.8782695, "is_disabled": 0, "type": "electric_scooter", "lon": -77.0222185, "bike_id": "c706452ca8024d316f19f06c410a6c57", "fusion_lat": 0.0, "name": "c706452ca8024d316f19f06c410a6c57", "is_reserved": 0, "rental_uris": {"android": "https://dc.lft.to/lastmile_qr_scan", "ios": "https://dc.lft.to/lastmile_qr_scan"}, "fusion_lon": 0.0}, {"lat": 38.92483083333333, "is_disabled": 0, "type": "electric_scooter", "lon": -77.02724483333333, "bike_id": "ad447af1b55de6cc9912f5899ea950e3", "fusion_lat": 0.0, "name": "ad447af1b55de6cc9912f5899ea950e3", "is_reserved": 0, "rental_uris": {"android": "https://dc.lft.to/lastmile_qr_scan", "ios": "https://dc.lft.to/lastmile_qr_scan"}, "fusion_lon": 0.0}, {"lat": 38.933178166666664, "is_disabled": 0, "type": "electric_scooter", "lon": -77.02932466666667, "bike_id": "520fda24d9990fd79d6cf6095bf65b6c", "fusion_lat": 0.0, "name": "520fda24d9990fd79d6cf6095bf65b6c", "is_reserved": 0, "rental_uris": {"android": "https://dc.lft.to/lastmile_qr_scan", "ios": "https://dc.lft.to/lastmile_qr_scan"}, "fusion_lon": 0.0}, {"lat": 38.90679633333333, "is_disabled": 0, "type": "electric_scooter", "lon": -77.02696533333334, "bike_id": "07412992b671923675e9a3dfeb3259fd", "fusion_lat": 0.0, "name": "07412992b671923675e9a3dfeb3259fd", "is_reserved": 0, "rental_uris": {"android": "https://dc.lft.to/lastmile_qr_scan", "ios": "https://dc.lft.to/lastmile_qr_scan"}, "fusion_lon": 0.0}, {"lat": 38.934878, "is_disabled": 0, "type": "electric_scooter", "lon": -77.0327725, "bike_id": "7fc63d48e800d046995f705f165c1399", "fusion_lat": 0.0, "name": "7fc63d48e800d046995f705f165c1399", "is_reserved": 0, "rental_uris": {"android": "https://dc.lft.to/lastmile_qr_scan", "ios": "https://dc.lft.to/lastmile_qr_scan"}, "fusion_lon": 0.0}, {"lat": 38.89881966666667, "is_disabled": 0, "type": "electric_scooter", "lon": -76.93176283333334, "bike_id": "bba11ab7527f25bb6e0c96ec137f1e3a", "fusion_lat": 0.0, "name": "bba11ab7527f25bb6e0c96ec137f1e3a", "is_reserved": 0, "rental_uris": {"android": "https://dc.lft.to/lastmile_qr_scan", "ios": "https://dc.lft.to/lastmile_qr_scan"}, "fusion_lon": 0.0}, {"lat": 38.934831833333334, "is_disabled": 0, "type": "electric_scooter", "lon": -77.07281016666667, "bike_id": "630eeebf8cd44c9a7c69eabae132b323", "fusion_lat": 0.0, "name": "630eeebf8cd44c9a7c69eabae132b323", "is_reserved": 0, "rental_uris": {"android": "https://dc.lft.to/lastmile_qr_scan", "ios": "https://dc.lft.to/lastmile_qr_scan"}, "fusion_lon": 0.0}, {"lat": 38.90893916666667, "is_disabled": 0, "type": "electric_scooter", "lon": -77.03209033333333, "bike_id": "ccd26ab6870e07f2dd2e3e6392f17679", "fusion_lat": 0.0, "name": "ccd26ab6870e07f2dd2e3e6392f17679", "is_reserved": 0, "rental_uris": {"android": "https://dc.lft.to/lastmile_qr_scan", "ios": "https://dc.lft.to/lastmile_qr_scan"}, "fusion_lon": 0.0}, {"lat": 38.90954083333333, "is_disabled": 0, "type": "electric_scooter", "lon": -77.03479883333333, "bike_id": "05f1eb0b76e98df64a14ae85c51cbcc9", "fusion_lat": 0.0, "name": "05f1eb0b76e98df64a14ae85c51cbcc9", "is_reserved": 0, "rental_uris": {"android": "https://dc.lft.to/lastmile_qr_scan", "ios": "https://dc.lft.to/lastmile_qr_scan"}, "fusion_lon": 0.0}, {"lat": 38.906682833333335, "is_disabled": 0, "type": "electric_scooter", "lon": -77.02374566666667, "bike_id": "2f3007399f48405f7c08817afa84dd15", "fusion_lat": 0.0, "name": "2f3007399f48405f7c08817afa84dd15", "is_reserved": 0, "rental_uris": {"android": "https://dc.lft.to/lastmile_qr_scan", "ios": "https://dc.lft.to/lastmile_qr_scan"}, "fusion_lon": 0.0}, {"lat": 38.89052366666667, "is_disabled": 0, "type": "electric_scooter", "lon": -76.93757066666667, "bike_id": "93cb9e967e5b0ca924c36e4d328bce90", "fusion_lat": 0.0, "name": "93cb9e967e5b0ca924c36e4d328bce90", "is_reserved": 0, "rental_uris": {"android": "https://dc.lft.to/lastmile_qr_scan", "ios": "https://dc.lft.to/lastmile_qr_scan"}, "fusion_lon": 0.0}, {"lat": 38.859144, "is_disabled": 0, "type": "electric_scooter", "lon": -76.991422, "bike_id": "ccfd9328bfe1cad28673865c3fe5e9ca", "fusion_lat": 0.0, "name": "ccfd9328bfe1cad28673865c3fe5e9ca", "is_reserved": 0, "rental_uris": {"android": "https://dc.lft.to/lastmile_qr_scan", "ios": "https://dc.lft.to/lastmile_qr_scan"}, "fusion_lon": 0.0}, {"lat": 38.930435333333335, "is_disabled": 0, "type": "electric_scooter", "lon": -77.03233433333334, "bike_id": "c0c76c1db2100162bd779746c1196a34", "fusion_lat": 0.0, "name": "c0c76c1db2100162bd779746c1196a34", "is_reserved": 0, "rental_uris": {"android": "https://dc.lft.to/lastmile_qr_scan", "ios": "https://dc.lft.to/lastmile_qr_scan"}, "fusion_lon": 0.0}, {"lat": 38.91730283333333, "is_disabled": 0, "type": "electric_scooter", "lon": -77.03201416666667, "bike_id": "d375807ae0f9de1d2f2ba3b32b46af1b", "fusion_lat": 0.0, "name": "d375807ae0f9de1d2f2ba3b32b46af1b", "is_reserved": 0, "rental_uris": {"android": "https://dc.lft.to/lastmile_qr_scan", "ios": "https://dc.lft.to/lastmile_qr_scan"}, "fusion_lon": 0.0}, {"lat": 38.908655833333334, "is_disabled": 0, "type": "electric_scooter", "lon": -77.08601733333333, "bike_id": "3f578ed6e110d3156699289fce81dc2d", "fusion_lat": 0.0, "name": "3f578ed6e110d3156699289fce81dc2d", "is_reserved": 0, "rental_uris": {"android": "https://dc.lft.to/lastmile_qr_scan", "ios": "https://dc.lft.to/lastmile_qr_scan"}, "fusion_lon": 0.0}, {"lat": 38.90968266666667, "is_disabled": 0, "type": "electric_scooter", "lon": -77.032706, "bike_id": "56182c45dd49675a290051790ffcfca2", "fusion_lat": 0.0, "name": "56182c45dd49675a290051790ffcfca2", "is_reserved": 0, "rental_uris": {"android": "https://dc.lft.to/lastmile_qr_scan", "ios": "https://dc.lft.to/lastmile_qr_scan"}, "fusion_lon": 0.0}, {"lat": 38.93057533333333, "is_disabled": 0, "type": "electric_scooter", "lon": -77.04191616666667, "bike_id": "3c752cc6c3440b205f9223bf632a4415", "fusion_lat": 0.0, "name": "3c752cc6c3440b205f9223bf632a4415", "is_reserved": 0, "rental_uris": {"android": "https://dc.lft.to/lastmile_qr_scan", "ios": "https://dc.lft.to/lastmile_qr_scan"}, "fusion_lon": 0.0}, {"lat": 38.874755, "is_disabled": 0, "type": "electric_scooter", "lon": -77.00935233333334, "bike_id": "f932f4efda88df8072e96f3815e422fe", "fusion_lat": 0.0, "name": "f932f4efda88df8072e96f3815e422fe", "is_reserved": 0, "rental_uris": {"android": "https://dc.lft.to/lastmile_qr_scan", "ios": "https://dc.lft.to/lastmile_qr_scan"}, "fusion_lon": 0.0}, {"lat": 38.90733866666667, "is_disabled": 0, "type": "electric_scooter", "lon": -77.023, "bike_id": "b9173606d8e27b560635fa35334512f6", "fusion_lat": 0.0, "name": "b9173606d8e27b560635fa35334512f6", "is_reserved": 0, "rental_uris": {"android": "https://dc.lft.to/lastmile_qr_scan", "ios": "https://dc.lft.to/lastmile_qr_scan"}, "fusion_lon": 0.0}, {"lat": 38.93632216666666, "is_disabled": 0, "type": "electric_scooter", "lon": -77.0588045, "bike_id": "94386eed92d0c5ab886c791b05507bf9", "fusion_lat": 0.0, "name": "94386eed92d0c5ab886c791b05507bf9", "is_reserved": 0, "rental_uris": {"android": "https://dc.lft.to/lastmile_qr_scan", "ios": "https://dc.lft.to/lastmile_qr_scan"}, "fusion_lon": 0.0}, {"lat": 38.899107, "is_disabled": 0, "type": "electric_scooter", "lon": -76.93351766666666, "bike_id": "c5b6c87fbf5b64fd066b18dc5faa3fc8", "fusion_lat": 0.0, "name": "c5b6c87fbf5b64fd066b18dc5faa3fc8", "is_reserved": 0, "rental_uris": {"android": "https://dc.lft.to/lastmile_qr_scan", "ios": "https://dc.lft.to/lastmile_qr_scan"}, "fusion_lon": 0.0}, {"lat": 38.89065683333333, "is_disabled": 0, "type": "electric_scooter", "lon": -76.937876, "bike_id": "6b2faf54454c9a21f8942f0743ba228c", "fusion_lat": 0.0, "name": "6b2faf54454c9a21f8942f0743ba228c", "is_reserved": 0, "rental_uris": {"android": "https://dc.lft.to/lastmile_qr_scan", "ios": "https://dc.lft.to/lastmile_qr_scan"}, "fusion_lon": 0.0}, {"lat": 38.92046116666667, "is_disabled": 0, "type": "electric_scooter", "lon": -77.04184966666666, "bike_id": "4c8dd7fc868f55b760e1ed0187bb5414", "fusion_lat": 0.0, "name": "4c8dd7fc868f55b760e1ed0187bb5414", "is_reserved": 0, "rental_uris": {"android": "https://dc.lft.to/lastmile_qr_scan", "ios": "https://dc.lft.to/lastmile_qr_scan"}, "fusion_lon": 0.0}, {"lat": 38.904662333333334, "is_disabled": 0, "type": "electric_scooter", "lon": -77.04363233333333, "bike_id": "3035e007881aae5cef64decc7f1f425e", "fusion_lat": 0.0, "name": "3035e007881aae5cef64decc7f1f425e", "is_reserved": 0, "rental_uris": {"android": "https://dc.lft.to/lastmile_qr_scan", "ios": "https://dc.lft.to/lastmile_qr_scan"}, "fusion_lon": 0.0}, {"lat": 38.90966816666667, "is_disabled": 0, "type": "electric_scooter", "lon": -77.02174316666667, "bike_id": "39424340966ba9deb8054db815d9e32d", "fusion_lat": 0.0, "name": "39424340966ba9deb8054db815d9e32d", "is_reserved": 0, "rental_uris": {"android": "https://dc.lft.to/lastmile_qr_scan", "ios": "https://dc.lft.to/lastmile_qr_scan"}, "fusion_lon": 0.0}, {"lat": 38.92200616666667, "is_disabled": 0, "type": "electric_scooter", "lon": -76.9837485, "bike_id": "c03e45c739c001811a810e2029b58ffd", "fusion_lat": 0.0, "name": "c03e45c739c001811a810e2029b58ffd", "is_reserved": 0, "rental_uris": {"android": "https://dc.lft.to/lastmile_qr_scan", "ios": "https://dc.lft.to/lastmile_qr_scan"}, "fusion_lon": 0.0}, {"lat": 38.9181525, "is_disabled": 0, "type": "electric_scooter", "lon": -77.041751, "bike_id": "a488b8f77f10cccc6625ef8ddbdc0baf", "fusion_lat": 0.0, "name": "a488b8f77f10cccc6625ef8ddbdc0baf", "is_reserved": 0, "rental_uris": {"android": "https://dc.lft.to/lastmile_qr_scan", "ios": "https://dc.lft.to/lastmile_qr_scan"}, "fusion_lon": 0.0}, {"lat": 38.91554566666667, "is_disabled": 0, "type": "electric_scooter", "lon": -77.03868483333333, "bike_id": "fc0fa94d771425dfc27ee10b9eb9d5e0", "fusion_lat": 0.0, "name": "fc0fa94d771425dfc27ee10b9eb9d5e0", "is_reserved": 0, "rental_uris": {"android": "https://dc.lft.to/lastmile_qr_scan", "ios": "https://dc.lft.to/lastmile_qr_scan"}, "fusion_lon": 0.0}, {"lat": 38.9732375, "is_disabled": 0, "type": "electric_bike", "lon": -77.0215385, "bike_id": "58b8507d6dbbf71b7a79a95f1887e6ce", "fusion_lat": 0.0, "name": "58b8507d6dbbf71b7a79a95f1887e6ce", "is_reserved": 0, "rental_uris": {"android": "https://dc.lft.to/lastmile_qr_scan", "ios": "https://dc.lft.to/lastmile_qr_scan"}, "fusion_lon": 0.0}, {"lat": 38.893717333333335, "is_disabled": 0, "type": "electric_scooter", "lon": -76.950037, "bike_id": "4a66288bf17ff0159a7a8bafb9cb93f7", "fusion_lat": 0.0, "name": "4a66288bf17ff0159a7a8bafb9cb93f7", "is_reserved": 0, "rental_uris": {"android": "https://dc.lft.to/lastmile_qr_scan", "ios": "https://dc.lft.to/lastmile_qr_scan"}, "fusion_lon": 0.0}, {"lat": 38.899505166666664, "is_disabled": 0, "type": "electric_scooter", "lon": -77.0334795, "bike_id": "1b3ec859ca1b53eb365e85cda8f98cbe", "fusion_lat": 0.0, "name": "1b3ec859ca1b53eb365e85cda8f98cbe", "is_reserved": 0, "rental_uris": {"android": "https://dc.lft.to/lastmile_qr_scan", "ios": "https://dc.lft.to/lastmile_qr_scan"}, "fusion_lon": 0.0}, {"lat": 38.90306733333333, "is_disabled": 0, "type": "electric_scooter", "lon": -77.038389, "bike_id": "c57f4a0f28daeeb941879d59453c7213", "fusion_lat": 0.0, "name": "c57f4a0f28daeeb941879d59453c7213", "is_reserved": 0, "rental_uris": {"android": "https://dc.lft.to/lastmile_qr_scan", "ios": "https://dc.lft.to/lastmile_qr_scan"}, "fusion_lon": 0.0}, {"lat": 38.8830615, "is_disabled": 0, "type": "electric_bike", "lon": -77.03161683333333, "bike_id": "a5923b3ac9e437dfb1caaa480d982569", "fusion_lat": 0.0, "name": "a5923b3ac9e437dfb1caaa480d982569", "is_reserved": 0, "rental_uris": {"android": "https://dc.lft.to/lastmile_qr_scan", "ios": "https://dc.lft.to/lastmile_qr_scan"}, "fusion_lon": 0.0}, {"lat": 38.936644, "is_disabled": 0, "type": "electric_scooter", "lon": -77.03596416666667, "bike_id": "8e24bdfe537c57bbc55834847bd6ec15", "fusion_lat": 0.0, "name": "8e24bdfe537c57bbc55834847bd6ec15", "is_reserved": 0, "rental_uris": {"android": "https://dc.lft.to/lastmile_qr_scan", "ios": "https://dc.lft.to/lastmile_qr_scan"}, "fusion_lon": 0.0}, {"lat": 38.9055775, "is_disabled": 0, "type": "electric_scooter", "lon": -77.00597816666667, "bike_id": "7b8822613b2eba65d5e89d30b4c1899e", "fusion_lat": 0.0, "name": "7b8822613b2eba65d5e89d30b4c1899e", "is_reserved": 0, "rental_uris": {"android": "https://dc.lft.to/lastmile_qr_scan", "ios": "https://dc.lft.to/lastmile_qr_scan"}, "fusion_lon": 0.0}, {"lat": 38.958837, "is_disabled": 0, "type": "electric_bike", "lon": -76.92491016666666, "bike_id": "ebbfa50f1ebf386dab4c8e91f7570925", "fusion_lat": 0.0, "name": "ebbfa50f1ebf386dab4c8e91f7570925", "is_reserved": 0, "rental_uris": {"android": "https://dc.lft.to/lastmile_qr_scan", "ios": "https://dc.lft.to/lastmile_qr_scan"}, "fusion_lon": 0.0}, {"lat": 38.9052265, "is_disabled": 0, "type": "electric_scooter", "lon": -77.04773633333333, "bike_id": "a8f43689e395b240caba15cea841402e", "fusion_lat": 0.0, "name": "a8f43689e395b240caba15cea841402e", "is_reserved": 0, "rental_uris": {"android": "https://dc.lft.to/lastmile_qr_scan", "ios": "https://dc.lft.to/lastmile_qr_scan"}, "fusion_lon": 0.0}, {"lat": 38.92712983333333, "is_disabled": 0, "type": "electric_scooter", "lon": -77.0363845, "bike_id": "98c783968f781818c059e33a854ea572", "fusion_lat": 0.0, "name": "98c783968f781818c059e33a854ea572", "is_reserved": 0, "rental_uris": {"android": "https://dc.lft.to/lastmile_qr_scan", "ios": "https://dc.lft.to/lastmile_qr_scan"}, "fusion_lon": 0.0}, {"lat": 38.9187355, "is_disabled": 0, "type": "electric_scooter", "lon": -77.04256866666667, "bike_id": "e9e7b29bed7fdec6f5bd9d918c8d9470", "fusion_lat": 0.0, "name": "e9e7b29bed7fdec6f5bd9d918c8d9470", "is_reserved": 0, "rental_uris": {"android": "https://dc.lft.to/lastmile_qr_scan", "ios": "https://dc.lft.to/lastmile_qr_scan"}, "fusion_lon": 0.0}, {"lat": 38.91729866666667, "is_disabled": 0, "type": "electric_scooter", "lon": -77.036618, "bike_id": "d93fa3349374c3df0bf8d343db327932", "fusion_lat": 0.0, "name": "d93fa3349374c3df0bf8d343db327932", "is_reserved": 0, "rental_uris": {"android": "https://dc.lft.to/lastmile_qr_scan", "ios": "https://dc.lft.to/lastmile_qr_scan"}, "fusion_lon": 0.0}, {"lat": 38.912719333333335, "is_disabled": 0, "type": "electric_scooter", "lon": -77.04511066666667, "bike_id": "3f4af4a45b71ea338099a6b7ce0de85b", "fusion_lat": 0.0, "name": "3f4af4a45b71ea338099a6b7ce0de85b", "is_reserved": 0, "rental_uris": {"android": "https://dc.lft.to/lastmile_qr_scan", "ios": "https://dc.lft.to/lastmile_qr_scan"}, "fusion_lon": 0.0}, {"lat": 38.9063275, "is_disabled": 0, "type": "electric_scooter", "lon": -77.0397075, "bike_id": "356c64af69f263323c9de1fae2aad105", "fusion_lat": 0.0, "name": "356c64af69f263323c9de1fae2aad105", "is_reserved": 0, "rental_uris": {"android": "https://dc.lft.to/lastmile_qr_scan", "ios": "https://dc.lft.to/lastmile_qr_scan"}, "fusion_lon": 0.0}, {"lat": 38.90320233333333, "is_disabled": 0, "type": "electric_scooter", "lon": -77.037717, "bike_id": "418954c9cb74cc82db0345c4cf5ee8b5", "fusion_lat": 0.0, "name": "418954c9cb74cc82db0345c4cf5ee8b5", "is_reserved": 0, "rental_uris": {"android": "https://dc.lft.to/lastmile_qr_scan", "ios": "https://dc.lft.to/lastmile_qr_scan"}, "fusion_lon": 0.0}, {"lat": 38.91550516666667, "is_disabled": 0, "type": "electric_scooter", "lon": -77.03849583333333, "bike_id": "8aaa1488bd57858a0f7d9c02559f56da", "fusion_lat": 0.0, "name": "8aaa1488bd57858a0f7d9c02559f56da", "is_reserved": 0, "rental_uris": {"android": "https://dc.lft.to/lastmile_qr_scan", "ios": "https://dc.lft.to/lastmile_qr_scan"}, "fusion_lon": 0.0}, {"lat": 38.860404, "is_disabled": 0, "type": "electric_scooter", "lon": -77.05768333333333, "bike_id": "117f6fb69eca5a3d674b0d1ddd3576b9", "fusion_lat": 0.0, "name": "117f6fb69eca5a3d674b0d1ddd3576b9", "is_reserved": 0, "rental_uris": {"android": "https://dc.lft.to/lastmile_qr_scan", "ios": "https://dc.lft.to/lastmile_qr_scan"}, "fusion_lon": 0.0}, {"lat": 38.92030333333334, "is_disabled": 0, "type": "electric_scooter", "lon": -76.97907, "bike_id": "a4bca006af01bf39ed411ad591e21087", "fusion_lat": 0.0, "name": "a4bca006af01bf39ed411ad591e21087", "is_reserved": 0, "rental_uris": {"android": "https://dc.lft.to/lastmile_qr_scan", "ios": "https://dc.lft.to/lastmile_qr_scan"}, "fusion_lon": 0.0}, {"lat": 38.9228285, "is_disabled": 0, "type": "electric_scooter", "lon": -77.03661866666667, "bike_id": "ced8b5e8a3a4b5cbdb57dfa183790253", "fusion_lat": 0.0, "name": "ced8b5e8a3a4b5cbdb57dfa183790253", "is_reserved": 0, "rental_uris": {"android": "https://dc.lft.to/lastmile_qr_scan", "ios": "https://dc.lft.to/lastmile_qr_scan"}, "fusion_lon": 0.0}, {"lat": 38.91685533333333, "is_disabled": 0, "type": "electric_scooter", "lon": -77.02744483333333, "bike_id": "e15a51ec11f00e466aa2e3dd272b010d", "fusion_lat": 0.0, "name": "e15a51ec11f00e466aa2e3dd272b010d", "is_reserved": 0, "rental_uris": {"android": "https://dc.lft.to/lastmile_qr_scan", "ios": "https://dc.lft.to/lastmile_qr_scan"}, "fusion_lon": 0.0}, {"lat": 38.8922475, "is_disabled": 0, "type": "electric_scooter", "lon": -77.03339533333333, "bike_id": "a72e553ce713067d19caf80878998c98", "fusion_lat": 0.0, "name": "a72e553ce713067d19caf80878998c98", "is_reserved": 0, "rental_uris": {"android": "https://dc.lft.to/lastmile_qr_scan", "ios": "https://dc.lft.to/lastmile_qr_scan"}, "fusion_lon": 0.0}, {"lat": 38.924447, "is_disabled": 0, "type": "electric_scooter", "lon": -77.02033183333333, "bike_id": "f91ddfff3d104d253475187210d76c42", "fusion_lat": 0.0, "name": "f91ddfff3d104d253475187210d76c42", "is_reserved": 0, "rental_uris": {"android": "https://dc.lft.to/lastmile_qr_scan", "ios": "https://dc.lft.to/lastmile_qr_scan"}, "fusion_lon": 0.0}, {"lat": 38.832337333333335, "is_disabled": 0, "type": "electric_bike", "lon": -76.94633016666667, "bike_id": "046353ac226bb53b7851d0addaa58002", "fusion_lat": 0.0, "name": "046353ac226bb53b7851d0addaa58002", "is_reserved": 0, "rental_uris": {"android": "https://dc.lft.to/lastmile_qr_scan", "ios": "https://dc.lft.to/lastmile_qr_scan"}, "fusion_lon": 0.0}, {"lat": 38.890318, "is_disabled": 0, "type": "electric_scooter", "lon": -76.93755633333333, "bike_id": "f46d5d43b6fb3823f6e88e4d0d14d842", "fusion_lat": 0.0, "name": "f46d5d43b6fb3823f6e88e4d0d14d842", "is_reserved": 0, "rental_uris": {"android": "https://dc.lft.to/lastmile_qr_scan", "ios": "https://dc.lft.to/lastmile_qr_scan"}, "fusion_lon": 0.0}, {"lat": 38.922379, "is_disabled": 0, "type": "electric_bike", "lon": -77.02241883333333, "bike_id": "1a170f5c0c2e2d6ee17612856dec8a91", "fusion_lat": 0.0, "name": "1a170f5c0c2e2d6ee17612856dec8a91", "is_reserved": 0, "rental_uris": {"android": "https://dc.lft.to/lastmile_qr_scan", "ios": "https://dc.lft.to/lastmile_qr_scan"}, "fusion_lon": 0.0}, {"lat": 38.92737833333333, "is_disabled": 0, "type": "electric_scooter", "lon": -77.03561166666667, "bike_id": "1d4dbaaaee7eeb8cc6a0ae0bb848f047", "fusion_lat": 0.0, "name": "1d4dbaaaee7eeb8cc6a0ae0bb848f047", "is_reserved": 0, "rental_uris": {"android": "https://dc.lft.to/lastmile_qr_scan", "ios": "https://dc.lft.to/lastmile_qr_scan"}, "fusion_lon": 0.0}, {"lat": 38.9127585, "is_disabled": 0, "type": "electric_scooter", "lon": -77.04511833333333, "bike_id": "62546ad1739178a9bd19f37995ff5781", "fusion_lat": 0.0, "name": "62546ad1739178a9bd19f37995ff5781", "is_reserved": 0, "rental_uris": {"android": "https://dc.lft.to/lastmile_qr_scan", "ios": "https://dc.lft.to/lastmile_qr_scan"}, "fusion_lon": 0.0}, {"lat": 38.92910366666667, "is_disabled": 0, "type": "electric_scooter", "lon": -77.032519, "bike_id": "bdc4959a2709e107bb0b03b0f25af0dc", "fusion_lat": 0.0, "name": "bdc4959a2709e107bb0b03b0f25af0dc", "is_reserved": 0, "rental_uris": {"android": "https://dc.lft.to/lastmile_qr_scan", "ios": "https://dc.lft.to/lastmile_qr_scan"}, "fusion_lon": 0.0}, {"lat": 38.97871766666667, "is_disabled": 0, "type": "electric_scooter", "lon": -77.02553083333333, "bike_id": "e22997bf062982c420ca881ca874e677", "fusion_lat": 0.0, "name": "e22997bf062982c420ca881ca874e677", "is_reserved": 0, "rental_uris": {"android": "https://dc.lft.to/lastmile_qr_scan", "ios": "https://dc.lft.to/lastmile_qr_scan"}, "fusion_lon": 0.0}, {"lat": 38.8638565, "is_disabled": 0, "type": "electric_scooter", "lon": -76.9925005, "bike_id": "a80b5a9f3f257e1881468cce4d6126a2", "fusion_lat": 0.0, "name": "a80b5a9f3f257e1881468cce4d6126a2", "is_reserved": 0, "rental_uris": {"android": "https://dc.lft.to/lastmile_qr_scan", "ios": "https://dc.lft.to/lastmile_qr_scan"}, "fusion_lon": 0.0}, {"lat": 38.911071166666666, "is_disabled": 0, "type": "electric_scooter", "lon": -77.045087, "bike_id": "aff7ef1b2a132d7b2e24675ba8b2cfb0", "fusion_lat": 0.0, "name": "aff7ef1b2a132d7b2e24675ba8b2cfb0", "is_reserved": 0, "rental_uris": {"android": "https://dc.lft.to/lastmile_qr_scan", "ios": "https://dc.lft.to/lastmile_qr_scan"}, "fusion_lon": 0.0}, {"lat": 38.94304133333333, "is_disabled": 0, "type": "electric_scooter", "lon": -77.05932033333333, "bike_id": "1ace9d01e8bf77bf0b0ddddce8fe1240", "fusion_lat": 0.0, "name": "1ace9d01e8bf77bf0b0ddddce8fe1240", "is_reserved": 0, "rental_uris": {"android": "https://dc.lft.to/lastmile_qr_scan", "ios": "https://dc.lft.to/lastmile_qr_scan"}, "fusion_lon": 0.0}, {"lat": 38.936637833333336, "is_disabled": 0, "type": "electric_scooter", "lon": -76.99384966666666, "bike_id": "0d2651b801f22fc0dff2ea83237f63d8", "fusion_lat": 0.0, "name": "0d2651b801f22fc0dff2ea83237f63d8", "is_reserved": 0, "rental_uris": {"android": "https://dc.lft.to/lastmile_qr_scan", "ios": "https://dc.lft.to/lastmile_qr_scan"}, "fusion_lon": 0.0}, {"lat": 38.89686583333334, "is_disabled": 0, "type": "electric_scooter", "lon": -77.00783666666666, "bike_id": "3d8a5488d143fa521c87dbb4ef48ac17", "fusion_lat": 0.0, "name": "3d8a5488d143fa521c87dbb4ef48ac17", "is_reserved": 0, "rental_uris": {"android": "https://dc.lft.to/lastmile_qr_scan", "ios": "https://dc.lft.to/lastmile_qr_scan"}, "fusion_lon": 0.0}, {"lat": 38.9076235, "is_disabled": 0, "type": "electric_scooter", "lon": -77.00092383333333, "bike_id": "3fdc1dea1773a3fe8d982eeb8b50f851", "fusion_lat": 0.0, "name": "3fdc1dea1773a3fe8d982eeb8b50f851", "is_reserved": 0, "rental_uris": {"android": "https://dc.lft.to/lastmile_qr_scan", "ios": "https://dc.lft.to/lastmile_qr_scan"}, "fusion_lon": 0.0}, {"lat": 38.916047, "is_disabled": 0, "type": "electric_scooter", "lon": -77.02306116666666, "bike_id": "04f027df94d2b8e520a4fb1a217fe865", "fusion_lat": 0.0, "name": "04f027df94d2b8e520a4fb1a217fe865", "is_reserved": 0, "rental_uris": {"android": "https://dc.lft.to/lastmile_qr_scan", "ios": "https://dc.lft.to/lastmile_qr_scan"}, "fusion_lon": 0.0}, {"lat": 38.9232055, "is_disabled": 0, "type": "electric_scooter", "lon": -77.03907766666667, "bike_id": "dd9a9d92c963b80350e40fd047387711", "fusion_lat": 0.0, "name": "dd9a9d92c963b80350e40fd047387711", "is_reserved": 0, "rental_uris": {"android": "https://dc.lft.to/lastmile_qr_scan", "ios": "https://dc.lft.to/lastmile_qr_scan"}, "fusion_lon": 0.0}, {"lat": 38.925825833333334, "is_disabled": 0, "type": "electric_scooter", "lon": -77.03228483333334, "bike_id": "2667e1826b7656ed1178f9c096ce9339", "fusion_lat": 0.0, "name": "2667e1826b7656ed1178f9c096ce9339", "is_reserved": 0, "rental_uris": {"android": "https://dc.lft.to/lastmile_qr_scan", "ios": "https://dc.lft.to/lastmile_qr_scan"}, "fusion_lon": 0.0}, {"lat": 38.9077745, "is_disabled": 0, "type": "electric_scooter", "lon": -77.0445935, "bike_id": "4c3bed9252aebe82cc988349cc3e89da", "fusion_lat": 0.0, "name": "4c3bed9252aebe82cc988349cc3e89da", "is_reserved": 0, "rental_uris": {"android": "https://dc.lft.to/lastmile_qr_scan", "ios": "https://dc.lft.to/lastmile_qr_scan"}, "fusion_lon": 0.0}, {"lat": 38.905711, "is_disabled": 0, "type": "electric_scooter", "lon": -77.00583166666667, "bike_id": "aaa9d97fe94ad65ccab85fc2b4e7b3c6", "fusion_lat": 0.0, "name": "aaa9d97fe94ad65ccab85fc2b4e7b3c6", "is_reserved": 0, "rental_uris": {"android": "https://dc.lft.to/lastmile_qr_scan", "ios": "https://dc.lft.to/lastmile_qr_scan"}, "fusion_lon": 0.0}, {"lat": 38.916850333333336, "is_disabled": 0, "type": "electric_scooter", "lon": -77.02966033333334, "bike_id": "c861c09275c2fb894fc349338b45c442", "fusion_lat": 0.0, "name": "c861c09275c2fb894fc349338b45c442", "is_reserved": 0, "rental_uris": {"android": "https://dc.lft.to/lastmile_qr_scan", "ios": "https://dc.lft.to/lastmile_qr_scan"}, "fusion_lon": 0.0}, {"lat": 38.9259865, "is_disabled": 0, "type": "electric_scooter", "lon": -77.056952, "bike_id": "7969ced6f49cd2113dab1edd6909a5ff", "fusion_lat": 0.0, "name": "7969ced6f49cd2113dab1edd6909a5ff", "is_reserved": 0, "rental_uris": {"android": "https://dc.lft.to/lastmile_qr_scan", "ios": "https://dc.lft.to/lastmile_qr_scan"}, "fusion_lon": 0.0}, {"lat": 38.93068566666667, "is_disabled": 0, "type": "electric_scooter", "lon": -77.0226505, "bike_id": "79cf182f192973f610e4ac150782eaf9", "fusion_lat": 0.0, "name": "79cf182f192973f610e4ac150782eaf9", "is_reserved": 0, "rental_uris": {"android": "https://dc.lft.to/lastmile_qr_scan", "ios": "https://dc.lft.to/lastmile_qr_scan"}, "fusion_lon": 0.0}, {"lat": 38.909587, "is_disabled": 0, "type": "electric_scooter", "lon": -77.03381666666667, "bike_id": "f759fc2c9b27dd18400d3954c2e4dce1", "fusion_lat": 0.0, "name": "f759fc2c9b27dd18400d3954c2e4dce1", "is_reserved": 0, "rental_uris": {"android": "https://dc.lft.to/lastmile_qr_scan", "ios": "https://dc.lft.to/lastmile_qr_scan"}, "fusion_lon": 0.0}, {"lat": 38.89469666666667, "is_disabled": 0, "type": "electric_bike", "lon": -76.94846133333333, "bike_id": "e3bbf82840da7b889d81c03743c2a866", "fusion_lat": 0.0, "name": "e3bbf82840da7b889d81c03743c2a866", "is_reserved": 0, "rental_uris": {"android": "https://dc.lft.to/lastmile_qr_scan", "ios": "https://dc.lft.to/lastmile_qr_scan"}, "fusion_lon": 0.0}, {"lat": 38.91679416666667, "is_disabled": 0, "type": "electric_scooter", "lon": -77.02972416666667, "bike_id": "78ac2f002c1561d43e5a382c2434c065", "fusion_lat": 0.0, "name": "78ac2f002c1561d43e5a382c2434c065", "is_reserved": 0, "rental_uris": {"android": "https://dc.lft.to/lastmile_qr_scan", "ios": "https://dc.lft.to/lastmile_qr_scan"}, "fusion_lon": 0.0}, {"lat": 38.90106216666667, "is_disabled": 0, "type": "electric_scooter", "lon": -77.03178583333333, "bike_id": "5ba7bd2251d34dbfb0aa4696caa90f88", "fusion_lat": 0.0, "name": "5ba7bd2251d34dbfb0aa4696caa90f88", "is_reserved": 0, "rental_uris": {"android": "https://dc.lft.to/lastmile_qr_scan", "ios": "https://dc.lft.to/lastmile_qr_scan"}, "fusion_lon": 0.0}, {"lat": 38.91834266666667, "is_disabled": 0, "type": "electric_scooter", "lon": -77.03217016666666, "bike_id": "d1178bd21459cb0d8cc45a61147a91ae", "fusion_lat": 0.0, "name": "d1178bd21459cb0d8cc45a61147a91ae", "is_reserved": 0, "rental_uris": {"android": "https://dc.lft.to/lastmile_qr_scan", "ios": "https://dc.lft.to/lastmile_qr_scan"}, "fusion_lon": 0.0}, {"lat": 38.921635, "is_disabled": 0, "type": "electric_scooter", "lon": -77.038244, "bike_id": "d06132881daee1cf658c17d6f2d97d96", "fusion_lat": 0.0, "name": "d06132881daee1cf658c17d6f2d97d96", "is_reserved": 0, "rental_uris": {"android": "https://dc.lft.to/lastmile_qr_scan", "ios": "https://dc.lft.to/lastmile_qr_scan"}, "fusion_lon": 0.0},