{"data": {"bikes": [{"lat": 38.91638016666667, "lon": -77.015775, "is_disabled": 0, "fusion_lon": 0.0, "is_reserved": 0, "name": "6bf24e3526c24febed75c0723095c036", "type": "electric_scooter", "bike_id": "6bf24e3526c24febed75c0723095c036", "rental_uris": {"ios": "https://dc.lft.to/lastmile_qr_scan", "android": "https://dc.lft.to/lastmile_qr_scan"}, "fusion_lat": 0.0}, {"lat": 38.89916783333334, "lon": -76.93381283333333, "is_disabled": 0, "fusion_lon": 0.0, "is_reserved": 0, "name": "5bb193e23ffbde3446492aa4e6495e13", "type": "electric_scooter", "bike_id": "5bb193e23ffbde3446492aa4e6495e13", "rental_uris": {"ios": "https://dc.lft.to/lastmile_qr_scan", "android": "https://dc.lft.to/lastmile_qr_scan"}, "fusion_lat": 0.0}, {"lat": 38.878321666666665, "lon": -77.0055645, "is_disabled": 0, "fusion_lon": 0.0, "is_reserved": 0, "name": "a1fcafa952e007c280cc2e96480bf0c8", "type": "electric_scooter", "bike_id": "a1fcafa952e007c280cc2e96480bf0c8", "rental_uris": {"ios": "https://dc.lft.to/lastmile_qr_scan", "android": "https://dc.lft.to/lastmile_qr_scan"}, "fusion_lat": 0.0}, {"lat": 38.92095466666667, "lon": -77.04697383333334, "is_disabled": 0, "fusion_lon": 0.0, "is_reserved": 0, "name": "8f0e844125ffd0757f31cbc1da96f69d", "type": "electric_scooter", "bike_id": "8f0e844125ffd0757f31cbc1da96f69d", "rental_uris": {"ios": "https://dc.lft.to/lastmile_qr_scan", "android": "https://dc.lft.to/lastmile_qr_scan"}, "fusion_lat": 0.0}, {"lat": 38.874955, "lon": -76.99966, "is_disabled": 0, "fusion_lon": 0.0, "is_reserved": 0, "name": "77f0eb5dbdc63011935092443945d8ef", "type": "electric_scooter", "bike_id": "77f0eb5dbdc63011935092443945d8ef", "rental_uris": {"ios": "https://dc.lft.to/lastmile_qr_scan", "android": "https://dc.lft.to/lastmile_qr_scan"}, "fusion_lat": 0.0}, {"lat": 38.906128, "lon": -77.06295466666667, "is_disabled": 0, "fusion_lon": 0.0, "is_reserved": 0, "name": "fb8ef0cf58c4234ed7ab00f4fdd32b41", "type": "electric_scooter", "bike_id": "fb8ef0cf58c4234ed7ab00f4fdd32b41", "rental_uris": {"ios": "https://dc.lft.to/lastmile_qr_scan", "android": "https://dc.lft.to/lastmile_qr_scan"}, "fusion_lat": 0.0}, {"lat": 38.91993183333334, "lon": -77.0253015, "is_disabled": 0, "fusion_lon": 0.0, "is_reserved": 0, "name": "e6509ba77b30eaa3745ce783565aeeb0", "type": "electric_scooter", "bike_id": "e6509ba77b30eaa3745ce783565aeeb0", "rental_uris": {"ios": "https://dc.lft.to/lastmile_qr_scan", "android": "https://dc.lft.to/lastmile_qr_scan"}, "fusion_lat": 0.0}, {"lat": 38.9048225, "lon": -77.01984383333334, "is_disabled": 0, "fusion_lon": 0.0, "is_reserved": 0, "name": "65a3e342b5aa8d18e3e8e4855382adb4", "type": "electric_scooter", "bike_id": "65a3e342b5aa8d18e3e8e4855382adb4", "rental_uris": {"ios": "https://dc.lft.to/lastmile_qr_scan", "android": "https://dc.lft.to/lastmile_qr_scan"}, "fusion_lat": 0.0}, {"lat": 38.902649, "lon": -77.03742966666667, "is_disabled": 0, "fusion_lon": 0.0, "is_reserved": 0, "name": "83d2a8eb168b591388d657126d3008c2", "type": "electric_scooter", "bike_id": "83d2a8eb168b591388d657126d3008c2", "rental_uris": {"ios": "https://dc.lft.to/lastmile_qr_scan", "android": "https://dc.lft.to/lastmile_qr_scan"}, "fusion_lat": 0.0}, {"lat": 38.91029266666666, "lon": -76.99723133333333, "is_disabled": 0, "fusion_lon": 0.0, "is_reserved": 0, "name": "91c6260f055984a7b8c47b3d11765efd", "type": "electric_scooter", "bike_id": "91c6260f055984a7b8c47b3d11765efd", "rental_uris": {"ios": "https://dc.lft.to/lastmile_qr_scan", "android": "https://dc.lft.to/lastmile_qr_scan"}, "fusion_lat": 0.0}, {"lat": 38.915540666666665, "lon": -77.03253933333333, "is_disabled": 0, "fusion_lon": 0.0, "is_reserved": 0, "name": "153c2e0a057231631d51a8474c56b0c7", "type": "electric_scooter", "bike_id": "153c2e0a057231631d51a8474c56b0c7", "rental_uris": {"ios": "https://dc.lft.to/lastmile_qr_scan", "android": "https://dc.lft.to/lastmile_qr_scan"}, "fusion_lat": 0.0}, {"lat": 38.92452483333334, "lon": -77.05193266666667, "is_disabled": 0, "fusion_lon": 0.0, "is_reserved": 0, "name": "1cb6abd0c58283a3e84db3332072c707", "type": "electric_scooter", "bike_id": "1cb6abd0c58283a3e84db3332072c707", "rental_uris": {"ios": "https://dc.lft.to/lastmile_qr_scan", "android": "https://dc.lft.to/lastmile_qr_scan"}, "fusion_lat": 0.0}, {"lat": 38.908595166666665, "lon": -76.99158716666666, "is_disabled": 0, "fusion_lon": 0.0, "is_reserved": 0, "name": "a784100cc5967f645e84bd97502c45cf", "type": "electric_scooter", "bike_id": "a784100cc5967f645e84bd97502c45cf", "rental_uris": {"ios": "https://dc.lft.to/lastmile_qr_scan", "android": "https://dc.lft.to/lastmile_qr_scan"}, "fusion_lat": 0.0}, {"lat": 38.938265333333334, "lon": -76.9892485, "is_disabled": 0, "fusion_lon": 0.0, "is_reserved": 0, "name": "42886f9cf410e8a985fff30111649778", "type": "electric_scooter", "bike_id": "42886f9cf410e8a985fff30111649778", "rental_uris": {"ios": "https://dc.lft.to/lastmile_qr_scan", "android": "https://dc.lft.to/lastmile_qr_scan"}, "fusion_lat": 0.0}, {"lat": 39.014854166666666, "lon": -77.09948483333334, "is_disabled": 0, "fusion_lon": 0.0, "is_reserved": 0, "name": "467bcd88ca0e85b8d52702cf0c60a2d4", "type": "electric_bike", "bike_id": "467bcd88ca0e85b8d52702cf0c60a2d4", "rental_uris": {"ios": "https://dc.lft.to/lastmile_qr_scan", "android": "https://dc.lft.to/lastmile_qr_scan"}, "fusion_lat": 0.0}, {"lat": 38.902275333333336, "lon": -77.02258333333333, "is_disabled": 0, "fusion_lon": 0.0, "is_reserved": 0, "name": "ff89589ab5526e94873bcfc0382faacc", "type": "electric_scooter", "bike_id": "ff89589ab5526e94873bcfc0382faacc", "rental_uris": {"ios": "https://dc.lft.to/lastmile_qr_scan", "android": "https://dc.lft.to/lastmile_qr_scan"}, "fusion_lat": 0.0}, {"lat": 38.898777833333334, "lon": -77.009804, "is_disabled": 0, "fusion_lon": 0.0, "is_reserved": 0, "name": "582bbf23cda9dfbda158ed0672179a9d", "type": "electric_scooter", "bike_id": "582bbf23cda9dfbda158ed0672179a9d", "rental_uris": {"ios": "https://dc.lft.to/lastmile_qr_scan", "android": "https://dc.lft.to/lastmile_qr_scan"}, "fusion_lat": 0.0}, {"lat": 38.96156716666667, "lon": -77.032417, "is_disabled": 0, "fusion_lon": 0.0, "is_reserved": 0, "name": "c4883208efdceedd118383feaf37958b", "type": "electric_scooter", "bike_id": "c4883208efdceedd118383feaf37958b", "rental_uris": {"ios": "https://dc.lft.to/lastmile_qr_scan", "android": "https://dc.lft.to/lastmile_qr_scan"}, "fusion_lat": 0.0}, {"lat": 38.90773983333333, "lon": -77.04335616666667, "is_disabled": 0, "fusion_lon": 0.0, "is_reserved": 0, "name": "b58f38c5dd9d969a2187d0eb445658e0", "type": "electric_scooter", "bike_id": "b58f38c5dd9d969a2187d0eb445658e0", "rental_uris": {"ios": "https://dc.lft.to/lastmile_qr_scan", "android": "https://dc.lft.to/lastmile_qr_scan"}, "fusion_lat": 0.0}, {"lat": 38.950688, "lon": -77.07734483333333, "is_disabled": 0, "fusion_lon": 0.0, "is_reserved": 0, "name": "8c7b59de1a5173ad5fa337b19007e7e0", "type": "electric_bike", "bike_id": "8c7b59de1a5173ad5fa337b19007e7e0", "rental_uris": {"ios": "https://dc.lft.to/lastmile_qr_scan", "android": "https://dc.lft.to/lastmile_qr_scan"}, "fusion_lat": 0.0}, {"lat": 38.920308, "lon": -77.010355, "is_disabled": 0, "fusion_lon": 0.0, "is_reserved": 0, "name": "c8e69af9b938ed06f0a92f89f59b3080", "type": "electric_scooter", "bike_id": "c8e69af9b938ed06f0a92f89f59b3080", "rental_uris": {"ios": "https://dc.lft.to/lastmile_qr_scan", "android": "https://dc.lft.to/lastmile_qr_scan"}, "fusion_lat": 0.0}, {"lat": 38.91520083333333, "lon": -77.01978783333334, "is_disabled": 0, "fusion_lon": 0.0, "is_reserved": 0, "name": "a53d7c1fab307de22215cea4884e5844", "type": "electric_scooter", "bike_id": "a53d7c1fab307de22215cea4884e5844", "rental_uris": {"ios": "https://dc.lft.to/lastmile_qr_scan", "android": "https://dc.lft.to/lastmile_qr_scan"}, "fusion_lat": 0.0}, {"lat": 38.88373033333333, "lon": -76.995359, "is_disabled": 0, "fusion_lon": 0.0, "is_reserved": 0, "name": "39b5f885be64b18c103b4c6b65fff948", "type": "electric_scooter", "bike_id": "39b5f885be64b18c103b4c6b65fff948", "rental_uris": {"ios": "https://dc.lft.to/lastmile_qr_scan", "android": "https://dc.lft.to/lastmile_qr_scan"}, "fusion_lat": 0.0}, {"lat": 38.91816466666667, "lon": -77.0363615, "is_disabled": 0, "fusion_lon": 0.0, "is_reserved": 0, "name": "72eea72f69362c68ac85c1a7e2dd8e4b", "type": "electric_scooter", "bike_id": "72eea72f69362c68ac85c1a7e2dd8e4b", "rental_uris": {"ios": "https://dc.lft.to/lastmile_qr_scan", "android": "https://dc.lft.to/lastmile_qr_scan"}, "fusion_lat": 0.0}, {"lat": 38.90264666666667, "lon": -77.06267683333333, "is_disabled": 0, "fusion_lon": 0.0, "is_reserved": 0, "name": "10e0574269de735511f6973734fa6975", "type": "electric_scooter", "bike_id": "10e0574269de735511f6973734fa6975", "rental_uris": {"ios": "https://dc.lft.to/lastmile_qr_scan", "android": "https://dc.lft.to/lastmile_qr_scan"}, "fusion_lat": 0.0}, {"lat": 38.9057595, "lon": -77.04525166666667, "is_disabled": 0, "fusion_lon": 0.0, "is_reserved": 0, "name": "168c1708e58c49f41d3755fee12d8085", "type": "electric_scooter", "bike_id": "168c1708e58c49f41d3755fee12d8085", "rental_uris": {"ios": "https://dc.lft.to/lastmile_qr_scan", "android": "https://dc.lft.to/lastmile_qr_scan"}, "fusion_lat": 0.0}, {"lat": 38.93084233333333, "lon": -77.03407933333334, "is_disabled": 0, "fusion_lon": 0.0, "is_reserved": 0, "name": "7b5b830c56da70ca775bf21e39cb8fbd", "type": "electric_scooter", "bike_id": "7b5b830c56da70ca775bf21e39cb8fbd", "rental_uris": {"ios": "https://dc.lft.to/lastmile_qr_scan", "android": "https://dc.lft.to/lastmile_qr_scan"}, "fusion_lat": 0.0}, {"lat": 38.806800333333335, "lon": -77.06913066666667, "is_disabled": 0, "fusion_lon": 0.0, "is_reserved": 0, "name": "ce178ea0206aed1ad552355f1903a92d", "type": "electric_bike", "bike_id": "ce178ea0206aed1ad552355f1903a92d", "rental_uris": {"ios": "https://dc.lft.to/lastmile_qr_scan", "android": "https://dc.lft.to/lastmile_qr_scan"}, "fusion_lat": 0.0}, {"lat": 38.921753833333334, "lon": -77.0402925, "is_disabled": 0, "fusion_lon": 0.0, "is_reserved": 0, "name": "254442ec452b7fbd517b955a46d7cde9", "type": "electric_scooter", "bike_id": "254442ec452b7fbd517b955a46d7cde9", "rental_uris": {"ios": "https://dc.lft.to/lastmile_qr_scan", "android": "https://dc.lft.to/lastmile_qr_scan"}, "fusion_lat": 0.0}, {"lat": 38.93949816666667, "lon": -77.02179833333334, "is_disabled": 0, "fusion_lon": 0.0, "is_reserved": 0, "name": "c93446c81e317e30a464994e2de6531d", "type": "electric_scooter", "bike_id": "c93446c81e317e30a464994e2de6531d", "rental_uris": {"ios": "https://dc.lft.to/lastmile_qr_scan", "android": "https://dc.lft.to/lastmile_qr_scan"}, "fusion_lat": 0.0}, {"lat": 38.92841266666667, "lon": -77.00602933333333, "is_disabled": 0, "fusion_lon": 0.0, "is_reserved": 0, "name": "e21c8547b848a9af5e2391e664c972c1", "type": "electric_scooter", "bike_id": "e21c8547b848a9af5e2391e664c972c1", "rental_uris": {"ios": "https://dc.lft.to/lastmile_qr_scan", "android": "https://dc.lft.to/lastmile_qr_scan"}, "fusion_lat": 0.0}, {"lat": 38.90135, "lon": -77.03865516666667, "is_disabled": 0, "fusion_lon": 0.0, "is_reserved": 0, "name": "654993ab5580cb3874831bfa0d2f7fcb", "type": "electric_scooter", "bike_id": "654993ab5580cb3874831bfa0d2f7fcb", "rental_uris": {"ios": "https://dc.lft.to/lastmile_qr_scan", "android": "https://dc.lft.to/lastmile_qr_scan"}, "fusion_lat": 0.0}, {"lat": 38.875467, "lon": -77.00535383333333, "is_disabled": 0, "fusion_lon": 0.0, "is_reserved": 0, "name": "287574baef847fe24d51db48555f1779", "type": "electric_scooter", "bike_id": "287574baef847fe24d51db48555f1779", "rental_uris": {"ios": "https://dc.lft.to/lastmile_qr_scan", "android": "https://dc.lft.to/lastmile_qr_scan"}, "fusion_lat": 0.0}, {"lat": 38.934312, "lon": -77.04004233333333, "is_disabled": 0, "fusion_lon": 0.0, "is_reserved": 0, "name": "ed5a5661ec5da21d26bef385c3536b0b", "type": "electric_scooter", "bike_id": "ed5a5661ec5da21d26bef385c3536b0b", "rental_uris": {"ios": "https://dc.lft.to/lastmile_qr_scan", "android": "https://dc.lft.to/lastmile_qr_scan"}, "fusion_lat": 0.0}, {"lat": 38.90954416666667, "lon": -77.02307283333333, "is_disabled": 0, "fusion_lon": 0.0, "is_reserved": 0, "name": "832108bf3bafab3e01d659ac91d5edbc", "type": "electric_scooter", "bike_id": "832108bf3bafab3e01d659ac91d5edbc", "rental_uris": {"ios": "https://dc.lft.to/lastmile_qr_scan", "android": "https://dc.lft.to/lastmile_qr_scan"}, "fusion_lat": 0.0}, {"lat": 38.9286655, "lon": -77.032683, "is_disabled": 0, "fusion_lon": 0.0, "is_reserved": 0, "name": "eac1e62b31d4f5e728463c5a3398b494", "type": "electric_scooter", "bike_id": "eac1e62b31d4f5e728463c5a3398b494", "rental_uris": {"ios": "https://dc.lft.to/lastmile_qr_scan", "android": "https://dc.lft.to/lastmile_qr_scan"}, "fusion_lat": 0.0}, {"lat": 38.989895833333335, "lon": -77.09628183333334, "is_disabled": 0, "fusion_lon": 0.0, "is_reserved": 0, "name": "b8ea10460080085be457500177ae4526", "type": "electric_bike", "bike_id": "b8ea10460080085be457500177ae4526", "rental_uris": {"ios": "https://dc.lft.to/lastmile_qr_scan", "android": "https://dc.lft.to/lastmile_qr_scan"}, "fusion_lat": 0.0}, {"lat": 38.905036333333335, "lon": -77.06020583333333, "is_disabled": 0, "fusion_lon": 0.0, "is_reserved": 0, "name": "634146a076d058773dec6b19c5498446", "type": "electric_scooter", "bike_id": "634146a076d058773dec6b19c5498446", "rental_uris": {"ios": "https://dc.lft.to/lastmile_qr_scan", "android": "https://dc.lft.to/lastmile_qr_scan"}, "fusion_lat": 0.0}, {"lat": 38.8833525, "lon": -77.01139866666666, "is_disabled": 0, "fusion_lon": 0.0, "is_reserved": 0, "name": "10352fd38ef2fada37facd52c742e876", "type": "electric_scooter", "bike_id": "10352fd38ef2fada37facd52c742e876", "rental_uris": {"ios": "https://dc.lft.to/lastmile_qr_scan", "android": "https://dc.lft.to/lastmile_qr_scan"}, "fusion_lat": 0.0}, {"lat": 38.92499466666666, "lon": -77.0391155, "is_disabled": 0, "fusion_lon": 0.0, "is_reserved": 0, "name": "1f318f852459fa485588fe2cb91310ee", "type": "electric_scooter", "bike_id": "1f318f852459fa485588fe2cb91310ee", "rental_uris": {"ios": "https://dc.lft.to/lastmile_qr_scan", "android": "https://dc.lft.to/lastmile_qr_scan"}, "fusion_lat": 0.0}, {"lat": 38.8956655, "lon": -77.12734666666667, "is_disabled": 0, "fusion_lon": 0.0, "is_reserved": 0, "name": "12731d1037731bd0060a40f8e57f14e4", "type": "electric_bike", "bike_id": "12731d1037731bd0060a40f8e57f14e4", "rental_uris": {"ios": "https://dc.lft.to/lastmile_qr_scan", "android": "https://dc.lft.to/lastmile_qr_scan"}, "fusion_lat": 0.0}, {"lat": 39.01416916666667, "lon": -77.04496666666667, "is_disabled": 0, "fusion_lon": 0.0, "is_reserved": 0, "name": "b2bf1efb02e586d1c8e349ae015beea6", "type": "electric_bike", "bike_id": "b2bf1efb02e586d1c8e349ae015beea6", "rental_uris": {"ios": "https://dc.lft.to/lastmile_qr_scan", "android": "https://dc.lft.to/lastmile_qr_scan"}, "fusion_lat": 0.0}, {"lat": 38.89945016666667, "lon": -77.020334, "is_disabled": 0, "fusion_lon": 0.0, "is_reserved": 0, "name": "ac3c9a721451de22038acd3defe99987", "type": "electric_scooter", "bike_id": "ac3c9a721451de22038acd3defe99987", "rental_uris": {"ios": "https://dc.lft.to/lastmile_qr_scan", "android": "https://dc.lft.to/lastmile_qr_scan"}, "fusion_lat": 0.0}, {"lat": 38.873729833333336, "lon": -77.00166983333334, "is_disabled": 0, "fusion_lon": 0.0, "is_reserved": 0, "name": "a85e57d6fe0a465a7b05dfad81263bd6", "type": "electric_scooter", "bike_id": "a85e57d6fe0a465a7b05dfad81263bd6", "rental_uris": {"ios": "https://dc.lft.to/lastmile_qr_scan", "android": "https://dc.lft.to/lastmile_qr_scan"}, "fusion_lat": 0.0}, {"lat": 38.89843333333334, "lon": -77.03171566666667, "is_disabled": 0, "fusion_lon": 0.0, "is_reserved": 0, "name": "621deaba627144c345c16b3d204443fb", "type": "electric_scooter", "bike_id": "621deaba627144c345c16b3d204443fb", "rental_uris": {"ios": "https://dc.lft.to/lastmile_qr_scan", "android": "https://dc.lft.to/lastmile_qr_scan"}, "fusion_lat": 0.0}, {"lat": 38.906408166666665, "lon": -77.03898166666667, "is_disabled": 0, "fusion_lon": 0.0, "is_reserved": 0, "name": "e7c420319e71f34a301fc2fe76874d25", "type": "electric_scooter", "bike_id": "e7c420319e71f34a301fc2fe76874d25", "rental_uris": {"ios": "https://dc.lft.to/lastmile_qr_scan", "android": "https://dc.lft.to/lastmile_qr_scan"}, "fusion_lat": 0.0}, {"lat": 38.90943633333333, "lon": -77.03057166666666, "is_disabled": 0, "fusion_lon": 0.0, "is_reserved": 0, "name": "728b8b7db5f75c80dba0611e7ca57ff0", "type": "electric_scooter", "bike_id": "728b8b7db5f75c80dba0611e7ca57ff0", "rental_uris": {"ios": "https://dc.lft.to/lastmile_qr_scan", "android": "https://dc.lft.to/lastmile_qr_scan"}, "fusion_lat": 0.0}, {"lat": 38.8939055, "lon": -77.0751775, "is_disabled": 0, "fusion_lon": 0.0, "is_reserved": 0, "name": "923e45912cfa35253edff2365bdc2ca0", "type": "electric_scooter", "bike_id": "923e45912cfa35253edff2365bdc2ca0", "rental_uris": {"ios": "https://dc.lft.to/lastmile_qr_scan", "android": "https://dc.lft.to/lastmile_qr_scan"}, "fusion_lat": 0.0}, {"lat": 38.89358033333333, "lon": -76.986539, "is_disabled": 0, "fusion_lon": 0.0, "is_reserved": 0, "name": "bc0f32a4b02d1def39422b18073c78de", "type": "electric_scooter", "bike_id": "bc0f32a4b02d1def39422b18073c78de", "rental_uris": {"ios": "https://dc.lft.to/lastmile_qr_scan", "android": "https://dc.lft.to/lastmile_qr_scan"}, "fusion_lat": 0.0}, {"lat": 38.91727616666667, "lon": -77.02695966666667, "is_disabled": 0, "fusion_lon": 0.0, "is_reserved": 0, "name": "5b56d5975f040ccdc57ad208b3582706", "type": "electric_scooter", "bike_id": "5b56d5975f040ccdc57ad208b3582706", "rental_uris": {"ios": "https://dc.lft.to/lastmile_qr_scan", "android": "https://dc.lft.to/lastmile_qr_scan"}, "fusion_lat": 0.0}, {"lat": 38.90664366666667, "lon": -77.0269195, "is_disabled": 0, "fusion_lon": 0.0, "is_reserved": 0, "name": "b158b96743c17588045f00368b102a7a", "type": "electric_scooter", "bike_id": "b158b96743c17588045f00368b102a7a", "rental_uris": {"ios": "https://dc.lft.to/lastmile_qr_scan", "android": "https://dc.lft.to/lastmile_qr_scan"}, "fusion_lat": 0.0}, {"lat": 38.895998166666665, "lon": -77.00606016666667, "is_disabled": 0, "fusion_lon": 0.0, "is_reserved": 0, "name": "7ad62a4c085d9b59d168e483bcd22675", "type": "electric_scooter", "bike_id": "7ad62a4c085d9b59d168e483bcd22675", "rental_uris": {"ios": "https://dc.lft.to/lastmile_qr_scan", "android": "https://dc.lft.to/lastmile_qr_scan"}, "fusion_lat": 0.0}, {"lat": 38.958022666666665, "lon": -77.015136, "is_disabled": 0, "fusion_lon": 0.0, "is_reserved": 0, "name": "ba22f7e05be569c04daeedfebbc95018", "type": "electric_scooter", "bike_id": "ba22f7e05be569c04daeedfebbc95018", "rental_uris": {"ios": "https://dc.lft.to/lastmile_qr_scan", "android": "https://dc.lft.to/lastmile_qr_scan"}, "fusion_lat": 0.0}, {"lat": 38.92173583333334, "lon": -77.03821633333334, "is_disabled": 0, "fusion_lon": 0.0, "is_reserved": 0, "name": "635e936f04afa578758eb728eed5ff13", "type": "electric_scooter", "bike_id": "635e936f04afa578758eb728eed5ff13", "rental_uris": {"ios": "https://dc.lft.to/lastmile_qr_scan", "android": "https://dc.lft.to/lastmile_qr_scan"}, "fusion_lat": 0.0}, {"lat": 38.898272666666664, "lon": -76.946542, "is_disabled": 0, "fusion_lon": 0.0, "is_reserved": 0, "name": "dfb2ba6ef7b28a3d4e0b4e7466eec1fc", "type": "electric_scooter", "bike_id": "dfb2ba6ef7b28a3d4e0b4e7466eec1fc", "rental_uris": {"ios": "https://dc.lft.to/lastmile_qr_scan", "android": "https://dc.lft.to/lastmile_qr_scan"}, "fusion_lat": 0.0}, {"lat": 38.924045666666665, "lon": -77.02538066666666, "is_disabled": 0, "fusion_lon": 0.0, "is_reserved": 0, "name": "f5a02ad88356eca6094ff9927f9fd3b4", "type": "electric_scooter", "bike_id": "f5a02ad88356eca6094ff9927f9fd3b4", "rental_uris": {"ios": "https://dc.lft.to/lastmile_qr_scan", "android": "https://dc.lft.to/lastmile_qr_scan"}, "fusion_lat": 0.0}, {"lat": 39.05180133333333, "lon": -77.10901633333333, "is_disabled": 0, "fusion_lon": 0.0, "is_reserved": 0, "name": "7463e1a5106354fb3fd4312b0543bdbe", "type": "electric_bike", "bike_id": "7463e1a5106354fb3fd4312b0543bdbe", "rental_uris": {"ios": "https://dc.lft.to/lastmile_qr_scan", "android": "https://dc.lft.to/lastmile_qr_scan"}, "fusion_lat": 0.0}, {"lat": 38.92613866666667, "lon": -77.0216255, "is_disabled": 0, "fusion_lon": 0.0, "is_reserved": 0, "name": "3faffa7266e6b98f2f454e7efe50a860", "type": "electric_scooter", "bike_id": "3faffa7266e6b98f2f454e7efe50a860", "rental_uris": {"ios": "https://dc.lft.to/lastmile_qr_scan", "android": "https://dc.lft.to/lastmile_qr_scan"}, "fusion_lat": 0.0}, {"lat": 38.900182666666666, "lon": -76.99305866666667, "is_disabled": 0, "fusion_lon": 0.0, "is_reserved": 0, "name": "837ccd3b7938ce78911e325a98c28794", "type": "electric_scooter", "bike_id": "837ccd3b7938ce78911e325a98c28794", "rental_uris": {"ios": "https://dc.lft.to/lastmile_qr_scan", "android": "https://dc.lft.to/lastmile_qr_scan"}, "fusion_lat": 0.0}, {"lat": 38.916315, "lon": -77.050765, "is_disabled": 0, "fusion_lon": 0.0, "is_reserved": 0, "name": "584da3b750dcbc503ba9bc6a7ac867b7", "type": "electric_scooter", "bike_id": "584da3b750dcbc503ba9bc6a7ac867b7", "rental_uris": {"ios": "https://dc.lft.to/lastmile_qr_scan", "android": "https://dc.lft.to/lastmile_qr_scan"}, "fusion_lat": 0.0}, {"lat": 38.900726, "lon": -77.0447815, "is_disabled": 0, "fusion_lon": 0.0, "is_reserved": 0, "name": "83aff9710697e5c6aacfa26a72c32055", "type": "electric_scooter", "bike_id": "83aff9710697e5c6aacfa26a72c32055", "rental_uris": {"ios": "https://dc.lft.to/lastmile_qr_scan", "android": "https://dc.lft.to/lastmile_qr_scan"}, "fusion_lat": 0.0}, {"lat": 38.91197483333333, "lon": -77.0453595, "is_disabled": 0, "fusion_lon": 0.0, "is_reserved": 0, "name": "af130660d1dc1c1e8cb809a7be31197b", "type": "electric_scooter", "bike_id": "af130660d1dc1c1e8cb809a7be31197b", "rental_uris": {"ios": "https://dc.lft.to/lastmile_qr_scan", "android": "https://dc.lft.to/lastmile_qr_scan"}, "fusion_lat": 0.0}, {"lat": 38.88767466666667, "lon": -76.98691183333334, "is_disabled": 0, "fusion_lon": 0.0, "is_reserved": 0, "name": "25e54260dec51cba33fe18dfbfc278a7", "type": "electric_scooter", "bike_id": "25e54260dec51cba33fe18dfbfc278a7", "rental_uris": {"ios": "https://dc.lft.to/lastmile_qr_scan", "android": "https://dc.lft.to/lastmile_qr_scan"}, "fusion_lat": 0.0}, {"lat": 38.89985, "lon": -77.00680233333334, "is_disabled": 0, "fusion_lon": 0.0, "is_reserved": 0, "name": "d9ea7eecf90d40721b8f46214797d826", "type": "electric_scooter", "bike_id": "d9ea7eecf90d40721b8f46214797d826", "rental_uris": {"ios": "https://dc.lft.to/lastmile_qr_scan", "android": "https://dc.lft.to/lastmile_qr_scan"}, "fusion_lat": 0.0}, {"lat": 38.87695516666667, "lon": -77.01785516666666, "is_disabled": 0, "fusion_lon": 0.0, "is_reserved": 0, "name": "27f0a645f022b3e2bf902754d8559d03", "type": "electric_scooter", "bike_id": "27f0a645f022b3e2bf902754d8559d03", "rental_uris": {"ios": "https://dc.lft.to/lastmile_qr_scan", "android": "https://dc.lft.to/lastmile_qr_scan"}, "fusion_lat": 0.0}, {"lat": 38.90303933333333, "lon": -77.03311083333334, "is_disabled": 0, "fusion_lon": 0.0, "is_reserved": 0, "name": "38a337839c8e61684a0defd8da6d1071", "type": "electric_scooter", "bike_id": "38a337839c8e61684a0defd8da6d1071", "rental_uris": {"ios": "https://dc.lft.to/lastmile_qr_scan", "android": "https://dc.lft.to/lastmile_qr_scan"}, "fusion_lat": 0.0}, {"lat": 38.92233783333333, "lon": -77.02000116666666, "is_disabled": 0, "fusion_lon": 0.0, "is_reserved": 0, "name": "bef9de9df10189feea6ee4314e5e36f1", "type": "electric_scooter", "bike_id": "bef9de9df10189feea6ee4314e5e36f1", "rental_uris": {"ios": "https://dc.lft.to/lastmile_qr_scan", "android": "https://dc.lft.to/lastmile_qr_scan"}, "fusion_lat": 0.0}, {"lat": 38.89719766666666, "lon": -77.00793683333333, "is_disabled": 0, "fusion_lon": 0.0, "is_reserved": 0, "name": "a1479134bc100a4676dba3dfb5973ead", "type": "electric_scooter", "bike_id": "a1479134bc100a4676dba3dfb5973ead", "rental_uris": {"ios": "https://dc.lft.to/lastmile_qr_scan", "android": "https://dc.lft.to/lastmile_qr_scan"}, "fusion_lat": 0.0}, {"lat": 38.9103905, "lon": -77.04257233333334, "is_disabled": 0, "fusion_lon": 0.0, "is_reserved": 0, "name": "9539c70c268955d23a083367a691c7f7", "type": "electric_scooter", "bike_id": "9539c70c268955d23a083367a691c7f7", "rental_uris": {"ios": "https://dc.lft.to/lastmile_qr_scan", "android": "https://dc.lft.to/lastmile_qr_scan"}, "fusion_lat": 0.0}, {"lat": 38.922669166666665, "lon": -77.02959416666667, "is_disabled": 0, "fusion_lon": 0.0, "is_reserved": 0, "name": "f8efb6a4d2758f4da0aa369807ea0260", "type": "electric_scooter", "bike_id": "f8efb6a4d2758f4da0aa369807ea0260", "rental_uris": {"ios": "https://dc.lft.to/lastmile_qr_scan", "android": "https://dc.lft.to/lastmile_qr_scan"}, "fusion_lat": 0.0}, {"lat": 38.906695666666664, "lon": -77.02708033333333, "is_disabled": 0, "fusion_lon": 0.0, "is_reserved": 0, "name": "d02d7a9fc27de98a024af54a1cd890af", "type": "electric_scooter", "bike_id": "d02d7a9fc27de98a024af54a1cd890af", "rental_uris": {"ios": "https://dc.lft.to/lastmile_qr_scan", "android": "https://dc.lft.to/lastmile_qr_scan"}, "fusion_lat": 0.0}, {"lat": 38.92346083333333, "lon": -77.01902016666666, "is_disabled": 0, "fusion_lon": 0.0, "is_reserved": 0, "name": "4ebc2deb82ae95b15f164cb0bb04dbde", "type": "electric_scooter", "bike_id": "4ebc2deb82ae95b15f164cb0bb04dbde", "rental_uris": {"ios": "https://dc.lft.to/lastmile_qr_scan", "android": "https://dc.lft.to/lastmile_qr_scan"}, "fusion_lat": 0.0}, {"lat": 38.901516, "lon": -77.02555683333334, "is_disabled": 0, "fusion_lon": 0.0, "is_reserved": 0, "name": "0ef03daa7c17c098d88b19f1618bb6e8", "type": "electric_scooter", "bike_id": "0ef03daa7c17c098d88b19f1618bb6e8", "rental_uris": {"ios": "https://dc.lft.to/lastmile_qr_scan", "android": "https://dc.lft.to/lastmile_qr_scan"}, "fusion_lat": 0.0}, {"lat": 38.8967255, "lon": -76.93207133333334, "is_disabled": 0, "fusion_lon": 0.0, "is_reserved": 0, "name": "ece6fcb2695ecad9488631196334e8ba", "type": "electric_scooter", "bike_id": "ece6fcb2695ecad9488631196334e8ba", "rental_uris": {"ios": "https://dc.lft.to/lastmile_qr_scan", "android": "https://dc.lft.to/lastmile_qr_scan"}, "fusion_lat": 0.0}, {"lat": 38.9002825, "lon": -77.03993966666667, "is_disabled": 0, "fusion_lon": 0.0, "is_reserved": 0, "name": "a81edc84a57137e5718e909f41e687cb", "type": "electric_scooter", "bike_id": "a81edc84a57137e5718e909f41e687cb", "rental_uris": {"ios": "https://dc.lft.to/lastmile_qr_scan", "android": "https://dc.lft.to/lastmile_qr_scan"}, "fusion_lat": 0.0}, {"lat": 38.884169166666666, "lon": -77.008169, "is_disabled": 0, "fusion_lon": 0.0, "is_reserved": 0, "name": "75584b0f038375d45560b457521ef412", "type": "electric_scooter", "bike_id": "75584b0f038375d45560b457521ef412", "rental_uris": {"ios": "https://dc.lft.to/lastmile_qr_scan", "android": "https://dc.lft.to/lastmile_qr_scan"}, "fusion_lat": 0.0}, {"lat": 38.901634666666666, "lon": -77.02687633333333, "is_disabled": 0, "fusion_lon": 0.0, "is_reserved": 0, "name": "d3b3eb18f00fdf8c6dcc4dc7b51e9b04", "type": "electric_scooter", "bike_id": "d3b3eb18f00fdf8c6dcc4dc7b51e9b04", "rental_uris": {"ios": "https://dc.lft.to/lastmile_qr_scan", "android": "https://dc.lft.to/lastmile_qr_scan"}, "fusion_lat": 0.0}, {"lat": 39.09967266666666, "lon": -77.1830605, "is_disabled": 0, "fusion_lon": 0.0, "is_reserved": 0, "name": "b738874e266d5e8a52abaa99cf08c426", "type": "electric_bike", "bike_id": "b738874e266d5e8a52abaa99cf08c426", "rental_uris": {"ios": "https://dc.lft.to/lastmile_qr_scan", "android": "https://dc.lft.to/lastmile_qr_scan"}, "fusion_lat": 0.0}, {"lat": 38.927287666666665, "lon": -77.03517583333333, "is_disabled": 0, "fusion_lon": 0.0, "is_reserved": 0, "name": "e1f73355c45efbbe8eba088f55832ecb", "type": "electric_scooter", "bike_id": "e1f73355c45efbbe8eba088f55832ecb", "rental_uris": {"ios": "https://dc.lft.to/lastmile_qr_scan", "android": "https://dc.lft.to/lastmile_qr_scan"}, "fusion_lat": 0.0}, {"lat": 38.908637166666665, "lon": -77.01938116666666, "is_disabled": 0, "fusion_lon": 0.0, "is_reserved": 0, "name": "fde9aef7e18efc61886205fa614c474c", "type": "electric_scooter", "bike_id": "fde9aef7e18efc61886205fa614c474c", "rental_uris": {"ios": "https://dc.lft.to/lastmile_qr_scan", "android": "https://dc.lft.to/lastmile_qr_scan"}, "fusion_lat": 0.0}, {"lat": 38.9265345, "lon": -77.038372, "is_disabled": 0, "fusion_lon": 0.0, "is_reserved": 0, "name": "980a0ddb3ad444c41ec6fe78906312e5", "type": "electric_scooter", "bike_id": "980a0ddb3ad444c41ec6fe78906312e5", "rental_uris": {"ios": "https://dc.lft.to/lastmile_qr_scan", "android": "https://dc.lft.to/lastmile_qr_scan"}, "fusion_lat": 0.0}, {"lat": 38.89618083333333, "lon": -77.0316065, "is_disabled": 0, "fusion_lon": 0.0, "is_reserved": 0, "name": "4f44118258b23c788b3dea4a45838dd5", "type": "electric_scooter", "bike_id": "4f44118258b23c788b3dea4a45838dd5", "rental_uris": {"ios": "https://dc.lft.to/lastmile_qr_scan", "android": "https://dc.lft.to/lastmile_qr_scan"}, "fusion_lat": 0.0}, {"lat": 38.900035833333334, "lon": -76.99805966666666, "is_disabled": 0, "fusion_lon": 0.0, "is_reserved": 0, "name": "a5dd451d876f087ff9ec9da4afd08ff7", "type": "electric_scooter", "bike_id": "a5dd451d876f087ff9ec9da4afd08ff7", "rental_uris": {"ios": "https://dc.lft.to/lastmile_qr_scan", "android": "https://dc.lft.to/lastmile_qr_scan"}, "fusion_lat": 0.0}, {"lat": 38.890137, "lon": -76.93738466666667, "is_disabled": 0, "fusion_lon": 0.0, "is_reserved": 0, "name": "a2d6fe9321cc6e93ca13a0234c33056e", "type": "electric_scooter", "bike_id": "a2d6fe9321cc6e93ca13a0234c33056e", "rental_uris": {"ios": "https://dc.lft.to/lastmile_qr_scan", "android": "https://dc.lft.to/lastmile_qr_scan"}, "fusion_lat": 0.0}, {"lat": 38.916789666666666, "lon": -77.003493, "is_disabled": 0, "fusion_lon": 0.0, "is_reserved": 0, "name": "f9afd9cf0f6a4db9e604d724055d8c01", "type": "electric_scooter", "bike_id": "f9afd9cf0f6a4db9e604d724055d8c01", "rental_uris": {"ios": "https://dc.lft.to/lastmile_qr_scan", "android": "https://dc.lft.to/lastmile_qr_scan"}, "fusion_lat": 0.0}, {"lat": 38.89952516666666, "lon": -77.02872966666666, "is_disabled": 0, "fusion_lon": 0.0, "is_reserved": 0, "name": "f0e678ef9ee162e12b743c732a828b1e", "type": "electric_scooter", "bike_id": "f0e678ef9ee162e12b743c732a828b1e", "rental_uris": {"ios": "https://dc.lft.to/lastmile_qr_scan", "android": "https://dc.lft.to/lastmile_qr_scan"}, "fusion_lat": 0.0}, {"lat": 38.918643833333334, "lon": -77.03225283333333, "is_disabled": 0, "fusion_lon": 0.0, "is_reserved": 0, "name": "f0a324369f842f290796c3c96c635a21", "type": "electric_scooter", "bike_id": "f0a324369f842f290796c3c96c635a21", "rental_uris": {"ios": "https://dc.lft.to/lastmile_qr_scan", "android": "https://dc.lft.to/lastmile_qr_scan"}, "fusion_lat": 0.0}, {"lat": 38.90606566666666, "lon": -77.04344483333334, "is_disabled": 0, "fusion_lon": 0.0, "is_reserved": 0, "name": "5550392d0958289efdd7b6d978c80a60", "type": "electric_scooter", "bike_id": "5550392d0958289efdd7b6d978c80a60", "rental_uris": {"ios": "https://dc.lft.to/lastmile_qr_scan", "android": "https://dc.lft.to/lastmile_qr_scan"}, "fusion_lat": 0.0}, {"lat": 38.919642, "lon": -77.0148975, "is_disabled": 0, "fusion_lon": 0.0, "is_reserved": 0, "name": "c7d8dfcdee4c8e863cce7e43d1f24cb7", "type": "electric_scooter", "bike_id": "c7d8dfcdee4c8e863cce7e43d1f24cb7", "rental_uris": {"ios": "https://dc.lft.to/lastmile_qr_scan", "android": "https://dc.lft.to/lastmile_qr_scan"}, "fusion_lat": 0.0}, {"lat": 38.886328166666665, "lon": -77.02828516666666, "is_disabled": 0, "fusion_lon": 0.0, "is_reserved": 0, "name": "85d34e854c6fdc8f3f7ce2cd77345192", "type": "electric_scooter", "bike_id": "85d34e854c6fdc8f3f7ce2cd77345192", "rental_uris": {"ios": "https://dc.lft.to/lastmile_qr_scan", "android": "https://dc.lft.to/lastmile_qr_scan"}, "fusion_lat": 0.0}, {"lat": 38.905399333333335, "lon": -77.0221275, "is_disabled": 0, "fusion_lon": 0.0, "is_reserved": 0, "name": "f2033e0e0f524adb42910f3347f28489", "type": "electric_scooter", "bike_id": "f2033e0e0f524adb42910f3347f28489", "rental_uris": {"ios": "https://dc.lft.to/lastmile_qr_scan", "android": "https://dc.lft.to/lastmile_qr_scan"}, "fusion_lat": 0.0}, {"lat": 38.91496333333333, "lon": -76.9836945, "is_disabled": 0, "fusion_lon": 0.0, "is_reserved": 0, "name": "47f56c01181bb3f827a771a5d9b4f4ae", "type": "electric_scooter", "bike_id": "47f56c01181bb3f827a771a5d9b4f4ae", "rental_uris": {"ios": "https://dc.lft.to/lastmile_qr_scan", "android": "https://dc.lft.to/lastmile_qr_scan"}, "fusion_lat": 0.0}, {"lat": 38.918186, "lon": -77.03636466666667, "is_disabled": 0, "fusion_lon": 0.0, "is_reserved": 0, "name": "4d3116706ec04ce1565c8b1795558536", "type": "electric_scooter", "bike_id": "4d3116706ec04ce1565c8b1795558536", "rental_uris": {"ios": "https://dc.lft.to/lastmile_qr_scan", "android": "https://dc.lft.to/lastmile_qr_scan"}, "fusion_lat": 0.0}, {"lat": 38.860007833333334, "lon": -77.05755566666667, "is_disabled": 0, "fusion_lon": 0.0, "is_reserved": 0, "name": "0d6f5bc9efa7bb2a41a768f50bb51ba6", "type": "electric_bike", "bike_id": "0d6f5bc9efa7bb2a41a768f50bb51ba6", "rental_uris": {"ios": "https://dc.lft.to/lastmile_qr_scan", "android": "https://dc.lft.to/lastmile_qr_scan"}, "fusion_lat": 0.0}, {"lat": 38.894419666666664, "lon": -77.024221, "is_disabled": 0, "fusion_lon": 0.0, "is_reserved": 0, "name": "8c7960a3de68d4bec73aa6f36b30386c", "type": "electric_scooter", "bike_id": "8c7960a3de68d4bec73aa6f36b30386c", "rental_uris": {"ios": "https://dc.lft.to/lastmile_qr_scan", "android": "https://dc.lft.to/lastmile_qr_scan"}, "fusion_lat": 0.0}, {"lat": 38.910056833333336, "lon": -77.073484, "is_disabled": 0, "fusion_lon": 0.0, "is_reserved": 0, "name": "8e06f123016b44137872f55b49784588", "type": "electric_scooter", "bike_id": "8e06f123016b44137872f55b49784588", "rental_uris": {"ios": "https://dc.lft.to/lastmile_qr_scan", "android": "https://dc.lft.to/lastmile_qr_scan"}, "fusion_lat": 0.0}, {"lat": 38.997760666666665, "lon": -77.04713216666667, "is_disabled": 0, "fusion_lon": 0.0, "is_reserved": 0, "name": "277840cfbe346f5f69ef533bdc665216", "type": "electric_bike", "bike_id": "277840cfbe346f5f69ef533bdc665216", "rental_uris": {"ios": "https://dc.lft.to/lastmile_qr_scan", "android": "https://dc.lft.to/lastmile_qr_scan"}, "fusion_lat": 0.0}, {"lat": 38.94409516666666, "lon": -77.05513166666667, "is_disabled": 0, "fusion_lon": 0.0, "is_reserved": 0, "name": "e22a36dfd5cb5547120c973a55e17f34", "type": "electric_bike", "bike_id": "e22a36dfd5cb5547120c973a55e17f34", "rental_uris": {"ios": "https://dc.lft.to/lastmile_qr_scan", "android": "https://dc.lft.to/lastmile_qr_scan"}, "fusion_lat": 0.0}, {"lat": 38.917057666666665, "lon": -77.03237633333333, "is_disabled": 0, "fusion_lon": 0.0, "is_reserved": 0, "name": "92fe72fe29e44389c12a306680f40f3d", "type": "electric_scooter", "bike_id": "92fe72fe29e44389c12a306680f40f3d", "rental_uris": {"ios": "https://dc.lft.to/lastmile_qr_scan", "android": "https://dc.lft.to/lastmile_qr_scan"}, "fusion_lat": 0.0}, {"lat": 38.918571166666666, "lon": -77.04458983333333, "is_disabled": 0, "fusion_lon": 0.0, "is_reserved": 0, "name": "ac7efeb860f32bb64f22ad5e0d8e3d90", "type": "electric_scooter", "bike_id": "ac7efeb860f32bb64f22ad5e0d8e3d90", "rental_uris": {"ios": "https://dc.lft.to/lastmile_qr_scan", "android": "https://dc.lft.to/lastmile_qr_scan"}, "fusion_lat": 0.0}, {"lat": 38.879394833333336, "lon": -76.98497516666667, "is_disabled": 0, "fusion_lon": 0.0, "is_reserved": 0, "name": "c624735dd20100f242fb5a8abe125074", "type": "electric_bike", "bike_id": "c624735dd20100f242fb5a8abe125074", "rental_uris": {"ios": "https://dc.lft.to/lastmile_qr_scan", "android": "https://dc.lft.to/lastmile_qr_scan"}, "fusion_lat": 0.0}, {"lat": 38.910309166666664, "lon": -77.03212683333334, "is_disabled": 0, "fusion_lon": 0.0, "is_reserved": 0, "name": "e1f041347936b4b3596e5cfa54af1e5a", "type": "electric_scooter", "bike_id": "e1f041347936b4b3596e5cfa54af1e5a", "rental_uris": {"ios": "https://dc.lft.to/lastmile_qr_scan", "android": "https://dc.lft.to/lastmile_qr_scan"}, "fusion_lat": 0.0}, {"lat": 38.901848333333334, "lon": -77.04865016666666, "is_disabled": 0, "fusion_lon": 0.0, "is_reserved": 0, "name": "7f6cd78519bd4bfcfebbfbca27050964", "type": "electric_scooter", "bike_id": "7f6cd78519bd4bfcfebbfbca27050964", "rental_uris": {"ios": "https://dc.lft.to/lastmile_qr_scan", "android": "https://dc.lft.to/lastmile_qr_scan"}, "fusion_lat": 0.0}, {"lat": 38.892441833333336, "lon": -77.03179933333334, "is_disabled": 0, "fusion_lon": 0.0, "is_reserved": 0, "name": "97a4f951c4d98f41937cbcec5c144f7b", "type": "electric_scooter", "bike_id": "97a4f951c4d98f41937cbcec5c144f7b", "rental_uris": {"ios": "https://dc.lft.to/lastmile_qr_scan", "android": "https://dc.lft.to/lastmile_qr_scan"}, "fusion_lat": 0.0}, {"lat": 38.920292833333335, "lon": -77.07160766666667, "is_disabled": 0, "fusion_lon": 0.0, "is_reserved": 0, "name": "7b4c4a7e1f69a7841a2fe07886c3d12b", "type": "electric_scooter", "bike_id": "7b4c4a7e1f69a7841a2fe07886c3d12b", "rental_uris": {"ios": "https://dc.lft.to/lastmile_qr_scan", "android": "https://dc.lft.to/lastmile_qr_scan"}, "fusion_lat": 0.0}, {"lat": 38.9428435, "lon": -77.029191, "is_disabled": 0, "fusion_lon": 0.0, "is_reserved": 0, "name": "cc19a079115e7471fb7c22b9fbeae704", "type": "electric_scooter", "bike_id": "cc19a079115e7471fb7c22b9fbeae704", "rental_uris": {"ios": "https://dc.lft.to/lastmile_qr_scan", "android": "https://dc.lft.to/lastmile_qr_scan"}, "fusion_lat": 0.0}, {"lat": 38.9397255, "lon": -77.032574, "is_disabled": 0, "fusion_lon": 0.0, "is_reserved": 0, "name": "83a60d4ca2023b3f3bbf9935798a25ae", "type": "electric_scooter", "bike_id": "83a60d4ca2023b3f3bbf9935798a25ae", "rental_uris": {"ios": "https://dc.lft.to/lastmile_qr_scan", "android": "https://dc.lft.to/lastmile_qr_scan"}, "fusion_lat": 0.0}, {"lat": 38.892337, "lon": -77.02609933333333, "is_disabled": 0, "fusion_lon": 0.0, "is_reserved": 0, "name": "e5edef2fa02d851642e1f187148e7812", "type": "electric_scooter", "bike_id": "e5edef2fa02d851642e1f187148e7812", "rental_uris": {"ios": "https://dc.lft.to/lastmile_qr_scan", "android": "https://dc.lft.to/lastmile_qr_scan"}, "fusion_lat": 0.0}, {"lat": 38.89728266666667, "lon": -77.0176295, "is_disabled": 0, "fusion_lon": 0.0, "is_reserved": 0, "name": "c80ad697cb18f6e8028825b266a002c3", "type": "electric_scooter", "bike_id": "c80ad697cb18f6e8028825b266a002c3", "rental_uris": {"ios": "https://dc.lft.to/lastmile_qr_scan", "android": "https://dc.lft.to/lastmile_qr_scan"}, "fusion_lat": 0.0}, {"lat": 38.80640266666666, "lon": -77.062487, "is_disabled": 0, "fusion_lon": 0.0, "is_reserved": 0, "name": "60d727910b2a27501f96d0b802e0aa4d", "type": "electric_bike", "bike_id": "60d727910b2a27501f96d0b802e0aa4d", "rental_uris": {"ios": "https://dc.lft.to/lastmile_qr_scan", "android": "https://dc.lft.to/lastmile_qr_scan"}, "fusion_lat": 0.0}, {"lat": 38.91010266666667, "lon": -77.02091183333333, "is_disabled": 0, "fusion_lon": 0.0, "is_reserved": 0, "name": "360e8042cdb5359579744485508bc980", "type": "electric_scooter", "bike_id": "360e8042cdb5359579744485508bc980", "rental_uris": {"ios": "https://dc.lft.to/lastmile_qr_scan", "android": "https://dc.lft.to/lastmile_qr_scan"}, "fusion_lat": 0.0}, {"lat": 38.887459166666666, "lon": -77.01777683333333, "is_disabled": 0, "fusion_lon": 0.0, "is_reserved": 0, "name": "6884a86639763e82a3a301f73b48a98d", "type": "electric_scooter", "bike_id": "6884a86639763e82a3a301f73b48a98d", "rental_uris": {"ios": "https://dc.lft.to/lastmile_qr_scan", "android": "https://dc.lft.to/lastmile_qr_scan"}, "fusion_lat": 0.0}, {"lat": 38.91682683333333, "lon": -77.0228615, "is_disabled": 0, "fusion_lon": 0.0, "is_reserved": 0, "name": "d16a2c0319c099a95d289bb6168b8893", "type": "electric_scooter", "bike_id": "d16a2c0319c099a95d289bb6168b8893", "rental_uris": {"ios": "https://dc.lft.to/lastmile_qr_scan", "android": "https://dc.lft.to/lastmile_qr_scan"}, "fusion_lat": 0.0}, {"lat": 38.835159833333336, "lon": -76.98672183333333, "is_disabled": 0, "fusion_lon": 0.0, "is_reserved": 0, "name": "a027dc93475d1195a1c87455cd4326dd", "type": "electric_bike", "bike_id": "a027dc93475d1195a1c87455cd4326dd", "rental_uris": {"ios": "https://dc.lft.to/lastmile_qr_scan", "android": "https://dc.lft.to/lastmile_qr_scan"}, "fusion_lat": 0.0}, {"lat": 38.90033616666667, "lon": -77.01764316666667, "is_disabled": 0, "fusion_lon": 0.0, "is_reserved": 0, "name": "58e3c1fb480f13fd7e4d45468a2a4fd2", "type": "electric_scooter", "bike_id": "58e3c1fb480f13fd7e4d45468a2a4fd2", "rental_uris": {"ios": "https://dc.lft.to/lastmile_qr_scan", "android": "https://dc.lft.to/lastmile_qr_scan"}, "fusion_lat": 0.0}, {"lat": 38.90042033333334, "lon": -77.02390283333334, "is_disabled": 0, "fusion_lon": 0.0, "is_reserved": 0, "name": "de02346b20050bb094682a26a9c696cc", "type": "electric_scooter", "bike_id": "de02346b20050bb094682a26a9c696cc", "rental_uris": {"ios": "https://dc.lft.to/lastmile_qr_scan", "android": "https://dc.lft.to/lastmile_qr_scan"}, "fusion_lat": 0.0}, {"lat": 38.920738, "lon": -77.023154, "is_disabled": 0, "fusion_lon": 0.0, "is_reserved": 0, "name": "91439fef810f90d2314bdc4af6258703", "type": "electric_scooter", "bike_id": "91439fef810f90d2314bdc4af6258703", "rental_uris": {"ios": "https://dc.lft.to/lastmile_qr_scan", "android": "https://dc.lft.to/lastmile_qr_scan"}, "fusion_lat": 0.0}, {"lat": 38.924688, "lon": -77.02245316666666, "is_disabled": 0, "fusion_lon": 0.0, "is_reserved": 0, "name": "7b81422df15b7c0f82b513f45f310c90", "type": "electric_scooter", "bike_id": "7b81422df15b7c0f82b513f45f310c90", "rental_uris": {"ios": "https://dc.lft.to/lastmile_qr_scan", "android": "https://dc.lft.to/lastmile_qr_scan"}, "fusion_lat": 0.0}, {"lat": 38.916906166666664, "lon": -77.00923166666666, "is_disabled": 0, "fusion_lon": 0.0, "is_reserved": 0, "name": "06aac8e815e30c079f718017b82e0abf", "type": "electric_scooter", "bike_id": "06aac8e815e30c079f718017b82e0abf", "rental_uris": {"ios": "https://dc.lft.to/lastmile_qr_scan", "android": "https://dc.lft.to/lastmile_qr_scan"}, "fusion_lat": 0.0}, {"lat": 38.90092516666667, "lon": -77.0478885, "is_disabled": 0, "fusion_lon": 0.0, "is_reserved": 0, "name": "8fbd3618d0ff594cb637697b6243cd55", "type": "electric_scooter", "bike_id": "8fbd3618d0ff594cb637697b6243cd55", "rental_uris": {"ios": "https://dc.lft.to/lastmile_qr_scan", "android": "https://dc.lft.to/lastmile_qr_scan"}, "fusion_lat": 0.0}, {"lat": 38.889946333333334, "lon": -76.9543165, "is_disabled": 0, "fusion_lon": 0.0, "is_reserved": 0, "name": "38431dd5768416f86d2c2ef121fb657b", "type": "electric_scooter", "bike_id": "38431dd5768416f86d2c2ef121fb657b", "rental_uris": {"ios": "https://dc.lft.to/lastmile_qr_scan", "android": "https://dc.lft.to/lastmile_qr_scan"}, "fusion_lat": 0.0}, {"lat": 38.91804333333333, "lon": -77.034421, "is_disabled": 0, "fusion_lon": 0.0, "is_reserved": 0, "name": "ac468b5dd13a62419659d3dc5e66fe68", "type": "electric_scooter", "bike_id": "ac468b5dd13a62419659d3dc5e66fe68", "rental_uris": {"ios": "https://dc.lft.to/lastmile_qr_scan", "android": "https://dc.lft.to/lastmile_qr_scan"}, "fusion_lat": 0.0}, {"lat": 38.91700066666667, "lon": -77.037661, "is_disabled": 0, "fusion_lon": 0.0, "is_reserved": 0, "name": "ebbd0d485fed9e3168d628b472f0665d", "type": "electric_bike", "bike_id": "ebbd0d485fed9e3168d628b472f0665d", "rental_uris": {"ios": "https://dc.lft.to/lastmile_qr_scan", "android": "https://dc.lft.to/lastmile_qr_scan"}, "fusion_lat": 0.0}, {"lat": 38.931056166666664, "lon": -77.03081883333333, "is_disabled": 0, "fusion_lon": 0.0, "is_reserved": 0, "name": "53ced3b822a4ffc49d8b7261a30975f8", "type": "electric_scooter", "bike_id": "53ced3b822a4ffc49d8b7261a30975f8", "rental_uris": {"ios": "https://dc.lft.to/lastmile_qr_scan", "android": "https://dc.lft.to/lastmile_qr_scan"}, "fusion_lat": 0.0}, {"lat": 38.934418, "lon": -76.99713833333334, "is_disabled": 0, "fusion_lon": 0.0, "is_reserved": 0, "name": "ac1aceb3c362391ca8ce9a9a3b7c20cf", "type": "electric_scooter", "bike_id": "ac1aceb3c362391ca8ce9a9a3b7c20cf", "rental_uris": {"ios": "https://dc.lft.to/lastmile_qr_scan", "android": "https://dc.lft.to/lastmile_qr_scan"}, "fusion_lat": 0.0}, {"lat": 38.87338483333333, "lon": -76.991629, "is_disabled": 0, "fusion_lon": 0.0, "is_reserved": 0, "name": "d7b39e69d9dbcfbed95c1967dbba0d85", "type": "electric_scooter", "bike_id": "d7b39e69d9dbcfbed95c1967dbba0d85", "rental_uris": {"ios": "https://dc.lft.to/lastmile_qr_scan", "android": "https://dc.lft.to/lastmile_qr_scan"}, "fusion_lat": 0.0}, {"lat": 38.90485116666667, "lon": -77.02108116666666, "is_disabled": 0, "fusion_lon": 0.0, "is_reserved": 0, "name": "e6fb087d541c8707bf46675482043e7e", "type": "electric_scooter", "bike_id": "e6fb087d541c8707bf46675482043e7e", "rental_uris": {"ios": "https://dc.lft.to/lastmile_qr_scan", "android": "https://dc.lft.to/lastmile_qr_scan"}, "fusion_lat": 0.0}, {"lat": 38.92462533333333, "lon": -77.04029866666667, "is_disabled": 0, "fusion_lon": 0.0, "is_reserved": 0, "name": "76541d72dfa394a9a821ed06dcfa0206", "type": "electric_scooter", "bike_id": "76541d72dfa394a9a821ed06dcfa0206", "rental_uris": {"ios": "https://dc.lft.to/lastmile_qr_scan", "android": "https://dc.lft.to/lastmile_qr_scan"}, "fusion_lat": 0.0}, {"lat": 38.87116566666667, "lon": -77.00757116666666, "is_disabled": 0, "fusion_lon": 0.0, "is_reserved": 0, "name": "39b08a604c93c3e78f07adfed5466562", "type": "electric_scooter", "bike_id": "39b08a604c93c3e78f07adfed5466562", "rental_uris": {"ios": "https://dc.lft.to/lastmile_qr_scan", "android": "https://dc.lft.to/lastmile_qr_scan"}, "fusion_lat": 0.0}, {"lat": 38.9214385, "lon": -77.03479233333333, "is_disabled": 0, "fusion_lon": 0.0, "is_reserved": 0, "name": "9decf756f78360ae784d3f54b1bad796", "type": "electric_scooter", "bike_id": "9decf756f78360ae784d3f54b1bad796", "rental_uris": {"ios": "https://dc.lft.to/lastmile_qr_scan", "android": "https://dc.lft.to/lastmile_qr_scan"}, "fusion_lat": 0.0}, {"lat": 38.920438, "lon": -77.0169895, "is_disabled": 0, "fusion_lon": 0.0, "is_reserved": 0, "name": "5b5d854410f081785f300823e531c9fc", "type": "electric_scooter", "bike_id": "5b5d854410f081785f300823e531c9fc", "rental_uris": {"ios": "https://dc.lft.to/lastmile_qr_scan", "android": "https://dc.lft.to/lastmile_qr_scan"}, "fusion_lat": 0.0}, {"lat": 38.961856, "lon": -77.05264383333333, "is_disabled": 0, "fusion_lon": 0.0, "is_reserved": 0, "name": "2115d4eeb6a45ab5bf91546f5a46c4f5", "type": "electric_bike", "bike_id": "2115d4eeb6a45ab5bf91546f5a46c4f5", "rental_uris": {"ios": "https://dc.lft.to/lastmile_qr_scan", "android": "https://dc.lft.to/lastmile_qr_scan"}, "fusion_lat": 0.0}, {"lat": 38.917220666666665, "lon": -77.02699883333334, "is_disabled": 0, "fusion_lon": 0.0, "is_reserved": 0, "name": "c9e37ad54b7b53e2ae9828fbf865a5ff", "type": "electric_scooter", "bike_id": "c9e37ad54b7b53e2ae9828fbf865a5ff", "rental_uris": {"ios": "https://dc.lft.to/lastmile_qr_scan", "android": "https://dc.lft.to/lastmile_qr_scan"}, "fusion_lat": 0.0}, {"lat": 38.8849795, "lon": -76.98059816666667, "is_disabled": 0, "fusion_lon": 0.0, "is_reserved": 0, "name": "546cca48b90f2526a936d11909b25659", "type": "electric_scooter", "bike_id": "546cca48b90f2526a936d11909b25659", "rental_uris": {"ios": "https://dc.lft.to/lastmile_qr_scan", "android": "https://dc.lft.to/lastmile_qr_scan"}, "fusion_lat": 0.0}, {"lat": 38.94310466666667, "lon": -77.024893, "is_disabled": 0, "fusion_lon": 0.0, "is_reserved": 0, "name": "abb1cbd65762789be2732979801b0aa9", "type": "electric_scooter", "bike_id": "abb1cbd65762789be2732979801b0aa9", "rental_uris": {"ios": "https://dc.lft.to/lastmile_qr_scan", "android": "https://dc.lft.to/lastmile_qr_scan"}, "fusion_lat": 0.0}, {"lat": 38.939083, "lon": -77.02663, "is_disabled": 0, "fusion_lon": 0.0, "is_reserved": 0, "name": "8bad61f48b14ae7b37a97c03dc965f8c", "type": "electric_scooter", "bike_id": "8bad61f48b14ae7b37a97c03dc965f8c", "rental_uris": {"ios": "https://dc.lft.to/lastmile_qr_scan", "android": "https://dc.lft.to/lastmile_qr_scan"}, "fusion_lat": 0.0}, {"lat": 38.8986405, "lon": -77.02188783333334, "is_disabled": 0, "fusion_lon": 0.0, "is_reserved": 0, "name": "3fe02fa61214b17e36e9d744c89e708c", "type": "electric_scooter", "bike_id": "3fe02fa61214b17e36e9d744c89e708c", "rental_uris": {"ios": "https://dc.lft.to/lastmile_qr_scan", "android": "https://dc.lft.to/lastmile_qr_scan"}, "fusion_lat": 0.0}, {"lat": 38.91811333333333, "lon": -77.03458166666667, "is_disabled": 0, "fusion_lon": 0.0, "is_reserved": 0, "name": "bc0cb7f159cb8a95b8a549256cfe703a", "type": "electric_scooter", "bike_id": "bc0cb7f159cb8a95b8a549256cfe703a", "rental_uris": {"ios": "https://dc.lft.to/lastmile_qr_scan", "android": "https://dc.lft.to/lastmile_qr_scan"}, "fusion_lat": 0.0}, {"lat": 38.924841666666666, "lon": -77.0221675, "is_disabled": 0, "fusion_lon": 0.0, "is_reserved": 0, "name": "a34bda337a5a75237bf43257a8f0fce5", "type": "electric_scooter", "bike_id": "a34bda337a5a75237bf43257a8f0fce5", "rental_uris": {"ios": "https://dc.lft.to/lastmile_qr_scan", "android": "https://dc.lft.to/lastmile_qr_scan"}, "fusion_lat": 0.0}, {"lat": 38.9242285, "lon": -77.05749233333333, "is_disabled": 0, "fusion_lon": 0.0, "is_reserved": 0, "name": "04d2f199bdaaaaffa6e7eb93d5cbb626", "type": "electric_scooter", "bike_id": "04d2f199bdaaaaffa6e7eb93d5cbb626", "rental_uris": {"ios": "https://dc.lft.to/lastmile_qr_scan", "android": "https://dc.lft.to/lastmile_qr_scan"}, "fusion_lat": 0.0}, {"lat": 38.9126215, "lon": -77.022191, "is_disabled": 0, "fusion_lon": 0.0, "is_reserved": 0, "name": "af4545739d3cc52f5364819d8c4f291c", "type": "electric_scooter", "bike_id": "af4545739d3cc52f5364819d8c4f291c", "rental_uris": {"ios": "https://dc.lft.to/lastmile_qr_scan", "android": "https://dc.lft.to/lastmile_qr_scan"}, "fusion_lat": 0.0}, {"lat": 38.880122, "lon": -77.0246985, "is_disabled": 0, "fusion_lon": 0.0, "is_reserved": 0, "name": "90c1c8c774322e2f1d9ba8dc8e62f70f", "type": "electric_scooter", "bike_id": "90c1c8c774322e2f1d9ba8dc8e62f70f", "rental_uris": {"ios": "https://dc.lft.to/lastmile_qr_scan", "android": "https://dc.lft.to/lastmile_qr_scan"}, "fusion_lat": 0.0}, {"lat": 38.90774316666667, "lon": -77.02435333333334, "is_disabled": 0, "fusion_lon": 0.0, "is_reserved": 0, "name": "8e69c6f9c1704ab82ea59ab73e9fbf70", "type": "electric_bike", "bike_id": "8e69c6f9c1704ab82ea59ab73e9fbf70", "rental_uris": {"ios": "https://dc.lft.to/lastmile_qr_scan", "android": "https://dc.lft.to/lastmile_qr_scan"}, "fusion_lat": 0.0}, {"lat": 38.89435983333333, "lon": -76.949877, "is_disabled": 0, "fusion_lon": 0.0, "is_reserved": 0, "name": "c30ce5d8263e4aa4438afd558a3ebeca", "type": "electric_scooter", "bike_id": "c30ce5d8263e4aa4438afd558a3ebeca", "rental_uris": {"ios": "https://dc.lft.to/lastmile_qr_scan", "android": "https://dc.lft.to/lastmile_qr_scan"}, "fusion_lat": 0.0}, {"lat": 38.9075885, "lon": -77.03578533333334, "is_disabled": 0, "fusion_lon": 0.0, "is_reserved": 0, "name": "460094d79168618dd2ce27ae623ad7ce", "type": "electric_scooter", "bike_id": "460094d79168618dd2ce27ae623ad7ce", "rental_uris": {"ios": "https://dc.lft.to/lastmile_qr_scan", "android": "https://dc.lft.to/lastmile_qr_scan"}, "fusion_lat": 0.0}, {"lat": 38.90144033333333, "lon": -77.04489333333333, "is_disabled": 0, "fusion_lon": 0.0, "is_reserved": 0, "name": "0f7ef673ef2047658b5646ac9e347a5b", "type": "electric_scooter", "bike_id": "0f7ef673ef2047658b5646ac9e347a5b", "rental_uris": {"ios": "https://dc.lft.to/lastmile_qr_scan", "android": "https://dc.lft.to/lastmile_qr_scan"}, "fusion_lat": 0.0}, {"lat": 38.900051166666664, "lon": -77.041272, "is_disabled": 0, "fusion_lon": 0.0, "is_reserved": 0, "name": "25e848b473535e14fa88b05fae7db164", "type": "electric_scooter", "bike_id": "25e848b473535e14fa88b05fae7db164", "rental_uris": {"ios": "https://dc.lft.to/lastmile_qr_scan", "android": "https://dc.lft.to/lastmile_qr_scan"}, "fusion_lat": 0.0}, {"lat": 38.924202666666666, "lon": -77.01948833333333, "is_disabled": 0, "fusion_lon": 0.0, "is_reserved": 0, "name": "942dc5e9ff7fc7251b9af0c3e30359e6", "type": "electric_scooter", "bike_id": "942dc5e9ff7fc7251b9af0c3e30359e6", "rental_uris": {"ios": "https://dc.lft.to/lastmile_qr_scan", "android": "https://dc.lft.to/lastmile_qr_scan"}, "fusion_lat": 0.0}, {"lat": 38.927979666666666, "lon": -77.02208016666667, "is_disabled": 0, "fusion_lon": 0.0, "is_reserved": 0, "name": "3c873ad2a617cdaa09a9cbfaae742ff7", "type": "electric_scooter", "bike_id": "3c873ad2a617cdaa09a9cbfaae742ff7", "rental_uris": {"ios": "https://dc.lft.to/lastmile_qr_scan", "android": "https://dc.lft.to/lastmile_qr_scan"}, "fusion_lat": 0.0}, {"lat": 38.90081133333333, "lon": -77.0448075, "is_disabled": 0, "fusion_lon": 0.0, "is_reserved": 0, "name": "3930b5b0d98ee8ac308d64875c678900", "type": "electric_scooter", "bike_id": "3930b5b0d98ee8ac308d64875c678900", "rental_uris": {"ios": "https://dc.lft.to/lastmile_qr_scan", "android": "https://dc.lft.to/lastmile_qr_scan"}, "fusion_lat": 0.0}, {"lat": 38.910052, "lon": -77.03220816666666, "is_disabled": 0, "fusion_lon": 0.0, "is_reserved": 0, "name": "6711736936002d5b608a9b9fa1309efb", "type": "electric_scooter", "bike_id": "6711736936002d5b608a9b9fa1309efb", "rental_uris": {"ios": "https://dc.lft.to/lastmile_qr_scan", "android": "https://dc.lft.to/lastmile_qr_scan"}, "fusion_lat": 0.0}, {"lat": 38.906272666666666, "lon": -77.0384295, "is_disabled": 0, "fusion_lon": 0.0, "is_reserved": 0, "name": "458484e00be869dc8236d578816b7324", "type": "electric_scooter", "bike_id": "458484e00be869dc8236d578816b7324", "rental_uris": {"ios": "https://dc.lft.to/lastmile_qr_scan", "android": "https://dc.lft.to/lastmile_qr_scan"}, "fusion_lat": 0.0}, {"lat": 38.908044833333335, "lon": -77.04164783333333, "is_disabled": 0, "fusion_lon": 0.0, "is_reserved": 0, "name": "60d6f9cd73ae0a15d12617721360d06f", "type": "electric_scooter", "bike_id": "60d6f9cd73ae0a15d12617721360d06f", "rental_uris": {"ios": "https://dc.lft.to/lastmile_qr_scan", "android": "https://dc.lft.to/lastmile_qr_scan"}, "fusion_lat": 0.0}, {"lat": 38.921268833333336, "lon": -77.04584316666667, "is_disabled": 0, "fusion_lon": 0.0, "is_reserved": 0, "name": "c4c81d7d46917982de712830376b7bcb", "type": "electric_scooter", "bike_id": "c4c81d7d46917982de712830376b7bcb", "rental_uris": {"ios": "https://dc.lft.to/lastmile_qr_scan", "android": "https://dc.lft.to/lastmile_qr_scan"}, "fusion_lat": 0.0}, {"lat": 38.90441966666667, "lon": -77.03227, "is_disabled": 0, "fusion_lon": 0.0, "is_reserved": 0, "name": "52ff6594797f0c562bdcbce068e5b0b9", "type": "electric_scooter", "bike_id": "52ff6594797f0c562bdcbce068e5b0b9", "rental_uris": {"ios": "https://dc.lft.to/lastmile_qr_scan", "android": "https://dc.lft.to/lastmile_qr_scan"}, "fusion_lat": 0.0}, {"lat": 38.948926666666665, "lon": -77.01848916666667, "is_disabled": 0, "fusion_lon": 0.0, "is_reserved": 0, "name": "596de0e328d79879d53699ecb07476ff", "type": "electric_scooter", "bike_id": "596de0e328d79879d53699ecb07476ff", "rental_uris": {"ios": "https://dc.lft.to/lastmile_qr_scan", "android": "https://dc.lft.to/lastmile_qr_scan"}, "fusion_lat": 0.0}, {"lat": 38.9073725, "lon": -77.02988416666666, "is_disabled": 0, "fusion_lon": 0.0, "is_reserved": 0, "name": "d7312059a9b2dc5c39872c953d2cf0b8", "type": "electric_scooter", "bike_id": "d7312059a9b2dc5c39872c953d2cf0b8", "rental_uris": {"ios": "https://dc.lft.to/lastmile_qr_scan", "android": "https://dc.lft.to/lastmile_qr_scan"}, "fusion_lat": 0.0}, {"lat": 38.90409316666667, "lon": -77.0346695, "is_disabled": 0, "fusion_lon": 0.0, "is_reserved": 0, "name": "90a94d80ba9bd479889cb039b60efcac", "type": "electric_scooter", "bike_id": "90a94d80ba9bd479889cb039b60efcac", "rental_uris": {"ios": "https://dc.lft.to/lastmile_qr_scan", "android": "https://dc.lft.to/lastmile_qr_scan"}, "fusion_lat": 0.0}, {"lat": 38.902782333333334, "lon": -77.03866466666666, "is_disabled": 0, "fusion_lon": 0.0, "is_reserved": 0, "name": "e7f9b3934844b5baf99a1ff5dbc5f6c1", "type": "electric_scooter", "bike_id": "e7f9b3934844b5baf99a1ff5dbc5f6c1", "rental_uris": {"ios": "https://dc.lft.to/lastmile_qr_scan", "android": "https://dc.lft.to/lastmile_qr_scan"}, "fusion_lat": 0.0}, {"lat": 38.863286, "lon": -76.98927483333334, "is_disabled": 0, "fusion_lon": 0.0, "is_reserved": 0, "name": "d7848b0d86ce7203aca62811159f06d8", "type": "electric_scooter", "bike_id": "d7848b0d86ce7203aca62811159f06d8", "rental_uris": {"ios": "https://dc.lft.to/lastmile_qr_scan", "android": "https://dc.lft.to/lastmile_qr_scan"}, "fusion_lat": 0.0}, {"lat": 38.89998633333333, "lon": -77.00143416666667, "is_disabled": 0, "fusion_lon": 0.0, "is_reserved": 0, "name": "49ec1c52445d6dae291fc84a3572ac7b", "type": "electric_scooter", "bike_id": "49ec1c52445d6dae291fc84a3572ac7b", "rental_uris": {"ios": "https://dc.lft.to/lastmile_qr_scan", "android": "https://dc.lft.to/lastmile_qr_scan"}, "fusion_lat": 0.0}, {"lat": 38.927446, "lon": -77.03260916666666, "is_disabled": 0, "fusion_lon": 0.0, "is_reserved": 0, "name": "72a5bc0131665f8ac19ee7d54b322c28", "type": "electric_scooter", "bike_id": "72a5bc0131665f8ac19ee7d54b322c28", "rental_uris": {"ios": "https://dc.lft.to/lastmile_qr_scan", "android": "https://dc.lft.to/lastmile_qr_scan"}, "fusion_lat": 0.0}, {"lat": 38.8837665, "lon": -76.99552233333333, "is_disabled": 0, "fusion_lon": 0.0, "is_reserved": 0, "name": "fdb4d006b15a5b40ea9054e4a02c56e1", "type": "electric_scooter", "bike_id": "fdb4d006b15a5b40ea9054e4a02c56e1", "rental_uris": {"ios": "https://dc.lft.to/lastmile_qr_scan", "android": "https://dc.lft.to/lastmile_qr_scan"}, "fusion_lat": 0.0}, {"lat": 38.848243, "lon": -77.07901633333333, "is_disabled": 0, "fusion_lon": 0.0, "is_reserved": 0, "name": "5bdf29314246574729921c4c3e352588", "type": "electric_bike", "bike_id": "5bdf29314246574729921c4c3e352588", "rental_uris": {"ios": "https://dc.lft.to/lastmile_qr_scan", "android": "https://dc.lft.to/lastmile_qr_scan"}, "fusion_lat": 0.0}, {"lat": 38.89965933333333, "lon": -77.04497133333334, "is_disabled": 0, "fusion_lon": 0.0, "is_reserved": 0, "name": "ed4af571358e5fec5d762ebf3df30303", "type": "electric_scooter", "bike_id": "ed4af571358e5fec5d762ebf3df30303", "rental_uris": {"ios": "https://dc.lft.to/lastmile_qr_scan", "android": "https://dc.lft.to/lastmile_qr_scan"}, "fusion_lat": 0.0}, {"lat": 38.917063666666664, "lon": -77.02426333333334, "is_disabled": 0, "fusion_lon": 0.0, "is_reserved": 0, "name": "547d8705b9e8a9d10aae38bff333992a", "type": "electric_scooter", "bike_id": "547d8705b9e8a9d10aae38bff333992a", "rental_uris": {"ios": "https://dc.lft.to/lastmile_qr_scan", "android": "https://dc.lft.to/lastmile_qr_scan"}, "fusion_lat": 0.0}, {"lat": 38.892263, "lon": -77.022056, "is_disabled": 0, "fusion_lon": 0.0, "is_reserved": 0, "name": "a5e26ea28bc79eddc9f539d303e9f21c", "type": "electric_scooter", "bike_id": "a5e26ea28bc79eddc9f539d303e9f21c", "rental_uris": {"ios": "https://dc.lft.to/lastmile_qr_scan", "android": "https://dc.lft.to/lastmile_qr_scan"}, "fusion_lat": 0.0}, {"lat": 38.9024345, "lon": -77.00198666666667, "is_disabled": 0, "fusion_lon": 0.0, "is_reserved": 0, "name": "ac5a8989853c314d72d7f5dc81112651", "type": "electric_scooter", "bike_id": "ac5a8989853c314d72d7f5dc81112651", "rental_uris": {"ios": "https://dc.lft.to/lastmile_qr_scan", "android": "https://dc.lft.to/lastmile_qr_scan"}, "fusion_lat": 0.0}, {"lat": 38.9206765, "lon": -77.0456205, "is_disabled": 0, "fusion_lon": 0.0, "is_reserved": 0, "name": "e0aa726c4bd40b82568a18eee823d72b", "type": "electric_scooter", "bike_id": "e0aa726c4bd40b82568a18eee823d72b", "rental_uris": {"ios": "https://dc.lft.to/lastmile_qr_scan", "android": "https://dc.lft.to/lastmile_qr_scan"}, "fusion_lat": 0.0}, {"lat": 38.924468, "lon": -76.98985983333333, "is_disabled": 0, "fusion_lon": 0.0, "is_reserved": 0, "name": "c7108c9091769553e3e405328bb0ab8b", "type": "electric_scooter", "bike_id": "c7108c9091769553e3e405328bb0ab8b", "rental_uris": {"ios": "https://dc.lft.to/lastmile_qr_scan", "android": "https://dc.lft.to/lastmile_qr_scan"}, "fusion_lat": 0.0}, {"lat": 38.9006775, "lon": -77.045495, "is_disabled": 0, "fusion_lon": 0.0, "is_reserved": 0, "name": "2dd33e3302fa5831ee72396b38ae01a1", "type": "electric_scooter", "bike_id": "2dd33e3302fa5831ee72396b38ae01a1", "rental_uris": {"ios": "https://dc.lft.to/lastmile_qr_scan", "android": "https://dc.lft.to/lastmile_qr_scan"}, "fusion_lat": 0.0}, {"lat": 38.90950616666667, "lon": -77.03439816666666, "is_disabled": 0, "fusion_lon": 0.0, "is_reserved": 0, "name": "3a754fd8bb719d3f1869e46e88acd74a", "type": "electric_scooter", "bike_id": "3a754fd8bb719d3f1869e46e88acd74a", "rental_uris": {"ios": "https://dc.lft.to/lastmile_qr_scan", "android": "https://dc.lft.to/lastmile_qr_scan"}, "fusion_lat": 0.0}, {"lat": 38.915958833333335, "lon": -77.03216066666667, "is_disabled": 0, "fusion_lon": 0.0, "is_reserved": 0, "name": "f4de3f8c04c1ab6c2aa468f01d6caa86", "type": "electric_scooter", "bike_id": "f4de3f8c04c1ab6c2aa468f01d6caa86", "rental_uris": {"ios": "https://dc.lft.to/lastmile_qr_scan", "android": "https://dc.lft.to/lastmile_qr_scan"}, "fusion_lat": 0.0}, {"lat": 38.902623, "lon": -77.02695433333334, "is_disabled": 0, "fusion_lon": 0.0, "is_reserved": 0, "name": "1dbba61497dc127288d630349c4fce6b", "type": "electric_scooter", "bike_id": "1dbba61497dc127288d630349c4fce6b", "rental_uris": {"ios": "https://dc.lft.to/lastmile_qr_scan", "android": "https://dc.lft.to/lastmile_qr_scan"}, "fusion_lat": 0.0}, {"lat": 38.911251166666666, "lon": -76.99763783333333, "is_disabled": 0, "fusion_lon": 0.0, "is_reserved": 0, "name": "86f9996a14efe84202fb78731e779ec6", "type": "electric_scooter", "bike_id": "86f9996a14efe84202fb78731e779ec6", "rental_uris": {"ios": "https://dc.lft.to/lastmile_qr_scan", "android": "https://dc.lft.to/lastmile_qr_scan"}, "fusion_lat": 0.0}, {"lat": 38.884303833333334, "lon": -77.01765733333333, "is_disabled": 0, "fusion_lon": 0.0, "is_reserved": 0, "name": "897b14ea40b375a1600290fa3beeda89", "type": "electric_scooter", "bike_id": "897b14ea40b375a1600290fa3beeda89", "rental_uris": {"ios": "https://dc.lft.to/lastmile_qr_scan", "android": "https://dc.lft.to/lastmile_qr_scan"}, "fusion_lat": 0.0}, {"lat": 38.89177133333333, "lon": -76.92645716666667, "is_disabled": 0, "fusion_lon": 0.0, "is_reserved": 0, "name": "cccfbe6c385fd00981499066fde15b78", "type": "electric_scooter", "bike_id": "cccfbe6c385fd00981499066fde15b78", "rental_uris": {"ios": "https://dc.lft.to/lastmile_qr_scan", "android": "https://dc.lft.to/lastmile_qr_scan"}, "fusion_lat": 0.0}, {"lat": 38.923736, "lon": -77.021231, "is_disabled": 0, "fusion_lon": 0.0, "is_reserved": 0, "name": "ef3a3e83e0c0fbcd4c0c8fbfe77d15bc", "type": "electric_scooter", "bike_id": "ef3a3e83e0c0fbcd4c0c8fbfe77d15bc", "rental_uris": {"ios": "https://dc.lft.to/lastmile_qr_scan", "android": "https://dc.lft.to/lastmile_qr_scan"}, "fusion_lat": 0.0}, {"lat": 38.892360833333335, "lon": -77.043246, "is_disabled": 0, "fusion_lon": 0.0, "is_reserved": 0, "name": "6511ef2b9688e02d633b9f3dec16ec9e", "type": "electric_scooter", "bike_id": "6511ef2b9688e02d633b9f3dec16ec9e", "rental_uris": {"ios": "https://dc.lft.to/lastmile_qr_scan", "android": "https://dc.lft.to/lastmile_qr_scan"}, "fusion_lat": 0.0}, {"lat": 38.92520583333334, "lon": -77.05036, "is_disabled": 0, "fusion_lon": 0.0, "is_reserved": 0, "name": "870b04c1e29c0559e024d78112443fda", "type": "electric_scooter", "bike_id": "870b04c1e29c0559e024d78112443fda", "rental_uris": {"ios": "https://dc.lft.to/lastmile_qr_scan", "android": "https://dc.lft.to/lastmile_qr_scan"}, "fusion_lat": 0.0}, {"lat": 38.917108666666664, "lon": -77.03672166666666, "is_disabled": 0, "fusion_lon": 0.0, "is_reserved": 0, "name": "b0252fa020cbcfc7c1534adb3f271c2c", "type": "electric_scooter", "bike_id": "b0252fa020cbcfc7c1534adb3f271c2c", "rental_uris": {"ios": "https://dc.lft.to/lastmile_qr_scan", "android": "https://dc.lft.to/lastmile_qr_scan"}, "fusion_lat": 0.0}, {"lat": 38.8950485, "lon": -77.04657983333334, "is_disabled": 0, "fusion_lon": 0.0, "is_reserved": 0, "name": "c7c1a05071b167137a8b812451d2fda6", "type": "electric_scooter", "bike_id": "c7c1a05071b167137a8b812451d2fda6", "rental_uris": {"ios": "https://dc.lft.to/lastmile_qr_scan", "android": "https://dc.lft.to/lastmile_qr_scan"}, "fusion_lat": 0.0}, {"lat": 38.91744, "lon": -77.036411, "is_disabled": 0, "fusion_lon": 0.0, "is_reserved": 0, "name": "2781b70467cf42b3a64a931c20790c1a", "type": "electric_scooter", "bike_id": "2781b70467cf42b3a64a931c20790c1a", "rental_uris": {"ios": "https://dc.lft.to/lastmile_qr_scan", "android": "https://dc.lft.to/lastmile_qr_scan"}, "fusion_lat": 0.0}, {"lat": 38.93931283333333, "lon": -77.01586566666667, "is_disabled": 0, "fusion_lon": 0.0, "is_reserved": 0, "name": "72cc210d9e2d1671c115b206d4bfb797", "type": "electric_scooter", "bike_id": "72cc210d9e2d1671c115b206d4bfb797", "rental_uris": {"ios": "https://dc.lft.to/lastmile_qr_scan", "android": "https://dc.lft.to/lastmile_qr_scan"}, "fusion_lat": 0.0}, {"lat": 38.819985833333334, "lon": -76.99814483333333, "is_disabled": 0, "fusion_lon": 0.0, "is_reserved": 0, "name": "bf51a82b85134c4f2ab086f7525b25b6", "type": "electric_bike", "bike_id": "bf51a82b85134c4f2ab086f7525b25b6", "rental_uris": {"ios": "https://dc.lft.to/lastmile_qr_scan", "android": "https://dc.lft.to/lastmile_qr_scan"}, "fusion_lat": 0.0}, {"lat": 38.901936, "lon": -77.0057915, "is_disabled": 0, "fusion_lon": 0.0, "is_reserved": 0, "name": "7acbdad87706be4dd60b5aaf4b84f049", "type": "electric_scooter", "bike_id": "7acbdad87706be4dd60b5aaf4b84f049", "rental_uris": {"ios": "https://dc.lft.to/lastmile_qr_scan", "android": "https://dc.lft.to/lastmile_qr_scan"}, "fusion_lat": 0.0}, {"lat": 38.927591166666666, "lon": -77.052695, "is_disabled": 0, "fusion_lon": 0.0, "is_reserved": 0, "name": "2e9101baa71edce4366a3c5d464f08d2", "type": "electric_scooter", "bike_id": "2e9101baa71edce4366a3c5d464f08d2", "rental_uris": {"ios": "https://dc.lft.to/lastmile_qr_scan", "android": "https://dc.lft.to/lastmile_qr_scan"}, "fusion_lat": 0.0}, {"lat": 38.961798, "lon": -77.01433333333334, "is_disabled": 0, "fusion_lon": 0.0, "is_reserved": 0, "name": "8570357f47c102990f63bdf5e467af18", "type": "electric_scooter", "bike_id": "8570357f47c102990f63bdf5e467af18", "rental_uris": {"ios": "https://dc.lft.to/lastmile_qr_scan", "android": "https://dc.lft.to/lastmile_qr_scan"}, "fusion_lat": 0.0}, {"lat": 38.89268383333334, "lon": -77.00358416666667, "is_disabled": 0, "fusion_lon": 0.0, "is_reserved": 0, "name": "01d72f75196f2bcda63c11eaa8374d86", "type": "electric_scooter", "bike_id": "01d72f75196f2bcda63c11eaa8374d86", "rental_uris": {"ios": "https://dc.lft.to/lastmile_qr_scan", "android": "https://dc.lft.to/lastmile_qr_scan"}, "fusion_lat": 0.0}, {"lat": 38.891848333333336, "lon": -77.00334983333333, "is_disabled": 0, "fusion_lon": 0.0, "is_reserved": 0, "name": "aa7a6325e4d54b0f11341c5d73cde7b9", "type": "electric_scooter", "bike_id": "aa7a6325e4d54b0f11341c5d73cde7b9", "rental_uris": {"ios": "https://dc.lft.to/lastmile_qr_scan", "android": "https://dc.lft.to/lastmile_qr_scan"}, "fusion_lat": 0.0}, {"lat": 38.92413, "lon": -77.0200735, "is_disabled": 0, "fusion_lon": 0.0, "is_reserved": 0, "name": "cf3585344f3deea1aa7434672ad6f339", "type": "electric_scooter", "bike_id": "cf3585344f3deea1aa7434672ad6f339", "rental_uris": {"ios": "https://dc.lft.to/lastmile_qr_scan", "android": "https://dc.lft.to/lastmile_qr_scan"}, "fusion_lat": 0.0}, {"lat": 38.91668, "lon": -77.02467016666667, "is_disabled": 0, "fusion_lon": 0.0, "is_reserved": 0, "name": "ae7da3f41d83aa08b6f5afe55332a015", "type": "electric_scooter", "bike_id": "ae7da3f41d83aa08b6f5afe55332a015", "rental_uris": {"ios": "https://dc.lft.to/lastmile_qr_scan", "android": "https://dc.lft.to/lastmile_qr_scan"}, "fusion_lat": 0.0}, {"lat": 38.892265, "lon": -77.022058, "is_disabled": 0, "fusion_lon": 0.0, "is_reserved": 0, "name": "81e8165095b28deceba1daae3c259033", "type": "electric_scooter", "bike_id": "81e8165095b28deceba1daae3c259033", "rental_uris": {"ios": "https://dc.lft.to/lastmile_qr_scan", "android": "https://dc.lft.to/lastmile_qr_scan"}, "fusion_lat": 0.0}, {"lat": 38.89228416666667, "lon": -77.04895933333333, "is_disabled": 0, "fusion_lon": 0.0, "is_reserved": 0, "name": "350d5219311675c72477402d8dfc47a2", "type": "electric_scooter", "bike_id": "350d5219311675c72477402d8dfc47a2", "rental_uris": {"ios": "https://dc.lft.to/lastmile_qr_scan", "android": "https://dc.lft.to/lastmile_qr_scan"}, "fusion_lat": 0.0}, {"lat": 38.89579233333333, "lon": -76.98317616666667, "is_disabled": 0, "fusion_lon": 0.0, "is_reserved": 0, "name": "eb633601afa1c20dfbcc16a468d3b531", "type": "electric_scooter", "bike_id": "eb633601afa1c20dfbcc16a468d3b531", "rental_uris": {"ios": "https://dc.lft.to/lastmile_qr_scan", "android": "https://dc.lft.to/lastmile_qr_scan"}, "fusion_lat": 0.0}, {"lat": 38.949713, "lon": -77.0666175, "is_disabled": 0, "fusion_lon": 0.0, "is_reserved": 0, "name": "5d4f5f583de13699d28504795c5ae2ae", "type": "electric_scooter", "bike_id": "5d4f5f583de13699d28504795c5ae2ae", "rental_uris": {"ios": "https://dc.lft.to/lastmile_qr_scan", "android": "https://dc.lft.to/lastmile_qr_scan"}, "fusion_lat": 0.0}, {"lat": 38.926544166666666, "lon": -77.0372485, "is_disabled": 0, "fusion_lon": 0.0, "is_reserved": 0, "name": "8173ee08bb05e7523fed7aa870be3275", "type": "electric_scooter", "bike_id": "8173ee08bb05e7523fed7aa870be3275", "rental_uris": {"ios": "https://dc.lft.to/lastmile_qr_scan", "android": "https://dc.lft.to/lastmile_qr_scan"}, "fusion_lat": 0.0}, {"lat": 38.906698166666665, "lon": -77.02698316666667, "is_disabled": 0, "fusion_lon": 0.0, "is_reserved": 0, "name": "bb11d2f6ec50a5d86263a13cf4e7921a", "type": "electric_scooter", "bike_id": "bb11d2f6ec50a5d86263a13cf4e7921a", "rental_uris": {"ios": "https://dc.lft.to/lastmile_qr_scan", "android": "https://dc.lft.to/lastmile_qr_scan"}, "fusion_lat": 0.0}, {"lat": 38.90279916666667, "lon": -77.04078933333334, "is_disabled": 0, "fusion_lon": 0.0, "is_reserved": 0, "name": "32d0ecef431418cec22e8f9df1d21932", "type": "electric_scooter", "bike_id": "32d0ecef431418cec22e8f9df1d21932", "rental_uris": {"ios": "https://dc.lft.to/lastmile_qr_scan", "android": "https://dc.lft.to/lastmile_qr_scan"}, "fusion_lat": 0.0}, {"lat": 38.9102295, "lon": -77.02928283333334, "is_disabled": 0, "fusion_lon": 0.0, "is_reserved": 0, "name": "a9346584efef551197cc230b30ccbcef", "type": "electric_scooter", "bike_id": "a9346584efef551197cc230b30ccbcef", "rental_uris": {"ios": "https://dc.lft.to/lastmile_qr_scan", "android": "https://dc.lft.to/lastmile_qr_scan"}, "fusion_lat": 0.0}, {"lat": 38.809816166666664, "lon": -77.0765865, "is_disabled": 0, "fusion_lon": 0.0, "is_reserved": 0, "name": "de454886714af311b971dd40561287b5", "type": "electric_bike", "bike_id": "de454886714af311b971dd40561287b5", "rental_uris": {"ios": "https://dc.lft.to/lastmile_qr_scan", "android": "https://dc.lft.to/lastmile_qr_scan"}, "fusion_lat": 0.0}, {"lat": 38.8766165, "lon": -76.9979395, "is_disabled": 0, "fusion_lon": 0.0, "is_reserved": 0, "name": "83788a4820fec8f82076d2616aeeea9c", "type": "electric_scooter", "bike_id": "83788a4820fec8f82076d2616aeeea9c", "rental_uris": {"ios": "https://dc.lft.to/lastmile_qr_scan", "android": "https://dc.lft.to/lastmile_qr_scan"}, "fusion_lat": 0.0}, {"lat": 38.91334483333333, "lon": -77.0457475, "is_disabled": 0, "fusion_lon": 0.0, "is_reserved": 0, "name": "f54a0c69a4ab9caed319bede7e389542", "type": "electric_scooter", "bike_id": "f54a0c69a4ab9caed319bede7e389542", "rental_uris": {"ios": "https://dc.lft.to/lastmile_qr_scan", "android": "https://dc.lft.to/lastmile_qr_scan"}, "fusion_lat": 0.0}, {"lat": 38.93395316666667, "lon": -77.0573625, "is_disabled": 0, "fusion_lon": 0.0, "is_reserved": 0, "name": "6170c945a0c4447589635ec5768c4e47", "type": "electric_scooter", "bike_id": "6170c945a0c4447589635ec5768c4e47", "rental_uris": {"ios": "https://dc.lft.to/lastmile_qr_scan", "android": "https://dc.lft.to/lastmile_qr_scan"}, "fusion_lat": 0.0}, {"lat": 38.90980316666667, "lon": -77.03379516666666, "is_disabled": 0, "fusion_lon": 0.0, "is_reserved": 0, "name": "58b2e048db600c1b96a696fe71df4c1c", "type": "electric_scooter", "bike_id": "58b2e048db600c1b96a696fe71df4c1c", "rental_uris": {"ios": "https://dc.lft.to/lastmile_qr_scan", "android": "https://dc.lft.to/lastmile_qr_scan"}, "fusion_lat": 0.0}, {"lat": 38.89222766666666, "lon": -77.02352616666667, "is_disabled": 0, "fusion_lon": 0.0, "is_reserved": 0, "name": "98828994c6c5347b3212a44202ecd0ba", "type": "electric_scooter", "bike_id": "98828994c6c5347b3212a44202ecd0ba", "rental_uris": {"ios": "https://dc.lft.to/lastmile_qr_scan", "android": "https://dc.lft.to/lastmile_qr_scan"}, "fusion_lat": 0.0}, {"lat": 38.92169833333333, "lon": -77.04228433333333, "is_disabled": 0, "fusion_lon": 0.0, "is_reserved": 0, "name": "3f2c2ba8c24b8da2a1144471c078ef33", "type": "electric_scooter", "bike_id": "3f2c2ba8c24b8da2a1144471c078ef33", "rental_uris": {"ios": "https://dc.lft.to/lastmile_qr_scan", "android": "https://dc.lft.to/lastmile_qr_scan"}, "fusion_lat": 0.0}, {"lat": 38.8626965, "lon": -76.99532016666667, "is_disabled": 0, "fusion_lon": 0.0, "is_reserved": 0, "name": "d9a428b18ead704cde3739b94f926db9", "type": "electric_scooter", "bike_id": "d9a428b18ead704cde3739b94f926db9", "rental_uris": {"ios": "https://dc.lft.to/lastmile_qr_scan", "android": "https://dc.lft.to/lastmile_qr_scan"}, "fusion_lat": 0.0}, {"lat": 38.91573116666667, "lon": -77.0217415, "is_disabled": 0, "fusion_lon": 0.0, "is_reserved": 0, "name": "9dafbb314ec650c5fedb73519430bbd2", "type": "electric_scooter", "bike_id": "9dafbb314ec650c5fedb73519430bbd2", "rental_uris": {"ios": "https://dc.lft.to/lastmile_qr_scan", "android": "https://dc.lft.to/lastmile_qr_scan"}, "fusion_lat": 0.0}, {"lat": 38.9020655, "lon": -77.04887416666666, "is_disabled": 0, "fusion_lon": 0.0, "is_reserved": 0, "name": "77796f2df1dcef68ef6a18d23ec73545", "type": "electric_scooter", "bike_id": "77796f2df1dcef68ef6a18d23ec73545", "rental_uris": {"ios": "https://dc.lft.to/lastmile_qr_scan", "android": "https://dc.lft.to/lastmile_qr_scan"}, "fusion_lat": 0.0}, {"lat": 38.9661, "lon": -77.02744266666667, "is_disabled": 0, "fusion_lon": 0.0, "is_reserved": 0, "name": "37cd201c3e3feba9037e511589867939", "type": "electric_scooter", "bike_id": "37cd201c3e3feba9037e511589867939", "rental_uris": {"ios": "https://dc.lft.to/lastmile_qr_scan", "android": "https://dc.lft.to/lastmile_qr_scan"}, "fusion_lat": 0.0}, {"lat": 38.899536833333336, "lon": -77.01622833333333, "is_disabled": 0, "fusion_lon": 0.0, "is_reserved": 0, "name": "696e9ad2eacb3c6f2a83bc499f18ab57", "type": "electric_scooter", "bike_id": "696e9ad2eacb3c6f2a83bc499f18ab57", "rental_uris": {"ios": "https://dc.lft.to/lastmile_qr_scan", "android": "https://dc.lft.to/lastmile_qr_scan"}, "fusion_lat": 0.0}, {"lat": 38.876181333333335, "lon": -76.96541233333333, "is_disabled": 0, "fusion_lon": 0.0, "is_reserved": 0, "name": "2d6386d8600a4f1c36d72f7e709ac8aa", "type": "electric_scooter", "bike_id": "2d6386d8600a4f1c36d72f7e709ac8aa", "rental_uris": {"ios": "https://dc.lft.to/lastmile_qr_scan", "android": "https://dc.lft.to/lastmile_qr_scan"}, "fusion_lat": 0.0}, {"lat": 38.90382, "lon": -77.04501316666666, "is_disabled": 0, "fusion_lon": 0.0, "is_reserved": 0, "name": "d934f8dd5a527df09f7b6e186ceb9219", "type": "electric_scooter", "bike_id": "d934f8dd5a527df09f7b6e186ceb9219", "rental_uris": {"ios": "https://dc.lft.to/lastmile_qr_scan", "android": "https://dc.lft.to/lastmile_qr_scan"}, "fusion_lat": 0.0}, {"lat": 38.895786666666666, "lon": -76.98322083333333, "is_disabled": 0, "fusion_lon": 0.0, "is_reserved": 0, "name": "ae500b632378e8e7dfd1699587282cc5", "type": "electric_scooter", "bike_id": "ae500b632378e8e7dfd1699587282cc5", "rental_uris": {"ios": "https://dc.lft.to/lastmile_qr_scan", "android": "https://dc.lft.to/lastmile_qr_scan"}, "fusion_lat": 0.0}, {"lat": 38.890452833333335, "lon": -76.93754516666667, "is_disabled": 0, "fusion_lon": 0.0, "is_reserved": 0, "name": "bac1a8754c33156e0154bebd14654eb5", "type": "electric_scooter", "bike_id": "bac1a8754c33156e0154bebd14654eb5", "rental_uris": {"ios": "https://dc.lft.to/lastmile_qr_scan", "android": "https://dc.lft.to/lastmile_qr_scan"}, "fusion_lat": 0.0}, {"lat": 38.89885533333333, "lon": -77.01210383333333, "is_disabled": 0, "fusion_lon": 0.0, "is_reserved": 0, "name": "39cb5abb8927d9c9a31f8c10f288f184", "type": "electric_scooter", "bike_id": "39cb5abb8927d9c9a31f8c10f288f184", "rental_uris": {"ios": "https://dc.lft.to/lastmile_qr_scan", "android": "https://dc.lft.to/lastmile_qr_scan"}, "fusion_lat": 0.0}, {"lat": 38.923220666666666, "lon": -77.01950833333333, "is_disabled": 0, "fusion_lon": 0.0, "is_reserved": 0, "name": "e5952e3a06ae03c3f96f64bebcd30bdd", "type": "electric_scooter", "bike_id": "e5952e3a06ae03c3f96f64bebcd30bdd", "rental_uris": {"ios": "https://dc.lft.to/lastmile_qr_scan", "android": "https://dc.lft.to/lastmile_qr_scan"}, "fusion_lat": 0.0}, {"lat": 38.89745716666667, "lon": -77.01355366666667, "is_disabled": 0, "fusion_lon": 0.0, "is_reserved": 0, "name": "99a76078a1dd792cab2ae0f13391415e", "type": "electric_scooter", "bike_id": "99a76078a1dd792cab2ae0f13391415e", "rental_uris": {"ios": "https://dc.lft.to/lastmile_qr_scan", "android": "https://dc.lft.to/lastmile_qr_scan"}, "fusion_lat": 0.0}, {"lat": 38.876554, "lon": -77.00057733333334, "is_disabled": 0, "fusion_lon": 0.0, "is_reserved": 0, "name": "c978c0e2bfad8c89a0f04c3b99ded692", "type": "electric_scooter", "bike_id": "c978c0e2bfad8c89a0f04c3b99ded692", "rental_uris": {"ios": "https://dc.lft.to/lastmile_qr_scan", "android": "https://dc.lft.to/lastmile_qr_scan"}, "fusion_lat": 0.0}, {"lat": 38.919861166666664, "lon": -77.041564, "is_disabled": 0, "fusion_lon": 0.0, "is_reserved": 0, "name": "f30f0f2fbb63c388575640a814ce2e71", "type": "electric_scooter", "bike_id": "f30f0f2fbb63c388575640a814ce2e71", "rental_uris": {"ios": "https://dc.lft.to/lastmile_qr_scan", "android": "https://dc.lft.to/lastmile_qr_scan"}, "fusion_lat": 0.0}, {"lat": 38.9094255, "lon": -77.03205416666667, "is_disabled": 0, "fusion_lon": 0.0, "is_reserved": 0, "name": "f957e365c627642a2065306464d22afe", "type": "electric_scooter", "bike_id": "f957e365c627642a2065306464d22afe", "rental_uris": {"ios": "https://dc.lft.to/lastmile_qr_scan", "android": "https://dc.lft.to/lastmile_qr_scan"}, "fusion_lat": 0.0}, {"lat": 38.9577095, "lon": -77.01491916666667, "is_disabled": 0, "fusion_lon": 0.0, "is_reserved": 0, "name": "21f6c971f31d13901a52016472573e46", "type": "electric_scooter", "bike_id": "21f6c971f31d13901a52016472573e46", "rental_uris": {"ios": "https://dc.lft.to/lastmile_qr_scan", "android": "https://dc.lft.to/lastmile_qr_scan"}, "fusion_lat": 0.0}, {"lat": 38.917702166666665, "lon": -77.03222666666667, "is_disabled": 0, "fusion_lon": 0.0, "is_reserved": 0, "name": "f0fa559d6fc395fb3440a4a2406a9b81", "type": "electric_scooter", "bike_id": "f0fa559d6fc395fb3440a4a2406a9b81", "rental_uris": {"ios": "https://dc.lft.to/lastmile_qr_scan", "android": "https://dc.lft.to/lastmile_qr_scan"}, "fusion_lat": 0.0}, {"lat": 38.915783, "lon": -77.02184783333334, "is_disabled": 0, "fusion_lon": 0.0, "is_reserved": 0, "name": "fe6b305df608f5ceac6a969bd8b73e0c", "type": "electric_scooter", "bike_id": "fe6b305df608f5ceac6a969bd8b73e0c", "rental_uris": {"ios": "https://dc.lft.to/lastmile_qr_scan", "android": "https://dc.lft.to/lastmile_qr_scan"}, "fusion_lat": 0.0}, {"lat": 38.923413333333336, "lon": -77.00914666666667, "is_disabled": 0, "fusion_lon": 0.0, "is_reserved": 0, "name": "7e39350d222860d6b8c257f05cd56539", "type": "electric_scooter", "bike_id": "7e39350d222860d6b8c257f05cd56539", "rental_uris": {"ios": "https://dc.lft.to/lastmile_qr_scan", "android": "https://dc.lft.to/lastmile_qr_scan"}, "fusion_lat": 0.0}, {"lat": 38.931741833333334, "lon": -77.03669733333334, "is_disabled": 0, "fusion_lon": 0.0, "is_reserved": 0, "name": "3ee133e9860b28355dab72b6f6326ce6", "type": "electric_scooter", "bike_id": "3ee133e9860b28355dab72b6f6326ce6", "rental_uris": {"ios": "https://dc.lft.to/lastmile_qr_scan", "android": "https://dc.lft.to/lastmile_qr_scan"}, "fusion_lat": 0.0}, {"lat": 38.90626666666667, "lon": -77.05148733333333, "is_disabled": 0, "fusion_lon": 0.0, "is_reserved": 0, "name": "ec02ddd1353d55301417d05efed86df0", "type": "electric_scooter", "bike_id": "ec02ddd1353d55301417d05efed86df0", "rental_uris": {"ios": "https://dc.lft.to/lastmile_qr_scan", "android": "https://dc.lft.to/lastmile_qr_scan"}, "fusion_lat": 0.0}, {"lat": 38.907367, "lon": -77.04325733333333, "is_disabled": 0, "fusion_lon": 0.0, "is_reserved": 0, "name": "8f878bfb38de561cb4fed0010e3e69dd", "type": "electric_scooter", "bike_id": "8f878bfb38de561cb4fed0010e3e69dd", "rental_uris": {"ios": "https://dc.lft.to/lastmile_qr_scan", "android": "https://dc.lft.to/lastmile_qr_scan"}, "fusion_lat": 0.0}, {"lat": 38.91743916666667, "lon": -77.06940066666667, "is_disabled": 0, "fusion_lon": 0.0, "is_reserved": 0, "name": "2966d45bb43d4881fc31acbd845abcc5", "type": "electric_scooter", "bike_id": "2966d45bb43d4881fc31acbd845abcc5", "rental_uris": {"ios": "https://dc.lft.to/lastmile_qr_scan", "android": "https://dc.lft.to/lastmile_qr_scan"}, "fusion_lat": 0.0}, {"lat": 38.915774666666664, "lon": -77.02182433333333, "is_disabled": 0, "fusion_lon": 0.0, "is_reserved": 0, "name": "d30f9a5049d60a16f1f5a610b1220620", "type": "electric_scooter", "bike_id": "d30f9a5049d60a16f1f5a610b1220620", "rental_uris": {"ios": "https://dc.lft.to/lastmile_qr_scan", "android": "https://dc.lft.to/lastmile_qr_scan"}, "fusion_lat": 0.0}, {"lat": 38.873769833333334, "lon": -77.00016166666667, "is_disabled": 0, "fusion_lon": 0.0, "is_reserved": 0, "name": "523fd4ed176e30a8c35ca9b27f98425c", "type": "electric_scooter", "bike_id": "523fd4ed176e30a8c35ca9b27f98425c", "rental_uris": {"ios": "https://dc.lft.to/lastmile_qr_scan", "android": "https://dc.lft.to/lastmile_qr_scan"}, "fusion_lat": 0.0}, {"lat": 38.91817183333333, "lon": -77.035572, "is_disabled": 0, "fusion_lon": 0.0, "is_reserved": 0, "name": "f0b39f8a6a0ff3fe266104dfc1163938", "type": "electric_scooter", "bike_id": "f0b39f8a6a0ff3fe266104dfc1163938", "rental_uris": {"ios": "https://dc.lft.to/lastmile_qr_scan", "android": "https://dc.lft.to/lastmile_qr_scan"}, "fusion_lat": 0.0}, {"lat": 38.90027933333333, "lon": -76.99188733333334, "is_disabled": 0, "fusion_lon": 0.0, "is_reserved": 0, "name": "1afb288a8685a310e7800fdf388c1eec", "type": "electric_scooter", "bike_id": "1afb288a8685a310e7800fdf388c1eec", "rental_uris": {"ios": "https://dc.lft.to/lastmile_qr_scan", "android": "https://dc.lft.to/lastmile_qr_scan"}, "fusion_lat": 0.0}, {"lat": 38.909493, "lon": -77.034287, "is_disabled": 0, "fusion_lon": 0.0, "is_reserved": 0, "name": "0cd32bf3b033860ba899ffddac6ca3f1", "type": "electric_scooter", "bike_id": "0cd32bf3b033860ba899ffddac6ca3f1", "rental_uris": {"ios": "https://dc.lft.to/lastmile_qr_scan", "android": "https://dc.lft.to/lastmile_qr_scan"}, "fusion_lat": 0.0}, {"lat": 38.87496466666666, "lon": -77.00172116666667, "is_disabled": 0, "fusion_lon": 0.0, "is_reserved": 0, "name": "37cad71bb9135bbaec137dac7503635f", "type": "electric_scooter", "bike_id": "37cad71bb9135bbaec137dac7503635f", "rental_uris": {"ios": "https://dc.lft.to/lastmile_qr_scan", "android": "https://dc.lft.to/lastmile_qr_scan"}, "fusion_lat": 0.0}, {"lat": 38.903141833333336, "lon": -77.061079, "is_disabled": 0, "fusion_lon": 0.0, "is_reserved": 0, "name": "b56428b38c6bbca97973235837ebac7a", "type": "electric_scooter", "bike_id": "b56428b38c6bbca97973235837ebac7a", "rental_uris": {"ios": "https://dc.lft.to/lastmile_qr_scan", "android": "https://dc.lft.to/lastmile_qr_scan"}, "fusion_lat": 0.0}, {"lat": 38.8981435, "lon": -77.00601983333334, "is_disabled": 0, "fusion_lon": 0.0, "is_reserved": 0, "name": "dd4c46b0def5853268a4f7eeb71f6b14", "type": "electric_bike", "bike_id": "dd4c46b0def5853268a4f7eeb71f6b14", "rental_uris": {"ios": "https://dc.lft.to/lastmile_qr_scan", "android": "https://dc.lft.to/lastmile_qr_scan"}, "fusion_lat": 0.0}, {"lat": 38.924967333333335, "lon": -77.02451483333333, "is_disabled": 0, "fusion_lon": 0.0, "is_reserved": 0, "name": "1deb3a68014828e1c0d5ff06bdc21460", "type": "electric_scooter", "bike_id": "1deb3a68014828e1c0d5ff06bdc21460", "rental_uris": {"ios": "https://dc.lft.to/lastmile_qr_scan", "android": "https://dc.lft.to/lastmile_qr_scan"}, "fusion_lat": 0.0}, {"lat": 38.87793416666667, "lon": -77.0034655, "is_disabled": 0, "fusion_lon": 0.0, "is_reserved": 0, "name": "f1680042c38226e33d6dbdd4f928155f", "type": "electric_scooter", "bike_id": "f1680042c38226e33d6dbdd4f928155f", "rental_uris": {"ios": "https://dc.lft.to/lastmile_qr_scan", "android": "https://dc.lft.to/lastmile_qr_scan"}, "fusion_lat": 0.0}, {"lat": 38.8745925, "lon": -77.00544133333334, "is_disabled": 0, "fusion_lon": 0.0, "is_reserved": 0, "name": "b42433ff08317e78de7fdfc5c4d0e56e", "type": "electric_scooter", "bike_id": "b42433ff08317e78de7fdfc5c4d0e56e", "rental_uris": {"ios": "https://dc.lft.to/lastmile_qr_scan", "android": "https://dc.lft.to/lastmile_qr_scan"}, "fusion_lat": 0.0}, {"lat": 38.881216333333334, "lon": -77.01740683333334, "is_disabled": 0, "fusion_lon": 0.0, "is_reserved": 0, "name": "973cbb689de749198b2f04bccc239cf2", "type": "electric_scooter", "bike_id": "973cbb689de749198b2f04bccc239cf2", "rental_uris": {"ios": "https://dc.lft.to/lastmile_qr_scan", "android": "https://dc.lft.to/lastmile_qr_scan"}, "fusion_lat": 0.0}, {"lat": 38.922674, "lon": -77.024395, "is_disabled": 0, "fusion_lon": 0.0, "is_reserved": 0, "name": "580a67271ce9c837a48260fd07c9286e", "type": "electric_scooter", "bike_id": "580a67271ce9c837a48260fd07c9286e", "rental_uris": {"ios": "https://dc.lft.to/lastmile_qr_scan", "android": "https://dc.lft.to/lastmile_qr_scan"}, "fusion_lat": 0.0}, {"lat": 38.914966, "lon": -76.983747, "is_disabled": 0, "fusion_lon": 0.0, "is_reserved": 0, "name": "341c82094222247e6be60d34146ca26a", "type": "electric_scooter", "bike_id": "341c82094222247e6be60d34146ca26a", "rental_uris": {"ios": "https://dc.lft.to/lastmile_qr_scan", "android": "https://dc.lft.to/lastmile_qr_scan"}, "fusion_lat": 0.0}, {"lat": 38.902754333333334, "lon": -77.02785933333334, "is_disabled": 0, "fusion_lon": 0.0, "is_reserved": 0, "name": "9593ad08217475590db39f1ca9f7ec4e", "type": "electric_scooter", "bike_id": "9593ad08217475590db39f1ca9f7ec4e", "rental_uris": {"ios": "https://dc.lft.to/lastmile_qr_scan", "android": "https://dc.lft.to/lastmile_qr_scan"}, "fusion_lat": 0.0}, {"lat": 38.91557183333333, "lon": -77.02846583333333, "is_disabled": 0, "fusion_lon": 0.0, "is_reserved": 0, "name": "0fa9a0b1b1b5cfb2200d23cf22e74fc6", "type": "electric_scooter", "bike_id": "0fa9a0b1b1b5cfb2200d23cf22e74fc6", "rental_uris": {"ios": "https://dc.lft.to/lastmile_qr_scan", "android": "https://dc.lft.to/lastmile_qr_scan"}, "fusion_lat": 0.0}, {"lat": 38.8517465, "lon": -76.99576883333333, "is_disabled": 0, "fusion_lon": 0.0, "is_reserved": 0, "name": "037b9bade2936068d46f1f072d34a068", "type": "electric_scooter", "bike_id": "037b9bade2936068d46f1f072d34a068", "rental_uris": {"ios": "https://dc.lft.to/lastmile_qr_scan", "android": "https://dc.lft.to/lastmile_qr_scan"}, "fusion_lat": 0.0}, {"lat": 38.90679183333334, "lon": -77.04498166666667, "is_disabled": 0, "fusion_lon": 0.0, "is_reserved": 0, "name": "c06870317f8ed54707e804a2f55f3d86", "type": "electric_scooter", "bike_id": "c06870317f8ed54707e804a2f55f3d86", "rental_uris": {"ios": "https://dc.lft.to/lastmile_qr_scan", "android": "https://dc.lft.to/lastmile_qr_scan"}, "fusion_lat": 0.0}, {"lat": 38.95412783333333, "lon": -77.02793116666666, "is_disabled": 0, "fusion_lon": 0.0, "is_reserved": 0, "name": "b0cef74d4e2d8d6b439ac3e36de06203", "type": "electric_scooter", "bike_id": "b0cef74d4e2d8d6b439ac3e36de06203", "rental_uris": {"ios": "https://dc.lft.to/lastmile_qr_scan", "android": "https://dc.lft.to/lastmile_qr_scan"}, "fusion_lat": 0.0}, {"lat": 38.926100166666664, "lon": -77.02158433333334, "is_disabled": 0, "fusion_lon": 0.0, "is_reserved": 0, "name": "916bfbd68ddda61fcac196ab3a4b0e25", "type": "electric_scooter", "bike_id": "916bfbd68ddda61fcac196ab3a4b0e25", "rental_uris": {"ios": "https://dc.lft.to/lastmile_qr_scan", "android": "https://dc.lft.to/lastmile_qr_scan"}, "fusion_lat": 0.0}, {"lat": 38.8876655, "lon": -77.02234533333333, "is_disabled": 0, "fusion_lon": 0.0, "is_reserved": 0, "name": "9640dbf09cfbb169f27128e5036ade3f", "type": "electric_scooter", "bike_id": "9640dbf09cfbb169f27128e5036ade3f", "rental_uris": {"ios": "https://dc.lft.to/lastmile_qr_scan", "android": "https://dc.lft.to/lastmile_qr_scan"}, "fusion_lat": 0.0}, {"lat": 38.884364166666664, "lon": -77.02884016666667, "is_disabled": 0, "fusion_lon": 0.0, "is_reserved": 0, "name": "1f1072ebd8a45b8c04fea5cbd5c9ea56", "type": "electric_scooter", "bike_id": "1f1072ebd8a45b8c04fea5cbd5c9ea56", "rental_uris": {"ios": "https://dc.lft.to/lastmile_qr_scan", "android": "https://dc.lft.to/lastmile_qr_scan"}, "fusion_lat": 0.0}, {"lat": 38.924570333333335, "lon": -77.05228466666667, "is_disabled": 0, "fusion_lon": 0.0, "is_reserved": 0, "name": "dbaef8233046f250951d3401cb6dab6f", "type": "electric_scooter", "bike_id": "dbaef8233046f250951d3401cb6dab6f", "rental_uris": {"ios": "https://dc.lft.to/lastmile_qr_scan", "android": "https://dc.lft.to/lastmile_qr_scan"}, "fusion_lat": 0.0}, {"lat": 38.8984645, "lon": -76.9425005, "is_disabled": 0, "fusion_lon": 0.0, "is_reserved": 0, "name": "91dcb72a75a71a511918fe23686d0387", "type": "electric_scooter", "bike_id": "91dcb72a75a71a511918fe23686d0387", "rental_uris": {"ios": "https://dc.lft.to/lastmile_qr_scan", "android": "https://dc.lft.to/lastmile_qr_scan"}, "fusion_lat": 0.0}, {"lat": 38.938997, "lon": -76.98607183333333, "is_disabled": 0, "fusion_lon": 0.0, "is_reserved": 0, "name": "58829765c4e1a830432b57794f4cf6f3", "type": "electric_scooter", "bike_id": "58829765c4e1a830432b57794f4cf6f3", "rental_uris": {"ios": "https://dc.lft.to/lastmile_qr_scan", "android": "https://dc.lft.to/lastmile_qr_scan"}, "fusion_lat": 0.0}, {"lat": 38.918229, "lon": -77.0120645, "is_disabled": 0, "fusion_lon": 0.0, "is_reserved": 0, "name": "3f835d6128ca923b64c8715d06a265a3", "type": "electric_scooter", "bike_id": "3f835d6128ca923b64c8715d06a265a3", "rental_uris": {"ios": "https://dc.lft.to/lastmile_qr_scan", "android": "https://dc.lft.to/lastmile_qr_scan"}, "fusion_lat": 0.0}, {"lat": 38.897315, "lon": -77.049589, "is_disabled": 0, "fusion_lon": 0.0, "is_reserved": 0, "name": "8a6c035b933da8978408e3eeec6cd298", "type": "electric_scooter", "bike_id": "8a6c035b933da8978408e3eeec6cd298", "rental_uris": {"ios": "https://dc.lft.to/lastmile_qr_scan", "android": "https://dc.lft.to/lastmile_qr_scan"}, "fusion_lat": 0.0}, {"lat": 38.899988, "lon": -77.00142933333333, "is_disabled": 0, "fusion_lon": 0.0, "is_reserved": 0, "name": "3acd2080c4578edd52bc929260a03b8a", "type": "electric_scooter", "bike_id": "3acd2080c4578edd52bc929260a03b8a", "rental_uris": {"ios": "https://dc.lft.to/lastmile_qr_scan", "android": "https://dc.lft.to/lastmile_qr_scan"}, "fusion_lat": 0.0}, {"lat": 38.8746005, "lon": -77.00543766666667, "is_disabled": 0, "fusion_lon": 0.0, "is_reserved": 0, "name": "f6c97e861775c0d4c4e73fe852ad5cd3", "type": "electric_scooter", "bike_id": "f6c97e861775c0d4c4e73fe852ad5cd3", "rental_uris": {"ios": "https://dc.lft.to/lastmile_qr_scan", "android": "https://dc.lft.to/lastmile_qr_scan"}, "fusion_lat": 0.0}, {"lat": 38.92494933333333, "lon": -77.0391505, "is_disabled": 0, "fusion_lon": 0.0, "is_reserved": 0, "name": "f596fef08b0072552dd75e8b10f60373", "type": "electric_scooter", "bike_id": "f596fef08b0072552dd75e8b10f60373", "rental_uris": {"ios": "https://dc.lft.to/lastmile_qr_scan", "android": "https://dc.lft.to/lastmile_qr_scan"}, "fusion_lat": 0.0}, {"lat": 38.914156166666665, "lon": -77.0320975, "is_disabled": 0, "fusion_lon": 0.0, "is_reserved": 0, "name": "bfb922ce44fc39ccc35dba689f1df272", "type": "electric_scooter", "bike_id": "bfb922ce44fc39ccc35dba689f1df272", "rental_uris": {"ios": "https://dc.lft.to/lastmile_qr_scan", "android": "https://dc.lft.to/lastmile_qr_scan"}, "fusion_lat": 0.0}, {"lat": 38.916291, "lon": -77.02697216666667, "is_disabled": 0, "fusion_lon": 0.0, "is_reserved": 0, "name": "eeae3bfab41a215e7906b4e6fe8d49a1", "type": "electric_scooter", "bike_id": "eeae3bfab41a215e7906b4e6fe8d49a1", "rental_uris": {"ios": "https://dc.lft.to/lastmile_qr_scan", "android": "https://dc.lft.to/lastmile_qr_scan"}, "fusion_lat": 0.0}, {"lat": 38.911061333333336, "lon": -77.04458316666667, "is_disabled": 0, "fusion_lon": 0.0, "is_reserved": 0, "name": "59a3e030a582c08f95e0bc97963c301a", "type": "electric_scooter", "bike_id": "59a3e030a582c08f95e0bc97963c301a", "rental_uris": {"ios": "https://dc.lft.to/lastmile_qr_scan", "android": "https://dc.lft.to/lastmile_qr_scan"}, "fusion_lat": 0.0}, {"lat": 38.92085616666667, "lon": -77.022957, "is_disabled": 0, "fusion_lon": 0.0, "is_reserved": 0, "name": "fc7a3edf7598db358fcb81550363b261", "type": "electric_scooter", "bike_id": "fc7a3edf7598db358fcb81550363b261", "rental_uris": {"ios": "https://dc.lft.to/lastmile_qr_scan", "android": "https://dc.lft.to/lastmile_qr_scan"}, "fusion_lat": 0.0}, {"lat": 38.906906166666666, "lon": -77.03526916666667, "is_disabled": 0, "fusion_lon": 0.0, "is_reserved": 0, "name": "961c350517cd79357ae909c535a29aab", "type": "electric_scooter", "bike_id": "961c350517cd79357ae909c535a29aab", "rental_uris": {"ios": "https://dc.lft.to/lastmile_qr_scan", "android": "https://dc.lft.to/lastmile_qr_scan"}, "fusion_lat": 0.0}, {"lat": 38.922913666666666, "lon": -76.99772733333333, "is_disabled": 0, "fusion_lon": 0.0, "is_reserved": 0, "name": "efc812101d938c32260be0045076e4ec", "type": "electric_scooter", "bike_id": "efc812101d938c32260be0045076e4ec", "rental_uris": {"ios": "https://dc.lft.to/lastmile_qr_scan", "android": "https://dc.lft.to/lastmile_qr_scan"}, "fusion_lat": 0.0}, {"lat": 38.903502333333336, "lon": -77.043401, "is_disabled": 0, "fusion_lon": 0.0, "is_reserved": 0, "name": "883a629d0154e156925ace8ce4cc9427", "type": "electric_scooter", "bike_id": "883a629d0154e156925ace8ce4cc9427", "rental_uris": {"ios": "https://dc.lft.to/lastmile_qr_scan", "android": "https://dc.lft.to/lastmile_qr_scan"}, "fusion_lat": 0.0}, {"lat": 38.881222, "lon": -77.01650066666667, "is_disabled": 0, "fusion_lon": 0.0, "is_reserved": 0, "name": "a611514543cf89e3a3c202218d0bbf57", "type": "electric_scooter", "bike_id": "a611514543cf89e3a3c202218d0bbf57", "rental_uris": {"ios": "https://dc.lft.to/lastmile_qr_scan", "android": "https://dc.lft.to/lastmile_qr_scan"}, "fusion_lat": 0.0}, {"lat": 38.90146683333333, "lon": -77.03508233333334, "is_disabled": 0, "fusion_lon": 0.0, "is_reserved": 0, "name": "10b3251732df387783315c5729bd737b", "type": "electric_scooter", "bike_id": "10b3251732df387783315c5729bd737b", "rental_uris": {"ios": "https://dc.lft.to/lastmile_qr_scan", "android": "https://dc.lft.to/lastmile_qr_scan"}, "fusion_lat": 0.0}, {"lat": 38.90891533333333, "lon": -77.04373966666667, "is_disabled": 0, "fusion_lon": 0.0, "is_reserved": 0, "name": "c3cbdfcd54e35b433d3e8d475f9b261b", "type": "electric_scooter", "bike_id": "c3cbdfcd54e35b433d3e8d475f9b261b", "rental_uris": {"ios": "https://dc.lft.to/lastmile_qr_scan", "android": "https://dc.lft.to/lastmile_qr_scan"}, "fusion_lat": 0.0}, {"lat": 38.8739115, "lon": -77.0002455, "is_disabled": 0, "fusion_lon": 0.0, "is_reserved": 0, "name": "3e7ae6e7df3cdbdc6452f29a893c54d6", "type": "electric_scooter", "bike_id": "3e7ae6e7df3cdbdc6452f29a893c54d6", "rental_uris": {"ios": "https://dc.lft.to/lastmile_qr_scan", "android": "https://dc.lft.to/lastmile_qr_scan"}, "fusion_lat": 0.0}, {"lat": 38.8959785, "lon": -77.02347166666667, "is_disabled": 0, "fusion_lon": 0.0, "is_reserved": 0, "name": "e02e3efc3ba24467214d87c27cd6c907", "type": "electric_scooter", "bike_id": "e02e3efc3ba24467214d87c27cd6c907", "rental_uris": {"ios": "https://dc.lft.to/lastmile_qr_scan", "android": "https://dc.lft.to/lastmile_qr_scan"}, "fusion_lat": 0.0}, {"lat": 38.95286683333333, "lon": -77.03628783333333, "is_disabled": 0, "fusion_lon": 0.0, "is_reserved": 0, "name": "9397d66207c5e10044d848c6ca5dfeb1", "type": "electric_scooter", "bike_id": "9397d66207c5e10044d848c6ca5dfeb1", "rental_uris": {"ios": "https://dc.lft.to/lastmile_qr_scan", "android": "https://dc.lft.to/lastmile_qr_scan"}, "fusion_lat": 0.0}, {"lat": 38.90028383333333, "lon": -77.01180833333333, "is_disabled": 0, "fusion_lon": 0.0, "is_reserved": 0, "name": "3148763fc16aa50b95acf5c326fe19b0", "type": "electric_scooter", "bike_id": "3148763fc16aa50b95acf5c326fe19b0", "rental_uris": {"ios": "https://dc.lft.to/lastmile_qr_scan", "android": "https://dc.lft.to/lastmile_qr_scan"}, "fusion_lat": 0.0}, {"lat": 38.909711333333334, "lon": -77.018453, "is_disabled": 0, "fusion_lon": 0.0, "is_reserved": 0, "name": "359d4203e716303f23465b09d9a3d60c", "type": "electric_scooter", "bike_id": "359d4203e716303f23465b09d9a3d60c", "rental_uris": {"ios": "https://dc.lft.to/lastmile_qr_scan", "android": "https://dc.lft.to/lastmile_qr_scan"}, "fusion_lat": 0.0}, {"lat": 38.92903116666667, "lon": -77.02743766666667, "is_disabled": 0, "fusion_lon": 0.0, "is_reserved": 0, "name": "00c235b15db2d1b7028ea311b6230255", "type": "electric_scooter", "bike_id": "00c235b15db2d1b7028ea311b6230255", "rental_uris": {"ios": "https://dc.lft.to/lastmile_qr_scan", "android": "https://dc.lft.to/lastmile_qr_scan"}, "fusion_lat": 0.0}, {"lat": 38.90559116666667, "lon": -77.00303166666667, "is_disabled": 0, "fusion_lon": 0.0, "is_reserved": 0, "name": "80d2f40c3c99f600db5d152a64d40d0c", "type": "electric_scooter", "bike_id": "80d2f40c3c99f600db5d152a64d40d0c", "rental_uris": {"ios": "https://dc.lft.to/lastmile_qr_scan", "android": "https://dc.lft.to/lastmile_qr_scan"}, "fusion_lat": 0.0}, {"lat": 38.95674266666666, "lon": -77.013565, "is_disabled": 0, "fusion_lon": 0.0, "is_reserved": 0, "name": "5c514986a4c489e57b4e686f554d4ebc", "type": "electric_scooter", "bike_id": "5c514986a4c489e57b4e686f554d4ebc", "rental_uris": {"ios": "https://dc.lft.to/lastmile_qr_scan", "android": "https://dc.lft.to/lastmile_qr_scan"}, "fusion_lat": 0.0}, {"lat": 38.912521, "lon": -77.01973583333333, "is_disabled": 0, "fusion_lon": 0.0, "is_reserved": 0, "name": "288412ec8d5f80ea7b58a03f852e10f8", "type": "electric_scooter", "bike_id": "288412ec8d5f80ea7b58a03f852e10f8", "rental_uris": {"ios": "https://dc.lft.to/lastmile_qr_scan", "android": "https://dc.lft.to/lastmile_qr_scan"}, "fusion_lat": 0.0}, {"lat": 38.93629083333333, "lon": -77.05882433333333, "is_disabled": 0, "fusion_lon": 0.0, "is_reserved": 0, "name": "523c4669b306b8a865045e3a67176a35", "type": "electric_scooter", "bike_id": "523c4669b306b8a865045e3a67176a35", "rental_uris": {"ios": "https://dc.lft.to/lastmile_qr_scan", "android": "https://dc.lft.to/lastmile_qr_scan"}, "fusion_lat": 0.0}, {"lat": 38.902551333333335, "lon": -77.0356, "is_disabled": 0, "fusion_lon": 0.0, "is_reserved": 0, "name": "5f91344b148073ba08c319c03f29574b", "type": "electric_scooter", "bike_id": "5f91344b148073ba08c319c03f29574b", "rental_uris": {"ios": "https://dc.lft.to/lastmile_qr_scan", "android": "https://dc.lft.to/lastmile_qr_scan"}, "fusion_lat": 0.0}, {"lat": 38.956325, "lon": -76.93867883333333, "is_disabled": 0, "fusion_lon": 0.0, "is_reserved": 0, "name": "15cfdb571d3e90a903c7a2e99e2acfea", "type": "electric_bike", "bike_id": "15cfdb571d3e90a903c7a2e99e2acfea", "rental_uris": {"ios": "https://dc.lft.to/lastmile_qr_scan", "android": "https://dc.lft.to/lastmile_qr_scan"}, "fusion_lat": 0.0},