{"data": {"bikes": [{"fusion_lat": 0.0, "is_disabled": 0, "lat": 38.906833166666665, "lon": -77.06312266666667, "fusion_lon": 0.0, "bike_id": "0046774075fe83aeddd1bcefe5621cfd", "type": "electric_scooter", "name": "0046774075fe83aeddd1bcefe5621cfd", "is_reserved": 0, "rental_uris": {"ios": "https://dc.lft.to/lastmile_qr_scan", "android": "https://dc.lft.to/lastmile_qr_scan"}}, {"fusion_lat": 0.0, "is_disabled": 0, "lat": 38.90551383333333, "lon": -77.03795833333334, "fusion_lon": 0.0, "bike_id": "6a9c9a07e314a4b00cf682268ed6d24d", "type": "electric_scooter", "name": "6a9c9a07e314a4b00cf682268ed6d24d", "is_reserved": 0, "rental_uris": {"ios": "https://dc.lft.to/lastmile_qr_scan", "android": "https://dc.lft.to/lastmile_qr_scan"}}, {"fusion_lat": 0.0, "is_disabled": 0, "lat": 38.916247, "lon": -77.048456, "fusion_lon": 0.0, "bike_id": "b1f54ce1dbe8905122c5974b558a3c9c", "type": "electric_scooter", "name": "b1f54ce1dbe8905122c5974b558a3c9c", "is_reserved": 0, "rental_uris": {"ios": "https://dc.lft.to/lastmile_qr_scan", "android": "https://dc.lft.to/lastmile_qr_scan"}}, {"fusion_lat": 0.0, "is_disabled": 0, "lat": 38.92671333333333, "lon": -77.015141, "fusion_lon": 0.0, "bike_id": "92e1d1695b460812000235a4f4387f85", "type": "electric_scooter", "name": "92e1d1695b460812000235a4f4387f85", "is_reserved": 0, "rental_uris": {"ios": "https://dc.lft.to/lastmile_qr_scan", "android": "https://dc.lft.to/lastmile_qr_scan"}}, {"fusion_lat": 0.0, "is_disabled": 0, "lat": 38.8826635, "lon": -77.00552816666666, "fusion_lon": 0.0, "bike_id": "73b102cdaabd86bfde50555ebeb37ec7", "type": "electric_bike", "name": "73b102cdaabd86bfde50555ebeb37ec7", "is_reserved": 0, "rental_uris": {"ios": "https://dc.lft.to/lastmile_qr_scan", "android": "https://dc.lft.to/lastmile_qr_scan"}}, {"fusion_lat": 0.0, "is_disabled": 0, "lat": 38.9053355, "lon": -77.0532805, "fusion_lon": 0.0, "bike_id": "b50bedde57a9306558e4ff0a36310786", "type": "electric_scooter", "name": "b50bedde57a9306558e4ff0a36310786", "is_reserved": 0, "rental_uris": {"ios": "https://dc.lft.to/lastmile_qr_scan", "android": "https://dc.lft.to/lastmile_qr_scan"}}, {"fusion_lat": 0.0, "is_disabled": 0, "lat": 38.909883, "lon": -77.04441033333333, "fusion_lon": 0.0, "bike_id": "2f1ad1cbb77d178f554b19fa02454007", "type": "electric_scooter", "name": "2f1ad1cbb77d178f554b19fa02454007", "is_reserved": 0, "rental_uris": {"ios": "https://dc.lft.to/lastmile_qr_scan", "android": "https://dc.lft.to/lastmile_qr_scan"}}, {"fusion_lat": 0.0, "is_disabled": 0, "lat": 38.892197833333334, "lon": -77.04365466666667, "fusion_lon": 0.0, "bike_id": "a554eba8e6de912716814b2e93d76f71", "type": "electric_scooter", "name": "a554eba8e6de912716814b2e93d76f71", "is_reserved": 0, "rental_uris": {"ios": "https://dc.lft.to/lastmile_qr_scan", "android": "https://dc.lft.to/lastmile_qr_scan"}}, {"fusion_lat": 0.0, "is_disabled": 0, "lat": 38.9238345, "lon": -77.02934233333333, "fusion_lon": 0.0, "bike_id": "fb3755fc951caf9c9e7f19f4d4ab494e", "type": "electric_scooter", "name": "fb3755fc951caf9c9e7f19f4d4ab494e", "is_reserved": 0, "rental_uris": {"ios": "https://dc.lft.to/lastmile_qr_scan", "android": "https://dc.lft.to/lastmile_qr_scan"}}, {"fusion_lat": 0.0, "is_disabled": 0, "lat": 38.92755616666667, "lon": -77.032056, "fusion_lon": 0.0, "bike_id": "4d15b361a7869392459c3c6d5519a7aa", "type": "electric_scooter", "name": "4d15b361a7869392459c3c6d5519a7aa", "is_reserved": 0, "rental_uris": {"ios": "https://dc.lft.to/lastmile_qr_scan", "android": "https://dc.lft.to/lastmile_qr_scan"}}, {"fusion_lat": 0.0, "is_disabled": 0, "lat": 38.90629083333334, "lon": -77.062857, "fusion_lon": 0.0, "bike_id": "ba4c644c32768d5104129ff87512599c", "type": "electric_scooter", "name": "ba4c644c32768d5104129ff87512599c", "is_reserved": 0, "rental_uris": {"ios": "https://dc.lft.to/lastmile_qr_scan", "android": "https://dc.lft.to/lastmile_qr_scan"}}, {"fusion_lat": 0.0, "is_disabled": 0, "lat": 38.90510183333333, "lon": -77.06456583333333, "fusion_lon": 0.0, "bike_id": "95106cdef07922f457113a7880c86136", "type": "electric_scooter", "name": "95106cdef07922f457113a7880c86136", "is_reserved": 0, "rental_uris": {"ios": "https://dc.lft.to/lastmile_qr_scan", "android": "https://dc.lft.to/lastmile_qr_scan"}}, {"fusion_lat": 0.0, "is_disabled": 0, "lat": 38.922376, "lon": -77.0365975, "fusion_lon": 0.0, "bike_id": "af585499b325d581916deb1bdf393055", "type": "electric_scooter", "name": "af585499b325d581916deb1bdf393055", "is_reserved": 0, "rental_uris": {"ios": "https://dc.lft.to/lastmile_qr_scan", "android": "https://dc.lft.to/lastmile_qr_scan"}}, {"fusion_lat": 0.0, "is_disabled": 0, "lat": 38.9125295, "lon": -77.038699, "fusion_lon": 0.0, "bike_id": "b6d122a8c07c34f39c39ec08ab86ef83", "type": "electric_scooter", "name": "b6d122a8c07c34f39c39ec08ab86ef83", "is_reserved": 0, "rental_uris": {"ios": "https://dc.lft.to/lastmile_qr_scan", "android": "https://dc.lft.to/lastmile_qr_scan"}}, {"fusion_lat": 0.0, "is_disabled": 0, "lat": 38.92146366666667, "lon": -77.02205783333333, "fusion_lon": 0.0, "bike_id": "07d5a16ddc569f2d51578c5def6d9423", "type": "electric_scooter", "name": "07d5a16ddc569f2d51578c5def6d9423", "is_reserved": 0, "rental_uris": {"ios": "https://dc.lft.to/lastmile_qr_scan", "android": "https://dc.lft.to/lastmile_qr_scan"}}, {"fusion_lat": 0.0, "is_disabled": 0, "lat": 38.933417166666665, "lon": -76.994419, "fusion_lon": 0.0, "bike_id": "abaa0832ff8abb1cd56297485b23d8b4", "type": "electric_scooter", "name": "abaa0832ff8abb1cd56297485b23d8b4", "is_reserved": 0, "rental_uris": {"ios": "https://dc.lft.to/lastmile_qr_scan", "android": "https://dc.lft.to/lastmile_qr_scan"}}, {"fusion_lat": 0.0, "is_disabled": 0, "lat": 38.90388016666667, "lon": -76.98943716666666, "fusion_lon": 0.0, "bike_id": "9c2994aac8fb65c0abd31589f06906e9", "type": "electric_scooter", "name": "9c2994aac8fb65c0abd31589f06906e9", "is_reserved": 0, "rental_uris": {"ios": "https://dc.lft.to/lastmile_qr_scan", "android": "https://dc.lft.to/lastmile_qr_scan"}}, {"fusion_lat": 0.0, "is_disabled": 0, "lat": 38.89613833333333, "lon": -76.90755483333334, "fusion_lon": 0.0, "bike_id": "558b95e63dc002f4adec9829b0ca4c0a", "type": "electric_bike", "name": "558b95e63dc002f4adec9829b0ca4c0a", "is_reserved": 0, "rental_uris": {"ios": "https://dc.lft.to/lastmile_qr_scan", "android": "https://dc.lft.to/lastmile_qr_scan"}}, {"fusion_lat": 0.0, "is_disabled": 0, "lat": 38.892980666666666, "lon": -77.021792, "fusion_lon": 0.0, "bike_id": "188552cc40f7af4e1130433aba54438c", "type": "electric_scooter", "name": "188552cc40f7af4e1130433aba54438c", "is_reserved": 0, "rental_uris": {"ios": "https://dc.lft.to/lastmile_qr_scan", "android": "https://dc.lft.to/lastmile_qr_scan"}}, {"fusion_lat": 0.0, "is_disabled": 0, "lat": 38.942614666666664, "lon": -77.02843166666666, "fusion_lon": 0.0, "bike_id": "60709b6a4e556e2dbc47ed873825dbd9", "type": "electric_bike", "name": "60709b6a4e556e2dbc47ed873825dbd9", "is_reserved": 0, "rental_uris": {"ios": "https://dc.lft.to/lastmile_qr_scan", "android": "https://dc.lft.to/lastmile_qr_scan"}}, {"fusion_lat": 0.0, "is_disabled": 0, "lat": 38.908251166666666, "lon": -77.00222916666667, "fusion_lon": 0.0, "bike_id": "f229211ee46074ec427e7fca28303c90", "type": "electric_scooter", "name": "f229211ee46074ec427e7fca28303c90", "is_reserved": 0, "rental_uris": {"ios": "https://dc.lft.to/lastmile_qr_scan", "android": "https://dc.lft.to/lastmile_qr_scan"}}, {"fusion_lat": 0.0, "is_disabled": 0, "lat": 38.88474816666667, "lon": -77.02206566666666, "fusion_lon": 0.0, "bike_id": "8d812da2d649095f7abbc263983c930c", "type": "electric_scooter", "name": "8d812da2d649095f7abbc263983c930c", "is_reserved": 0, "rental_uris": {"ios": "https://dc.lft.to/lastmile_qr_scan", "android": "https://dc.lft.to/lastmile_qr_scan"}}, {"fusion_lat": 0.0, "is_disabled": 0, "lat": 38.90595833333333, "lon": -77.05021216666667, "fusion_lon": 0.0, "bike_id": "fd9aa627b1daa0cb25efc9ff6e796145", "type": "electric_scooter", "name": "fd9aa627b1daa0cb25efc9ff6e796145", "is_reserved": 0, "rental_uris": {"ios": "https://dc.lft.to/lastmile_qr_scan", "android": "https://dc.lft.to/lastmile_qr_scan"}}, {"fusion_lat": 0.0, "is_disabled": 0, "lat": 38.904881833333334, "lon": -76.94962316666667, "fusion_lon": 0.0, "bike_id": "90f741370135e6f3d6d243162cc967c5", "type": "electric_scooter", "name": "90f741370135e6f3d6d243162cc967c5", "is_reserved": 0, "rental_uris": {"ios": "https://dc.lft.to/lastmile_qr_scan", "android": "https://dc.lft.to/lastmile_qr_scan"}}, {"fusion_lat": 0.0, "is_disabled": 0, "lat": 38.92332233333333, "lon": -77.0190565, "fusion_lon": 0.0, "bike_id": "058843f94f62f8b25fc8a1cfed249d96", "type": "electric_scooter", "name": "058843f94f62f8b25fc8a1cfed249d96", "is_reserved": 0, "rental_uris": {"ios": "https://dc.lft.to/lastmile_qr_scan", "android": "https://dc.lft.to/lastmile_qr_scan"}}, {"fusion_lat": 0.0, "is_disabled": 0, "lat": 38.920943666666666, "lon": -77.03178083333333, "fusion_lon": 0.0, "bike_id": "0ef483f2604afc68e85ed1308f761a83", "type": "electric_scooter", "name": "0ef483f2604afc68e85ed1308f761a83", "is_reserved": 0, "rental_uris": {"ios": "https://dc.lft.to/lastmile_qr_scan", "android": "https://dc.lft.to/lastmile_qr_scan"}}, {"fusion_lat": 0.0, "is_disabled": 0, "lat": 38.89599166666667, "lon": -76.97250333333334, "fusion_lon": 0.0, "bike_id": "1d5550bb456579f7873c182e5b9d9102", "type": "electric_scooter", "name": "1d5550bb456579f7873c182e5b9d9102", "is_reserved": 0, "rental_uris": {"ios": "https://dc.lft.to/lastmile_qr_scan", "android": "https://dc.lft.to/lastmile_qr_scan"}}, {"fusion_lat": 0.0, "is_disabled": 0, "lat": 38.90225183333333, "lon": -77.03467516666667, "fusion_lon": 0.0, "bike_id": "1f651c86c6a3e99e996792191d80921a", "type": "electric_scooter", "name": "1f651c86c6a3e99e996792191d80921a", "is_reserved": 0, "rental_uris": {"ios": "https://dc.lft.to/lastmile_qr_scan", "android": "https://dc.lft.to/lastmile_qr_scan"}}, {"fusion_lat": 0.0, "is_disabled": 0, "lat": 38.910997333333334, "lon": -77.0735465, "fusion_lon": 0.0, "bike_id": "041a8cc8cdc227a158a839e481c9da42", "type": "electric_scooter", "name": "041a8cc8cdc227a158a839e481c9da42", "is_reserved": 0, "rental_uris": {"ios": "https://dc.lft.to/lastmile_qr_scan", "android": "https://dc.lft.to/lastmile_qr_scan"}}, {"fusion_lat": 0.0, "is_disabled": 0, "lat": 38.99475283333334, "lon": -77.02917316666667, "fusion_lon": 0.0, "bike_id": "fba0d9e79d9a6199c445a30e0996f135", "type": "electric_bike", "name": "fba0d9e79d9a6199c445a30e0996f135", "is_reserved": 0, "rental_uris": {"ios": "https://dc.lft.to/lastmile_qr_scan", "android": "https://dc.lft.to/lastmile_qr_scan"}}, {"fusion_lat": 0.0, "is_disabled": 0, "lat": 38.90850583333334, "lon": -76.99801983333333, "fusion_lon": 0.0, "bike_id": "62cf98e06aa5cdfc290766739894a4a4", "type": "electric_scooter", "name": "62cf98e06aa5cdfc290766739894a4a4", "is_reserved": 0, "rental_uris": {"ios": "https://dc.lft.to/lastmile_qr_scan", "android": "https://dc.lft.to/lastmile_qr_scan"}}, {"fusion_lat": 0.0, "is_disabled": 0, "lat": 38.921501666666664, "lon": -77.03459266666667, "fusion_lon": 0.0, "bike_id": "2ab3902874e2dd21d8405ae52f861769", "type": "electric_scooter", "name": "2ab3902874e2dd21d8405ae52f861769", "is_reserved": 0, "rental_uris": {"ios": "https://dc.lft.to/lastmile_qr_scan", "android": "https://dc.lft.to/lastmile_qr_scan"}}, {"fusion_lat": 0.0, "is_disabled": 0, "lat": 38.920556833333336, "lon": -77.0439935, "fusion_lon": 0.0, "bike_id": "78e074a3910cbd7313d2b58f99a25782", "type": "electric_scooter", "name": "78e074a3910cbd7313d2b58f99a25782", "is_reserved": 0, "rental_uris": {"ios": "https://dc.lft.to/lastmile_qr_scan", "android": "https://dc.lft.to/lastmile_qr_scan"}}, {"fusion_lat": 0.0, "is_disabled": 0, "lat": 38.884781833333335, "lon": -77.02639416666666, "fusion_lon": 0.0, "bike_id": "e4746d73295d36838fc34050508ec08e", "type": "electric_scooter", "name": "e4746d73295d36838fc34050508ec08e", "is_reserved": 0, "rental_uris": {"ios": "https://dc.lft.to/lastmile_qr_scan", "android": "https://dc.lft.to/lastmile_qr_scan"}}, {"fusion_lat": 0.0, "is_disabled": 0, "lat": 38.924192166666664, "lon": -77.020123, "fusion_lon": 0.0, "bike_id": "efc7664ce2d2e39a0df77c8711adaae1", "type": "electric_scooter", "name": "efc7664ce2d2e39a0df77c8711adaae1", "is_reserved": 0, "rental_uris": {"ios": "https://dc.lft.to/lastmile_qr_scan", "android": "https://dc.lft.to/lastmile_qr_scan"}}, {"fusion_lat": 0.0, "is_disabled": 0, "lat": 38.915622666666664, "lon": -77.00622666666666, "fusion_lon": 0.0, "bike_id": "7e0357e3b3cb3312dbedc45e7c0d0891", "type": "electric_bike", "name": "7e0357e3b3cb3312dbedc45e7c0d0891", "is_reserved": 0, "rental_uris": {"ios": "https://dc.lft.to/lastmile_qr_scan", "android": "https://dc.lft.to/lastmile_qr_scan"}}, {"fusion_lat": 0.0, "is_disabled": 0, "lat": 38.919694666666665, "lon": -77.07121333333333, "fusion_lon": 0.0, "bike_id": "6fb051f15fa99d567d56edda371ccaa5", "type": "electric_scooter", "name": "6fb051f15fa99d567d56edda371ccaa5", "is_reserved": 0, "rental_uris": {"ios": "https://dc.lft.to/lastmile_qr_scan", "android": "https://dc.lft.to/lastmile_qr_scan"}}, {"fusion_lat": 0.0, "is_disabled": 0, "lat": 38.91624433333333, "lon": -77.03188533333334, "fusion_lon": 0.0, "bike_id": "f1711410f94d79fc5ec7b398e6643f0b", "type": "electric_scooter", "name": "f1711410f94d79fc5ec7b398e6643f0b", "is_reserved": 0, "rental_uris": {"ios": "https://dc.lft.to/lastmile_qr_scan", "android": "https://dc.lft.to/lastmile_qr_scan"}}, {"fusion_lat": 0.0, "is_disabled": 0, "lat": 38.88270833333333, "lon": -76.93558333333333, "fusion_lon": 0.0, "bike_id": "5e403f0e6f3e3fc4a0f6a923b7d124fb", "type": "electric_scooter", "name": "5e403f0e6f3e3fc4a0f6a923b7d124fb", "is_reserved": 0, "rental_uris": {"ios": "https://dc.lft.to/lastmile_qr_scan", "android": "https://dc.lft.to/lastmile_qr_scan"}}, {"fusion_lat": 0.0, "is_disabled": 0, "lat": 38.90372933333333, "lon": -77.02983566666667, "fusion_lon": 0.0, "bike_id": "50718d22f6151dd9c5955f3e94f14002", "type": "electric_scooter", "name": "50718d22f6151dd9c5955f3e94f14002", "is_reserved": 0, "rental_uris": {"ios": "https://dc.lft.to/lastmile_qr_scan", "android": "https://dc.lft.to/lastmile_qr_scan"}}, {"fusion_lat": 0.0, "is_disabled": 0, "lat": 38.89636016666667, "lon": -77.04369033333333, "fusion_lon": 0.0, "bike_id": "6335ab40ab5e406386c2a708cd09abcb", "type": "electric_scooter", "name": "6335ab40ab5e406386c2a708cd09abcb", "is_reserved": 0, "rental_uris": {"ios": "https://dc.lft.to/lastmile_qr_scan", "android": "https://dc.lft.to/lastmile_qr_scan"}}, {"fusion_lat": 0.0, "is_disabled": 0, "lat": 38.89892416666667, "lon": -77.03970083333333, "fusion_lon": 0.0, "bike_id": "8c21b82db6982c58d3884421b116a5a1", "type": "electric_scooter", "name": "8c21b82db6982c58d3884421b116a5a1", "is_reserved": 0, "rental_uris": {"ios": "https://dc.lft.to/lastmile_qr_scan", "android": "https://dc.lft.to/lastmile_qr_scan"}}, {"fusion_lat": 0.0, "is_disabled": 0, "lat": 38.92354066666667, "lon": -77.05404316666667, "fusion_lon": 0.0, "bike_id": "f6f82afd3ad449adbec0a7292f5ee4bd", "type": "electric_scooter", "name": "f6f82afd3ad449adbec0a7292f5ee4bd", "is_reserved": 0, "rental_uris": {"ios": "https://dc.lft.to/lastmile_qr_scan", "android": "https://dc.lft.to/lastmile_qr_scan"}}, {"fusion_lat": 0.0, "is_disabled": 0, "lat": 38.9027385, "lon": -77.04265716666667, "fusion_lon": 0.0, "bike_id": "1fe6e0951c68e4861e07735a99c41bb4", "type": "electric_scooter", "name": "1fe6e0951c68e4861e07735a99c41bb4", "is_reserved": 0, "rental_uris": {"ios": "https://dc.lft.to/lastmile_qr_scan", "android": "https://dc.lft.to/lastmile_qr_scan"}}, {"fusion_lat": 0.0, "is_disabled": 0, "lat": 38.883805833333334, "lon": -77.0088785, "fusion_lon": 0.0, "bike_id": "e34efb1e65f369b5767c20612cd42288", "type": "electric_scooter", "name": "e34efb1e65f369b5767c20612cd42288", "is_reserved": 0, "rental_uris": {"ios": "https://dc.lft.to/lastmile_qr_scan", "android": "https://dc.lft.to/lastmile_qr_scan"}}, {"fusion_lat": 0.0, "is_disabled": 0, "lat": 38.900312166666666, "lon": -76.972247, "fusion_lon": 0.0, "bike_id": "6cfb700dbf2838ad49c7f09a31871b63", "type": "electric_bike", "name": "6cfb700dbf2838ad49c7f09a31871b63", "is_reserved": 0, "rental_uris": {"ios": "https://dc.lft.to/lastmile_qr_scan", "android": "https://dc.lft.to/lastmile_qr_scan"}}, {"fusion_lat": 0.0, "is_disabled": 0, "lat": 39.03424166666667, "lon": -77.04306316666667, "fusion_lon": 0.0, "bike_id": "33c44efa4824f7b694bd2b031affcb67", "type": "electric_bike", "name": "33c44efa4824f7b694bd2b031affcb67", "is_reserved": 0, "rental_uris": {"ios": "https://dc.lft.to/lastmile_qr_scan", "android": "https://dc.lft.to/lastmile_qr_scan"}}, {"fusion_lat": 0.0, "is_disabled": 0, "lat": 38.923714333333336, "lon": -77.0514695, "fusion_lon": 0.0, "bike_id": "637e5eb309aa0a41792ebc1bb4ed0b56", "type": "electric_scooter", "name": "637e5eb309aa0a41792ebc1bb4ed0b56", "is_reserved": 0, "rental_uris": {"ios": "https://dc.lft.to/lastmile_qr_scan", "android": "https://dc.lft.to/lastmile_qr_scan"}}, {"fusion_lat": 0.0, "is_disabled": 0, "lat": 38.9023505, "lon": -77.038403, "fusion_lon": 0.0, "bike_id": "96b4bf772f71133d21e0e57e76f42258", "type": "electric_scooter", "name": "96b4bf772f71133d21e0e57e76f42258", "is_reserved": 0, "rental_uris": {"ios": "https://dc.lft.to/lastmile_qr_scan", "android": "https://dc.lft.to/lastmile_qr_scan"}}, {"fusion_lat": 0.0, "is_disabled": 0, "lat": 38.915622166666665, "lon": -77.03202516666667, "fusion_lon": 0.0, "bike_id": "c9a7c7842e6116750d4e16b25c96e445", "type": "electric_scooter", "name": "c9a7c7842e6116750d4e16b25c96e445", "is_reserved": 0, "rental_uris": {"ios": "https://dc.lft.to/lastmile_qr_scan", "android": "https://dc.lft.to/lastmile_qr_scan"}}, {"fusion_lat": 0.0, "is_disabled": 0, "lat": 38.902465666666664, "lon": -77.02691083333333, "fusion_lon": 0.0, "bike_id": "25de06bc0150ec1ba3eddb4180081ce7", "type": "electric_scooter", "name": "25de06bc0150ec1ba3eddb4180081ce7", "is_reserved": 0, "rental_uris": {"ios": "https://dc.lft.to/lastmile_qr_scan", "android": "https://dc.lft.to/lastmile_qr_scan"}}, {"fusion_lat": 0.0, "is_disabled": 0, "lat": 38.91707266666667, "lon": -77.034152, "fusion_lon": 0.0, "bike_id": "f6130370f3aa1e4bdfa98112a24fbfd7", "type": "electric_scooter", "name": "f6130370f3aa1e4bdfa98112a24fbfd7", "is_reserved": 0, "rental_uris": {"ios": "https://dc.lft.to/lastmile_qr_scan", "android": "https://dc.lft.to/lastmile_qr_scan"}}, {"fusion_lat": 0.0, "is_disabled": 0, "lat": 38.89220366666667, "lon": -77.022222, "fusion_lon": 0.0, "bike_id": "1bc55c9b3ba82941e533b42e7ade07e1", "type": "electric_scooter", "name": "1bc55c9b3ba82941e533b42e7ade07e1", "is_reserved": 0, "rental_uris": {"ios": "https://dc.lft.to/lastmile_qr_scan", "android": "https://dc.lft.to/lastmile_qr_scan"}}, {"fusion_lat": 0.0, "is_disabled": 0, "lat": 38.945615333333336, "lon": -77.07963883333333, "fusion_lon": 0.0, "bike_id": "d8697d391b2b8b71f35ee4258f78e157", "type": "electric_scooter", "name": "d8697d391b2b8b71f35ee4258f78e157", "is_reserved": 0, "rental_uris": {"ios": "https://dc.lft.to/lastmile_qr_scan", "android": "https://dc.lft.to/lastmile_qr_scan"}}, {"fusion_lat": 0.0, "is_disabled": 0, "lat": 38.892184666666665, "lon": -77.04499483333333, "fusion_lon": 0.0, "bike_id": "aca7bee59cf05c227390a39ddadbba3f", "type": "electric_scooter", "name": "aca7bee59cf05c227390a39ddadbba3f", "is_reserved": 0, "rental_uris": {"ios": "https://dc.lft.to/lastmile_qr_scan", "android": "https://dc.lft.to/lastmile_qr_scan"}}, {"fusion_lat": 0.0, "is_disabled": 0, "lat": 38.956883, "lon": -77.0222925, "fusion_lon": 0.0, "bike_id": "45a0e007c43d77dd1dd80c87d2a0d13c", "type": "electric_scooter", "name": "45a0e007c43d77dd1dd80c87d2a0d13c", "is_reserved": 0, "rental_uris": {"ios": "https://dc.lft.to/lastmile_qr_scan", "android": "https://dc.lft.to/lastmile_qr_scan"}}, {"fusion_lat": 0.0, "is_disabled": 0, "lat": 38.884381833333336, "lon": -76.95768416666667, "fusion_lon": 0.0, "bike_id": "e06f5a9a359f8b0780099d950fe55f16", "type": "electric_scooter", "name": "e06f5a9a359f8b0780099d950fe55f16", "is_reserved": 0, "rental_uris": {"ios": "https://dc.lft.to/lastmile_qr_scan", "android": "https://dc.lft.to/lastmile_qr_scan"}}, {"fusion_lat": 0.0, "is_disabled": 0, "lat": 38.95729716666666, "lon": -77.02405116666667, "fusion_lon": 0.0, "bike_id": "c4e8a4503ae5ec2f7bbd46b8aa96c254", "type": "electric_scooter", "name": "c4e8a4503ae5ec2f7bbd46b8aa96c254", "is_reserved": 0, "rental_uris": {"ios": "https://dc.lft.to/lastmile_qr_scan", "android": "https://dc.lft.to/lastmile_qr_scan"}}, {"fusion_lat": 0.0, "is_disabled": 0, "lat": 38.900375333333336, "lon": -77.01526116666666, "fusion_lon": 0.0, "bike_id": "b610d27623f272026ecd25a009aa2b77", "type": "electric_scooter", "name": "b610d27623f272026ecd25a009aa2b77", "is_reserved": 0, "rental_uris": {"ios": "https://dc.lft.to/lastmile_qr_scan", "android": "https://dc.lft.to/lastmile_qr_scan"}}, {"fusion_lat": 0.0, "is_disabled": 0, "lat": 38.88489666666667, "lon": -77.01980333333333, "fusion_lon": 0.0, "bike_id": "ebc87ca96d59b594f18f797034c4912b", "type": "electric_scooter", "name": "ebc87ca96d59b594f18f797034c4912b", "is_reserved": 0, "rental_uris": {"ios": "https://dc.lft.to/lastmile_qr_scan", "android": "https://dc.lft.to/lastmile_qr_scan"}}, {"fusion_lat": 0.0, "is_disabled": 0, "lat": 38.927601333333335, "lon": -77.03213383333333, "fusion_lon": 0.0, "bike_id": "66c67eeeb4e0f7d1801ae72eddf94910", "type": "electric_scooter", "name": "66c67eeeb4e0f7d1801ae72eddf94910", "is_reserved": 0, "rental_uris": {"ios": "https://dc.lft.to/lastmile_qr_scan", "android": "https://dc.lft.to/lastmile_qr_scan"}}, {"fusion_lat": 0.0, "is_disabled": 0, "lat": 38.8584415, "lon": -76.99047733333333, "fusion_lon": 0.0, "bike_id": "d51c0ad92ae5b7888eb6638fc5abf7c2", "type": "electric_scooter", "name": "d51c0ad92ae5b7888eb6638fc5abf7c2", "is_reserved": 0, "rental_uris": {"ios": "https://dc.lft.to/lastmile_qr_scan", "android": "https://dc.lft.to/lastmile_qr_scan"}}, {"fusion_lat": 0.0, "is_disabled": 0, "lat": 38.924823333333336, "lon": -77.02281166666667, "fusion_lon": 0.0, "bike_id": "b2b0c23544255a7fc69598bf394fdb8a", "type": "electric_scooter", "name": "b2b0c23544255a7fc69598bf394fdb8a", "is_reserved": 0, "rental_uris": {"ios": "https://dc.lft.to/lastmile_qr_scan", "android": "https://dc.lft.to/lastmile_qr_scan"}}, {"fusion_lat": 0.0, "is_disabled": 0, "lat": 38.83289083333333, "lon": -77.084191, "fusion_lon": 0.0, "bike_id": "ee08d206692fffa4272cb3112895f2b4", "type": "electric_bike", "name": "ee08d206692fffa4272cb3112895f2b4", "is_reserved": 0, "rental_uris": {"ios": "https://dc.lft.to/lastmile_qr_scan", "android": "https://dc.lft.to/lastmile_qr_scan"}}, {"fusion_lat": 0.0, "is_disabled": 0, "lat": 38.893431, "lon": -77.0033625, "fusion_lon": 0.0, "bike_id": "c9d89419e4cb1750607a14256f6bfb9f", "type": "electric_scooter", "name": "c9d89419e4cb1750607a14256f6bfb9f", "is_reserved": 0, "rental_uris": {"ios": "https://dc.lft.to/lastmile_qr_scan", "android": "https://dc.lft.to/lastmile_qr_scan"}}, {"fusion_lat": 0.0, "is_disabled": 0, "lat": 38.899100833333335, "lon": -77.02471733333333, "fusion_lon": 0.0, "bike_id": "576af44a6dab0c09d6c62b6329d4983a", "type": "electric_scooter", "name": "576af44a6dab0c09d6c62b6329d4983a", "is_reserved": 0, "rental_uris": {"ios": "https://dc.lft.to/lastmile_qr_scan", "android": "https://dc.lft.to/lastmile_qr_scan"}}, {"fusion_lat": 0.0, "is_disabled": 0, "lat": 38.922256, "lon": -77.02695983333334, "fusion_lon": 0.0, "bike_id": "8b32a884cee41849296caad0b396cb7e", "type": "electric_scooter", "name": "8b32a884cee41849296caad0b396cb7e", "is_reserved": 0, "rental_uris": {"ios": "https://dc.lft.to/lastmile_qr_scan", "android": "https://dc.lft.to/lastmile_qr_scan"}}, {"fusion_lat": 0.0, "is_disabled": 0, "lat": 38.931809666666666, "lon": -77.03846983333334, "fusion_lon": 0.0, "bike_id": "0f9d5751805ffad27205a7b59cb275b6", "type": "electric_scooter", "name": "0f9d5751805ffad27205a7b59cb275b6", "is_reserved": 0, "rental_uris": {"ios": "https://dc.lft.to/lastmile_qr_scan", "android": "https://dc.lft.to/lastmile_qr_scan"}}, {"fusion_lat": 0.0, "is_disabled": 0, "lat": 38.895889833333335, "lon": -77.04468166666666, "fusion_lon": 0.0, "bike_id": "e65448bc4d6f747cabd51a76282552aa", "type": "electric_scooter", "name": "e65448bc4d6f747cabd51a76282552aa", "is_reserved": 0, "rental_uris": {"ios": "https://dc.lft.to/lastmile_qr_scan", "android": "https://dc.lft.to/lastmile_qr_scan"}}, {"fusion_lat": 0.0, "is_disabled": 0, "lat": 38.87680966666667, "lon": -77.0006145, "fusion_lon": 0.0, "bike_id": "1dd9f8fb1923137a1c66feedcf8871a4", "type": "electric_scooter", "name": "1dd9f8fb1923137a1c66feedcf8871a4", "is_reserved": 0, "rental_uris": {"ios": "https://dc.lft.to/lastmile_qr_scan", "android": "https://dc.lft.to/lastmile_qr_scan"}}, {"fusion_lat": 0.0, "is_disabled": 0, "lat": 38.9034855, "lon": -77.04274466666666, "fusion_lon": 0.0, "bike_id": "801bee0a5717c67fdd710a399c32282c", "type": "electric_scooter", "name": "801bee0a5717c67fdd710a399c32282c", "is_reserved": 0, "rental_uris": {"ios": "https://dc.lft.to/lastmile_qr_scan", "android": "https://dc.lft.to/lastmile_qr_scan"}}, {"fusion_lat": 0.0, "is_disabled": 0, "lat": 38.904228833333335, "lon": -77.0343655, "fusion_lon": 0.0, "bike_id": "82ac3221e2bb856c85d27fba6f92b40a", "type": "electric_scooter", "name": "82ac3221e2bb856c85d27fba6f92b40a", "is_reserved": 0, "rental_uris": {"ios": "https://dc.lft.to/lastmile_qr_scan", "android": "https://dc.lft.to/lastmile_qr_scan"}}, {"fusion_lat": 0.0, "is_disabled": 0, "lat": 38.896347166666665, "lon": -77.046633, "fusion_lon": 0.0, "bike_id": "48d27c07d25f9f8db2af38eaa5cae352", "type": "electric_scooter", "name": "48d27c07d25f9f8db2af38eaa5cae352", "is_reserved": 0, "rental_uris": {"ios": "https://dc.lft.to/lastmile_qr_scan", "android": "https://dc.lft.to/lastmile_qr_scan"}}, {"fusion_lat": 0.0, "is_disabled": 0, "lat": 38.94101083333334, "lon": -77.06147016666667, "fusion_lon": 0.0, "bike_id": "0d26fc17141300ed459afc79839ae537", "type": "electric_scooter", "name": "0d26fc17141300ed459afc79839ae537", "is_reserved": 0, "rental_uris": {"ios": "https://dc.lft.to/lastmile_qr_scan", "android": "https://dc.lft.to/lastmile_qr_scan"}}, {"fusion_lat": 0.0, "is_disabled": 0, "lat": 38.8934965, "lon": -77.0034195, "fusion_lon": 0.0, "bike_id": "74e46bffc7b918b108d3aee7ede33499", "type": "electric_scooter", "name": "74e46bffc7b918b108d3aee7ede33499", "is_reserved": 0, "rental_uris": {"ios": "https://dc.lft.to/lastmile_qr_scan", "android": "https://dc.lft.to/lastmile_qr_scan"}}, {"fusion_lat": 0.0, "is_disabled": 0, "lat": 38.89667266666667, "lon": -76.98163283333334, "fusion_lon": 0.0, "bike_id": "fb1be05032c64b2828cbd913569d7afb", "type": "electric_bike", "name": "fb1be05032c64b2828cbd913569d7afb", "is_reserved": 0, "rental_uris": {"ios": "https://dc.lft.to/lastmile_qr_scan", "android": "https://dc.lft.to/lastmile_qr_scan"}}, {"fusion_lat": 0.0, "is_disabled": 0, "lat": 38.91687783333333, "lon": -77.0460755, "fusion_lon": 0.0, "bike_id": "69558f975a760fce60b3e929260384ee", "type": "electric_scooter", "name": "69558f975a760fce60b3e929260384ee", "is_reserved": 0, "rental_uris": {"ios": "https://dc.lft.to/lastmile_qr_scan", "android": "https://dc.lft.to/lastmile_qr_scan"}}, {"fusion_lat": 0.0, "is_disabled": 0, "lat": 38.900358, "lon": -77.04880533333333, "fusion_lon": 0.0, "bike_id": "8a28293435d94fd1332f46f60c3eeecc", "type": "electric_scooter", "name": "8a28293435d94fd1332f46f60c3eeecc", "is_reserved": 0, "rental_uris": {"ios": "https://dc.lft.to/lastmile_qr_scan", "android": "https://dc.lft.to/lastmile_qr_scan"}}, {"fusion_lat": 0.0, "is_disabled": 0, "lat": 38.923352, "lon": -77.01910516666666, "fusion_lon": 0.0, "bike_id": "7bc3636d205d7d06dcf68ad3255182de", "type": "electric_scooter", "name": "7bc3636d205d7d06dcf68ad3255182de", "is_reserved": 0, "rental_uris": {"ios": "https://dc.lft.to/lastmile_qr_scan", "android": "https://dc.lft.to/lastmile_qr_scan"}}, {"fusion_lat": 0.0, "is_disabled": 0, "lat": 38.93462266666667, "lon": -77.05809266666667, "fusion_lon": 0.0, "bike_id": "0e48a54cbe567f515211511dfa0e5652", "type": "electric_scooter", "name": "0e48a54cbe567f515211511dfa0e5652", "is_reserved": 0, "rental_uris": {"ios": "https://dc.lft.to/lastmile_qr_scan", "android": "https://dc.lft.to/lastmile_qr_scan"}}, {"fusion_lat": 0.0, "is_disabled": 0, "lat": 38.92781816666667, "lon": -77.03081316666666, "fusion_lon": 0.0, "bike_id": "f3864fb3ac851a362dcfd33228b0b8b1", "type": "electric_scooter", "name": "f3864fb3ac851a362dcfd33228b0b8b1", "is_reserved": 0, "rental_uris": {"ios": "https://dc.lft.to/lastmile_qr_scan", "android": "https://dc.lft.to/lastmile_qr_scan"}}, {"fusion_lat": 0.0, "is_disabled": 0, "lat": 38.857874333333335, "lon": -77.09961783333334, "fusion_lon": 0.0, "bike_id": "47057b84025aaddb980422f7e0912442", "type": "electric_bike", "name": "47057b84025aaddb980422f7e0912442", "is_reserved": 0, "rental_uris": {"ios": "https://dc.lft.to/lastmile_qr_scan", "android": "https://dc.lft.to/lastmile_qr_scan"}}, {"fusion_lat": 0.0, "is_disabled": 0, "lat": 38.955888333333334, "lon": -77.02808933333333, "fusion_lon": 0.0, "bike_id": "afa8fe693589362df0c9fad2f878d831", "type": "electric_scooter", "name": "afa8fe693589362df0c9fad2f878d831", "is_reserved": 0, "rental_uris": {"ios": "https://dc.lft.to/lastmile_qr_scan", "android": "https://dc.lft.to/lastmile_qr_scan"}}, {"fusion_lat": 0.0, "is_disabled": 0, "lat": 38.915897333333334, "lon": -77.0402745, "fusion_lon": 0.0, "bike_id": "f541eb70bd0a790f44e2af2372541214", "type": "electric_scooter", "name": "f541eb70bd0a790f44e2af2372541214", "is_reserved": 0, "rental_uris": {"ios": "https://dc.lft.to/lastmile_qr_scan", "android": "https://dc.lft.to/lastmile_qr_scan"}}, {"fusion_lat": 0.0, "is_disabled": 0, "lat": 38.901570666666665, "lon": -76.982326, "fusion_lon": 0.0, "bike_id": "1d5940e46e5fd3e3e6ccbf190826a5d1", "type": "electric_scooter", "name": "1d5940e46e5fd3e3e6ccbf190826a5d1", "is_reserved": 0, "rental_uris": {"ios": "https://dc.lft.to/lastmile_qr_scan", "android": "https://dc.lft.to/lastmile_qr_scan"}}, {"fusion_lat": 0.0, "is_disabled": 0, "lat": 38.924270666666665, "lon": -77.02129783333334, "fusion_lon": 0.0, "bike_id": "8111809d9a271cf54127c6c719e3795f", "type": "electric_scooter", "name": "8111809d9a271cf54127c6c719e3795f", "is_reserved": 0, "rental_uris": {"ios": "https://dc.lft.to/lastmile_qr_scan", "android": "https://dc.lft.to/lastmile_qr_scan"}}, {"fusion_lat": 0.0, "is_disabled": 0, "lat": 38.92473183333333, "lon": -77.03783683333333, "fusion_lon": 0.0, "bike_id": "577a76bfa569e52a84f105c66251c507", "type": "electric_scooter", "name": "577a76bfa569e52a84f105c66251c507", "is_reserved": 0, "rental_uris": {"ios": "https://dc.lft.to/lastmile_qr_scan", "android": "https://dc.lft.to/lastmile_qr_scan"}}, {"fusion_lat": 0.0, "is_disabled": 0, "lat": 38.86485916666667, "lon": -76.9774795, "fusion_lon": 0.0, "bike_id": "ea2cefffdd574bc571dcae69f55fe3d3", "type": "electric_bike", "name": "ea2cefffdd574bc571dcae69f55fe3d3", "is_reserved": 0, "rental_uris": {"ios": "https://dc.lft.to/lastmile_qr_scan", "android": "https://dc.lft.to/lastmile_qr_scan"}}, {"fusion_lat": 0.0, "is_disabled": 0, "lat": 38.937237333333336, "lon": -77.03263283333334, "fusion_lon": 0.0, "bike_id": "e38a5ca0d3be5c68aea52e4b8ef7b11c", "type": "electric_bike", "name": "e38a5ca0d3be5c68aea52e4b8ef7b11c", "is_reserved": 0, "rental_uris": {"ios": "https://dc.lft.to/lastmile_qr_scan", "android": "https://dc.lft.to/lastmile_qr_scan"}}, {"fusion_lat": 0.0, "is_disabled": 0, "lat": 38.901618, "lon": -77.04868833333333, "fusion_lon": 0.0, "bike_id": "bb5c9e50dceaf0fde74b5f2c7c389654", "type": "electric_scooter", "name": "bb5c9e50dceaf0fde74b5f2c7c389654", "is_reserved": 0, "rental_uris": {"ios": "https://dc.lft.to/lastmile_qr_scan", "android": "https://dc.lft.to/lastmile_qr_scan"}}, {"fusion_lat": 0.0, "is_disabled": 0, "lat": 38.9575115, "lon": -76.98023633333334, "fusion_lon": 0.0, "bike_id": "bb8d3905bf0c6324228bfab532dccf99", "type": "electric_bike", "name": "bb8d3905bf0c6324228bfab532dccf99", "is_reserved": 0, "rental_uris": {"ios": "https://dc.lft.to/lastmile_qr_scan", "android": "https://dc.lft.to/lastmile_qr_scan"}}, {"fusion_lat": 0.0, "is_disabled": 0, "lat": 38.91643166666667, "lon": -77.02104966666667, "fusion_lon": 0.0, "bike_id": "cb11a2876f12f90c876957f555c43121", "type": "electric_scooter", "name": "cb11a2876f12f90c876957f555c43121", "is_reserved": 0, "rental_uris": {"ios": "https://dc.lft.to/lastmile_qr_scan", "android": "https://dc.lft.to/lastmile_qr_scan"}}, {"fusion_lat": 0.0, "is_disabled": 0, "lat": 38.92460033333333, "lon": -77.02156516666666, "fusion_lon": 0.0, "bike_id": "6381e6d4124a8e8400c883dea60ca0e9", "type": "electric_scooter", "name": "6381e6d4124a8e8400c883dea60ca0e9", "is_reserved": 0, "rental_uris": {"ios": "https://dc.lft.to/lastmile_qr_scan", "android": "https://dc.lft.to/lastmile_qr_scan"}}, {"fusion_lat": 0.0, "is_disabled": 0, "lat": 38.921344166666664, "lon": -77.019054, "fusion_lon": 0.0, "bike_id": "adc083b462721e69ed67653baabe4615", "type": "electric_scooter", "name": "adc083b462721e69ed67653baabe4615", "is_reserved": 0, "rental_uris": {"ios": "https://dc.lft.to/lastmile_qr_scan", "android": "https://dc.lft.to/lastmile_qr_scan"}}, {"fusion_lat": 0.0, "is_disabled": 0, "lat": 38.92236066666667, "lon": -77.02122316666667, "fusion_lon": 0.0, "bike_id": "0a4c353a397c8f5d9f890783833e4c9f", "type": "electric_scooter", "name": "0a4c353a397c8f5d9f890783833e4c9f", "is_reserved": 0, "rental_uris": {"ios": "https://dc.lft.to/lastmile_qr_scan", "android": "https://dc.lft.to/lastmile_qr_scan"}}, {"fusion_lat": 0.0, "is_disabled": 0, "lat": 38.887169666666665, "lon": -76.99648516666667, "fusion_lon": 0.0, "bike_id": "849c60345e7dfbe19a56574e6ee3eb4e", "type": "electric_scooter", "name": "849c60345e7dfbe19a56574e6ee3eb4e", "is_reserved": 0, "rental_uris": {"ios": "https://dc.lft.to/lastmile_qr_scan", "android": "https://dc.lft.to/lastmile_qr_scan"}}, {"fusion_lat": 0.0, "is_disabled": 0, "lat": 38.877377, "lon": -77.00391066666667, "fusion_lon": 0.0, "bike_id": "a8274044e0e554df19623aa854a730f1", "type": "electric_scooter", "name": "a8274044e0e554df19623aa854a730f1", "is_reserved": 0, "rental_uris": {"ios": "https://dc.lft.to/lastmile_qr_scan", "android": "https://dc.lft.to/lastmile_qr_scan"}}, {"fusion_lat": 0.0, "is_disabled": 0, "lat": 38.92129583333333, "lon": -77.01797766666667, "fusion_lon": 0.0, "bike_id": "4c8e042db0908704cf2ea2dd1eaaf7b3", "type": "electric_scooter", "name": "4c8e042db0908704cf2ea2dd1eaaf7b3", "is_reserved": 0, "rental_uris": {"ios": "https://dc.lft.to/lastmile_qr_scan", "android": "https://dc.lft.to/lastmile_qr_scan"}}, {"fusion_lat": 0.0, "is_disabled": 0, "lat": 38.933480333333335, "lon": -77.024112, "fusion_lon": 0.0, "bike_id": "ff21612f39d2e1749335c293a6c08eb3", "type": "electric_scooter", "name": "ff21612f39d2e1749335c293a6c08eb3", "is_reserved": 0, "rental_uris": {"ios": "https://dc.lft.to/lastmile_qr_scan", "android": "https://dc.lft.to/lastmile_qr_scan"}}, {"fusion_lat": 0.0, "is_disabled": 0, "lat": 38.91541516666667, "lon": -77.0126865, "fusion_lon": 0.0, "bike_id": "39dd478bebe952c20626aaa7dfbbc745", "type": "electric_scooter", "name": "39dd478bebe952c20626aaa7dfbbc745", "is_reserved": 0, "rental_uris": {"ios": "https://dc.lft.to/lastmile_qr_scan", "android": "https://dc.lft.to/lastmile_qr_scan"}}, {"fusion_lat": 0.0, "is_disabled": 0, "lat": 38.9094195, "lon": -77.0465955, "fusion_lon": 0.0, "bike_id": "e6449893e4487fb4f38fdf291c67f8c0", "type": "electric_scooter", "name": "e6449893e4487fb4f38fdf291c67f8c0", "is_reserved": 0, "rental_uris": {"ios": "https://dc.lft.to/lastmile_qr_scan", "android": "https://dc.lft.to/lastmile_qr_scan"}}, {"fusion_lat": 0.0, "is_disabled": 0, "lat": 38.91014916666666, "lon": -77.04456416666666, "fusion_lon": 0.0, "bike_id": "db0041671c3c6012dd5e80d73267a0a2", "type": "electric_scooter", "name": "db0041671c3c6012dd5e80d73267a0a2", "is_reserved": 0, "rental_uris": {"ios": "https://dc.lft.to/lastmile_qr_scan", "android": "https://dc.lft.to/lastmile_qr_scan"}}, {"fusion_lat": 0.0, "is_disabled": 0, "lat": 38.9358625, "lon": -77.05878383333334, "fusion_lon": 0.0, "bike_id": "b9fa86e3787dc310b86c5b75695657b9", "type": "electric_scooter", "name": "b9fa86e3787dc310b86c5b75695657b9", "is_reserved": 0, "rental_uris": {"ios": "https://dc.lft.to/lastmile_qr_scan", "android": "https://dc.lft.to/lastmile_qr_scan"}}, {"fusion_lat": 0.0, "is_disabled": 0, "lat": 38.80736666666667, "lon": -77.09692066666666, "fusion_lon": 0.0, "bike_id": "9a1dba5eda31b8d9e415bfe376846a54", "type": "electric_bike", "name": "9a1dba5eda31b8d9e415bfe376846a54", "is_reserved": 0, "rental_uris": {"ios": "https://dc.lft.to/lastmile_qr_scan", "android": "https://dc.lft.to/lastmile_qr_scan"}}, {"fusion_lat": 0.0, "is_disabled": 0, "lat": 38.90391316666667, "lon": -77.04342066666666, "fusion_lon": 0.0, "bike_id": "a6b658c51bc3dca67c9e01b092adbe16", "type": "electric_scooter", "name": "a6b658c51bc3dca67c9e01b092adbe16", "is_reserved": 0, "rental_uris": {"ios": "https://dc.lft.to/lastmile_qr_scan", "android": "https://dc.lft.to/lastmile_qr_scan"}}, {"fusion_lat": 0.0, "is_disabled": 0, "lat": 38.903914666666665, "lon": -77.05336116666666, "fusion_lon": 0.0, "bike_id": "419f4c408163286846a05b426ba7240d", "type": "electric_scooter", "name": "419f4c408163286846a05b426ba7240d", "is_reserved": 0, "rental_uris": {"ios": "https://dc.lft.to/lastmile_qr_scan", "android": "https://dc.lft.to/lastmile_qr_scan"}}, {"fusion_lat": 0.0, "is_disabled": 0, "lat": 38.931699333333334, "lon": -77.03541783333333, "fusion_lon": 0.0, "bike_id": "47a4dd81b273533369c9e7f723c7eb61", "type": "electric_bike", "name": "47a4dd81b273533369c9e7f723c7eb61", "is_reserved": 0, "rental_uris": {"ios": "https://dc.lft.to/lastmile_qr_scan", "android": "https://dc.lft.to/lastmile_qr_scan"}}, {"fusion_lat": 0.0, "is_disabled": 0, "lat": 38.840250166666664, "lon": -76.98860783333333, "fusion_lon": 0.0, "bike_id": "2aa50c3b9e873efa6ac7fe15f0a1ccee", "type": "electric_bike", "name": "2aa50c3b9e873efa6ac7fe15f0a1ccee", "is_reserved": 0, "rental_uris": {"ios": "https://dc.lft.to/lastmile_qr_scan", "android": "https://dc.lft.to/lastmile_qr_scan"}}, {"fusion_lat": 0.0, "is_disabled": 0, "lat": 38.937593166666666, "lon": -76.9905755, "fusion_lon": 0.0, "bike_id": "dd930a62dbfba1494796208c239cbc03", "type": "electric_bike", "name": "dd930a62dbfba1494796208c239cbc03", "is_reserved": 0, "rental_uris": {"ios": "https://dc.lft.to/lastmile_qr_scan", "android": "https://dc.lft.to/lastmile_qr_scan"}}, {"fusion_lat": 0.0, "is_disabled": 0, "lat": 38.906735166666664, "lon": -77.038145, "fusion_lon": 0.0, "bike_id": "1b7f3fdc7387ea959573ff872ce40750", "type": "electric_scooter", "name": "1b7f3fdc7387ea959573ff872ce40750", "is_reserved": 0, "rental_uris": {"ios": "https://dc.lft.to/lastmile_qr_scan", "android": "https://dc.lft.to/lastmile_qr_scan"}}, {"fusion_lat": 0.0, "is_disabled": 0, "lat": 38.956505, "lon": -77.012387, "fusion_lon": 0.0, "bike_id": "f555531eae3e7d1f43cdf6f64f866db8", "type": "electric_scooter", "name": "f555531eae3e7d1f43cdf6f64f866db8", "is_reserved": 0, "rental_uris": {"ios": "https://dc.lft.to/lastmile_qr_scan", "android": "https://dc.lft.to/lastmile_qr_scan"}}, {"fusion_lat": 0.0, "is_disabled": 0, "lat": 38.896089, "lon": -77.04051716666666, "fusion_lon": 0.0, "bike_id": "7eb4c97b553d5071622f59ea0194e93c", "type": "electric_scooter", "name": "7eb4c97b553d5071622f59ea0194e93c", "is_reserved": 0, "rental_uris": {"ios": "https://dc.lft.to/lastmile_qr_scan", "android": "https://dc.lft.to/lastmile_qr_scan"}}, {"fusion_lat": 0.0, "is_disabled": 0, "lat": 38.9266505, "lon": -77.06011716666667, "fusion_lon": 0.0, "bike_id": "2516563cf0c732566dcab2752ccca319", "type": "electric_scooter", "name": "2516563cf0c732566dcab2752ccca319", "is_reserved": 0, "rental_uris": {"ios": "https://dc.lft.to/lastmile_qr_scan", "android": "https://dc.lft.to/lastmile_qr_scan"}}, {"fusion_lat": 0.0, "is_disabled": 0, "lat": 38.899322166666664, "lon": -77.001538, "fusion_lon": 0.0, "bike_id": "c7b02c4f59a20e2bb876b14770965340", "type": "electric_bike", "name": "c7b02c4f59a20e2bb876b14770965340", "is_reserved": 0, "rental_uris": {"ios": "https://dc.lft.to/lastmile_qr_scan", "android": "https://dc.lft.to/lastmile_qr_scan"}}, {"fusion_lat": 0.0, "is_disabled": 0, "lat": 38.92201166666667, "lon": -77.02029233333333, "fusion_lon": 0.0, "bike_id": "8af1203b1f4e886c284d2de35ae49705", "type": "electric_scooter", "name": "8af1203b1f4e886c284d2de35ae49705", "is_reserved": 0, "rental_uris": {"ios": "https://dc.lft.to/lastmile_qr_scan", "android": "https://dc.lft.to/lastmile_qr_scan"}}, {"fusion_lat": 0.0, "is_disabled": 0, "lat": 38.907168, "lon": -77.04177966666667, "fusion_lon": 0.0, "bike_id": "7d6e71e472a34ac3afab8e3c53b0fe8d", "type": "electric_scooter", "name": "7d6e71e472a34ac3afab8e3c53b0fe8d", "is_reserved": 0, "rental_uris": {"ios": "https://dc.lft.to/lastmile_qr_scan", "android": "https://dc.lft.to/lastmile_qr_scan"}}, {"fusion_lat": 0.0, "is_disabled": 0, "lat": 38.909362333333334, "lon": -77.03205066666666, "fusion_lon": 0.0, "bike_id": "1230ef73de49ba91bb16136e55968dfa", "type": "electric_scooter", "name": "1230ef73de49ba91bb16136e55968dfa", "is_reserved": 0, "rental_uris": {"ios": "https://dc.lft.to/lastmile_qr_scan", "android": "https://dc.lft.to/lastmile_qr_scan"}}, {"fusion_lat": 0.0, "is_disabled": 0, "lat": 38.923129, "lon": -77.027037, "fusion_lon": 0.0, "bike_id": "e8d21693260129c83f35f214888b9b3e", "type": "electric_scooter", "name": "e8d21693260129c83f35f214888b9b3e", "is_reserved": 0, "rental_uris": {"ios": "https://dc.lft.to/lastmile_qr_scan", "android": "https://dc.lft.to/lastmile_qr_scan"}}, {"fusion_lat": 0.0, "is_disabled": 0, "lat": 38.89602983333333, "lon": -77.022091, "fusion_lon": 0.0, "bike_id": "97b02a25d06e2ffbabdf3bb61ca964ea", "type": "electric_scooter", "name": "97b02a25d06e2ffbabdf3bb61ca964ea", "is_reserved": 0, "rental_uris": {"ios": "https://dc.lft.to/lastmile_qr_scan", "android": "https://dc.lft.to/lastmile_qr_scan"}}, {"fusion_lat": 0.0, "is_disabled": 0, "lat": 38.922462833333334, "lon": -77.01953266666666, "fusion_lon": 0.0, "bike_id": "41c47857e4d037ecbf675f0c5e5b3d49", "type": "electric_scooter", "name": "41c47857e4d037ecbf675f0c5e5b3d49", "is_reserved": 0, "rental_uris": {"ios": "https://dc.lft.to/lastmile_qr_scan", "android": "https://dc.lft.to/lastmile_qr_scan"}}, {"fusion_lat": 0.0, "is_disabled": 0, "lat": 38.925743, "lon": -77.02568383333333, "fusion_lon": 0.0, "bike_id": "520c035a14bbc3d3846168dd48e9a48c", "type": "electric_scooter", "name": "520c035a14bbc3d3846168dd48e9a48c", "is_reserved": 0, "rental_uris": {"ios": "https://dc.lft.to/lastmile_qr_scan", "android": "https://dc.lft.to/lastmile_qr_scan"}}, {"fusion_lat": 0.0, "is_disabled": 0, "lat": 38.9290835, "lon": -77.03296, "fusion_lon": 0.0, "bike_id": "3303ce42c0dc1dd4073f0a400e0dd6d4", "type": "electric_scooter", "name": "3303ce42c0dc1dd4073f0a400e0dd6d4", "is_reserved": 0, "rental_uris": {"ios": "https://dc.lft.to/lastmile_qr_scan", "android": "https://dc.lft.to/lastmile_qr_scan"}}, {"fusion_lat": 0.0, "is_disabled": 0, "lat": 38.9197345, "lon": -77.032252, "fusion_lon": 0.0, "bike_id": "5825a1c182a27a352f25781dc079d21d", "type": "electric_scooter", "name": "5825a1c182a27a352f25781dc079d21d", "is_reserved": 0, "rental_uris": {"ios": "https://dc.lft.to/lastmile_qr_scan", "android": "https://dc.lft.to/lastmile_qr_scan"}}, {"fusion_lat": 0.0, "is_disabled": 0, "lat": 38.91984866666667, "lon": -77.0148435, "fusion_lon": 0.0, "bike_id": "0dee8ed5189497ecb92fa94d7f09a323", "type": "electric_scooter", "name": "0dee8ed5189497ecb92fa94d7f09a323", "is_reserved": 0, "rental_uris": {"ios": "https://dc.lft.to/lastmile_qr_scan", "android": "https://dc.lft.to/lastmile_qr_scan"}}, {"fusion_lat": 0.0, "is_disabled": 0, "lat": 38.9575875, "lon": -77.00912066666666, "fusion_lon": 0.0, "bike_id": "dec22099b04927dd41fa9afaa04f5e5c", "type": "electric_scooter", "name": "dec22099b04927dd41fa9afaa04f5e5c", "is_reserved": 0, "rental_uris": {"ios": "https://dc.lft.to/lastmile_qr_scan", "android": "https://dc.lft.to/lastmile_qr_scan"}}, {"fusion_lat": 0.0, "is_disabled": 0, "lat": 38.91182216666667, "lon": -77.0314145, "fusion_lon": 0.0, "bike_id": "6bbfb4acd65137cedda688be6e60f6e5", "type": "electric_scooter", "name": "6bbfb4acd65137cedda688be6e60f6e5", "is_reserved": 0, "rental_uris": {"ios": "https://dc.lft.to/lastmile_qr_scan", "android": "https://dc.lft.to/lastmile_qr_scan"}}, {"fusion_lat": 0.0, "is_disabled": 0, "lat": 38.911924666666664, "lon": -77.0428605, "fusion_lon": 0.0, "bike_id": "72ed93807da5e09b93ad5f7c2ca1c28a", "type": "electric_scooter", "name": "72ed93807da5e09b93ad5f7c2ca1c28a", "is_reserved": 0, "rental_uris": {"ios": "https://dc.lft.to/lastmile_qr_scan", "android": "https://dc.lft.to/lastmile_qr_scan"}}, {"fusion_lat": 0.0, "is_disabled": 0, "lat": 38.93400833333333, "lon": -77.041429, "fusion_lon": 0.0, "bike_id": "719ed45736e8e6959a4443005357fb2a", "type": "electric_scooter", "name": "719ed45736e8e6959a4443005357fb2a", "is_reserved": 0, "rental_uris": {"ios": "https://dc.lft.to/lastmile_qr_scan", "android": "https://dc.lft.to/lastmile_qr_scan"}}, {"fusion_lat": 0.0, "is_disabled": 0, "lat": 38.9375875, "lon": -77.02137633333334, "fusion_lon": 0.0, "bike_id": "c9b8c53edd08ee229a0a8b7587e204e8", "type": "electric_scooter", "name": "c9b8c53edd08ee229a0a8b7587e204e8", "is_reserved": 0, "rental_uris": {"ios": "https://dc.lft.to/lastmile_qr_scan", "android": "https://dc.lft.to/lastmile_qr_scan"}}, {"fusion_lat": 0.0, "is_disabled": 0, "lat": 38.89888533333333, "lon": -77.0487415, "fusion_lon": 0.0, "bike_id": "4f8d6022ab5a67130c852d313b0ca59d", "type": "electric_scooter", "name": "4f8d6022ab5a67130c852d313b0ca59d", "is_reserved": 0, "rental_uris": {"ios": "https://dc.lft.to/lastmile_qr_scan", "android": "https://dc.lft.to/lastmile_qr_scan"}}, {"fusion_lat": 0.0, "is_disabled": 0, "lat": 38.897493833333336, "lon": -77.0322955, "fusion_lon": 0.0, "bike_id": "f7e9f57b7b32715c76eef8a0184fefe2", "type": "electric_scooter", "name": "f7e9f57b7b32715c76eef8a0184fefe2", "is_reserved": 0, "rental_uris": {"ios": "https://dc.lft.to/lastmile_qr_scan", "android": "https://dc.lft.to/lastmile_qr_scan"}}, {"fusion_lat": 0.0, "is_disabled": 0, "lat": 38.92127416666666, "lon": -77.0179765, "fusion_lon": 0.0, "bike_id": "0375ce76919f99a7e2561b866fc1166e", "type": "electric_scooter", "name": "0375ce76919f99a7e2561b866fc1166e", "is_reserved": 0, "rental_uris": {"ios": "https://dc.lft.to/lastmile_qr_scan", "android": "https://dc.lft.to/lastmile_qr_scan"}}, {"fusion_lat": 0.0, "is_disabled": 0, "lat": 38.90348066666667, "lon": -77.04749366666667, "fusion_lon": 0.0, "bike_id": "21623c2e30569c487cb513835d9d00c9", "type": "electric_scooter", "name": "21623c2e30569c487cb513835d9d00c9", "is_reserved": 0, "rental_uris": {"ios": "https://dc.lft.to/lastmile_qr_scan", "android": "https://dc.lft.to/lastmile_qr_scan"}}, {"fusion_lat": 0.0, "is_disabled": 0, "lat": 38.901774833333334, "lon": -77.02201916666667, "fusion_lon": 0.0, "bike_id": "9822f775c72b5708e537e7e6733987c0", "type": "electric_scooter", "name": "9822f775c72b5708e537e7e6733987c0", "is_reserved": 0, "rental_uris": {"ios": "https://dc.lft.to/lastmile_qr_scan", "android": "https://dc.lft.to/lastmile_qr_scan"}}, {"fusion_lat": 0.0, "is_disabled": 0, "lat": 38.91544416666667, "lon": -77.03183616666666, "fusion_lon": 0.0, "bike_id": "91f58c7a7eed7742f0096ceb714e30b0", "type": "electric_scooter", "name": "91f58c7a7eed7742f0096ceb714e30b0", "is_reserved": 0, "rental_uris": {"ios": "https://dc.lft.to/lastmile_qr_scan", "android": "https://dc.lft.to/lastmile_qr_scan"}}, {"fusion_lat": 0.0, "is_disabled": 0, "lat": 38.91828233333333, "lon": -77.05320033333334, "fusion_lon": 0.0, "bike_id": "da0ddc573fa48678927e5abebebf3f54", "type": "electric_scooter", "name": "da0ddc573fa48678927e5abebebf3f54", "is_reserved": 0, "rental_uris": {"ios": "https://dc.lft.to/lastmile_qr_scan", "android": "https://dc.lft.to/lastmile_qr_scan"}}, {"fusion_lat": 0.0, "is_disabled": 0, "lat": 38.89757483333333, "lon": -77.00951866666666, "fusion_lon": 0.0, "bike_id": "3455693e8aa073ff6168f5084c998ac2", "type": "electric_scooter", "name": "3455693e8aa073ff6168f5084c998ac2", "is_reserved": 0, "rental_uris": {"ios": "https://dc.lft.to/lastmile_qr_scan", "android": "https://dc.lft.to/lastmile_qr_scan"}}, {"fusion_lat": 0.0, "is_disabled": 0, "lat": 38.877738666666666, "lon": -77.00211216666666, "fusion_lon": 0.0, "bike_id": "f35334fe72d1ffc21d00fbe28a491c3b", "type": "electric_scooter", "name": "f35334fe72d1ffc21d00fbe28a491c3b", "is_reserved": 0, "rental_uris": {"ios": "https://dc.lft.to/lastmile_qr_scan", "android": "https://dc.lft.to/lastmile_qr_scan"}}, {"fusion_lat": 0.0, "is_disabled": 0, "lat": 38.879236, "lon": -77.0237365, "fusion_lon": 0.0, "bike_id": "ee2f5e742e195cfa4069f6a89d3c76b8", "type": "electric_scooter", "name": "ee2f5e742e195cfa4069f6a89d3c76b8", "is_reserved": 0, "rental_uris": {"ios": "https://dc.lft.to/lastmile_qr_scan", "android": "https://dc.lft.to/lastmile_qr_scan"}}, {"fusion_lat": 0.0, "is_disabled": 0, "lat": 38.838589666666664, "lon": -76.99487183333333, "fusion_lon": 0.0, "bike_id": "0685a675b4cf4587dd860b757bb52b8e", "type": "electric_bike", "name": "0685a675b4cf4587dd860b757bb52b8e", "is_reserved": 0, "rental_uris": {"ios": "https://dc.lft.to/lastmile_qr_scan", "android": "https://dc.lft.to/lastmile_qr_scan"}}, {"fusion_lat": 0.0, "is_disabled": 0, "lat": 38.937349166666664, "lon": -77.0326745, "fusion_lon": 0.0, "bike_id": "341f8965a0dbcd6a010c2e680459fcc7", "type": "electric_scooter", "name": "341f8965a0dbcd6a010c2e680459fcc7", "is_reserved": 0, "rental_uris": {"ios": "https://dc.lft.to/lastmile_qr_scan", "android": "https://dc.lft.to/lastmile_qr_scan"}}, {"fusion_lat": 0.0, "is_disabled": 0, "lat": 38.896978, "lon": -77.02681533333333, "fusion_lon": 0.0, "bike_id": "ae0f4d939115184fd6426cf78afa7b2e", "type": "electric_scooter", "name": "ae0f4d939115184fd6426cf78afa7b2e", "is_reserved": 0, "rental_uris": {"ios": "https://dc.lft.to/lastmile_qr_scan", "android": "https://dc.lft.to/lastmile_qr_scan"}}, {"fusion_lat": 0.0, "is_disabled": 0, "lat": 38.9275815, "lon": -77.0321245, "fusion_lon": 0.0, "bike_id": "f7ed9d5e8676bc01346435c2ca543a44", "type": "electric_scooter", "name": "f7ed9d5e8676bc01346435c2ca543a44", "is_reserved": 0, "rental_uris": {"ios": "https://dc.lft.to/lastmile_qr_scan", "android": "https://dc.lft.to/lastmile_qr_scan"}}, {"fusion_lat": 0.0, "is_disabled": 0, "lat": 38.89821533333333, "lon": -77.04572083333333, "fusion_lon": 0.0, "bike_id": "b16eddb889cccb6b681c8dd4acd8ccc1", "type": "electric_scooter", "name": "b16eddb889cccb6b681c8dd4acd8ccc1", "is_reserved": 0, "rental_uris": {"ios": "https://dc.lft.to/lastmile_qr_scan", "android": "https://dc.lft.to/lastmile_qr_scan"}}, {"fusion_lat": 0.0, "is_disabled": 0, "lat": 38.8921995, "lon": -77.043382, "fusion_lon": 0.0, "bike_id": "42023e2998792ca2720d356236fddc58", "type": "electric_scooter", "name": "42023e2998792ca2720d356236fddc58", "is_reserved": 0, "rental_uris": {"ios": "https://dc.lft.to/lastmile_qr_scan", "android": "https://dc.lft.to/lastmile_qr_scan"}}, {"fusion_lat": 0.0, "is_disabled": 0, "lat": 38.90583016666667, "lon": -77.005939, "fusion_lon": 0.0, "bike_id": "50eb0b9ddc08ed24768a9b056cc746fe", "type": "electric_scooter", "name": "50eb0b9ddc08ed24768a9b056cc746fe", "is_reserved": 0, "rental_uris": {"ios": "https://dc.lft.to/lastmile_qr_scan", "android": "https://dc.lft.to/lastmile_qr_scan"}}, {"fusion_lat": 0.0, "is_disabled": 0, "lat": 38.876209, "lon": -77.00246283333334, "fusion_lon": 0.0, "bike_id": "323573c54838f51438cf4a2ef3db4cf9", "type": "electric_scooter", "name": "323573c54838f51438cf4a2ef3db4cf9", "is_reserved": 0, "rental_uris": {"ios": "https://dc.lft.to/lastmile_qr_scan", "android": "https://dc.lft.to/lastmile_qr_scan"}}, {"fusion_lat": 0.0, "is_disabled": 0, "lat": 38.90401933333333, "lon": -77.0245435, "fusion_lon": 0.0, "bike_id": "b59d7fc9f78f1fe525d22a015c9788e4", "type": "electric_scooter", "name": "b59d7fc9f78f1fe525d22a015c9788e4", "is_reserved": 0, "rental_uris": {"ios": "https://dc.lft.to/lastmile_qr_scan", "android": "https://dc.lft.to/lastmile_qr_scan"}}, {"fusion_lat": 0.0, "is_disabled": 0, "lat": 38.9417675, "lon": -77.0248905, "fusion_lon": 0.0, "bike_id": "790bb473074bff7c5daf83f984b924b6", "type": "electric_scooter", "name": "790bb473074bff7c5daf83f984b924b6", "is_reserved": 0, "rental_uris": {"ios": "https://dc.lft.to/lastmile_qr_scan", "android": "https://dc.lft.to/lastmile_qr_scan"}}, {"fusion_lat": 0.0, "is_disabled": 0, "lat": 38.8945385, "lon": -77.02686533333333, "fusion_lon": 0.0, "bike_id": "16edfbfc2acbd610f7847e4415e475a2", "type": "electric_scooter", "name": "16edfbfc2acbd610f7847e4415e475a2", "is_reserved": 0, "rental_uris": {"ios": "https://dc.lft.to/lastmile_qr_scan", "android": "https://dc.lft.to/lastmile_qr_scan"}}, {"fusion_lat": 0.0, "is_disabled": 0, "lat": 38.822083, "lon": -76.97706783333334, "fusion_lon": 0.0, "bike_id": "be887ea0bf35702ae38841ad4c25bdb2", "type": "electric_bike", "name": "be887ea0bf35702ae38841ad4c25bdb2", "is_reserved": 0, "rental_uris": {"ios": "https://dc.lft.to/lastmile_qr_scan", "android": "https://dc.lft.to/lastmile_qr_scan"}}, {"fusion_lat": 0.0, "is_disabled": 0, "lat": 38.99817783333334, "lon": -77.0288455, "fusion_lon": 0.0, "bike_id": "10de50c65fbd89aaba3a9dafb9546b6b", "type": "electric_bike", "name": "10de50c65fbd89aaba3a9dafb9546b6b", "is_reserved": 0, "rental_uris": {"ios": "https://dc.lft.to/lastmile_qr_scan", "android": "https://dc.lft.to/lastmile_qr_scan"}}, {"fusion_lat": 0.0, "is_disabled": 0, "lat": 38.923399833333335, "lon": -77.03509266666667, "fusion_lon": 0.0, "bike_id": "2c338d9f6b6ccd061bfd7c0060f828cc", "type": "electric_scooter", "name": "2c338d9f6b6ccd061bfd7c0060f828cc", "is_reserved": 0, "rental_uris": {"ios": "https://dc.lft.to/lastmile_qr_scan", "android": "https://dc.lft.to/lastmile_qr_scan"}}, {"fusion_lat": 0.0, "is_disabled": 0, "lat": 38.93251866666667, "lon": -77.03279383333333, "fusion_lon": 0.0, "bike_id": "f00e5c7d0a642319554dce6752a5225e", "type": "electric_scooter", "name": "f00e5c7d0a642319554dce6752a5225e", "is_reserved": 0, "rental_uris": {"ios": "https://dc.lft.to/lastmile_qr_scan", "android": "https://dc.lft.to/lastmile_qr_scan"}}, {"fusion_lat": 0.0, "is_disabled": 0, "lat": 38.896779, "lon": -76.96306416666667, "fusion_lon": 0.0, "bike_id": "19c204c3b74b0f0165b1c50369669279", "type": "electric_bike", "name": "19c204c3b74b0f0165b1c50369669279", "is_reserved": 0, "rental_uris": {"ios": "https://dc.lft.to/lastmile_qr_scan", "android": "https://dc.lft.to/lastmile_qr_scan"}}, {"fusion_lat": 0.0, "is_disabled": 0, "lat": 38.9301345, "lon": -77.015883, "fusion_lon": 0.0, "bike_id": "e098dd2d17e9de4c154cd337ea2bebd1", "type": "electric_scooter", "name": "e098dd2d17e9de4c154cd337ea2bebd1", "is_reserved": 0, "rental_uris": {"ios": "https://dc.lft.to/lastmile_qr_scan", "android": "https://dc.lft.to/lastmile_qr_scan"}}, {"fusion_lat": 0.0, "is_disabled": 0, "lat": 38.84028516666667, "lon": -76.9762775, "fusion_lon": 0.0, "bike_id": "423f8158350f0b0e1d3ae997c4759c26", "type": "electric_bike", "name": "423f8158350f0b0e1d3ae997c4759c26", "is_reserved": 0, "rental_uris": {"ios": "https://dc.lft.to/lastmile_qr_scan", "android": "https://dc.lft.to/lastmile_qr_scan"}}, {"fusion_lat": 0.0, "is_disabled": 0, "lat": 38.892222, "lon": -77.02917416666666, "fusion_lon": 0.0, "bike_id": "90ba45fda6f32a41b632dc9faab8ffe3", "type": "electric_scooter", "name": "90ba45fda6f32a41b632dc9faab8ffe3", "is_reserved": 0, "rental_uris": {"ios": "https://dc.lft.to/lastmile_qr_scan", "android": "https://dc.lft.to/lastmile_qr_scan"}}, {"fusion_lat": 0.0, "is_disabled": 0, "lat": 38.89456216666667, "lon": -77.026619, "fusion_lon": 0.0, "bike_id": "85b90cd28bf45d8b47c246f512e4ab4b", "type": "electric_scooter", "name": "85b90cd28bf45d8b47c246f512e4ab4b", "is_reserved": 0, "rental_uris": {"ios": "https://dc.lft.to/lastmile_qr_scan", "android": "https://dc.lft.to/lastmile_qr_scan"}}, {"fusion_lat": 0.0, "is_disabled": 0, "lat": 38.878651833333336, "lon": -76.99662483333333, "fusion_lon": 0.0, "bike_id": "45f5db50fb25c2bc2617f687753287e4", "type": "electric_scooter", "name": "45f5db50fb25c2bc2617f687753287e4", "is_reserved": 0, "rental_uris": {"ios": "https://dc.lft.to/lastmile_qr_scan", "android": "https://dc.lft.to/lastmile_qr_scan"}}, {"fusion_lat": 0.0, "is_disabled": 0, "lat": 38.902306833333334, "lon": -77.04594233333333, "fusion_lon": 0.0, "bike_id": "bd7502c495c54748e1d93beac8f125b1", "type": "electric_scooter", "name": "bd7502c495c54748e1d93beac8f125b1", "is_reserved": 0, "rental_uris": {"ios": "https://dc.lft.to/lastmile_qr_scan", "android": "https://dc.lft.to/lastmile_qr_scan"}}, {"fusion_lat": 0.0, "is_disabled": 0, "lat": 38.8999765, "lon": -77.04243133333334, "fusion_lon": 0.0, "bike_id": "773864ec96fde9dc1705eadf2e783e39", "type": "electric_scooter", "name": "773864ec96fde9dc1705eadf2e783e39", "is_reserved": 0, "rental_uris": {"ios": "https://dc.lft.to/lastmile_qr_scan", "android": "https://dc.lft.to/lastmile_qr_scan"}}, {"fusion_lat": 0.0, "is_disabled": 0, "lat": 38.90386983333333, "lon": -76.97383833333333, "fusion_lon": 0.0, "bike_id": "2d6cb8dd9e2db0affe8d14c0f683f2ff", "type": "electric_scooter", "name": "2d6cb8dd9e2db0affe8d14c0f683f2ff", "is_reserved": 0, "rental_uris": {"ios": "https://dc.lft.to/lastmile_qr_scan", "android": "https://dc.lft.to/lastmile_qr_scan"}}, {"fusion_lat": 0.0, "is_disabled": 0, "lat": 38.85451583333333, "lon": -76.98623866666667, "fusion_lon": 0.0, "bike_id": "2c337dcd8d6f564b0d50c4af203bccf7", "type": "electric_bike", "name": "2c337dcd8d6f564b0d50c4af203bccf7", "is_reserved": 0, "rental_uris": {"ios": "https://dc.lft.to/lastmile_qr_scan", "android": "https://dc.lft.to/lastmile_qr_scan"}}, {"fusion_lat": 0.0, "is_disabled": 0, "lat": 38.89607483333333, "lon": -77.02201316666667, "fusion_lon": 0.0, "bike_id": "17dfc5172808d3ddc14fe63bb49ae47e", "type": "electric_scooter", "name": "17dfc5172808d3ddc14fe63bb49ae47e", "is_reserved": 0, "rental_uris": {"ios": "https://dc.lft.to/lastmile_qr_scan", "android": "https://dc.lft.to/lastmile_qr_scan"}}, {"fusion_lat": 0.0, "is_disabled": 0, "lat": 38.9084555, "lon": -76.99798983333334, "fusion_lon": 0.0, "bike_id": "5b10728344950d077c9eab2cc80e2104", "type": "electric_scooter", "name": "5b10728344950d077c9eab2cc80e2104", "is_reserved": 0, "rental_uris": {"ios": "https://dc.lft.to/lastmile_qr_scan", "android": "https://dc.lft.to/lastmile_qr_scan"}}, {"fusion_lat": 0.0, "is_disabled": 0, "lat": 38.9578575, "lon": -76.99773283333333, "fusion_lon": 0.0, "bike_id": "bfb9b3d73c4faa56dea31952723980ef", "type": "electric_bike", "name": "bfb9b3d73c4faa56dea31952723980ef", "is_reserved": 0, "rental_uris": {"ios": "https://dc.lft.to/lastmile_qr_scan", "android": "https://dc.lft.to/lastmile_qr_scan"}}, {"fusion_lat": 0.0, "is_disabled": 0, "lat": 38.90303733333333, "lon": -76.9750355, "fusion_lon": 0.0, "bike_id": "8ea002faf9b50209ed6e45f21121a838", "type": "electric_scooter", "name": "8ea002faf9b50209ed6e45f21121a838", "is_reserved": 0, "rental_uris": {"ios": "https://dc.lft.to/lastmile_qr_scan", "android": "https://dc.lft.to/lastmile_qr_scan"}}, {"fusion_lat": 0.0, "is_disabled": 0, "lat": 38.916348, "lon": -77.04815483333333, "fusion_lon": 0.0, "bike_id": "cbb213e0b7962451c43293af0f53e737", "type": "electric_scooter", "name": "cbb213e0b7962451c43293af0f53e737", "is_reserved": 0, "rental_uris": {"ios": "https://dc.lft.to/lastmile_qr_scan", "android": "https://dc.lft.to/lastmile_qr_scan"}}, {"fusion_lat": 0.0, "is_disabled": 0, "lat": 38.892889833333335, "lon": -76.99839066666667, "fusion_lon": 0.0, "bike_id": "d76cc0f6b7f1c8b4fa65ca1034dcb382", "type": "electric_scooter", "name": "d76cc0f6b7f1c8b4fa65ca1034dcb382", "is_reserved": 0, "rental_uris": {"ios": "https://dc.lft.to/lastmile_qr_scan", "android": "https://dc.lft.to/lastmile_qr_scan"}}, {"fusion_lat": 0.0, "is_disabled": 0, "lat": 38.87693766666666, "lon": -77.01768383333334, "fusion_lon": 0.0, "bike_id": "c0619f7bdbc1bdbaabee729a2a919d48", "type": "electric_scooter", "name": "c0619f7bdbc1bdbaabee729a2a919d48", "is_reserved": 0, "rental_uris": {"ios": "https://dc.lft.to/lastmile_qr_scan", "android": "https://dc.lft.to/lastmile_qr_scan"}}, {"fusion_lat": 0.0, "is_disabled": 0, "lat": 38.90360316666667, "lon": -77.02748916666667, "fusion_lon": 0.0, "bike_id": "464dd9b8f9aac6100b2e04ab94ef4d13", "type": "electric_scooter", "name": "464dd9b8f9aac6100b2e04ab94ef4d13", "is_reserved": 0, "rental_uris": {"ios": "https://dc.lft.to/lastmile_qr_scan", "android": "https://dc.lft.to/lastmile_qr_scan"}}, {"fusion_lat": 0.0, "is_disabled": 0, "lat": 38.8758015, "lon": -77.0058005, "fusion_lon": 0.0, "bike_id": "1dcc557ac0df323752625694f0e1d18b", "type": "electric_scooter", "name": "1dcc557ac0df323752625694f0e1d18b", "is_reserved": 0, "rental_uris": {"ios": "https://dc.lft.to/lastmile_qr_scan", "android": "https://dc.lft.to/lastmile_qr_scan"}}, {"fusion_lat": 0.0, "is_disabled": 0, "lat": 38.92294183333333, "lon": -77.03859366666667, "fusion_lon": 0.0, "bike_id": "bc77891b347785e919f44e1a0d753c70", "type": "electric_scooter", "name": "bc77891b347785e919f44e1a0d753c70", "is_reserved": 0, "rental_uris": {"ios": "https://dc.lft.to/lastmile_qr_scan", "android": "https://dc.lft.to/lastmile_qr_scan"}}, {"fusion_lat": 0.0, "is_disabled": 0, "lat": 38.87582966666667, "lon": -77.00582466666667, "fusion_lon": 0.0, "bike_id": "3da261f86e3e38f3d3e08ef79a33ce2a", "type": "electric_scooter", "name": "3da261f86e3e38f3d3e08ef79a33ce2a", "is_reserved": 0, "rental_uris": {"ios": "https://dc.lft.to/lastmile_qr_scan", "android": "https://dc.lft.to/lastmile_qr_scan"}}, {"fusion_lat": 0.0, "is_disabled": 0, "lat": 38.89520366666667, "lon": -76.98116866666666, "fusion_lon": 0.0, "bike_id": "4b03c03e25edf1b27c3ef65105a5170e", "type": "electric_scooter", "name": "4b03c03e25edf1b27c3ef65105a5170e", "is_reserved": 0, "rental_uris": {"ios": "https://dc.lft.to/lastmile_qr_scan", "android": "https://dc.lft.to/lastmile_qr_scan"}}, {"fusion_lat": 0.0, "is_disabled": 0, "lat": 38.905231, "lon": -77.06527933333334, "fusion_lon": 0.0, "bike_id": "5dd5617eb1ab743f7c59c72df31da0b4", "type": "electric_scooter", "name": "5dd5617eb1ab743f7c59c72df31da0b4", "is_reserved": 0, "rental_uris": {"ios": "https://dc.lft.to/lastmile_qr_scan", "android": "https://dc.lft.to/lastmile_qr_scan"}}, {"fusion_lat": 0.0, "is_disabled": 0, "lat": 38.91609166666667, "lon": -77.02310216666666, "fusion_lon": 0.0, "bike_id": "e7e1452998b006d51c5ae71b4f42209b", "type": "electric_scooter", "name": "e7e1452998b006d51c5ae71b4f42209b", "is_reserved": 0, "rental_uris": {"ios": "https://dc.lft.to/lastmile_qr_scan", "android": "https://dc.lft.to/lastmile_qr_scan"}}, {"fusion_lat": 0.0, "is_disabled": 0, "lat": 38.95413383333333, "lon": -77.02814016666666, "fusion_lon": 0.0, "bike_id": "9f3689eeddbb13aa4f98003c267ba3bb", "type": "electric_scooter", "name": "9f3689eeddbb13aa4f98003c267ba3bb", "is_reserved": 0, "rental_uris": {"ios": "https://dc.lft.to/lastmile_qr_scan", "android": "https://dc.lft.to/lastmile_qr_scan"}}, {"fusion_lat": 0.0, "is_disabled": 0, "lat": 38.8843745, "lon": -76.95764916666667, "fusion_lon": 0.0, "bike_id": "e84833c234f2acccf4b69dac6b62ffb6", "type": "electric_scooter", "name": "e84833c234f2acccf4b69dac6b62ffb6", "is_reserved": 0, "rental_uris": {"ios": "https://dc.lft.to/lastmile_qr_scan", "android": "https://dc.lft.to/lastmile_qr_scan"}}, {"fusion_lat": 0.0, "is_disabled": 0, "lat": 38.9365865, "lon": -77.06608666666666, "fusion_lon": 0.0, "bike_id": "6f2bdb9f8c940964a5a1943a0528b166", "type": "electric_scooter", "name": "6f2bdb9f8c940964a5a1943a0528b166", "is_reserved": 0, "rental_uris": {"ios": "https://dc.lft.to/lastmile_qr_scan", "android": "https://dc.lft.to/lastmile_qr_scan"}}, {"fusion_lat": 0.0, "is_disabled": 0, "lat": 38.901285333333334, "lon": -77.02944766666667, "fusion_lon": 0.0, "bike_id": "a168b90e8074b3e7a46d75c6a5b5ff79", "type": "electric_scooter", "name": "a168b90e8074b3e7a46d75c6a5b5ff79", "is_reserved": 0, "rental_uris": {"ios": "https://dc.lft.to/lastmile_qr_scan", "android": "https://dc.lft.to/lastmile_qr_scan"}}, {"fusion_lat": 0.0, "is_disabled": 0, "lat": 38.9160815, "lon": -77.02285666666667, "fusion_lon": 0.0, "bike_id": "44eceeab5daf70f0dd0b096e1827971a", "type": "electric_scooter", "name": "44eceeab5daf70f0dd0b096e1827971a", "is_reserved": 0, "rental_uris": {"ios": "https://dc.lft.to/lastmile_qr_scan", "android": "https://dc.lft.to/lastmile_qr_scan"}}, {"fusion_lat": 0.0, "is_disabled": 0, "lat": 38.92509416666667, "lon": -77.00226833333333, "fusion_lon": 0.0, "bike_id": "3ed3c931db3524f78ec012dad04c536a", "type": "electric_scooter", "name": "3ed3c931db3524f78ec012dad04c536a", "is_reserved": 0, "rental_uris": {"ios": "https://dc.lft.to/lastmile_qr_scan", "android": "https://dc.lft.to/lastmile_qr_scan"}}, {"fusion_lat": 0.0, "is_disabled": 0, "lat": 38.887165833333334, "lon": -77.02818833333333, "fusion_lon": 0.0, "bike_id": "f310c5239cfe902b4253ba1567f3fa09", "type": "electric_scooter", "name": "f310c5239cfe902b4253ba1567f3fa09", "is_reserved": 0, "rental_uris": {"ios": "https://dc.lft.to/lastmile_qr_scan", "android": "https://dc.lft.to/lastmile_qr_scan"}}, {"fusion_lat": 0.0, "is_disabled": 0, "lat": 38.900674, "lon": -77.04819516666667, "fusion_lon": 0.0, "bike_id": "f54466a15cbc318e2f011398ceaa44a0", "type": "electric_scooter", "name": "f54466a15cbc318e2f011398ceaa44a0", "is_reserved": 0, "rental_uris": {"ios": "https://dc.lft.to/lastmile_qr_scan", "android": "https://dc.lft.to/lastmile_qr_scan"}}, {"fusion_lat": 0.0, "is_disabled": 0, "lat": 38.921545333333334, "lon": -77.03508516666666, "fusion_lon": 0.0, "bike_id": "5f833a39ac67c3711fa192d445dd2b4d", "type": "electric_scooter", "name": "5f833a39ac67c3711fa192d445dd2b4d", "is_reserved": 0, "rental_uris": {"ios": "https://dc.lft.to/lastmile_qr_scan", "android": "https://dc.lft.to/lastmile_qr_scan"}}, {"fusion_lat": 0.0, "is_disabled": 0, "lat": 38.90901233333334, "lon": -77.04309683333334, "fusion_lon": 0.0, "bike_id": "0549fba027d962e86a6ba63c2ea0f959", "type": "electric_scooter", "name": "0549fba027d962e86a6ba63c2ea0f959", "is_reserved": 0, "rental_uris": {"ios": "https://dc.lft.to/lastmile_qr_scan", "android": "https://dc.lft.to/lastmile_qr_scan"}}, {"fusion_lat": 0.0, "is_disabled": 0, "lat": 38.873694666666665, "lon": -77.00089, "fusion_lon": 0.0, "bike_id": "d3ab557534c5e8099bede02489743cfc", "type": "electric_scooter", "name": "d3ab557534c5e8099bede02489743cfc", "is_reserved": 0, "rental_uris": {"ios": "https://dc.lft.to/lastmile_qr_scan", "android": "https://dc.lft.to/lastmile_qr_scan"}}, {"fusion_lat": 0.0, "is_disabled": 0, "lat": 38.922547, "lon": -77.01944466666667, "fusion_lon": 0.0, "bike_id": "bf39ba9667c69840842264af6cede670", "type": "electric_scooter", "name": "bf39ba9667c69840842264af6cede670", "is_reserved": 0, "rental_uris": {"ios": "https://dc.lft.to/lastmile_qr_scan", "android": "https://dc.lft.to/lastmile_qr_scan"}}, {"fusion_lat": 0.0, "is_disabled": 0, "lat": 38.886440666666665, "lon": -77.002118, "fusion_lon": 0.0, "bike_id": "5bac6fc511bb68b3f7da3bf1c5d68e1d", "type": "electric_scooter", "name": "5bac6fc511bb68b3f7da3bf1c5d68e1d", "is_reserved": 0, "rental_uris": {"ios": "https://dc.lft.to/lastmile_qr_scan", "android": "https://dc.lft.to/lastmile_qr_scan"}}, {"fusion_lat": 0.0, "is_disabled": 0, "lat": 38.902275833333334, "lon": -77.034726, "fusion_lon": 0.0, "bike_id": "aa3ef6001fefba0516f28bdee3e69185", "type": "electric_scooter", "name": "aa3ef6001fefba0516f28bdee3e69185", "is_reserved": 0, "rental_uris": {"ios": "https://dc.lft.to/lastmile_qr_scan", "android": "https://dc.lft.to/lastmile_qr_scan"}}, {"fusion_lat": 0.0, "is_disabled": 0, "lat": 38.903928, "lon": -77.0534125, "fusion_lon": 0.0, "bike_id": "e285c4c3e7fd840ba34a51cb105f6124", "type": "electric_scooter", "name": "e285c4c3e7fd840ba34a51cb105f6124", "is_reserved": 0, "rental_uris": {"ios": "https://dc.lft.to/lastmile_qr_scan", "android": "https://dc.lft.to/lastmile_qr_scan"}}, {"fusion_lat": 0.0, "is_disabled": 0, "lat": 38.90884166666667, "lon": -77.03750316666667, "fusion_lon": 0.0, "bike_id": "be0fdbfb0325b53fa859361235297a18", "type": "electric_scooter", "name": "be0fdbfb0325b53fa859361235297a18", "is_reserved": 0, "rental_uris": {"ios": "https://dc.lft.to/lastmile_qr_scan", "android": "https://dc.lft.to/lastmile_qr_scan"}}, {"fusion_lat": 0.0, "is_disabled": 0, "lat": 38.92629766666667, "lon": -77.07321033333334, "fusion_lon": 0.0, "bike_id": "5cd505926333e4691a427a8726c32a2f", "type": "electric_scooter", "name": "5cd505926333e4691a427a8726c32a2f", "is_reserved": 0, "rental_uris": {"ios": "https://dc.lft.to/lastmile_qr_scan", "android": "https://dc.lft.to/lastmile_qr_scan"}}, {"fusion_lat": 0.0, "is_disabled": 0, "lat": 38.91109683333333, "lon": -77.038352, "fusion_lon": 0.0, "bike_id": "b2bdc05759cf72edca361ae51fae64e8", "type": "electric_scooter", "name": "b2bdc05759cf72edca361ae51fae64e8", "is_reserved": 0, "rental_uris": {"ios": "https://dc.lft.to/lastmile_qr_scan", "android": "https://dc.lft.to/lastmile_qr_scan"}}, {"fusion_lat": 0.0, "is_disabled": 0, "lat": 38.9200665, "lon": -77.03781033333334, "fusion_lon": 0.0, "bike_id": "4aa59444f10b7192ab1bd37169eae447", "type": "electric_scooter", "name": "4aa59444f10b7192ab1bd37169eae447", "is_reserved": 0, "rental_uris": {"ios": "https://dc.lft.to/lastmile_qr_scan", "android": "https://dc.lft.to/lastmile_qr_scan"}}, {"fusion_lat": 0.0, "is_disabled": 0, "lat": 38.9171485, "lon": -77.03444883333333, "fusion_lon": 0.0, "bike_id": "31791b4c5e9c9c217b0f509ff22743e3", "type": "electric_scooter", "name": "31791b4c5e9c9c217b0f509ff22743e3", "is_reserved": 0, "rental_uris": {"ios": "https://dc.lft.to/lastmile_qr_scan", "android": "https://dc.lft.to/lastmile_qr_scan"}}, {"fusion_lat": 0.0, "is_disabled": 0, "lat": 38.8945085, "lon": -77.02683183333333, "fusion_lon": 0.0, "bike_id": "0bd7bfdc5f65df6c1461f3c2b3069162", "type": "electric_scooter", "name": "0bd7bfdc5f65df6c1461f3c2b3069162", "is_reserved": 0, "rental_uris": {"ios": "https://dc.lft.to/lastmile_qr_scan", "android": "https://dc.lft.to/lastmile_qr_scan"}}, {"fusion_lat": 0.0, "is_disabled": 0, "lat": 38.906671833333334, "lon": -77.0489525, "fusion_lon": 0.0, "bike_id": "43eb2cf7c1a9d2af4f5192fce54e3caa", "type": "electric_scooter", "name": "43eb2cf7c1a9d2af4f5192fce54e3caa", "is_reserved": 0, "rental_uris": {"ios": "https://dc.lft.to/lastmile_qr_scan", "android": "https://dc.lft.to/lastmile_qr_scan"}}, {"fusion_lat": 0.0, "is_disabled": 0, "lat": 38.91932416666667, "lon": -77.02298216666667, "fusion_lon": 0.0, "bike_id": "b6064dfea1095fc5dbcc498ebc22561e", "type": "electric_scooter", "name": "b6064dfea1095fc5dbcc498ebc22561e", "is_reserved": 0, "rental_uris": {"ios": "https://dc.lft.to/lastmile_qr_scan", "android": "https://dc.lft.to/lastmile_qr_scan"}}, {"fusion_lat": 0.0, "is_disabled": 0, "lat": 38.862567, "lon": -76.98356066666666, "fusion_lon": 0.0, "bike_id": "348e99b61c060a591969c744492fe870", "type": "electric_bike", "name": "348e99b61c060a591969c744492fe870", "is_reserved": 0, "rental_uris": {"ios": "https://dc.lft.to/lastmile_qr_scan", "android": "https://dc.lft.to/lastmile_qr_scan"}}, {"fusion_lat": 0.0, "is_disabled": 0, "lat": 38.902515666666666, "lon": -77.02651116666667, "fusion_lon": 0.0, "bike_id": "d731163da53a78d3d79a5945478c0088", "type": "electric_scooter", "name": "d731163da53a78d3d79a5945478c0088", "is_reserved": 0, "rental_uris": {"ios": "https://dc.lft.to/lastmile_qr_scan", "android": "https://dc.lft.to/lastmile_qr_scan"}}, {"fusion_lat": 0.0, "is_disabled": 0, "lat": 38.9268045, "lon": -77.01577, "fusion_lon": 0.0, "bike_id": "b7e1fcc25fafb5dd8964960bbf2576bc", "type": "electric_scooter", "name": "b7e1fcc25fafb5dd8964960bbf2576bc", "is_reserved": 0, "rental_uris": {"ios": "https://dc.lft.to/lastmile_qr_scan", "android": "https://dc.lft.to/lastmile_qr_scan"}}, {"fusion_lat": 0.0, "is_disabled": 0, "lat": 38.89949, "lon": -77.02879816666666, "fusion_lon": 0.0, "bike_id": "c445476bad0b296a14723e8c6bb6adca", "type": "electric_scooter", "name": "c445476bad0b296a14723e8c6bb6adca", "is_reserved": 0, "rental_uris": {"ios": "https://dc.lft.to/lastmile_qr_scan", "android": "https://dc.lft.to/lastmile_qr_scan"}}, {"fusion_lat": 0.0, "is_disabled": 0, "lat": 38.87370133333334, "lon": -77.00073333333333, "fusion_lon": 0.0, "bike_id": "3160715103961649b610d2ee0f7a6624", "type": "electric_scooter", "name": "3160715103961649b610d2ee0f7a6624", "is_reserved": 0, "rental_uris": {"ios": "https://dc.lft.to/lastmile_qr_scan", "android": "https://dc.lft.to/lastmile_qr_scan"}}, {"fusion_lat": 0.0, "is_disabled": 0, "lat": 38.930694333333335, "lon": -77.023439, "fusion_lon": 0.0, "bike_id": "082dc2f83eadbf1caf3b3f07ac7813ba", "type": "electric_scooter", "name": "082dc2f83eadbf1caf3b3f07ac7813ba", "is_reserved": 0, "rental_uris": {"ios": "https://dc.lft.to/lastmile_qr_scan", "android": "https://dc.lft.to/lastmile_qr_scan"}}, {"fusion_lat": 0.0, "is_disabled": 0, "lat": 38.8982865, "lon": -77.04614283333333, "fusion_lon": 0.0, "bike_id": "e9b3ca9022ca2ef337cf0ef3fb579aba", "type": "electric_scooter", "name": "e9b3ca9022ca2ef337cf0ef3fb579aba", "is_reserved": 0, "rental_uris": {"ios": "https://dc.lft.to/lastmile_qr_scan", "android": "https://dc.lft.to/lastmile_qr_scan"}}, {"fusion_lat": 0.0, "is_disabled": 0, "lat": 38.931579166666666, "lon": -77.07852616666666, "fusion_lon": 0.0, "bike_id": "217801d6b88f8d4362e8c832e7f4c596", "type": "electric_scooter", "name": "217801d6b88f8d4362e8c832e7f4c596", "is_reserved": 0, "rental_uris": {"ios": "https://dc.lft.to/lastmile_qr_scan", "android": "https://dc.lft.to/lastmile_qr_scan"}}, {"fusion_lat": 0.0, "is_disabled": 0, "lat": 38.9003095, "lon": -77.036247, "fusion_lon": 0.0, "bike_id": "506486eb3f744095c37ee7eef128e67c", "type": "electric_scooter", "name": "506486eb3f744095c37ee7eef128e67c", "is_reserved": 0, "rental_uris": {"ios": "https://dc.lft.to/lastmile_qr_scan", "android": "https://dc.lft.to/lastmile_qr_scan"}}, {"fusion_lat": 0.0, "is_disabled": 0, "lat": 38.9126655, "lon": -77.0380445, "fusion_lon": 0.0, "bike_id": "f57750812611a388585ef8d6c1c120e4", "type": "electric_scooter", "name": "f57750812611a388585ef8d6c1c120e4", "is_reserved": 0, "rental_uris": {"ios": "https://dc.lft.to/lastmile_qr_scan", "android": "https://dc.lft.to/lastmile_qr_scan"}}, {"fusion_lat": 0.0, "is_disabled": 0, "lat": 38.89226983333333, "lon": -77.00310933333333, "fusion_lon": 0.0, "bike_id": "acd51e86ddad216abc16d4d2f73f49d4", "type": "electric_scooter", "name": "acd51e86ddad216abc16d4d2f73f49d4", "is_reserved": 0, "rental_uris": {"ios": "https://dc.lft.to/lastmile_qr_scan", "android": "https://dc.lft.to/lastmile_qr_scan"}}, {"fusion_lat": 0.0, "is_disabled": 0, "lat": 38.906609833333334, "lon": -77.02693266666667, "fusion_lon": 0.0, "bike_id": "535dea0cca30d9214d241d7a82a921de", "type": "electric_scooter", "name": "535dea0cca30d9214d241d7a82a921de", "is_reserved": 0, "rental_uris": {"ios": "https://dc.lft.to/lastmile_qr_scan", "android": "https://dc.lft.to/lastmile_qr_scan"}}, {"fusion_lat": 0.0, "is_disabled": 0, "lat": 38.926734833333335, "lon": -77.02743316666667, "fusion_lon": 0.0, "bike_id": "4b558cf836b86e628eb8583b9668dbc7", "type": "electric_scooter", "name": "4b558cf836b86e628eb8583b9668dbc7", "is_reserved": 0, "rental_uris": {"ios": "https://dc.lft.to/lastmile_qr_scan", "android": "https://dc.lft.to/lastmile_qr_scan"}}, {"fusion_lat": 0.0, "is_disabled": 0, "lat": 38.892233, "lon": -77.04688816666666, "fusion_lon": 0.0, "bike_id": "7e3eb98c1c8c5880eb1aa3d59449d1df", "type": "electric_scooter", "name": "7e3eb98c1c8c5880eb1aa3d59449d1df", "is_reserved": 0, "rental_uris": {"ios": "https://dc.lft.to/lastmile_qr_scan", "android": "https://dc.lft.to/lastmile_qr_scan"}}, {"fusion_lat": 0.0, "is_disabled": 0, "lat": 38.8870955, "lon": -76.983424, "fusion_lon": 0.0, "bike_id": "2f054b08af6966b8510a872583eb4205", "type": "electric_scooter", "name": "2f054b08af6966b8510a872583eb4205", "is_reserved": 0, "rental_uris": {"ios": "https://dc.lft.to/lastmile_qr_scan", "android": "https://dc.lft.to/lastmile_qr_scan"}}, {"fusion_lat": 0.0, "is_disabled": 0, "lat": 38.924627, "lon": -77.02197833333334, "fusion_lon": 0.0, "bike_id": "1015f72bd8ff5dbcb22d30a5019bb293", "type": "electric_scooter", "name": "1015f72bd8ff5dbcb22d30a5019bb293", "is_reserved": 0, "rental_uris": {"ios": "https://dc.lft.to/lastmile_qr_scan", "android": "https://dc.lft.to/lastmile_qr_scan"}}, {"fusion_lat": 0.0, "is_disabled": 0, "lat": 38.914158, "lon": -77.052081, "fusion_lon": 0.0, "bike_id": "748a262bdda500e8e0970289e2dc74d2", "type": "electric_scooter", "name": "748a262bdda500e8e0970289e2dc74d2", "is_reserved": 0, "rental_uris": {"ios": "https://dc.lft.to/lastmile_qr_scan", "android": "https://dc.lft.to/lastmile_qr_scan"}}, {"fusion_lat": 0.0, "is_disabled": 0, "lat": 38.87591333333334, "lon": -77.00257983333333, "fusion_lon": 0.0, "bike_id": "351bc32f468a99b3e271df2c3d5f86c0", "type": "electric_scooter", "name": "351bc32f468a99b3e271df2c3d5f86c0", "is_reserved": 0, "rental_uris": {"ios": "https://dc.lft.to/lastmile_qr_scan", "android": "https://dc.lft.to/lastmile_qr_scan"}}, {"fusion_lat": 0.0, "is_disabled": 0, "lat": 38.908396833333335, "lon": -76.99254283333333, "fusion_lon": 0.0, "bike_id": "0ff068225215851d9962835015e32d71", "type": "electric_scooter", "name": "0ff068225215851d9962835015e32d71", "is_reserved": 0, "rental_uris": {"ios": "https://dc.lft.to/lastmile_qr_scan", "android": "https://dc.lft.to/lastmile_qr_scan"}}, {"fusion_lat": 0.0, "is_disabled": 0, "lat": 38.90121666666667, "lon": -77.04349783333333, "fusion_lon": 0.0, "bike_id": "b42ceaa1d04fc68550d5352edee59670", "type": "electric_scooter", "name": "b42ceaa1d04fc68550d5352edee59670", "is_reserved": 0, "rental_uris": {"ios": "https://dc.lft.to/lastmile_qr_scan", "android": "https://dc.lft.to/lastmile_qr_scan"}}, {"fusion_lat": 0.0, "is_disabled": 0, "lat": 38.90273366666667, "lon": -77.0406575, "fusion_lon": 0.0, "bike_id": "619b543171f19ad3b0fb810d57e1003c", "type": "electric_scooter", "name": "619b543171f19ad3b0fb810d57e1003c", "is_reserved": 0, "rental_uris": {"ios": "https://dc.lft.to/lastmile_qr_scan", "android": "https://dc.lft.to/lastmile_qr_scan"}}, {"fusion_lat": 0.0, "is_disabled": 0, "lat": 38.879355, "lon": -76.9937325, "fusion_lon": 0.0, "bike_id": "71dc9cf32578573adab7e91ab160c595", "type": "electric_scooter", "name": "71dc9cf32578573adab7e91ab160c595", "is_reserved": 0, "rental_uris": {"ios": "https://dc.lft.to/lastmile_qr_scan", "android": "https://dc.lft.to/lastmile_qr_scan"}}, {"fusion_lat": 0.0, "is_disabled": 0, "lat": 38.91577066666667, "lon": -77.02009816666667, "fusion_lon": 0.0, "bike_id": "df9c10872da95c5d521230362e684f1a", "type": "electric_scooter", "name": "df9c10872da95c5d521230362e684f1a", "is_reserved": 0, "rental_uris": {"ios": "https://dc.lft.to/lastmile_qr_scan", "android": "https://dc.lft.to/lastmile_qr_scan"}}, {"fusion_lat": 0.0, "is_disabled": 0, "lat": 38.89525283333333, "lon": -77.00353716666666, "fusion_lon": 0.0, "bike_id": "77ba243bd1c235c71c0875be244262f8", "type": "electric_scooter", "name": "77ba243bd1c235c71c0875be244262f8", "is_reserved": 0, "rental_uris": {"ios": "https://dc.lft.to/lastmile_qr_scan", "android": "https://dc.lft.to/lastmile_qr_scan"}}, {"fusion_lat": 0.0, "is_disabled": 0, "lat": 38.8624615, "lon": -76.99499433333334, "fusion_lon": 0.0, "bike_id": "4e7a49b596dfbd9966e4c3be3fac0aee", "type": "electric_scooter", "name": "4e7a49b596dfbd9966e4c3be3fac0aee", "is_reserved": 0, "rental_uris": {"ios": "https://dc.lft.to/lastmile_qr_scan", "android": "https://dc.lft.to/lastmile_qr_scan"}}, {"fusion_lat": 0.0, "is_disabled": 0, "lat": 38.90871666666666, "lon": -77.04049033333334, "fusion_lon": 0.0, "bike_id": "2e18922c58ca20ad80d1990c8a02a660", "type": "electric_scooter", "name": "2e18922c58ca20ad80d1990c8a02a660", "is_reserved": 0, "rental_uris": {"ios": "https://dc.lft.to/lastmile_qr_scan", "android": "https://dc.lft.to/lastmile_qr_scan"}}, {"fusion_lat": 0.0, "is_disabled": 0, "lat": 38.918670666666664, "lon": -77.04470383333333, "fusion_lon": 0.0, "bike_id": "bad73e4b0f3714894621f5e4a087ef2c", "type": "electric_scooter", "name": "bad73e4b0f3714894621f5e4a087ef2c", "is_reserved": 0, "rental_uris": {"ios": "https://dc.lft.to/lastmile_qr_scan", "android": "https://dc.lft.to/lastmile_qr_scan"}}, {"fusion_lat": 0.0, "is_disabled": 0, "lat": 38.905891, "lon": -76.99499916666667, "fusion_lon": 0.0, "bike_id": "6a15cfb5c397bfa63444fa370b1e39b2", "type": "electric_scooter", "name": "6a15cfb5c397bfa63444fa370b1e39b2", "is_reserved": 0, "rental_uris": {"ios": "https://dc.lft.to/lastmile_qr_scan", "android": "https://dc.lft.to/lastmile_qr_scan"}}, {"fusion_lat": 0.0, "is_disabled": 0, "lat": 38.9533455, "lon": -76.98253633333333, "fusion_lon": 0.0, "bike_id": "2c9ed38184a30fbe714bf9a698e925aa", "type": "electric_bike", "name": "2c9ed38184a30fbe714bf9a698e925aa", "is_reserved": 0, "rental_uris": {"ios": "https://dc.lft.to/lastmile_qr_scan", "android": "https://dc.lft.to/lastmile_qr_scan"}}, {"fusion_lat": 0.0, "is_disabled": 0, "lat": 38.9204535, "lon": -77.032868, "fusion_lon": 0.0, "bike_id": "00f951c39d527e47c31fcb8ee2748e88", "type": "electric_scooter", "name": "00f951c39d527e47c31fcb8ee2748e88", "is_reserved": 0, "rental_uris": {"ios": "https://dc.lft.to/lastmile_qr_scan", "android": "https://dc.lft.to/lastmile_qr_scan"}}, {"fusion_lat": 0.0, "is_disabled": 0, "lat": 38.935861, "lon": -77.058796, "fusion_lon": 0.0, "bike_id": "bdf025ebdee71953a9cfc560f038314a", "type": "electric_scooter", "name": "bdf025ebdee71953a9cfc560f038314a", "is_reserved": 0, "rental_uris": {"ios": "https://dc.lft.to/lastmile_qr_scan", "android": "https://dc.lft.to/lastmile_qr_scan"}}, {"fusion_lat": 0.0, "is_disabled": 0, "lat": 38.883389666666666, "lon": -77.02600766666667, "fusion_lon": 0.0, "bike_id": "e91ab9446ba7afc41ac7ec5bf6e9fe6c", "type": "electric_scooter", "name": "e91ab9446ba7afc41ac7ec5bf6e9fe6c", "is_reserved": 0, "rental_uris": {"ios": "https://dc.lft.to/lastmile_qr_scan", "android": "https://dc.lft.to/lastmile_qr_scan"}}, {"fusion_lat": 0.0, "is_disabled": 0, "lat": 38.8768395, "lon": -77.019861, "fusion_lon": 0.0, "bike_id": "bb7aa8047cf0ab48370b7156b3ddaa0f", "type": "electric_scooter", "name": "bb7aa8047cf0ab48370b7156b3ddaa0f", "is_reserved": 0, "rental_uris": {"ios": "https://dc.lft.to/lastmile_qr_scan", "android": "https://dc.lft.to/lastmile_qr_scan"}}, {"fusion_lat": 0.0, "is_disabled": 0, "lat": 38.92335083333333, "lon": -77.052527, "fusion_lon": 0.0, "bike_id": "950570fe920a33b616246f715ee05b25", "type": "electric_scooter", "name": "950570fe920a33b616246f715ee05b25", "is_reserved": 0, "rental_uris": {"ios": "https://dc.lft.to/lastmile_qr_scan", "android": "https://dc.lft.to/lastmile_qr_scan"}}, {"fusion_lat": 0.0, "is_disabled": 0, "lat": 38.924674333333336, "lon": -77.021947, "fusion_lon": 0.0, "bike_id": "c95b067f9bd2edf8a479e944bd904a2b", "type": "electric_scooter", "name": "c95b067f9bd2edf8a479e944bd904a2b", "is_reserved": 0, "rental_uris": {"ios": "https://dc.lft.to/lastmile_qr_scan", "android": "https://dc.lft.to/lastmile_qr_scan"}}, {"fusion_lat": 0.0, "is_disabled": 0, "lat": 38.91748183333333, "lon": -77.04156283333333, "fusion_lon": 0.0, "bike_id": "cd1b59c091b4b17f0c6b686c865a1b65", "type": "electric_scooter", "name": "cd1b59c091b4b17f0c6b686c865a1b65", "is_reserved": 0, "rental_uris": {"ios": "https://dc.lft.to/lastmile_qr_scan", "android": "https://dc.lft.to/lastmile_qr_scan"}}, {"fusion_lat": 0.0, "is_disabled": 0, "lat": 38.9002765, "lon": -76.98831566666667, "fusion_lon": 0.0, "bike_id": "af8f1c89ce8bd2b8e44d4ad4afe500fb", "type": "electric_scooter", "name": "af8f1c89ce8bd2b8e44d4ad4afe500fb", "is_reserved": 0, "rental_uris": {"ios": "https://dc.lft.to/lastmile_qr_scan", "android": "https://dc.lft.to/lastmile_qr_scan"}}, {"fusion_lat": 0.0, "is_disabled": 0, "lat": 38.892203, "lon": -77.02162533333333, "fusion_lon": 0.0, "bike_id": "2ba908ce500f2c98ab9ac19c2cbbec9b", "type": "electric_scooter", "name": "2ba908ce500f2c98ab9ac19c2cbbec9b", "is_reserved": 0, "rental_uris": {"ios": "https://dc.lft.to/lastmile_qr_scan", "android": "https://dc.lft.to/lastmile_qr_scan"}}, {"fusion_lat": 0.0, "is_disabled": 0, "lat": 38.89831083333333, "lon": -77.04695016666666, "fusion_lon": 0.0, "bike_id": "11b7201897499cb88d2355fc8c67eb65", "type": "electric_scooter", "name": "11b7201897499cb88d2355fc8c67eb65", "is_reserved": 0, "rental_uris": {"ios": "https://dc.lft.to/lastmile_qr_scan", "android": "https://dc.lft.to/lastmile_qr_scan"}}, {"fusion_lat": 0.0, "is_disabled": 0, "lat": 38.91466533333333, "lon": -77.02175116666666, "fusion_lon": 0.0, "bike_id": "cb8726c762598a979bdfe5ad72379aa7", "type": "electric_scooter", "name": "cb8726c762598a979bdfe5ad72379aa7", "is_reserved": 0, "rental_uris": {"ios": "https://dc.lft.to/lastmile_qr_scan", "android": "https://dc.lft.to/lastmile_qr_scan"}}, {"fusion_lat": 0.0, "is_disabled": 0, "lat": 38.901452666666664, "lon": -77.03214316666667, "fusion_lon": 0.0, "bike_id": "a0c3ec3e84c0b55d3ff387d303b54e29", "type": "electric_scooter", "name": "a0c3ec3e84c0b55d3ff387d303b54e29", "is_reserved": 0, "rental_uris": {"ios": "https://dc.lft.to/lastmile_qr_scan", "android": "https://dc.lft.to/lastmile_qr_scan"}}, {"fusion_lat": 0.0, "is_disabled": 0, "lat": 38.90373833333334, "lon": -77.038574, "fusion_lon": 0.0, "bike_id": "06b86a7187d1c90587be78f47844af87", "type": "electric_scooter", "name": "06b86a7187d1c90587be78f47844af87", "is_reserved": 0, "rental_uris": {"ios": "https://dc.lft.to/lastmile_qr_scan", "android": "https://dc.lft.to/lastmile_qr_scan"}}, {"fusion_lat": 0.0, "is_disabled": 0, "lat": 38.89614516666666, "lon": -77.02402516666666, "fusion_lon": 0.0, "bike_id": "f529c8b257c054c25cd99eae0161df65", "type": "electric_scooter", "name": "f529c8b257c054c25cd99eae0161df65", "is_reserved": 0, "rental_uris": {"ios": "https://dc.lft.to/lastmile_qr_scan", "android": "https://dc.lft.to/lastmile_qr_scan"}}, {"fusion_lat": 0.0, "is_disabled": 0, "lat": 38.94406166666667, "lon": -77.06329666666667, "fusion_lon": 0.0, "bike_id": "d0efb459ca4ed3b295586c4843fad263", "type": "electric_scooter", "name": "d0efb459ca4ed3b295586c4843fad263", "is_reserved": 0, "rental_uris": {"ios": "https://dc.lft.to/lastmile_qr_scan", "android": "https://dc.lft.to/lastmile_qr_scan"}}, {"fusion_lat": 0.0, "is_disabled": 0, "lat": 38.902589166666665, "lon": -77.03895433333334, "fusion_lon": 0.0, "bike_id": "8154517d14b1ad438a7b1da1799fd923", "type": "electric_scooter", "name": "8154517d14b1ad438a7b1da1799fd923", "is_reserved": 0, "rental_uris": {"ios": "https://dc.lft.to/lastmile_qr_scan", "android": "https://dc.lft.to/lastmile_qr_scan"}}, {"fusion_lat": 0.0, "is_disabled": 0, "lat": 38.93247016666667, "lon": -77.03276633333333, "fusion_lon": 0.0, "bike_id": "dcf2b81f3b266f271d01beb14424d352", "type": "electric_scooter", "name": "dcf2b81f3b266f271d01beb14424d352", "is_reserved": 0, "rental_uris": {"ios": "https://dc.lft.to/lastmile_qr_scan", "android": "https://dc.lft.to/lastmile_qr_scan"}}, {"fusion_lat": 0.0, "is_disabled": 0, "lat": 38.89102966666667, "lon": -77.18419983333334, "fusion_lon": 0.0, "bike_id": "01f578991f1195667ee1e735a21008b9", "type": "electric_bike", "name": "01f578991f1195667ee1e735a21008b9", "is_reserved": 0, "rental_uris": {"ios": "https://dc.lft.to/lastmile_qr_scan", "android": "https://dc.lft.to/lastmile_qr_scan"}}, {"fusion_lat": 0.0, "is_disabled": 0, "lat": 38.89832583333333, "lon": -77.048213, "fusion_lon": 0.0, "bike_id": "fe5097b2671921159d6b9ce2272e432c", "type": "electric_scooter", "name": "fe5097b2671921159d6b9ce2272e432c", "is_reserved": 0, "rental_uris": {"ios": "https://dc.lft.to/lastmile_qr_scan", "android": "https://dc.lft.to/lastmile_qr_scan"}}, {"fusion_lat": 0.0, "is_disabled": 0, "lat": 38.90208283333333, "lon": -77.05903983333333, "fusion_lon": 0.0, "bike_id": "2ffb71084ce1eb23bdcb4511ace631af", "type": "electric_scooter", "name": "2ffb71084ce1eb23bdcb4511ace631af", "is_reserved": 0, "rental_uris": {"ios": "https://dc.lft.to/lastmile_qr_scan", "android": "https://dc.lft.to/lastmile_qr_scan"}}, {"fusion_lat": 0.0, "is_disabled": 0, "lat": 39.0849495, "lon": -76.95045233333333, "fusion_lon": 0.0, "bike_id": "8455642eab2e5027b5cc5bea71bbb33f", "type": "electric_bike", "name": "8455642eab2e5027b5cc5bea71bbb33f", "is_reserved": 0, "rental_uris": {"ios": "https://dc.lft.to/lastmile_qr_scan", "android": "https://dc.lft.to/lastmile_qr_scan"}}, {"fusion_lat": 0.0, "is_disabled": 0, "lat": 38.905690166666666, "lon": -77.00941266666666, "fusion_lon": 0.0, "bike_id": "aac43d9eed9b9d5733f1b63458b96b7b", "type": "electric_scooter", "name": "aac43d9eed9b9d5733f1b63458b96b7b", "is_reserved": 0, "rental_uris": {"ios": "https://dc.lft.to/lastmile_qr_scan", "android": "https://dc.lft.to/lastmile_qr_scan"}}, {"fusion_lat": 0.0, "is_disabled": 0, "lat": 38.9198455, "lon": -77.03248133333334, "fusion_lon": 0.0, "bike_id": "1dea3dcc734ea45eca6c6bdc311520bf", "type": "electric_scooter", "name": "1dea3dcc734ea45eca6c6bdc311520bf", "is_reserved": 0, "rental_uris": {"ios": "https://dc.lft.to/lastmile_qr_scan", "android": "https://dc.lft.to/lastmile_qr_scan"}}, {"fusion_lat": 0.0, "is_disabled": 0, "lat": 38.900788166666665, "lon": -77.00729416666667, "fusion_lon": 0.0, "bike_id": "ec530e89799089030e4ff3b96c623124", "type": "electric_scooter", "name": "ec530e89799089030e4ff3b96c623124", "is_reserved": 0, "rental_uris": {"ios": "https://dc.lft.to/lastmile_qr_scan", "android": "https://dc.lft.to/lastmile_qr_scan"}}, {"fusion_lat": 0.0, "is_disabled": 0, "lat": 38.923578666666664, "lon": -77.05066433333333, "fusion_lon": 0.0, "bike_id": "a38a07f695300f2b6413311523f562e7", "type": "electric_scooter", "name": "a38a07f695300f2b6413311523f562e7", "is_reserved": 0, "rental_uris": {"ios": "https://dc.lft.to/lastmile_qr_scan", "android": "https://dc.lft.to/lastmile_qr_scan"}}, {"fusion_lat": 0.0, "is_disabled": 0, "lat": 38.9026795, "lon": -77.0388765, "fusion_lon": 0.0, "bike_id": "0cda31855f5ccf546deaf35f3153d628", "type": "electric_scooter", "name": "0cda31855f5ccf546deaf35f3153d628", "is_reserved": 0, "rental_uris": {"ios": "https://dc.lft.to/lastmile_qr_scan", "android": "https://dc.lft.to/lastmile_qr_scan"}}, {"fusion_lat": 0.0, "is_disabled": 0, "lat": 38.9007115, "lon": -77.04612, "fusion_lon": 0.0, "bike_id": "4e75a53661b2a267b30686acaa1f9574", "type": "electric_scooter", "name": "4e75a53661b2a267b30686acaa1f9574", "is_reserved": 0, "rental_uris": {"ios": "https://dc.lft.to/lastmile_qr_scan", "android": "https://dc.lft.to/lastmile_qr_scan"}}, {"fusion_lat": 0.0, "is_disabled": 0, "lat": 38.92305316666667, "lon": -77.01957833333333, "fusion_lon": 0.0, "bike_id": "a1cd87d4260e2248c6c44f323bafab05", "type": "electric_scooter", "name": "a1cd87d4260e2248c6c44f323bafab05", "is_reserved": 0, "rental_uris": {"ios": "https://dc.lft.to/lastmile_qr_scan", "android": "https://dc.lft.to/lastmile_qr_scan"}}, {"fusion_lat": 0.0, "is_disabled": 0, "lat": 38.93458666666667, "lon": -77.0292635, "fusion_lon": 0.0, "bike_id": "295b2f1e86e155bc67372e57869a2ec7", "type": "electric_scooter", "name": "295b2f1e86e155bc67372e57869a2ec7", "is_reserved": 0, "rental_uris": {"ios": "https://dc.lft.to/lastmile_qr_scan", "android": "https://dc.lft.to/lastmile_qr_scan"}}, {"fusion_lat": 0.0, "is_disabled": 0, "lat": 38.92959283333333, "lon": -77.01147116666667, "fusion_lon": 0.0, "bike_id": "8fee86a2ff2a50356174503d0ef9b9ae", "type": "electric_scooter", "name": "8fee86a2ff2a50356174503d0ef9b9ae", "is_reserved": 0, "rental_uris": {"ios": "https://dc.lft.to/lastmile_qr_scan", "android": "https://dc.lft.to/lastmile_qr_scan"}}, {"fusion_lat": 0.0, "is_disabled": 0, "lat": 38.91107866666667, "lon": -77.0372955, "fusion_lon": 0.0, "bike_id": "f67ac8aed19fe65ff452c411a407d609", "type": "electric_scooter", "name": "f67ac8aed19fe65ff452c411a407d609", "is_reserved": 0, "rental_uris": {"ios": "https://dc.lft.to/lastmile_qr_scan", "android": "https://dc.lft.to/lastmile_qr_scan"}}, {"fusion_lat": 0.0, "is_disabled": 0, "lat": 38.913394833333335, "lon": -77.0212085, "fusion_lon": 0.0, "bike_id": "7d08eb0c16d8866cd0c1c6e4816f762d", "type": "electric_scooter", "name": "7d08eb0c16d8866cd0c1c6e4816f762d", "is_reserved": 0, "rental_uris": {"ios": "https://dc.lft.to/lastmile_qr_scan", "android": "https://dc.lft.to/lastmile_qr_scan"}}, {"fusion_lat": 0.0, "is_disabled": 0, "lat": 38.892155333333335, "lon": -77.0462535, "fusion_lon": 0.0, "bike_id": "5e35c49c301c4a3040ac22731bb05e92", "type": "electric_scooter", "name": "5e35c49c301c4a3040ac22731bb05e92", "is_reserved": 0, "rental_uris": {"ios": "https://dc.lft.to/lastmile_qr_scan", "android": "https://dc.lft.to/lastmile_qr_scan"}}, {"fusion_lat": 0.0, "is_disabled": 0, "lat": 38.9154645, "lon": -77.00768233333334, "fusion_lon": 0.0, "bike_id": "e8e78526863a5331e0a499a3651f67c5", "type": "electric_scooter", "name": "e8e78526863a5331e0a499a3651f67c5", "is_reserved": 0, "rental_uris": {"ios": "https://dc.lft.to/lastmile_qr_scan", "android": "https://dc.lft.to/lastmile_qr_scan"}}, {"fusion_lat": 0.0, "is_disabled": 0, "lat": 38.892180333333336, "lon": -77.03129516666667, "fusion_lon": 0.0, "bike_id": "b3a19eeba0dd289041cfce1778761052", "type": "electric_scooter", "name": "b3a19eeba0dd289041cfce1778761052", "is_reserved": 0, "rental_uris": {"ios": "https://dc.lft.to/lastmile_qr_scan", "android": "https://dc.lft.to/lastmile_qr_scan"}}, {"fusion_lat": 0.0, "is_disabled": 0, "lat": 38.910523, "lon": -77.05394083333333, "fusion_lon": 0.0, "bike_id": "80e23049ff1e859849f9f62ca830b875", "type": "electric_scooter", "name": "80e23049ff1e859849f9f62ca830b875", "is_reserved": 0, "rental_uris": {"ios": "https://dc.lft.to/lastmile_qr_scan", "android": "https://dc.lft.to/lastmile_qr_scan"}}, {"fusion_lat": 0.0, "is_disabled": 0, "lat": 38.92208733333333, "lon": -77.04249483333334, "fusion_lon": 0.0, "bike_id": "038b39fdfc867ce729595e05744c2443", "type": "electric_scooter", "name": "038b39fdfc867ce729595e05744c2443", "is_reserved": 0, "rental_uris": {"ios": "https://dc.lft.to/lastmile_qr_scan", "android": "https://dc.lft.to/lastmile_qr_scan"}}, {"fusion_lat": 0.0, "is_disabled": 0, "lat": 38.964070666666665, "lon": -77.03287283333333, "fusion_lon": 0.0, "bike_id": "0006c4044b5bcea5912076a1314cd91c", "type": "electric_scooter", "name": "0006c4044b5bcea5912076a1314cd91c", "is_reserved": 0, "rental_uris": {"ios": "https://dc.lft.to/lastmile_qr_scan", "android": "https://dc.lft.to/lastmile_qr_scan"}}, {"fusion_lat": 0.0, "is_disabled": 0, "lat": 38.92392266666667, "lon": -77.02086616666666, "fusion_lon": 0.0, "bike_id": "1c476e72a450a3e5bf4d1474dd91e83a", "type": "electric_scooter", "name": "1c476e72a450a3e5bf4d1474dd91e83a", "is_reserved": 0, "rental_uris": {"ios": "https://dc.lft.to/lastmile_qr_scan", "android": "https://dc.lft.to/lastmile_qr_scan"}}, {"fusion_lat": 0.0, "is_disabled": 0, "lat": 38.924062, "lon": -77.02258633333334, "fusion_lon": 0.0, "bike_id": "43b7ebd09aba5f2981bfbea90502bb3b", "type": "electric_scooter", "name": "43b7ebd09aba5f2981bfbea90502bb3b", "is_reserved": 0, "rental_uris": {"ios": "https://dc.lft.to/lastmile_qr_scan", "android": "https://dc.lft.to/lastmile_qr_scan"}}, {"fusion_lat": 0.0, "is_disabled": 0, "lat": 38.874623666666665, "lon": -77.00511133333333, "fusion_lon": 0.0, "bike_id": "3297243859a29b2066404245558085e5", "type": "electric_scooter", "name": "3297243859a29b2066404245558085e5", "is_reserved": 0, "rental_uris": {"ios": "https://dc.lft.to/lastmile_qr_scan", "android": "https://dc.lft.to/lastmile_qr_scan"}}, {"fusion_lat": 0.0, "is_disabled": 0, "lat": 38.89723633333333, "lon": -77.05527066666667, "fusion_lon": 0.0, "bike_id": "b5b58bd699b7c1c76740c97e4cd05ac4", "type": "electric_scooter", "name": "b5b58bd699b7c1c76740c97e4cd05ac4", "is_reserved": 0, "rental_uris": {"ios": "https://dc.lft.to/lastmile_qr_scan", "android": "https://dc.lft.to/lastmile_qr_scan"}}, {"fusion_lat": 0.0, "is_disabled": 0, "lat": 38.902457, "lon": -77.01496516666667, "fusion_lon": 0.0, "bike_id": "b10b710850bfa4ad7898797da4b1dffc", "type": "electric_scooter", "name": "b10b710850bfa4ad7898797da4b1dffc", "is_reserved": 0, "rental_uris": {"ios": "https://dc.lft.to/lastmile_qr_scan", "android": "https://dc.lft.to/lastmile_qr_scan"}}, {"fusion_lat": 0.0, "is_disabled": 0, "lat": 38.9156405, "lon": -77.03259033333333, "fusion_lon": 0.0, "bike_id": "4d64f16678b01064e87e1d53f9d84546", "type": "electric_scooter", "name": "4d64f16678b01064e87e1d53f9d84546", "is_reserved": 0, "rental_uris": {"ios": "https://dc.lft.to/lastmile_qr_scan", "android": "https://dc.lft.to/lastmile_qr_scan"}}, {"fusion_lat": 0.0, "is_disabled": 0, "lat": 38.9069895, "lon": -76.9869495, "fusion_lon": 0.0, "bike_id": "ca7c29363aac99b572d2b9dee14e01f4", "type": "electric_scooter", "name": "ca7c29363aac99b572d2b9dee14e01f4", "is_reserved": 0, "rental_uris": {"ios": "https://dc.lft.to/lastmile_qr_scan", "android": "https://dc.lft.to/lastmile_qr_scan"}}, {"fusion_lat": 0.0, "is_disabled": 0, "lat": 38.8871625, "lon": -76.99646666666666, "fusion_lon": 0.0, "bike_id": "d34b286b41876357c3536acabbf63593", "type": "electric_scooter", "name": "d34b286b41876357c3536acabbf63593", "is_reserved": 0, "rental_uris": {"ios": "https://dc.lft.to/lastmile_qr_scan", "android": "https://dc.lft.to/lastmile_qr_scan"}}, {"fusion_lat": 0.0, "is_disabled": 0, "lat": 38.92681916666667, "lon": -77.02967066666666, "fusion_lon": 0.0, "bike_id": "614e823e9180f56e295caf599f5698db", "type": "electric_scooter", "name": "614e823e9180f56e295caf599f5698db", "is_reserved": 0, "rental_uris": {"ios": "https://dc.lft.to/lastmile_qr_scan", "android": "https://dc.lft.to/lastmile_qr_scan"}}, {"fusion_lat": 0.0, "is_disabled": 0, "lat": 38.903072333333334, "lon": -77.04472183333333, "fusion_lon": 0.0, "bike_id": "8e331abe133482649e80ddf26924e8c1", "type": "electric_scooter", "name": "8e331abe133482649e80ddf26924e8c1", "is_reserved": 0, "rental_uris": {"ios": "https://dc.lft.to/lastmile_qr_scan", "android": "https://dc.lft.to/lastmile_qr_scan"}}, {"fusion_lat": 0.0, "is_disabled": 0, "lat": 38.91800683333334, "lon": -77.03127133333334, "fusion_lon": 0.0, "bike_id": "833ae30a18e5196e30b9d17cbb1766ea", "type": "electric_scooter", "name": "833ae30a18e5196e30b9d17cbb1766ea", "is_reserved": 0, "rental_uris": {"ios": "https://dc.lft.to/lastmile_qr_scan", "android": "https://dc.lft.to/lastmile_qr_scan"}}, {"fusion_lat": 0.0, "is_disabled": 0, "lat": 38.87063366666667, "lon": -77.11039916666667, "fusion_lon": 0.0, "bike_id": "3d6408dedf366d916eb00cac67c6447d", "type": "electric_bike", "name": "3d6408dedf366d916eb00cac67c6447d", "is_reserved": 0, "rental_uris": {"ios": "https://dc.lft.to/lastmile_qr_scan", "android": "https://dc.lft.to/lastmile_qr_scan"}}, {"fusion_lat": 0.0, "is_disabled": 0, "lat": 38.926595, "lon": -77.01470066666667, "fusion_lon": 0.0, "bike_id": "f753dc68911b44ff20232e213ac0b172", "type": "electric_scooter", "name": "f753dc68911b44ff20232e213ac0b172", "is_reserved": 0, "rental_uris": {"ios": "https://dc.lft.to/lastmile_qr_scan", "android": "https://dc.lft.to/lastmile_qr_scan"}}, {"fusion_lat": 0.0, "is_disabled": 0, "lat": 38.9141545, "lon": -77.04503533333333, "fusion_lon": 0.0, "bike_id": "4e3cddd63e0f6dd2616444eb442257aa", "type": "electric_scooter", "name": "4e3cddd63e0f6dd2616444eb442257aa", "is_reserved": 0, "rental_uris": {"ios": "https://dc.lft.to/lastmile_qr_scan", "android": "https://dc.lft.to/lastmile_qr_scan"}},