{"data": {"bikes": [{"rental_uris": {"ios": "https://dc.lft.to/lastmile_qr_scan", "android": "https://dc.lft.to/lastmile_qr_scan"}, "lon": -77.007996, "type": "electric_bike", "fusion_lat": 0.0, "lat": 38.92667983333333, "name": "27470331504ce2254bd458d71c519a8f", "fusion_lon": 0.0, "bike_id": "27470331504ce2254bd458d71c519a8f", "is_disabled": 0, "is_reserved": 0}, {"rental_uris": {"ios": "https://dc.lft.to/lastmile_qr_scan", "android": "https://dc.lft.to/lastmile_qr_scan"}, "lon": -76.99668666666666, "type": "electric_scooter", "fusion_lat": 0.0, "lat": 38.91013316666667, "name": "6ac0db4ca5c0634a778a544d81957220", "fusion_lon": 0.0, "bike_id": "6ac0db4ca5c0634a778a544d81957220", "is_disabled": 0, "is_reserved": 0}, {"rental_uris": {"ios": "https://dc.lft.to/lastmile_qr_scan", "android": "https://dc.lft.to/lastmile_qr_scan"}, "lon": -76.94716733333334, "type": "electric_scooter", "fusion_lat": 0.0, "lat": 38.897362666666666, "name": "1ab5930181f0f74ae0bc73f78eacac66", "fusion_lon": 0.0, "bike_id": "1ab5930181f0f74ae0bc73f78eacac66", "is_disabled": 0, "is_reserved": 0}, {"rental_uris": {"ios": "https://dc.lft.to/lastmile_qr_scan", "android": "https://dc.lft.to/lastmile_qr_scan"}, "lon": -77.0610455, "type": "electric_scooter", "fusion_lat": 0.0, "lat": 38.9370315, "name": "3495ffb42305c80f369d90d066cecbdf", "fusion_lon": 0.0, "bike_id": "3495ffb42305c80f369d90d066cecbdf", "is_disabled": 0, "is_reserved": 0}, {"rental_uris": {"ios": "https://dc.lft.to/lastmile_qr_scan", "android": "https://dc.lft.to/lastmile_qr_scan"}, "lon": -77.0272385, "type": "electric_scooter", "fusion_lat": 0.0, "lat": 38.934324, "name": "4826d425bed52b0fb0da7a89c0885437", "fusion_lon": 0.0, "bike_id": "4826d425bed52b0fb0da7a89c0885437", "is_disabled": 0, "is_reserved": 0}, {"rental_uris": {"ios": "https://dc.lft.to/lastmile_qr_scan", "android": "https://dc.lft.to/lastmile_qr_scan"}, "lon": -76.98654116666667, "type": "electric_scooter", "fusion_lat": 0.0, "lat": 38.858050666666664, "name": "e2265e7d71e031d4dff4b91dfacbc705", "fusion_lon": 0.0, "bike_id": "e2265e7d71e031d4dff4b91dfacbc705", "is_disabled": 0, "is_reserved": 0}, {"rental_uris": {"ios": "https://dc.lft.to/lastmile_qr_scan", "android": "https://dc.lft.to/lastmile_qr_scan"}, "lon": -77.044999, "type": "electric_scooter", "fusion_lat": 0.0, "lat": 38.9002225, "name": "a7a0161f3b9706e221c39f53d20f3d05", "fusion_lon": 0.0, "bike_id": "a7a0161f3b9706e221c39f53d20f3d05", "is_disabled": 0, "is_reserved": 0}, {"rental_uris": {"ios": "https://dc.lft.to/lastmile_qr_scan", "android": "https://dc.lft.to/lastmile_qr_scan"}, "lon": -77.0693825, "type": "electric_scooter", "fusion_lat": 0.0, "lat": 38.90519916666667, "name": "a18ede6228c26d593890373318dd3ded", "fusion_lon": 0.0, "bike_id": "a18ede6228c26d593890373318dd3ded", "is_disabled": 0, "is_reserved": 0}, {"rental_uris": {"ios": "https://dc.lft.to/lastmile_qr_scan", "android": "https://dc.lft.to/lastmile_qr_scan"}, "lon": -77.04267816666666, "type": "electric_scooter", "fusion_lat": 0.0, "lat": 38.92242483333333, "name": "5dd8a195a18c9da3a7bbe3149f9cd381", "fusion_lon": 0.0, "bike_id": "5dd8a195a18c9da3a7bbe3149f9cd381", "is_disabled": 0, "is_reserved": 0}, {"rental_uris": {"ios": "https://dc.lft.to/lastmile_qr_scan", "android": "https://dc.lft.to/lastmile_qr_scan"}, "lon": -77.03642783333333, "type": "electric_scooter", "fusion_lat": 0.0, "lat": 38.902860833333335, "name": "acb498bff897c61ba8daeb0ba8fa4f04", "fusion_lon": 0.0, "bike_id": "acb498bff897c61ba8daeb0ba8fa4f04", "is_disabled": 0, "is_reserved": 0}, {"rental_uris": {"ios": "https://dc.lft.to/lastmile_qr_scan", "android": "https://dc.lft.to/lastmile_qr_scan"}, "lon": -77.01183633333333, "type": "electric_scooter", "fusion_lat": 0.0, "lat": 38.90026133333333, "name": "41bfa3340c59b03f7c8d6d6da2ba478b", "fusion_lon": 0.0, "bike_id": "41bfa3340c59b03f7c8d6d6da2ba478b", "is_disabled": 0, "is_reserved": 0}, {"rental_uris": {"ios": "https://dc.lft.to/lastmile_qr_scan", "android": "https://dc.lft.to/lastmile_qr_scan"}, "lon": -77.03250233333333, "type": "electric_scooter", "fusion_lat": 0.0, "lat": 38.927728, "name": "fc37deaddff3d33702918550cb2f92f5", "fusion_lon": 0.0, "bike_id": "fc37deaddff3d33702918550cb2f92f5", "is_disabled": 0, "is_reserved": 0}, {"rental_uris": {"ios": "https://dc.lft.to/lastmile_qr_scan", "android": "https://dc.lft.to/lastmile_qr_scan"}, "lon": -77.00782016666666, "type": "electric_scooter", "fusion_lat": 0.0, "lat": 38.9065215, "name": "bcde27b6d66adcbc3b7a252fcb7c4f67", "fusion_lon": 0.0, "bike_id": "bcde27b6d66adcbc3b7a252fcb7c4f67", "is_disabled": 0, "is_reserved": 0}, {"rental_uris": {"ios": "https://dc.lft.to/lastmile_qr_scan", "android": "https://dc.lft.to/lastmile_qr_scan"}, "lon": -77.01434233333333, "type": "electric_scooter", "fusion_lat": 0.0, "lat": 38.906469333333334, "name": "22e0702ba3507f167f3fb3a61dadaf6a", "fusion_lon": 0.0, "bike_id": "22e0702ba3507f167f3fb3a61dadaf6a", "is_disabled": 0, "is_reserved": 0}, {"rental_uris": {"ios": "https://dc.lft.to/lastmile_qr_scan", "android": "https://dc.lft.to/lastmile_qr_scan"}, "lon": -77.0356045, "type": "electric_scooter", "fusion_lat": 0.0, "lat": 38.918045166666666, "name": "9138ebdf62b4c475bc77cc0be07f9e12", "fusion_lon": 0.0, "bike_id": "9138ebdf62b4c475bc77cc0be07f9e12", "is_disabled": 0, "is_reserved": 0}, {"rental_uris": {"ios": "https://dc.lft.to/lastmile_qr_scan", "android": "https://dc.lft.to/lastmile_qr_scan"}, "lon": -77.01363433333333, "type": "electric_scooter", "fusion_lat": 0.0, "lat": 38.8637405, "name": "471f22260655e18a07032e89f07c9c19", "fusion_lon": 0.0, "bike_id": "471f22260655e18a07032e89f07c9c19", "is_disabled": 0, "is_reserved": 0}, {"rental_uris": {"ios": "https://dc.lft.to/lastmile_qr_scan", "android": "https://dc.lft.to/lastmile_qr_scan"}, "lon": -77.0320815, "type": "electric_scooter", "fusion_lat": 0.0, "lat": 38.91540116666667, "name": "0dee90edc2c2ca67aa77d7968f0f68ab", "fusion_lon": 0.0, "bike_id": "0dee90edc2c2ca67aa77d7968f0f68ab", "is_disabled": 0, "is_reserved": 0}, {"rental_uris": {"ios": "https://dc.lft.to/lastmile_qr_scan", "android": "https://dc.lft.to/lastmile_qr_scan"}, "lon": -77.05523483333333, "type": "electric_scooter", "fusion_lat": 0.0, "lat": 38.927943666666664, "name": "da557da3238d11b72841c94570c9f4e0", "fusion_lon": 0.0, "bike_id": "da557da3238d11b72841c94570c9f4e0", "is_disabled": 0, "is_reserved": 0}, {"rental_uris": {"ios": "https://dc.lft.to/lastmile_qr_scan", "android": "https://dc.lft.to/lastmile_qr_scan"}, "lon": -77.129655, "type": "electric_bike", "fusion_lat": 0.0, "lat": 38.807920333333335, "name": "b61660e5719d775f4a058a1da1eb06ef", "fusion_lon": 0.0, "bike_id": "b61660e5719d775f4a058a1da1eb06ef", "is_disabled": 0, "is_reserved": 0}, {"rental_uris": {"ios": "https://dc.lft.to/lastmile_qr_scan", "android": "https://dc.lft.to/lastmile_qr_scan"}, "lon": -77.03183416666667, "type": "electric_scooter", "fusion_lat": 0.0, "lat": 38.88736983333333, "name": "96a3d21245163865979915a84110790b", "fusion_lon": 0.0, "bike_id": "96a3d21245163865979915a84110790b", "is_disabled": 0, "is_reserved": 0}, {"rental_uris": {"ios": "https://dc.lft.to/lastmile_qr_scan", "android": "https://dc.lft.to/lastmile_qr_scan"}, "lon": -77.02852516666667, "type": "electric_scooter", "fusion_lat": 0.0, "lat": 38.8887435, "name": "ad5fc07831206003da85445d3c926550", "fusion_lon": 0.0, "bike_id": "ad5fc07831206003da85445d3c926550", "is_disabled": 0, "is_reserved": 0}, {"rental_uris": {"ios": "https://dc.lft.to/lastmile_qr_scan", "android": "https://dc.lft.to/lastmile_qr_scan"}, "lon": -77.0128895, "type": "electric_bike", "fusion_lat": 0.0, "lat": 39.00381316666667, "name": "33d53003d35a23e9db524ee1cb22bc92", "fusion_lon": 0.0, "bike_id": "33d53003d35a23e9db524ee1cb22bc92", "is_disabled": 0, "is_reserved": 0}, {"rental_uris": {"ios": "https://dc.lft.to/lastmile_qr_scan", "android": "https://dc.lft.to/lastmile_qr_scan"}, "lon": -77.05045, "type": "electric_scooter", "fusion_lat": 0.0, "lat": 38.92364333333333, "name": "7b84e0a4af2d3a695ea8e17a1ae2ce04", "fusion_lon": 0.0, "bike_id": "7b84e0a4af2d3a695ea8e17a1ae2ce04", "is_disabled": 0, "is_reserved": 0}, {"rental_uris": {"ios": "https://dc.lft.to/lastmile_qr_scan", "android": "https://dc.lft.to/lastmile_qr_scan"}, "lon": -77.0297895, "type": "electric_scooter", "fusion_lat": 0.0, "lat": 38.90850566666667, "name": "cff0eefe590a8edf0661741e11415627", "fusion_lon": 0.0, "bike_id": "cff0eefe590a8edf0661741e11415627", "is_disabled": 0, "is_reserved": 0}, {"rental_uris": {"ios": "https://dc.lft.to/lastmile_qr_scan", "android": "https://dc.lft.to/lastmile_qr_scan"}, "lon": -77.01579666666666, "type": "electric_scooter", "fusion_lat": 0.0, "lat": 38.901861333333336, "name": "5517533d1689454c06ebe95900c5dc74", "fusion_lon": 0.0, "bike_id": "5517533d1689454c06ebe95900c5dc74", "is_disabled": 0, "is_reserved": 0}, {"rental_uris": {"ios": "https://dc.lft.to/lastmile_qr_scan", "android": "https://dc.lft.to/lastmile_qr_scan"}, "lon": -77.050463, "type": "electric_scooter", "fusion_lat": 0.0, "lat": 38.923623166666665, "name": "87d91244151bfadb22bcf8e61ddb6a20", "fusion_lon": 0.0, "bike_id": "87d91244151bfadb22bcf8e61ddb6a20", "is_disabled": 0, "is_reserved": 0}, {"rental_uris": {"ios": "https://dc.lft.to/lastmile_qr_scan", "android": "https://dc.lft.to/lastmile_qr_scan"}, "lon": -76.9903295, "type": "electric_scooter", "fusion_lat": 0.0, "lat": 38.8566305, "name": "7f89c3a81c98fd4bd2016180dc315e2e", "fusion_lon": 0.0, "bike_id": "7f89c3a81c98fd4bd2016180dc315e2e", "is_disabled": 0, "is_reserved": 0}, {"rental_uris": {"ios": "https://dc.lft.to/lastmile_qr_scan", "android": "https://dc.lft.to/lastmile_qr_scan"}, "lon": -77.04644616666667, "type": "electric_bike", "fusion_lat": 0.0, "lat": 38.85213433333333, "name": "fafd5f120c6ddaeb1516f6d99f21837d", "fusion_lon": 0.0, "bike_id": "fafd5f120c6ddaeb1516f6d99f21837d", "is_disabled": 0, "is_reserved": 0}, {"rental_uris": {"ios": "https://dc.lft.to/lastmile_qr_scan", "android": "https://dc.lft.to/lastmile_qr_scan"}, "lon": -76.93241933333333, "type": "electric_scooter", "fusion_lat": 0.0, "lat": 38.894076166666665, "name": "8b6ca32bb7a4da58c862298b97c7f188", "fusion_lon": 0.0, "bike_id": "8b6ca32bb7a4da58c862298b97c7f188", "is_disabled": 0, "is_reserved": 0}, {"rental_uris": {"ios": "https://dc.lft.to/lastmile_qr_scan", "android": "https://dc.lft.to/lastmile_qr_scan"}, "lon": -77.0466595, "type": "electric_scooter", "fusion_lat": 0.0, "lat": 38.932991333333334, "name": "1bfa90b3fc3eede46ed2d947de11a5f7", "fusion_lon": 0.0, "bike_id": "1bfa90b3fc3eede46ed2d947de11a5f7", "is_disabled": 0, "is_reserved": 0}, {"rental_uris": {"ios": "https://dc.lft.to/lastmile_qr_scan", "android": "https://dc.lft.to/lastmile_qr_scan"}, "lon": -77.0739495, "type": "electric_scooter", "fusion_lat": 0.0, "lat": 38.961739333333334, "name": "188ae1500fcfdc5acd0cfde7ce83e5e9", "fusion_lon": 0.0, "bike_id": "188ae1500fcfdc5acd0cfde7ce83e5e9", "is_disabled": 0, "is_reserved": 0}, {"rental_uris": {"ios": "https://dc.lft.to/lastmile_qr_scan", "android": "https://dc.lft.to/lastmile_qr_scan"}, "lon": -77.032183, "type": "electric_scooter", "fusion_lat": 0.0, "lat": 38.925901833333334, "name": "54092c06a41b4a57303a506f5ad89435", "fusion_lon": 0.0, "bike_id": "54092c06a41b4a57303a506f5ad89435", "is_disabled": 0, "is_reserved": 0}, {"rental_uris": {"ios": "https://dc.lft.to/lastmile_qr_scan", "android": "https://dc.lft.to/lastmile_qr_scan"}, "lon": -77.02468733333333, "type": "electric_scooter", "fusion_lat": 0.0, "lat": 38.9382445, "name": "039d7cd5dd0571734ac92cc8e47a3e07", "fusion_lon": 0.0, "bike_id": "039d7cd5dd0571734ac92cc8e47a3e07", "is_disabled": 0, "is_reserved": 0}, {"rental_uris": {"ios": "https://dc.lft.to/lastmile_qr_scan", "android": "https://dc.lft.to/lastmile_qr_scan"}, "lon": -77.02571516666667, "type": "electric_bike", "fusion_lat": 0.0, "lat": 38.895853, "name": "cec19fdb6df25abce4729e8d3fe84cd8", "fusion_lon": 0.0, "bike_id": "cec19fdb6df25abce4729e8d3fe84cd8", "is_disabled": 0, "is_reserved": 0}, {"rental_uris": {"ios": "https://dc.lft.to/lastmile_qr_scan", "android": "https://dc.lft.to/lastmile_qr_scan"}, "lon": -77.01111, "type": "electric_scooter", "fusion_lat": 0.0, "lat": 38.903591166666665, "name": "74f1d82d067357504e01bb019f5ca387", "fusion_lon": 0.0, "bike_id": "74f1d82d067357504e01bb019f5ca387", "is_disabled": 0, "is_reserved": 0}, {"rental_uris": {"ios": "https://dc.lft.to/lastmile_qr_scan", "android": "https://dc.lft.to/lastmile_qr_scan"}, "lon": -77.04806166666667, "type": "electric_bike", "fusion_lat": 0.0, "lat": 38.88816533333333, "name": "10463e109ff742807c5061e2cb8a8cfd", "fusion_lon": 0.0, "bike_id": "10463e109ff742807c5061e2cb8a8cfd", "is_disabled": 0, "is_reserved": 0}, {"rental_uris": {"ios": "https://dc.lft.to/lastmile_qr_scan", "android": "https://dc.lft.to/lastmile_qr_scan"}, "lon": -76.94759533333334, "type": "electric_scooter", "fusion_lat": 0.0, "lat": 38.90056333333333, "name": "541b4b8aba2accadccc399e7faf4f60f", "fusion_lon": 0.0, "bike_id": "541b4b8aba2accadccc399e7faf4f60f", "is_disabled": 0, "is_reserved": 0}, {"rental_uris": {"ios": "https://dc.lft.to/lastmile_qr_scan", "android": "https://dc.lft.to/lastmile_qr_scan"}, "lon": -77.0364295, "type": "electric_scooter", "fusion_lat": 0.0, "lat": 38.91734966666667, "name": "e689c17253f710c62315c30b9e9d467f", "fusion_lon": 0.0, "bike_id": "e689c17253f710c62315c30b9e9d467f", "is_disabled": 0, "is_reserved": 0}, {"rental_uris": {"ios": "https://dc.lft.to/lastmile_qr_scan", "android": "https://dc.lft.to/lastmile_qr_scan"}, "lon": -77.03188583333333, "type": "electric_scooter", "fusion_lat": 0.0, "lat": 38.9181135, "name": "c440221e83f49b0ce3d86c7dc96dfdc1", "fusion_lon": 0.0, "bike_id": "c440221e83f49b0ce3d86c7dc96dfdc1", "is_disabled": 0, "is_reserved": 0}, {"rental_uris": {"ios": "https://dc.lft.to/lastmile_qr_scan", "android": "https://dc.lft.to/lastmile_qr_scan"}, "lon": -76.9637315, "type": "electric_bike", "fusion_lat": 0.0, "lat": 38.948978333333336, "name": "9403eee53fc41e1ecab16089ffb42720", "fusion_lon": 0.0, "bike_id": "9403eee53fc41e1ecab16089ffb42720", "is_disabled": 0, "is_reserved": 0}, {"rental_uris": {"ios": "https://dc.lft.to/lastmile_qr_scan", "android": "https://dc.lft.to/lastmile_qr_scan"}, "lon": -76.965249, "type": "electric_scooter", "fusion_lat": 0.0, "lat": 38.8762895, "name": "c9db2296ece119c0c7e6f56c75cfc6e7", "fusion_lon": 0.0, "bike_id": "c9db2296ece119c0c7e6f56c75cfc6e7", "is_disabled": 0, "is_reserved": 0}, {"rental_uris": {"ios": "https://dc.lft.to/lastmile_qr_scan", "android": "https://dc.lft.to/lastmile_qr_scan"}, "lon": -77.03445466666666, "type": "electric_scooter", "fusion_lat": 0.0, "lat": 38.918199666666666, "name": "f869c5a0e74a17ea935b0f247b002245", "fusion_lon": 0.0, "bike_id": "f869c5a0e74a17ea935b0f247b002245", "is_disabled": 0, "is_reserved": 0}, {"rental_uris": {"ios": "https://dc.lft.to/lastmile_qr_scan", "android": "https://dc.lft.to/lastmile_qr_scan"}, "lon": -77.02963783333334, "type": "electric_scooter", "fusion_lat": 0.0, "lat": 38.92689683333333, "name": "bb5e63d0208d0b090e56a65bfd8257c6", "fusion_lon": 0.0, "bike_id": "bb5e63d0208d0b090e56a65bfd8257c6", "is_disabled": 0, "is_reserved": 0}, {"rental_uris": {"ios": "https://dc.lft.to/lastmile_qr_scan", "android": "https://dc.lft.to/lastmile_qr_scan"}, "lon": -76.98865833333333, "type": "electric_scooter", "fusion_lat": 0.0, "lat": 38.900282833333335, "name": "ef7f8221d071429a82e853433abad376", "fusion_lon": 0.0, "bike_id": "ef7f8221d071429a82e853433abad376", "is_disabled": 0, "is_reserved": 0}, {"rental_uris": {"ios": "https://dc.lft.to/lastmile_qr_scan", "android": "https://dc.lft.to/lastmile_qr_scan"}, "lon": -76.98843716666667, "type": "electric_bike", "fusion_lat": 0.0, "lat": 38.89607083333333, "name": "fcf9c32bc11be121281779713767af0f", "fusion_lon": 0.0, "bike_id": "fcf9c32bc11be121281779713767af0f", "is_disabled": 0, "is_reserved": 0}, {"rental_uris": {"ios": "https://dc.lft.to/lastmile_qr_scan", "android": "https://dc.lft.to/lastmile_qr_scan"}, "lon": -77.005792, "type": "electric_scooter", "fusion_lat": 0.0, "lat": 38.87282283333333, "name": "0c9595c1d5ab54bee0db4734fef3781a", "fusion_lon": 0.0, "bike_id": "0c9595c1d5ab54bee0db4734fef3781a", "is_disabled": 0, "is_reserved": 0}, {"rental_uris": {"ios": "https://dc.lft.to/lastmile_qr_scan", "android": "https://dc.lft.to/lastmile_qr_scan"}, "lon": -77.0454575, "type": "electric_scooter", "fusion_lat": 0.0, "lat": 38.93411, "name": "4fb1c6072c607ad3cf264c5ad4f9da7b", "fusion_lon": 0.0, "bike_id": "4fb1c6072c607ad3cf264c5ad4f9da7b", "is_disabled": 0, "is_reserved": 0}, {"rental_uris": {"ios": "https://dc.lft.to/lastmile_qr_scan", "android": "https://dc.lft.to/lastmile_qr_scan"}, "lon": -76.94029833333333, "type": "electric_scooter", "fusion_lat": 0.0, "lat": 38.90074516666667, "name": "b5338cb256a9155b818b7b02e6dec27d", "fusion_lon": 0.0, "bike_id": "b5338cb256a9155b818b7b02e6dec27d", "is_disabled": 0, "is_reserved": 0}, {"rental_uris": {"ios": "https://dc.lft.to/lastmile_qr_scan", "android": "https://dc.lft.to/lastmile_qr_scan"}, "lon": -77.0231305, "type": "electric_scooter", "fusion_lat": 0.0, "lat": 38.929957, "name": "a3f6aa100fb73273efa990c0e907d693", "fusion_lon": 0.0, "bike_id": "a3f6aa100fb73273efa990c0e907d693", "is_disabled": 0, "is_reserved": 0}, {"rental_uris": {"ios": "https://dc.lft.to/lastmile_qr_scan", "android": "https://dc.lft.to/lastmile_qr_scan"}, "lon": -77.0328645, "type": "electric_scooter", "fusion_lat": 0.0, "lat": 38.923489833333335, "name": "1e6a31b12ad34d8dd41f45b3b606a8d0", "fusion_lon": 0.0, "bike_id": "1e6a31b12ad34d8dd41f45b3b606a8d0", "is_disabled": 0, "is_reserved": 0}, {"rental_uris": {"ios": "https://dc.lft.to/lastmile_qr_scan", "android": "https://dc.lft.to/lastmile_qr_scan"}, "lon": -77.05542433333333, "type": "electric_scooter", "fusion_lat": 0.0, "lat": 38.9300225, "name": "d1321d8357aa07bf67ad605c101f2006", "fusion_lon": 0.0, "bike_id": "d1321d8357aa07bf67ad605c101f2006", "is_disabled": 0, "is_reserved": 0}, {"rental_uris": {"ios": "https://dc.lft.to/lastmile_qr_scan", "android": "https://dc.lft.to/lastmile_qr_scan"}, "lon": -77.03612683333333, "type": "electric_scooter", "fusion_lat": 0.0, "lat": 38.93257083333334, "name": "b9209f5b51698026a72b5184b3af1c45", "fusion_lon": 0.0, "bike_id": "b9209f5b51698026a72b5184b3af1c45", "is_disabled": 0, "is_reserved": 0}, {"rental_uris": {"ios": "https://dc.lft.to/lastmile_qr_scan", "android": "https://dc.lft.to/lastmile_qr_scan"}, "lon": -77.04492716666667, "type": "electric_scooter", "fusion_lat": 0.0, "lat": 38.91053383333333, "name": "df96cf4f5cf8f2cbb4affd71328524d8", "fusion_lon": 0.0, "bike_id": "df96cf4f5cf8f2cbb4affd71328524d8", "is_disabled": 0, "is_reserved": 0}, {"rental_uris": {"ios": "https://dc.lft.to/lastmile_qr_scan", "android": "https://dc.lft.to/lastmile_qr_scan"}, "lon": -77.042635, "type": "electric_scooter", "fusion_lat": 0.0, "lat": 38.92204683333333, "name": "0c1d2b83070d831bf5092976375cbb2d", "fusion_lon": 0.0, "bike_id": "0c1d2b83070d831bf5092976375cbb2d", "is_disabled": 0, "is_reserved": 0}, {"rental_uris": {"ios": "https://dc.lft.to/lastmile_qr_scan", "android": "https://dc.lft.to/lastmile_qr_scan"}, "lon": -76.9913665, "type": "electric_scooter", "fusion_lat": 0.0, "lat": 38.900403833333336, "name": "8fb944fe06b73d5a85802846c7a4238a", "fusion_lon": 0.0, "bike_id": "8fb944fe06b73d5a85802846c7a4238a", "is_disabled": 0, "is_reserved": 0}, {"rental_uris": {"ios": "https://dc.lft.to/lastmile_qr_scan", "android": "https://dc.lft.to/lastmile_qr_scan"}, "lon": -76.9541225, "type": "electric_scooter", "fusion_lat": 0.0, "lat": 38.889976833333336, "name": "587d622f48f1664cc6204906b66ad411", "fusion_lon": 0.0, "bike_id": "587d622f48f1664cc6204906b66ad411", "is_disabled": 0, "is_reserved": 0}, {"rental_uris": {"ios": "https://dc.lft.to/lastmile_qr_scan", "android": "https://dc.lft.to/lastmile_qr_scan"}, "lon": -77.03868516666667, "type": "electric_scooter", "fusion_lat": 0.0, "lat": 38.91559433333333, "name": "9b5bb6126f53ca57633a76e6b0906f39", "fusion_lon": 0.0, "bike_id": "9b5bb6126f53ca57633a76e6b0906f39", "is_disabled": 0, "is_reserved": 0}, {"rental_uris": {"ios": "https://dc.lft.to/lastmile_qr_scan", "android": "https://dc.lft.to/lastmile_qr_scan"}, "lon": -77.054771, "type": "electric_scooter", "fusion_lat": 0.0, "lat": 38.9210135, "name": "edd438f388d367f4c2a678a62c1eb5ec", "fusion_lon": 0.0, "bike_id": "edd438f388d367f4c2a678a62c1eb5ec", "is_disabled": 0, "is_reserved": 0}, {"rental_uris": {"ios": "https://dc.lft.to/lastmile_qr_scan", "android": "https://dc.lft.to/lastmile_qr_scan"}, "lon": -77.06009933333333, "type": "electric_scooter", "fusion_lat": 0.0, "lat": 38.912609, "name": "a8949f06e7cc209b246472acb28184d2", "fusion_lon": 0.0, "bike_id": "a8949f06e7cc209b246472acb28184d2", "is_disabled": 0, "is_reserved": 0}, {"rental_uris": {"ios": "https://dc.lft.to/lastmile_qr_scan", "android": "https://dc.lft.to/lastmile_qr_scan"}, "lon": -77.0209805, "type": "electric_scooter", "fusion_lat": 0.0, "lat": 38.914170666666664, "name": "e608cd862c466089b97f1dbe5361a1d9", "fusion_lon": 0.0, "bike_id": "e608cd862c466089b97f1dbe5361a1d9", "is_disabled": 0, "is_reserved": 0}, {"rental_uris": {"ios": "https://dc.lft.to/lastmile_qr_scan", "android": "https://dc.lft.to/lastmile_qr_scan"}, "lon": -76.9950185, "type": "electric_scooter", "fusion_lat": 0.0, "lat": 38.88012283333333, "name": "2ed1ab18623f1350143bcb141dea05b4", "fusion_lon": 0.0, "bike_id": "2ed1ab18623f1350143bcb141dea05b4", "is_disabled": 0, "is_reserved": 0}, {"rental_uris": {"ios": "https://dc.lft.to/lastmile_qr_scan", "android": "https://dc.lft.to/lastmile_qr_scan"}, "lon": -76.98709783333334, "type": "electric_scooter", "fusion_lat": 0.0, "lat": 38.862559, "name": "55ce2e4000aca504cea4e4b97e1ea315", "fusion_lon": 0.0, "bike_id": "55ce2e4000aca504cea4e4b97e1ea315", "is_disabled": 0, "is_reserved": 0}, {"rental_uris": {"ios": "https://dc.lft.to/lastmile_qr_scan", "android": "https://dc.lft.to/lastmile_qr_scan"}, "lon": -77.0465795, "type": "electric_scooter", "fusion_lat": 0.0, "lat": 38.906636, "name": "803c42d4aad5de8944f314616a42f960", "fusion_lon": 0.0, "bike_id": "803c42d4aad5de8944f314616a42f960", "is_disabled": 0, "is_reserved": 0}, {"rental_uris": {"ios": "https://dc.lft.to/lastmile_qr_scan", "android": "https://dc.lft.to/lastmile_qr_scan"}, "lon": -76.941798, "type": "electric_scooter", "fusion_lat": 0.0, "lat": 38.882236666666664, "name": "6acaefd014ed2d48168f003b5bcd3630", "fusion_lon": 0.0, "bike_id": "6acaefd014ed2d48168f003b5bcd3630", "is_disabled": 0, "is_reserved": 0}, {"rental_uris": {"ios": "https://dc.lft.to/lastmile_qr_scan", "android": "https://dc.lft.to/lastmile_qr_scan"}, "lon": -77.0649305, "type": "electric_bike", "fusion_lat": 0.0, "lat": 38.96496616666667, "name": "e6b56d627e321e94cf2d98abdfedc434", "fusion_lon": 0.0, "bike_id": "e6b56d627e321e94cf2d98abdfedc434", "is_disabled": 0, "is_reserved": 0}, {"rental_uris": {"ios": "https://dc.lft.to/lastmile_qr_scan", "android": "https://dc.lft.to/lastmile_qr_scan"}, "lon": -77.01619033333333, "type": "electric_scooter", "fusion_lat": 0.0, "lat": 38.90601783333334, "name": "c1896e97e881438bc1e6128a720d7fb2", "fusion_lon": 0.0, "bike_id": "c1896e97e881438bc1e6128a720d7fb2", "is_disabled": 0, "is_reserved": 0}, {"rental_uris": {"ios": "https://dc.lft.to/lastmile_qr_scan", "android": "https://dc.lft.to/lastmile_qr_scan"}, "lon": -76.94419316666666, "type": "electric_scooter", "fusion_lat": 0.0, "lat": 38.8979735, "name": "818b933309d7a8a2b4efdfbd7d4d77d0", "fusion_lon": 0.0, "bike_id": "818b933309d7a8a2b4efdfbd7d4d77d0", "is_disabled": 0, "is_reserved": 0}, {"rental_uris": {"ios": "https://dc.lft.to/lastmile_qr_scan", "android": "https://dc.lft.to/lastmile_qr_scan"}, "lon": -77.04861633333333, "type": "electric_scooter", "fusion_lat": 0.0, "lat": 38.90851383333333, "name": "65cff973fcef4c37cc764e6942dac8b7", "fusion_lon": 0.0, "bike_id": "65cff973fcef4c37cc764e6942dac8b7", "is_disabled": 0, "is_reserved": 0}, {"rental_uris": {"ios": "https://dc.lft.to/lastmile_qr_scan", "android": "https://dc.lft.to/lastmile_qr_scan"}, "lon": -77.002872, "type": "electric_scooter", "fusion_lat": 0.0, "lat": 38.905504666666666, "name": "f02cc3fe1ea947d601966cac039fbe11", "fusion_lon": 0.0, "bike_id": "f02cc3fe1ea947d601966cac039fbe11", "is_disabled": 0, "is_reserved": 0}, {"rental_uris": {"ios": "https://dc.lft.to/lastmile_qr_scan", "android": "https://dc.lft.to/lastmile_qr_scan"}, "lon": -77.0234055, "type": "electric_scooter", "fusion_lat": 0.0, "lat": 38.929413, "name": "40ee7904e370b41cf9e9b625364b84a2", "fusion_lon": 0.0, "bike_id": "40ee7904e370b41cf9e9b625364b84a2", "is_disabled": 0, "is_reserved": 0}, {"rental_uris": {"ios": "https://dc.lft.to/lastmile_qr_scan", "android": "https://dc.lft.to/lastmile_qr_scan"}, "lon": -77.05019416666667, "type": "electric_scooter", "fusion_lat": 0.0, "lat": 38.91798883333333, "name": "52bbd01669a52c65e3e0155ca7f1f312", "fusion_lon": 0.0, "bike_id": "52bbd01669a52c65e3e0155ca7f1f312", "is_disabled": 0, "is_reserved": 0}, {"rental_uris": {"ios": "https://dc.lft.to/lastmile_qr_scan", "android": "https://dc.lft.to/lastmile_qr_scan"}, "lon": -76.98347833333334, "type": "electric_scooter", "fusion_lat": 0.0, "lat": 38.915313166666664, "name": "4c0f91e0e3b223f0a974e0e4f1f704b3", "fusion_lon": 0.0, "bike_id": "4c0f91e0e3b223f0a974e0e4f1f704b3", "is_disabled": 0, "is_reserved": 0}, {"rental_uris": {"ios": "https://dc.lft.to/lastmile_qr_scan", "android": "https://dc.lft.to/lastmile_qr_scan"}, "lon": -77.03226416666666, "type": "electric_scooter", "fusion_lat": 0.0, "lat": 38.926700333333336, "name": "ef91e794322417ab2da47baa51651141", "fusion_lon": 0.0, "bike_id": "ef91e794322417ab2da47baa51651141", "is_disabled": 0, "is_reserved": 0}, {"rental_uris": {"ios": "https://dc.lft.to/lastmile_qr_scan", "android": "https://dc.lft.to/lastmile_qr_scan"}, "lon": -77.04220716666667, "type": "electric_scooter", "fusion_lat": 0.0, "lat": 38.92114083333333, "name": "8c6a9a3782def1189ae516e2c71a8bd2", "fusion_lon": 0.0, "bike_id": "8c6a9a3782def1189ae516e2c71a8bd2", "is_disabled": 0, "is_reserved": 0}, {"rental_uris": {"ios": "https://dc.lft.to/lastmile_qr_scan", "android": "https://dc.lft.to/lastmile_qr_scan"}, "lon": -77.011487, "type": "electric_scooter", "fusion_lat": 0.0, "lat": 38.89529133333333, "name": "b72c223d2ef4fac5b3ade0eb6db7a4c9", "fusion_lon": 0.0, "bike_id": "b72c223d2ef4fac5b3ade0eb6db7a4c9", "is_disabled": 0, "is_reserved": 0}, {"rental_uris": {"ios": "https://dc.lft.to/lastmile_qr_scan", "android": "https://dc.lft.to/lastmile_qr_scan"}, "lon": -77.00751766666667, "type": "electric_scooter", "fusion_lat": 0.0, "lat": 38.898304333333336, "name": "6e643eedf1f97d8068a5fd7512970bf8", "fusion_lon": 0.0, "bike_id": "6e643eedf1f97d8068a5fd7512970bf8", "is_disabled": 0, "is_reserved": 0}, {"rental_uris": {"ios": "https://dc.lft.to/lastmile_qr_scan", "android": "https://dc.lft.to/lastmile_qr_scan"}, "lon": -76.90815866666667, "type": "electric_bike", "fusion_lat": 0.0, "lat": 38.99448433333333, "name": "8f88660083343b341da720c3912db941", "fusion_lon": 0.0, "bike_id": "8f88660083343b341da720c3912db941", "is_disabled": 0, "is_reserved": 0}, {"rental_uris": {"ios": "https://dc.lft.to/lastmile_qr_scan", "android": "https://dc.lft.to/lastmile_qr_scan"}, "lon": -77.0417815, "type": "electric_scooter", "fusion_lat": 0.0, "lat": 38.9196635, "name": "4f280eee2de0264c6d705834ab25f138", "fusion_lon": 0.0, "bike_id": "4f280eee2de0264c6d705834ab25f138", "is_disabled": 0, "is_reserved": 0}, {"rental_uris": {"ios": "https://dc.lft.to/lastmile_qr_scan", "android": "https://dc.lft.to/lastmile_qr_scan"}, "lon": -76.9602235, "type": "electric_bike", "fusion_lat": 0.0, "lat": 38.870132, "name": "9f02f6e6804604a3320abe272101e800", "fusion_lon": 0.0, "bike_id": "9f02f6e6804604a3320abe272101e800", "is_disabled": 0, "is_reserved": 0}, {"rental_uris": {"ios": "https://dc.lft.to/lastmile_qr_scan", "android": "https://dc.lft.to/lastmile_qr_scan"}, "lon": -77.04360483333333, "type": "electric_scooter", "fusion_lat": 0.0, "lat": 38.923517, "name": "158a2b6561efda07bc86238742781e1a", "fusion_lon": 0.0, "bike_id": "158a2b6561efda07bc86238742781e1a", "is_disabled": 0, "is_reserved": 0}, {"rental_uris": {"ios": "https://dc.lft.to/lastmile_qr_scan", "android": "https://dc.lft.to/lastmile_qr_scan"}, "lon": -77.04142633333333, "type": "electric_scooter", "fusion_lat": 0.0, "lat": 38.92298383333333, "name": "1335b9e4dcb8cc8980e0c71956c3745a", "fusion_lon": 0.0, "bike_id": "1335b9e4dcb8cc8980e0c71956c3745a", "is_disabled": 0, "is_reserved": 0}, {"rental_uris": {"ios": "https://dc.lft.to/lastmile_qr_scan", "android": "https://dc.lft.to/lastmile_qr_scan"}, "lon": -77.02582883333334, "type": "electric_scooter", "fusion_lat": 0.0, "lat": 38.88737116666667, "name": "a566ec65a798c7e4e92373f0f517a98c", "fusion_lon": 0.0, "bike_id": "a566ec65a798c7e4e92373f0f517a98c", "is_disabled": 0, "is_reserved": 0}, {"rental_uris": {"ios": "https://dc.lft.to/lastmile_qr_scan", "android": "https://dc.lft.to/lastmile_qr_scan"}, "lon": -77.048136, "type": "electric_scooter", "fusion_lat": 0.0, "lat": 38.9133045, "name": "92a974a25380c05d383f84ca9c7db358", "fusion_lon": 0.0, "bike_id": "92a974a25380c05d383f84ca9c7db358", "is_disabled": 0, "is_reserved": 0}, {"rental_uris": {"ios": "https://dc.lft.to/lastmile_qr_scan", "android": "https://dc.lft.to/lastmile_qr_scan"}, "lon": -77.02699883333334, "type": "electric_scooter", "fusion_lat": 0.0, "lat": 38.925972333333334, "name": "9dc5a3404895c79164ae8e746b7b68c0", "fusion_lon": 0.0, "bike_id": "9dc5a3404895c79164ae8e746b7b68c0", "is_disabled": 0, "is_reserved": 0}, {"rental_uris": {"ios": "https://dc.lft.to/lastmile_qr_scan", "android": "https://dc.lft.to/lastmile_qr_scan"}, "lon": -77.04157616666667, "type": "electric_scooter", "fusion_lat": 0.0, "lat": 38.91203516666667, "name": "5d64d1182c78aefdf783806254a8d857", "fusion_lon": 0.0, "bike_id": "5d64d1182c78aefdf783806254a8d857", "is_disabled": 0, "is_reserved": 0}, {"rental_uris": {"ios": "https://dc.lft.to/lastmile_qr_scan", "android": "https://dc.lft.to/lastmile_qr_scan"}, "lon": -77.08197266666667, "type": "electric_scooter", "fusion_lat": 0.0, "lat": 38.94929883333333, "name": "0d3e52aeb4c489d786e032542345d5b6", "fusion_lon": 0.0, "bike_id": "0d3e52aeb4c489d786e032542345d5b6", "is_disabled": 0, "is_reserved": 0}, {"rental_uris": {"ios": "https://dc.lft.to/lastmile_qr_scan", "android": "https://dc.lft.to/lastmile_qr_scan"}, "lon": -77.038761, "type": "electric_scooter", "fusion_lat": 0.0, "lat": 38.932512833333334, "name": "1511adc27480cb804f27d194bdb5ea2b", "fusion_lon": 0.0, "bike_id": "1511adc27480cb804f27d194bdb5ea2b", "is_disabled": 0, "is_reserved": 0}, {"rental_uris": {"ios": "https://dc.lft.to/lastmile_qr_scan", "android": "https://dc.lft.to/lastmile_qr_scan"}, "lon": -76.973216, "type": "electric_scooter", "fusion_lat": 0.0, "lat": 38.904786333333334, "name": "24a0e12c70b27d60cc9e76910a9e085f", "fusion_lon": 0.0, "bike_id": "24a0e12c70b27d60cc9e76910a9e085f", "is_disabled": 0, "is_reserved": 0}, {"rental_uris": {"ios": "https://dc.lft.to/lastmile_qr_scan", "android": "https://dc.lft.to/lastmile_qr_scan"}, "lon": -77.05682933333334, "type": "electric_scooter", "fusion_lat": 0.0, "lat": 38.937007, "name": "15756b1e426f45f1a9ae83e2c5f3620d", "fusion_lon": 0.0, "bike_id": "15756b1e426f45f1a9ae83e2c5f3620d", "is_disabled": 0, "is_reserved": 0}, {"rental_uris": {"ios": "https://dc.lft.to/lastmile_qr_scan", "android": "https://dc.lft.to/lastmile_qr_scan"}, "lon": -76.93542566666666, "type": "electric_bike", "fusion_lat": 0.0, "lat": 38.951868166666664, "name": "46bbccb363789544ef627ed5c62a77ae", "fusion_lon": 0.0, "bike_id": "46bbccb363789544ef627ed5c62a77ae", "is_disabled": 0, "is_reserved": 0}, {"rental_uris": {"ios": "https://dc.lft.to/lastmile_qr_scan", "android": "https://dc.lft.to/lastmile_qr_scan"}, "lon": -77.04808533333333, "type": "electric_scooter", "fusion_lat": 0.0, "lat": 38.89744683333333, "name": "cdc568f8942f56bca6a91f4c84c20a4d", "fusion_lon": 0.0, "bike_id": "cdc568f8942f56bca6a91f4c84c20a4d", "is_disabled": 0, "is_reserved": 0}, {"rental_uris": {"ios": "https://dc.lft.to/lastmile_qr_scan", "android": "https://dc.lft.to/lastmile_qr_scan"}, "lon": -77.0356525, "type": "electric_scooter", "fusion_lat": 0.0, "lat": 38.918143666666666, "name": "afb2ae228ef2acb3502be97b77f2bba3", "fusion_lon": 0.0, "bike_id": "afb2ae228ef2acb3502be97b77f2bba3", "is_disabled": 0, "is_reserved": 0}, {"rental_uris": {"ios": "https://dc.lft.to/lastmile_qr_scan", "android": "https://dc.lft.to/lastmile_qr_scan"}, "lon": -76.99552966666667, "type": "electric_scooter", "fusion_lat": 0.0, "lat": 38.923185833333335, "name": "7337348b33cfeaa86ead50ccae69aaa3", "fusion_lon": 0.0, "bike_id": "7337348b33cfeaa86ead50ccae69aaa3", "is_disabled": 0, "is_reserved": 0}, {"rental_uris": {"ios": "https://dc.lft.to/lastmile_qr_scan", "android": "https://dc.lft.to/lastmile_qr_scan"}, "lon": -76.99956383333334, "type": "electric_scooter", "fusion_lat": 0.0, "lat": 38.908498, "name": "44465a3ec18366d3c90f05842fc3b242", "fusion_lon": 0.0, "bike_id": "44465a3ec18366d3c90f05842fc3b242", "is_disabled": 0, "is_reserved": 0}, {"rental_uris": {"ios": "https://dc.lft.to/lastmile_qr_scan", "android": "https://dc.lft.to/lastmile_qr_scan"}, "lon": -77.05800766666667, "type": "electric_scooter", "fusion_lat": 0.0, "lat": 38.90296566666667, "name": "0f32792b81a03c8dec9d82e64625b7ad", "fusion_lon": 0.0, "bike_id": "0f32792b81a03c8dec9d82e64625b7ad", "is_disabled": 0, "is_reserved": 0}, {"rental_uris": {"ios": "https://dc.lft.to/lastmile_qr_scan", "android": "https://dc.lft.to/lastmile_qr_scan"}, "lon": -77.02948966666666, "type": "electric_scooter", "fusion_lat": 0.0, "lat": 38.905061833333335, "name": "ee8f828844a8ff73a5286ba67cc32449", "fusion_lon": 0.0, "bike_id": "ee8f828844a8ff73a5286ba67cc32449", "is_disabled": 0, "is_reserved": 0}, {"rental_uris": {"ios": "https://dc.lft.to/lastmile_qr_scan", "android": "https://dc.lft.to/lastmile_qr_scan"}, "lon": -77.02301716666666, "type": "electric_scooter", "fusion_lat": 0.0, "lat": 38.883414333333334, "name": "a06d5106c7d3899815e57fed271b1e75", "fusion_lon": 0.0, "bike_id": "a06d5106c7d3899815e57fed271b1e75", "is_disabled": 0, "is_reserved": 0}, {"rental_uris": {"ios": "https://dc.lft.to/lastmile_qr_scan", "android": "https://dc.lft.to/lastmile_qr_scan"}, "lon": -77.130919, "type": "electric_bike", "fusion_lat": 0.0, "lat": 38.8616305, "name": "05b70feee4f00790c12fa5b359ffb9b1", "fusion_lon": 0.0, "bike_id": "05b70feee4f00790c12fa5b359ffb9b1", "is_disabled": 0, "is_reserved": 0}, {"rental_uris": {"ios": "https://dc.lft.to/lastmile_qr_scan", "android": "https://dc.lft.to/lastmile_qr_scan"}, "lon": -77.0363705, "type": "electric_scooter", "fusion_lat": 0.0, "lat": 38.918049833333335, "name": "1877c8631cb8483b7707c179441efb6f", "fusion_lon": 0.0, "bike_id": "1877c8631cb8483b7707c179441efb6f", "is_disabled": 0, "is_reserved": 0}, {"rental_uris": {"ios": "https://dc.lft.to/lastmile_qr_scan", "android": "https://dc.lft.to/lastmile_qr_scan"}, "lon": -76.985078, "type": "electric_scooter", "fusion_lat": 0.0, "lat": 38.90088183333334, "name": "752eb60169047653ab55b18ae0ce6845", "fusion_lon": 0.0, "bike_id": "752eb60169047653ab55b18ae0ce6845", "is_disabled": 0, "is_reserved": 0}, {"rental_uris": {"ios": "https://dc.lft.to/lastmile_qr_scan", "android": "https://dc.lft.to/lastmile_qr_scan"}, "lon": -77.0420145, "type": "electric_scooter", "fusion_lat": 0.0, "lat": 38.91104516666667, "name": "87e760369a2b666e7f2890f8225dde37", "fusion_lon": 0.0, "bike_id": "87e760369a2b666e7f2890f8225dde37", "is_disabled": 0, "is_reserved": 0}, {"rental_uris": {"ios": "https://dc.lft.to/lastmile_qr_scan", "android": "https://dc.lft.to/lastmile_qr_scan"}, "lon": -77.04062283333333, "type": "electric_scooter", "fusion_lat": 0.0, "lat": 38.91016483333333, "name": "c65e84bd6723ae3daa51e91aa0951f3f", "fusion_lon": 0.0, "bike_id": "c65e84bd6723ae3daa51e91aa0951f3f", "is_disabled": 0, "is_reserved": 0}, {"rental_uris": {"ios": "https://dc.lft.to/lastmile_qr_scan", "android": "https://dc.lft.to/lastmile_qr_scan"}, "lon": -77.03662616666666, "type": "electric_scooter", "fusion_lat": 0.0, "lat": 38.954915166666666, "name": "6703bb5142d94b47e727c3e21cfb95f6", "fusion_lon": 0.0, "bike_id": "6703bb5142d94b47e727c3e21cfb95f6", "is_disabled": 0, "is_reserved": 0}, {"rental_uris": {"ios": "https://dc.lft.to/lastmile_qr_scan", "android": "https://dc.lft.to/lastmile_qr_scan"}, "lon": -77.047121, "type": "electric_scooter", "fusion_lat": 0.0, "lat": 38.897340666666665, "name": "cf1352774ea0f3c91e8b57823f901108", "fusion_lon": 0.0, "bike_id": "cf1352774ea0f3c91e8b57823f901108", "is_disabled": 0, "is_reserved": 0}, {"rental_uris": {"ios": "https://dc.lft.to/lastmile_qr_scan", "android": "https://dc.lft.to/lastmile_qr_scan"}, "lon": -77.041582, "type": "electric_scooter", "fusion_lat": 0.0, "lat": 38.91200466666667, "name": "e6fc8242bc3725aeb57e1a18dcb4193c", "fusion_lon": 0.0, "bike_id": "e6fc8242bc3725aeb57e1a18dcb4193c", "is_disabled": 0, "is_reserved": 0}, {"rental_uris": {"ios": "https://dc.lft.to/lastmile_qr_scan", "android": "https://dc.lft.to/lastmile_qr_scan"}, "lon": -77.023017, "type": "electric_scooter", "fusion_lat": 0.0, "lat": 38.916973666666664, "name": "4d19b395cb2be45d596487235bf7716d", "fusion_lon": 0.0, "bike_id": "4d19b395cb2be45d596487235bf7716d", "is_disabled": 0, "is_reserved": 0}, {"rental_uris": {"ios": "https://dc.lft.to/lastmile_qr_scan", "android": "https://dc.lft.to/lastmile_qr_scan"}, "lon": -77.05405383333333, "type": "electric_scooter", "fusion_lat": 0.0, "lat": 38.903997833333335, "name": "23e8c2978336cb8df16685916a7c7b25", "fusion_lon": 0.0, "bike_id": "23e8c2978336cb8df16685916a7c7b25", "is_disabled": 0, "is_reserved": 0}, {"rental_uris": {"ios": "https://dc.lft.to/lastmile_qr_scan", "android": "https://dc.lft.to/lastmile_qr_scan"}, "lon": -77.09160866666667, "type": "electric_bike", "fusion_lat": 0.0, "lat": 38.9676115, "name": "70a997e47dc679fc9810b49634b7c248", "fusion_lon": 0.0, "bike_id": "70a997e47dc679fc9810b49634b7c248", "is_disabled": 0, "is_reserved": 0}, {"rental_uris": {"ios": "https://dc.lft.to/lastmile_qr_scan", "android": "https://dc.lft.to/lastmile_qr_scan"}, "lon": -77.02713116666666, "type": "electric_scooter", "fusion_lat": 0.0, "lat": 38.90669166666667, "name": "f3d359520c14cb42d0c8c52b414bf272", "fusion_lon": 0.0, "bike_id": "f3d359520c14cb42d0c8c52b414bf272", "is_disabled": 0, "is_reserved": 0}, {"rental_uris": {"ios": "https://dc.lft.to/lastmile_qr_scan", "android": "https://dc.lft.to/lastmile_qr_scan"}, "lon": -77.02215466666667, "type": "electric_scooter", "fusion_lat": 0.0, "lat": 38.9057125, "name": "0b6f1ca6a1f768cbe297b5950aa71e44", "fusion_lon": 0.0, "bike_id": "0b6f1ca6a1f768cbe297b5950aa71e44", "is_disabled": 0, "is_reserved": 0}, {"rental_uris": {"ios": "https://dc.lft.to/lastmile_qr_scan", "android": "https://dc.lft.to/lastmile_qr_scan"}, "lon": -77.02461483333333, "type": "electric_scooter", "fusion_lat": 0.0, "lat": 38.9170425, "name": "b8aad04b96c201bb28e0469cfaf1d13d", "fusion_lon": 0.0, "bike_id": "b8aad04b96c201bb28e0469cfaf1d13d", "is_disabled": 0, "is_reserved": 0}, {"rental_uris": {"ios": "https://dc.lft.to/lastmile_qr_scan", "android": "https://dc.lft.to/lastmile_qr_scan"}, "lon": -77.04667066666667, "type": "electric_scooter", "fusion_lat": 0.0, "lat": 38.90539166666667, "name": "5b1e47ef3d5f98ed4e82e94e9f760f65", "fusion_lon": 0.0, "bike_id": "5b1e47ef3d5f98ed4e82e94e9f760f65", "is_disabled": 0, "is_reserved": 0}, {"rental_uris": {"ios": "https://dc.lft.to/lastmile_qr_scan", "android": "https://dc.lft.to/lastmile_qr_scan"}, "lon": -76.99900266666667, "type": "electric_bike", "fusion_lat": 0.0, "lat": 38.953098, "name": "eea7329c87f48e56cbc973866168dbf6", "fusion_lon": 0.0, "bike_id": "eea7329c87f48e56cbc973866168dbf6", "is_disabled": 0, "is_reserved": 0}, {"rental_uris": {"ios": "https://dc.lft.to/lastmile_qr_scan", "android": "https://dc.lft.to/lastmile_qr_scan"}, "lon": -77.02943966666666, "type": "electric_scooter", "fusion_lat": 0.0, "lat": 38.90509633333333, "name": "a8dc2aee6cd63e5b3876476e97bb381b", "fusion_lon": 0.0, "bike_id": "a8dc2aee6cd63e5b3876476e97bb381b", "is_disabled": 0, "is_reserved": 0}, {"rental_uris": {"ios": "https://dc.lft.to/lastmile_qr_scan", "android": "https://dc.lft.to/lastmile_qr_scan"}, "lon": -77.12622233333333, "type": "electric_bike", "fusion_lat": 0.0, "lat": 39.0581285, "name": "c72b34a5b81ecae5194dc8bc89f823a3", "fusion_lon": 0.0, "bike_id": "c72b34a5b81ecae5194dc8bc89f823a3", "is_disabled": 0, "is_reserved": 0}, {"rental_uris": {"ios": "https://dc.lft.to/lastmile_qr_scan", "android": "https://dc.lft.to/lastmile_qr_scan"}, "lon": -77.01402583333333, "type": "electric_scooter", "fusion_lat": 0.0, "lat": 38.92829, "name": "2b53b7f3956dfd2727d521f2cee540f7", "fusion_lon": 0.0, "bike_id": "2b53b7f3956dfd2727d521f2cee540f7", "is_disabled": 0, "is_reserved": 0}, {"rental_uris": {"ios": "https://dc.lft.to/lastmile_qr_scan", "android": "https://dc.lft.to/lastmile_qr_scan"}, "lon": -77.17845733333333, "type": "electric_bike", "fusion_lat": 0.0, "lat": 39.08904033333334, "name": "82084ba9b609825308087c07d57dfdb2", "fusion_lon": 0.0, "bike_id": "82084ba9b609825308087c07d57dfdb2", "is_disabled": 0, "is_reserved": 0}, {"rental_uris": {"ios": "https://dc.lft.to/lastmile_qr_scan", "android": "https://dc.lft.to/lastmile_qr_scan"}, "lon": -76.978292, "type": "electric_bike", "fusion_lat": 0.0, "lat": 38.8461175, "name": "13db9823dce36a8c92095a5b68370743", "fusion_lon": 0.0, "bike_id": "13db9823dce36a8c92095a5b68370743", "is_disabled": 0, "is_reserved": 0}, {"rental_uris": {"ios": "https://dc.lft.to/lastmile_qr_scan", "android": "https://dc.lft.to/lastmile_qr_scan"}, "lon": -77.034434, "type": "electric_scooter", "fusion_lat": 0.0, "lat": 38.91821733333333, "name": "05a9cf2c48c93f0cc0f6ead186dd53e6", "fusion_lon": 0.0, "bike_id": "05a9cf2c48c93f0cc0f6ead186dd53e6", "is_disabled": 0, "is_reserved": 0}, {"rental_uris": {"ios": "https://dc.lft.to/lastmile_qr_scan", "android": "https://dc.lft.to/lastmile_qr_scan"}, "lon": -77.0425565, "type": "electric_scooter", "fusion_lat": 0.0, "lat": 38.9159835, "name": "f1f34fc84188e60784b8442c5304558d", "fusion_lon": 0.0, "bike_id": "f1f34fc84188e60784b8442c5304558d", "is_disabled": 0, "is_reserved": 0}, {"rental_uris": {"ios": "https://dc.lft.to/lastmile_qr_scan", "android": "https://dc.lft.to/lastmile_qr_scan"}, "lon": -76.98612, "type": "electric_scooter", "fusion_lat": 0.0, "lat": 38.868300833333336, "name": "ab9f326f0759238f62b397bcc4f7f16b", "fusion_lon": 0.0, "bike_id": "ab9f326f0759238f62b397bcc4f7f16b", "is_disabled": 0, "is_reserved": 0}, {"rental_uris": {"ios": "https://dc.lft.to/lastmile_qr_scan", "android": "https://dc.lft.to/lastmile_qr_scan"}, "lon": -76.99628883333334, "type": "electric_scooter", "fusion_lat": 0.0, "lat": 38.92190633333333, "name": "00b58635e22da51e56d211dd97261796", "fusion_lon": 0.0, "bike_id": "00b58635e22da51e56d211dd97261796", "is_disabled": 0, "is_reserved": 0}, {"rental_uris": {"ios": "https://dc.lft.to/lastmile_qr_scan", "android": "https://dc.lft.to/lastmile_qr_scan"}, "lon": -77.03713383333333, "type": "electric_scooter", "fusion_lat": 0.0, "lat": 38.90561133333333, "name": "e61ec7a16820d5cff073dd0e9308f2b3", "fusion_lon": 0.0, "bike_id": "e61ec7a16820d5cff073dd0e9308f2b3", "is_disabled": 0, "is_reserved": 0}, {"rental_uris": {"ios": "https://dc.lft.to/lastmile_qr_scan", "android": "https://dc.lft.to/lastmile_qr_scan"}, "lon": -77.02232916666667, "type": "electric_scooter", "fusion_lat": 0.0, "lat": 38.91424883333333, "name": "1105adec698fce73f350313b1f8973c1", "fusion_lon": 0.0, "bike_id": "1105adec698fce73f350313b1f8973c1", "is_disabled": 0, "is_reserved": 0}, {"rental_uris": {"ios": "https://dc.lft.to/lastmile_qr_scan", "android": "https://dc.lft.to/lastmile_qr_scan"}, "lon": -77.05885333333333, "type": "electric_scooter", "fusion_lat": 0.0, "lat": 38.936357, "name": "4b69ca35e7d27afbfedcb328c8af72e3", "fusion_lon": 0.0, "bike_id": "4b69ca35e7d27afbfedcb328c8af72e3", "is_disabled": 0, "is_reserved": 0}, {"rental_uris": {"ios": "https://dc.lft.to/lastmile_qr_scan", "android": "https://dc.lft.to/lastmile_qr_scan"}, "lon": -77.03226, "type": "electric_scooter", "fusion_lat": 0.0, "lat": 38.917101333333335, "name": "9edb0722faf1c5856526e26781f58789", "fusion_lon": 0.0, "bike_id": "9edb0722faf1c5856526e26781f58789", "is_disabled": 0, "is_reserved": 0}, {"rental_uris": {"ios": "https://dc.lft.to/lastmile_qr_scan", "android": "https://dc.lft.to/lastmile_qr_scan"}, "lon": -77.02086616666666, "type": "electric_scooter", "fusion_lat": 0.0, "lat": 38.892191833333335, "name": "49d5b5f1529665c28b29b222583ee488", "fusion_lon": 0.0, "bike_id": "49d5b5f1529665c28b29b222583ee488", "is_disabled": 0, "is_reserved": 0}, {"rental_uris": {"ios": "https://dc.lft.to/lastmile_qr_scan", "android": "https://dc.lft.to/lastmile_qr_scan"}, "lon": -77.027249, "type": "electric_scooter", "fusion_lat": 0.0, "lat": 38.911004, "name": "8931a02e74b1684da7607f5c17fdeb8b", "fusion_lon": 0.0, "bike_id": "8931a02e74b1684da7607f5c17fdeb8b", "is_disabled": 0, "is_reserved": 0}, {"rental_uris": {"ios": "https://dc.lft.to/lastmile_qr_scan", "android": "https://dc.lft.to/lastmile_qr_scan"}, "lon": -77.045009, "type": "electric_scooter", "fusion_lat": 0.0, "lat": 38.911923333333334, "name": "54c26f360e6dd828d4f2723791f9ec8d", "fusion_lon": 0.0, "bike_id": "54c26f360e6dd828d4f2723791f9ec8d", "is_disabled": 0, "is_reserved": 0}, {"rental_uris": {"ios": "https://dc.lft.to/lastmile_qr_scan", "android": "https://dc.lft.to/lastmile_qr_scan"}, "lon": -77.022237, "type": "electric_scooter", "fusion_lat": 0.0, "lat": 38.93867516666667, "name": "3016dd85514a137a9172094e4db4cb9e", "fusion_lon": 0.0, "bike_id": "3016dd85514a137a9172094e4db4cb9e", "is_disabled": 0, "is_reserved": 0}, {"rental_uris": {"ios": "https://dc.lft.to/lastmile_qr_scan", "android": "https://dc.lft.to/lastmile_qr_scan"}, "lon": -77.021591, "type": "electric_scooter", "fusion_lat": 0.0, "lat": 38.926125666666664, "name": "b9a252e6f97e4297d00d66c25909273a", "fusion_lon": 0.0, "bike_id": "b9a252e6f97e4297d00d66c25909273a", "is_disabled": 0, "is_reserved": 0}, {"rental_uris": {"ios": "https://dc.lft.to/lastmile_qr_scan", "android": "https://dc.lft.to/lastmile_qr_scan"}, "lon": -76.97817983333333, "type": "electric_scooter", "fusion_lat": 0.0, "lat": 38.8952045, "name": "24416cade68fe513afbb737773904a8b", "fusion_lon": 0.0, "bike_id": "24416cade68fe513afbb737773904a8b", "is_disabled": 0, "is_reserved": 0}, {"rental_uris": {"ios": "https://dc.lft.to/lastmile_qr_scan", "android": "https://dc.lft.to/lastmile_qr_scan"}, "lon": -77.02505066666667, "type": "electric_scooter", "fusion_lat": 0.0, "lat": 38.9072615, "name": "bbb5ced67fe552d30217793c232a2069", "fusion_lon": 0.0, "bike_id": "bbb5ced67fe552d30217793c232a2069", "is_disabled": 0, "is_reserved": 0}, {"rental_uris": {"ios": "https://dc.lft.to/lastmile_qr_scan", "android": "https://dc.lft.to/lastmile_qr_scan"}, "lon": -76.97427116666667, "type": "electric_bike", "fusion_lat": 0.0, "lat": 38.93206333333333, "name": "854de7e4cd75c3f66fe58c9921ba4ed4", "fusion_lon": 0.0, "bike_id": "854de7e4cd75c3f66fe58c9921ba4ed4", "is_disabled": 0, "is_reserved": 0}, {"rental_uris": {"ios": "https://dc.lft.to/lastmile_qr_scan", "android": "https://dc.lft.to/lastmile_qr_scan"}, "lon": -77.02281033333334, "type": "electric_scooter", "fusion_lat": 0.0, "lat": 38.909633, "name": "c7f263be39fb3583e01db4a62d6e76ea", "fusion_lon": 0.0, "bike_id": "c7f263be39fb3583e01db4a62d6e76ea", "is_disabled": 0, "is_reserved": 0}, {"rental_uris": {"ios": "https://dc.lft.to/lastmile_qr_scan", "android": "https://dc.lft.to/lastmile_qr_scan"}, "lon": -77.04235266666667, "type": "electric_scooter", "fusion_lat": 0.0, "lat": 38.92210633333333, "name": "b6f121e51f27d301ecbb5b34424b200b", "fusion_lon": 0.0, "bike_id": "b6f121e51f27d301ecbb5b34424b200b", "is_disabled": 0, "is_reserved": 0}, {"rental_uris": {"ios": "https://dc.lft.to/lastmile_qr_scan", "android": "https://dc.lft.to/lastmile_qr_scan"}, "lon": -77.01676983333333, "type": "electric_scooter", "fusion_lat": 0.0, "lat": 38.9047495, "name": "24f593b17538fdb318234072f7bbfcb3", "fusion_lon": 0.0, "bike_id": "24f593b17538fdb318234072f7bbfcb3", "is_disabled": 0, "is_reserved": 0}, {"rental_uris": {"ios": "https://dc.lft.to/lastmile_qr_scan", "android": "https://dc.lft.to/lastmile_qr_scan"}, "lon": -77.01615216666667, "type": "electric_scooter", "fusion_lat": 0.0, "lat": 38.899695333333334, "name": "ddf43edec480562521c2e08a0ad1cbc2", "fusion_lon": 0.0, "bike_id": "ddf43edec480562521c2e08a0ad1cbc2", "is_disabled": 0, "is_reserved": 0}, {"rental_uris": {"ios": "https://dc.lft.to/lastmile_qr_scan", "android": "https://dc.lft.to/lastmile_qr_scan"}, "lon": -77.1829215, "type": "electric_bike", "fusion_lat": 0.0, "lat": 38.88347266666667, "name": "4171fa277390709c1880c9ee9a04922a", "fusion_lon": 0.0, "bike_id": "4171fa277390709c1880c9ee9a04922a", "is_disabled": 0, "is_reserved": 0}, {"rental_uris": {"ios": "https://dc.lft.to/lastmile_qr_scan", "android": "https://dc.lft.to/lastmile_qr_scan"}, "lon": -76.94994733333333, "type": "electric_scooter", "fusion_lat": 0.0, "lat": 38.8937335, "name": "1686f8bf4586ce0c7a66aae20943cd28", "fusion_lon": 0.0, "bike_id": "1686f8bf4586ce0c7a66aae20943cd28", "is_disabled": 0, "is_reserved": 0}, {"rental_uris": {"ios": "https://dc.lft.to/lastmile_qr_scan", "android": "https://dc.lft.to/lastmile_qr_scan"}, "lon": -77.08185183333333, "type": "electric_scooter", "fusion_lat": 0.0, "lat": 38.920149, "name": "73666b54668185ce3fd297b8c7cc1ae7", "fusion_lon": 0.0, "bike_id": "73666b54668185ce3fd297b8c7cc1ae7", "is_disabled": 0, "is_reserved": 0}, {"rental_uris": {"ios": "https://dc.lft.to/lastmile_qr_scan", "android": "https://dc.lft.to/lastmile_qr_scan"}, "lon": -77.03325616666666, "type": "electric_scooter", "fusion_lat": 0.0, "lat": 38.901463, "name": "197b9dd9061c8cbd5ddd983de7a1f3b5", "fusion_lon": 0.0, "bike_id": "197b9dd9061c8cbd5ddd983de7a1f3b5", "is_disabled": 0, "is_reserved": 0}, {"rental_uris": {"ios": "https://dc.lft.to/lastmile_qr_scan", "android": "https://dc.lft.to/lastmile_qr_scan"}, "lon": -77.02463966666667, "type": "electric_scooter", "fusion_lat": 0.0, "lat": 38.938148166666664, "name": "a54cb638cee17337ff74c06dde277dd0", "fusion_lon": 0.0, "bike_id": "a54cb638cee17337ff74c06dde277dd0", "is_disabled": 0, "is_reserved": 0}, {"rental_uris": {"ios": "https://dc.lft.to/lastmile_qr_scan", "android": "https://dc.lft.to/lastmile_qr_scan"}, "lon": -76.874932, "type": "electric_bike", "fusion_lat": 0.0, "lat": 38.99090866666667, "name": "ef9094f42cc4195bc0b2ec4d82ae7386", "fusion_lon": 0.0, "bike_id": "ef9094f42cc4195bc0b2ec4d82ae7386", "is_disabled": 0, "is_reserved": 0}, {"rental_uris": {"ios": "https://dc.lft.to/lastmile_qr_scan", "android": "https://dc.lft.to/lastmile_qr_scan"}, "lon": -77.03984833333334, "type": "electric_scooter", "fusion_lat": 0.0, "lat": 38.898988333333335, "name": "ba4d446ac7b74a9087f62681806aa038", "fusion_lon": 0.0, "bike_id": "ba4d446ac7b74a9087f62681806aa038", "is_disabled": 0, "is_reserved": 0}, {"rental_uris": {"ios": "https://dc.lft.to/lastmile_qr_scan", "android": "https://dc.lft.to/lastmile_qr_scan"}, "lon": -76.9918055, "type": "electric_scooter", "fusion_lat": 0.0, "lat": 38.90455516666667, "name": "35da093883508d4816210d15091f2aec", "fusion_lon": 0.0, "bike_id": "35da093883508d4816210d15091f2aec", "is_disabled": 0, "is_reserved": 0}, {"rental_uris": {"ios": "https://dc.lft.to/lastmile_qr_scan", "android": "https://dc.lft.to/lastmile_qr_scan"}, "lon": -77.0537885, "type": "electric_scooter", "fusion_lat": 0.0, "lat": 38.8907985, "name": "ba629063879e489d6ddcb15f321dcc1f", "fusion_lon": 0.0, "bike_id": "ba629063879e489d6ddcb15f321dcc1f", "is_disabled": 0, "is_reserved": 0}, {"rental_uris": {"ios": "https://dc.lft.to/lastmile_qr_scan", "android": "https://dc.lft.to/lastmile_qr_scan"}, "lon": -77.11221283333333, "type": "electric_bike", "fusion_lat": 0.0, "lat": 38.828726333333336, "name": "f5d4b08004f1465f1185c80a8dc2fb05", "fusion_lon": 0.0, "bike_id": "f5d4b08004f1465f1185c80a8dc2fb05", "is_disabled": 0, "is_reserved": 0}, {"rental_uris": {"ios": "https://dc.lft.to/lastmile_qr_scan", "android": "https://dc.lft.to/lastmile_qr_scan"}, "lon": -77.02739766666667, "type": "electric_scooter", "fusion_lat": 0.0, "lat": 38.88157666666667, "name": "11f7a91f9e74260b64937c39c9fb2dce", "fusion_lon": 0.0, "bike_id": "11f7a91f9e74260b64937c39c9fb2dce", "is_disabled": 0, "is_reserved": 0}, {"rental_uris": {"ios": "https://dc.lft.to/lastmile_qr_scan", "android": "https://dc.lft.to/lastmile_qr_scan"}, "lon": -77.04956466666667, "type": "electric_scooter", "fusion_lat": 0.0, "lat": 38.91593433333333, "name": "587929d848e75b9034324d124ca5275c", "fusion_lon": 0.0, "bike_id": "587929d848e75b9034324d124ca5275c", "is_disabled": 0, "is_reserved": 0}, {"rental_uris": {"ios": "https://dc.lft.to/lastmile_qr_scan", "android": "https://dc.lft.to/lastmile_qr_scan"}, "lon": -77.00814566666666, "type": "electric_scooter", "fusion_lat": 0.0, "lat": 38.87638966666667, "name": "e28e792c76250d0228359b1ebd1f7836", "fusion_lon": 0.0, "bike_id": "e28e792c76250d0228359b1ebd1f7836", "is_disabled": 0, "is_reserved": 0}, {"rental_uris": {"ios": "https://dc.lft.to/lastmile_qr_scan", "android": "https://dc.lft.to/lastmile_qr_scan"}, "lon": -77.02154683333333, "type": "electric_scooter", "fusion_lat": 0.0, "lat": 38.92605916666667, "name": "57a7c34cca63409abf9b2ed85d30aee5", "fusion_lon": 0.0, "bike_id": "57a7c34cca63409abf9b2ed85d30aee5", "is_disabled": 0, "is_reserved": 0}, {"rental_uris": {"ios": "https://dc.lft.to/lastmile_qr_scan", "android": "https://dc.lft.to/lastmile_qr_scan"}, "lon": -77.02470133333334, "type": "electric_scooter", "fusion_lat": 0.0, "lat": 38.938562166666664, "name": "8b0810ee5c5b7f260c4aab0f81850992", "fusion_lon": 0.0, "bike_id": "8b0810ee5c5b7f260c4aab0f81850992", "is_disabled": 0, "is_reserved": 0}, {"rental_uris": {"ios": "https://dc.lft.to/lastmile_qr_scan", "android": "https://dc.lft.to/lastmile_qr_scan"}, "lon": -77.02654483333333, "type": "electric_scooter", "fusion_lat": 0.0, "lat": 38.9056675, "name": "54fc75bb1af4d987bec9a2781e2bc517", "fusion_lon": 0.0, "bike_id": "54fc75bb1af4d987bec9a2781e2bc517", "is_disabled": 0, "is_reserved": 0}, {"rental_uris": {"ios": "https://dc.lft.to/lastmile_qr_scan", "android": "https://dc.lft.to/lastmile_qr_scan"}, "lon": -77.0275985, "type": "electric_scooter", "fusion_lat": 0.0, "lat": 38.915516333333336, "name": "8645b0399de8d80e25f6df3e350ec92f", "fusion_lon": 0.0, "bike_id": "8645b0399de8d80e25f6df3e350ec92f", "is_disabled": 0, "is_reserved": 0}, {"rental_uris": {"ios": "https://dc.lft.to/lastmile_qr_scan", "android": "https://dc.lft.to/lastmile_qr_scan"}, "lon": -77.12500966666667, "type": "electric_bike", "fusion_lat": 0.0, "lat": 39.02419483333333, "name": "b2656bbbb3db56ed139f481eb304c13e", "fusion_lon": 0.0, "bike_id": "b2656bbbb3db56ed139f481eb304c13e", "is_disabled": 0, "is_reserved": 0}, {"rental_uris": {"ios": "https://dc.lft.to/lastmile_qr_scan", "android": "https://dc.lft.to/lastmile_qr_scan"}, "lon": -77.0019675, "type": "electric_scooter", "fusion_lat": 0.0, "lat": 38.90035966666667, "name": "79d6b6095d5287cf248fcc162365ea5e", "fusion_lon": 0.0, "bike_id": "79d6b6095d5287cf248fcc162365ea5e", "is_disabled": 0, "is_reserved": 0}, {"rental_uris": {"ios": "https://dc.lft.to/lastmile_qr_scan", "android": "https://dc.lft.to/lastmile_qr_scan"}, "lon": -77.00589083333334, "type": "electric_scooter", "fusion_lat": 0.0, "lat": 38.915632, "name": "d097e0382c41f48f664d3f320d02a656", "fusion_lon": 0.0, "bike_id": "d097e0382c41f48f664d3f320d02a656", "is_disabled": 0, "is_reserved": 0}, {"rental_uris": {"ios": "https://dc.lft.to/lastmile_qr_scan", "android": "https://dc.lft.to/lastmile_qr_scan"}, "lon": -77.00100583333334, "type": "electric_scooter", "fusion_lat": 0.0, "lat": 38.90755266666667, "name": "a484e2498ddffff070e030cc38582688", "fusion_lon": 0.0, "bike_id": "a484e2498ddffff070e030cc38582688", "is_disabled": 0, "is_reserved": 0}, {"rental_uris": {"ios": "https://dc.lft.to/lastmile_qr_scan", "android": "https://dc.lft.to/lastmile_qr_scan"}, "lon": -77.02470466666666, "type": "electric_scooter", "fusion_lat": 0.0, "lat": 38.93099483333334, "name": "79dc4fcfd41de8c97a6a2f1a87f8c284", "fusion_lon": 0.0, "bike_id": "79dc4fcfd41de8c97a6a2f1a87f8c284", "is_disabled": 0, "is_reserved": 0}, {"rental_uris": {"ios": "https://dc.lft.to/lastmile_qr_scan", "android": "https://dc.lft.to/lastmile_qr_scan"}, "lon": -77.04694166666667, "type": "electric_scooter", "fusion_lat": 0.0, "lat": 38.8974315, "name": "7f9a78221452a10b6847906a4a3ab2ca", "fusion_lon": 0.0, "bike_id": "7f9a78221452a10b6847906a4a3ab2ca", "is_disabled": 0, "is_reserved": 0}, {"rental_uris": {"ios": "https://dc.lft.to/lastmile_qr_scan", "android": "https://dc.lft.to/lastmile_qr_scan"}, "lon": -77.03865383333333, "type": "electric_scooter", "fusion_lat": 0.0, "lat": 38.9027785, "name": "4c85d693b1fbdeed2de8bb3baa661957", "fusion_lon": 0.0, "bike_id": "4c85d693b1fbdeed2de8bb3baa661957", "is_disabled": 0, "is_reserved": 0}, {"rental_uris": {"ios": "https://dc.lft.to/lastmile_qr_scan", "android": "https://dc.lft.to/lastmile_qr_scan"}, "lon": -77.04515333333333, "type": "electric_scooter", "fusion_lat": 0.0, "lat": 38.9128845, "name": "09fb3685adcd6ce472ed3d029c12e384", "fusion_lon": 0.0, "bike_id": "09fb3685adcd6ce472ed3d029c12e384", "is_disabled": 0, "is_reserved": 0}, {"rental_uris": {"ios": "https://dc.lft.to/lastmile_qr_scan", "android": "https://dc.lft.to/lastmile_qr_scan"}, "lon": -77.013511, "type": "electric_scooter", "fusion_lat": 0.0, "lat": 38.895771833333335, "name": "977e6fc6e5144faa61dd911e54ce0a91", "fusion_lon": 0.0, "bike_id": "977e6fc6e5144faa61dd911e54ce0a91", "is_disabled": 0, "is_reserved": 0}, {"rental_uris": {"ios": "https://dc.lft.to/lastmile_qr_scan", "android": "https://dc.lft.to/lastmile_qr_scan"}, "lon": -77.017585, "type": "electric_scooter", "fusion_lat": 0.0, "lat": 38.884164166666665, "name": "e42cbbd8528df404977fd64c88f3eb1b", "fusion_lon": 0.0, "bike_id": "e42cbbd8528df404977fd64c88f3eb1b", "is_disabled": 0, "is_reserved": 0}, {"rental_uris": {"ios": "https://dc.lft.to/lastmile_qr_scan", "android": "https://dc.lft.to/lastmile_qr_scan"}, "lon": -77.03875883333333, "type": "electric_scooter", "fusion_lat": 0.0, "lat": 38.93159383333333, "name": "faaf6852fcb4ed1ea88fcebffd90d8e6", "fusion_lon": 0.0, "bike_id": "faaf6852fcb4ed1ea88fcebffd90d8e6", "is_disabled": 0, "is_reserved": 0}, {"rental_uris": {"ios": "https://dc.lft.to/lastmile_qr_scan", "android": "https://dc.lft.to/lastmile_qr_scan"}, "lon": -77.07326283333333, "type": "electric_scooter", "fusion_lat": 0.0, "lat": 38.924969833333336, "name": "66f9edc74180d7872a95b1df2018cf22", "fusion_lon": 0.0, "bike_id": "66f9edc74180d7872a95b1df2018cf22", "is_disabled": 0, "is_reserved": 0}, {"rental_uris": {"ios": "https://dc.lft.to/lastmile_qr_scan", "android": "https://dc.lft.to/lastmile_qr_scan"}, "lon": -77.022288, "type": "electric_scooter", "fusion_lat": 0.0, "lat": 38.891943, "name": "74af9bd0c36ed7d23c94c1e2b9a06198", "fusion_lon": 0.0, "bike_id": "74af9bd0c36ed7d23c94c1e2b9a06198", "is_disabled": 0, "is_reserved": 0}, {"rental_uris": {"ios": "https://dc.lft.to/lastmile_qr_scan", "android": "https://dc.lft.to/lastmile_qr_scan"}, "lon": -77.04334616666667, "type": "electric_scooter", "fusion_lat": 0.0, "lat": 38.892270833333335, "name": "03c24a00752bff3bb3cc27ea6a6916c4", "fusion_lon": 0.0, "bike_id": "03c24a00752bff3bb3cc27ea6a6916c4", "is_disabled": 0, "is_reserved": 0}, {"rental_uris": {"ios": "https://dc.lft.to/lastmile_qr_scan", "android": "https://dc.lft.to/lastmile_qr_scan"}, "lon": -77.03208566666666, "type": "electric_scooter", "fusion_lat": 0.0, "lat": 38.911107, "name": "1c5a4e483342e6238994bd63b3c80f1d", "fusion_lon": 0.0, "bike_id": "1c5a4e483342e6238994bd63b3c80f1d", "is_disabled": 0, "is_reserved": 0}, {"rental_uris": {"ios": "https://dc.lft.to/lastmile_qr_scan", "android": "https://dc.lft.to/lastmile_qr_scan"}, "lon": -77.03665816666667, "type": "electric_scooter", "fusion_lat": 0.0, "lat": 38.92937216666667, "name": "e7b2ae4ef94a2d3acd8c7996dd750725", "fusion_lon": 0.0, "bike_id": "e7b2ae4ef94a2d3acd8c7996dd750725", "is_disabled": 0, "is_reserved": 0}, {"rental_uris": {"ios": "https://dc.lft.to/lastmile_qr_scan", "android": "https://dc.lft.to/lastmile_qr_scan"}, "lon": -77.027909, "type": "electric_scooter", "fusion_lat": 0.0, "lat": 38.8965675, "name": "3095310f96a69cad5767f61d13471347", "fusion_lon": 0.0, "bike_id": "3095310f96a69cad5767f61d13471347", "is_disabled": 0, "is_reserved": 0}, {"rental_uris": {"ios": "https://dc.lft.to/lastmile_qr_scan", "android": "https://dc.lft.to/lastmile_qr_scan"}, "lon": -77.0755825, "type": "electric_scooter", "fusion_lat": 0.0, "lat": 38.920914833333335, "name": "9ce807504de7eb861fcd633af678f62b", "fusion_lon": 0.0, "bike_id": "9ce807504de7eb861fcd633af678f62b", "is_disabled": 0, "is_reserved": 0}, {"rental_uris": {"ios": "https://dc.lft.to/lastmile_qr_scan", "android": "https://dc.lft.to/lastmile_qr_scan"}, "lon": -76.93169866666666, "type": "electric_scooter", "fusion_lat": 0.0, "lat": 38.89883566666666, "name": "960c47a8c107b68d735e8f34a9139ea1", "fusion_lon": 0.0, "bike_id": "960c47a8c107b68d735e8f34a9139ea1", "is_disabled": 0, "is_reserved": 0}, {"rental_uris": {"ios": "https://dc.lft.to/lastmile_qr_scan", "android": "https://dc.lft.to/lastmile_qr_scan"}, "lon": -77.02208933333333, "type": "electric_scooter", "fusion_lat": 0.0, "lat": 38.92231133333333, "name": "4b1ad2d8d585c983cd30e80cb996e5e0", "fusion_lon": 0.0, "bike_id": "4b1ad2d8d585c983cd30e80cb996e5e0", "is_disabled": 0, "is_reserved": 0}, {"rental_uris": {"ios": "https://dc.lft.to/lastmile_qr_scan", "android": "https://dc.lft.to/lastmile_qr_scan"}, "lon": -76.998593, "type": "electric_scooter", "fusion_lat": 0.0, "lat": 38.90779916666666, "name": "2d42c131a5648bed8f3ac087678d24b3", "fusion_lon": 0.0, "bike_id": "2d42c131a5648bed8f3ac087678d24b3", "is_disabled": 0, "is_reserved": 0}, {"rental_uris": {"ios": "https://dc.lft.to/lastmile_qr_scan", "android": "https://dc.lft.to/lastmile_qr_scan"}, "lon": -76.98709483333333, "type": "electric_scooter", "fusion_lat": 0.0, "lat": 38.867022166666665, "name": "18e28d1e89cb442b7bbf4b30a0723750", "fusion_lon": 0.0, "bike_id": "18e28d1e89cb442b7bbf4b30a0723750", "is_disabled": 0, "is_reserved": 0}, {"rental_uris": {"ios": "https://dc.lft.to/lastmile_qr_scan", "android": "https://dc.lft.to/lastmile_qr_scan"}, "lon": -77.02971816666667, "type": "electric_scooter", "fusion_lat": 0.0, "lat": 38.9361175, "name": "887c06d27bb5aa04c8a77b31ccf71889", "fusion_lon": 0.0, "bike_id": "887c06d27bb5aa04c8a77b31ccf71889", "is_disabled": 0, "is_reserved": 0}, {"rental_uris": {"ios": "https://dc.lft.to/lastmile_qr_scan", "android": "https://dc.lft.to/lastmile_qr_scan"}, "lon": -77.038545, "type": "electric_scooter", "fusion_lat": 0.0, "lat": 38.920290333333334, "name": "b3e36b01a0259b1f8ce1d33065f40157", "fusion_lon": 0.0, "bike_id": "b3e36b01a0259b1f8ce1d33065f40157", "is_disabled": 0, "is_reserved": 0}, {"rental_uris": {"ios": "https://dc.lft.to/lastmile_qr_scan", "android": "https://dc.lft.to/lastmile_qr_scan"}, "lon": -77.06276233333334, "type": "electric_scooter", "fusion_lat": 0.0, "lat": 38.906317666666666, "name": "e3984f98fd5e55d31dd3f3195f821344", "fusion_lon": 0.0, "bike_id": "e3984f98fd5e55d31dd3f3195f821344", "is_disabled": 0, "is_reserved": 0}, {"rental_uris": {"ios": "https://dc.lft.to/lastmile_qr_scan", "android": "https://dc.lft.to/lastmile_qr_scan"}, "lon": -76.94890183333334, "type": "electric_scooter", "fusion_lat": 0.0, "lat": 38.89535, "name": "f40474a6b5085d5a6c233b18e6947d37", "fusion_lon": 0.0, "bike_id": "f40474a6b5085d5a6c233b18e6947d37", "is_disabled": 0, "is_reserved": 0}, {"rental_uris": {"ios": "https://dc.lft.to/lastmile_qr_scan", "android": "https://dc.lft.to/lastmile_qr_scan"}, "lon": -76.99518816666667, "type": "electric_scooter", "fusion_lat": 0.0, "lat": 38.862623666666664, "name": "cd26fe471d74f926eb667f039c2a0959", "fusion_lon": 0.0, "bike_id": "cd26fe471d74f926eb667f039c2a0959", "is_disabled": 0, "is_reserved": 0}, {"rental_uris": {"ios": "https://dc.lft.to/lastmile_qr_scan", "android": "https://dc.lft.to/lastmile_qr_scan"}, "lon": -77.04690866666667, "type": "electric_scooter", "fusion_lat": 0.0, "lat": 38.89738766666667, "name": "3b5a90c13487e263fb26587da00f4063", "fusion_lon": 0.0, "bike_id": "3b5a90c13487e263fb26587da00f4063", "is_disabled": 0, "is_reserved": 0}, {"rental_uris": {"ios": "https://dc.lft.to/lastmile_qr_scan", "android": "https://dc.lft.to/lastmile_qr_scan"}, "lon": -77.0500325, "type": "electric_scooter", "fusion_lat": 0.0, "lat": 38.89229733333333, "name": "227096992753f3ee9076558f0ded25b7", "fusion_lon": 0.0, "bike_id": "227096992753f3ee9076558f0ded25b7", "is_disabled": 0, "is_reserved": 0}, {"rental_uris": {"ios": "https://dc.lft.to/lastmile_qr_scan", "android": "https://dc.lft.to/lastmile_qr_scan"}, "lon": -77.02351883333333, "type": "electric_scooter", "fusion_lat": 0.0, "lat": 38.9452135, "name": "04f7dd02aac77d96cb6233d1cf209ffa", "fusion_lon": 0.0, "bike_id": "04f7dd02aac77d96cb6233d1cf209ffa", "is_disabled": 0, "is_reserved": 0}, {"rental_uris": {"ios": "https://dc.lft.to/lastmile_qr_scan", "android": "https://dc.lft.to/lastmile_qr_scan"}, "lon": -77.0161765, "type": "electric_scooter", "fusion_lat": 0.0, "lat": 38.89979566666667, "name": "c5538a5b9e8e26eda845d2f1d77d3e5a", "fusion_lon": 0.0, "bike_id": "c5538a5b9e8e26eda845d2f1d77d3e5a", "is_disabled": 0, "is_reserved": 0}, {"rental_uris": {"ios": "https://dc.lft.to/lastmile_qr_scan", "android": "https://dc.lft.to/lastmile_qr_scan"}, "lon": -77.03336766666666, "type": "electric_scooter", "fusion_lat": 0.0, "lat": 38.928740166666664, "name": "f67b1fb4565e8e10e84612e24796dee7", "fusion_lon": 0.0, "bike_id": "f67b1fb4565e8e10e84612e24796dee7", "is_disabled": 0, "is_reserved": 0}, {"rental_uris": {"ios": "https://dc.lft.to/lastmile_qr_scan", "android": "https://dc.lft.to/lastmile_qr_scan"}, "lon": -77.007516, "type": "electric_scooter", "fusion_lat": 0.0, "lat": 38.903776, "name": "4147b47509e45c83067f83dc35d6a081", "fusion_lon": 0.0, "bike_id": "4147b47509e45c83067f83dc35d6a081", "is_disabled": 0, "is_reserved": 0}, {"rental_uris": {"ios": "https://dc.lft.to/lastmile_qr_scan", "android": "https://dc.lft.to/lastmile_qr_scan"}, "lon": -77.05885083333334, "type": "electric_scooter", "fusion_lat": 0.0, "lat": 38.936363666666665, "name": "a6262b8c5205262b5be299086637c40b", "fusion_lon": 0.0, "bike_id": "a6262b8c5205262b5be299086637c40b", "is_disabled": 0, "is_reserved": 0}, {"rental_uris": {"ios": "https://dc.lft.to/lastmile_qr_scan", "android": "https://dc.lft.to/lastmile_qr_scan"}, "lon": -76.92995816666667, "type": "electric_bike", "fusion_lat": 0.0, "lat": 38.887966166666665, "name": "ff86d39c88e402184a427221461b9452", "fusion_lon": 0.0, "bike_id": "ff86d39c88e402184a427221461b9452", "is_disabled": 0, "is_reserved": 0}, {"rental_uris": {"ios": "https://dc.lft.to/lastmile_qr_scan", "android": "https://dc.lft.to/lastmile_qr_scan"}, "lon": -76.939573, "type": "electric_scooter", "fusion_lat": 0.0, "lat": 38.89416416666667, "name": "cc88429b764930ac83aadec6fe98b862", "fusion_lon": 0.0, "bike_id": "cc88429b764930ac83aadec6fe98b862", "is_disabled": 0, "is_reserved": 0}, {"rental_uris": {"ios": "https://dc.lft.to/lastmile_qr_scan", "android": "https://dc.lft.to/lastmile_qr_scan"}, "lon": -77.0721335, "type": "electric_scooter", "fusion_lat": 0.0, "lat": 38.92106183333333, "name": "1195d037e5c6bb05dbbf91f0526be578", "fusion_lon": 0.0, "bike_id": "1195d037e5c6bb05dbbf91f0526be578", "is_disabled": 0, "is_reserved": 0}, {"rental_uris": {"ios": "https://dc.lft.to/lastmile_qr_scan", "android": "https://dc.lft.to/lastmile_qr_scan"}, "lon": -77.0526515, "type": "electric_scooter", "fusion_lat": 0.0, "lat": 38.9101945, "name": "2532a6a5587a44cd80bdce6c5318bb1a", "fusion_lon": 0.0, "bike_id": "2532a6a5587a44cd80bdce6c5318bb1a", "is_disabled": 0, "is_reserved": 0}, {"rental_uris": {"ios": "https://dc.lft.to/lastmile_qr_scan", "android": "https://dc.lft.to/lastmile_qr_scan"}, "lon": -77.00712583333333, "type": "electric_scooter", "fusion_lat": 0.0, "lat": 38.913418166666666, "name": "6084d1cc3454f31858f889f8d67c5c6c", "fusion_lon": 0.0, "bike_id": "6084d1cc3454f31858f889f8d67c5c6c", "is_disabled": 0, "is_reserved": 0}, {"rental_uris": {"ios": "https://dc.lft.to/lastmile_qr_scan", "android": "https://dc.lft.to/lastmile_qr_scan"}, "lon": -77.03184616666667, "type": "electric_scooter", "fusion_lat": 0.0, "lat": 38.918033333333334, "name": "458222b24c851e48ce7dde9bf7365754", "fusion_lon": 0.0, "bike_id": "458222b24c851e48ce7dde9bf7365754", "is_disabled": 0, "is_reserved": 0}, {"rental_uris": {"ios": "https://dc.lft.to/lastmile_qr_scan", "android": "https://dc.lft.to/lastmile_qr_scan"}, "lon": -77.0286515, "type": "electric_scooter", "fusion_lat": 0.0, "lat": 38.903170833333334, "name": "cfa711eae7bd5833394008ff1f645fb6", "fusion_lon": 0.0, "bike_id": "cfa711eae7bd5833394008ff1f645fb6", "is_disabled": 0, "is_reserved": 0}, {"rental_uris": {"ios": "https://dc.lft.to/lastmile_qr_scan", "android": "https://dc.lft.to/lastmile_qr_scan"}, "lon": -77.0368125, "type": "electric_scooter", "fusion_lat": 0.0, "lat": 38.91806866666667, "name": "883ad39f26da3a42912edf8e979c31c1", "fusion_lon": 0.0, "bike_id": "883ad39f26da3a42912edf8e979c31c1", "is_disabled": 0, "is_reserved": 0}, {"rental_uris": {"ios": "https://dc.lft.to/lastmile_qr_scan", "android": "https://dc.lft.to/lastmile_qr_scan"}, "lon": -77.09869666666667, "type": "electric_bike", "fusion_lat": 0.0, "lat": 38.85372683333333, "name": "8482b46615ea614e4ba19cd62b901c71", "fusion_lon": 0.0, "bike_id": "8482b46615ea614e4ba19cd62b901c71", "is_disabled": 0, "is_reserved": 0}, {"rental_uris": {"ios": "https://dc.lft.to/lastmile_qr_scan", "android": "https://dc.lft.to/lastmile_qr_scan"}, "lon": -77.0433345, "type": "electric_scooter", "fusion_lat": 0.0, "lat": 38.892258, "name": "da2745c93c01875c25b9b0d262a85b58", "fusion_lon": 0.0, "bike_id": "da2745c93c01875c25b9b0d262a85b58", "is_disabled": 0, "is_reserved": 0}, {"rental_uris": {"ios": "https://dc.lft.to/lastmile_qr_scan", "android": "https://dc.lft.to/lastmile_qr_scan"}, "lon": -77.03265733333333, "type": "electric_scooter", "fusion_lat": 0.0, "lat": 38.936658, "name": "0fdd1cb72a6ee17731b2e7927e8f9036", "fusion_lon": 0.0, "bike_id": "0fdd1cb72a6ee17731b2e7927e8f9036", "is_disabled": 0, "is_reserved": 0}, {"rental_uris": {"ios": "https://dc.lft.to/lastmile_qr_scan", "android": "https://dc.lft.to/lastmile_qr_scan"}, "lon": -77.00363633333333, "type": "electric_scooter", "fusion_lat": 0.0, "lat": 38.89902583333333, "name": "7793052b76ba81fce5d6e290468cd884", "fusion_lon": 0.0, "bike_id": "7793052b76ba81fce5d6e290468cd884", "is_disabled": 0, "is_reserved": 0}, {"rental_uris": {"ios": "https://dc.lft.to/lastmile_qr_scan", "android": "https://dc.lft.to/lastmile_qr_scan"}, "lon": -77.0474875, "type": "electric_scooter", "fusion_lat": 0.0, "lat": 38.9177415, "name": "e3cbc5b12e394e4386df8ab4eb3eb805", "fusion_lon": 0.0, "bike_id": "e3cbc5b12e394e4386df8ab4eb3eb805", "is_disabled": 0, "is_reserved": 0}, {"rental_uris": {"ios": "https://dc.lft.to/lastmile_qr_scan", "android": "https://dc.lft.to/lastmile_qr_scan"}, "lon": -77.0338915, "type": "electric_scooter", "fusion_lat": 0.0, "lat": 38.9384805, "name": "0aa223aae94aebc13278cd7e6aaa52ff", "fusion_lon": 0.0, "bike_id": "0aa223aae94aebc13278cd7e6aaa52ff", "is_disabled": 0, "is_reserved": 0}, {"rental_uris": {"ios": "https://dc.lft.to/lastmile_qr_scan", "android": "https://dc.lft.to/lastmile_qr_scan"}, "lon": -77.08936466666667, "type": "electric_bike", "fusion_lat": 0.0, "lat": 38.841065, "name": "dfcecbf23098d958f43dc7c3f7cba174", "fusion_lon": 0.0, "bike_id": "dfcecbf23098d958f43dc7c3f7cba174", "is_disabled": 0, "is_reserved": 0}, {"rental_uris": {"ios": "https://dc.lft.to/lastmile_qr_scan", "android": "https://dc.lft.to/lastmile_qr_scan"}, "lon": -77.03171433333333, "type": "electric_scooter", "fusion_lat": 0.0, "lat": 38.919640666666666, "name": "6ab310e1794062347a101eb00065a6b8", "fusion_lon": 0.0, "bike_id": "6ab310e1794062347a101eb00065a6b8", "is_disabled": 0, "is_reserved": 0}, {"rental_uris": {"ios": "https://dc.lft.to/lastmile_qr_scan", "android": "https://dc.lft.to/lastmile_qr_scan"}, "lon": -77.0018485, "type": "electric_scooter", "fusion_lat": 0.0, "lat": 38.87388, "name": "4522e1851eaa549190753c3e1e277a96", "fusion_lon": 0.0, "bike_id": "4522e1851eaa549190753c3e1e277a96", "is_disabled": 0, "is_reserved": 0}, {"rental_uris": {"ios": "https://dc.lft.to/lastmile_qr_scan", "android": "https://dc.lft.to/lastmile_qr_scan"}, "lon": -77.06938, "type": "electric_scooter", "fusion_lat": 0.0, "lat": 38.90507516666667, "name": "61a0237a8ed63474d1cde8fb2c1f2934", "fusion_lon": 0.0, "bike_id": "61a0237a8ed63474d1cde8fb2c1f2934", "is_disabled": 0, "is_reserved": 0}, {"rental_uris": {"ios": "https://dc.lft.to/lastmile_qr_scan", "android": "https://dc.lft.to/lastmile_qr_scan"}, "lon": -77.02229166666666, "type": "electric_scooter", "fusion_lat": 0.0, "lat": 38.89198583333334, "name": "9647e3d85e33d58799faec3272879124", "fusion_lon": 0.0, "bike_id": "9647e3d85e33d58799faec3272879124", "is_disabled": 0, "is_reserved": 0}, {"rental_uris": {"ios": "https://dc.lft.to/lastmile_qr_scan", "android": "https://dc.lft.to/lastmile_qr_scan"}, "lon": -76.97608883333334, "type": "electric_bike", "fusion_lat": 0.0, "lat": 38.91309283333333, "name": "2642a96c8b58156242d18fae8c0467bb", "fusion_lon": 0.0, "bike_id": "2642a96c8b58156242d18fae8c0467bb", "is_disabled": 0, "is_reserved": 0}, {"rental_uris": {"ios": "https://dc.lft.to/lastmile_qr_scan", "android": "https://dc.lft.to/lastmile_qr_scan"}, "lon": -77.032613, "type": "electric_scooter", "fusion_lat": 0.0, "lat": 38.935273333333335, "name": "b163f23baa2535b3c8fa5b4842df7d8d", "fusion_lon": 0.0, "bike_id": "b163f23baa2535b3c8fa5b4842df7d8d", "is_disabled": 0, "is_reserved": 0}, {"rental_uris": {"ios": "https://dc.lft.to/lastmile_qr_scan", "android": "https://dc.lft.to/lastmile_qr_scan"}, "lon": -76.99035066666667, "type": "electric_scooter", "fusion_lat": 0.0, "lat": 38.85873933333333, "name": "4614c34d29fbf6e9e0bb1ff0b425ebb6", "fusion_lon": 0.0, "bike_id": "4614c34d29fbf6e9e0bb1ff0b425ebb6", "is_disabled": 0, "is_reserved": 0}, {"rental_uris": {"ios": "https://dc.lft.to/lastmile_qr_scan", "android": "https://dc.lft.to/lastmile_qr_scan"}, "lon": -77.01824316666666, "type": "electric_scooter", "fusion_lat": 0.0, "lat": 38.90972166666667, "name": "6cd13e2948ee9f8bc68757d3fee6fea7", "fusion_lon": 0.0, "bike_id": "6cd13e2948ee9f8bc68757d3fee6fea7", "is_disabled": 0, "is_reserved": 0}, {"rental_uris": {"ios": "https://dc.lft.to/lastmile_qr_scan", "android": "https://dc.lft.to/lastmile_qr_scan"}, "lon": -77.019758, "type": "electric_scooter", "fusion_lat": 0.0, "lat": 38.897536, "name": "dabe89c1a3d56729f9a1fbf003e8d048", "fusion_lon": 0.0, "bike_id": "dabe89c1a3d56729f9a1fbf003e8d048", "is_disabled": 0, "is_reserved": 0}, {"rental_uris": {"ios": "https://dc.lft.to/lastmile_qr_scan", "android": "https://dc.lft.to/lastmile_qr_scan"}, "lon": -77.04143916666666, "type": "electric_scooter", "fusion_lat": 0.0, "lat": 38.907517666666664, "name": "4d1a8aef749bd6dd9fdc71f23c81348f", "fusion_lon": 0.0, "bike_id": "4d1a8aef749bd6dd9fdc71f23c81348f", "is_disabled": 0, "is_reserved": 0}, {"rental_uris": {"ios": "https://dc.lft.to/lastmile_qr_scan", "android": "https://dc.lft.to/lastmile_qr_scan"}, "lon": -77.06690266666666, "type": "electric_scooter", "fusion_lat": 0.0, "lat": 38.909730333333336, "name": "fc40cd039fee3a25526c6c6d6cbb8bde", "fusion_lon": 0.0, "bike_id": "fc40cd039fee3a25526c6c6d6cbb8bde", "is_disabled": 0, "is_reserved": 0}, {"rental_uris": {"ios": "https://dc.lft.to/lastmile_qr_scan", "android": "https://dc.lft.to/lastmile_qr_scan"}, "lon": -77.02645283333334, "type": "electric_scooter", "fusion_lat": 0.0, "lat": 38.9085495, "name": "2fa25c58028ff4f8f396b09bd951b45b", "fusion_lon": 0.0, "bike_id": "2fa25c58028ff4f8f396b09bd951b45b", "is_disabled": 0, "is_reserved": 0}, {"rental_uris": {"ios": "https://dc.lft.to/lastmile_qr_scan", "android": "https://dc.lft.to/lastmile_qr_scan"}, "lon": -77.03258966666667, "type": "electric_scooter", "fusion_lat": 0.0, "lat": 38.93873516666667, "name": "43c551054299beeba1d4c42f5df9cd1e", "fusion_lon": 0.0, "bike_id": "43c551054299beeba1d4c42f5df9cd1e", "is_disabled": 0, "is_reserved": 0}, {"rental_uris": {"ios": "https://dc.lft.to/lastmile_qr_scan", "android": "https://dc.lft.to/lastmile_qr_scan"}, "lon": -77.03229283333333, "type": "electric_scooter", "fusion_lat": 0.0, "lat": 38.92880816666667, "name": "955dffed3530b467e33ce63a4b507a33", "fusion_lon": 0.0, "bike_id": "955dffed3530b467e33ce63a4b507a33", "is_disabled": 0, "is_reserved": 0}, {"rental_uris": {"ios": "https://dc.lft.to/lastmile_qr_scan", "android": "https://dc.lft.to/lastmile_qr_scan"}, "lon": -77.02579916666667, "type": "electric_scooter", "fusion_lat": 0.0, "lat": 38.882317, "name": "5fbe347061671c36aa5d05da9773b6f0", "fusion_lon": 0.0, "bike_id": "5fbe347061671c36aa5d05da9773b6f0", "is_disabled": 0, "is_reserved": 0}, {"rental_uris": {"ios": "https://dc.lft.to/lastmile_qr_scan", "android": "https://dc.lft.to/lastmile_qr_scan"}, "lon": -76.99520216666667, "type": "electric_scooter", "fusion_lat": 0.0, "lat": 38.862617666666665, "name": "37cf93aedd1599c41cbfd06a1a5632ee", "fusion_lon": 0.0, "bike_id": "37cf93aedd1599c41cbfd06a1a5632ee", "is_disabled": 0, "is_reserved": 0}, {"rental_uris": {"ios": "https://dc.lft.to/lastmile_qr_scan", "android": "https://dc.lft.to/lastmile_qr_scan"}, "lon": -77.00842583333333, "type": "electric_bike", "fusion_lat": 0.0, "lat": 38.9491565, "name": "9f3a338beed9ca763dfaedd3ac71a3cb", "fusion_lon": 0.0, "bike_id": "9f3a338beed9ca763dfaedd3ac71a3cb", "is_disabled": 0, "is_reserved": 0}, {"rental_uris": {"ios": "https://dc.lft.to/lastmile_qr_scan", "android": "https://dc.lft.to/lastmile_qr_scan"}, "lon": -77.02429416666666, "type": "electric_scooter", "fusion_lat": 0.0, "lat": 38.879668833333334, "name": "a71032fed40415802e32e54a84e9baa7", "fusion_lon": 0.0, "bike_id": "a71032fed40415802e32e54a84e9baa7", "is_disabled": 0, "is_reserved": 0}, {"rental_uris": {"ios": "https://dc.lft.to/lastmile_qr_scan", "android": "https://dc.lft.to/lastmile_qr_scan"}, "lon": -77.0269205, "type": "electric_scooter", "fusion_lat": 0.0, "lat": 38.924007333333336, "name": "4d9af42e7cbc0cbb71f2ce89d4278e9c", "fusion_lon": 0.0, "bike_id": "4d9af42e7cbc0cbb71f2ce89d4278e9c", "is_disabled": 0, "is_reserved": 0}, {"rental_uris": {"ios": "https://dc.lft.to/lastmile_qr_scan", "android": "https://dc.lft.to/lastmile_qr_scan"}, "lon": -76.99660433333334, "type": "electric_scooter", "fusion_lat": 0.0, "lat": 38.884679166666665, "name": "c466cc2276bbd51696f2105405a6a479", "fusion_lon": 0.0, "bike_id": "c466cc2276bbd51696f2105405a6a479", "is_disabled": 0, "is_reserved": 0}, {"rental_uris": {"ios": "https://dc.lft.to/lastmile_qr_scan", "android": "https://dc.lft.to/lastmile_qr_scan"}, "lon": -77.04270933333333, "type": "electric_scooter", "fusion_lat": 0.0, "lat": 38.916975, "name": "ee9d12028d77ba31081b7635bac08b59", "fusion_lon": 0.0, "bike_id": "ee9d12028d77ba31081b7635bac08b59", "is_disabled": 0, "is_reserved": 0}, {"rental_uris": {"ios": "https://dc.lft.to/lastmile_qr_scan", "android": "https://dc.lft.to/lastmile_qr_scan"}, "lon": -77.02978133333333, "type": "electric_scooter", "fusion_lat": 0.0, "lat": 38.96229833333334, "name": "7007afbebe04a095dacf7504cbc7e63a", "fusion_lon": 0.0, "bike_id": "7007afbebe04a095dacf7504cbc7e63a", "is_disabled": 0, "is_reserved": 0}, {"rental_uris": {"ios": "https://dc.lft.to/lastmile_qr_scan", "android": "https://dc.lft.to/lastmile_qr_scan"}, "lon": -77.03539316666667, "type": "electric_scooter", "fusion_lat": 0.0, "lat": 38.92417716666667, "name": "de984a9e34a9b4b1331e272ef8a37b73", "fusion_lon": 0.0, "bike_id": "de984a9e34a9b4b1331e272ef8a37b73", "is_disabled": 0, "is_reserved": 0}, {"rental_uris": {"ios": "https://dc.lft.to/lastmile_qr_scan", "android": "https://dc.lft.to/lastmile_qr_scan"}, "lon": -77.05121266666667, "type": "electric_scooter", "fusion_lat": 0.0, "lat": 38.90230283333333, "name": "9fe2e6a9e863ba872a1bc6711f986a41", "fusion_lon": 0.0, "bike_id": "9fe2e6a9e863ba872a1bc6711f986a41", "is_disabled": 0, "is_reserved": 0}, {"rental_uris": {"ios": "https://dc.lft.to/lastmile_qr_scan", "android": "https://dc.lft.to/lastmile_qr_scan"}, "lon": -77.03258616666666, "type": "electric_scooter", "fusion_lat": 0.0, "lat": 38.938731, "name": "9e34398f86a858c6610f146a5b289cf8", "fusion_lon": 0.0, "bike_id": "9e34398f86a858c6610f146a5b289cf8", "is_disabled": 0, "is_reserved": 0}, {"rental_uris": {"ios": "https://dc.lft.to/lastmile_qr_scan", "android": "https://dc.lft.to/lastmile_qr_scan"}, "lon": -77.01071266666666, "type": "electric_scooter", "fusion_lat": 0.0, "lat": 38.9072615, "name": "479effce3bb3afed1c0f40cf979c7e39", "fusion_lon": 0.0, "bike_id": "479effce3bb3afed1c0f40cf979c7e39", "is_disabled": 0, "is_reserved": 0}, {"rental_uris": {"ios": "https://dc.lft.to/lastmile_qr_scan", "android": "https://dc.lft.to/lastmile_qr_scan"}, "lon": -77.03645316666666, "type": "electric_scooter", "fusion_lat": 0.0, "lat": 38.91735633333333, "name": "9f801f0a1e549ae7cbce016731a276e1", "fusion_lon": 0.0, "bike_id": "9f801f0a1e549ae7cbce016731a276e1", "is_disabled": 0, "is_reserved": 0}, {"rental_uris": {"ios": "https://dc.lft.to/lastmile_qr_scan", "android": "https://dc.lft.to/lastmile_qr_scan"}, "lon": -77.02309983333333, "type": "electric_scooter", "fusion_lat": 0.0, "lat": 38.9298305, "name": "289aa5997b5e1abe55470cb1528aac3a", "fusion_lon": 0.0, "bike_id": "289aa5997b5e1abe55470cb1528aac3a", "is_disabled": 0, "is_reserved": 0}, {"rental_uris": {"ios": "https://dc.lft.to/lastmile_qr_scan", "android": "https://dc.lft.to/lastmile_qr_scan"}, "lon": -77.0108365, "type": "electric_scooter", "fusion_lat": 0.0, "lat": 38.91629283333333, "name": "bfa45806e3ed01fe9212ec32fdb63f7a", "fusion_lon": 0.0, "bike_id": "bfa45806e3ed01fe9212ec32fdb63f7a", "is_disabled": 0, "is_reserved": 0}, {"rental_uris": {"ios": "https://dc.lft.to/lastmile_qr_scan", "android": "https://dc.lft.to/lastmile_qr_scan"}, "lon": -77.02921033333334, "type": "electric_scooter", "fusion_lat": 0.0, "lat": 38.895476, "name": "555d1e23bba8bdc33dc2c085ce5ba623", "fusion_lon": 0.0, "bike_id": "555d1e23bba8bdc33dc2c085ce5ba623", "is_disabled": 0, "is_reserved": 0}, {"rental_uris": {"ios": "https://dc.lft.to/lastmile_qr_scan", "android": "https://dc.lft.to/lastmile_qr_scan"}, "lon": -77.01534483333333, "type": "electric_scooter", "fusion_lat": 0.0, "lat": 38.887390833333335, "name": "97cdd057b70737b957010e66419f22a2", "fusion_lon": 0.0, "bike_id": "97cdd057b70737b957010e66419f22a2", "is_disabled": 0, "is_reserved": 0}, {"rental_uris": {"ios": "https://dc.lft.to/lastmile_qr_scan", "android": "https://dc.lft.to/lastmile_qr_scan"}, "lon": -77.07374583333333, "type": "electric_bike", "fusion_lat": 0.0, "lat": 38.961767333333334, "name": "f784de543809fdd6d04e9fef8b7bd5e1", "fusion_lon": 0.0, "bike_id": "f784de543809fdd6d04e9fef8b7bd5e1", "is_disabled": 0, "is_reserved": 0}, {"rental_uris": {"ios": "https://dc.lft.to/lastmile_qr_scan", "android": "https://dc.lft.to/lastmile_qr_scan"}, "lon": -77.10502533333333, "type": "electric_bike", "fusion_lat": 0.0, "lat": 38.928474666666666, "name": "963dae7eee26f63748a1adc4e8b6a555", "fusion_lon": 0.0, "bike_id": "963dae7eee26f63748a1adc4e8b6a555", "is_disabled": 0, "is_reserved": 0}, {"rental_uris": {"ios": "https://dc.lft.to/lastmile_qr_scan", "android": "https://dc.lft.to/lastmile_qr_scan"}, "lon": -77.05457616666666, "type": "electric_scooter", "fusion_lat": 0.0, "lat": 38.929077666666664, "name": "3af15774388ca8a37e65261f3b0910b7", "fusion_lon": 0.0, "bike_id": "3af15774388ca8a37e65261f3b0910b7", "is_disabled": 0, "is_reserved": 0}, {"rental_uris": {"ios": "https://dc.lft.to/lastmile_qr_scan", "android": "https://dc.lft.to/lastmile_qr_scan"}, "lon": -77.03095466666667, "type": "electric_scooter", "fusion_lat": 0.0, "lat": 38.8947235, "name": "dc7f83595f999a8ea518dd3cbd4d38c2", "fusion_lon": 0.0, "bike_id": "dc7f83595f999a8ea518dd3cbd4d38c2", "is_disabled": 0, "is_reserved": 0}, {"rental_uris": {"ios": "https://dc.lft.to/lastmile_qr_scan", "android": "https://dc.lft.to/lastmile_qr_scan"}, "lon": -77.03278166666666, "type": "electric_scooter", "fusion_lat": 0.0, "lat": 38.93065683333333, "name": "82a7216795056cf5eaca47392ffd6c53", "fusion_lon": 0.0, "bike_id": "82a7216795056cf5eaca47392ffd6c53", "is_disabled": 0, "is_reserved": 0}, {"rental_uris": {"ios": "https://dc.lft.to/lastmile_qr_scan", "android": "https://dc.lft.to/lastmile_qr_scan"}, "lon": -77.02382616666667, "type": "electric_scooter", "fusion_lat": 0.0, "lat": 38.892471666666665, "name": "f832d646b73fcc521e2f7f1f31f3400c", "fusion_lon": 0.0, "bike_id": "f832d646b73fcc521e2f7f1f31f3400c", "is_disabled": 0, "is_reserved": 0}, {"rental_uris": {"ios": "https://dc.lft.to/lastmile_qr_scan", "android": "https://dc.lft.to/lastmile_qr_scan"}, "lon": -77.04128966666667, "type": "electric_scooter", "fusion_lat": 0.0, "lat": 38.92434466666667, "name": "d08a76b6813973b48e1d7652b16acc14", "fusion_lon": 0.0, "bike_id": "d08a76b6813973b48e1d7652b16acc14", "is_disabled": 0, "is_reserved": 0}, {"rental_uris": {"ios": "https://dc.lft.to/lastmile_qr_scan", "android": "https://dc.lft.to/lastmile_qr_scan"}, "lon": -76.97352083333334, "type": "electric_scooter", "fusion_lat": 0.0, "lat": 38.8620695, "name": "5098af53b798850c77b7f471defe59a0", "fusion_lon": 0.0, "bike_id": "5098af53b798850c77b7f471defe59a0", "is_disabled": 0, "is_reserved": 0}, {"rental_uris": {"ios": "https://dc.lft.to/lastmile_qr_scan", "android": "https://dc.lft.to/lastmile_qr_scan"}, "lon": -77.0332175, "type": "electric_scooter", "fusion_lat": 0.0, "lat": 38.91987133333333, "name": "b60be2a397ce3c02882cf48b6088725f", "fusion_lon": 0.0, "bike_id": "b60be2a397ce3c02882cf48b6088725f", "is_disabled": 0, "is_reserved": 0}, {"rental_uris": {"ios": "https://dc.lft.to/lastmile_qr_scan", "android": "https://dc.lft.to/lastmile_qr_scan"}, "lon": -77.0319345, "type": "electric_scooter", "fusion_lat": 0.0, "lat": 38.9143, "name": "cccfeb1e6dfa0d5894e3ba935447b5de", "fusion_lon": 0.0, "bike_id": "cccfeb1e6dfa0d5894e3ba935447b5de", "is_disabled": 0, "is_reserved": 0}, {"rental_uris": {"ios": "https://dc.lft.to/lastmile_qr_scan", "android": "https://dc.lft.to/lastmile_qr_scan"}, "lon": -77.03316616666666, "type": "electric_scooter", "fusion_lat": 0.0, "lat": 38.91983716666667, "name": "60b99f6a7f4f70f128bf18f4e04f2059", "fusion_lon": 0.0, "bike_id": "60b99f6a7f4f70f128bf18f4e04f2059", "is_disabled": 0, "is_reserved": 0}, {"rental_uris": {"ios": "https://dc.lft.to/lastmile_qr_scan", "android": "https://dc.lft.to/lastmile_qr_scan"}, "lon": -77.02741233333333, "type": "electric_scooter", "fusion_lat": 0.0, "lat": 38.92770616666667, "name": "6fd7d0f7ee8a1d6bef10a4d52b28b2fe", "fusion_lon": 0.0, "bike_id": "6fd7d0f7ee8a1d6bef10a4d52b28b2fe", "is_disabled": 0, "is_reserved": 0}, {"rental_uris": {"ios": "https://dc.lft.to/lastmile_qr_scan", "android": "https://dc.lft.to/lastmile_qr_scan"}, "lon": -77.02225266666666, "type": "electric_scooter", "fusion_lat": 0.0, "lat": 38.8991745, "name": "8205a9b61261788dd84df0b2d20a8d4a", "fusion_lon": 0.0, "bike_id": "8205a9b61261788dd84df0b2d20a8d4a", "is_disabled": 0, "is_reserved": 0}, {"rental_uris": {"ios": "https://dc.lft.to/lastmile_qr_scan", "android": "https://dc.lft.to/lastmile_qr_scan"}, "lon": -77.029888, "type": "electric_scooter", "fusion_lat": 0.0, "lat": 38.90048933333333, "name": "05ba8dff14e12dae053603491cb096bc", "fusion_lon": 0.0, "bike_id": "05ba8dff14e12dae053603491cb096bc", "is_disabled": 0, "is_reserved": 0}, {"rental_uris": {"ios": "https://dc.lft.to/lastmile_qr_scan", "android": "https://dc.lft.to/lastmile_qr_scan"}, "lon": -77.03412066666667, "type": "electric_scooter", "fusion_lat": 0.0, "lat": 38.92319616666666, "name": "4a6232aadffd2c01be2d4fe91c5fc80c", "fusion_lon": 0.0, "bike_id": "4a6232aadffd2c01be2d4fe91c5fc80c", "is_disabled": 0, "is_reserved": 0}, {"rental_uris": {"ios": "https://dc.lft.to/lastmile_qr_scan", "android": "https://dc.lft.to/lastmile_qr_scan"}, "lon": -77.0271985, "type": "electric_scooter", "fusion_lat": 0.0, "lat": 38.899397, "name": "de3627c5349833a00c3fa60bdcbd3948", "fusion_lon": 0.0, "bike_id": "de3627c5349833a00c3fa60bdcbd3948", "is_disabled": 0, "is_reserved": 0}, {"rental_uris": {"ios": "https://dc.lft.to/lastmile_qr_scan", "android": "https://dc.lft.to/lastmile_qr_scan"}, "lon": -76.94653883333334, "type": "electric_scooter", "fusion_lat": 0.0, "lat": 38.89825066666667, "name": "7cddf54e799f25744d2c2e3cb0c3a4c1", "fusion_lon": 0.0, "bike_id": "7cddf54e799f25744d2c2e3cb0c3a4c1", "is_disabled": 0, "is_reserved": 0}, {"rental_uris": {"ios": "https://dc.lft.to/lastmile_qr_scan", "android": "https://dc.lft.to/lastmile_qr_scan"}, "lon": -77.02868166666667, "type": "electric_scooter", "fusion_lat": 0.0, "lat": 38.882943, "name": "4bc6ec381ad8c5155e996df40ffd7370", "fusion_lon": 0.0, "bike_id": "4bc6ec381ad8c5155e996df40ffd7370", "is_disabled": 0, "is_reserved": 0}, {"rental_uris": {"ios": "https://dc.lft.to/lastmile_qr_scan", "android": "https://dc.lft.to/lastmile_qr_scan"}, "lon": -77.051275, "type": "electric_scooter", "fusion_lat": 0.0, "lat": 38.906056666666665, "name": "59011d9d23b1308ed4b99d8be81ed26f", "fusion_lon": 0.0, "bike_id": "59011d9d23b1308ed4b99d8be81ed26f", "is_disabled": 0, "is_reserved": 0}, {"rental_uris": {"ios": "https://dc.lft.to/lastmile_qr_scan", "android": "https://dc.lft.to/lastmile_qr_scan"}, "lon": -76.9766565, "type": "electric_bike", "fusion_lat": 0.0, "lat": 38.96625316666667, "name": "c83863b764134afc3582237343c71d5c", "fusion_lon": 0.0, "bike_id": "c83863b764134afc3582237343c71d5c", "is_disabled": 0, "is_reserved": 0}, {"rental_uris": {"ios": "https://dc.lft.to/lastmile_qr_scan", "android": "https://dc.lft.to/lastmile_qr_scan"}, "lon": -77.02576733333333, "type": "electric_scooter", "fusion_lat": 0.0, "lat": 38.892233833333336, "name": "04c86609d5e0bf98ea46afa2dcbe2c31", "fusion_lon": 0.0, "bike_id": "04c86609d5e0bf98ea46afa2dcbe2c31", "is_disabled": 0, "is_reserved": 0}, {"rental_uris": {"ios": "https://dc.lft.to/lastmile_qr_scan", "android": "https://dc.lft.to/lastmile_qr_scan"}, "lon": -77.0207735, "type": "electric_scooter", "fusion_lat": 0.0, "lat": 38.8999005, "name": "ffd46fffcb64db0956053a6df4213e56", "fusion_lon": 0.0, "bike_id": "ffd46fffcb64db0956053a6df4213e56", "is_disabled": 0, "is_reserved": 0}, {"rental_uris": {"ios": "https://dc.lft.to/lastmile_qr_scan", "android": "https://dc.lft.to/lastmile_qr_scan"}, "lon": -77.04463483333333, "type": "electric_scooter", "fusion_lat": 0.0, "lat": 38.91113283333333, "name": "961c4bb86a04f06c75f1cca299279a0e", "fusion_lon": 0.0, "bike_id": "961c4bb86a04f06c75f1cca299279a0e", "is_disabled": 0, "is_reserved": 0}, {"rental_uris": {"ios": "https://dc.lft.to/lastmile_qr_scan", "android": "https://dc.lft.to/lastmile_qr_scan"}, "lon": -77.10091566666667, "type": "electric_bike", "fusion_lat": 0.0, "lat": 38.95957, "name": "dadd6fff507c6a3da19833b09916610f", "fusion_lon": 0.0, "bike_id": "dadd6fff507c6a3da19833b09916610f", "is_disabled": 0, "is_reserved": 0}, {"rental_uris": {"ios": "https://dc.lft.to/lastmile_qr_scan", "android": "https://dc.lft.to/lastmile_qr_scan"}, "lon": -77.03649966666667, "type": "electric_scooter", "fusion_lat": 0.0, "lat": 38.91818, "name": "1dee9ced92295f60ade0f8fb9673f8e1", "fusion_lon": 0.0, "bike_id": "1dee9ced92295f60ade0f8fb9673f8e1", "is_disabled": 0, "is_reserved": 0}, {"rental_uris": {"ios": "https://dc.lft.to/lastmile_qr_scan", "android": "https://dc.lft.to/lastmile_qr_scan"}, "lon": -77.0271525, "type": "electric_scooter", "fusion_lat": 0.0, "lat": 38.918045, "name": "02276f4b7b53daed37677f35c608fa30", "fusion_lon": 0.0, "bike_id": "02276f4b7b53daed37677f35c608fa30", "is_disabled": 0, "is_reserved": 0}, {"rental_uris": {"ios": "https://dc.lft.to/lastmile_qr_scan", "android": "https://dc.lft.to/lastmile_qr_scan"}, "lon": -76.98494066666666, "type": "electric_scooter", "fusion_lat": 0.0, "lat": 38.860456666666664, "name": "4b6643f93f7a5819c65b77c0d7cf6239", "fusion_lon": 0.0, "bike_id": "4b6643f93f7a5819c65b77c0d7cf6239", "is_disabled": 0, "is_reserved": 0}, {"rental_uris": {"ios": "https://dc.lft.to/lastmile_qr_scan", "android": "https://dc.lft.to/lastmile_qr_scan"}, "lon": -76.97891066666666, "type": "electric_scooter", "fusion_lat": 0.0, "lat": 38.9041955, "name": "04ca3f3b5b65bde7bf324e12894d1263", "fusion_lon": 0.0, "bike_id": "04ca3f3b5b65bde7bf324e12894d1263", "is_disabled": 0, "is_reserved": 0}, {"rental_uris": {"ios": "https://dc.lft.to/lastmile_qr_scan", "android": "https://dc.lft.to/lastmile_qr_scan"}, "lon": -77.03924883333333, "type": "electric_scooter", "fusion_lat": 0.0, "lat": 38.899137, "name": "dbab1aef595c1939b5fdcca3c69c7169", "fusion_lon": 0.0, "bike_id": "dbab1aef595c1939b5fdcca3c69c7169", "is_disabled": 0, "is_reserved": 0}, {"rental_uris": {"ios": "https://dc.lft.to/lastmile_qr_scan", "android": "https://dc.lft.to/lastmile_qr_scan"}, "lon": -76.987421, "type": "electric_bike", "fusion_lat": 0.0, "lat": 38.857929166666665, "name": "abc9393fc51794b43c57bfaef18c9a2c", "fusion_lon": 0.0, "bike_id": "abc9393fc51794b43c57bfaef18c9a2c", "is_disabled": 0, "is_reserved": 0}, {"rental_uris": {"ios": "https://dc.lft.to/lastmile_qr_scan", "android": "https://dc.lft.to/lastmile_qr_scan"}, "lon": -77.02047216666666, "type": "electric_scooter", "fusion_lat": 0.0, "lat": 38.91556033333333, "name": "87fba915a222635cfdae1483d44c8bf4", "fusion_lon": 0.0, "bike_id": "87fba915a222635cfdae1483d44c8bf4", "is_disabled": 0, "is_reserved": 0}, {"rental_uris": {"ios": "https://dc.lft.to/lastmile_qr_scan", "android": "https://dc.lft.to/lastmile_qr_scan"}, "lon": -77.035066, "type": "electric_scooter", "fusion_lat": 0.0, "lat": 38.916971333333336, "name": "0893b4c480608f1adc4059d1bb99b4cc", "fusion_lon": 0.0, "bike_id": "0893b4c480608f1adc4059d1bb99b4cc", "is_disabled": 0, "is_reserved": 0}, {"rental_uris": {"ios": "https://dc.lft.to/lastmile_qr_scan", "android": "https://dc.lft.to/lastmile_qr_scan"}, "lon": -76.99595333333333, "type": "electric_scooter", "fusion_lat": 0.0, "lat": 38.84541883333333, "name": "4dbe859d368b547ffadbd4b8ede982c9", "fusion_lon": 0.0, "bike_id": "4dbe859d368b547ffadbd4b8ede982c9", "is_disabled": 0, "is_reserved": 0}, {"rental_uris": {"ios": "https://dc.lft.to/lastmile_qr_scan", "android": "https://dc.lft.to/lastmile_qr_scan"}, "lon": -77.01530016666666, "type": "electric_scooter", "fusion_lat": 0.0, "lat": 38.90197, "name": "f467cf78d72c528790aa3ce9139ba8c7", "fusion_lon": 0.0, "bike_id": "f467cf78d72c528790aa3ce9139ba8c7", "is_disabled": 0, "is_reserved": 0}, {"rental_uris": {"ios": "https://dc.lft.to/lastmile_qr_scan", "android": "https://dc.lft.to/lastmile_qr_scan"}, "lon": -77.01387083333333, "type": "electric_scooter", "fusion_lat": 0.0, "lat": 38.970180166666665, "name": "09a90c194d1aa608a6649400b24b91ba", "fusion_lon": 0.0, "bike_id": "09a90c194d1aa608a6649400b24b91ba", "is_disabled": 0, "is_reserved": 0}, {"rental_uris": {"ios": "https://dc.lft.to/lastmile_qr_scan", "android": "https://dc.lft.to/lastmile_qr_scan"}, "lon": -77.03174566666667, "type": "electric_scooter", "fusion_lat": 0.0, "lat": 38.913386333333335, "name": "6f53e0d955a7c73a3972cc50b860fec4", "fusion_lon": 0.0, "bike_id": "6f53e0d955a7c73a3972cc50b860fec4", "is_disabled": 0, "is_reserved": 0}, {"rental_uris": {"ios": "https://dc.lft.to/lastmile_qr_scan", "android": "https://dc.lft.to/lastmile_qr_scan"}, "lon": -76.98570316666667, "type": "electric_scooter", "fusion_lat": 0.0, "lat": 38.8988835, "name": "90616becfb508f5e3483d6270dcc0a2c", "fusion_lon": 0.0, "bike_id": "90616becfb508f5e3483d6270dcc0a2c", "is_disabled": 0, "is_reserved": 0}, {"rental_uris": {"ios": "https://dc.lft.to/lastmile_qr_scan", "android": "https://dc.lft.to/lastmile_qr_scan"}, "lon": -77.02597766666666, "type": "electric_scooter", "fusion_lat": 0.0, "lat": 38.89654266666667, "name": "1afceacce96228e62a9f4b3e128d4f67", "fusion_lon": 0.0, "bike_id": "1afceacce96228e62a9f4b3e128d4f67", "is_disabled": 0, "is_reserved": 0}, {"rental_uris": {"ios": "https://dc.lft.to/lastmile_qr_scan", "android": "https://dc.lft.to/lastmile_qr_scan"}, "lon": -77.0319275, "type": "electric_scooter", "fusion_lat": 0.0, "lat": 38.909899833333334, "name": "df83fbe6bcdd73c9db34dc018ad8ebb1", "fusion_lon": 0.0, "bike_id": "df83fbe6bcdd73c9db34dc018ad8ebb1", "is_disabled": 0, "is_reserved": 0}, {"rental_uris": {"ios": "https://dc.lft.to/lastmile_qr_scan", "android": "https://dc.lft.to/lastmile_qr_scan"}, "lon": -77.1002805, "type": "electric_bike", "fusion_lat": 0.0, "lat": 38.9906415, "name": "b36e010f5e055ae4fe2a13b0844bd8a8", "fusion_lon": 0.0, "bike_id": "b36e010f5e055ae4fe2a13b0844bd8a8", "is_disabled": 0, "is_reserved": 0}, {"rental_uris": {"ios": "https://dc.lft.to/lastmile_qr_scan", "android": "https://dc.lft.to/lastmile_qr_scan"}, "lon": -76.98653816666666, "type": "electric_scooter", "fusion_lat": 0.0, "lat": 38.858039, "name": "d1ca0ed03622ac47da7f975377fb2840", "fusion_lon": 0.0, "bike_id": "d1ca0ed03622ac47da7f975377fb2840", "is_disabled": 0, "is_reserved": 0}, {"rental_uris": {"ios": "https://dc.lft.to/lastmile_qr_scan", "android": "https://dc.lft.to/lastmile_qr_scan"}, "lon": -76.99205316666666, "type": "electric_scooter", "fusion_lat": 0.0, "lat": 38.84681633333334, "name": "c9c9a44505efdd5081f728724128e94f", "fusion_lon": 0.0, "bike_id": "c9c9a44505efdd5081f728724128e94f", "is_disabled": 0, "is_reserved": 0}, {"rental_uris": {"ios": "https://dc.lft.to/lastmile_qr_scan", "android": "https://dc.lft.to/lastmile_qr_scan"}, "lon": -76.98081416666666, "type": "electric_scooter", "fusion_lat": 0.0, "lat": 38.85717233333333, "name": "c5162852190cdccf653ada49a9d464cd", "fusion_lon": 0.0, "bike_id": "c5162852190cdccf653ada49a9d464cd", "is_disabled": 0, "is_reserved": 0}, {"rental_uris": {"ios": "https://dc.lft.to/lastmile_qr_scan", "android": "https://dc.lft.to/lastmile_qr_scan"}, "lon": -76.98752833333333, "type": "electric_scooter", "fusion_lat": 0.0, "lat": 38.8450415, "name": "1298b2a806431b68edf8c6c88c09497e", "fusion_lon": 0.0, "bike_id": "1298b2a806431b68edf8c6c88c09497e", "is_disabled": 0, "is_reserved": 0}, {"rental_uris": {"ios": "https://dc.lft.to/lastmile_qr_scan", "android": "https://dc.lft.to/lastmile_qr_scan"}, "lon": -77.02234266666666, "type": "electric_scooter", "fusion_lat": 0.0, "lat": 38.96217766666667, "name": "60fce5f98953f6d3db4639323a572e3a", "fusion_lon": 0.0, "bike_id": "60fce5f98953f6d3db4639323a572e3a", "is_disabled": 0, "is_reserved": 0}, {"rental_uris": {"ios": "https://dc.lft.to/lastmile_qr_scan", "android": "https://dc.lft.to/lastmile_qr_scan"}, "lon": -77.0333525, "type": "electric_scooter", "fusion_lat": 0.0, "lat": 38.900175, "name": "b2a9f234795f74ae72ddbcede3527aff", "fusion_lon": 0.0, "bike_id": "b2a9f234795f74ae72ddbcede3527aff", "is_disabled": 0, "is_reserved": 0}, {"rental_uris": {"ios": "https://dc.lft.to/lastmile_qr_scan", "android": "https://dc.lft.to/lastmile_qr_scan"}, "lon": -76.9465435, "type": "electric_scooter", "fusion_lat": 0.0, "lat": 38.89825183333333, "name": "c51ede9acf9f1957dd0ea9488790abb5", "fusion_lon": 0.0, "bike_id": "c51ede9acf9f1957dd0ea9488790abb5", "is_disabled": 0, "is_reserved": 0}, {"rental_uris": {"ios": "https://dc.lft.to/lastmile_qr_scan", "android": "https://dc.lft.to/lastmile_qr_scan"},