{"data": {"bikes": [{"fusion_lat": 0.0, "name": "1e06a575ab8a06127f827d53d110a574", "is_disabled": 0, "rental_uris": {"android": "https://dc.lft.to/lastmile_qr_scan", "ios": "https://dc.lft.to/lastmile_qr_scan"}, "fusion_lon": 0.0, "lat": 38.937672, "bike_id": "1e06a575ab8a06127f827d53d110a574", "type": "electric_scooter", "is_reserved": 0, "lon": -77.0327885}, {"fusion_lat": 0.0, "name": "a73f7d5595ce9238c1887213e2edf2ac", "is_disabled": 0, "rental_uris": {"android": "https://dc.lft.to/lastmile_qr_scan", "ios": "https://dc.lft.to/lastmile_qr_scan"}, "fusion_lon": 0.0, "lat": 38.93149016666667, "bike_id": "a73f7d5595ce9238c1887213e2edf2ac", "type": "electric_bike", "is_reserved": 0, "lon": -77.03822883333333}, {"fusion_lat": 0.0, "name": "2abb97e0831ef57eb0d865abab1b48eb", "is_disabled": 0, "rental_uris": {"android": "https://dc.lft.to/lastmile_qr_scan", "ios": "https://dc.lft.to/lastmile_qr_scan"}, "fusion_lon": 0.0, "lat": 38.909404333333335, "bike_id": "2abb97e0831ef57eb0d865abab1b48eb", "type": "electric_scooter", "is_reserved": 0, "lon": -77.01843366666667}, {"fusion_lat": 0.0, "name": "98f004c773b69afb88fcc1cc0ddd9689", "is_disabled": 0, "rental_uris": {"android": "https://dc.lft.to/lastmile_qr_scan", "ios": "https://dc.lft.to/lastmile_qr_scan"}, "fusion_lon": 0.0, "lat": 38.90686083333333, "bike_id": "98f004c773b69afb88fcc1cc0ddd9689", "type": "electric_bike", "is_reserved": 0, "lon": -76.94494516666667}, {"fusion_lat": 0.0, "name": "ea3f07af79f3e62913fff41a33b74e4a", "is_disabled": 0, "rental_uris": {"android": "https://dc.lft.to/lastmile_qr_scan", "ios": "https://dc.lft.to/lastmile_qr_scan"}, "fusion_lon": 0.0, "lat": 38.863703, "bike_id": "ea3f07af79f3e62913fff41a33b74e4a", "type": "electric_bike", "is_reserved": 0, "lon": -76.97008883333334}, {"fusion_lat": 0.0, "name": "eb3dd8fd9eb8685fa8c2806a882ff2b4", "is_disabled": 0, "rental_uris": {"android": "https://dc.lft.to/lastmile_qr_scan", "ios": "https://dc.lft.to/lastmile_qr_scan"}, "fusion_lon": 0.0, "lat": 38.905665, "bike_id": "eb3dd8fd9eb8685fa8c2806a882ff2b4", "type": "electric_scooter", "is_reserved": 0, "lon": -77.02920433333334}, {"fusion_lat": 0.0, "name": "0edcd93b5a15b6bb1b1ae2a6a6578de3", "is_disabled": 0, "rental_uris": {"android": "https://dc.lft.to/lastmile_qr_scan", "ios": "https://dc.lft.to/lastmile_qr_scan"}, "fusion_lon": 0.0, "lat": 38.88775866666667, "bike_id": "0edcd93b5a15b6bb1b1ae2a6a6578de3", "type": "electric_scooter", "is_reserved": 0, "lon": -76.977477}, {"fusion_lat": 0.0, "name": "b4387ae7f0cb548bb6e983bb89641a6d", "is_disabled": 0, "rental_uris": {"android": "https://dc.lft.to/lastmile_qr_scan", "ios": "https://dc.lft.to/lastmile_qr_scan"}, "fusion_lon": 0.0, "lat": 38.9015605, "bike_id": "b4387ae7f0cb548bb6e983bb89641a6d", "type": "electric_scooter", "is_reserved": 0, "lon": -76.930658}, {"fusion_lat": 0.0, "name": "c482c2d3ab7931b05975f6084209c363", "is_disabled": 0, "rental_uris": {"android": "https://dc.lft.to/lastmile_qr_scan", "ios": "https://dc.lft.to/lastmile_qr_scan"}, "fusion_lon": 0.0, "lat": 38.89752716666667, "bike_id": "c482c2d3ab7931b05975f6084209c363", "type": "electric_scooter", "is_reserved": 0, "lon": -77.025133}, {"fusion_lat": 0.0, "name": "940c461f4a82a241a1f501abb46329fc", "is_disabled": 0, "rental_uris": {"android": "https://dc.lft.to/lastmile_qr_scan", "ios": "https://dc.lft.to/lastmile_qr_scan"}, "fusion_lon": 0.0, "lat": 38.93750333333333, "bike_id": "940c461f4a82a241a1f501abb46329fc", "type": "electric_scooter", "is_reserved": 0, "lon": -77.02527}, {"fusion_lat": 0.0, "name": "7c9547f3621a0c36a083263467379ebf", "is_disabled": 0, "rental_uris": {"android": "https://dc.lft.to/lastmile_qr_scan", "ios": "https://dc.lft.to/lastmile_qr_scan"}, "fusion_lon": 0.0, "lat": 38.9037415, "bike_id": "7c9547f3621a0c36a083263467379ebf", "type": "electric_scooter", "is_reserved": 0, "lon": -77.0613855}, {"fusion_lat": 0.0, "name": "22e407cab2879c3ba1350769ce524ffa", "is_disabled": 0, "rental_uris": {"android": "https://dc.lft.to/lastmile_qr_scan", "ios": "https://dc.lft.to/lastmile_qr_scan"}, "fusion_lon": 0.0, "lat": 38.9006735, "bike_id": "22e407cab2879c3ba1350769ce524ffa", "type": "electric_scooter", "is_reserved": 0, "lon": -76.9338745}, {"fusion_lat": 0.0, "name": "28375ad5b7514ccdcfb8aabf5db36a06", "is_disabled": 0, "rental_uris": {"android": "https://dc.lft.to/lastmile_qr_scan", "ios": "https://dc.lft.to/lastmile_qr_scan"}, "fusion_lon": 0.0, "lat": 38.89610783333333, "bike_id": "28375ad5b7514ccdcfb8aabf5db36a06", "type": "electric_scooter", "is_reserved": 0, "lon": -77.04973216666667}, {"fusion_lat": 0.0, "name": "6a1e89e8c493a2ecf87ef16efcf4501c", "is_disabled": 0, "rental_uris": {"android": "https://dc.lft.to/lastmile_qr_scan", "ios": "https://dc.lft.to/lastmile_qr_scan"}, "fusion_lon": 0.0, "lat": 38.89567383333333, "bike_id": "6a1e89e8c493a2ecf87ef16efcf4501c", "type": "electric_bike", "is_reserved": 0, "lon": -77.12738316666666}, {"fusion_lat": 0.0, "name": "f0f9fc4e96972f9aace4c237164cbd21", "is_disabled": 0, "rental_uris": {"android": "https://dc.lft.to/lastmile_qr_scan", "ios": "https://dc.lft.to/lastmile_qr_scan"}, "fusion_lon": 0.0, "lat": 38.907008833333336, "bike_id": "f0f9fc4e96972f9aace4c237164cbd21", "type": "electric_scooter", "is_reserved": 0, "lon": -77.03573016666667}, {"fusion_lat": 0.0, "name": "00fa940af097b6c3e1b1e224fb06b450", "is_disabled": 0, "rental_uris": {"android": "https://dc.lft.to/lastmile_qr_scan", "ios": "https://dc.lft.to/lastmile_qr_scan"}, "fusion_lon": 0.0, "lat": 38.962065, "bike_id": "00fa940af097b6c3e1b1e224fb06b450", "type": "electric_scooter", "is_reserved": 0, "lon": -77.0223175}, {"fusion_lat": 0.0, "name": "f10af85a1caa7fc4aa39c31ebf18262e", "is_disabled": 0, "rental_uris": {"android": "https://dc.lft.to/lastmile_qr_scan", "ios": "https://dc.lft.to/lastmile_qr_scan"}, "fusion_lon": 0.0, "lat": 38.906936, "bike_id": "f10af85a1caa7fc4aa39c31ebf18262e", "type": "electric_scooter", "is_reserved": 0, "lon": -77.01536483333334}, {"fusion_lat": 0.0, "name": "13cc8db137a3c7e444983851c32eabb9", "is_disabled": 0, "rental_uris": {"android": "https://dc.lft.to/lastmile_qr_scan", "ios": "https://dc.lft.to/lastmile_qr_scan"}, "fusion_lon": 0.0, "lat": 38.846359, "bike_id": "13cc8db137a3c7e444983851c32eabb9", "type": "electric_scooter", "is_reserved": 0, "lon": -76.969238}, {"fusion_lat": 0.0, "name": "ff4afcf7633e6e071c23715627b0d8c6", "is_disabled": 0, "rental_uris": {"android": "https://dc.lft.to/lastmile_qr_scan", "ios": "https://dc.lft.to/lastmile_qr_scan"}, "fusion_lon": 0.0, "lat": 38.90071716666667, "bike_id": "ff4afcf7633e6e071c23715627b0d8c6", "type": "electric_scooter", "is_reserved": 0, "lon": -77.04799}, {"fusion_lat": 0.0, "name": "8072d7ae3f12e3bba8e366d55bd2df94", "is_disabled": 0, "rental_uris": {"android": "https://dc.lft.to/lastmile_qr_scan", "ios": "https://dc.lft.to/lastmile_qr_scan"}, "fusion_lon": 0.0, "lat": 38.931177166666664, "bike_id": "8072d7ae3f12e3bba8e366d55bd2df94", "type": "electric_scooter", "is_reserved": 0, "lon": -77.038395}, {"fusion_lat": 0.0, "name": "da3426808bbe38ee2e63137cfca426ae", "is_disabled": 0, "rental_uris": {"android": "https://dc.lft.to/lastmile_qr_scan", "ios": "https://dc.lft.to/lastmile_qr_scan"}, "fusion_lon": 0.0, "lat": 38.941854, "bike_id": "da3426808bbe38ee2e63137cfca426ae", "type": "electric_scooter", "is_reserved": 0, "lon": -77.024917}, {"fusion_lat": 0.0, "name": "4b21670c08a3871ad80cd73db925e541", "is_disabled": 0, "rental_uris": {"android": "https://dc.lft.to/lastmile_qr_scan", "ios": "https://dc.lft.to/lastmile_qr_scan"}, "fusion_lon": 0.0, "lat": 38.922190666666665, "bike_id": "4b21670c08a3871ad80cd73db925e541", "type": "electric_scooter", "is_reserved": 0, "lon": -77.01817033333333}, {"fusion_lat": 0.0, "name": "ca03e76e6d728cc928c10cd3e7f6c0f5", "is_disabled": 0, "rental_uris": {"android": "https://dc.lft.to/lastmile_qr_scan", "ios": "https://dc.lft.to/lastmile_qr_scan"}, "fusion_lon": 0.0, "lat": 38.900543666666664, "bike_id": "ca03e76e6d728cc928c10cd3e7f6c0f5", "type": "electric_scooter", "is_reserved": 0, "lon": -77.016903}, {"fusion_lat": 0.0, "name": "00e4b46ebb932841685ba9ff884294d7", "is_disabled": 0, "rental_uris": {"android": "https://dc.lft.to/lastmile_qr_scan", "ios": "https://dc.lft.to/lastmile_qr_scan"}, "fusion_lon": 0.0, "lat": 38.9020115, "bike_id": "00e4b46ebb932841685ba9ff884294d7", "type": "electric_scooter", "is_reserved": 0, "lon": -77.02207333333334}, {"fusion_lat": 0.0, "name": "c57c140dae41d6bb991fa3dc67eaa554", "is_disabled": 0, "rental_uris": {"android": "https://dc.lft.to/lastmile_qr_scan", "ios": "https://dc.lft.to/lastmile_qr_scan"}, "fusion_lon": 0.0, "lat": 38.918198333333336, "bike_id": "c57c140dae41d6bb991fa3dc67eaa554", "type": "electric_scooter", "is_reserved": 0, "lon": -77.0261295}, {"fusion_lat": 0.0, "name": "786163b32cc8428ed937cebef0d86d12", "is_disabled": 0, "rental_uris": {"android": "https://dc.lft.to/lastmile_qr_scan", "ios": "https://dc.lft.to/lastmile_qr_scan"}, "fusion_lon": 0.0, "lat": 38.917355666666666, "bike_id": "786163b32cc8428ed937cebef0d86d12", "type": "electric_scooter", "is_reserved": 0, "lon": -77.03662183333333}, {"fusion_lat": 0.0, "name": "1be10be8ee91b72824f9cf83ebd3400b", "is_disabled": 0, "rental_uris": {"android": "https://dc.lft.to/lastmile_qr_scan", "ios": "https://dc.lft.to/lastmile_qr_scan"}, "fusion_lon": 0.0, "lat": 38.923935666666665, "bike_id": "1be10be8ee91b72824f9cf83ebd3400b", "type": "electric_scooter", "is_reserved": 0, "lon": -77.04023033333333}, {"fusion_lat": 0.0, "name": "d5034c3344002feab4255704b75f28d9", "is_disabled": 0, "rental_uris": {"android": "https://dc.lft.to/lastmile_qr_scan", "ios": "https://dc.lft.to/lastmile_qr_scan"}, "fusion_lon": 0.0, "lat": 38.90960116666667, "bike_id": "d5034c3344002feab4255704b75f28d9", "type": "electric_scooter", "is_reserved": 0, "lon": -77.04861533333333}, {"fusion_lat": 0.0, "name": "a1237d13d4cfeb300a9befceb0f6c2e9", "is_disabled": 0, "rental_uris": {"android": "https://dc.lft.to/lastmile_qr_scan", "ios": "https://dc.lft.to/lastmile_qr_scan"}, "fusion_lon": 0.0, "lat": 38.804496666666665, "bike_id": "a1237d13d4cfeb300a9befceb0f6c2e9", "type": "electric_bike", "is_reserved": 0, "lon": -77.1323105}, {"fusion_lat": 0.0, "name": "5f96a4026077df70915b407f9cbb1918", "is_disabled": 0, "rental_uris": {"android": "https://dc.lft.to/lastmile_qr_scan", "ios": "https://dc.lft.to/lastmile_qr_scan"}, "fusion_lon": 0.0, "lat": 38.8961345, "bike_id": "5f96a4026077df70915b407f9cbb1918", "type": "electric_scooter", "is_reserved": 0, "lon": -76.94815833333334}, {"fusion_lat": 0.0, "name": "d80480a8014be4b8c21227e876b1ebaa", "is_disabled": 0, "rental_uris": {"android": "https://dc.lft.to/lastmile_qr_scan", "ios": "https://dc.lft.to/lastmile_qr_scan"}, "fusion_lon": 0.0, "lat": 38.9070325, "bike_id": "d80480a8014be4b8c21227e876b1ebaa", "type": "electric_scooter", "is_reserved": 0, "lon": -77.06524483333334}, {"fusion_lat": 0.0, "name": "5f768e472f28f189af0966a52a460c12", "is_disabled": 0, "rental_uris": {"android": "https://dc.lft.to/lastmile_qr_scan", "ios": "https://dc.lft.to/lastmile_qr_scan"}, "fusion_lon": 0.0, "lat": 38.895682, "bike_id": "5f768e472f28f189af0966a52a460c12", "type": "electric_scooter", "is_reserved": 0, "lon": -76.99429816666667}, {"fusion_lat": 0.0, "name": "921890e17a667904a9a0a76d9118b433", "is_disabled": 0, "rental_uris": {"android": "https://dc.lft.to/lastmile_qr_scan", "ios": "https://dc.lft.to/lastmile_qr_scan"}, "fusion_lon": 0.0, "lat": 38.92167633333333, "bike_id": "921890e17a667904a9a0a76d9118b433", "type": "electric_scooter", "is_reserved": 0, "lon": -77.02086283333334}, {"fusion_lat": 0.0, "name": "0ab2010e54c31c2afb41add238f923fe", "is_disabled": 0, "rental_uris": {"android": "https://dc.lft.to/lastmile_qr_scan", "ios": "https://dc.lft.to/lastmile_qr_scan"}, "fusion_lon": 0.0, "lat": 38.900703166666666, "bike_id": "0ab2010e54c31c2afb41add238f923fe", "type": "electric_scooter", "is_reserved": 0, "lon": -76.98696083333333}, {"fusion_lat": 0.0, "name": "adf3699820e3be9f8e524220d922d7cd", "is_disabled": 0, "rental_uris": {"android": "https://dc.lft.to/lastmile_qr_scan", "ios": "https://dc.lft.to/lastmile_qr_scan"}, "fusion_lon": 0.0, "lat": 38.885045, "bike_id": "adf3699820e3be9f8e524220d922d7cd", "type": "electric_scooter", "is_reserved": 0, "lon": -76.9975835}, {"fusion_lat": 0.0, "name": "e1bdca46f3792cbea571497f72abb92f", "is_disabled": 0, "rental_uris": {"android": "https://dc.lft.to/lastmile_qr_scan", "ios": "https://dc.lft.to/lastmile_qr_scan"}, "fusion_lon": 0.0, "lat": 38.90862416666667, "bike_id": "e1bdca46f3792cbea571497f72abb92f", "type": "electric_scooter", "is_reserved": 0, "lon": -77.04734566666667}, {"fusion_lat": 0.0, "name": "b82b0f27c7d2086b6279896f38af48ee", "is_disabled": 0, "rental_uris": {"android": "https://dc.lft.to/lastmile_qr_scan", "ios": "https://dc.lft.to/lastmile_qr_scan"}, "fusion_lon": 0.0, "lat": 38.917290666666666, "bike_id": "b82b0f27c7d2086b6279896f38af48ee", "type": "electric_scooter", "is_reserved": 0, "lon": -77.0281825}, {"fusion_lat": 0.0, "name": "4a17f36d357e6a34251b221482a3f472", "is_disabled": 0, "rental_uris": {"android": "https://dc.lft.to/lastmile_qr_scan", "ios": "https://dc.lft.to/lastmile_qr_scan"}, "fusion_lon": 0.0, "lat": 39.01422266666667, "bike_id": "4a17f36d357e6a34251b221482a3f472", "type": "electric_bike", "is_reserved": 0, "lon": -77.044968}, {"fusion_lat": 0.0, "name": "f60535a5908ec4238022bc5ad637e661", "is_disabled": 0, "rental_uris": {"android": "https://dc.lft.to/lastmile_qr_scan", "ios": "https://dc.lft.to/lastmile_qr_scan"}, "fusion_lon": 0.0, "lat": 38.93818483333333, "bike_id": "f60535a5908ec4238022bc5ad637e661", "type": "electric_scooter", "is_reserved": 0, "lon": -77.060129}, {"fusion_lat": 0.0, "name": "0a6e4e84a17d4b97b647138f0a17365a", "is_disabled": 0, "rental_uris": {"android": "https://dc.lft.to/lastmile_qr_scan", "ios": "https://dc.lft.to/lastmile_qr_scan"}, "fusion_lon": 0.0, "lat": 38.93237833333333, "bike_id": "0a6e4e84a17d4b97b647138f0a17365a", "type": "electric_scooter", "is_reserved": 0, "lon": -77.0388045}, {"fusion_lat": 0.0, "name": "a67957acf67c8bb896c6d991756bcd07", "is_disabled": 0, "rental_uris": {"android": "https://dc.lft.to/lastmile_qr_scan", "ios": "https://dc.lft.to/lastmile_qr_scan"}, "fusion_lon": 0.0, "lat": 38.922364333333334, "bike_id": "a67957acf67c8bb896c6d991756bcd07", "type": "electric_scooter", "is_reserved": 0, "lon": -77.04256783333334}, {"fusion_lat": 0.0, "name": "dace665e15a63ff964194d5908404d7c", "is_disabled": 0, "rental_uris": {"android": "https://dc.lft.to/lastmile_qr_scan", "ios": "https://dc.lft.to/lastmile_qr_scan"}, "fusion_lon": 0.0, "lat": 38.9406755, "bike_id": "dace665e15a63ff964194d5908404d7c", "type": "electric_bike", "is_reserved": 0, "lon": -76.99458983333334}, {"fusion_lat": 0.0, "name": "342a1f461e190a4980b2265fd3f38471", "is_disabled": 0, "rental_uris": {"android": "https://dc.lft.to/lastmile_qr_scan", "ios": "https://dc.lft.to/lastmile_qr_scan"}, "fusion_lon": 0.0, "lat": 38.93100883333334, "bike_id": "342a1f461e190a4980b2265fd3f38471", "type": "electric_scooter", "is_reserved": 0, "lon": -77.0254785}, {"fusion_lat": 0.0, "name": "c627e625afee378dd3600bd2509740df", "is_disabled": 0, "rental_uris": {"android": "https://dc.lft.to/lastmile_qr_scan", "ios": "https://dc.lft.to/lastmile_qr_scan"}, "fusion_lon": 0.0, "lat": 38.9234645, "bike_id": "c627e625afee378dd3600bd2509740df", "type": "electric_scooter", "is_reserved": 0, "lon": -77.056152}, {"fusion_lat": 0.0, "name": "b530d77bc0ce8ac667e6b1020a14a248", "is_disabled": 0, "rental_uris": {"android": "https://dc.lft.to/lastmile_qr_scan", "ios": "https://dc.lft.to/lastmile_qr_scan"}, "fusion_lon": 0.0, "lat": 38.90784583333333, "bike_id": "b530d77bc0ce8ac667e6b1020a14a248", "type": "electric_scooter", "is_reserved": 0, "lon": -77.074304}, {"fusion_lat": 0.0, "name": "6c24b35f9d3bed109cda761735602462", "is_disabled": 0, "rental_uris": {"android": "https://dc.lft.to/lastmile_qr_scan", "ios": "https://dc.lft.to/lastmile_qr_scan"}, "fusion_lon": 0.0, "lat": 38.89737516666667, "bike_id": "6c24b35f9d3bed109cda761735602462", "type": "electric_scooter", "is_reserved": 0, "lon": -77.02720183333334}, {"fusion_lat": 0.0, "name": "ffb057e7b9ad2c426c0f559c6a46e72b", "is_disabled": 0, "rental_uris": {"android": "https://dc.lft.to/lastmile_qr_scan", "ios": "https://dc.lft.to/lastmile_qr_scan"}, "fusion_lon": 0.0, "lat": 38.902145, "bike_id": "ffb057e7b9ad2c426c0f559c6a46e72b", "type": "electric_scooter", "is_reserved": 0, "lon": -76.99505766666667}, {"fusion_lat": 0.0, "name": "a6300de415c42fa4e60c93f611c87421", "is_disabled": 0, "rental_uris": {"android": "https://dc.lft.to/lastmile_qr_scan", "ios": "https://dc.lft.to/lastmile_qr_scan"}, "fusion_lon": 0.0, "lat": 38.90503983333333, "bike_id": "a6300de415c42fa4e60c93f611c87421", "type": "electric_scooter", "is_reserved": 0, "lon": -76.99684633333334}, {"fusion_lat": 0.0, "name": "84fe494626906fd67598ae9780e34284", "is_disabled": 0, "rental_uris": {"android": "https://dc.lft.to/lastmile_qr_scan", "ios": "https://dc.lft.to/lastmile_qr_scan"}, "fusion_lon": 0.0, "lat": 38.9386975, "bike_id": "84fe494626906fd67598ae9780e34284", "type": "electric_scooter", "is_reserved": 0, "lon": -77.02458733333333}, {"fusion_lat": 0.0, "name": "b2afa7f5822a2af44e029337b1ce2fa5", "is_disabled": 0, "rental_uris": {"android": "https://dc.lft.to/lastmile_qr_scan", "ios": "https://dc.lft.to/lastmile_qr_scan"}, "fusion_lon": 0.0, "lat": 38.90237166666667, "bike_id": "b2afa7f5822a2af44e029337b1ce2fa5", "type": "electric_scooter", "is_reserved": 0, "lon": -77.022978}, {"fusion_lat": 0.0, "name": "74691bddfc92f79c90872140a91c10e3", "is_disabled": 0, "rental_uris": {"android": "https://dc.lft.to/lastmile_qr_scan", "ios": "https://dc.lft.to/lastmile_qr_scan"}, "fusion_lon": 0.0, "lat": 38.87473216666667, "bike_id": "74691bddfc92f79c90872140a91c10e3", "type": "electric_scooter", "is_reserved": 0, "lon": -77.01701083333333}, {"fusion_lat": 0.0, "name": "c33bd27d6329c027478a5f9835126131", "is_disabled": 0, "rental_uris": {"android": "https://dc.lft.to/lastmile_qr_scan", "ios": "https://dc.lft.to/lastmile_qr_scan"}, "fusion_lon": 0.0, "lat": 38.92738, "bike_id": "c33bd27d6329c027478a5f9835126131", "type": "electric_scooter", "is_reserved": 0, "lon": -77.02708383333334}, {"fusion_lat": 0.0, "name": "044e1350bff1a1bb0cbd9017f1eafff2", "is_disabled": 0, "rental_uris": {"android": "https://dc.lft.to/lastmile_qr_scan", "ios": "https://dc.lft.to/lastmile_qr_scan"}, "fusion_lon": 0.0, "lat": 38.86518866666667, "bike_id": "044e1350bff1a1bb0cbd9017f1eafff2", "type": "electric_bike", "is_reserved": 0, "lon": -77.129366}, {"fusion_lat": 0.0, "name": "7b43cc0aacac633281dd4ee701c52e02", "is_disabled": 0, "rental_uris": {"android": "https://dc.lft.to/lastmile_qr_scan", "ios": "https://dc.lft.to/lastmile_qr_scan"}, "fusion_lon": 0.0, "lat": 38.89897, "bike_id": "7b43cc0aacac633281dd4ee701c52e02", "type": "electric_scooter", "is_reserved": 0, "lon": -77.026101}, {"fusion_lat": 0.0, "name": "52150fa20bb51700297f882c14b30646", "is_disabled": 0, "rental_uris": {"android": "https://dc.lft.to/lastmile_qr_scan", "ios": "https://dc.lft.to/lastmile_qr_scan"}, "fusion_lon": 0.0, "lat": 38.89911033333333, "bike_id": "52150fa20bb51700297f882c14b30646", "type": "electric_scooter", "is_reserved": 0, "lon": -76.94588633333333}, {"fusion_lat": 0.0, "name": "d130e77c15d29f7e71f4e218e3852790", "is_disabled": 0, "rental_uris": {"android": "https://dc.lft.to/lastmile_qr_scan", "ios": "https://dc.lft.to/lastmile_qr_scan"}, "fusion_lon": 0.0, "lat": 38.875798, "bike_id": "d130e77c15d29f7e71f4e218e3852790", "type": "electric_bike", "is_reserved": 0, "lon": -77.2341225}, {"fusion_lat": 0.0, "name": "17b06ff41e85ac4bb61d10dd82432e0e", "is_disabled": 0, "rental_uris": {"android": "https://dc.lft.to/lastmile_qr_scan", "ios": "https://dc.lft.to/lastmile_qr_scan"}, "fusion_lon": 0.0, "lat": 38.92580133333333, "bike_id": "17b06ff41e85ac4bb61d10dd82432e0e", "type": "electric_scooter", "is_reserved": 0, "lon": -76.99491633333334}, {"fusion_lat": 0.0, "name": "d0af4daf257a5b801e7e254323410226", "is_disabled": 0, "rental_uris": {"android": "https://dc.lft.to/lastmile_qr_scan", "ios": "https://dc.lft.to/lastmile_qr_scan"}, "fusion_lon": 0.0, "lat": 38.887355666666664, "bike_id": "d0af4daf257a5b801e7e254323410226", "type": "electric_scooter", "is_reserved": 0, "lon": -76.99489466666667}, {"fusion_lat": 0.0, "name": "1e7466a1dd23c1bdbaa0c7a29dc51661", "is_disabled": 0, "rental_uris": {"android": "https://dc.lft.to/lastmile_qr_scan", "ios": "https://dc.lft.to/lastmile_qr_scan"}, "fusion_lon": 0.0, "lat": 38.89910616666667, "bike_id": "1e7466a1dd23c1bdbaa0c7a29dc51661", "type": "electric_scooter", "is_reserved": 0, "lon": -76.93357466666667}, {"fusion_lat": 0.0, "name": "598b6c3cb6236cafd8f71810b080e1ac", "is_disabled": 0, "rental_uris": {"android": "https://dc.lft.to/lastmile_qr_scan", "ios": "https://dc.lft.to/lastmile_qr_scan"}, "fusion_lon": 0.0, "lat": 38.893322833333336, "bike_id": "598b6c3cb6236cafd8f71810b080e1ac", "type": "electric_scooter", "is_reserved": 0, "lon": -77.03957266666667}, {"fusion_lat": 0.0, "name": "06dd02c3cff42728494cee409fe58066", "is_disabled": 0, "rental_uris": {"android": "https://dc.lft.to/lastmile_qr_scan", "ios": "https://dc.lft.to/lastmile_qr_scan"}, "fusion_lon": 0.0, "lat": 38.88535366666667, "bike_id": "06dd02c3cff42728494cee409fe58066", "type": "electric_scooter", "is_reserved": 0, "lon": -76.92906683333334}, {"fusion_lat": 0.0, "name": "72fa7d1dbe74663febb1bced74536d4b", "is_disabled": 0, "rental_uris": {"android": "https://dc.lft.to/lastmile_qr_scan", "ios": "https://dc.lft.to/lastmile_qr_scan"}, "fusion_lon": 0.0, "lat": 38.9191495, "bike_id": "72fa7d1dbe74663febb1bced74536d4b", "type": "electric_scooter", "is_reserved": 0, "lon": -77.00136483333333}, {"fusion_lat": 0.0, "name": "1b2590ffb9e17d074e7ca4c6451d319c", "is_disabled": 0, "rental_uris": {"android": "https://dc.lft.to/lastmile_qr_scan", "ios": "https://dc.lft.to/lastmile_qr_scan"}, "fusion_lon": 0.0, "lat": 38.899999, "bike_id": "1b2590ffb9e17d074e7ca4c6451d319c", "type": "electric_scooter", "is_reserved": 0, "lon": -77.01629183333333}, {"fusion_lat": 0.0, "name": "e3000e68a58a0e401ab4651d389ea45e", "is_disabled": 0, "rental_uris": {"android": "https://dc.lft.to/lastmile_qr_scan", "ios": "https://dc.lft.to/lastmile_qr_scan"}, "fusion_lon": 0.0, "lat": 38.96317916666667, "bike_id": "e3000e68a58a0e401ab4651d389ea45e", "type": "electric_scooter", "is_reserved": 0, "lon": -77.074937}, {"fusion_lat": 0.0, "name": "645767be8a7058407a8e8bd79327ab1b", "is_disabled": 0, "rental_uris": {"android": "https://dc.lft.to/lastmile_qr_scan", "ios": "https://dc.lft.to/lastmile_qr_scan"}, "fusion_lon": 0.0, "lat": 38.93091483333333, "bike_id": "645767be8a7058407a8e8bd79327ab1b", "type": "electric_scooter", "is_reserved": 0, "lon": -77.02554066666667}, {"fusion_lat": 0.0, "name": "e948d438c6a0a36ef39a62208f174ef0", "is_disabled": 0, "rental_uris": {"android": "https://dc.lft.to/lastmile_qr_scan", "ios": "https://dc.lft.to/lastmile_qr_scan"}, "fusion_lon": 0.0, "lat": 38.93538183333333, "bike_id": "e948d438c6a0a36ef39a62208f174ef0", "type": "electric_scooter", "is_reserved": 0, "lon": -77.0235325}, {"fusion_lat": 0.0, "name": "3183d029bae44078716bb89c4fd58030", "is_disabled": 0, "rental_uris": {"android": "https://dc.lft.to/lastmile_qr_scan", "ios": "https://dc.lft.to/lastmile_qr_scan"}, "fusion_lon": 0.0, "lat": 38.90619566666667, "bike_id": "3183d029bae44078716bb89c4fd58030", "type": "electric_scooter", "is_reserved": 0, "lon": -77.02402083333334}, {"fusion_lat": 0.0, "name": "aad5695279c9c33a2a73aeb657ed2590", "is_disabled": 0, "rental_uris": {"android": "https://dc.lft.to/lastmile_qr_scan", "ios": "https://dc.lft.to/lastmile_qr_scan"}, "fusion_lon": 0.0, "lat": 38.906015333333336, "bike_id": "aad5695279c9c33a2a73aeb657ed2590", "type": "electric_scooter", "is_reserved": 0, "lon": -77.00902183333334}, {"fusion_lat": 0.0, "name": "48305add9f908e04c4dae8ef01b12208", "is_disabled": 0, "rental_uris": {"android": "https://dc.lft.to/lastmile_qr_scan", "ios": "https://dc.lft.to/lastmile_qr_scan"}, "fusion_lon": 0.0, "lat": 38.88456083333333, "bike_id": "48305add9f908e04c4dae8ef01b12208", "type": "electric_scooter", "is_reserved": 0, "lon": -76.9984205}, {"fusion_lat": 0.0, "name": "c483612a2761adfb9aba1edefcf61597", "is_disabled": 0, "rental_uris": {"android": "https://dc.lft.to/lastmile_qr_scan", "ios": "https://dc.lft.to/lastmile_qr_scan"}, "fusion_lon": 0.0, "lat": 38.923381666666664, "bike_id": "c483612a2761adfb9aba1edefcf61597", "type": "electric_scooter", "is_reserved": 0, "lon": -77.056234}, {"fusion_lat": 0.0, "name": "4960881e495fda174c99e9b0de4291d8", "is_disabled": 0, "rental_uris": {"android": "https://dc.lft.to/lastmile_qr_scan", "ios": "https://dc.lft.to/lastmile_qr_scan"}, "fusion_lon": 0.0, "lat": 38.90031033333333, "bike_id": "4960881e495fda174c99e9b0de4291d8", "type": "electric_scooter", "is_reserved": 0, "lon": -77.01217916666667}, {"fusion_lat": 0.0, "name": "1094fcad7406bca85f363ce63fce8500", "is_disabled": 0, "rental_uris": {"android": "https://dc.lft.to/lastmile_qr_scan", "ios": "https://dc.lft.to/lastmile_qr_scan"}, "fusion_lon": 0.0, "lat": 38.903982, "bike_id": "1094fcad7406bca85f363ce63fce8500", "type": "electric_scooter", "is_reserved": 0, "lon": -77.050305}, {"fusion_lat": 0.0, "name": "e3ece2444e3d88cbd60f6ff80b624b54", "is_disabled": 0, "rental_uris": {"android": "https://dc.lft.to/lastmile_qr_scan", "ios": "https://dc.lft.to/lastmile_qr_scan"}, "fusion_lon": 0.0, "lat": 38.93933616666666, "bike_id": "e3ece2444e3d88cbd60f6ff80b624b54", "type": "electric_scooter", "is_reserved": 0, "lon": -77.07475516666666}, {"fusion_lat": 0.0, "name": "535f6c03470ce9e5f36999455728939d", "is_disabled": 0, "rental_uris": {"android": "https://dc.lft.to/lastmile_qr_scan", "ios": "https://dc.lft.to/lastmile_qr_scan"}, "fusion_lon": 0.0, "lat": 38.802971166666666, "bike_id": "535f6c03470ce9e5f36999455728939d", "type": "electric_bike", "is_reserved": 0, "lon": -77.05941233333333}, {"fusion_lat": 0.0, "name": "470475e5a8555562d36ae3201cb01e23", "is_disabled": 0, "rental_uris": {"android": "https://dc.lft.to/lastmile_qr_scan", "ios": "https://dc.lft.to/lastmile_qr_scan"}, "fusion_lon": 0.0, "lat": 38.961294, "bike_id": "470475e5a8555562d36ae3201cb01e23", "type": "electric_bike", "is_reserved": 0, "lon": -77.03274166666667}, {"fusion_lat": 0.0, "name": "76a04c03e396e91755b3d91ecff80223", "is_disabled": 0, "rental_uris": {"android": "https://dc.lft.to/lastmile_qr_scan", "ios": "https://dc.lft.to/lastmile_qr_scan"}, "fusion_lon": 0.0, "lat": 38.92743633333333, "bike_id": "76a04c03e396e91755b3d91ecff80223", "type": "electric_scooter", "is_reserved": 0, "lon": -77.0421675}, {"fusion_lat": 0.0, "name": "860633640a0b14fbc438b9ae319f3ca6", "is_disabled": 0, "rental_uris": {"android": "https://dc.lft.to/lastmile_qr_scan", "ios": "https://dc.lft.to/lastmile_qr_scan"}, "fusion_lon": 0.0, "lat": 38.896864666666666, "bike_id": "860633640a0b14fbc438b9ae319f3ca6", "type": "electric_scooter", "is_reserved": 0, "lon": -76.93712566666666}, {"fusion_lat": 0.0, "name": "ffe83fb5baf28a9154d4f3f80a6e0cfb", "is_disabled": 0, "rental_uris": {"android": "https://dc.lft.to/lastmile_qr_scan", "ios": "https://dc.lft.to/lastmile_qr_scan"}, "fusion_lon": 0.0, "lat": 38.90450166666667, "bike_id": "ffe83fb5baf28a9154d4f3f80a6e0cfb", "type": "electric_scooter", "is_reserved": 0, "lon": -77.04335533333334}, {"fusion_lat": 0.0, "name": "1559fd4519313f4f3a6fd51370f017f3", "is_disabled": 0, "rental_uris": {"android": "https://dc.lft.to/lastmile_qr_scan", "ios": "https://dc.lft.to/lastmile_qr_scan"}, "fusion_lon": 0.0, "lat": 38.927130166666664, "bike_id": "1559fd4519313f4f3a6fd51370f017f3", "type": "electric_scooter", "is_reserved": 0, "lon": -77.03759066666667}, {"fusion_lat": 0.0, "name": "0faa7661222dd4952f7e9245eda3f8c9", "is_disabled": 0, "rental_uris": {"android": "https://dc.lft.to/lastmile_qr_scan", "ios": "https://dc.lft.to/lastmile_qr_scan"}, "fusion_lon": 0.0, "lat": 38.885080333333335, "bike_id": "0faa7661222dd4952f7e9245eda3f8c9", "type": "electric_scooter", "is_reserved": 0, "lon": -76.997594}, {"fusion_lat": 0.0, "name": "c40367b184abe487ce385a414cbdc351", "is_disabled": 0, "rental_uris": {"android": "https://dc.lft.to/lastmile_qr_scan", "ios": "https://dc.lft.to/lastmile_qr_scan"}, "fusion_lon": 0.0, "lat": 38.915778833333334, "bike_id": "c40367b184abe487ce385a414cbdc351", "type": "electric_scooter", "is_reserved": 0, "lon": -77.01250066666667}, {"fusion_lat": 0.0, "name": "07558d1639f24eafb3118744475d0c9f", "is_disabled": 0, "rental_uris": {"android": "https://dc.lft.to/lastmile_qr_scan", "ios": "https://dc.lft.to/lastmile_qr_scan"}, "fusion_lon": 0.0, "lat": 38.9415785, "bike_id": "07558d1639f24eafb3118744475d0c9f", "type": "electric_bike", "is_reserved": 0, "lon": -77.00194483333334}, {"fusion_lat": 0.0, "name": "b79aff95069ab877a343c914703e31de", "is_disabled": 0, "rental_uris": {"android": "https://dc.lft.to/lastmile_qr_scan", "ios": "https://dc.lft.to/lastmile_qr_scan"}, "fusion_lon": 0.0, "lat": 38.92976516666667, "bike_id": "b79aff95069ab877a343c914703e31de", "type": "electric_scooter", "is_reserved": 0, "lon": -77.03132316666667}, {"fusion_lat": 0.0, "name": "8386cc5e79b5143752c4ac7eef7b5a1c", "is_disabled": 0, "rental_uris": {"android": "https://dc.lft.to/lastmile_qr_scan", "ios": "https://dc.lft.to/lastmile_qr_scan"}, "fusion_lon": 0.0, "lat": 38.902237166666666, "bike_id": "8386cc5e79b5143752c4ac7eef7b5a1c", "type": "electric_scooter", "is_reserved": 0, "lon": -77.05988533333333}, {"fusion_lat": 0.0, "name": "6ab59c92d994716b8cdb47b0d668f706", "is_disabled": 0, "rental_uris": {"android": "https://dc.lft.to/lastmile_qr_scan", "ios": "https://dc.lft.to/lastmile_qr_scan"}, "fusion_lon": 0.0, "lat": 38.9879245, "bike_id": "6ab59c92d994716b8cdb47b0d668f706", "type": "electric_bike", "is_reserved": 0, "lon": -77.14102}, {"fusion_lat": 0.0, "name": "498aa676dfad4fcd1dfbc625f2768d0e", "is_disabled": 0, "rental_uris": {"android": "https://dc.lft.to/lastmile_qr_scan", "ios": "https://dc.lft.to/lastmile_qr_scan"}, "fusion_lon": 0.0, "lat": 38.9041335, "bike_id": "498aa676dfad4fcd1dfbc625f2768d0e", "type": "electric_scooter", "is_reserved": 0, "lon": -76.97328666666667}, {"fusion_lat": 0.0, "name": "fc331d78393b296b5a5e3136602a0d23", "is_disabled": 0, "rental_uris": {"android": "https://dc.lft.to/lastmile_qr_scan", "ios": "https://dc.lft.to/lastmile_qr_scan"}, "fusion_lon": 0.0, "lat": 38.941698333333335, "bike_id": "fc331d78393b296b5a5e3136602a0d23", "type": "electric_bike", "is_reserved": 0, "lon": -76.96646533333333}, {"fusion_lat": 0.0, "name": "3cb4e69d347b31313c7a7cfb9f9a047f", "is_disabled": 0, "rental_uris": {"android": "https://dc.lft.to/lastmile_qr_scan", "ios": "https://dc.lft.to/lastmile_qr_scan"}, "fusion_lon": 0.0, "lat": 38.93463916666666, "bike_id": "3cb4e69d347b31313c7a7cfb9f9a047f", "type": "electric_scooter", "is_reserved": 0, "lon": -77.02246216666667}, {"fusion_lat": 0.0, "name": "2ea5d663a67dbe5da7fcb4c12929a139", "is_disabled": 0, "rental_uris": {"android": "https://dc.lft.to/lastmile_qr_scan", "ios": "https://dc.lft.to/lastmile_qr_scan"}, "fusion_lon": 0.0, "lat": 38.904566833333334, "bike_id": "2ea5d663a67dbe5da7fcb4c12929a139", "type": "electric_scooter", "is_reserved": 0, "lon": -76.982612}, {"fusion_lat": 0.0, "name": "f48ba70d09edf0cc4e3ade5c7c56efbf", "is_disabled": 0, "rental_uris": {"android": "https://dc.lft.to/lastmile_qr_scan", "ios": "https://dc.lft.to/lastmile_qr_scan"}, "fusion_lon": 0.0, "lat": 38.942331, "bike_id": "f48ba70d09edf0cc4e3ade5c7c56efbf", "type": "electric_scooter", "is_reserved": 0, "lon": -77.01414566666666}, {"fusion_lat": 0.0, "name": "e884a1fe75744328cb168e06948595e2", "is_disabled": 0, "rental_uris": {"android": "https://dc.lft.to/lastmile_qr_scan", "ios": "https://dc.lft.to/lastmile_qr_scan"}, "fusion_lon": 0.0, "lat": 38.9270225, "bike_id": "e884a1fe75744328cb168e06948595e2", "type": "electric_scooter", "is_reserved": 0, "lon": -77.02126166666666}, {"fusion_lat": 0.0, "name": "38540ce10c116f9b9fe769cae14fbeb1", "is_disabled": 0, "rental_uris": {"android": "https://dc.lft.to/lastmile_qr_scan", "ios": "https://dc.lft.to/lastmile_qr_scan"}, "fusion_lon": 0.0, "lat": 38.89315216666667, "bike_id": "38540ce10c116f9b9fe769cae14fbeb1", "type": "electric_scooter", "is_reserved": 0, "lon": -77.05586866666667}, {"fusion_lat": 0.0, "name": "eb8ff0db4e5d7d28a81eddfaab2815bb", "is_disabled": 0, "rental_uris": {"android": "https://dc.lft.to/lastmile_qr_scan", "ios": "https://dc.lft.to/lastmile_qr_scan"}, "fusion_lon": 0.0, "lat": 38.94982516666666, "bike_id": "eb8ff0db4e5d7d28a81eddfaab2815bb", "type": "electric_scooter", "is_reserved": 0, "lon": -77.0269905}, {"fusion_lat": 0.0, "name": "5af8ead982e1570ba7c50f4743322efb", "is_disabled": 0, "rental_uris": {"android": "https://dc.lft.to/lastmile_qr_scan", "ios": "https://dc.lft.to/lastmile_qr_scan"}, "fusion_lon": 0.0, "lat": 38.90262333333333, "bike_id": "5af8ead982e1570ba7c50f4743322efb", "type": "electric_scooter", "is_reserved": 0, "lon": -77.01851483333333}, {"fusion_lat": 0.0, "name": "6dd74f40253ddf76aaa4b08e7a62e0d3", "is_disabled": 0, "rental_uris": {"android": "https://dc.lft.to/lastmile_qr_scan", "ios": "https://dc.lft.to/lastmile_qr_scan"}, "fusion_lon": 0.0, "lat": 38.935364666666665, "bike_id": "6dd74f40253ddf76aaa4b08e7a62e0d3", "type": "electric_scooter", "is_reserved": 0, "lon": -77.02349766666667}, {"fusion_lat": 0.0, "name": "5d038cc2b15d7b4b60893276c5ae7128", "is_disabled": 0, "rental_uris": {"android": "https://dc.lft.to/lastmile_qr_scan", "ios": "https://dc.lft.to/lastmile_qr_scan"}, "fusion_lon": 0.0, "lat": 38.9076705, "bike_id": "5d038cc2b15d7b4b60893276c5ae7128", "type": "electric_scooter", "is_reserved": 0, "lon": -76.99919433333334}, {"fusion_lat": 0.0, "name": "61a99108eb76c52e6c75d47de71127d5", "is_disabled": 0, "rental_uris": {"android": "https://dc.lft.to/lastmile_qr_scan", "ios": "https://dc.lft.to/lastmile_qr_scan"}, "fusion_lon": 0.0, "lat": 38.8614215, "bike_id": "61a99108eb76c52e6c75d47de71127d5", "type": "electric_bike", "is_reserved": 0, "lon": -76.971676}, {"fusion_lat": 0.0, "name": "9e0e940658cc1e72c1ea0efe66e2126f", "is_disabled": 0, "rental_uris": {"android": "https://dc.lft.to/lastmile_qr_scan", "ios": "https://dc.lft.to/lastmile_qr_scan"}, "fusion_lon": 0.0, "lat": 38.911781166666664, "bike_id": "9e0e940658cc1e72c1ea0efe66e2126f", "type": "electric_scooter", "is_reserved": 0, "lon": -77.06859966666667}, {"fusion_lat": 0.0, "name": "9a925c0189271b5952ae36ab7eb3f64b", "is_disabled": 0, "rental_uris": {"android": "https://dc.lft.to/lastmile_qr_scan", "ios": "https://dc.lft.to/lastmile_qr_scan"}, "fusion_lon": 0.0, "lat": 38.89252966666667, "bike_id": "9a925c0189271b5952ae36ab7eb3f64b", "type": "electric_scooter", "is_reserved": 0, "lon": -77.03953416666667}, {"fusion_lat": 0.0, "name": "45e85c3b02565a095bdb2c1e9f11c58c", "is_disabled": 0, "rental_uris": {"android": "https://dc.lft.to/lastmile_qr_scan", "ios": "https://dc.lft.to/lastmile_qr_scan"}, "fusion_lon": 0.0, "lat": 38.9247855, "bike_id": "45e85c3b02565a095bdb2c1e9f11c58c", "type": "electric_scooter", "is_reserved": 0, "lon": -77.0266805}, {"fusion_lat": 0.0, "name": "d0e308fa189242c5dc2764fa3b5f8ca0", "is_disabled": 0, "rental_uris": {"android": "https://dc.lft.to/lastmile_qr_scan", "ios": "https://dc.lft.to/lastmile_qr_scan"}, "fusion_lon": 0.0, "lat": 38.87841733333333, "bike_id": "d0e308fa189242c5dc2764fa3b5f8ca0", "type": "electric_scooter", "is_reserved": 0, "lon": -77.0044985}, {"fusion_lat": 0.0, "name": "cb307ecf2e11d117d6ff498b223bf327", "is_disabled": 0, "rental_uris": {"android": "https://dc.lft.to/lastmile_qr_scan", "ios": "https://dc.lft.to/lastmile_qr_scan"}, "fusion_lon": 0.0, "lat": 38.90512, "bike_id": "cb307ecf2e11d117d6ff498b223bf327", "type": "electric_scooter", "is_reserved": 0, "lon": -77.070321}, {"fusion_lat": 0.0, "name": "eea00636aebaaa643b23afa427510246", "is_disabled": 0, "rental_uris": {"android": "https://dc.lft.to/lastmile_qr_scan", "ios": "https://dc.lft.to/lastmile_qr_scan"}, "fusion_lon": 0.0, "lat": 38.912684666666664, "bike_id": "eea00636aebaaa643b23afa427510246", "type": "electric_bike", "is_reserved": 0, "lon": -77.03628833333333}, {"fusion_lat": 0.0, "name": "a5d0f3cf43f3dfe3b646e87a46b23eac", "is_disabled": 0, "rental_uris": {"android": "https://dc.lft.to/lastmile_qr_scan", "ios": "https://dc.lft.to/lastmile_qr_scan"}, "fusion_lon": 0.0, "lat": 38.927962, "bike_id": "a5d0f3cf43f3dfe3b646e87a46b23eac", "type": "electric_scooter", "is_reserved": 0, "lon": -76.95557}, {"fusion_lat": 0.0, "name": "6f61b42e5c7fba2d95ccc70ea649d15e", "is_disabled": 0, "rental_uris": {"android": "https://dc.lft.to/lastmile_qr_scan", "ios": "https://dc.lft.to/lastmile_qr_scan"}, "fusion_lon": 0.0, "lat": 38.988239166666666, "bike_id": "6f61b42e5c7fba2d95ccc70ea649d15e", "type": "electric_bike", "is_reserved": 0, "lon": -77.02654316666667}, {"fusion_lat": 0.0, "name": "b75f0f73e472326ff384ebfcae7da1e6", "is_disabled": 0, "rental_uris": {"android": "https://dc.lft.to/lastmile_qr_scan", "ios": "https://dc.lft.to/lastmile_qr_scan"}, "fusion_lon": 0.0, "lat": 38.93066266666666, "bike_id": "b75f0f73e472326ff384ebfcae7da1e6", "type": "electric_scooter", "is_reserved": 0, "lon": -77.03942083333334}, {"fusion_lat": 0.0, "name": "a6f9b5100236422408660e6ef71f8673", "is_disabled": 0, "rental_uris": {"android": "https://dc.lft.to/lastmile_qr_scan", "ios": "https://dc.lft.to/lastmile_qr_scan"}, "fusion_lon": 0.0, "lat": 38.924045, "bike_id": "a6f9b5100236422408660e6ef71f8673", "type": "electric_scooter", "is_reserved": 0, "lon": -77.04272716666667}, {"fusion_lat": 0.0, "name": "4ba62c9118b2444779a1f49d097824fb", "is_disabled": 0, "rental_uris": {"android": "https://dc.lft.to/lastmile_qr_scan", "ios": "https://dc.lft.to/lastmile_qr_scan"}, "fusion_lon": 0.0, "lat": 38.916212333333334, "bike_id": "4ba62c9118b2444779a1f49d097824fb", "type": "electric_scooter", "is_reserved": 0, "lon": -77.03852183333333}, {"fusion_lat": 0.0, "name": "332e1cc97ea24ead96a1c8963bca668e", "is_disabled": 0, "rental_uris": {"android": "https://dc.lft.to/lastmile_qr_scan", "ios": "https://dc.lft.to/lastmile_qr_scan"}, "fusion_lon": 0.0, "lat": 38.949265, "bike_id": "332e1cc97ea24ead96a1c8963bca668e", "type": "electric_scooter", "is_reserved": 0, "lon": -77.018519}, {"fusion_lat": 0.0, "name": "d733c154d2f3c93c3848fda5c903e26c", "is_disabled": 0, "rental_uris": {"android": "https://dc.lft.to/lastmile_qr_scan", "ios": "https://dc.lft.to/lastmile_qr_scan"}, "fusion_lon": 0.0, "lat": 38.904898, "bike_id": "d733c154d2f3c93c3848fda5c903e26c", "type": "electric_scooter", "is_reserved": 0, "lon": -76.94969983333333}, {"fusion_lat": 0.0, "name": "078e7c450880286435a25a0f64449687", "is_disabled": 0, "rental_uris": {"android": "https://dc.lft.to/lastmile_qr_scan", "ios": "https://dc.lft.to/lastmile_qr_scan"}, "fusion_lon": 0.0, "lat": 38.88838233333333, "bike_id": "078e7c450880286435a25a0f64449687", "type": "electric_scooter", "is_reserved": 0, "lon": -77.04841966666666}, {"fusion_lat": 0.0, "name": "5b8b695f17102d065a5278f23d167174", "is_disabled": 0, "rental_uris": {"android": "https://dc.lft.to/lastmile_qr_scan", "ios": "https://dc.lft.to/lastmile_qr_scan"}, "fusion_lon": 0.0, "lat": 38.931576666666665, "bike_id": "5b8b695f17102d065a5278f23d167174", "type": "electric_scooter", "is_reserved": 0, "lon": -77.03972666666667}, {"fusion_lat": 0.0, "name": "559199ccfa0b9e1ab8acc77aa00f2cd4", "is_disabled": 0, "rental_uris": {"android": "https://dc.lft.to/lastmile_qr_scan", "ios": "https://dc.lft.to/lastmile_qr_scan"}, "fusion_lon": 0.0, "lat": 38.937558, "bike_id": "559199ccfa0b9e1ab8acc77aa00f2cd4", "type": "electric_scooter", "is_reserved": 0, "lon": -77.02528066666666}, {"fusion_lat": 0.0, "name": "5003621524e42d61eed46f9c25f3057d", "is_disabled": 0, "rental_uris": {"android": "https://dc.lft.to/lastmile_qr_scan", "ios": "https://dc.lft.to/lastmile_qr_scan"}, "fusion_lon": 0.0, "lat": 38.892309, "bike_id": "5003621524e42d61eed46f9c25f3057d", "type": "electric_scooter", "is_reserved": 0, "lon": -77.00300983333334}, {"fusion_lat": 0.0, "name": "91ecba7d31ed440fae22618948dbae9e", "is_disabled": 0, "rental_uris": {"android": "https://dc.lft.to/lastmile_qr_scan", "ios": "https://dc.lft.to/lastmile_qr_scan"}, "fusion_lon": 0.0, "lat": 38.84134516666667, "bike_id": "91ecba7d31ed440fae22618948dbae9e", "type": "electric_bike", "is_reserved": 0, "lon": -77.063068}, {"fusion_lat": 0.0, "name": "74fc6974712213a9350fdac74b49e98c", "is_disabled": 0, "rental_uris": {"android": "https://dc.lft.to/lastmile_qr_scan", "ios": "https://dc.lft.to/lastmile_qr_scan"}, "fusion_lon": 0.0, "lat": 38.81941616666667, "bike_id": "74fc6974712213a9350fdac74b49e98c", "type": "electric_bike", "is_reserved": 0, "lon": -77.00202933333334}, {"fusion_lat": 0.0, "name": "755a62f3f4f02524df0bb53acf1577c7", "is_disabled": 0, "rental_uris": {"android": "https://dc.lft.to/lastmile_qr_scan", "ios": "https://dc.lft.to/lastmile_qr_scan"}, "fusion_lon": 0.0, "lat": 38.8831015, "bike_id": "755a62f3f4f02524df0bb53acf1577c7", "type": "electric_scooter", "is_reserved": 0, "lon": -77.0192135}, {"fusion_lat": 0.0, "name": "fb68773e73e029eb0c0143b68ed20c5a", "is_disabled": 0, "rental_uris": {"android": "https://dc.lft.to/lastmile_qr_scan", "ios": "https://dc.lft.to/lastmile_qr_scan"}, "fusion_lon": 0.0, "lat": 38.900174166666666, "bike_id": "fb68773e73e029eb0c0143b68ed20c5a", "type": "electric_scooter", "is_reserved": 0, "lon": -77.00193666666667}, {"fusion_lat": 0.0, "name": "e9f93a4d9a30b31a07460b1c66a934fa", "is_disabled": 0, "rental_uris": {"android": "https://dc.lft.to/lastmile_qr_scan", "ios": "https://dc.lft.to/lastmile_qr_scan"}, "fusion_lon": 0.0, "lat": 38.904604166666665, "bike_id": "e9f93a4d9a30b31a07460b1c66a934fa", "type": "electric_scooter", "is_reserved": 0, "lon": -77.02949833333334}, {"fusion_lat": 0.0, "name": "57c6e4e5b19d7186b68e560e368b7d1a", "is_disabled": 0, "rental_uris": {"android": "https://dc.lft.to/lastmile_qr_scan", "ios": "https://dc.lft.to/lastmile_qr_scan"}, "fusion_lon": 0.0, "lat": 38.9095725, "bike_id": "57c6e4e5b19d7186b68e560e368b7d1a", "type": "electric_scooter", "is_reserved": 0, "lon": -76.98538533333334}, {"fusion_lat": 0.0, "name": "7161eb3121528a9dccae4629310345da", "is_disabled": 0, "rental_uris": {"android": "https://dc.lft.to/lastmile_qr_scan", "ios": "https://dc.lft.to/lastmile_qr_scan"}, "fusion_lon": 0.0, "lat": 38.90734, "bike_id": "7161eb3121528a9dccae4629310345da", "type": "electric_scooter", "is_reserved": 0, "lon": -77.02938116666667}, {"fusion_lat": 0.0, "name": "42fc00305887dcc15d529349e3ef35c6", "is_disabled": 0, "rental_uris": {"android": "https://dc.lft.to/lastmile_qr_scan", "ios": "https://dc.lft.to/lastmile_qr_scan"}, "fusion_lon": 0.0, "lat": 38.86353533333333, "bike_id": "42fc00305887dcc15d529349e3ef35c6", "type": "electric_bike", "is_reserved": 0, "lon": -77.07717033333333}, {"fusion_lat": 0.0, "name": "68ef8fe7ed6473c0c4a4d6a05f731ab5", "is_disabled": 0, "rental_uris": {"android": "https://dc.lft.to/lastmile_qr_scan", "ios": "https://dc.lft.to/lastmile_qr_scan"}, "fusion_lon": 0.0, "lat": 38.9211125, "bike_id": "68ef8fe7ed6473c0c4a4d6a05f731ab5", "type": "electric_scooter", "is_reserved": 0, "lon": -77.01805733333333}, {"fusion_lat": 0.0, "name": "5d4bcd10221009fab9e5a89e8c52ae24", "is_disabled": 0, "rental_uris": {"android": "https://dc.lft.to/lastmile_qr_scan", "ios": "https://dc.lft.to/lastmile_qr_scan"}, "fusion_lon": 0.0, "lat": 38.90938633333333, "bike_id": "5d4bcd10221009fab9e5a89e8c52ae24", "type": "electric_scooter", "is_reserved": 0, "lon": -77.06263633333333}, {"fusion_lat": 0.0, "name": "d59490904760a1f1022768e76761d065", "is_disabled": 0, "rental_uris": {"android": "https://dc.lft.to/lastmile_qr_scan", "ios": "https://dc.lft.to/lastmile_qr_scan"}, "fusion_lon": 0.0, "lat": 38.89669683333334, "bike_id": "d59490904760a1f1022768e76761d065", "type": "electric_scooter", "is_reserved": 0, "lon": -76.9321175}, {"fusion_lat": 0.0, "name": "42651cef901e13b515dbc3df1d91ea9a", "is_disabled": 0, "rental_uris": {"android": "https://dc.lft.to/lastmile_qr_scan", "ios": "https://dc.lft.to/lastmile_qr_scan"}, "fusion_lon": 0.0, "lat": 38.939710833333336, "bike_id": "42651cef901e13b515dbc3df1d91ea9a", "type": "electric_scooter", "is_reserved": 0, "lon": -77.03288283333333}, {"fusion_lat": 0.0, "name": "4194a1c7ccec513b73019f6c4c2b17c0", "is_disabled": 0, "rental_uris": {"android": "https://dc.lft.to/lastmile_qr_scan", "ios": "https://dc.lft.to/lastmile_qr_scan"}, "fusion_lon": 0.0, "lat": 38.93492116666667, "bike_id": "4194a1c7ccec513b73019f6c4c2b17c0", "type": "electric_scooter", "is_reserved": 0, "lon": -77.045289}, {"fusion_lat": 0.0, "name": "34f1e230969c28b86576cb4a5db09ee8", "is_disabled": 0, "rental_uris": {"android": "https://dc.lft.to/lastmile_qr_scan", "ios": "https://dc.lft.to/lastmile_qr_scan"}, "fusion_lon": 0.0, "lat": 38.936591, "bike_id": "34f1e230969c28b86576cb4a5db09ee8", "type": "electric_scooter", "is_reserved": 0, "lon": -77.03655433333333}, {"fusion_lat": 0.0, "name": "ae5f63a0c6a3288fbbcea8cf64a6d8f1", "is_disabled": 0, "rental_uris": {"android": "https://dc.lft.to/lastmile_qr_scan", "ios": "https://dc.lft.to/lastmile_qr_scan"}, "fusion_lon": 0.0, "lat": 38.8960895, "bike_id": "ae5f63a0c6a3288fbbcea8cf64a6d8f1", "type": "electric_scooter", "is_reserved": 0, "lon": -77.04975333333333}, {"fusion_lat": 0.0, "name": "2b3f5267f86a8129a8f7c70587c58fa2", "is_disabled": 0, "rental_uris": {"android": "https://dc.lft.to/lastmile_qr_scan", "ios": "https://dc.lft.to/lastmile_qr_scan"}, "fusion_lon": 0.0, "lat": 38.9248185, "bike_id": "2b3f5267f86a8129a8f7c70587c58fa2", "type": "electric_bike", "is_reserved": 0, "lon": -77.23344983333334}, {"fusion_lat": 0.0, "name": "8068c5344a91739e3fbc40eb0a40ea3a", "is_disabled": 0, "rental_uris": {"android": "https://dc.lft.to/lastmile_qr_scan", "ios": "https://dc.lft.to/lastmile_qr_scan"}, "fusion_lon": 0.0, "lat": 38.907231333333335, "bike_id": "8068c5344a91739e3fbc40eb0a40ea3a", "type": "electric_scooter", "is_reserved": 0, "lon": -77.000994}, {"fusion_lat": 0.0, "name": "8bd9c00b40d657c6dceba942f52e2c26", "is_disabled": 0, "rental_uris": {"android": "https://dc.lft.to/lastmile_qr_scan", "ios": "https://dc.lft.to/lastmile_qr_scan"}, "fusion_lon": 0.0, "lat": 38.9043635, "bike_id": "8bd9c00b40d657c6dceba942f52e2c26", "type": "electric_scooter", "is_reserved": 0, "lon": -77.05036}, {"fusion_lat": 0.0, "name": "afabf779ecdb7dea28677829ebce7324", "is_disabled": 0, "rental_uris": {"android": "https://dc.lft.to/lastmile_qr_scan", "ios": "https://dc.lft.to/lastmile_qr_scan"}, "fusion_lon": 0.0, "lat": 38.90304233333333, "bike_id": "afabf779ecdb7dea28677829ebce7324", "type": "electric_scooter", "is_reserved": 0, "lon": -76.97511366666667}, {"fusion_lat": 0.0, "name": "21ee8a8134d7de10f0e9d219a9edbc46", "is_disabled": 0, "rental_uris": {"android": "https://dc.lft.to/lastmile_qr_scan", "ios": "https://dc.lft.to/lastmile_qr_scan"}, "fusion_lon": 0.0, "lat": 38.915279, "bike_id": "21ee8a8134d7de10f0e9d219a9edbc46", "type": "electric_scooter", "is_reserved": 0, "lon": -77.07274}, {"fusion_lat": 0.0, "name": "9dab0160c7ddc3c2c77307b9a7e87cfe", "is_disabled": 0, "rental_uris": {"android": "https://dc.lft.to/lastmile_qr_scan", "ios": "https://dc.lft.to/lastmile_qr_scan"}, "fusion_lon": 0.0, "lat": 38.90510833333333, "bike_id": "9dab0160c7ddc3c2c77307b9a7e87cfe", "type": "electric_scooter", "is_reserved": 0, "lon": -77.06432633333333}, {"fusion_lat": 0.0, "name": "b138074a184acbe51540a7993b2f3f48", "is_disabled": 0, "rental_uris": {"android": "https://dc.lft.to/lastmile_qr_scan", "ios": "https://dc.lft.to/lastmile_qr_scan"}, "fusion_lon": 0.0, "lat": 38.93271583333333, "bike_id": "b138074a184acbe51540a7993b2f3f48", "type": "electric_scooter", "is_reserved": 0, "lon": -77.01918166666667}, {"fusion_lat": 0.0, "name": "b3a0b439b90570977e55327a9acc36b4", "is_disabled": 0, "rental_uris": {"android": "https://dc.lft.to/lastmile_qr_scan", "ios": "https://dc.lft.to/lastmile_qr_scan"}, "fusion_lon": 0.0, "lat": 38.927586, "bike_id": "b3a0b439b90570977e55327a9acc36b4", "type": "electric_scooter", "is_reserved": 0, "lon": -77.03296083333333}, {"fusion_lat": 0.0, "name": "51f80343a62624fac81a43dd9269248c", "is_disabled": 0, "rental_uris": {"android": "https://dc.lft.to/lastmile_qr_scan", "ios": "https://dc.lft.to/lastmile_qr_scan"}, "fusion_lon": 0.0, "lat": 38.88711216666667, "bike_id": "51f80343a62624fac81a43dd9269248c", "type": "electric_scooter", "is_reserved": 0, "lon": -76.99676883333333}, {"fusion_lat": 0.0, "name": "042368d8e0f5c1d7cd51acd01d05671f", "is_disabled": 0, "rental_uris": {"android": "https://dc.lft.to/lastmile_qr_scan", "ios": "https://dc.lft.to/lastmile_qr_scan"}, "fusion_lon": 0.0, "lat": 38.946066333333334, "bike_id": "042368d8e0f5c1d7cd51acd01d05671f", "type": "electric_bike", "is_reserved": 0, "lon": -77.028693}, {"fusion_lat": 0.0, "name": "02eae7730b60645076dd03bb1d5b8db5", "is_disabled": 0, "rental_uris": {"android": "https://dc.lft.to/lastmile_qr_scan", "ios": "https://dc.lft.to/lastmile_qr_scan"}, "fusion_lon": 0.0, "lat": 38.92241466666667, "bike_id": "02eae7730b60645076dd03bb1d5b8db5", "type": "electric_scooter", "is_reserved": 0, "lon": -77.042506}, {"fusion_lat": 0.0, "name": "2e2a40ff875a02a9adacb01cefc46983", "is_disabled": 0, "rental_uris": {"android": "https://dc.lft.to/lastmile_qr_scan", "ios": "https://dc.lft.to/lastmile_qr_scan"}, "fusion_lon": 0.0, "lat": 38.9046995, "bike_id": "2e2a40ff875a02a9adacb01cefc46983", "type": "electric_scooter", "is_reserved": 0, "lon": -77.01704733333334}, {"fusion_lat": 0.0, "name": "0ca4af20f771b161bdf154e5c9cf7264", "is_disabled": 0, "rental_uris": {"android": "https://dc.lft.to/lastmile_qr_scan", "ios": "https://dc.lft.to/lastmile_qr_scan"}, "fusion_lon": 0.0, "lat": 38.892266666666664, "bike_id": "0ca4af20f771b161bdf154e5c9cf7264", "type": "electric_scooter", "is_reserved": 0, "lon": -77.0503565}, {"fusion_lat": 0.0, "name": "bcd14a91e994750ad3dda53f8294e7fd", "is_disabled": 0, "rental_uris": {"android": "https://dc.lft.to/lastmile_qr_scan", "ios": "https://dc.lft.to/lastmile_qr_scan"}, "fusion_lon": 0.0, "lat": 38.917093, "bike_id": "bcd14a91e994750ad3dda53f8294e7fd", "type": "electric_scooter", "is_reserved": 0, "lon": -77.03129833333334}, {"fusion_lat": 0.0, "name": "38d463a9e5b66a5d25104c4feec7045e", "is_disabled": 0, "rental_uris": {"android": "https://dc.lft.to/lastmile_qr_scan", "ios": "https://dc.lft.to/lastmile_qr_scan"}, "fusion_lon": 0.0, "lat": 38.9497925, "bike_id": "38d463a9e5b66a5d25104c4feec7045e", "type": "electric_scooter", "is_reserved": 0, "lon": -77.02448783333334}, {"fusion_lat": 0.0, "name": "7f017c1c34ce56c8c7512a107041765e", "is_disabled": 0, "rental_uris": {"android": "https://dc.lft.to/lastmile_qr_scan", "ios": "https://dc.lft.to/lastmile_qr_scan"}, "fusion_lon": 0.0, "lat": 38.87800883333333, "bike_id": "7f017c1c34ce56c8c7512a107041765e", "type": "electric_scooter", "is_reserved": 0, "lon": -77.00115616666666}, {"fusion_lat": 0.0, "name": "94f9482987cf35f300878a3acb8e34b0", "is_disabled": 0, "rental_uris": {"android": "https://dc.lft.to/lastmile_qr_scan", "ios": "https://dc.lft.to/lastmile_qr_scan"}, "fusion_lon": 0.0, "lat": 38.931020333333336, "bike_id": "94f9482987cf35f300878a3acb8e34b0", "type": "electric_scooter", "is_reserved": 0, "lon": -77.02475416666667}, {"fusion_lat": 0.0, "name": "7ee563cdd96ba9453a847d63487c2492", "is_disabled": 0, "rental_uris": {"android": "https://dc.lft.to/lastmile_qr_scan", "ios": "https://dc.lft.to/lastmile_qr_scan"}, "fusion_lon": 0.0, "lat": 38.8899445, "bike_id": "7ee563cdd96ba9453a847d63487c2492", "type": "electric_scooter", "is_reserved": 0, "lon": -76.982261}, {"fusion_lat": 0.0, "name": "ecc53d5b5482d7e6ea75a668c6308419", "is_disabled": 0, "rental_uris": {"android": "https://dc.lft.to/lastmile_qr_scan", "ios": "https://dc.lft.to/lastmile_qr_scan"}, "fusion_lon": 0.0, "lat": 38.971233166666664, "bike_id": "ecc53d5b5482d7e6ea75a668c6308419", "type": "electric_bike", "is_reserved": 0, "lon": -77.02086233333333}, {"fusion_lat": 0.0, "name": "7ed44b21932ff0c97de1c68e31d67239", "is_disabled": 0, "rental_uris": {"android": "https://dc.lft.to/lastmile_qr_scan", "ios": "https://dc.lft.to/lastmile_qr_scan"}, "fusion_lon": 0.0, "lat": 38.933906, "bike_id": "7ed44b21932ff0c97de1c68e31d67239", "type": "electric_scooter", "is_reserved": 0, "lon": -77.024202}, {"fusion_lat": 0.0, "name": "6206df5e004b9a9d7298c045155ccdc2", "is_disabled": 0, "rental_uris": {"android": "https://dc.lft.to/lastmile_qr_scan", "ios": "https://dc.lft.to/lastmile_qr_scan"}, "fusion_lon": 0.0, "lat": 38.9389715, "bike_id": "6206df5e004b9a9d7298c045155ccdc2", "type": "electric_scooter", "is_reserved": 0, "lon": -77.033273}, {"fusion_lat": 0.0, "name": "aded88a0a1a5ee94494d43a615bc0be1", "is_disabled": 0, "rental_uris": {"android": "https://dc.lft.to/lastmile_qr_scan", "ios": "https://dc.lft.to/lastmile_qr_scan"}, "fusion_lon": 0.0, "lat": 38.90254083333333, "bike_id": "aded88a0a1a5ee94494d43a615bc0be1", "type": "electric_scooter", "is_reserved": 0, "lon": -77.0261095}, {"fusion_lat": 0.0, "name": "a1011562223c3a7ea8a1b22ad8829874", "is_disabled": 0, "rental_uris": {"android": "https://dc.lft.to/lastmile_qr_scan", "ios": "https://dc.lft.to/lastmile_qr_scan"}, "fusion_lon": 0.0, "lat": 38.923220666666666, "bike_id": "a1011562223c3a7ea8a1b22ad8829874", "type": "electric_scooter", "is_reserved": 0, "lon": -77.02793466666667}, {"fusion_lat": 0.0, "name": "287c3a0a8a057939a65d67e9bcd2448b", "is_disabled": 0, "rental_uris": {"android": "https://dc.lft.to/lastmile_qr_scan", "ios": "https://dc.lft.to/lastmile_qr_scan"}, "fusion_lon": 0.0, "lat": 38.928012333333335, "bike_id": "287c3a0a8a057939a65d67e9bcd2448b", "type": "electric_scooter", "is_reserved": 0, "lon": -77.031476}, {"fusion_lat": 0.0, "name": "938236ef0e00db8f1b70bcb527dbb61c", "is_disabled": 0, "rental_uris": {"android": "https://dc.lft.to/lastmile_qr_scan", "ios": "https://dc.lft.to/lastmile_qr_scan"}, "fusion_lon": 0.0, "lat": 38.933692666666666, "bike_id": "938236ef0e00db8f1b70bcb527dbb61c", "type": "electric_scooter", "is_reserved": 0, "lon": -77.02432016666667}, {"fusion_lat": 0.0, "name": "3edea7da20ecaa2973ac5f12e8ac1d65", "is_disabled": 0, "rental_uris": {"android": "https://dc.lft.to/lastmile_qr_scan", "ios": "https://dc.lft.to/lastmile_qr_scan"}, "fusion_lon": 0.0, "lat": 38.92456583333333, "bike_id": "3edea7da20ecaa2973ac5f12e8ac1d65", "type": "electric_scooter", "is_reserved": 0, "lon": -77.03323883333333}, {"fusion_lat": 0.0, "name": "c1b81da4ea6c78ebec1db93b4db30a80", "is_disabled": 0, "rental_uris": {"android": "https://dc.lft.to/lastmile_qr_scan", "ios": "https://dc.lft.to/lastmile_qr_scan"}, "fusion_lon": 0.0, "lat": 38.93533933333333, "bike_id": "c1b81da4ea6c78ebec1db93b4db30a80", "type": "electric_scooter", "is_reserved": 0, "lon": -77.045168}, {"fusion_lat": 0.0, "name": "90dca16ee86a18ddbf2ef4ebdf912f70", "is_disabled": 0, "rental_uris": {"android": "https://dc.lft.to/lastmile_qr_scan", "ios": "https://dc.lft.to/lastmile_qr_scan"}, "fusion_lon": 0.0, "lat": 38.935385833333335, "bike_id": "90dca16ee86a18ddbf2ef4ebdf912f70", "type": "electric_scooter", "is_reserved": 0, "lon": -77.0235265}, {"fusion_lat": 0.0, "name": "889892243b16db4870ad7f3b4e7c21be", "is_disabled": 0, "rental_uris": {"android": "https://dc.lft.to/lastmile_qr_scan", "ios": "https://dc.lft.to/lastmile_qr_scan"}, "fusion_lon": 0.0, "lat": 38.91278116666667, "bike_id": "889892243b16db4870ad7f3b4e7c21be", "type": "electric_scooter", "is_reserved": 0, "lon": -77.04654116666667}, {"fusion_lat": 0.0, "name": "e7e1e19992431a9556a9aafe9dd63508", "is_disabled": 0, "rental_uris": {"android": "https://dc.lft.to/lastmile_qr_scan", "ios": "https://dc.lft.to/lastmile_qr_scan"}, "fusion_lon": 0.0, "lat": 38.890176833333335, "bike_id": "e7e1e19992431a9556a9aafe9dd63508", "type": "electric_scooter", "is_reserved": 0, "lon": -76.937352}, {"fusion_lat": 0.0, "name": "0589f652fde1d576884ee5fb9b08bf02", "is_disabled": 0, "rental_uris": {"android": "https://dc.lft.to/lastmile_qr_scan", "ios": "https://dc.lft.to/lastmile_qr_scan"}, "fusion_lon": 0.0, "lat": 38.98395083333333, "bike_id": "0589f652fde1d576884ee5fb9b08bf02", "type": "electric_scooter", "is_reserved": 0, "lon": -77.02629666666667}, {"fusion_lat": 0.0, "name": "898b1418ebea7e40596806d44d051472", "is_disabled": 0, "rental_uris": {"android": "https://dc.lft.to/lastmile_qr_scan", "ios": "https://dc.lft.to/lastmile_qr_scan"}, "fusion_lon": 0.0, "lat": 38.87714016666666, "bike_id": "898b1418ebea7e40596806d44d051472", "type": "electric_scooter", "is_reserved": 0, "lon": -76.99385216666667}, {"fusion_lat": 0.0, "name": "02d5d7c1d4db0e483988a7290cbd5623", "is_disabled": 0, "rental_uris": {"android": "https://dc.lft.to/lastmile_qr_scan", "ios": "https://dc.lft.to/lastmile_qr_scan"}, "fusion_lon": 0.0, "lat": 38.945234666666664, "bike_id": "02d5d7c1d4db0e483988a7290cbd5623", "type": "electric_scooter", "is_reserved": 0, "lon": -77.02271016666667}, {"fusion_lat": 0.0, "name": "94dc411d88952ae3ef35b6fd306250ad", "is_disabled": 0, "rental_uris": {"android": "https://dc.lft.to/lastmile_qr_scan", "ios": "https://dc.lft.to/lastmile_qr_scan"}, "fusion_lon": 0.0, "lat": 38.91036616666667, "bike_id": "94dc411d88952ae3ef35b6fd306250ad", "type": "electric_scooter", "is_reserved": 0, "lon": -77.03333883333333}, {"fusion_lat": 0.0, "name": "a5e4a732a1d6b912cfa054f937b070fb", "is_disabled": 0, "rental_uris": {"android": "https://dc.lft.to/lastmile_qr_scan", "ios": "https://dc.lft.to/lastmile_qr_scan"}, "fusion_lon": 0.0, "lat": 38.919084166666664, "bike_id": "a5e4a732a1d6b912cfa054f937b070fb", "type": "electric_scooter", "is_reserved": 0, "lon": -77.0121935}, {"fusion_lat": 0.0, "name": "17511bc308054ad92e313b9b886a23ef", "is_disabled": 0, "rental_uris": {"android": "https://dc.lft.to/lastmile_qr_scan", "ios": "https://dc.lft.to/lastmile_qr_scan"}, "fusion_lon": 0.0, "lat": 38.90388216666667, "bike_id": "17511bc308054ad92e313b9b886a23ef", "type": "electric_scooter", "is_reserved": 0, "lon": -77.03204433333333}, {"fusion_lat": 0.0, "name": "e4095a2fb1772f11f4af83e31163d408", "is_disabled": 0, "rental_uris": {"android": "https://dc.lft.to/lastmile_qr_scan", "ios": "https://dc.lft.to/lastmile_qr_scan"}, "fusion_lon": 0.0, "lat": 38.93508633333333, "bike_id": "e4095a2fb1772f11f4af83e31163d408", "type": "electric_scooter", "is_reserved": 0, "lon": -77.07360916666667}, {"fusion_lat": 0.0, "name": "f19e91caa920f63946b813ff536dad31", "is_disabled": 0, "rental_uris": {"android": "https://dc.lft.to/lastmile_qr_scan", "ios": "https://dc.lft.to/lastmile_qr_scan"}, "fusion_lon": 0.0, "lat": 38.903617833333335, "bike_id": "f19e91caa920f63946b813ff536dad31", "type": "electric_scooter", "is_reserved": 0, "lon": -77.03651216666667}, {"fusion_lat": 0.0, "name": "29c1344441a072cc8cd39264584d991f", "is_disabled": 0, "rental_uris": {"android": "https://dc.lft.to/lastmile_qr_scan", "ios": "https://dc.lft.to/lastmile_qr_scan"}, "fusion_lon": 0.0, "lat": 38.87640566666666, "bike_id": "29c1344441a072cc8cd39264584d991f", "type": "electric_scooter", "is_reserved": 0, "lon": -77.016538}, {"fusion_lat": 0.0, "name": "85892d31cbd72a16ff9334a405b19b45", "is_disabled": 0, "rental_uris": {"android": "https://dc.lft.to/lastmile_qr_scan", "ios": "https://dc.lft.to/lastmile_qr_scan"}, "fusion_lon": 0.0, "lat": 38.90566, "bike_id": "85892d31cbd72a16ff9334a405b19b45", "type": "electric_scooter", "is_reserved": 0, "lon": -77.0625765}, {"fusion_lat": 0.0, "name": "70bc94212a2a81416098b91baa3b2ef5", "is_disabled": 0, "rental_uris": {"android": "https://dc.lft.to/lastmile_qr_scan", "ios": "https://dc.lft.to/lastmile_qr_scan"}, "fusion_lon": 0.0, "lat": 38.8872735, "bike_id": "70bc94212a2a81416098b91baa3b2ef5", "type": "electric_scooter", "is_reserved": 0, "lon": -76.98356483333333}, {"fusion_lat": 0.0, "name": "cd70e6f2a0d012d26b24f258a12470e8", "is_disabled": 0, "rental_uris": {"android": "https://dc.lft.to/lastmile_qr_scan", "ios": "https://dc.lft.to/lastmile_qr_scan"}, "fusion_lon": 0.0, "lat": 38.8845635, "bike_id": "cd70e6f2a0d012d26b24f258a12470e8", "type": "electric_scooter", "is_reserved": 0, "lon": -77.02454983333334}, {"fusion_lat": 0.0, "name": "a9e0e63a63c0e652d5385d0b7f9b40f5", "is_disabled": 0, "rental_uris": {"android": "https://dc.lft.to/lastmile_qr_scan", "ios": "https://dc.lft.to/lastmile_qr_scan"}, "fusion_lon": 0.0, "lat": 38.83232366666667, "bike_id": "a9e0e63a63c0e652d5385d0b7f9b40f5", "type": "electric_bike", "is_reserved": 0, "lon": -76.94621783333334}, {"fusion_lat": 0.0, "name": "d44c33467c181abf9c52108ac5ee8e13", "is_disabled": 0, "rental_uris": {"android": "https://dc.lft.to/lastmile_qr_scan", "ios": "https://dc.lft.to/lastmile_qr_scan"}, "fusion_lon": 0.0, "lat": 38.92256583333333, "bike_id": "d44c33467c181abf9c52108ac5ee8e13", "type": "electric_scooter", "is_reserved": 0, "lon": -77.05079316666667}, {"fusion_lat": 0.0, "name": "32115e3625d3d1f2fc1a9b5e3bbe7e6f", "is_disabled": 0, "rental_uris": {"android": "https://dc.lft.to/lastmile_qr_scan", "ios": "https://dc.lft.to/lastmile_qr_scan"}, "fusion_lon": 0.0, "lat": 38.925455666666664, "bike_id": "32115e3625d3d1f2fc1a9b5e3bbe7e6f", "type": "electric_scooter", "is_reserved": 0, "lon": -77.0512235}, {"fusion_lat": 0.0, "name": "9e69fc078b829ef63816d0a756c572b3", "is_disabled": 0, "rental_uris": {"android": "https://dc.lft.to/lastmile_qr_scan", "ios": "https://dc.lft.to/lastmile_qr_scan"}, "fusion_lon": 0.0, "lat": 38.88757733333333, "bike_id": "9e69fc078b829ef63816d0a756c572b3", "type": "electric_scooter", "is_reserved": 0, "lon": -77.00255083333333}, {"fusion_lat": 0.0, "name": "b35a8f45d77e8309471967514d70401b", "is_disabled": 0, "rental_uris": {"android": "https://dc.lft.to/lastmile_qr_scan", "ios": "https://dc.lft.to/lastmile_qr_scan"}, "fusion_lon": 0.0, "lat": 38.9290755, "bike_id": "b35a8f45d77e8309471967514d70401b", "type": "electric_scooter", "is_reserved": 0, "lon": -77.0545705}, {"fusion_lat": 0.0, "name": "8e549a6b379782b16f30e138c6280fa7", "is_disabled": 0, "rental_uris": {"android": "https://dc.lft.to/lastmile_qr_scan", "ios": "https://dc.lft.to/lastmile_qr_scan"}, "fusion_lon": 0.0, "lat": 38.841388, "bike_id": "8e549a6b379782b16f30e138c6280fa7", "type": "electric_bike", "is_reserved": 0, "lon": -76.94763366666666}, {"fusion_lat": 0.0, "name": "afcfd726d5be4f53642f81f57353c33d", "is_disabled": 0, "rental_uris": {"android": "https://dc.lft.to/lastmile_qr_scan", "ios": "https://dc.lft.to/lastmile_qr_scan"}, "fusion_lon": 0.0, "lat": 38.910233166666664, "bike_id": "afcfd726d5be4f53642f81f57353c33d", "type": "electric_scooter", "is_reserved": 0, "lon": -77.0385915}, {"fusion_lat": 0.0, "name": "5c31c3b7c08a2aab0dad9dd52f9080f9", "is_disabled": 0, "rental_uris": {"android": "https://dc.lft.to/lastmile_qr_scan", "ios": "https://dc.lft.to/lastmile_qr_scan"}, "fusion_lon": 0.0, "lat": 38.9244125, "bike_id": "5c31c3b7c08a2aab0dad9dd52f9080f9", "type": "electric_scooter", "is_reserved": 0, "lon": -77.00061483333333}, {"fusion_lat": 0.0, "name": "7ef416f4eb04458c5da9499717cb61ec", "is_disabled": 0, "rental_uris": {"android": "https://dc.lft.to/lastmile_qr_scan", "ios": "https://dc.lft.to/lastmile_qr_scan"}, "fusion_lon": 0.0, "lat": 38.931871666666666, "bike_id": "7ef416f4eb04458c5da9499717cb61ec", "type": "electric_scooter", "is_reserved": 0, "lon": -77.04294266666666}, {"fusion_lat": 0.0, "name": "fa0b39a15ee0474cf8cba84f5f551ede", "is_disabled": 0, "rental_uris": {"android": "https://dc.lft.to/lastmile_qr_scan", "ios": "https://dc.lft.to/lastmile_qr_scan"}, "fusion_lon": 0.0, "lat": 38.78177683333333, "bike_id": "fa0b39a15ee0474cf8cba84f5f551ede", "type": "electric_bike", "is_reserved": 0, "lon": -77.0143825}, {"fusion_lat": 0.0, "name": "39d1de255d27976be3840039f0cff7ca", "is_disabled": 0, "rental_uris": {"android": "https://dc.lft.to/lastmile_qr_scan", "ios": "https://dc.lft.to/lastmile_qr_scan"}, "fusion_lon": 0.0, "lat": 38.92961183333333, "bike_id": "39d1de255d27976be3840039f0cff7ca", "type": "electric_scooter", "is_reserved": 0, "lon": -76.99173366666666}, {"fusion_lat": 0.0, "name": "3554f1f47c893e0e23a93fe43b56d6a9", "is_disabled": 0, "rental_uris": {"android": "https://dc.lft.to/lastmile_qr_scan", "ios": "https://dc.lft.to/lastmile_qr_scan"}, "fusion_lon": 0.0, "lat": 38.90868733333333, "bike_id": "3554f1f47c893e0e23a93fe43b56d6a9", "type": "electric_scooter", "is_reserved": 0, "lon": -77.04868283333333}, {"fusion_lat": 0.0, "name": "078a9ace145b54c8626d28ebcd5de622", "is_disabled": 0, "rental_uris": {"android": "https://dc.lft.to/lastmile_qr_scan", "ios": "https://dc.lft.to/lastmile_qr_scan"}, "fusion_lon": 0.0, "lat": 38.93963083333333, "bike_id": "078a9ace145b54c8626d28ebcd5de622", "type": "electric_scooter", "is_reserved": 0, "lon": -77.032936}, {"fusion_lat": 0.0, "name": "17c62bf9de24a5561c549e64a24517bb", "is_disabled": 0, "rental_uris": {"android": "https://dc.lft.to/lastmile_qr_scan", "ios": "https://dc.lft.to/lastmile_qr_scan"}, "fusion_lon": 0.0, "lat": 38.931697666666665, "bike_id": "17c62bf9de24a5561c549e64a24517bb", "type": "electric_scooter", "is_reserved": 0, "lon": -77.037826}, {"fusion_lat": 0.0, "name": "45f485dec5cd3db5836ff774a333a102", "is_disabled": 0, "rental_uris": {"android": "https://dc.lft.to/lastmile_qr_scan", "ios": "https://dc.lft.to/lastmile_qr_scan"}, "fusion_lon": 0.0, "lat": 38.929131, "bike_id": "45f485dec5cd3db5836ff774a333a102", "type": "electric_scooter", "is_reserved": 0, "lon": -77.02144666666666}, {"fusion_lat": 0.0, "name": "076d53389d74fa54773b09127c50cf6a", "is_disabled": 0, "rental_uris": {"android": "https://dc.lft.to/lastmile_qr_scan", "ios": "https://dc.lft.to/lastmile_qr_scan"}, "fusion_lon": 0.0, "lat": 38.885212833333334, "bike_id": "076d53389d74fa54773b09127c50cf6a", "type": "electric_scooter", "is_reserved": 0, "lon": -76.99778116666667}, {"fusion_lat": 0.0, "name": "c372087488e9bf8b15f1d066a1a87ada", "is_disabled": 0, "rental_uris": {"android": "https://dc.lft.to/lastmile_qr_scan", "ios": "https://dc.lft.to/lastmile_qr_scan"}, "fusion_lon": 0.0, "lat": 38.906606, "bike_id": "c372087488e9bf8b15f1d066a1a87ada", "type": "electric_scooter", "is_reserved": 0, "lon": -77.03855833333333}, {"fusion_lat": 0.0, "name": "66cc9478b08008aad693310134a57628", "is_disabled": 0, "rental_uris": {"android": "https://dc.lft.to/lastmile_qr_scan", "ios": "https://dc.lft.to/lastmile_qr_scan"}, "fusion_lon": 0.0, "lat": 38.9104605, "bike_id": "66cc9478b08008aad693310134a57628", "type": "electric_scooter", "is_reserved": 0, "lon": -77.039469}, {"fusion_lat": 0.0, "name": "50523d84390e75affad8496113e633e5", "is_disabled": 0, "rental_uris": {"android": "https://dc.lft.to/lastmile_qr_scan", "ios": "https://dc.lft.to/lastmile_qr_scan"}, "fusion_lon": 0.0, "lat": 38.900315, "bike_id": "50523d84390e75affad8496113e633e5", "type": "electric_scooter", "is_reserved": 0, "lon": -76.984572}, {"fusion_lat": 0.0, "name": "42bfbcb20ce43c2d84bfed5efa08333c", "is_disabled": 0, "rental_uris": {"android": "https://dc.lft.to/lastmile_qr_scan", "ios": "https://dc.lft.to/lastmile_qr_scan"}, "fusion_lon": 0.0, "lat": 38.9226055, "bike_id": "42bfbcb20ce43c2d84bfed5efa08333c", "type": "electric_scooter", "is_reserved": 0, "lon": -77.009157}, {"fusion_lat": 0.0, "name": "df81279daee62f76f91d349cf412e65a", "is_disabled": 0, "rental_uris": {"android": "https://dc.lft.to/lastmile_qr_scan", "ios": "https://dc.lft.to/lastmile_qr_scan"}, "fusion_lon": 0.0, "lat": 38.9004645, "bike_id": "df81279daee62f76f91d349cf412e65a", "type": "electric_scooter", "is_reserved": 0, "lon": -77.03528333333334}, {"fusion_lat": 0.0, "name": "da79185a7b52aacc13193a004734adf2", "is_disabled": 0, "rental_uris": {"android": "https://dc.lft.to/lastmile_qr_scan", "ios": "https://dc.lft.to/lastmile_qr_scan"}, "fusion_lon": 0.0, "lat": 38.831601, "bike_id": "da79185a7b52aacc13193a004734adf2", "type": "electric_bike", "is_reserved": 0, "lon": -76.99576133333333}, {"fusion_lat": 0.0, "name": "606935c36dd1884aeb005b9f5487ceea", "is_disabled": 0, "rental_uris": {"android": "https://dc.lft.to/lastmile_qr_scan", "ios": "https://dc.lft.to/lastmile_qr_scan"}, "fusion_lon": 0.0, "lat": 38.89702416666667, "bike_id": "606935c36dd1884aeb005b9f5487ceea", "type": "electric_scooter", "is_reserved": 0, "lon": -77.04340333333333}, {"fusion_lat": 0.0, "name": "ae4a1a55d2b13e782a991a16f4553891", "is_disabled": 0, "rental_uris": {"android": "https://dc.lft.to/lastmile_qr_scan", "ios": "https://dc.lft.to/lastmile_qr_scan"}, "fusion_lon": 0.0, "lat": 38.9143925, "bike_id": "ae4a1a55d2b13e782a991a16f4553891", "type": "electric_scooter", "is_reserved": 0, "lon": -76.9935555}, {"fusion_lat": 0.0, "name": "2b565e091f284607cb1a98439fb5e53f", "is_disabled": 0, "rental_uris": {"android": "https://dc.lft.to/lastmile_qr_scan", "ios": "https://dc.lft.to/lastmile_qr_scan"}, "fusion_lon": 0.0, "lat": 38.8851155, "bike_id": "2b565e091f284607cb1a98439fb5e53f", "type": "electric_scooter", "is_reserved": 0, "lon": -77.01117216666667}, {"fusion_lat": 0.0, "name": "274703d4a718eca43a2ece0276fb2b1b", "is_disabled": 0, "rental_uris": {"android": "https://dc.lft.to/lastmile_qr_scan", "ios": "https://dc.lft.to/lastmile_qr_scan"}, "fusion_lon": 0.0, "lat": 38.91912966666666, "bike_id": "274703d4a718eca43a2ece0276fb2b1b", "type": "electric_scooter", "is_reserved": 0, "lon": -77.03462916666666}, {"fusion_lat": 0.0, "name": "2f4ec6addbb9f6399fceedfe8d8b9094", "is_disabled": 0, "rental_uris": {"android": "https://dc.lft.to/lastmile_qr_scan", "ios": "https://dc.lft.to/lastmile_qr_scan"}, "fusion_lon": 0.0, "lat": 38.9140995, "bike_id": "2f4ec6addbb9f6399fceedfe8d8b9094", "type": "electric_scooter", "is_reserved": 0, "lon": -77.04568483333334}, {"fusion_lat": 0.0, "name": "598ce85f25af53564132a0f8c5d905d6", "is_disabled": 0, "rental_uris": {"android": "https://dc.lft.to/lastmile_qr_scan", "ios": "https://dc.lft.to/lastmile_qr_scan"}, "fusion_lon": 0.0, "lat": 38.91192, "bike_id": "598ce85f25af53564132a0f8c5d905d6", "type": "electric_scooter", "is_reserved": 0, "lon": -77.04551933333333}, {"fusion_lat": 0.0, "name": "b807964be3165af72aff9e21edbbe4c3", "is_disabled": 0, "rental_uris": {"android": "https://dc.lft.to/lastmile_qr_scan", "ios": "https://dc.lft.to/lastmile_qr_scan"}, "fusion_lon": 0.0, "lat": 38.961301166666665, "bike_id": "b807964be3165af72aff9e21edbbe4c3", "type": "electric_bike", "is_reserved": 0, "lon": -77.08483533333333}, {"fusion_lat": 0.0, "name": "720bbafacd1baef412dbecf3a89a3d04", "is_disabled": 0, "rental_uris": {"android": "https://dc.lft.to/lastmile_qr_scan", "ios": "https://dc.lft.to/lastmile_qr_scan"}, "fusion_lon": 0.0, "lat": 38.922641, "bike_id": "720bbafacd1baef412dbecf3a89a3d04", "type": "electric_scooter", "is_reserved": 0, "lon": -77.07478816666666}, {"fusion_lat": 0.0, "name": "fe93d8f0081c48251ff0e9d233b4e19f", "is_disabled": 0, "rental_uris": {"android": "https://dc.lft.to/lastmile_qr_scan", "ios": "https://dc.lft.to/lastmile_qr_scan"}, "fusion_lon": 0.0, "lat": 38.9302695, "bike_id": "fe93d8f0081c48251ff0e9d233b4e19f", "type": "electric_scooter", "is_reserved": 0, "lon": -77.0379065}, {"fusion_lat": 0.0, "name": "c516243b8d0df0c33ada9049452cafdf", "is_disabled": 0, "rental_uris": {"android": "https://dc.lft.to/lastmile_qr_scan", "ios": "https://dc.lft.to/lastmile_qr_scan"}, "fusion_lon": 0.0, "lat": 38.9194495, "bike_id": "c516243b8d0df0c33ada9049452cafdf", "type": "electric_scooter", "is_reserved": 0, "lon": -77.02491966666666}, {"fusion_lat": 0.0, "name": "ba5bed781c0a6ff667ecc83c16a230b3", "is_disabled": 0, "rental_uris": {"android": "https://dc.lft.to/lastmile_qr_scan", "ios": "https://dc.lft.to/lastmile_qr_scan"}, "fusion_lon": 0.0, "lat": 38.917487666666666, "bike_id": "ba5bed781c0a6ff667ecc83c16a230b3", "type": "electric_bike", "is_reserved": 0, "lon": -77.03517633333334}, {"fusion_lat": 0.0, "name": "33df92536b105be187d31bf099046551", "is_disabled": 0, "rental_uris": {"android": "https://dc.lft.to/lastmile_qr_scan", "ios": "https://dc.lft.to/lastmile_qr_scan"}, "fusion_lon": 0.0, "lat": 38.9178525, "bike_id": "33df92536b105be187d31bf099046551", "type": "electric_scooter", "is_reserved": 0, "lon": -77.02395266666667}, {"fusion_lat": 0.0, "name": "143e4596a92cc3999440b4b0056ab73f", "is_disabled": 0, "rental_uris": {"android": "https://dc.lft.to/lastmile_qr_scan", "ios": "https://dc.lft.to/lastmile_qr_scan"}, "fusion_lon": 0.0, "lat": 38.8662605, "bike_id": "143e4596a92cc3999440b4b0056ab73f", "type": "electric_bike", "is_reserved": 0, "lon": -76.94570483333334}, {"fusion_lat": 0.0, "name": "b0b5f57e668cfc866f77b225e1e5b24b", "is_disabled": 0, "rental_uris": {"android": "https://dc.lft.to/lastmile_qr_scan", "ios": "https://dc.lft.to/lastmile_qr_scan"}, "fusion_lon": 0.0, "lat": 38.90420366666667, "bike_id": "b0b5f57e668cfc866f77b225e1e5b24b", "type": "electric_scooter", "is_reserved": 0, "lon": -77.03522466666666}, {"fusion_lat": 0.0, "name": "9c69eecfd30cd8cf84fe79e2137b811d", "is_disabled": 0, "rental_uris": {"android": "https://dc.lft.to/lastmile_qr_scan", "ios": "https://dc.lft.to/lastmile_qr_scan"}, "fusion_lon": 0.0, "lat": 38.907225333333336, "bike_id": "9c69eecfd30cd8cf84fe79e2137b811d", "type": "electric_scooter", "is_reserved": 0, "lon": -77.05048716666667}, {"fusion_lat": 0.0, "name": "a681a7a028f6e8ed90de764cadb40710", "is_disabled": 0, "rental_uris": {"android": "https://dc.lft.to/lastmile_qr_scan", "ios": "https://dc.lft.to/lastmile_qr_scan"}, "fusion_lon": 0.0, "lat": 38.9245945, "bike_id": "a681a7a028f6e8ed90de764cadb40710", "type": "electric_scooter", "is_reserved": 0, "lon": -76.99911233333333}, {"fusion_lat": 0.0, "name": "3b22880ec44b295c9b4a9d7b1039b5a6", "is_disabled": 0, "rental_uris": {"android": "https://dc.lft.to/lastmile_qr_scan", "ios": "https://dc.lft.to/lastmile_qr_scan"}, "fusion_lon": 0.0, "lat": 38.89223283333333, "bike_id": "3b22880ec44b295c9b4a9d7b1039b5a6", "type": "electric_scooter", "is_reserved": 0, "lon": -77.0236585}, {"fusion_lat": 0.0, "name": "811ff9641d15e7a51e8337c44fb43ccb", "is_disabled": 0, "rental_uris": {"android": "https://dc.lft.to/lastmile_qr_scan", "ios": "https://dc.lft.to/lastmile_qr_scan"}, "fusion_lon": 0.0, "lat": 38.91814216666667, "bike_id": "811ff9641d15e7a51e8337c44fb43ccb", "type": "electric_scooter", "is_reserved": 0, "lon": -77.00378366666666}, {"fusion_lat": 0.0, "name": "7bd72eaa7134ab67dd193f6a243557e3", "is_disabled": 0, "rental_uris": {"android": "https://dc.lft.to/lastmile_qr_scan", "ios": "https://dc.lft.to/lastmile_qr_scan"}, "fusion_lon": 0.0, "lat": 38.928726166666664, "bike_id": "7bd72eaa7134ab67dd193f6a243557e3", "type": "electric_scooter", "is_reserved": 0, "lon": -77.0564915}, {"fusion_lat": 0.0, "name": "c80a3d0a17d2815fc069da199ef8ab76", "is_disabled": 0, "rental_uris": {"android": "https://dc.lft.to/lastmile_qr_scan", "ios": "https://dc.lft.to/lastmile_qr_scan"}, "fusion_lon": 0.0, "lat": 38.91407816666667, "bike_id": "c80a3d0a17d2815fc069da199ef8ab76", "type": "electric_scooter", "is_reserved": 0, "lon": -77.03221316666666}, {"fusion_lat": 0.0, "name": "a7ea4717c0a62c4059342b2eec487bc8", "is_disabled": 0, "rental_uris": {"android": "https://dc.lft.to/lastmile_qr_scan", "ios": "https://dc.lft.to/lastmile_qr_scan"}, "fusion_lon": 0.0, "lat": 38.80672366666667, "bike_id": "a7ea4717c0a62c4059342b2eec487bc8", "type": "electric_bike", "is_reserved": 0, "lon": -77.0691855}, {"fusion_lat": 0.0, "name": "173ed39c323d1d5df8020f3374f6c8cf", "is_disabled": 0, "rental_uris": {"android": "https://dc.lft.to/lastmile_qr_scan", "ios": "https://dc.lft.to/lastmile_qr_scan"}, "fusion_lon": 0.0, "lat": 38.88453416666667, "bike_id": "173ed39c323d1d5df8020f3374f6c8cf", "type": "electric_scooter", "is_reserved": 0, "lon": -76.99388816666666}, {"fusion_lat": 0.0, "name": "e96562c0e0988770840490c14d5c1de0", "is_disabled": 0, "rental_uris": {"android": "https://dc.lft.to/lastmile_qr_scan", "ios": "https://dc.lft.to/lastmile_qr_scan"}, "fusion_lon": 0.0, "lat": 38.9112075, "bike_id": "e96562c0e0988770840490c14d5c1de0", "type": "electric_scooter", "is_reserved": 0, "lon": -77.020809}, {"fusion_lat": 0.0, "name": "f112deb5278f50ce58e9c0d7070a1236", "is_disabled": 0, "rental_uris": {"android": "https://dc.lft.to/lastmile_qr_scan", "ios": "https://dc.lft.to/lastmile_qr_scan"}, "fusion_lon": 0.0, "lat": 38.9087465, "bike_id": "f112deb5278f50ce58e9c0d7070a1236", "type": "electric_scooter", "is_reserved": 0, "lon": -77.04736733333333}, {"fusion_lat": 0.0, "name": "9b7096e6c4f01b330c6d53a2a9a85462", "is_disabled": 0, "rental_uris": {"android": "https://dc.lft.to/lastmile_qr_scan", "ios": "https://dc.lft.to/lastmile_qr_scan"}, "fusion_lon": 0.0, "lat": 38.906510833333336, "bike_id": "9b7096e6c4f01b330c6d53a2a9a85462", "type": "electric_scooter", "is_reserved": 0, "lon": -77.04279933333333}, {"fusion_lat": 0.0, "name": "e54e1c7c2d41d2940f53aee326f159b8", "is_disabled": 0, "rental_uris": {"android": "https://dc.lft.to/lastmile_qr_scan", "ios": "https://dc.lft.to/lastmile_qr_scan"}, "fusion_lon": 0.0, "lat": 38.920828666666665, "bike_id": "e54e1c7c2d41d2940f53aee326f159b8", "type": "electric_scooter", "is_reserved": 0, "lon": -77.024062}, {"fusion_lat": 0.0, "name": "8bf65399a7383088a4dcb2a6518bcc40", "is_disabled": 0, "rental_uris": {"android": "https://dc.lft.to/lastmile_qr_scan", "ios": "https://dc.lft.to/lastmile_qr_scan"}, "fusion_lon": 0.0, "lat": 38.949123, "bike_id": "8bf65399a7383088a4dcb2a6518bcc40", "type": "electric_bike", "is_reserved": 0, "lon": -77.0380505}, {"fusion_lat": 0.0, "name": "1cef9d656b731e2db618ece8d3bcd668", "is_disabled": 0, "rental_uris": {"android": "https://dc.lft.to/lastmile_qr_scan", "ios": "https://dc.lft.to/lastmile_qr_scan"}, "fusion_lon": 0.0, "lat": 38.898767, "bike_id": "1cef9d656b731e2db618ece8d3bcd668", "type": "electric_scooter", "is_reserved": 0, "lon": -76.94634083333334}, {"fusion_lat": 0.0, "name": "cf775f2eac3e235b607000c2edb169c7", "is_disabled": 0, "rental_uris": {"android": "https://dc.lft.to/lastmile_qr_scan", "ios": "https://dc.lft.to/lastmile_qr_scan"}, "fusion_lon": 0.0, "lat": 38.89730566666667, "bike_id": "cf775f2eac3e235b607000c2edb169c7", "type": "electric_scooter", "is_reserved": 0, "lon": -76.9469945}, {"fusion_lat": 0.0, "name": "e79cc090e82b122ecc57710277144890", "is_disabled": 0, "rental_uris": {"android": "https://dc.lft.to/lastmile_qr_scan", "ios": "https://dc.lft.to/lastmile_qr_scan"}, "fusion_lon": 0.0, "lat": 38.960754333333334, "bike_id": "e79cc090e82b122ecc57710277144890", "type": "electric_scooter", "is_reserved": 0, "lon": -77.00097083333333}, {"fusion_lat": 0.0, "name": "c3e63394713bcbfba763805816d42380", "is_disabled": 0, "rental_uris": {"android": "https://dc.lft.to/lastmile_qr_scan", "ios": "https://dc.lft.to/lastmile_qr_scan"}, "fusion_lon": 0.0, "lat": 38.905017666666666, "bike_id": "c3e63394713bcbfba763805816d42380", "type": "electric_scooter", "is_reserved": 0, "lon": -77.02948283333333}, {"fusion_lat": 0.0, "name": "a7d0b5269438905015cf23da812e3aa9", "is_disabled": 0, "rental_uris": {"android": "https://dc.lft.to/lastmile_qr_scan", "ios": "https://dc.lft.to/lastmile_qr_scan"}, "fusion_lon": 0.0, "lat": 38.91036483333333, "bike_id": "a7d0b5269438905015cf23da812e3aa9", "type": "electric_scooter", "is_reserved": 0, "lon": -77.01287416666666}, {"fusion_lat": 0.0, "name": "75f1d090d2ae7495991af3057aa3ba13", "is_disabled": 0, "rental_uris": {"android": "https://dc.lft.to/lastmile_qr_scan", "ios": "https://dc.lft.to/lastmile_qr_scan"}, "fusion_lon": 0.0, "lat": 38.90454833333333, "bike_id": "75f1d090d2ae7495991af3057aa3ba13", "type": "electric_bike", "is_reserved": 0, "lon": -76.9742645}, {"fusion_lat": 0.0, "name": "30642bc66c5aa65a4f6735794756a435", "is_disabled": 0, "rental_uris": {"android": "https://dc.lft.to/lastmile_qr_scan", "ios": "https://dc.lft.to/lastmile_qr_scan"}, "fusion_lon": 0.0, "lat": 38.85569566666667, "bike_id": "30642bc66c5aa65a4f6735794756a435", "type": "electric_bike", "is_reserved": 0, "lon": -77.113156}, {"fusion_lat": 0.0, "name": "9c1a6436091e219ce2ea2d19894c2ad1", "is_disabled": 0, "rental_uris": {"android": "https://dc.lft.to/lastmile_qr_scan", "ios": "https://dc.lft.to/lastmile_qr_scan"}, "fusion_lon": 0.0, "lat": 38.93512966666667, "bike_id": "9c1a6436091e219ce2ea2d19894c2ad1", "type": "electric_scooter", "is_reserved": 0, "lon": -77.024208}, {"fusion_lat": 0.0, "name": "cb09aa14691febb1b1c8658acba238b2", "is_disabled": 0, "rental_uris": {"android": "https://dc.lft.to/lastmile_qr_scan", "ios": "https://dc.lft.to/lastmile_qr_scan"}, "fusion_lon": 0.0, "lat": 38.91626133333333, "bike_id": "cb09aa14691febb1b1c8658acba238b2", "type": "electric_scooter", "is_reserved": 0, "lon": -77.0385345}, {"fusion_lat": 0.0, "name": "a4003ed42c7b4c9a5165f27a515febe9", "is_disabled": 0, "rental_uris": {"android": "https://dc.lft.to/lastmile_qr_scan", "ios": "https://dc.lft.to/lastmile_qr_scan"}, "fusion_lon": 0.0, "lat": 38.92575466666667, "bike_id": "a4003ed42c7b4c9a5165f27a515febe9", "type": "electric_scooter", "is_reserved": 0, "lon": -77.0374785}, {"fusion_lat": 0.0, "name": "013524302f181cb11b88e8edfdb09e07", "is_disabled": 0, "rental_uris": {"android": "https://dc.lft.to/lastmile_qr_scan", "ios": "https://dc.lft.to/lastmile_qr_scan"}, "fusion_lon": 0.0, "lat": 38.90037783333333, "bike_id": "013524302f181cb11b88e8edfdb09e07", "type": "electric_scooter", "is_reserved": 0, "lon": -77.05827233333333}, {"fusion_lat": 0.0, "name": "db95dd10fc4c8b28fb47d9b60bed4188", "is_disabled": 0, "rental_uris": {"android": "https://dc.lft.to/lastmile_qr_scan", "ios": "https://dc.lft.to/lastmile_qr_scan"}, "fusion_lon": 0.0, "lat": 38.9067705, "bike_id": "db95dd10fc4c8b28fb47d9b60bed4188", "type": "electric_scooter", "is_reserved": 0, "lon": -77.07009283333333}, {"fusion_lat": 0.0, "name": "0df4d58b8e8a423057d75676077016b6", "is_disabled": 0, "rental_uris": {"android": "https://dc.lft.to/lastmile_qr_scan", "ios": "https://dc.lft.to/lastmile_qr_scan"}, "fusion_lon": 0.0, "lat": 38.89916616666667, "bike_id": "0df4d58b8e8a423057d75676077016b6", "type": "electric_scooter", "is_reserved": 0, "lon": -76.93348516666667}, {"fusion_lat": 0.0, "name": "047fd1380329a8943561050a430a0377", "is_disabled": 0, "rental_uris": {"android": "https://dc.lft.to/lastmile_qr_scan", "ios": "https://dc.lft.to/lastmile_qr_scan"}, "fusion_lon": 0.0, "lat": 38.934223, "bike_id": "047fd1380329a8943561050a430a0377", "type": "electric_scooter", "is_reserved": 0, "lon": -77.041525}, {"fusion_lat": 0.0, "name": "0fa7baafa99a49cd1327fcb57b81ef9b", "is_disabled": 0, "rental_uris": {"android": "https://dc.lft.to/lastmile_qr_scan", "ios": "https://dc.lft.to/lastmile_qr_scan"}, "fusion_lon": 0.0, "lat": 38.92544383333333, "bike_id": "0fa7baafa99a49cd1327fcb57b81ef9b", "type": "electric_scooter", "is_reserved": 0, "lon": -77.0383185}, {"fusion_lat": 0.0, "name": "024842602f03ad05a02a37534f68c7ef", "is_disabled": 0, "rental_uris": {"android": "https://dc.lft.to/lastmile_qr_scan", "ios": "https://dc.lft.to/lastmile_qr_scan"}, "fusion_lon": 0.0, "lat": 38.93883666666667, "bike_id": "024842602f03ad05a02a37534f68c7ef", "type": "electric_scooter", "is_reserved": 0, "lon": -77.02467416666667}, {"fusion_lat": 0.0, "name": "a32a4519b88b3e8775fa5732a40f7a01", "is_disabled": 0, "rental_uris": {"android": "https://dc.lft.to/lastmile_qr_scan", "ios": "https://dc.lft.to/lastmile_qr_scan"}, "fusion_lon": 0.0, "lat": 38.897952833333335, "bike_id": "a32a4519b88b3e8775fa5732a40f7a01", "type": "electric_scooter", "is_reserved": 0, "lon": -77.01189433333333}, {"fusion_lat": 0.0, "name": "2a0c09031564bac4179768b834981105", "is_disabled": 0, "rental_uris": {"android": "https://dc.lft.to/lastmile_qr_scan", "ios": "https://dc.lft.to/lastmile_qr_scan"}, "fusion_lon": 0.0, "lat": 38.928948, "bike_id": "2a0c09031564bac4179768b834981105", "type": "electric_bike", "is_reserved": 0, "lon": -77.2317955}, {"fusion_lat": 0.0, "name": "ae417cbd60c56d0983060068813cd7df", "is_disabled": 0, "rental_uris": {"android": "https://dc.lft.to/lastmile_qr_scan", "ios": "https://dc.lft.to/lastmile_qr_scan"}, "fusion_lon": 0.0, "lat": 38.9008295, "bike_id": "ae417cbd60c56d0983060068813cd7df", "type": "electric_scooter", "is_reserved": 0, "lon": -76.983398}, {"fusion_lat": 0.0, "name": "22fb729c2415cbf80941f5d82c59469d", "is_disabled": 0, "rental_uris": {"android": "https://dc.lft.to/lastmile_qr_scan", "ios": "https://dc.lft.to/lastmile_qr_scan"}, "fusion_lon": 0.0, "lat": 38.9104305, "bike_id": "22fb729c2415cbf80941f5d82c59469d", "type": "electric_scooter", "is_reserved": 0, "lon": -77.00829366666666}, {"fusion_lat": 0.0, "name": "4e05463ea71eb60d7141824c2b5d24d1", "is_disabled": 0, "rental_uris": {"android": "https://dc.lft.to/lastmile_qr_scan", "ios": "https://dc.lft.to/lastmile_qr_scan"}, "fusion_lon": 0.0, "lat": 38.952849666666665, "bike_id": "4e05463ea71eb60d7141824c2b5d24d1", "type": "electric_scooter", "is_reserved": 0, "lon": -77.0689155}, {"fusion_lat": 0.0, "name": "0159c5eba004b23f0232d99030b822e5", "is_disabled": 0, "rental_uris": {"android": "https://dc.lft.to/lastmile_qr_scan", "ios": "https://dc.lft.to/lastmile_qr_scan"}, "fusion_lon": 0.0, "lat": 38.936363666666665, "bike_id": "0159c5eba004b23f0232d99030b822e5", "type": "electric_scooter", "is_reserved": 0, "lon": -77.036635}, {"fusion_lat": 0.0, "name": "50ed0c70eaab3134e6e861e3b0395283", "is_disabled": 0, "rental_uris": {"android": "https://dc.lft.to/lastmile_qr_scan", "ios": "https://dc.lft.to/lastmile_qr_scan"}, "fusion_lon": 0.0, "lat": 38.94882116666667, "bike_id": "50ed0c70eaab3134e6e861e3b0395283", "type": "electric_scooter", "is_reserved": 0, "lon": -77.02691966666667}, {"fusion_lat": 0.0, "name": "30aab4984bf72962aa5e7ea16d1a0228", "is_disabled": 0, "rental_uris": {"android": "https://dc.lft.to/lastmile_qr_scan", "ios": "https://dc.lft.to/lastmile_qr_scan"}, "fusion_lon": 0.0, "lat": 38.925612666666666, "bike_id": "30aab4984bf72962aa5e7ea16d1a0228", "type": "electric_scooter", "is_reserved": 0, "lon": -77.07761933333333}, {"fusion_lat": 0.0, "name": "6f731a8bea7508a5ac22b27fcc3a2c3b", "is_disabled": 0, "rental_uris": {"android": "https://dc.lft.to/lastmile_qr_scan", "ios": "https://dc.lft.to/lastmile_qr_scan"}, "fusion_lon": 0.0, "lat": 38.927932, "bike_id": "6f731a8bea7508a5ac22b27fcc3a2c3b", "type": "electric_scooter", "is_reserved": 0, "lon": -77.032167}, {"fusion_lat": 0.0, "name": "750ada88381aa1e37de2faf9c242e231", "is_disabled": 0, "rental_uris": {"android": "https://dc.lft.to/lastmile_qr_scan", "ios": "https://dc.lft.to/lastmile_qr_scan"}, "fusion_lon": 0.0, "lat": 38.948903, "bike_id": "750ada88381aa1e37de2faf9c242e231", "type": "electric_bike", "is_reserved": 0, "lon": -76.96376866666667}, {"fusion_lat": 0.0, "name": "6ba43af046548e9805f93f322dc1d6ea", "is_disabled": 0, "rental_uris": {"android": "https://dc.lft.to/lastmile_qr_scan", "ios": "https://dc.lft.to/lastmile_qr_scan"}, "fusion_lon": 0.0, "lat": 38.9112, "bike_id": "6ba43af046548e9805f93f322dc1d6ea", "type": "electric_scooter", "is_reserved": 0, "lon": -76.99763116666666}, {"fusion_lat": 0.0, "name": "f0f38424cebb25a0f0bf8fa961e5eadf", "is_disabled": 0, "rental_uris": {"android": "https://dc.lft.to/lastmile_qr_scan", "ios": "https://dc.lft.to/lastmile_qr_scan"}, "fusion_lon": 0.0, "lat": 38.91305166666667, "bike_id": "f0f38424cebb25a0f0bf8fa961e5eadf", "type": "electric_scooter", "is_reserved": 0, "lon": -77.04873116666667}, {"fusion_lat": 0.0, "name": "7e5b08e9b9db3d1c295bb38d28cecc12", "is_disabled": 0, "rental_uris": {"android": "https://dc.lft.to/lastmile_qr_scan", "ios": "https://dc.lft.to/lastmile_qr_scan"}, "fusion_lon": 0.0, "lat": 38.911142166666664, "bike_id": "7e5b08e9b9db3d1c295bb38d28cecc12", "type": "electric_scooter", "is_reserved": 0, "lon": -77.02059083333333}, {"fusion_lat": 0.0, "name": "a79eed86899a69f4741bccbb4c9b08d5", "is_disabled": 0, "rental_uris": {"android": "https://dc.lft.to/lastmile_qr_scan", "ios": "https://dc.lft.to/lastmile_qr_scan"}, "fusion_lon": 0.0, "lat": 38.91978483333333, "bike_id": "a79eed86899a69f4741bccbb4c9b08d5", "type": "electric_scooter", "is_reserved": 0, "lon": -77.07068266666667}, {"fusion_lat": 0.0, "name": "40d3101cfbe412ecc15b3fc8c7486483", "is_disabled": 0, "rental_uris": {"android": "https://dc.lft.to/lastmile_qr_scan", "ios": "https://dc.lft.to/lastmile_qr_scan"}, "fusion_lon": 0.0, "lat": 38.931368666666664, "bike_id": "40d3101cfbe412ecc15b3fc8c7486483", "type": "electric_scooter", "is_reserved": 0, "lon": -77.03257816666667}, {"fusion_lat": 0.0, "name": "79d4871f6f8181f185db2b0de8f1787a", "is_disabled": 0, "rental_uris": {"android": "https://dc.lft.to/lastmile_qr_scan", "ios": "https://dc.lft.to/lastmile_qr_scan"}, "fusion_lon": 0.0, "lat": 38.81914366666667, "bike_id": "79d4871f6f8181f185db2b0de8f1787a", "type": "electric_bike", "is_reserved": 0, "lon": -77.1266855}, {"fusion_lat": 0.0, "name": "4dfed05782a0cb17194c201a49094b81", "is_disabled": 0, "rental_uris": {"android": "https://dc.lft.to/lastmile_qr_scan", "ios": "https://dc.lft.to/lastmile_qr_scan"}, "fusion_lon": 0.0, "lat": 38.89290883333334, "bike_id": "4dfed05782a0cb17194c201a49094b81", "type": "electric_scooter", "is_reserved": 0, "lon": -76.9830805}, {"fusion_lat": 0.0, "name": "0bbe8f66e1b0944980b038ad69d71ad5", "is_disabled": 0, "rental_uris": {"android": "https://dc.lft.to/lastmile_qr_scan", "ios": "https://dc.lft.to/lastmile_qr_scan"}, "fusion_lon": 0.0, "lat": 38.9181135, "bike_id": "0bbe8f66e1b0944980b038ad69d71ad5", "type": "electric_scooter", "is_reserved": 0, "lon": -77.0113035}, {"fusion_lat": 0.0, "name": "38ccebf7f7a1e891ef9d8d77d88011df", "is_disabled": 0, "rental_uris": {"android": "https://dc.lft.to/lastmile_qr_scan", "ios": "https://dc.lft.to/lastmile_qr_scan"}, "fusion_lon": 0.0, "lat": 38.944633833333334, "bike_id": "38ccebf7f7a1e891ef9d8d77d88011df", "type": "electric_scooter", "is_reserved": 0, "lon": -77.00661033333333}, {"fusion_lat": 0.0, "name": "abd817cd69cd31c6401ab5c79e766fd3", "is_disabled": 0, "rental_uris": {"android": "https://dc.lft.to/lastmile_qr_scan", "ios": "https://dc.lft.to/lastmile_qr_scan"}, "fusion_lon": 0.0, "lat": 38.88771366666667, "bike_id": "abd817cd69cd31c6401ab5c79e766fd3", "type": "electric_scooter", "is_reserved": 0, "lon": -76.97743633333333}, {"fusion_lat": 0.0, "name": "04e292ef5490cf06e9993b3231dc74d9", "is_disabled": 0, "rental_uris": {"android": "https://dc.lft.to/lastmile_qr_scan", "ios": "https://dc.lft.to/lastmile_qr_scan"}, "fusion_lon": 0.0, "lat": 38.874685, "bike_id": "04e292ef5490cf06e9993b3231dc74d9", "type": "electric_scooter", "is_reserved": 0, "lon": -77.01895983333333}, {"fusion_lat": 0.0, "name": "68e9cf21183bc0c5fc40a9d3cbe8b722", "is_disabled": 0, "rental_uris": {"android": "https://dc.lft.to/lastmile_qr_scan", "ios": "https://dc.lft.to/lastmile_qr_scan"}, "fusion_lon": 0.0, "lat": 38.82461383333333, "bike_id": "68e9cf21183bc0c5fc40a9d3cbe8b722", "type": "electric_bike", "is_reserved": 0, "lon": -77.00794966666666}, {"fusion_lat": 0.0, "name": "9d56eead4d49b7145ad2bd5ba4e3f7a0", "is_disabled": 0, "rental_uris": {"android": "https://dc.lft.to/lastmile_qr_scan", "ios": "https://dc.lft.to/lastmile_qr_scan"}, "fusion_lon": 0.0, "lat": 38.89915666666667, "bike_id": "9d56eead4d49b7145ad2bd5ba4e3f7a0", "type": "electric_scooter", "is_reserved": 0, "lon": -76.94552116666667}, {"fusion_lat": 0.0, "name": "d8e1a2713cb8f5eed3a32786905249a7", "is_disabled": 0, "rental_uris": {"android": "https://dc.lft.to/lastmile_qr_scan", "ios": "https://dc.lft.to/lastmile_qr_scan"}, "fusion_lon": 0.0, "lat": 38.91622916666667, "bike_id": "d8e1a2713cb8f5eed3a32786905249a7", "type": "electric_scooter", "is_reserved": 0, "lon": -77.03857816666667}, {"fusion_lat": 0.0, "name": "4aa54dc421c20050b1854621f390b135", "is_disabled": 0, "rental_uris": {"android": "https://dc.lft.to/lastmile_qr_scan", "ios": "https://dc.lft.to/lastmile_qr_scan"}, "fusion_lon": 0.0, "lat": 38.909546, "bike_id": "4aa54dc421c20050b1854621f390b135", "type": "electric_scooter", "is_reserved": 0, "lon": -76.98545116666666}, {"fusion_lat": 0.0, "name": "77f01b795fa4a5146796f66b23270952", "is_disabled": 0, "rental_uris": {"android": "https://dc.lft.to/lastmile_qr_scan", "ios": "https://dc.lft.to/lastmile_qr_scan"}, "fusion_lon": 0.0, "lat": 38.909895166666665, "bike_id": "77f01b795fa4a5146796f66b23270952", "type": "electric_scooter", "is_reserved": 0, "lon": -77.03837183333333}, {"fusion_lat": 0.0, "name": "2583d3ccf428e28ccccc18c5dc949d67", "is_disabled": 0, "rental_uris": {"android": "https://dc.lft.to/lastmile_qr_scan", "ios": "https://dc.lft.to/lastmile_qr_scan"}, "fusion_lon": 0.0, "lat": 38.919846666666665, "bike_id": "2583d3ccf428e28ccccc18c5dc949d67", "type": "electric_scooter", "is_reserved": 0, "lon": -77.02197116666666}, {"fusion_lat": 0.0, "name": "8811d7137daf0379be4312aa93c37d96", "is_disabled": 0, "rental_uris": {"android": "https://dc.lft.to/lastmile_qr_scan", "ios": "https://dc.lft.to/lastmile_qr_scan"}, "fusion_lon": 0.0, "lat": 38.903197166666665, "bike_id": "8811d7137daf0379be4312aa93c37d96", "type": "electric_scooter", "is_reserved": 0, "lon": -76.97800016666666}, {"fusion_lat": 0.0, "name": "e461b39eb85bd8fd59209348280457fa", "is_disabled": 0, "rental_uris": {"android": "https://dc.lft.to/lastmile_qr_scan", "ios": "https://dc.lft.to/lastmile_qr_scan"}, "fusion_lon": 0.0, "lat": 38.92433033333333, "bike_id": "e461b39eb85bd8fd59209348280457fa", "type": "electric_scooter", "is_reserved": 0, "lon": -76.98592883333333}, {"fusion_lat": 0.0, "name": "94f5b744c86a700693fb61e379b3e665", "is_disabled": 0, "rental_uris": {"android": "https://dc.lft.to/lastmile_qr_scan", "ios": "https://dc.lft.to/lastmile_qr_scan"}, "fusion_lon": 0.0, "lat": 38.888736, "bike_id": "94f5b744c86a700693fb61e379b3e665", "type": "electric_scooter", "is_reserved": 0, "lon": -76.98455533333333}, {"fusion_lat": 0.0, "name": "c2623790dd77d5059b7a0ea6dc704b49", "is_disabled": 0, "rental_uris": {"android": "https://dc.lft.to/lastmile_qr_scan", "ios": "https://dc.lft.to/lastmile_qr_scan"}, "fusion_lon": 0.0, "lat": 38.9012605, "bike_id": "c2623790dd77d5059b7a0ea6dc704b49", "type": "electric_scooter", "is_reserved": 0, "lon": -77.051479}, {"fusion_lat": 0.0, "name": "ef44acf494c7c04b6c58bc34fad8e6f3", "is_disabled": 0, "rental_uris": {"android": "https://dc.lft.to/lastmile_qr_scan", "ios": "https://dc.lft.to/lastmile_qr_scan"}, "fusion_lon": 0.0, "lat": 38.85515516666667, "bike_id": "ef44acf494c7c04b6c58bc34fad8e6f3", "type": "electric_bike", "is_reserved": 0, "lon": -77.10534316666667}, {"fusion_lat": 0.0, "name": "74bf238102459d12b29a1270fafd44d4", "is_disabled": 0, "rental_uris": {"android": "https://dc.lft.to/lastmile_qr_scan", "ios": "https://dc.lft.to/lastmile_qr_scan"}, "fusion_lon": 0.0, "lat": 38.89491733333333, "bike_id": "74bf238102459d12b29a1270fafd44d4", "type": "electric_scooter", "is_reserved": 0, "lon": -76.997352}, {"fusion_lat": 0.0, "name": "6737a9619ae804d53600f3e9ddbd47d8", "is_disabled": 0, "rental_uris": {"android": "https://dc.lft.to/lastmile_qr_scan", "ios": "https://dc.lft.to/lastmile_qr_scan"}, "fusion_lon": 0.0, "lat": 38.90186, "bike_id": "6737a9619ae804d53600f3e9ddbd47d8", "type": "electric_scooter", "is_reserved": 0, "lon": -76.9290785}, {"fusion_lat": 0.0, "name": "c9601d535532f1f0ceb4d122a658840e", "is_disabled": 0, "rental_uris": {"android": "https://dc.lft.to/lastmile_qr_scan", "ios": "https://dc.lft.to/lastmile_qr_scan"}, "fusion_lon": 0.0, "lat": 38.90533966666667, "bike_id": "c9601d535532f1f0ceb4d122a658840e", "type": "electric_scooter", "is_reserved": 0, "lon": -77.017207}, {"fusion_lat": 0.0, "name": "50c0e3968d1fd32c6ef4133ad1d91196", "is_disabled": 0, "rental_uris": {"android": "https://dc.lft.to/lastmile_qr_scan", "ios": "https://dc.lft.to/lastmile_qr_scan"}, "fusion_lon": 0.0, "lat": 38.8874805, "bike_id": "50c0e3968d1fd32c6ef4133ad1d91196", "type": "electric_scooter", "is_reserved": 0, "lon": -76.9962525}, {"fusion_lat": 0.0, "name": "06b7ea14ed15ce9b03a3272d8f7d25ca", "is_disabled": 0, "rental_uris": {"android": "https://dc.lft.to/lastmile_qr_scan", "ios": "https://dc.lft.to/lastmile_qr_scan"}, "fusion_lon": 0.0, "lat": 38.937665333333335, "bike_id": "06b7ea14ed15ce9b03a3272d8f7d25ca", "type": "electric_scooter", "is_reserved": 0, "lon": -77.07596116666667}, {"fusion_lat": 0.0, "name": "82e1c36560df5bc429eb05c4a386fff7", "is_disabled": 0, "rental_uris": {"android": "https://dc.lft.to/lastmile_qr_scan", "ios": "https://dc.lft.to/lastmile_qr_scan"}, "fusion_lon": 0.0, "lat": 38.90732083333333, "bike_id": "82e1c36560df5bc429eb05c4a386fff7", "type": "electric_scooter", "is_reserved": 0, "lon": -76.99820516666666}, {"fusion_lat": 0.0, "name": "49cf171d896f077f6e16dba472f54a2f", "is_disabled": 0, "rental_uris": {"android": "https://dc.lft.to/lastmile_qr_scan", "ios": "https://dc.lft.to/lastmile_qr_scan"}, "fusion_lon": 0.0, "lat": 38.90294466666667, "bike_id": "49cf171d896f077f6e16dba472f54a2f", "type": "electric_scooter", "is_reserved": 0, "lon": -76.9903625}, {"fusion_lat": 0.0, "name": "44346839099492d80eb50e5bc0a9af23", "is_disabled": 0, "rental_uris": {"android": "https://dc.lft.to/lastmile_qr_scan", "ios": "https://dc.lft.to/lastmile_qr_scan"}, "fusion_lon": 0.0, "lat": 38.922856333333335, "bike_id": "44346839099492d80eb50e5bc0a9af23", "type": "electric_scooter", "is_reserved": 0, "lon": -77.07340516666666}, {"fusion_lat": 0.0, "name": "c121534ac0939c1318a21809605b9f4c", "is_disabled": 0, "rental_uris": {"android": "https://dc.lft.to/lastmile_qr_scan", "ios": "https://dc.lft.to/lastmile_qr_scan"}, "fusion_lon": 0.0, "lat": 38.916546, "bike_id": "c121534ac0939c1318a21809605b9f4c", "type": "electric_scooter", "is_reserved": 0, "lon": -77.02388833333333}, {"fusion_lat": 0.0, "name": "3b1dafe991593d1d34dd7982e5c7ec8f", "is_disabled": 0, "rental_uris": {"android": "https://dc.lft.to/lastmile_qr_scan", "ios": "https://dc.lft.to/lastmile_qr_scan"}, "fusion_lon": 0.0, "lat": 38.995284, "bike_id": "3b1dafe991593d1d34dd7982e5c7ec8f", "type": "electric_bike", "is_reserved": 0, "lon": -77.02912883333333}, {"fusion_lat": 0.0, "name": "ce345d9edb9333e56bf4580369b71fee", "is_disabled": 0, "rental_uris": {"android": "https://dc.lft.to/lastmile_qr_scan", "ios": "https://dc.lft.to/lastmile_qr_scan"}, "fusion_lon": 0.0, "lat": 38.899506833333334, "bike_id": "ce345d9edb9333e56bf4580369b71fee", "type": "electric_scooter", "is_reserved": 0, "lon": -77.04529633333334}, {"fusion_lat": 0.0, "name": "8f136d4aa9463f0b81279c36595814bd", "is_disabled": 0, "rental_uris": {"android": "https://dc.lft.to/lastmile_qr_scan", "ios": "https://dc.lft.to/lastmile_qr_scan"}, "fusion_lon": 0.0, "lat": 38.88442666666667, "bike_id": "8f136d4aa9463f0b81279c36595814bd", "type": "electric_scooter", "is_reserved": 0, "lon": -77.00343816666667}, {"fusion_lat": 0.0, "name": "a0fb76380f2d7682679aeccc17a8a3c9", "is_disabled": 0, "rental_uris": {"android": "https://dc.lft.to/lastmile_qr_scan", "ios": "https://dc.lft.to/lastmile_qr_scan"}, "fusion_lon": 0.0, "lat": 38.877654, "bike_id": "a0fb76380f2d7682679aeccc17a8a3c9", "type": "electric_scooter", "is_reserved": 0, "lon": -76.99384716666667}, {"fusion_lat": 0.0, "name": "decb81ee8c1fbe83475768ebf92c661a", "is_disabled": 0, "rental_uris": {"android": "https://dc.lft.to/lastmile_qr_scan", "ios": "https://dc.lft.to/lastmile_qr_scan"}, "fusion_lon": 0.0, "lat": 38.908560666666666, "bike_id": "decb81ee8c1fbe83475768ebf92c661a", "type": "electric_scooter", "is_reserved": 0, "lon": -77.02824133333333}, {"fusion_lat": 0.0, "name": "a137f422314c2b4899c9c8900f85133d", "is_disabled": 0, "rental_uris": {"android": "https://dc.lft.to/lastmile_qr_scan", "ios": "https://dc.lft.to/lastmile_qr_scan"},