{"data": {"bikes": [{"name": "bdd2fe0ea9fefe0fd85653dcc5691d5f", "fusion_lat": 0.0, "type": "electric_scooter", "lat": 38.899778166666664, "is_reserved": 0, "is_disabled": 0, "fusion_lon": 0.0, "bike_id": "bdd2fe0ea9fefe0fd85653dcc5691d5f", "lon": -77.02723066666667, "rental_uris": {"ios": "https://dc.lft.to/lastmile_qr_scan", "android": "https://dc.lft.to/lastmile_qr_scan"}}, {"name": "260cfdf3200f56d2f806d6eccd57ac61", "fusion_lat": 0.0, "type": "electric_scooter", "lat": 38.91734433333333, "is_reserved": 0, "is_disabled": 0, "fusion_lon": 0.0, "bike_id": "260cfdf3200f56d2f806d6eccd57ac61", "lon": -77.03200433333333, "rental_uris": {"ios": "https://dc.lft.to/lastmile_qr_scan", "android": "https://dc.lft.to/lastmile_qr_scan"}}, {"name": "705b2d9f7f3c6b265332e18ef010f01e", "fusion_lat": 0.0, "type": "electric_bike", "lat": 38.99452566666667, "is_reserved": 0, "is_disabled": 0, "fusion_lon": 0.0, "bike_id": "705b2d9f7f3c6b265332e18ef010f01e", "lon": -76.9081775, "rental_uris": {"ios": "https://dc.lft.to/lastmile_qr_scan", "android": "https://dc.lft.to/lastmile_qr_scan"}}, {"name": "0a70b46efa5acc24bda7c01458abc6ee", "fusion_lat": 0.0, "type": "electric_scooter", "lat": 38.92237816666667, "is_reserved": 0, "is_disabled": 0, "fusion_lon": 0.0, "bike_id": "0a70b46efa5acc24bda7c01458abc6ee", "lon": -77.03088, "rental_uris": {"ios": "https://dc.lft.to/lastmile_qr_scan", "android": "https://dc.lft.to/lastmile_qr_scan"}}, {"name": "138ac70185e124380b1eccc510c6daa5", "fusion_lat": 0.0, "type": "electric_scooter", "lat": 38.911720833333334, "is_reserved": 0, "is_disabled": 0, "fusion_lon": 0.0, "bike_id": "138ac70185e124380b1eccc510c6daa5", "lon": -77.03194716666667, "rental_uris": {"ios": "https://dc.lft.to/lastmile_qr_scan", "android": "https://dc.lft.to/lastmile_qr_scan"}}, {"name": "b95c1aa55e3dc4974c046f093cd38ded", "fusion_lat": 0.0, "type": "electric_scooter", "lat": 38.90266716666667, "is_reserved": 0, "is_disabled": 0, "fusion_lon": 0.0, "bike_id": "b95c1aa55e3dc4974c046f093cd38ded", "lon": -77.03860683333333, "rental_uris": {"ios": "https://dc.lft.to/lastmile_qr_scan", "android": "https://dc.lft.to/lastmile_qr_scan"}}, {"name": "1ac0a3219809f8a68eb1967092635935", "fusion_lat": 0.0, "type": "electric_scooter", "lat": 38.905306, "is_reserved": 0, "is_disabled": 0, "fusion_lon": 0.0, "bike_id": "1ac0a3219809f8a68eb1967092635935", "lon": -77.05001166666666, "rental_uris": {"ios": "https://dc.lft.to/lastmile_qr_scan", "android": "https://dc.lft.to/lastmile_qr_scan"}}, {"name": "c37af968f4acad219b72baca2c3c7824", "fusion_lat": 0.0, "type": "electric_bike", "lat": 38.905317, "is_reserved": 0, "is_disabled": 0, "fusion_lon": 0.0, "bike_id": "c37af968f4acad219b72baca2c3c7824", "lon": -76.99806533333333, "rental_uris": {"ios": "https://dc.lft.to/lastmile_qr_scan", "android": "https://dc.lft.to/lastmile_qr_scan"}}, {"name": "48891300aa89a89b40966152418b6cc6", "fusion_lat": 0.0, "type": "electric_scooter", "lat": 38.91735283333333, "is_reserved": 0, "is_disabled": 0, "fusion_lon": 0.0, "bike_id": "48891300aa89a89b40966152418b6cc6", "lon": -77.0344955, "rental_uris": {"ios": "https://dc.lft.to/lastmile_qr_scan", "android": "https://dc.lft.to/lastmile_qr_scan"}}, {"name": "447af1e96208744e53fa47c89313e1fa", "fusion_lat": 0.0, "type": "electric_scooter", "lat": 38.91566433333333, "is_reserved": 0, "is_disabled": 0, "fusion_lon": 0.0, "bike_id": "447af1e96208744e53fa47c89313e1fa", "lon": -77.01205616666667, "rental_uris": {"ios": "https://dc.lft.to/lastmile_qr_scan", "android": "https://dc.lft.to/lastmile_qr_scan"}}, {"name": "10dc7319bc372189a5a8d4e76e233f07", "fusion_lat": 0.0, "type": "electric_scooter", "lat": 38.892481333333336, "is_reserved": 0, "is_disabled": 0, "fusion_lon": 0.0, "bike_id": "10dc7319bc372189a5a8d4e76e233f07", "lon": -77.0151495, "rental_uris": {"ios": "https://dc.lft.to/lastmile_qr_scan", "android": "https://dc.lft.to/lastmile_qr_scan"}}, {"name": "c22af26fd286b790da885414f61aefe1", "fusion_lat": 0.0, "type": "electric_scooter", "lat": 38.913335333333336, "is_reserved": 0, "is_disabled": 0, "fusion_lon": 0.0, "bike_id": "c22af26fd286b790da885414f61aefe1", "lon": -77.048722, "rental_uris": {"ios": "https://dc.lft.to/lastmile_qr_scan", "android": "https://dc.lft.to/lastmile_qr_scan"}}, {"name": "dfd0c755356524426c20e98e100c1a4d", "fusion_lat": 0.0, "type": "electric_scooter", "lat": 38.9061035, "is_reserved": 0, "is_disabled": 0, "fusion_lon": 0.0, "bike_id": "dfd0c755356524426c20e98e100c1a4d", "lon": -76.97672733333333, "rental_uris": {"ios": "https://dc.lft.to/lastmile_qr_scan", "android": "https://dc.lft.to/lastmile_qr_scan"}}, {"name": "92459e316beb2c5929605a4fab768274", "fusion_lat": 0.0, "type": "electric_scooter", "lat": 38.876467, "is_reserved": 0, "is_disabled": 0, "fusion_lon": 0.0, "bike_id": "92459e316beb2c5929605a4fab768274", "lon": -77.00423016666667, "rental_uris": {"ios": "https://dc.lft.to/lastmile_qr_scan", "android": "https://dc.lft.to/lastmile_qr_scan"}}, {"name": "5690a5c64d2f523f897b4d2a1a8685bf", "fusion_lat": 0.0, "type": "electric_scooter", "lat": 38.916641166666665, "is_reserved": 0, "is_disabled": 0, "fusion_lon": 0.0, "bike_id": "5690a5c64d2f523f897b4d2a1a8685bf", "lon": -77.02380383333333, "rental_uris": {"ios": "https://dc.lft.to/lastmile_qr_scan", "android": "https://dc.lft.to/lastmile_qr_scan"}}, {"name": "5f11c05c8ecca41b2f2f2c9c94242f1b", "fusion_lat": 0.0, "type": "electric_scooter", "lat": 38.8921985, "is_reserved": 0, "is_disabled": 0, "fusion_lon": 0.0, "bike_id": "5f11c05c8ecca41b2f2f2c9c94242f1b", "lon": -77.032004, "rental_uris": {"ios": "https://dc.lft.to/lastmile_qr_scan", "android": "https://dc.lft.to/lastmile_qr_scan"}}, {"name": "a03f6234298a72a17c744eeac981a295", "fusion_lat": 0.0, "type": "electric_scooter", "lat": 38.910252666666665, "is_reserved": 0, "is_disabled": 0, "fusion_lon": 0.0, "bike_id": "a03f6234298a72a17c744eeac981a295", "lon": -77.00756516666667, "rental_uris": {"ios": "https://dc.lft.to/lastmile_qr_scan", "android": "https://dc.lft.to/lastmile_qr_scan"}}, {"name": "35104e23a5d02a1e588ed2ed9b6eed52", "fusion_lat": 0.0, "type": "electric_scooter", "lat": 38.90248416666667, "is_reserved": 0, "is_disabled": 0, "fusion_lon": 0.0, "bike_id": "35104e23a5d02a1e588ed2ed9b6eed52", "lon": -77.04585483333334, "rental_uris": {"ios": "https://dc.lft.to/lastmile_qr_scan", "android": "https://dc.lft.to/lastmile_qr_scan"}}, {"name": "f90768df85afa4f79d586930b4fb62c8", "fusion_lat": 0.0, "type": "electric_bike", "lat": 38.8637585, "is_reserved": 0, "is_disabled": 0, "fusion_lon": 0.0, "bike_id": "f90768df85afa4f79d586930b4fb62c8", "lon": -77.12902866666667, "rental_uris": {"ios": "https://dc.lft.to/lastmile_qr_scan", "android": "https://dc.lft.to/lastmile_qr_scan"}}, {"name": "5c110d817ebae7f03691cfd6a405f074", "fusion_lat": 0.0, "type": "electric_scooter", "lat": 38.91191533333333, "is_reserved": 0, "is_disabled": 0, "fusion_lon": 0.0, "bike_id": "5c110d817ebae7f03691cfd6a405f074", "lon": -77.04537183333333, "rental_uris": {"ios": "https://dc.lft.to/lastmile_qr_scan", "android": "https://dc.lft.to/lastmile_qr_scan"}}, {"name": "813e7448aeeca2b76019642de0e76741", "fusion_lat": 0.0, "type": "electric_scooter", "lat": 38.92626683333334, "is_reserved": 0, "is_disabled": 0, "fusion_lon": 0.0, "bike_id": "813e7448aeeca2b76019642de0e76741", "lon": -77.0379425, "rental_uris": {"ios": "https://dc.lft.to/lastmile_qr_scan", "android": "https://dc.lft.to/lastmile_qr_scan"}}, {"name": "a94af8a031dc633566439308a4061e35", "fusion_lat": 0.0, "type": "electric_scooter", "lat": 38.92695883333333, "is_reserved": 0, "is_disabled": 0, "fusion_lon": 0.0, "bike_id": "a94af8a031dc633566439308a4061e35", "lon": -77.024274, "rental_uris": {"ios": "https://dc.lft.to/lastmile_qr_scan", "android": "https://dc.lft.to/lastmile_qr_scan"}}, {"name": "cd12351522374ca906014f28d89f6b8b", "fusion_lat": 0.0, "type": "electric_bike", "lat": 38.97087783333333, "is_reserved": 0, "is_disabled": 0, "fusion_lon": 0.0, "bike_id": "cd12351522374ca906014f28d89f6b8b", "lon": -77.0696945, "rental_uris": {"ios": "https://dc.lft.to/lastmile_qr_scan", "android": "https://dc.lft.to/lastmile_qr_scan"}}, {"name": "44e30482f24a777a1c40669c83fa5a16", "fusion_lat": 0.0, "type": "electric_scooter", "lat": 38.897440333333336, "is_reserved": 0, "is_disabled": 0, "fusion_lon": 0.0, "bike_id": "44e30482f24a777a1c40669c83fa5a16", "lon": -77.02701083333334, "rental_uris": {"ios": "https://dc.lft.to/lastmile_qr_scan", "android": "https://dc.lft.to/lastmile_qr_scan"}}, {"name": "b6ee558bda08c008267959a0cc05f869", "fusion_lat": 0.0, "type": "electric_bike", "lat": 38.810504333333334, "is_reserved": 0, "is_disabled": 0, "fusion_lon": 0.0, "bike_id": "b6ee558bda08c008267959a0cc05f869", "lon": -77.0850735, "rental_uris": {"ios": "https://dc.lft.to/lastmile_qr_scan", "android": "https://dc.lft.to/lastmile_qr_scan"}}, {"name": "3032f827e594c6797e33d15b26ffa871", "fusion_lat": 0.0, "type": "electric_scooter", "lat": 38.89231233333334, "is_reserved": 0, "is_disabled": 0, "fusion_lon": 0.0, "bike_id": "3032f827e594c6797e33d15b26ffa871", "lon": -77.05001466666667, "rental_uris": {"ios": "https://dc.lft.to/lastmile_qr_scan", "android": "https://dc.lft.to/lastmile_qr_scan"}}, {"name": "fac8bc88ed2e065cf9cdb082c5efe36c", "fusion_lat": 0.0, "type": "electric_scooter", "lat": 38.9097275, "is_reserved": 0, "is_disabled": 0, "fusion_lon": 0.0, "bike_id": "fac8bc88ed2e065cf9cdb082c5efe36c", "lon": -77.03435416666666, "rental_uris": {"ios": "https://dc.lft.to/lastmile_qr_scan", "android": "https://dc.lft.to/lastmile_qr_scan"}}, {"name": "d7cb93de44b41fe7613f7a6cc572c9b1", "fusion_lat": 0.0, "type": "electric_bike", "lat": 38.854292666666666, "is_reserved": 0, "is_disabled": 0, "fusion_lon": 0.0, "bike_id": "d7cb93de44b41fe7613f7a6cc572c9b1", "lon": -76.909585, "rental_uris": {"ios": "https://dc.lft.to/lastmile_qr_scan", "android": "https://dc.lft.to/lastmile_qr_scan"}}, {"name": "6daafd50eaf9ac87b930cdd372d23d57", "fusion_lat": 0.0, "type": "electric_scooter", "lat": 38.921119, "is_reserved": 0, "is_disabled": 0, "fusion_lon": 0.0, "bike_id": "6daafd50eaf9ac87b930cdd372d23d57", "lon": -77.04219033333334, "rental_uris": {"ios": "https://dc.lft.to/lastmile_qr_scan", "android": "https://dc.lft.to/lastmile_qr_scan"}}, {"name": "74d833c655a5cb8442b752f3eac5d20b", "fusion_lat": 0.0, "type": "electric_scooter", "lat": 38.8765125, "is_reserved": 0, "is_disabled": 0, "fusion_lon": 0.0, "bike_id": "74d833c655a5cb8442b752f3eac5d20b", "lon": -77.00073433333333, "rental_uris": {"ios": "https://dc.lft.to/lastmile_qr_scan", "android": "https://dc.lft.to/lastmile_qr_scan"}}, {"name": "1e09358838e9b4eaa8a8256429eac6ba", "fusion_lat": 0.0, "type": "electric_scooter", "lat": 38.914759, "is_reserved": 0, "is_disabled": 0, "fusion_lon": 0.0, "bike_id": "1e09358838e9b4eaa8a8256429eac6ba", "lon": -77.02189583333333, "rental_uris": {"ios": "https://dc.lft.to/lastmile_qr_scan", "android": "https://dc.lft.to/lastmile_qr_scan"}}, {"name": "8403119cf1e7d54077e5e8d9e7e7b6bc", "fusion_lat": 0.0, "type": "electric_scooter", "lat": 38.93525666666667, "is_reserved": 0, "is_disabled": 0, "fusion_lon": 0.0, "bike_id": "8403119cf1e7d54077e5e8d9e7e7b6bc", "lon": -77.034029, "rental_uris": {"ios": "https://dc.lft.to/lastmile_qr_scan", "android": "https://dc.lft.to/lastmile_qr_scan"}}, {"name": "05f7ef7f1fbc34d7726ccd38270a19c4", "fusion_lat": 0.0, "type": "electric_scooter", "lat": 38.9299475, "is_reserved": 0, "is_disabled": 0, "fusion_lon": 0.0, "bike_id": "05f7ef7f1fbc34d7726ccd38270a19c4", "lon": -77.02306033333333, "rental_uris": {"ios": "https://dc.lft.to/lastmile_qr_scan", "android": "https://dc.lft.to/lastmile_qr_scan"}}, {"name": "3c56e62d4ae355c6189f2538f44101a1", "fusion_lat": 0.0, "type": "electric_scooter", "lat": 38.9164175, "is_reserved": 0, "is_disabled": 0, "fusion_lon": 0.0, "bike_id": "3c56e62d4ae355c6189f2538f44101a1", "lon": -77.0300985, "rental_uris": {"ios": "https://dc.lft.to/lastmile_qr_scan", "android": "https://dc.lft.to/lastmile_qr_scan"}}, {"name": "3561991abcdad83855749f31c766e0d2", "fusion_lat": 0.0, "type": "electric_scooter", "lat": 38.906661, "is_reserved": 0, "is_disabled": 0, "fusion_lon": 0.0, "bike_id": "3561991abcdad83855749f31c766e0d2", "lon": -77.02703083333333, "rental_uris": {"ios": "https://dc.lft.to/lastmile_qr_scan", "android": "https://dc.lft.to/lastmile_qr_scan"}}, {"name": "957a3087003f330a1ea0322f121a3229", "fusion_lat": 0.0, "type": "electric_scooter", "lat": 38.89524933333333, "is_reserved": 0, "is_disabled": 0, "fusion_lon": 0.0, "bike_id": "957a3087003f330a1ea0322f121a3229", "lon": -76.948919, "rental_uris": {"ios": "https://dc.lft.to/lastmile_qr_scan", "android": "https://dc.lft.to/lastmile_qr_scan"}}, {"name": "3c1e5a83cf9d131a503495f9d9ef1e2c", "fusion_lat": 0.0, "type": "electric_scooter", "lat": 38.907384, "is_reserved": 0, "is_disabled": 0, "fusion_lon": 0.0, "bike_id": "3c1e5a83cf9d131a503495f9d9ef1e2c", "lon": -77.0075535, "rental_uris": {"ios": "https://dc.lft.to/lastmile_qr_scan", "android": "https://dc.lft.to/lastmile_qr_scan"}}, {"name": "53bc1a66d1c2bcbbaf2e782638d4cab4", "fusion_lat": 0.0, "type": "electric_scooter", "lat": 38.90020166666667, "is_reserved": 0, "is_disabled": 0, "fusion_lon": 0.0, "bike_id": "53bc1a66d1c2bcbbaf2e782638d4cab4", "lon": -76.99857483333334, "rental_uris": {"ios": "https://dc.lft.to/lastmile_qr_scan", "android": "https://dc.lft.to/lastmile_qr_scan"}}, {"name": "3e3ca53338f85ea13e781b48f0426008", "fusion_lat": 0.0, "type": "electric_scooter", "lat": 38.910461833333336, "is_reserved": 0, "is_disabled": 0, "fusion_lon": 0.0, "bike_id": "3e3ca53338f85ea13e781b48f0426008", "lon": -77.04376383333333, "rental_uris": {"ios": "https://dc.lft.to/lastmile_qr_scan", "android": "https://dc.lft.to/lastmile_qr_scan"}}, {"name": "1241bda905d23ec2ccfd773cfe8afc18", "fusion_lat": 0.0, "type": "electric_scooter", "lat": 38.88592366666666, "is_reserved": 0, "is_disabled": 0, "fusion_lon": 0.0, "bike_id": "1241bda905d23ec2ccfd773cfe8afc18", "lon": -77.02204483333334, "rental_uris": {"ios": "https://dc.lft.to/lastmile_qr_scan", "android": "https://dc.lft.to/lastmile_qr_scan"}}, {"name": "fc12adf5ffc875044fd2c99e176498aa", "fusion_lat": 0.0, "type": "electric_scooter", "lat": 38.92726783333333, "is_reserved": 0, "is_disabled": 0, "fusion_lon": 0.0, "bike_id": "fc12adf5ffc875044fd2c99e176498aa", "lon": -77.0714615, "rental_uris": {"ios": "https://dc.lft.to/lastmile_qr_scan", "android": "https://dc.lft.to/lastmile_qr_scan"}}, {"name": "34c9e6416f1358ca6657d6e7fde185ef", "fusion_lat": 0.0, "type": "electric_scooter", "lat": 38.898438166666665, "is_reserved": 0, "is_disabled": 0, "fusion_lon": 0.0, "bike_id": "34c9e6416f1358ca6657d6e7fde185ef", "lon": -77.01613016666667, "rental_uris": {"ios": "https://dc.lft.to/lastmile_qr_scan", "android": "https://dc.lft.to/lastmile_qr_scan"}}, {"name": "3acbb99bc79c9144534538a38e367675", "fusion_lat": 0.0, "type": "electric_scooter", "lat": 38.92003666666667, "is_reserved": 0, "is_disabled": 0, "fusion_lon": 0.0, "bike_id": "3acbb99bc79c9144534538a38e367675", "lon": -77.081891, "rental_uris": {"ios": "https://dc.lft.to/lastmile_qr_scan", "android": "https://dc.lft.to/lastmile_qr_scan"}}, {"name": "5a9ff463ab17431299f81c988f0ca6b9", "fusion_lat": 0.0, "type": "electric_bike", "lat": 38.88342516666667, "is_reserved": 0, "is_disabled": 0, "fusion_lon": 0.0, "bike_id": "5a9ff463ab17431299f81c988f0ca6b9", "lon": -77.18292583333333, "rental_uris": {"ios": "https://dc.lft.to/lastmile_qr_scan", "android": "https://dc.lft.to/lastmile_qr_scan"}}, {"name": "088c82d374d5c956a47881414c5cbfb8", "fusion_lat": 0.0, "type": "electric_scooter", "lat": 38.893698666666666, "is_reserved": 0, "is_disabled": 0, "fusion_lon": 0.0, "bike_id": "088c82d374d5c956a47881414c5cbfb8", "lon": -76.94996933333333, "rental_uris": {"ios": "https://dc.lft.to/lastmile_qr_scan", "android": "https://dc.lft.to/lastmile_qr_scan"}}, {"name": "c42dc8d29861a70e5c7077ff55f68903", "fusion_lat": 0.0, "type": "electric_scooter", "lat": 38.90362366666667, "is_reserved": 0, "is_disabled": 0, "fusion_lon": 0.0, "bike_id": "c42dc8d29861a70e5c7077ff55f68903", "lon": -77.03524483333334, "rental_uris": {"ios": "https://dc.lft.to/lastmile_qr_scan", "android": "https://dc.lft.to/lastmile_qr_scan"}}, {"name": "38223ccb0bc61f4a93a642c8f083df81", "fusion_lat": 0.0, "type": "electric_scooter", "lat": 38.909654, "is_reserved": 0, "is_disabled": 0, "fusion_lon": 0.0, "bike_id": "38223ccb0bc61f4a93a642c8f083df81", "lon": -77.0336355, "rental_uris": {"ios": "https://dc.lft.to/lastmile_qr_scan", "android": "https://dc.lft.to/lastmile_qr_scan"}}, {"name": "d25baf3da070b8a9a85ef93a6a8716e6", "fusion_lat": 0.0, "type": "electric_scooter", "lat": 38.91567533333333, "is_reserved": 0, "is_disabled": 0, "fusion_lon": 0.0, "bike_id": "d25baf3da070b8a9a85ef93a6a8716e6", "lon": -77.05219383333333, "rental_uris": {"ios": "https://dc.lft.to/lastmile_qr_scan", "android": "https://dc.lft.to/lastmile_qr_scan"}}, {"name": "695086742f6ea717246cc8882e84adac", "fusion_lat": 0.0, "type": "electric_bike", "lat": 38.9026875, "is_reserved": 0, "is_disabled": 0, "fusion_lon": 0.0, "bike_id": "695086742f6ea717246cc8882e84adac", "lon": -77.05998833333334, "rental_uris": {"ios": "https://dc.lft.to/lastmile_qr_scan", "android": "https://dc.lft.to/lastmile_qr_scan"}}, {"name": "fd6d2d94da35d47c98177c9380d20fa6", "fusion_lat": 0.0, "type": "electric_scooter", "lat": 38.8859075, "is_reserved": 0, "is_disabled": 0, "fusion_lon": 0.0, "bike_id": "fd6d2d94da35d47c98177c9380d20fa6", "lon": -77.03167783333333, "rental_uris": {"ios": "https://dc.lft.to/lastmile_qr_scan", "android": "https://dc.lft.to/lastmile_qr_scan"}}, {"name": "909cac9a176fc182c87240636a9c2e62", "fusion_lat": 0.0, "type": "electric_scooter", "lat": 38.91035983333333, "is_reserved": 0, "is_disabled": 0, "fusion_lon": 0.0, "bike_id": "909cac9a176fc182c87240636a9c2e62", "lon": -77.008331, "rental_uris": {"ios": "https://dc.lft.to/lastmile_qr_scan", "android": "https://dc.lft.to/lastmile_qr_scan"}}, {"name": "83e77b56886b777c44845832a9b64def", "fusion_lat": 0.0, "type": "electric_scooter", "lat": 38.900119333333336, "is_reserved": 0, "is_disabled": 0, "fusion_lon": 0.0, "bike_id": "83e77b56886b777c44845832a9b64def", "lon": -76.99563266666667, "rental_uris": {"ios": "https://dc.lft.to/lastmile_qr_scan", "android": "https://dc.lft.to/lastmile_qr_scan"}}, {"name": "2d5fe3d1cc3c0a6a99bd7e6f1f18ab7e", "fusion_lat": 0.0, "type": "electric_scooter", "lat": 38.9297505, "is_reserved": 0, "is_disabled": 0, "fusion_lon": 0.0, "bike_id": "2d5fe3d1cc3c0a6a99bd7e6f1f18ab7e", "lon": -77.079189, "rental_uris": {"ios": "https://dc.lft.to/lastmile_qr_scan", "android": "https://dc.lft.to/lastmile_qr_scan"}}, {"name": "5740c7dbcf15e06c79efd7fcfe117db4", "fusion_lat": 0.0, "type": "electric_bike", "lat": 38.916855, "is_reserved": 0, "is_disabled": 0, "fusion_lon": 0.0, "bike_id": "5740c7dbcf15e06c79efd7fcfe117db4", "lon": -76.98058933333333, "rental_uris": {"ios": "https://dc.lft.to/lastmile_qr_scan", "android": "https://dc.lft.to/lastmile_qr_scan"}}, {"name": "d48f1ac21133b630c466750c24a7bc48", "fusion_lat": 0.0, "type": "electric_bike", "lat": 38.88546933333333, "is_reserved": 0, "is_disabled": 0, "fusion_lon": 0.0, "bike_id": "d48f1ac21133b630c466750c24a7bc48", "lon": -76.99749316666667, "rental_uris": {"ios": "https://dc.lft.to/lastmile_qr_scan", "android": "https://dc.lft.to/lastmile_qr_scan"}}, {"name": "1fb5d2a57535e9bd236c3fbb92b652ec", "fusion_lat": 0.0, "type": "electric_scooter", "lat": 38.87479916666667, "is_reserved": 0, "is_disabled": 0, "fusion_lon": 0.0, "bike_id": "1fb5d2a57535e9bd236c3fbb92b652ec", "lon": -77.01073466666666, "rental_uris": {"ios": "https://dc.lft.to/lastmile_qr_scan", "android": "https://dc.lft.to/lastmile_qr_scan"}}, {"name": "26031693dc57a3c7ae6663bf79ad1954", "fusion_lat": 0.0, "type": "electric_scooter", "lat": 38.90712833333333, "is_reserved": 0, "is_disabled": 0, "fusion_lon": 0.0, "bike_id": "26031693dc57a3c7ae6663bf79ad1954", "lon": -77.02891883333334, "rental_uris": {"ios": "https://dc.lft.to/lastmile_qr_scan", "android": "https://dc.lft.to/lastmile_qr_scan"}}, {"name": "321b51d3904df124492b6438cb8aa0b1", "fusion_lat": 0.0, "type": "electric_scooter", "lat": 38.89523, "is_reserved": 0, "is_disabled": 0, "fusion_lon": 0.0, "bike_id": "321b51d3904df124492b6438cb8aa0b1", "lon": -76.9915285, "rental_uris": {"ios": "https://dc.lft.to/lastmile_qr_scan", "android": "https://dc.lft.to/lastmile_qr_scan"}}, {"name": "2df03f7ddcb3b8c362e318ce772d05d2", "fusion_lat": 0.0, "type": "electric_scooter", "lat": 38.8635165, "is_reserved": 0, "is_disabled": 0, "fusion_lon": 0.0, "bike_id": "2df03f7ddcb3b8c362e318ce772d05d2", "lon": -76.99062216666667, "rental_uris": {"ios": "https://dc.lft.to/lastmile_qr_scan", "android": "https://dc.lft.to/lastmile_qr_scan"}}, {"name": "754bc37950bba8c9a4214a52f5cf129f", "fusion_lat": 0.0, "type": "electric_scooter", "lat": 38.9122615, "is_reserved": 0, "is_disabled": 0, "fusion_lon": 0.0, "bike_id": "754bc37950bba8c9a4214a52f5cf129f", "lon": -77.03838716666667, "rental_uris": {"ios": "https://dc.lft.to/lastmile_qr_scan", "android": "https://dc.lft.to/lastmile_qr_scan"}}, {"name": "83bf611324ce1b2d47f19b9302046094", "fusion_lat": 0.0, "type": "electric_bike", "lat": 38.941697166666664, "is_reserved": 0, "is_disabled": 0, "fusion_lon": 0.0, "bike_id": "83bf611324ce1b2d47f19b9302046094", "lon": -77.03284516666666, "rental_uris": {"ios": "https://dc.lft.to/lastmile_qr_scan", "android": "https://dc.lft.to/lastmile_qr_scan"}}, {"name": "8d6bff7aa28f3b8650d6c42b0955273c", "fusion_lat": 0.0, "type": "electric_scooter", "lat": 38.909453166666665, "is_reserved": 0, "is_disabled": 0, "fusion_lon": 0.0, "bike_id": "8d6bff7aa28f3b8650d6c42b0955273c", "lon": -77.04731233333334, "rental_uris": {"ios": "https://dc.lft.to/lastmile_qr_scan", "android": "https://dc.lft.to/lastmile_qr_scan"}}, {"name": "a9996e0b647aadaa7cb9b7616ed627d8", "fusion_lat": 0.0, "type": "electric_scooter", "lat": 38.908328833333336, "is_reserved": 0, "is_disabled": 0, "fusion_lon": 0.0, "bike_id": "a9996e0b647aadaa7cb9b7616ed627d8", "lon": -77.03356616666666, "rental_uris": {"ios": "https://dc.lft.to/lastmile_qr_scan", "android": "https://dc.lft.to/lastmile_qr_scan"}}, {"name": "201ddb447b9b827164fab92fd2d88208", "fusion_lat": 0.0, "type": "electric_scooter", "lat": 38.90223066666667, "is_reserved": 0, "is_disabled": 0, "fusion_lon": 0.0, "bike_id": "201ddb447b9b827164fab92fd2d88208", "lon": -77.023357, "rental_uris": {"ios": "https://dc.lft.to/lastmile_qr_scan", "android": "https://dc.lft.to/lastmile_qr_scan"}}, {"name": "2759a1ac5a29f874aa49ea92c4f3a72f", "fusion_lat": 0.0, "type": "electric_scooter", "lat": 38.949323166666666, "is_reserved": 0, "is_disabled": 0, "fusion_lon": 0.0, "bike_id": "2759a1ac5a29f874aa49ea92c4f3a72f", "lon": -77.01937783333334, "rental_uris": {"ios": "https://dc.lft.to/lastmile_qr_scan", "android": "https://dc.lft.to/lastmile_qr_scan"}}, {"name": "beceda9c3d63945543965d0ebf2ae9e8", "fusion_lat": 0.0, "type": "electric_bike", "lat": 38.9167865, "is_reserved": 0, "is_disabled": 0, "fusion_lon": 0.0, "bike_id": "beceda9c3d63945543965d0ebf2ae9e8", "lon": -77.0385145, "rental_uris": {"ios": "https://dc.lft.to/lastmile_qr_scan", "android": "https://dc.lft.to/lastmile_qr_scan"}}, {"name": "dc3a28f53618d367d602a0b495db778d", "fusion_lat": 0.0, "type": "electric_scooter", "lat": 38.921459, "is_reserved": 0, "is_disabled": 0, "fusion_lon": 0.0, "bike_id": "dc3a28f53618d367d602a0b495db778d", "lon": -77.035058, "rental_uris": {"ios": "https://dc.lft.to/lastmile_qr_scan", "android": "https://dc.lft.to/lastmile_qr_scan"}}, {"name": "6cbaf92159796d5733319d24955f362e", "fusion_lat": 0.0, "type": "electric_scooter", "lat": 38.902665166666665, "is_reserved": 0, "is_disabled": 0, "fusion_lon": 0.0, "bike_id": "6cbaf92159796d5733319d24955f362e", "lon": -76.98712033333334, "rental_uris": {"ios": "https://dc.lft.to/lastmile_qr_scan", "android": "https://dc.lft.to/lastmile_qr_scan"}}, {"name": "cdb5377c58780d623a9b03cb9b7e1365", "fusion_lat": 0.0, "type": "electric_scooter", "lat": 38.865378666666665, "is_reserved": 0, "is_disabled": 0, "fusion_lon": 0.0, "bike_id": "cdb5377c58780d623a9b03cb9b7e1365", "lon": -76.98709383333333, "rental_uris": {"ios": "https://dc.lft.to/lastmile_qr_scan", "android": "https://dc.lft.to/lastmile_qr_scan"}}, {"name": "04b5a98b1e74a5d81b8ffd058d944a51", "fusion_lat": 0.0, "type": "electric_scooter", "lat": 38.922412666666666, "is_reserved": 0, "is_disabled": 0, "fusion_lon": 0.0, "bike_id": "04b5a98b1e74a5d81b8ffd058d944a51", "lon": -76.99383516666667, "rental_uris": {"ios": "https://dc.lft.to/lastmile_qr_scan", "android": "https://dc.lft.to/lastmile_qr_scan"}}, {"name": "45ec82c8e378c9ed94240f31f09168f4", "fusion_lat": 0.0, "type": "electric_scooter", "lat": 38.90558083333333, "is_reserved": 0, "is_disabled": 0, "fusion_lon": 0.0, "bike_id": "45ec82c8e378c9ed94240f31f09168f4", "lon": -77.0240885, "rental_uris": {"ios": "https://dc.lft.to/lastmile_qr_scan", "android": "https://dc.lft.to/lastmile_qr_scan"}}, {"name": "0483364d6d719f58e11e603317cdb45e", "fusion_lat": 0.0, "type": "electric_bike", "lat": 39.088587833333335, "is_reserved": 0, "is_disabled": 0, "fusion_lon": 0.0, "bike_id": "0483364d6d719f58e11e603317cdb45e", "lon": -77.17845, "rental_uris": {"ios": "https://dc.lft.to/lastmile_qr_scan", "android": "https://dc.lft.to/lastmile_qr_scan"}}, {"name": "745341483b786f4fa484a95efb91918e", "fusion_lat": 0.0, "type": "electric_bike", "lat": 38.93519516666667, "is_reserved": 0, "is_disabled": 0, "fusion_lon": 0.0, "bike_id": "745341483b786f4fa484a95efb91918e", "lon": -76.95061516666667, "rental_uris": {"ios": "https://dc.lft.to/lastmile_qr_scan", "android": "https://dc.lft.to/lastmile_qr_scan"}}, {"name": "4b8575bf16b340f237b4bcb16723e563", "fusion_lat": 0.0, "type": "electric_scooter", "lat": 38.9026755, "is_reserved": 0, "is_disabled": 0, "fusion_lon": 0.0, "bike_id": "4b8575bf16b340f237b4bcb16723e563", "lon": -77.03671116666666, "rental_uris": {"ios": "https://dc.lft.to/lastmile_qr_scan", "android": "https://dc.lft.to/lastmile_qr_scan"}}, {"name": "0f62a4d5b32a9c7a95236f37b9aa41b3", "fusion_lat": 0.0, "type": "electric_scooter", "lat": 38.91404466666667, "is_reserved": 0, "is_disabled": 0, "fusion_lon": 0.0, "bike_id": "0f62a4d5b32a9c7a95236f37b9aa41b3", "lon": -77.02227366666666, "rental_uris": {"ios": "https://dc.lft.to/lastmile_qr_scan", "android": "https://dc.lft.to/lastmile_qr_scan"}}, {"name": "c36343442cb086816f1289ad6cc53059", "fusion_lat": 0.0, "type": "electric_scooter", "lat": 38.86692133333333, "is_reserved": 0, "is_disabled": 0, "fusion_lon": 0.0, "bike_id": "c36343442cb086816f1289ad6cc53059", "lon": -76.98908816666666, "rental_uris": {"ios": "https://dc.lft.to/lastmile_qr_scan", "android": "https://dc.lft.to/lastmile_qr_scan"}}, {"name": "b830cd5f22d0c4b41744126da19f0b97", "fusion_lat": 0.0, "type": "electric_scooter", "lat": 38.905023666666665, "is_reserved": 0, "is_disabled": 0, "fusion_lon": 0.0, "bike_id": "b830cd5f22d0c4b41744126da19f0b97", "lon": -77.0436985, "rental_uris": {"ios": "https://dc.lft.to/lastmile_qr_scan", "android": "https://dc.lft.to/lastmile_qr_scan"}}, {"name": "e92df91c53de1cd2125dbfcb5bd1290d", "fusion_lat": 0.0, "type": "electric_bike", "lat": 38.928545, "is_reserved": 0, "is_disabled": 0, "fusion_lon": 0.0, "bike_id": "e92df91c53de1cd2125dbfcb5bd1290d", "lon": -77.2221125, "rental_uris": {"ios": "https://dc.lft.to/lastmile_qr_scan", "android": "https://dc.lft.to/lastmile_qr_scan"}}, {"name": "a694807041ccd3e80f62e18bef80b45e", "fusion_lat": 0.0, "type": "electric_bike", "lat": 39.053153, "is_reserved": 0, "is_disabled": 0, "fusion_lon": 0.0, "bike_id": "a694807041ccd3e80f62e18bef80b45e", "lon": -77.0477575, "rental_uris": {"ios": "https://dc.lft.to/lastmile_qr_scan", "android": "https://dc.lft.to/lastmile_qr_scan"}}, {"name": "b7293c6be2fa338a69f88ba8c18f15c7", "fusion_lat": 0.0, "type": "electric_scooter", "lat": 38.923148166666664, "is_reserved": 0, "is_disabled": 0, "fusion_lon": 0.0, "bike_id": "b7293c6be2fa338a69f88ba8c18f15c7", "lon": -77.04108533333333, "rental_uris": {"ios": "https://dc.lft.to/lastmile_qr_scan", "android": "https://dc.lft.to/lastmile_qr_scan"}}, {"name": "d920f707ff8570aef2e173951dd2f10a", "fusion_lat": 0.0, "type": "electric_bike", "lat": 38.8963345, "is_reserved": 0, "is_disabled": 0, "fusion_lon": 0.0, "bike_id": "d920f707ff8570aef2e173951dd2f10a", "lon": -77.10455716666667, "rental_uris": {"ios": "https://dc.lft.to/lastmile_qr_scan", "android": "https://dc.lft.to/lastmile_qr_scan"}}, {"name": "068d5d562818e3ecfd49d2767a8778c9", "fusion_lat": 0.0, "type": "electric_scooter", "lat": 38.86807966666667, "is_reserved": 0, "is_disabled": 0, "fusion_lon": 0.0, "bike_id": "068d5d562818e3ecfd49d2767a8778c9", "lon": -76.98615033333333, "rental_uris": {"ios": "https://dc.lft.to/lastmile_qr_scan", "android": "https://dc.lft.to/lastmile_qr_scan"}}, {"name": "72b513fb6a85681bca5f9ef6dd68789a", "fusion_lat": 0.0, "type": "electric_scooter", "lat": 38.92384833333333, "is_reserved": 0, "is_disabled": 0, "fusion_lon": 0.0, "bike_id": "72b513fb6a85681bca5f9ef6dd68789a", "lon": -77.02976533333333, "rental_uris": {"ios": "https://dc.lft.to/lastmile_qr_scan", "android": "https://dc.lft.to/lastmile_qr_scan"}}, {"name": "7d976e3c325ddca71cec3369edfcfcf0", "fusion_lat": 0.0, "type": "electric_scooter", "lat": 38.86245433333333, "is_reserved": 0, "is_disabled": 0, "fusion_lon": 0.0, "bike_id": "7d976e3c325ddca71cec3369edfcfcf0", "lon": -76.99533233333334, "rental_uris": {"ios": "https://dc.lft.to/lastmile_qr_scan", "android": "https://dc.lft.to/lastmile_qr_scan"}}, {"name": "6c85d09c10439f1bf8cef729d3593da5", "fusion_lat": 0.0, "type": "electric_scooter", "lat": 38.86411916666667, "is_reserved": 0, "is_disabled": 0, "fusion_lon": 0.0, "bike_id": "6c85d09c10439f1bf8cef729d3593da5", "lon": -76.98046216666667, "rental_uris": {"ios": "https://dc.lft.to/lastmile_qr_scan", "android": "https://dc.lft.to/lastmile_qr_scan"}}, {"name": "dea00c4c64ec5014b122f2180a43bcd6", "fusion_lat": 0.0, "type": "electric_scooter", "lat": 38.897625833333336, "is_reserved": 0, "is_disabled": 0, "fusion_lon": 0.0, "bike_id": "dea00c4c64ec5014b122f2180a43bcd6", "lon": -77.00899633333333, "rental_uris": {"ios": "https://dc.lft.to/lastmile_qr_scan", "android": "https://dc.lft.to/lastmile_qr_scan"}}, {"name": "02404e00055544a69b4fe9a6f8856b8e", "fusion_lat": 0.0, "type": "electric_scooter", "lat": 38.894063, "is_reserved": 0, "is_disabled": 0, "fusion_lon": 0.0, "bike_id": "02404e00055544a69b4fe9a6f8856b8e", "lon": -76.9480325, "rental_uris": {"ios": "https://dc.lft.to/lastmile_qr_scan", "android": "https://dc.lft.to/lastmile_qr_scan"}}, {"name": "4f8b14055cd941fd348b5e625819f275", "fusion_lat": 0.0, "type": "electric_scooter", "lat": 38.930035833333335, "is_reserved": 0, "is_disabled": 0, "fusion_lon": 0.0, "bike_id": "4f8b14055cd941fd348b5e625819f275", "lon": -77.02305733333333, "rental_uris": {"ios": "https://dc.lft.to/lastmile_qr_scan", "android": "https://dc.lft.to/lastmile_qr_scan"}}, {"name": "42c172c3edfeb6a17f6ddd27f820f4f9", "fusion_lat": 0.0, "type": "electric_bike", "lat": 38.885843666666666, "is_reserved": 0, "is_disabled": 0, "fusion_lon": 0.0, "bike_id": "42c172c3edfeb6a17f6ddd27f820f4f9", "lon": -77.10334416666667, "rental_uris": {"ios": "https://dc.lft.to/lastmile_qr_scan", "android": "https://dc.lft.to/lastmile_qr_scan"}}, {"name": "4b456e6704a4a600204b1604b4262314", "fusion_lat": 0.0, "type": "electric_scooter", "lat": 38.92323, "is_reserved": 0, "is_disabled": 0, "fusion_lon": 0.0, "bike_id": "4b456e6704a4a600204b1604b4262314", "lon": -77.03545433333333, "rental_uris": {"ios": "https://dc.lft.to/lastmile_qr_scan", "android": "https://dc.lft.to/lastmile_qr_scan"}}, {"name": "1e7e9cb2b6c9214bbc9ef446663c3f4c", "fusion_lat": 0.0, "type": "electric_scooter", "lat": 38.879175333333336, "is_reserved": 0, "is_disabled": 0, "fusion_lon": 0.0, "bike_id": "1e7e9cb2b6c9214bbc9ef446663c3f4c", "lon": -77.00529383333334, "rental_uris": {"ios": "https://dc.lft.to/lastmile_qr_scan", "android": "https://dc.lft.to/lastmile_qr_scan"}}, {"name": "721563543d82aa98c5986bf89e33ac64", "fusion_lat": 0.0, "type": "electric_scooter", "lat": 38.9023265, "is_reserved": 0, "is_disabled": 0, "fusion_lon": 0.0, "bike_id": "721563543d82aa98c5986bf89e33ac64", "lon": -77.03484966666667, "rental_uris": {"ios": "https://dc.lft.to/lastmile_qr_scan", "android": "https://dc.lft.to/lastmile_qr_scan"}}, {"name": "84503b4a7d9871b4755639101ce73bc1", "fusion_lat": 0.0, "type": "electric_bike", "lat": 38.878853166666666, "is_reserved": 0, "is_disabled": 0, "fusion_lon": 0.0, "bike_id": "84503b4a7d9871b4755639101ce73bc1", "lon": -77.10878416666667, "rental_uris": {"ios": "https://dc.lft.to/lastmile_qr_scan", "android": "https://dc.lft.to/lastmile_qr_scan"}}, {"name": "1a74388dfd6ecc619d637d902a946563", "fusion_lat": 0.0, "type": "electric_scooter", "lat": 38.899582333333335, "is_reserved": 0, "is_disabled": 0, "fusion_lon": 0.0, "bike_id": "1a74388dfd6ecc619d637d902a946563", "lon": -77.039377, "rental_uris": {"ios": "https://dc.lft.to/lastmile_qr_scan", "android": "https://dc.lft.to/lastmile_qr_scan"}}, {"name": "a7d6fc50a01bf6634dfe7a1d984023c2", "fusion_lat": 0.0, "type": "electric_scooter", "lat": 38.9226045, "is_reserved": 0, "is_disabled": 0, "fusion_lon": 0.0, "bike_id": "a7d6fc50a01bf6634dfe7a1d984023c2", "lon": -77.035308, "rental_uris": {"ios": "https://dc.lft.to/lastmile_qr_scan", "android": "https://dc.lft.to/lastmile_qr_scan"}}, {"name": "0351194e602fdb88b70b9ae667a5eb8d", "fusion_lat": 0.0, "type": "electric_scooter", "lat": 38.92485583333333, "is_reserved": 0, "is_disabled": 0, "fusion_lon": 0.0, "bike_id": "0351194e602fdb88b70b9ae667a5eb8d", "lon": -77.02997916666666, "rental_uris": {"ios": "https://dc.lft.to/lastmile_qr_scan", "android": "https://dc.lft.to/lastmile_qr_scan"}}, {"name": "8c9bda3c69b12c8a11d186fa71a1794f", "fusion_lat": 0.0, "type": "electric_scooter", "lat": 38.92593866666667, "is_reserved": 0, "is_disabled": 0, "fusion_lon": 0.0, "bike_id": "8c9bda3c69b12c8a11d186fa71a1794f", "lon": -77.00854466666667, "rental_uris": {"ios": "https://dc.lft.to/lastmile_qr_scan", "android": "https://dc.lft.to/lastmile_qr_scan"}}, {"name": "7440a646c217af8436af207b2c02f4ef", "fusion_lat": 0.0, "type": "electric_scooter", "lat": 38.930354, "is_reserved": 0, "is_disabled": 0, "fusion_lon": 0.0, "bike_id": "7440a646c217af8436af207b2c02f4ef", "lon": -77.08366033333333, "rental_uris": {"ios": "https://dc.lft.to/lastmile_qr_scan", "android": "https://dc.lft.to/lastmile_qr_scan"}}, {"name": "47e2429ba647d736394af5de52f5ec30", "fusion_lat": 0.0, "type": "electric_scooter", "lat": 38.89837216666667, "is_reserved": 0, "is_disabled": 0, "fusion_lon": 0.0, "bike_id": "47e2429ba647d736394af5de52f5ec30", "lon": -77.03384816666667, "rental_uris": {"ios": "https://dc.lft.to/lastmile_qr_scan", "android": "https://dc.lft.to/lastmile_qr_scan"}}, {"name": "2f024356fa171d0bcb1d22d0a89cab59", "fusion_lat": 0.0, "type": "electric_scooter", "lat": 38.91413683333333, "is_reserved": 0, "is_disabled": 0, "fusion_lon": 0.0, "bike_id": "2f024356fa171d0bcb1d22d0a89cab59", "lon": -77.0449725, "rental_uris": {"ios": "https://dc.lft.to/lastmile_qr_scan", "android": "https://dc.lft.to/lastmile_qr_scan"}}, {"name": "c2eefe6e76b5417f6d3ad527edb2856f", "fusion_lat": 0.0, "type": "electric_scooter", "lat": 38.91554466666667, "is_reserved": 0, "is_disabled": 0, "fusion_lon": 0.0, "bike_id": "c2eefe6e76b5417f6d3ad527edb2856f", "lon": -77.0324465, "rental_uris": {"ios": "https://dc.lft.to/lastmile_qr_scan", "android": "https://dc.lft.to/lastmile_qr_scan"}}, {"name": "d68b3f4302ec13645801036cffdc6468", "fusion_lat": 0.0, "type": "electric_scooter", "lat": 38.91280666666667, "is_reserved": 0, "is_disabled": 0, "fusion_lon": 0.0, "bike_id": "d68b3f4302ec13645801036cffdc6468", "lon": -76.93795616666667, "rental_uris": {"ios": "https://dc.lft.to/lastmile_qr_scan", "android": "https://dc.lft.to/lastmile_qr_scan"}}, {"name": "e2bb4bce098c69511f646c777f1cc0ea", "fusion_lat": 0.0, "type": "electric_scooter", "lat": 38.905215166666665, "is_reserved": 0, "is_disabled": 0, "fusion_lon": 0.0, "bike_id": "e2bb4bce098c69511f646c777f1cc0ea", "lon": -77.0513415, "rental_uris": {"ios": "https://dc.lft.to/lastmile_qr_scan", "android": "https://dc.lft.to/lastmile_qr_scan"}}, {"name": "0fd1645cefbd3509014220f88f95de3a", "fusion_lat": 0.0, "type": "electric_scooter", "lat": 38.898260666666665, "is_reserved": 0, "is_disabled": 0, "fusion_lon": 0.0, "bike_id": "0fd1645cefbd3509014220f88f95de3a", "lon": -76.94640316666667, "rental_uris": {"ios": "https://dc.lft.to/lastmile_qr_scan", "android": "https://dc.lft.to/lastmile_qr_scan"}}, {"name": "a169a9b3f3026571a2707a89333526b4", "fusion_lat": 0.0, "type": "electric_scooter", "lat": 38.938962333333336, "is_reserved": 0, "is_disabled": 0, "fusion_lon": 0.0, "bike_id": "a169a9b3f3026571a2707a89333526b4", "lon": -77.01762183333334, "rental_uris": {"ios": "https://dc.lft.to/lastmile_qr_scan", "android": "https://dc.lft.to/lastmile_qr_scan"}}, {"name": "ca5394f1b4cc94f2d04edfa2901f9892", "fusion_lat": 0.0, "type": "electric_scooter", "lat": 38.89663783333334, "is_reserved": 0, "is_disabled": 0, "fusion_lon": 0.0, "bike_id": "ca5394f1b4cc94f2d04edfa2901f9892", "lon": -76.94851933333334, "rental_uris": {"ios": "https://dc.lft.to/lastmile_qr_scan", "android": "https://dc.lft.to/lastmile_qr_scan"}}, {"name": "0bd38651689daf106b218cc0d8d38cbd", "fusion_lat": 0.0, "type": "electric_bike", "lat": 38.90704183333333, "is_reserved": 0, "is_disabled": 0, "fusion_lon": 0.0, "bike_id": "0bd38651689daf106b218cc0d8d38cbd", "lon": -77.0513405, "rental_uris": {"ios": "https://dc.lft.to/lastmile_qr_scan", "android": "https://dc.lft.to/lastmile_qr_scan"}}, {"name": "a54f5476220afe78e3ef61e5a1c7fddb", "fusion_lat": 0.0, "type": "electric_scooter", "lat": 38.879145666666666, "is_reserved": 0, "is_disabled": 0, "fusion_lon": 0.0, "bike_id": "a54f5476220afe78e3ef61e5a1c7fddb", "lon": -76.9925725, "rental_uris": {"ios": "https://dc.lft.to/lastmile_qr_scan", "android": "https://dc.lft.to/lastmile_qr_scan"}}, {"name": "020a38f341189c3bfbf17502867be567", "fusion_lat": 0.0, "type": "electric_scooter", "lat": 38.918656666666664, "is_reserved": 0, "is_disabled": 0, "fusion_lon": 0.0, "bike_id": "020a38f341189c3bfbf17502867be567", "lon": -77.0231025, "rental_uris": {"ios": "https://dc.lft.to/lastmile_qr_scan", "android": "https://dc.lft.to/lastmile_qr_scan"}}, {"name": "8333f2d4e50ef62a297ad0b7e2c442d7", "fusion_lat": 0.0, "type": "electric_scooter", "lat": 38.874170666666664, "is_reserved": 0, "is_disabled": 0, "fusion_lon": 0.0, "bike_id": "8333f2d4e50ef62a297ad0b7e2c442d7", "lon": -76.96088766666666, "rental_uris": {"ios": "https://dc.lft.to/lastmile_qr_scan", "android": "https://dc.lft.to/lastmile_qr_scan"}}, {"name": "b9e6adb3dfe99d0de002c03c17a322d9", "fusion_lat": 0.0, "type": "electric_scooter", "lat": 38.94287466666667, "is_reserved": 0, "is_disabled": 0, "fusion_lon": 0.0, "bike_id": "b9e6adb3dfe99d0de002c03c17a322d9", "lon": -77.0217175, "rental_uris": {"ios": "https://dc.lft.to/lastmile_qr_scan", "android": "https://dc.lft.to/lastmile_qr_scan"}}, {"name": "39ab16536ebcd3e39f5b3a3859448a28", "fusion_lat": 0.0, "type": "electric_scooter", "lat": 38.9097235, "is_reserved": 0, "is_disabled": 0, "fusion_lon": 0.0, "bike_id": "39ab16536ebcd3e39f5b3a3859448a28", "lon": -77.067145, "rental_uris": {"ios": "https://dc.lft.to/lastmile_qr_scan", "android": "https://dc.lft.to/lastmile_qr_scan"}}, {"name": "c25d392eaa032f9493634130e356801a", "fusion_lat": 0.0, "type": "electric_scooter", "lat": 38.918914, "is_reserved": 0, "is_disabled": 0, "fusion_lon": 0.0, "bike_id": "c25d392eaa032f9493634130e356801a", "lon": -77.04170416666666, "rental_uris": {"ios": "https://dc.lft.to/lastmile_qr_scan", "android": "https://dc.lft.to/lastmile_qr_scan"}}, {"name": "9dce533c8689ffe126be5322fe27e065", "fusion_lat": 0.0, "type": "electric_scooter", "lat": 38.9124235, "is_reserved": 0, "is_disabled": 0, "fusion_lon": 0.0, "bike_id": "9dce533c8689ffe126be5322fe27e065", "lon": -77.02224266666667, "rental_uris": {"ios": "https://dc.lft.to/lastmile_qr_scan", "android": "https://dc.lft.to/lastmile_qr_scan"}}, {"name": "fb2d63ce62b6e79327ac99a63ebbe2fb", "fusion_lat": 0.0, "type": "electric_scooter", "lat": 38.942906666666666, "is_reserved": 0, "is_disabled": 0, "fusion_lon": 0.0, "bike_id": "fb2d63ce62b6e79327ac99a63ebbe2fb", "lon": -77.02174483333333, "rental_uris": {"ios": "https://dc.lft.to/lastmile_qr_scan", "android": "https://dc.lft.to/lastmile_qr_scan"}}, {"name": "6f7591af956166274e6a48dde4cf698b", "fusion_lat": 0.0, "type": "electric_scooter", "lat": 38.932300166666664, "is_reserved": 0, "is_disabled": 0, "fusion_lon": 0.0, "bike_id": "6f7591af956166274e6a48dde4cf698b", "lon": -77.03586933333334, "rental_uris": {"ios": "https://dc.lft.to/lastmile_qr_scan", "android": "https://dc.lft.to/lastmile_qr_scan"}}, {"name": "e10fc7115bb4ea5f2dd9ab4de1853754", "fusion_lat": 0.0, "type": "electric_scooter", "lat": 38.897375, "is_reserved": 0, "is_disabled": 0, "fusion_lon": 0.0, "bike_id": "e10fc7115bb4ea5f2dd9ab4de1853754", "lon": -76.94253016666667, "rental_uris": {"ios": "https://dc.lft.to/lastmile_qr_scan", "android": "https://dc.lft.to/lastmile_qr_scan"}}, {"name": "59547dd832aff2ef1e4e872ae2bbcf5e", "fusion_lat": 0.0, "type": "electric_scooter", "lat": 38.907931833333336, "is_reserved": 0, "is_disabled": 0, "fusion_lon": 0.0, "bike_id": "59547dd832aff2ef1e4e872ae2bbcf5e", "lon": -77.0482415, "rental_uris": {"ios": "https://dc.lft.to/lastmile_qr_scan", "android": "https://dc.lft.to/lastmile_qr_scan"}}, {"name": "5de032b5ffcde791cbe2ddd45f0f649c", "fusion_lat": 0.0, "type": "electric_scooter", "lat": 38.930020166666665, "is_reserved": 0, "is_disabled": 0, "fusion_lon": 0.0, "bike_id": "5de032b5ffcde791cbe2ddd45f0f649c", "lon": -77.02307383333333, "rental_uris": {"ios": "https://dc.lft.to/lastmile_qr_scan", "android": "https://dc.lft.to/lastmile_qr_scan"}}, {"name": "0786d652dd23e3a52131919171750128", "fusion_lat": 0.0, "type": "electric_bike", "lat": 38.938593, "is_reserved": 0, "is_disabled": 0, "fusion_lon": 0.0, "bike_id": "0786d652dd23e3a52131919171750128", "lon": -77.0265155, "rental_uris": {"ios": "https://dc.lft.to/lastmile_qr_scan", "android": "https://dc.lft.to/lastmile_qr_scan"}}, {"name": "ab44160cf46624114d4719e0ffdd3058", "fusion_lat": 0.0, "type": "electric_scooter", "lat": 38.875675666666666, "is_reserved": 0, "is_disabled": 0, "fusion_lon": 0.0, "bike_id": "ab44160cf46624114d4719e0ffdd3058", "lon": -77.007302, "rental_uris": {"ios": "https://dc.lft.to/lastmile_qr_scan", "android": "https://dc.lft.to/lastmile_qr_scan"}}, {"name": "53aff38d4020b34accb71b94fa32504d", "fusion_lat": 0.0, "type": "electric_scooter", "lat": 38.905130666666665, "is_reserved": 0, "is_disabled": 0, "fusion_lon": 0.0, "bike_id": "53aff38d4020b34accb71b94fa32504d", "lon": -77.02950383333334, "rental_uris": {"ios": "https://dc.lft.to/lastmile_qr_scan", "android": "https://dc.lft.to/lastmile_qr_scan"}}, {"name": "76686f70c1af0d8c94d0f284c57719c5", "fusion_lat": 0.0, "type": "electric_scooter", "lat": 38.90839183333333, "is_reserved": 0, "is_disabled": 0, "fusion_lon": 0.0, "bike_id": "76686f70c1af0d8c94d0f284c57719c5", "lon": -77.02041466666667, "rental_uris": {"ios": "https://dc.lft.to/lastmile_qr_scan", "android": "https://dc.lft.to/lastmile_qr_scan"}}, {"name": "08add89018a510e9e9ede762c8aaf716", "fusion_lat": 0.0, "type": "electric_scooter", "lat": 38.919871, "is_reserved": 0, "is_disabled": 0, "fusion_lon": 0.0, "bike_id": "08add89018a510e9e9ede762c8aaf716", "lon": -76.97305083333333, "rental_uris": {"ios": "https://dc.lft.to/lastmile_qr_scan", "android": "https://dc.lft.to/lastmile_qr_scan"}}, {"name": "5fcf4896f06e9ab10a9d89ece6f6b9a7", "fusion_lat": 0.0, "type": "electric_scooter", "lat": 38.886878, "is_reserved": 0, "is_disabled": 0, "fusion_lon": 0.0, "bike_id": "5fcf4896f06e9ab10a9d89ece6f6b9a7", "lon": -76.9576365, "rental_uris": {"ios": "https://dc.lft.to/lastmile_qr_scan", "android": "https://dc.lft.to/lastmile_qr_scan"}}, {"name": "33c73bba2278d2875b4e46070ab6bd36", "fusion_lat": 0.0, "type": "electric_scooter", "lat": 38.897368, "is_reserved": 0, "is_disabled": 0, "fusion_lon": 0.0, "bike_id": "33c73bba2278d2875b4e46070ab6bd36", "lon": -76.93851666666667, "rental_uris": {"ios": "https://dc.lft.to/lastmile_qr_scan", "android": "https://dc.lft.to/lastmile_qr_scan"}}, {"name": "8db7ba1fab77553e01c515a3bf14c2f2", "fusion_lat": 0.0, "type": "electric_scooter", "lat": 38.911512, "is_reserved": 0, "is_disabled": 0, "fusion_lon": 0.0, "bike_id": "8db7ba1fab77553e01c515a3bf14c2f2", "lon": -77.04429416666666, "rental_uris": {"ios": "https://dc.lft.to/lastmile_qr_scan", "android": "https://dc.lft.to/lastmile_qr_scan"}}, {"name": "c35c24aeaed6723457584f0346d19610", "fusion_lat": 0.0, "type": "electric_scooter", "lat": 38.8584745, "is_reserved": 0, "is_disabled": 0, "fusion_lon": 0.0, "bike_id": "c35c24aeaed6723457584f0346d19610", "lon": -76.95881966666667, "rental_uris": {"ios": "https://dc.lft.to/lastmile_qr_scan", "android": "https://dc.lft.to/lastmile_qr_scan"}}, {"name": "73169cbedfcfbcf0705edbcd1431ac5c", "fusion_lat": 0.0, "type": "electric_scooter", "lat": 38.90777933333333, "is_reserved": 0, "is_disabled": 0, "fusion_lon": 0.0, "bike_id": "73169cbedfcfbcf0705edbcd1431ac5c", "lon": -77.0717225, "rental_uris": {"ios": "https://dc.lft.to/lastmile_qr_scan", "android": "https://dc.lft.to/lastmile_qr_scan"}}, {"name": "c5177b9fa3afedb96b680ba203d1f47c", "fusion_lat": 0.0, "type": "electric_scooter", "lat": 38.91595216666666, "is_reserved": 0, "is_disabled": 0, "fusion_lon": 0.0, "bike_id": "c5177b9fa3afedb96b680ba203d1f47c", "lon": -77.038582, "rental_uris": {"ios": "https://dc.lft.to/lastmile_qr_scan", "android": "https://dc.lft.to/lastmile_qr_scan"}}, {"name": "0fbcb396a6fdb7dd6b3fe1e64eb954ec", "fusion_lat": 0.0, "type": "electric_bike", "lat": 38.83827733333333, "is_reserved": 0, "is_disabled": 0, "fusion_lon": 0.0, "bike_id": "0fbcb396a6fdb7dd6b3fe1e64eb954ec", "lon": -76.99684733333333, "rental_uris": {"ios": "https://dc.lft.to/lastmile_qr_scan", "android": "https://dc.lft.to/lastmile_qr_scan"}}, {"name": "97ed783df2562323821c09b494ee7a56", "fusion_lat": 0.0, "type": "electric_scooter", "lat": 38.921558, "is_reserved": 0, "is_disabled": 0, "fusion_lon": 0.0, "bike_id": "97ed783df2562323821c09b494ee7a56", "lon": -77.04233333333333, "rental_uris": {"ios": "https://dc.lft.to/lastmile_qr_scan", "android": "https://dc.lft.to/lastmile_qr_scan"}}, {"name": "af08f42a01c4e7666c77e85039db1a9c", "fusion_lat": 0.0, "type": "electric_scooter", "lat": 38.89493383333333, "is_reserved": 0, "is_disabled": 0, "fusion_lon": 0.0, "bike_id": "af08f42a01c4e7666c77e85039db1a9c", "lon": -77.02561416666667, "rental_uris": {"ios": "https://dc.lft.to/lastmile_qr_scan", "android": "https://dc.lft.to/lastmile_qr_scan"}}, {"name": "7ffe61414ca796614596a8b1070594b1", "fusion_lat": 0.0, "type": "electric_scooter", "lat": 38.91484616666666, "is_reserved": 0, "is_disabled": 0, "fusion_lon": 0.0, "bike_id": "7ffe61414ca796614596a8b1070594b1", "lon": -77.0449455, "rental_uris": {"ios": "https://dc.lft.to/lastmile_qr_scan", "android": "https://dc.lft.to/lastmile_qr_scan"}}, {"name": "7186babec2768f7aaf9525e078c460ef", "fusion_lat": 0.0, "type": "electric_scooter", "lat": 38.91106383333333, "is_reserved": 0, "is_disabled": 0, "fusion_lon": 0.0, "bike_id": "7186babec2768f7aaf9525e078c460ef", "lon": -77.0314865, "rental_uris": {"ios": "https://dc.lft.to/lastmile_qr_scan", "android": "https://dc.lft.to/lastmile_qr_scan"}}, {"name": "ab03c2a68ab12fec8435fb54481129f4", "fusion_lat": 0.0, "type": "electric_bike", "lat": 38.799892, "is_reserved": 0, "is_disabled": 0, "fusion_lon": 0.0, "bike_id": "ab03c2a68ab12fec8435fb54481129f4", "lon": -77.12973383333333, "rental_uris": {"ios": "https://dc.lft.to/lastmile_qr_scan", "android": "https://dc.lft.to/lastmile_qr_scan"}}, {"name": "c17a7b9a272d098dd508ca5910afd45f", "fusion_lat": 0.0, "type": "electric_scooter", "lat": 38.89453666666667, "is_reserved": 0, "is_disabled": 0, "fusion_lon": 0.0, "bike_id": "c17a7b9a272d098dd508ca5910afd45f", "lon": -77.01926316666666, "rental_uris": {"ios": "https://dc.lft.to/lastmile_qr_scan", "android": "https://dc.lft.to/lastmile_qr_scan"}}, {"name": "12ecc58d02032dabdcaac97d92a078a3", "fusion_lat": 0.0, "type": "electric_scooter", "lat": 38.93781883333333, "is_reserved": 0, "is_disabled": 0, "fusion_lon": 0.0, "bike_id": "12ecc58d02032dabdcaac97d92a078a3", "lon": -77.05993633333334, "rental_uris": {"ios": "https://dc.lft.to/lastmile_qr_scan", "android": "https://dc.lft.to/lastmile_qr_scan"}}, {"name": "4f1222707e68f372ad7eb276fed97652", "fusion_lat": 0.0, "type": "electric_scooter", "lat": 38.88578316666667, "is_reserved": 0, "is_disabled": 0, "fusion_lon": 0.0, "bike_id": "4f1222707e68f372ad7eb276fed97652", "lon": -76.99618166666667, "rental_uris": {"ios": "https://dc.lft.to/lastmile_qr_scan", "android": "https://dc.lft.to/lastmile_qr_scan"}}, {"name": "ca9dd54dbf8c2a04cd7db82110114a4e", "fusion_lat": 0.0, "type": "electric_bike", "lat": 38.87551116666667, "is_reserved": 0, "is_disabled": 0, "fusion_lon": 0.0, "bike_id": "ca9dd54dbf8c2a04cd7db82110114a4e", "lon": -76.96755316666666, "rental_uris": {"ios": "https://dc.lft.to/lastmile_qr_scan", "android": "https://dc.lft.to/lastmile_qr_scan"}}, {"name": "5b47b278c21a8e266e378239cf95b07b", "fusion_lat": 0.0, "type": "electric_scooter", "lat": 38.89984333333334, "is_reserved": 0, "is_disabled": 0, "fusion_lon": 0.0, "bike_id": "5b47b278c21a8e266e378239cf95b07b", "lon": -77.00666016666666, "rental_uris": {"ios": "https://dc.lft.to/lastmile_qr_scan", "android": "https://dc.lft.to/lastmile_qr_scan"}}, {"name": "d20842c610d29e6b13c50e3a2bb13863", "fusion_lat": 0.0, "type": "electric_scooter", "lat": 38.92510583333333, "is_reserved": 0, "is_disabled": 0, "fusion_lon": 0.0, "bike_id": "d20842c610d29e6b13c50e3a2bb13863", "lon": -77.0022795, "rental_uris": {"ios": "https://dc.lft.to/lastmile_qr_scan", "android": "https://dc.lft.to/lastmile_qr_scan"}}, {"name": "4b4445c16887cc394bc72541dc373464", "fusion_lat": 0.0, "type": "electric_scooter", "lat": 38.932523833333335, "is_reserved": 0, "is_disabled": 0, "fusion_lon": 0.0, "bike_id": "4b4445c16887cc394bc72541dc373464", "lon": -77.0401065, "rental_uris": {"ios": "https://dc.lft.to/lastmile_qr_scan", "android": "https://dc.lft.to/lastmile_qr_scan"}}, {"name": "2ec13fd986d14568b5259ac5aad8fbde", "fusion_lat": 0.0, "type": "electric_scooter", "lat": 38.87186166666667, "is_reserved": 0, "is_disabled": 0, "fusion_lon": 0.0, "bike_id": "2ec13fd986d14568b5259ac5aad8fbde", "lon": -77.00596916666667, "rental_uris": {"ios": "https://dc.lft.to/lastmile_qr_scan", "android": "https://dc.lft.to/lastmile_qr_scan"}}, {"name": "9b8c8be60203b38f2a03b6c20778258d", "fusion_lat": 0.0, "type": "electric_bike", "lat": 38.94968216666667, "is_reserved": 0, "is_disabled": 0, "fusion_lon": 0.0, "bike_id": "9b8c8be60203b38f2a03b6c20778258d", "lon": -76.97284416666666, "rental_uris": {"ios": "https://dc.lft.to/lastmile_qr_scan", "android": "https://dc.lft.to/lastmile_qr_scan"}}, {"name": "b35ff768835b904c92ac781caf5aa7b4", "fusion_lat": 0.0, "type": "electric_scooter", "lat": 38.9003495, "is_reserved": 0, "is_disabled": 0, "fusion_lon": 0.0, "bike_id": "b35ff768835b904c92ac781caf5aa7b4", "lon": -77.006295, "rental_uris": {"ios": "https://dc.lft.to/lastmile_qr_scan", "android": "https://dc.lft.to/lastmile_qr_scan"}}, {"name": "7ad4b45487efa43b5a836d6b810343cb", "fusion_lat": 0.0, "type": "electric_scooter", "lat": 38.91264833333334, "is_reserved": 0, "is_disabled": 0, "fusion_lon": 0.0, "bike_id": "7ad4b45487efa43b5a836d6b810343cb", "lon": -77.04032816666667, "rental_uris": {"ios": "https://dc.lft.to/lastmile_qr_scan", "android": "https://dc.lft.to/lastmile_qr_scan"}}, {"name": "c44e9bfc608c4f8af1e85feb0531cb59", "fusion_lat": 0.0, "type": "electric_scooter", "lat": 38.8999165, "is_reserved": 0, "is_disabled": 0, "fusion_lon": 0.0, "bike_id": "c44e9bfc608c4f8af1e85feb0531cb59", "lon": -77.02595433333333, "rental_uris": {"ios": "https://dc.lft.to/lastmile_qr_scan", "android": "https://dc.lft.to/lastmile_qr_scan"}}, {"name": "a673fa4ac88c24efd6819a520e42f258", "fusion_lat": 0.0, "type": "electric_scooter", "lat": 38.91724283333333, "is_reserved": 0, "is_disabled": 0, "fusion_lon": 0.0, "bike_id": "a673fa4ac88c24efd6819a520e42f258", "lon": -77.0320595, "rental_uris": {"ios": "https://dc.lft.to/lastmile_qr_scan", "android": "https://dc.lft.to/lastmile_qr_scan"}}, {"name": "e9766366c0cda9bb701a168af9d6b403", "fusion_lat": 0.0, "type": "electric_scooter", "lat": 38.9073215, "is_reserved": 0, "is_disabled": 0, "fusion_lon": 0.0, "bike_id": "e9766366c0cda9bb701a168af9d6b403", "lon": -77.04671483333334, "rental_uris": {"ios": "https://dc.lft.to/lastmile_qr_scan", "android": "https://dc.lft.to/lastmile_qr_scan"}}, {"name": "1cdbc6601d2c09a98898b479d3dd86f8", "fusion_lat": 0.0, "type": "electric_scooter", "lat": 38.88035516666667, "is_reserved": 0, "is_disabled": 0, "fusion_lon": 0.0, "bike_id": "1cdbc6601d2c09a98898b479d3dd86f8", "lon": -77.00513816666667, "rental_uris": {"ios": "https://dc.lft.to/lastmile_qr_scan", "android": "https://dc.lft.to/lastmile_qr_scan"}}, {"name": "9ec4e9624bc7523c97709ac97969b57c", "fusion_lat": 0.0, "type": "electric_scooter", "lat": 38.897708333333334, "is_reserved": 0, "is_disabled": 0, "fusion_lon": 0.0, "bike_id": "9ec4e9624bc7523c97709ac97969b57c", "lon": -77.05166583333333, "rental_uris": {"ios": "https://dc.lft.to/lastmile_qr_scan", "android": "https://dc.lft.to/lastmile_qr_scan"}}, {"name": "15f7a3908ca8ff2abdd0ff47d6406f37", "fusion_lat": 0.0, "type": "electric_scooter", "lat": 38.901175333333335, "is_reserved": 0, "is_disabled": 0, "fusion_lon": 0.0, "bike_id": "15f7a3908ca8ff2abdd0ff47d6406f37", "lon": -77.04222516666667, "rental_uris": {"ios": "https://dc.lft.to/lastmile_qr_scan", "android": "https://dc.lft.to/lastmile_qr_scan"}}, {"name": "25525e5617a4f0a91c73ab9c75eadeba", "fusion_lat": 0.0, "type": "electric_scooter", "lat": 38.9049585, "is_reserved": 0, "is_disabled": 0, "fusion_lon": 0.0, "bike_id": "25525e5617a4f0a91c73ab9c75eadeba", "lon": -77.065305, "rental_uris": {"ios": "https://dc.lft.to/lastmile_qr_scan", "android": "https://dc.lft.to/lastmile_qr_scan"}}, {"name": "762dcb7ff52456cd98a605d354f13b5c", "fusion_lat": 0.0, "type": "electric_scooter", "lat": 38.923288666666664, "is_reserved": 0, "is_disabled": 0, "fusion_lon": 0.0, "bike_id": "762dcb7ff52456cd98a605d354f13b5c", "lon": -77.0195655, "rental_uris": {"ios": "https://dc.lft.to/lastmile_qr_scan", "android": "https://dc.lft.to/lastmile_qr_scan"}}, {"name": "45decec3d51694a661dab493c7005691", "fusion_lat": 0.0, "type": "electric_scooter", "lat": 38.905059333333334, "is_reserved": 0, "is_disabled": 0, "fusion_lon": 0.0, "bike_id": "45decec3d51694a661dab493c7005691", "lon": -77.03550466666667, "rental_uris": {"ios": "https://dc.lft.to/lastmile_qr_scan", "android": "https://dc.lft.to/lastmile_qr_scan"}}, {"name": "ae9e0ed4b7cfa91b2dc311ac206fd525", "fusion_lat": 0.0, "type": "electric_scooter", "lat": 38.929237, "is_reserved": 0, "is_disabled": 0, "fusion_lon": 0.0, "bike_id": "ae9e0ed4b7cfa91b2dc311ac206fd525", "lon": -77.03650766666667, "rental_uris": {"ios": "https://dc.lft.to/lastmile_qr_scan", "android": "https://dc.lft.to/lastmile_qr_scan"}}, {"name": "d8f3f936a779c2286da46305c0349489", "fusion_lat": 0.0, "type": "electric_scooter", "lat": 38.901386, "is_reserved": 0, "is_disabled": 0, "fusion_lon": 0.0, "bike_id": "d8f3f936a779c2286da46305c0349489", "lon": -76.99991133333333, "rental_uris": {"ios": "https://dc.lft.to/lastmile_qr_scan", "android": "https://dc.lft.to/lastmile_qr_scan"}}, {"name": "2cccf00ffd33bbb73dc16919f67ba08a", "fusion_lat": 0.0, "type": "electric_scooter", "lat": 38.903812, "is_reserved": 0, "is_disabled": 0, "fusion_lon": 0.0, "bike_id": "2cccf00ffd33bbb73dc16919f67ba08a", "lon": -77.036338, "rental_uris": {"ios": "https://dc.lft.to/lastmile_qr_scan", "android": "https://dc.lft.to/lastmile_qr_scan"}}, {"name": "609cf067eae75e2af4c9518f8cadfc52", "fusion_lat": 0.0, "type": "electric_scooter", "lat": 38.923312833333334, "is_reserved": 0, "is_disabled": 0, "fusion_lon": 0.0, "bike_id": "609cf067eae75e2af4c9518f8cadfc52", "lon": -77.04176183333334, "rental_uris": {"ios": "https://dc.lft.to/lastmile_qr_scan", "android": "https://dc.lft.to/lastmile_qr_scan"}}, {"name": "a2017c3905037a24b92dfbef2a07926b", "fusion_lat": 0.0, "type": "electric_scooter", "lat": 38.909506, "is_reserved": 0, "is_disabled": 0, "fusion_lon": 0.0, "bike_id": "a2017c3905037a24b92dfbef2a07926b", "lon": -77.02379433333333, "rental_uris": {"ios": "https://dc.lft.to/lastmile_qr_scan", "android": "https://dc.lft.to/lastmile_qr_scan"}}, {"name": "7ced68c91433fe6f55ac960850fa6006", "fusion_lat": 0.0, "type": "electric_scooter", "lat": 38.900478166666666, "is_reserved": 0, "is_disabled": 0, "fusion_lon": 0.0, "bike_id": "7ced68c91433fe6f55ac960850fa6006", "lon": -77.00071116666666, "rental_uris": {"ios": "https://dc.lft.to/lastmile_qr_scan", "android": "https://dc.lft.to/lastmile_qr_scan"}}, {"name": "12c650742c9bad396d5672aabcb5cc07", "fusion_lat": 0.0, "type": "electric_scooter", "lat": 38.909076, "is_reserved": 0, "is_disabled": 0, "fusion_lon": 0.0, "bike_id": "12c650742c9bad396d5672aabcb5cc07", "lon": -77.0643085, "rental_uris": {"ios": "https://dc.lft.to/lastmile_qr_scan", "android": "https://dc.lft.to/lastmile_qr_scan"}}, {"name": "21eee606a71b9ad550ef88fea7dc030c", "fusion_lat": 0.0, "type": "electric_scooter", "lat": 38.91693033333333, "is_reserved": 0, "is_disabled": 0, "fusion_lon": 0.0, "bike_id": "21eee606a71b9ad550ef88fea7dc030c", "lon": -77.02886883333333, "rental_uris": {"ios": "https://dc.lft.to/lastmile_qr_scan", "android": "https://dc.lft.to/lastmile_qr_scan"}}, {"name": "93e0bffc2c5e2c0554520496c295ddf5", "fusion_lat": 0.0, "type": "electric_scooter", "lat": 38.887349666666665, "is_reserved": 0, "is_disabled": 0, "fusion_lon": 0.0, "bike_id": "93e0bffc2c5e2c0554520496c295ddf5", "lon": -77.03202783333333, "rental_uris": {"ios": "https://dc.lft.to/lastmile_qr_scan", "android": "https://dc.lft.to/lastmile_qr_scan"}}, {"name": "e84610af6a1e3f54813cae67023ba6c2", "fusion_lat": 0.0, "type": "electric_scooter", "lat": 38.8835425, "is_reserved": 0, "is_disabled": 0, "fusion_lon": 0.0, "bike_id": "e84610af6a1e3f54813cae67023ba6c2", "lon": -76.99612366666666, "rental_uris": {"ios": "https://dc.lft.to/lastmile_qr_scan", "android": "https://dc.lft.to/lastmile_qr_scan"}}, {"name": "1118c48799f07cb557ba22286068f675", "fusion_lat": 0.0, "type": "electric_scooter", "lat": 38.89658466666667, "is_reserved": 0, "is_disabled": 0, "fusion_lon": 0.0, "bike_id": "1118c48799f07cb557ba22286068f675", "lon": -77.029564, "rental_uris": {"ios": "https://dc.lft.to/lastmile_qr_scan", "android": "https://dc.lft.to/lastmile_qr_scan"}}, {"name": "b460d3389ecbacefde8f70e50faea051", "fusion_lat": 0.0, "type": "electric_scooter", "lat": 38.90572433333333, "is_reserved": 0, "is_disabled": 0, "fusion_lon": 0.0, "bike_id": "b460d3389ecbacefde8f70e50faea051", "lon": -77.0210115, "rental_uris": {"ios": "https://dc.lft.to/lastmile_qr_scan", "android": "https://dc.lft.to/lastmile_qr_scan"}}, {"name": "adfcaca90b0b91770f62cfcfe728c02e", "fusion_lat": 0.0, "type": "electric_scooter", "lat": 38.9063975, "is_reserved": 0, "is_disabled": 0, "fusion_lon": 0.0, "bike_id": "adfcaca90b0b91770f62cfcfe728c02e", "lon": -77.02611866666666, "rental_uris": {"ios": "https://dc.lft.to/lastmile_qr_scan", "android": "https://dc.lft.to/lastmile_qr_scan"}}, {"name": "5514607af1086d84c48676a8a32c77b9", "fusion_lat": 0.0, "type": "electric_scooter", "lat": 38.93859783333333, "is_reserved": 0, "is_disabled": 0, "fusion_lon": 0.0, "bike_id": "5514607af1086d84c48676a8a32c77b9", "lon": -77.0265175, "rental_uris": {"ios": "https://dc.lft.to/lastmile_qr_scan", "android": "https://dc.lft.to/lastmile_qr_scan"}}, {"name": "b042038c66cba1785df0df9246cb4e3b", "fusion_lat": 0.0, "type": "electric_scooter", "lat": 38.90364683333333, "is_reserved": 0, "is_disabled": 0, "fusion_lon": 0.0, "bike_id": "b042038c66cba1785df0df9246cb4e3b", "lon": -77.00346316666666, "rental_uris": {"ios": "https://dc.lft.to/lastmile_qr_scan", "android": "https://dc.lft.to/lastmile_qr_scan"}}, {"name": "bf4d4061be85ad12ef879ef98567d66c", "fusion_lat": 0.0, "type": "electric_scooter", "lat": 38.9056375, "is_reserved": 0, "is_disabled": 0, "fusion_lon": 0.0, "bike_id": "bf4d4061be85ad12ef879ef98567d66c", "lon": -77.0279755, "rental_uris": {"ios": "https://dc.lft.to/lastmile_qr_scan", "android": "https://dc.lft.to/lastmile_qr_scan"}}, {"name": "c918d35c5a66ebed73039d11a2fc7b47", "fusion_lat": 0.0, "type": "electric_scooter", "lat": 38.90470033333333, "is_reserved": 0, "is_disabled": 0, "fusion_lon": 0.0, "bike_id": "c918d35c5a66ebed73039d11a2fc7b47", "lon": -77.028139, "rental_uris": {"ios": "https://dc.lft.to/lastmile_qr_scan", "android": "https://dc.lft.to/lastmile_qr_scan"}}, {"name": "51a4ed9e5ce13f8a446ffc34482abbf0", "fusion_lat": 0.0, "type": "electric_bike", "lat": 38.928659333333336, "is_reserved": 0, "is_disabled": 0, "fusion_lon": 0.0, "bike_id": "51a4ed9e5ce13f8a446ffc34482abbf0", "lon": -76.96107033333334, "rental_uris": {"ios": "https://dc.lft.to/lastmile_qr_scan", "android": "https://dc.lft.to/lastmile_qr_scan"}}, {"name": "9ec5416c3e0415638897048b6b32a3c3", "fusion_lat": 0.0, "type": "electric_scooter", "lat": 38.887398833333336, "is_reserved": 0, "is_disabled": 0, "fusion_lon": 0.0, "bike_id": "9ec5416c3e0415638897048b6b32a3c3", "lon": -77.015394, "rental_uris": {"ios": "https://dc.lft.to/lastmile_qr_scan", "android": "https://dc.lft.to/lastmile_qr_scan"}}, {"name": "eb4e116858bf88a8d79ffdf14c6137c0", "fusion_lat": 0.0, "type": "electric_scooter", "lat": 38.941069166666665, "is_reserved": 0, "is_disabled": 0, "fusion_lon": 0.0, "bike_id": "eb4e116858bf88a8d79ffdf14c6137c0", "lon": -77.026665, "rental_uris": {"ios": "https://dc.lft.to/lastmile_qr_scan", "android": "https://dc.lft.to/lastmile_qr_scan"}}, {"name": "9f470531765266a55a91002514706965", "fusion_lat": 0.0, "type": "electric_scooter", "lat": 38.96556066666667, "is_reserved": 0, "is_disabled": 0, "fusion_lon": 0.0, "bike_id": "9f470531765266a55a91002514706965", "lon": -77.01632216666667, "rental_uris": {"ios": "https://dc.lft.to/lastmile_qr_scan", "android": "https://dc.lft.to/lastmile_qr_scan"}}, {"name": "db1c8988be12fc06df67a052988be260", "fusion_lat": 0.0, "type": "electric_scooter", "lat": 38.9231985, "is_reserved": 0, "is_disabled": 0, "fusion_lon": 0.0, "bike_id": "db1c8988be12fc06df67a052988be260", "lon": -77.041962, "rental_uris": {"ios": "https://dc.lft.to/lastmile_qr_scan", "android": "https://dc.lft.to/lastmile_qr_scan"}}, {"name": "49d9522ddb3a1d293e4c5e6547826c81", "fusion_lat": 0.0, "type": "electric_scooter", "lat": 38.898778, "is_reserved": 0, "is_disabled": 0, "fusion_lon": 0.0, "bike_id": "49d9522ddb3a1d293e4c5e6547826c81", "lon": -77.03932483333334, "rental_uris": {"ios": "https://dc.lft.to/lastmile_qr_scan", "android": "https://dc.lft.to/lastmile_qr_scan"}}, {"name": "8543374d1e2fe548913d33f964f704c0", "fusion_lat": 0.0, "type": "electric_scooter", "lat": 38.911787, "is_reserved": 0, "is_disabled": 0, "fusion_lon": 0.0, "bike_id": "8543374d1e2fe548913d33f964f704c0", "lon": -77.03145116666667, "rental_uris": {"ios": "https://dc.lft.to/lastmile_qr_scan", "android": "https://dc.lft.to/lastmile_qr_scan"}}, {"name": "e749ffa880dc74d927b64722e59aa9bf", "fusion_lat": 0.0, "type": "electric_scooter", "lat": 38.905163333333334, "is_reserved": 0, "is_disabled": 0, "fusion_lon": 0.0, "bike_id": "e749ffa880dc74d927b64722e59aa9bf", "lon": -77.051522, "rental_uris": {"ios": "https://dc.lft.to/lastmile_qr_scan", "android": "https://dc.lft.to/lastmile_qr_scan"}}, {"name": "4df7635ca80c000b1624e2ba4524fbd0", "fusion_lat": 0.0, "type": "electric_scooter", "lat": 38.899172, "is_reserved": 0, "is_disabled": 0, "fusion_lon": 0.0, "bike_id": "4df7635ca80c000b1624e2ba4524fbd0", "lon": -77.03222183333334, "rental_uris": {"ios": "https://dc.lft.to/lastmile_qr_scan", "android": "https://dc.lft.to/lastmile_qr_scan"}}, {"name": "a116adfcd53ba7d00b05fe973ba0f2ed", "fusion_lat": 0.0, "type": "electric_scooter", "lat": 38.89612566666667, "is_reserved": 0, "is_disabled": 0, "fusion_lon": 0.0, "bike_id": "a116adfcd53ba7d00b05fe973ba0f2ed", "lon": -77.02681466666667, "rental_uris": {"ios": "https://dc.lft.to/lastmile_qr_scan", "android": "https://dc.lft.to/lastmile_qr_scan"}}, {"name": "b19c7b47d3984f43f9fda2e718bd1666", "fusion_lat": 0.0, "type": "electric_scooter", "lat": 38.90656666666667, "is_reserved": 0, "is_disabled": 0, "fusion_lon": 0.0, "bike_id": "b19c7b47d3984f43f9fda2e718bd1666", "lon": -77.0532965, "rental_uris": {"ios": "https://dc.lft.to/lastmile_qr_scan", "android": "https://dc.lft.to/lastmile_qr_scan"}}, {"name": "6410928bad09806ce60434f7ea7a531e", "fusion_lat": 0.0, "type": "electric_scooter", "lat": 38.88049483333333, "is_reserved": 0, "is_disabled": 0, "fusion_lon": 0.0, "bike_id": "6410928bad09806ce60434f7ea7a531e", "lon": -77.0132835, "rental_uris": {"ios": "https://dc.lft.to/lastmile_qr_scan", "android": "https://dc.lft.to/lastmile_qr_scan"}}, {"name": "4c938e5d48ef450a44ac1c8fdc7524ea", "fusion_lat": 0.0, "type": "electric_scooter", "lat": 38.8985315, "is_reserved": 0, "is_disabled": 0, "fusion_lon": 0.0, "bike_id": "4c938e5d48ef450a44ac1c8fdc7524ea", "lon": -77.01615316666667, "rental_uris": {"ios": "https://dc.lft.to/lastmile_qr_scan", "android": "https://dc.lft.to/lastmile_qr_scan"}}, {"name": "bd86c0780f42665cf5fc012c782a7a4f", "fusion_lat": 0.0, "type": "electric_scooter", "lat": 38.91550083333333, "is_reserved": 0, "is_disabled": 0, "fusion_lon": 0.0, "bike_id": "bd86c0780f42665cf5fc012c782a7a4f", "lon": -77.035107, "rental_uris": {"ios": "https://dc.lft.to/lastmile_qr_scan", "android": "https://dc.lft.to/lastmile_qr_scan"}}, {"name": "7bc5a64418906c64b9e3eeb5290bff2b", "fusion_lat": 0.0, "type": "electric_scooter", "lat": 38.905561666666664, "is_reserved": 0, "is_disabled": 0, "fusion_lon": 0.0, "bike_id": "7bc5a64418906c64b9e3eeb5290bff2b", "lon": -77.0071955, "rental_uris": {"ios": "https://dc.lft.to/lastmile_qr_scan", "android": "https://dc.lft.to/lastmile_qr_scan"}}, {"name": "c22fd64a565e58256e2d2d9eed1b4bb3", "fusion_lat": 0.0, "type": "electric_scooter", "lat": 38.90853216666667, "is_reserved": 0, "is_disabled": 0, "fusion_lon": 0.0, "bike_id": "c22fd64a565e58256e2d2d9eed1b4bb3", "lon": -77.04329833333334, "rental_uris": {"ios": "https://dc.lft.to/lastmile_qr_scan", "android": "https://dc.lft.to/lastmile_qr_scan"}}, {"name": "9b9d050a9475ef61e61c5e0c5b616529", "fusion_lat": 0.0, "type": "electric_scooter", "lat": 38.89220683333333, "is_reserved": 0, "is_disabled": 0, "fusion_lon": 0.0, "bike_id": "9b9d050a9475ef61e61c5e0c5b616529", "lon": -77.03200616666666, "rental_uris": {"ios": "https://dc.lft.to/lastmile_qr_scan", "android": "https://dc.lft.to/lastmile_qr_scan"}}, {"name": "56a0212e10da901752d73b58ed7885d8", "fusion_lat": 0.0, "type": "electric_scooter", "lat": 38.92545616666666, "is_reserved": 0, "is_disabled": 0, "fusion_lon": 0.0, "bike_id": "56a0212e10da901752d73b58ed7885d8", "lon": -77.000694, "rental_uris": {"ios": "https://dc.lft.to/lastmile_qr_scan", "android": "https://dc.lft.to/lastmile_qr_scan"}}, {"name": "7b881f3e0ce36c9da7649de4a4169905", "fusion_lat": 0.0, "type": "electric_scooter", "lat": 38.92067433333333, "is_reserved": 0, "is_disabled": 0, "fusion_lon": 0.0, "bike_id": "7b881f3e0ce36c9da7649de4a4169905", "lon": -76.99846733333334, "rental_uris": {"ios": "https://dc.lft.to/lastmile_qr_scan", "android": "https://dc.lft.to/lastmile_qr_scan"}}, {"name": "33438bcbb00d9f42e9b92bc854ddc846", "fusion_lat": 0.0, "type": "electric_scooter", "lat": 38.916893333333334, "is_reserved": 0, "is_disabled": 0, "fusion_lon": 0.0, "bike_id": "33438bcbb00d9f42e9b92bc854ddc846", "lon": -77.037636, "rental_uris": {"ios": "https://dc.lft.to/lastmile_qr_scan", "android": "https://dc.lft.to/lastmile_qr_scan"}}, {"name": "632af4d36bc806efa74d68720f6d93da", "fusion_lat": 0.0, "type": "electric_scooter", "lat": 38.91580183333333, "is_reserved": 0, "is_disabled": 0, "fusion_lon": 0.0, "bike_id": "632af4d36bc806efa74d68720f6d93da", "lon": -77.02299516666666, "rental_uris": {"ios": "https://dc.lft.to/lastmile_qr_scan", "android": "https://dc.lft.to/lastmile_qr_scan"}}, {"name": "38adb0b62e120de2851be737fdfd3db4", "fusion_lat": 0.0, "type": "electric_scooter", "lat": 38.9335345, "is_reserved": 0, "is_disabled": 0, "fusion_lon": 0.0, "bike_id": "38adb0b62e120de2851be737fdfd3db4", "lon": -77.0345945, "rental_uris": {"ios": "https://dc.lft.to/lastmile_qr_scan", "android": "https://dc.lft.to/lastmile_qr_scan"}}, {"name": "60d50a7659775b4a72da352dbc29ec01", "fusion_lat": 0.0, "type": "electric_scooter", "lat": 38.911037666666665, "is_reserved": 0, "is_disabled": 0, "fusion_lon": 0.0, "bike_id": "60d50a7659775b4a72da352dbc29ec01", "lon": -77.03726433333334, "rental_uris": {"ios": "https://dc.lft.to/lastmile_qr_scan", "android": "https://dc.lft.to/lastmile_qr_scan"}}, {"name": "d61672fdddfec5511f5207ac4f2cceae", "fusion_lat": 0.0, "type": "electric_scooter", "lat": 38.8919715, "is_reserved": 0, "is_disabled": 0, "fusion_lon": 0.0, "bike_id": "d61672fdddfec5511f5207ac4f2cceae", "lon": -77.0029605, "rental_uris": {"ios": "https://dc.lft.to/lastmile_qr_scan", "android": "https://dc.lft.to/lastmile_qr_scan"}}, {"name": "be9f732fecc9d84c38d6389ecddcc038", "fusion_lat": 0.0, "type": "electric_scooter", "lat": 38.92157133333333, "is_reserved": 0, "is_disabled": 0, "fusion_lon": 0.0, "bike_id": "be9f732fecc9d84c38d6389ecddcc038", "lon": -77.0344455, "rental_uris": {"ios": "https://dc.lft.to/lastmile_qr_scan", "android": "https://dc.lft.to/lastmile_qr_scan"}}, {"name": "7df103bd190e29a130da2d62e40d8656", "fusion_lat": 0.0, "type": "electric_scooter", "lat": 38.86830066666667, "is_reserved": 0, "is_disabled": 0, "fusion_lon": 0.0, "bike_id": "7df103bd190e29a130da2d62e40d8656", "lon": -76.98614566666667, "rental_uris": {"ios": "https://dc.lft.to/lastmile_qr_scan", "android": "https://dc.lft.to/lastmile_qr_scan"}}, {"name": "6a32958dd673ffd644f9a2dc7a140039", "fusion_lat": 0.0, "type": "electric_scooter", "lat": 38.938684333333335, "is_reserved": 0, "is_disabled": 0, "fusion_lon": 0.0, "bike_id": "6a32958dd673ffd644f9a2dc7a140039", "lon": -77.0222165, "rental_uris": {"ios": "https://dc.lft.to/lastmile_qr_scan", "android": "https://dc.lft.to/lastmile_qr_scan"}}, {"name": "4cfc7e0975727fe71bdb047cb8bd4cb3", "fusion_lat": 0.0, "type": "electric_scooter", "lat": 38.91254566666667, "is_reserved": 0, "is_disabled": 0, "fusion_lon": 0.0, "bike_id": "4cfc7e0975727fe71bdb047cb8bd4cb3", "lon": -77.0268065, "rental_uris": {"ios": "https://dc.lft.to/lastmile_qr_scan", "android": "https://dc.lft.to/lastmile_qr_scan"}}, {"name": "f0c7ab668e8fb7be171ccd8ccdab061e", "fusion_lat": 0.0, "type": "electric_scooter", "lat": 38.9158185, "is_reserved": 0, "is_disabled": 0, "fusion_lon": 0.0, "bike_id": "f0c7ab668e8fb7be171ccd8ccdab061e", "lon": -77.0426295, "rental_uris": {"ios": "https://dc.lft.to/lastmile_qr_scan", "android": "https://dc.lft.to/lastmile_qr_scan"}}, {"name": "8cfb66a0b74569c2e0cd399db3a554d4", "fusion_lat": 0.0, "type": "electric_scooter", "lat": 38.92387983333333, "is_reserved": 0, "is_disabled": 0, "fusion_lon": 0.0, "bike_id": "8cfb66a0b74569c2e0cd399db3a554d4", "lon": -77.03901416666666, "rental_uris": {"ios": "https://dc.lft.to/lastmile_qr_scan", "android": "https://dc.lft.to/lastmile_qr_scan"}}, {"name": "869d18d67c8ec8d13de92dde595ad5c8", "fusion_lat": 0.0, "type": "electric_scooter", "lat": 38.88577816666667, "is_reserved": 0, "is_disabled": 0, "fusion_lon": 0.0, "bike_id": "869d18d67c8ec8d13de92dde595ad5c8", "lon": -76.99500833333333, "rental_uris": {"ios": "https://dc.lft.to/lastmile_qr_scan", "android": "https://dc.lft.to/lastmile_qr_scan"}}, {"name": "d112d72bd3fa095036ba40cf2328aa8c", "fusion_lat": 0.0, "type": "electric_scooter", "lat": 38.9170925, "is_reserved": 0, "is_disabled": 0, "fusion_lon": 0.0, "bike_id": "d112d72bd3fa095036ba40cf2328aa8c", "lon": -77.04070166666666, "rental_uris": {"ios": "https://dc.lft.to/lastmile_qr_scan", "android": "https://dc.lft.to/lastmile_qr_scan"}}, {"name": "0ba3937dc9b0adf9b155d7e60b6caa23", "fusion_lat": 0.0, "type": "electric_scooter", "lat": 38.91579183333333, "is_reserved": 0, "is_disabled": 0, "fusion_lon": 0.0, "bike_id": "0ba3937dc9b0adf9b155d7e60b6caa23", "lon": -77.01601416666666, "rental_uris": {"ios": "https://dc.lft.to/lastmile_qr_scan", "android": "https://dc.lft.to/lastmile_qr_scan"}}, {"name": "813305bb7f87c11370e95b0410f357bb", "fusion_lat": 0.0, "type": "electric_scooter", "lat": 38.916770666666665, "is_reserved": 0, "is_disabled": 0, "fusion_lon": 0.0, "bike_id": "813305bb7f87c11370e95b0410f357bb", "lon": -77.02970166666667, "rental_uris": {"ios": "https://dc.lft.to/lastmile_qr_scan", "android": "https://dc.lft.to/lastmile_qr_scan"}}, {"name": "9110c922e19229896dbe45b589aa21df", "fusion_lat": 0.0, "type": "electric_scooter", "lat": 38.92840733333333, "is_reserved": 0, "is_disabled": 0, "fusion_lon": 0.0, "bike_id": "9110c922e19229896dbe45b589aa21df", "lon": -77.01395116666667, "rental_uris": {"ios": "https://dc.lft.to/lastmile_qr_scan", "android": "https://dc.lft.to/lastmile_qr_scan"}}, {"name": "b62d853770df31cc37b1d7d47097f239", "fusion_lat": 0.0, "type": "electric_scooter", "lat": 38.9248255, "is_reserved": 0, "is_disabled": 0, "fusion_lon": 0.0, "bike_id": "b62d853770df31cc37b1d7d47097f239", "lon": -77.027107, "rental_uris": {"ios": "https://dc.lft.to/lastmile_qr_scan", "android": "https://dc.lft.to/lastmile_qr_scan"}}, {"name": "34adeabe542ae537a50a1099e4918b8c", "fusion_lat": 0.0, "type": "electric_scooter", "lat": 38.90571833333333, "is_reserved": 0, "is_disabled": 0, "fusion_lon": 0.0, "bike_id": "34adeabe542ae537a50a1099e4918b8c", "lon": -77.03715083333333, "rental_uris": {"ios": "https://dc.lft.to/lastmile_qr_scan", "android": "https://dc.lft.to/lastmile_qr_scan"}}, {"name": "22e672d3e3414c9a7866cba33034041e", "fusion_lat": 0.0, "type": "electric_scooter", "lat": 38.909704166666664, "is_reserved": 0, "is_disabled": 0, "fusion_lon": 0.0, "bike_id": "22e672d3e3414c9a7866cba33034041e", "lon": -77.03423416666666, "rental_uris": {"ios": "https://dc.lft.to/lastmile_qr_scan", "android": "https://dc.lft.to/lastmile_qr_scan"}}, {"name": "a0403aaeb33345f4e3dd68cecd03d959", "fusion_lat": 0.0, "type": "electric_scooter", "lat": 38.928211166666664, "is_reserved": 0, "is_disabled": 0, "fusion_lon": 0.0, "bike_id": "a0403aaeb33345f4e3dd68cecd03d959", "lon": -77.02259666666667, "rental_uris": {"ios": "https://dc.lft.to/lastmile_qr_scan", "android": "https://dc.lft.to/lastmile_qr_scan"}}, {"name": "edb071bce8bb312c2f02b5cd603eb911", "fusion_lat": 0.0, "type": "electric_scooter", "lat": 38.899974, "is_reserved": 0, "is_disabled": 0, "fusion_lon": 0.0, "bike_id": "edb071bce8bb312c2f02b5cd603eb911", "lon": -77.05334966666666, "rental_uris": {"ios": "https://dc.lft.to/lastmile_qr_scan", "android": "https://dc.lft.to/lastmile_qr_scan"}}, {"name": "2f62b48a71d37989e60b49ba509e98ff", "fusion_lat": 0.0, "type": "electric_scooter", "lat": 38.9077505, "is_reserved": 0, "is_disabled": 0, "fusion_lon": 0.0, "bike_id": "2f62b48a71d37989e60b49ba509e98ff", "lon": -77.0724905, "rental_uris": {"ios": "https://dc.lft.to/lastmile_qr_scan", "android": "https://dc.lft.to/lastmile_qr_scan"}}, {"name": "491a8da8850dd145a47652ee83377780", "fusion_lat": 0.0, "type": "electric_scooter", "lat": 38.928633166666664, "is_reserved": 0, "is_disabled": 0, "fusion_lon": 0.0, "bike_id": "491a8da8850dd145a47652ee83377780", "lon": -77.03439683333333, "rental_uris": {"ios": "https://dc.lft.to/lastmile_qr_scan", "android": "https://dc.lft.to/lastmile_qr_scan"}}, {"name": "1379d29a58a8f9d4c51fcff882c00b8d", "fusion_lat": 0.0, "type": "electric_scooter", "lat": 38.895484333333336, "is_reserved": 0, "is_disabled": 0, "fusion_lon": 0.0, "bike_id": "1379d29a58a8f9d4c51fcff882c00b8d", "lon": -76.94878966666667, "rental_uris": {"ios": "https://dc.lft.to/lastmile_qr_scan", "android": "https://dc.lft.to/lastmile_qr_scan"}}, {"name": "ad09d846484dd021a47e513d5562917e", "fusion_lat": 0.0, "type": "electric_scooter", "lat": 38.9097, "is_reserved": 0, "is_disabled": 0, "fusion_lon": 0.0, "bike_id": "ad09d846484dd021a47e513d5562917e", "lon": -77.01117416666666, "rental_uris": {"ios": "https://dc.lft.to/lastmile_qr_scan", "android": "https://dc.lft.to/lastmile_qr_scan"}}, {"name": "20e584681cb9236cc0abbf9cf7da04d8", "fusion_lat": 0.0, "type": "electric_scooter", "lat": 38.903718, "is_reserved": 0, "is_disabled": 0, "fusion_lon": 0.0, "bike_id": "20e584681cb9236cc0abbf9cf7da04d8", "lon": -77.00684216666667, "rental_uris": {"ios": "https://dc.lft.to/lastmile_qr_scan", "android": "https://dc.lft.to/lastmile_qr_scan"}}, {"name": "a9a064bddc22e84aab8a72388beb717c", "fusion_lat": 0.0, "type": "electric_bike", "lat": 38.95927283333333, "is_reserved": 0, "is_disabled": 0, "fusion_lon": 0.0, "bike_id": "a9a064bddc22e84aab8a72388beb717c", "lon": -76.9254245, "rental_uris": {"ios": "https://dc.lft.to/lastmile_qr_scan", "android": "https://dc.lft.to/lastmile_qr_scan"}}, {"name": "7f98b610cc3749176f1b6128a4a95151", "fusion_lat": 0.0, "type": "electric_scooter", "lat": 38.912292, "is_reserved": 0, "is_disabled": 0, "fusion_lon": 0.0, "bike_id": "7f98b610cc3749176f1b6128a4a95151", "lon": -77.048854, "rental_uris": {"ios": "https://dc.lft.to/lastmile_qr_scan", "android": "https://dc.lft.to/lastmile_qr_scan"}}, {"name": "e406bc16ce6a687e669fabdc583681c3", "fusion_lat": 0.0, "type": "electric_scooter", "lat": 38.903180666666664, "is_reserved": 0, "is_disabled": 0, "fusion_lon": 0.0, "bike_id": "e406bc16ce6a687e669fabdc583681c3", "lon": -77.0502655, "rental_uris": {"ios": "https://dc.lft.to/lastmile_qr_scan", "android": "https://dc.lft.to/lastmile_qr_scan"}}, {"name": "338409139cec6ebda406f35768245d53", "fusion_lat": 0.0, "type": "electric_bike", "lat": 38.9394925, "is_reserved": 0, "is_disabled": 0, "fusion_lon": 0.0, "bike_id": "338409139cec6ebda406f35768245d53", "lon": -77.3609135, "rental_uris": {"ios": "https://dc.lft.to/lastmile_qr_scan", "android": "https://dc.lft.to/lastmile_qr_scan"}}, {"name": "f69fce352f4b068c5909e7f1a0cc1b59", "fusion_lat": 0.0, "type": "electric_scooter", "lat": 38.909968166666665, "is_reserved": 0, "is_disabled": 0, "fusion_lon": 0.0, "bike_id": "f69fce352f4b068c5909e7f1a0cc1b59", "lon": -77.03465033333333, "rental_uris": {"ios": "https://dc.lft.to/lastmile_qr_scan", "android": "https://dc.lft.to/lastmile_qr_scan"}}, {"name": "a9947409e910f94f337d916ceb53bf1b", "fusion_lat": 0.0, "type": "electric_bike", "lat": 38.8459025, "is_reserved": 0, "is_disabled": 0, "fusion_lon": 0.0, "bike_id": "a9947409e910f94f337d916ceb53bf1b", "lon": -76.96877983333333, "rental_uris": {"ios": "https://dc.lft.to/lastmile_qr_scan", "android": "https://dc.lft.to/lastmile_qr_scan"}}, {"name": "5b78a9f25e355fb18ae3083d478ecebe", "fusion_lat": 0.0, "type": "electric_bike", "lat": 38.92692816666667, "is_reserved": 0, "is_disabled": 0, "fusion_lon": 0.0, "bike_id": "5b78a9f25e355fb18ae3083d478ecebe", "lon": -77.0079065, "rental_uris": {"ios": "https://dc.lft.to/lastmile_qr_scan", "android": "https://dc.lft.to/lastmile_qr_scan"}}, {"name": "220969c7abf56cc3de3ebd15123a5cbb", "fusion_lat": 0.0, "type": "electric_scooter", "lat": 38.903598333333335, "is_reserved": 0, "is_disabled": 0, "fusion_lon": 0.0, "bike_id": "220969c7abf56cc3de3ebd15123a5cbb", "lon": -77.01765533333334, "rental_uris": {"ios": "https://dc.lft.to/lastmile_qr_scan", "android": "https://dc.lft.to/lastmile_qr_scan"}}, {"name": "6a5afa2ebf7ad77b1e1a045e0be0e90e", "fusion_lat": 0.0, "type": "electric_scooter", "lat": 38.90820316666667, "is_reserved": 0, "is_disabled": 0, "fusion_lon": 0.0, "bike_id": "6a5afa2ebf7ad77b1e1a045e0be0e90e", "lon": -77.03944033333333, "rental_uris": {"ios": "https://dc.lft.to/lastmile_qr_scan", "android": "https://dc.lft.to/lastmile_qr_scan"}}, {"name": "4d95ab9e80136f1d7c27e6efa01ae562", "fusion_lat": 0.0, "type": "electric_bike", "lat": 38.8774935, "is_reserved": 0, "is_disabled": 0, "fusion_lon": 0.0, "bike_id": "4d95ab9e80136f1d7c27e6efa01ae562", "lon": -76.97986633333333, "rental_uris": {"ios": "https://dc.lft.to/lastmile_qr_scan", "android": "https://dc.lft.to/lastmile_qr_scan"}}, {"name": "36f0f76f0f7323aac1c2db32007448ed", "fusion_lat": 0.0, "type": "electric_scooter", "lat": 38.92644116666666, "is_reserved": 0, "is_disabled": 0, "fusion_lon": 0.0, "bike_id": "36f0f76f0f7323aac1c2db32007448ed", "lon": -77.037293, "rental_uris": {"ios": "https://dc.lft.to/lastmile_qr_scan", "android": "https://dc.lft.to/lastmile_qr_scan"}}, {"name": "ed6a14c1b5a1e150898291534524a87b", "fusion_lat": 0.0, "type": "electric_scooter", "lat": 38.8695855, "is_reserved": 0, "is_disabled": 0, "fusion_lon": 0.0, "bike_id": "ed6a14c1b5a1e150898291534524a87b", "lon": -77.013748, "rental_uris": {"ios": "https://dc.lft.to/lastmile_qr_scan", "android": "https://dc.lft.to/lastmile_qr_scan"}}, {"name": "db3150384502b84b4957767991505024", "fusion_lat": 0.0, "type": "electric_scooter", "lat": 38.898376, "is_reserved": 0, "is_disabled": 0, "fusion_lon": 0.0, "bike_id": "db3150384502b84b4957767991505024", "lon": -77.02956766666667, "rental_uris": {"ios": "https://dc.lft.to/lastmile_qr_scan", "android": "https://dc.lft.to/lastmile_qr_scan"}}, {"name": "ab7d9502e7c87ef9d1b15b697170a5d9", "fusion_lat": 0.0, "type": "electric_scooter", "lat": 38.915588, "is_reserved": 0, "is_disabled": 0, "fusion_lon": 0.0, "bike_id": "ab7d9502e7c87ef9d1b15b697170a5d9", "lon": -77.01415516666667, "rental_uris": {"ios": "https://dc.lft.to/lastmile_qr_scan", "android": "https://dc.lft.to/lastmile_qr_scan"}}, {"name": "a1825f8a1dc1016935f462b2d9f7804a", "fusion_lat": 0.0, "type": "electric_bike", "lat": 38.946013666666666, "is_reserved": 0, "is_disabled": 0, "fusion_lon": 0.0, "bike_id": "a1825f8a1dc1016935f462b2d9f7804a", "lon": -77.02979183333333, "rental_uris": {"ios": "https://dc.lft.to/lastmile_qr_scan", "android": "https://dc.lft.to/lastmile_qr_scan"}}, {"name": "7f982d373f011d4add68f069f1575f66", "fusion_lat": 0.0, "type": "electric_bike", "lat": 38.8541275, "is_reserved": 0, "is_disabled": 0, "fusion_lon": 0.0, "bike_id": "7f982d373f011d4add68f069f1575f66", "lon": -77.1181645, "rental_uris": {"ios": "https://dc.lft.to/lastmile_qr_scan", "android": "https://dc.lft.to/lastmile_qr_scan"}}, {"name": "62d3aeb207a48a7226263a414b9a7621", "fusion_lat": 0.0, "type": "electric_scooter", "lat": 38.91641683333334, "is_reserved": 0, "is_disabled": 0, "fusion_lon": 0.0, "bike_id": "62d3aeb207a48a7226263a414b9a7621", "lon": -77.02294966666666, "rental_uris": {"ios": "https://dc.lft.to/lastmile_qr_scan", "android": "https://dc.lft.to/lastmile_qr_scan"}}, {"name": "f5b0a5d99e450e5a4140c82cc939a5f4", "fusion_lat": 0.0, "type": "electric_scooter", "lat": 38.910421166666666, "is_reserved": 0, "is_disabled": 0, "fusion_lon": 0.0, "bike_id": "f5b0a5d99e450e5a4140c82cc939a5f4", "lon": -77.023899, "rental_uris": {"ios": "https://dc.lft.to/lastmile_qr_scan", "android": "https://dc.lft.to/lastmile_qr_scan"}}, {"name": "3ad92850f1292419fd23334155a5b214", "fusion_lat": 0.0, "type": "electric_scooter", "lat": 38.91639033333333, "is_reserved": 0, "is_disabled": 0, "fusion_lon": 0.0, "bike_id": "3ad92850f1292419fd23334155a5b214", "lon": -77.0159205, "rental_uris": {"ios": "https://dc.lft.to/lastmile_qr_scan", "android": "https://dc.lft.to/lastmile_qr_scan"}}, {"name": "48f901154bb97db1234edc83bcb6bc05", "fusion_lat": 0.0, "type": "electric_scooter", "lat": 38.90959333333333, "is_reserved": 0, "is_disabled": 0, "fusion_lon": 0.0, "bike_id": "48f901154bb97db1234edc83bcb6bc05", "lon": -77.0113435, "rental_uris": {"ios": "https://dc.lft.to/lastmile_qr_scan", "android": "https://dc.lft.to/lastmile_qr_scan"}}, {"name": "c1ce8dd27dc85eee152cb9a03e656e06", "fusion_lat": 0.0, "type": "electric_scooter", "lat": 38.93698533333333, "is_reserved": 0, "is_disabled": 0, "fusion_lon": 0.0, "bike_id": "c1ce8dd27dc85eee152cb9a03e656e06", "lon": -77.02395033333333, "rental_uris": {"ios": "https://dc.lft.to/lastmile_qr_scan", "android": "https://dc.lft.to/lastmile_qr_scan"}}, {"name": "afb8260857dd9df5426fd32f74f27cae", "fusion_lat": 0.0, "type": "electric_scooter", "lat": 38.876568666666664, "is_reserved": 0, "is_disabled": 0, "fusion_lon": 0.0, "bike_id": "afb8260857dd9df5426fd32f74f27cae", "lon": -77.00422966666666, "rental_uris": {"ios": "https://dc.lft.to/lastmile_qr_scan", "android": "https://dc.lft.to/lastmile_qr_scan"}}, {"name": "dde77f20e4f78bfb085ff376019c6933", "fusion_lat": 0.0, "type": "electric_scooter", "lat": 38.8624545, "is_reserved": 0, "is_disabled": 0, "fusion_lon": 0.0, "bike_id": "dde77f20e4f78bfb085ff376019c6933", "lon": -76.9953315, "rental_uris": {"ios": "https://dc.lft.to/lastmile_qr_scan", "android": "https://dc.lft.to/lastmile_qr_scan"}}, {"name": "504d23b17c3f994993756e7b0bc150b5", "fusion_lat": 0.0, "type": "electric_scooter", "lat": 38.904636833333335, "is_reserved": 0, "is_disabled": 0, "fusion_lon": 0.0, "bike_id": "504d23b17c3f994993756e7b0bc150b5", "lon": -77.06016033333333, "rental_uris": {"ios": "https://dc.lft.to/lastmile_qr_scan", "android": "https://dc.lft.to/lastmile_qr_scan"}}, {"name": "657c2e5f7496590d867bddf906d10abc", "fusion_lat": 0.0, "type": "electric_scooter", "lat": 38.90730716666667, "is_reserved": 0, "is_disabled": 0, "fusion_lon": 0.0, "bike_id": "657c2e5f7496590d867bddf906d10abc", "lon": -77.010729, "rental_uris": {"ios": "https://dc.lft.to/lastmile_qr_scan", "android": "https://dc.lft.to/lastmile_qr_scan"}}, {"name": "f525b6a119d1722e1a0ec1a6139c9d82", "fusion_lat": 0.0, "type": "electric_scooter", "lat": 38.90144383333333, "is_reserved": 0, "is_disabled": 0, "fusion_lon": 0.0, "bike_id": "f525b6a119d1722e1a0ec1a6139c9d82", "lon": -76.97421166666666, "rental_uris": {"ios": "https://dc.lft.to/lastmile_qr_scan", "android": "https://dc.lft.to/lastmile_qr_scan"}}, {"name": "f4c626587458f2cc0bbbe7bfc79875bd", "fusion_lat": 0.0, "type": "electric_scooter", "lat": 38.879416666666664, "is_reserved": 0, "is_disabled": 0, "fusion_lon": 0.0, "bike_id": "f4c626587458f2cc0bbbe7bfc79875bd", "lon": -76.98377283333333, "rental_uris": {"ios": "https://dc.lft.to/lastmile_qr_scan", "android": "https://dc.lft.to/lastmile_qr_scan"}}, {"name": "f5f0503cba828325bcf96d6a1ada82bb", "fusion_lat": 0.0, "type": "electric_scooter", "lat": 38.942506333333334, "is_reserved": 0, "is_disabled": 0, "fusion_lon": 0.0, "bike_id": "f5f0503cba828325bcf96d6a1ada82bb", "lon": -77.04133683333333, "rental_uris": {"ios": "https://dc.lft.to/lastmile_qr_scan", "android": "https://dc.lft.to/lastmile_qr_scan"}}, {"name": "a5781596ebbcc2e4450c0226528b6bc7", "fusion_lat": 0.0, "type": "electric_scooter", "lat": 38.902799333333334, "is_reserved": 0, "is_disabled": 0, "fusion_lon": 0.0, "bike_id": "a5781596ebbcc2e4450c0226528b6bc7", "lon": -77.04375166666667, "rental_uris": {"ios": "https://dc.lft.to/lastmile_qr_scan", "android": "https://dc.lft.to/lastmile_qr_scan"}}, {"name": "49240622b6717f83d15cfce0e908ff7d", "fusion_lat": 0.0, "type": "electric_scooter", "lat": 38.9129095, "is_reserved": 0, "is_disabled": 0, "fusion_lon": 0.0, "bike_id": "49240622b6717f83d15cfce0e908ff7d", "lon": -77.06112466666667, "rental_uris": {"ios": "https://dc.lft.to/lastmile_qr_scan", "android": "https://dc.lft.to/lastmile_qr_scan"}}, {"name": "43a0d367ff0a3282974b3aad66a2c1d4", "fusion_lat": 0.0, "type": "electric_scooter", "lat": 38.9373405, "is_reserved": 0, "is_disabled": 0, "fusion_lon": 0.0, "bike_id": "43a0d367ff0a3282974b3aad66a2c1d4", "lon": -77.0326365, "rental_uris": {"ios": "https://dc.lft.to/lastmile_qr_scan", "android": "https://dc.lft.to/lastmile_qr_scan"}}, {"name": "70747d853f87d47a5f644edd22720cc0", "fusion_lat": 0.0, "type": "electric_scooter", "lat": 38.902486, "is_reserved": 0, "is_disabled": 0, "fusion_lon": 0.0, "bike_id": "70747d853f87d47a5f644edd22720cc0", "lon": -77.026518, "rental_uris": {"ios": "https://dc.lft.to/lastmile_qr_scan", "android": "https://dc.lft.to/lastmile_qr_scan"}}, {"name": "b344f937060f87776e9a747fefff4276", "fusion_lat": 0.0, "type": "electric_scooter", "lat": 38.912539833333334, "is_reserved": 0, "is_disabled": 0, "fusion_lon": 0.0, "bike_id": "b344f937060f87776e9a747fefff4276", "lon": -77.02683633333334, "rental_uris": {"ios": "https://dc.lft.to/lastmile_qr_scan", "android": "https://dc.lft.to/lastmile_qr_scan"}}, {"name": "c0a6900f775f2acdd2ef58b8f1614970", "fusion_lat": 0.0, "type": "electric_scooter", "lat": 38.879499833333334, "is_reserved": 0, "is_disabled": 0, "fusion_lon": 0.0, "bike_id": "c0a6900f775f2acdd2ef58b8f1614970", "lon": -77.00768733333334, "rental_uris": {"ios": "https://dc.lft.to/lastmile_qr_scan", "android": "https://dc.lft.to/lastmile_qr_scan"}}, {"name": "f472c6889cb821e955bf8ee3306fc46f", "fusion_lat": 0.0, "type": "electric_scooter", "lat": 38.912538166666664, "is_reserved": 0, "is_disabled": 0, "fusion_lon": 0.0, "bike_id": "f472c6889cb821e955bf8ee3306fc46f", "lon": -77.00954983333334, "rental_uris": {"ios": "https://dc.lft.to/lastmile_qr_scan", "android": "https://dc.lft.to/lastmile_qr_scan"}}, {"name": "715d1de8d1b87f7dff4d6ee2bed364a8", "fusion_lat": 0.0, "type": "electric_scooter", "lat": 38.93445333333333, "is_reserved": 0, "is_disabled": 0, "fusion_lon": 0.0, "bike_id": "715d1de8d1b87f7dff4d6ee2bed364a8", "lon": -77.0309615, "rental_uris": {"ios": "https://dc.lft.to/lastmile_qr_scan", "android": "https://dc.lft.to/lastmile_qr_scan"}}, {"name": "76ea466aeb4500b437c527518f468f27", "fusion_lat": 0.0, "type": "electric_scooter", "lat": 38.8836365, "is_reserved": 0, "is_disabled": 0, "fusion_lon": 0.0, "bike_id": "76ea466aeb4500b437c527518f468f27", "lon": -77.03175, "rental_uris": {"ios": "https://dc.lft.to/lastmile_qr_scan", "android": "https://dc.lft.to/lastmile_qr_scan"}}, {"name": "5a06d7646efb01cfa3d337d9dfc27f11", "fusion_lat": 0.0, "type": "electric_scooter", "lat": 38.90732366666667, "is_reserved": 0, "is_disabled": 0, "fusion_lon": 0.0, "bike_id": "5a06d7646efb01cfa3d337d9dfc27f11", "lon": -77.0321565, "rental_uris": {"ios": "https://dc.lft.to/lastmile_qr_scan", "android": "https://dc.lft.to/lastmile_qr_scan"}}, {"name": "50bc78c88446cdc06b4883e23e964de3", "fusion_lat": 0.0, "type": "electric_scooter", "lat": 38.919336333333334, "is_reserved": 0, "is_disabled": 0, "fusion_lon": 0.0, "bike_id": "50bc78c88446cdc06b4883e23e964de3", "lon": -77.04171833333334, "rental_uris": {"ios": "https://dc.lft.to/lastmile_qr_scan", "android": "https://dc.lft.to/lastmile_qr_scan"}}, {"name": "4451f93944ace71017c4d6dbd40803c0", "fusion_lat": 0.0, "type": "electric_scooter", "lat": 38.90268583333334, "is_reserved": 0, "is_disabled": 0, "fusion_lon": 0.0, "bike_id": "4451f93944ace71017c4d6dbd40803c0", "lon": -77.03670566666666, "rental_uris": {"ios": "https://dc.lft.to/lastmile_qr_scan", "android": "https://dc.lft.to/lastmile_qr_scan"}}, {"name": "daf98b9abcb1218a42560010a5b793bd", "fusion_lat": 0.0, "type": "electric_bike", "lat": 38.893511333333336, "is_reserved": 0, "is_disabled": 0, "fusion_lon": 0.0, "bike_id": "daf98b9abcb1218a42560010a5b793bd", "lon": -77.187407, "rental_uris": {"ios": "https://dc.lft.to/lastmile_qr_scan", "android": "https://dc.lft.to/lastmile_qr_scan"}}, {"name": "958f52a16d15349ce93d999a413aa3ae", "fusion_lat": 0.0, "type": "electric_scooter", "lat": 38.915546, "is_reserved": 0, "is_disabled": 0, "fusion_lon": 0.0, "bike_id": "958f52a16d15349ce93d999a413aa3ae", "lon": -77.0418045, "rental_uris": {"ios": "https://dc.lft.to/lastmile_qr_scan", "android": "https://dc.lft.to/lastmile_qr_scan"}}, {"name": "6204a03ee889f3ead3be717bd4ee9d9d", "fusion_lat": 0.0, "type": "electric_bike", "lat": 38.881395166666664, "is_reserved": 0, "is_disabled": 0, "fusion_lon": 0.0, "bike_id": "6204a03ee889f3ead3be717bd4ee9d9d", "lon": -77.01668, "rental_uris": {"ios": "https://dc.lft.to/lastmile_qr_scan", "android": "https://dc.lft.to/lastmile_qr_scan"}}, {"name": "e5f011a1b30d8363150ef980ce6b5657", "fusion_lat": 0.0, "type": "electric_scooter", "lat": 38.928443333333334, "is_reserved": 0, "is_disabled": 0, "fusion_lon": 0.0, "bike_id": "e5f011a1b30d8363150ef980ce6b5657", "lon": -77.01387683333333, "rental_uris": {"ios": "https://dc.lft.to/lastmile_qr_scan", "android": "https://dc.lft.to/lastmile_qr_scan"}}, {"name": "cacd6dfd89ca86e84e51a12ffa9eafbb", "fusion_lat": 0.0, "type": "electric_bike", "lat": 38.966207833333335, "is_reserved": 0, "is_disabled": 0, "fusion_lon": 0.0, "bike_id": "cacd6dfd89ca86e84e51a12ffa9eafbb", "lon": -76.97668183333333, "rental_uris": {"ios": "https://dc.lft.to/lastmile_qr_scan", "android": "https://dc.lft.to/lastmile_qr_scan"}}, {"name": "5fcddaab640a0f7baa0295b7a1239d7f", "fusion_lat": 0.0, "type": "electric_scooter", "lat": 38.898762, "is_reserved": 0, "is_disabled": 0, "fusion_lon": 0.0, "bike_id": "5fcddaab640a0f7baa0295b7a1239d7f", "lon": -76.93157716666667, "rental_uris": {"ios": "https://dc.lft.to/lastmile_qr_scan", "android": "https://dc.lft.to/lastmile_qr_scan"}}, {"name": "c6a4795a06c74aa5c762a31946d134de", "fusion_lat": 0.0, "type": "electric_scooter", "lat": 38.92520666666667, "is_reserved": 0, "is_disabled": 0, "fusion_lon": 0.0, "bike_id": "c6a4795a06c74aa5c762a31946d134de", "lon": -77.0554005, "rental_uris": {"ios": "https://dc.lft.to/lastmile_qr_scan", "android": "https://dc.lft.to/lastmile_qr_scan"}}, {"name": "0e4330ea417012fcfb5d74c102495e54", "fusion_lat": 0.0, "type": "electric_scooter", "lat": 38.90827183333333, "is_reserved": 0, "is_disabled": 0, "fusion_lon": 0.0, "bike_id": "0e4330ea417012fcfb5d74c102495e54", "lon": -76.99682616666666, "rental_uris": {"ios": "https://dc.lft.to/lastmile_qr_scan", "android": "https://dc.lft.to/lastmile_qr_scan"}}, {"name": "c5d192f0409cd6b963ccbae5d16f0626", "fusion_lat": 0.0, "type": "electric_bike", "lat": 38.838106, "is_reserved": 0, "is_disabled": 0, "fusion_lon": 0.0, "bike_id": "c5d192f0409cd6b963ccbae5d16f0626", "lon": -77.09521383333333, "rental_uris": {"ios": "https://dc.lft.to/lastmile_qr_scan", "android": "https://dc.lft.to/lastmile_qr_scan"}}, {"name": "8e3ad189f4431becace2e75850bc59fd", "fusion_lat": 0.0, "type": "electric_scooter", "lat": 38.8842775, "is_reserved": 0, "is_disabled": 0, "fusion_lon": 0.0, "bike_id": "8e3ad189f4431becace2e75850bc59fd", "lon": -76.95756083333333, "rental_uris": {"ios": "https://dc.lft.to/lastmile_qr_scan", "android": "https://dc.lft.to/lastmile_qr_scan"}}, {"name": "e1876be1f306cb8281c9972f492183b6", "fusion_lat": 0.0, "type": "electric_scooter", "lat": 38.871842, "is_reserved": 0, "is_disabled": 0, "fusion_lon": 0.0, "bike_id": "e1876be1f306cb8281c9972f492183b6", "lon": -77.00596383333334, "rental_uris": {"ios": "https://dc.lft.to/lastmile_qr_scan", "android": "https://dc.lft.to/lastmile_qr_scan"}}, {"name": "8a3c3850ecfd9de340b907ee4ef1a373", "fusion_lat": 0.0, "type": "electric_scooter", "lat": 38.894064166666666, "is_reserved": 0, "is_disabled": 0, "fusion_lon": 0.0, "bike_id": "8a3c3850ecfd9de340b907ee4ef1a373", "lon": -76.94799066666667, "rental_uris": {"ios": "https://dc.lft.to/lastmile_qr_scan", "android": "https://dc.lft.to/lastmile_qr_scan"}}, {"name": "2d5b306aba40277745e0591c94fed247", "fusion_lat": 0.0, "type": "electric_scooter", "lat": 38.9041045, "is_reserved": 0, "is_disabled": 0, "fusion_lon": 0.0, "bike_id": "2d5b306aba40277745e0591c94fed247", "lon": -77.01887533333333, "rental_uris": {"ios": "https://dc.lft.to/lastmile_qr_scan", "android": "https://dc.lft.to/lastmile_qr_scan"}}, {"name": "3479b1f162711ad7a039b027bab607a4", "fusion_lat": 0.0, "type": "electric_scooter", "lat": 38.902496666666664, "is_reserved": 0, "is_disabled": 0, "fusion_lon": 0.0, "bike_id": "3479b1f162711ad7a039b027bab607a4", "lon": -77.03949416666667, "rental_uris": {"ios": "https://dc.lft.to/lastmile_qr_scan", "android": "https://dc.lft.to/lastmile_qr_scan"}}, {"name": "96fbf28487dda9a2d0eca6e7d73cab60", "fusion_lat": 0.0, "type": "electric_scooter", "lat": 38.857048, "is_reserved": 0, "is_disabled": 0, "fusion_lon": 0.0, "bike_id": "96fbf28487dda9a2d0eca6e7d73cab60", "lon": -76.9813045, "rental_uris": {"ios": "https://dc.lft.to/lastmile_qr_scan", "android": "https://dc.lft.to/lastmile_qr_scan"}}, {"name": "9c3e503a5155f06588fea5211a32e9b2", "fusion_lat": 0.0, "type": "electric_scooter", "lat": 38.90534, "is_reserved": 0, "is_disabled": 0, "fusion_lon": 0.0, "bike_id": "9c3e503a5155f06588fea5211a32e9b2", "lon": -77.05769983333333, "rental_uris": {"ios": "https://dc.lft.to/lastmile_qr_scan", "android": "https://dc.lft.to/lastmile_qr_scan"}}, {"name": "a950476161a9b402bfab540c97790254", "fusion_lat": 0.0, "type": "electric_scooter", "lat": 38.9309225, "is_reserved": 0, "is_disabled": 0, "fusion_lon": 0.0, "bike_id": "a950476161a9b402bfab540c97790254", "lon": -77.0250985, "rental_uris": {"ios": "https://dc.lft.to/lastmile_qr_scan", "android": "https://dc.lft.to/lastmile_qr_scan"}}, {"name": "a35f9afc7d47cfe054cab0554419c823", "fusion_lat": 0.0, "type": "electric_scooter", "lat": 38.8873565, "is_reserved": 0, "is_disabled": 0, "fusion_lon": 0.0, "bike_id": "a35f9afc7d47cfe054cab0554419c823", "lon": -77.021297, "rental_uris": {"ios": "https://dc.lft.to/lastmile_qr_scan", "android": "https://dc.lft.to/lastmile_qr_scan"}}, {"name": "9f676992136ce93ea9e135163b255ab6", "fusion_lat": 0.0, "type": "electric_scooter", "lat": 38.900498666666664, "is_reserved": 0, "is_disabled": 0, "fusion_lon": 0.0, "bike_id": "9f676992136ce93ea9e135163b255ab6", "lon": -77.05041683333333, "rental_uris": {"ios": "https://dc.lft.to/lastmile_qr_scan", "android": "https://dc.lft.to/lastmile_qr_scan"}}, {"name": "615ca67b65ca40c67be41a2940394bfa", "fusion_lat": 0.0, "type": "electric_scooter", "lat": 38.93973833333333, "is_reserved": 0, "is_disabled": 0, "fusion_lon": 0.0, "bike_id": "615ca67b65ca40c67be41a2940394bfa", "lon": -77.03553216666667, "rental_uris": {"ios": "https://dc.lft.to/lastmile_qr_scan", "android": "https://dc.lft.to/lastmile_qr_scan"}}, {"name": "d54c52e7fbfd8867d75d43a895274640", "fusion_lat": 0.0, "type": "electric_scooter", "lat": 38.89478, "is_reserved": 0, "is_disabled": 0, "fusion_lon": 0.0, "bike_id": "d54c52e7fbfd8867d75d43a895274640", "lon": -76.94869616666666, "rental_uris": {"ios": "https://dc.lft.to/lastmile_qr_scan", "android": "https://dc.lft.to/lastmile_qr_scan"}}, {"name": "23d0b655afa92294a771f71f3f664fa8", "fusion_lat": 0.0, "type": "electric_scooter", "lat": 38.88379166666667, "is_reserved": 0, "is_disabled": 0, "fusion_lon": 0.0, "bike_id": "23d0b655afa92294a771f71f3f664fa8", "lon": -76.99521383333334, "rental_uris": {"ios": "https://dc.lft.to/lastmile_qr_scan", "android": "https://dc.lft.to/lastmile_qr_scan"}}, {"name": "61ef8a5ade6ce9856a410e3c1a3b22a3", "fusion_lat": 0.0, "type": "electric_scooter", "lat": 38.92584183333334, "is_reserved": 0, "is_disabled": 0, "fusion_lon": 0.0, "bike_id": "61ef8a5ade6ce9856a410e3c1a3b22a3", "lon": -77.05296516666667, "rental_uris": {"ios": "https://dc.lft.to/lastmile_qr_scan", "android": "https://dc.lft.to/lastmile_qr_scan"}}, {"name": "f58beeb7639948e721298a592b8990cd", "fusion_lat": 0.0, "type": "electric_scooter", "lat": 38.903611166666664, "is_reserved": 0, "is_disabled": 0, "fusion_lon": 0.0, "bike_id": "f58beeb7639948e721298a592b8990cd", "lon": -77.02601766666666, "rental_uris": {"ios": "https://dc.lft.to/lastmile_qr_scan", "android": "https://dc.lft.to/lastmile_qr_scan"}},