{"data": {"bikes": [{"fusion_lat": 0.0, "name": "617e08e3ec8d17a90120c4eb59cb4851", "is_disabled": 0, "rental_uris": {"android": "https://dc.lft.to/lastmile_qr_scan", "ios": "https://dc.lft.to/lastmile_qr_scan"}, "fusion_lon": 0.0, "lat": 38.89673833333333, "bike_id": "617e08e3ec8d17a90120c4eb59cb4851", "type": "electric_scooter", "is_reserved": 0, "lon": -77.02454016666667}, {"fusion_lat": 0.0, "name": "c09c686d35a3fdf0a307ae0e5b9f0a17", "is_disabled": 0, "rental_uris": {"android": "https://dc.lft.to/lastmile_qr_scan", "ios": "https://dc.lft.to/lastmile_qr_scan"}, "fusion_lon": 0.0, "lat": 38.9110115, "bike_id": "c09c686d35a3fdf0a307ae0e5b9f0a17", "type": "electric_scooter", "is_reserved": 0, "lon": -77.073502}, {"fusion_lat": 0.0, "name": "925904afc2a638d5b2015e0df8d0543b", "is_disabled": 0, "rental_uris": {"android": "https://dc.lft.to/lastmile_qr_scan", "ios": "https://dc.lft.to/lastmile_qr_scan"}, "fusion_lon": 0.0, "lat": 38.876506, "bike_id": "925904afc2a638d5b2015e0df8d0543b", "type": "electric_scooter", "is_reserved": 0, "lon": -77.00821866666666}, {"fusion_lat": 0.0, "name": "58a9584dc40bc6d685ecb826247b19c6", "is_disabled": 0, "rental_uris": {"android": "https://dc.lft.to/lastmile_qr_scan", "ios": "https://dc.lft.to/lastmile_qr_scan"}, "fusion_lon": 0.0, "lat": 38.899505, "bike_id": "58a9584dc40bc6d685ecb826247b19c6", "type": "electric_scooter", "is_reserved": 0, "lon": -77.05704416666667}, {"fusion_lat": 0.0, "name": "583f08555d021071384a4b9fed9037e8", "is_disabled": 0, "rental_uris": {"android": "https://dc.lft.to/lastmile_qr_scan", "ios": "https://dc.lft.to/lastmile_qr_scan"}, "fusion_lon": 0.0, "lat": 38.88395033333333, "bike_id": "583f08555d021071384a4b9fed9037e8", "type": "electric_scooter", "is_reserved": 0, "lon": -77.02591933333333}, {"fusion_lat": 0.0, "name": "1f2e06b9974fd893642f7b3251b083b4", "is_disabled": 0, "rental_uris": {"android": "https://dc.lft.to/lastmile_qr_scan", "ios": "https://dc.lft.to/lastmile_qr_scan"}, "fusion_lon": 0.0, "lat": 38.96127716666667, "bike_id": "1f2e06b9974fd893642f7b3251b083b4", "type": "electric_scooter", "is_reserved": 0, "lon": -77.01814766666666}, {"fusion_lat": 0.0, "name": "b65f0648c6f476b1ebe201c81e5ec52e", "is_disabled": 0, "rental_uris": {"android": "https://dc.lft.to/lastmile_qr_scan", "ios": "https://dc.lft.to/lastmile_qr_scan"}, "fusion_lon": 0.0, "lat": 38.8920805, "bike_id": "b65f0648c6f476b1ebe201c81e5ec52e", "type": "electric_scooter", "is_reserved": 0, "lon": -77.0316635}, {"fusion_lat": 0.0, "name": "a3f3dc04e3f1c66f4d64f0c5b7e5bea7", "is_disabled": 0, "rental_uris": {"android": "https://dc.lft.to/lastmile_qr_scan", "ios": "https://dc.lft.to/lastmile_qr_scan"}, "fusion_lon": 0.0, "lat": 38.903289, "bike_id": "a3f3dc04e3f1c66f4d64f0c5b7e5bea7", "type": "electric_scooter", "is_reserved": 0, "lon": -77.061182}, {"fusion_lat": 0.0, "name": "b8b1d37e26a1e5e6bf38e8db68eaa8a6", "is_disabled": 0, "rental_uris": {"android": "https://dc.lft.to/lastmile_qr_scan", "ios": "https://dc.lft.to/lastmile_qr_scan"}, "fusion_lon": 0.0, "lat": 38.9255265, "bike_id": "b8b1d37e26a1e5e6bf38e8db68eaa8a6", "type": "electric_scooter", "is_reserved": 0, "lon": -77.03552733333333}, {"fusion_lat": 0.0, "name": "9effe9f5a4269c706ba3ad8757786a5b", "is_disabled": 0, "rental_uris": {"android": "https://dc.lft.to/lastmile_qr_scan", "ios": "https://dc.lft.to/lastmile_qr_scan"}, "fusion_lon": 0.0, "lat": 38.91788433333333, "bike_id": "9effe9f5a4269c706ba3ad8757786a5b", "type": "electric_scooter", "is_reserved": 0, "lon": -77.02371333333333}, {"fusion_lat": 0.0, "name": "fe8320b8d8f34c1bcf958f66c76f4757", "is_disabled": 0, "rental_uris": {"android": "https://dc.lft.to/lastmile_qr_scan", "ios": "https://dc.lft.to/lastmile_qr_scan"}, "fusion_lon": 0.0, "lat": 38.9587605, "bike_id": "fe8320b8d8f34c1bcf958f66c76f4757", "type": "electric_bike", "is_reserved": 0, "lon": -76.97054866666667}, {"fusion_lat": 0.0, "name": "79d337e706c66692d5130fb3716320c8", "is_disabled": 0, "rental_uris": {"android": "https://dc.lft.to/lastmile_qr_scan", "ios": "https://dc.lft.to/lastmile_qr_scan"}, "fusion_lon": 0.0, "lat": 38.946236666666664, "bike_id": "79d337e706c66692d5130fb3716320c8", "type": "electric_scooter", "is_reserved": 0, "lon": -77.0328875}, {"fusion_lat": 0.0, "name": "03d9eecc06942d7e33e1d5740c15ea01", "is_disabled": 0, "rental_uris": {"android": "https://dc.lft.to/lastmile_qr_scan", "ios": "https://dc.lft.to/lastmile_qr_scan"}, "fusion_lon": 0.0, "lat": 38.9303355, "bike_id": "03d9eecc06942d7e33e1d5740c15ea01", "type": "electric_scooter", "is_reserved": 0, "lon": -77.03276683333333}, {"fusion_lat": 0.0, "name": "31b8e5edfda621b1d7e9087dcb97d482", "is_disabled": 0, "rental_uris": {"android": "https://dc.lft.to/lastmile_qr_scan", "ios": "https://dc.lft.to/lastmile_qr_scan"}, "fusion_lon": 0.0, "lat": 38.89014683333333, "bike_id": "31b8e5edfda621b1d7e9087dcb97d482", "type": "electric_scooter", "is_reserved": 0, "lon": -76.93733333333333}, {"fusion_lat": 0.0, "name": "abc6f90ff110ecb542c63fb55605e5c5", "is_disabled": 0, "rental_uris": {"android": "https://dc.lft.to/lastmile_qr_scan", "ios": "https://dc.lft.to/lastmile_qr_scan"}, "fusion_lon": 0.0, "lat": 38.9284235, "bike_id": "abc6f90ff110ecb542c63fb55605e5c5", "type": "electric_scooter", "is_reserved": 0, "lon": -76.99349216666667}, {"fusion_lat": 0.0, "name": "a6a07ba78413a8f1c53a2f9187d77095", "is_disabled": 0, "rental_uris": {"android": "https://dc.lft.to/lastmile_qr_scan", "ios": "https://dc.lft.to/lastmile_qr_scan"}, "fusion_lon": 0.0, "lat": 38.92106166666667, "bike_id": "a6a07ba78413a8f1c53a2f9187d77095", "type": "electric_scooter", "is_reserved": 0, "lon": -77.017679}, {"fusion_lat": 0.0, "name": "d404554dc049e439601b7190372767fe", "is_disabled": 0, "rental_uris": {"android": "https://dc.lft.to/lastmile_qr_scan", "ios": "https://dc.lft.to/lastmile_qr_scan"}, "fusion_lon": 0.0, "lat": 38.927876166666664, "bike_id": "d404554dc049e439601b7190372767fe", "type": "electric_scooter", "is_reserved": 0, "lon": -76.955591}, {"fusion_lat": 0.0, "name": "b78d2b621434d256c15f006ae7e95488", "is_disabled": 0, "rental_uris": {"android": "https://dc.lft.to/lastmile_qr_scan", "ios": "https://dc.lft.to/lastmile_qr_scan"}, "fusion_lon": 0.0, "lat": 38.8983135, "bike_id": "b78d2b621434d256c15f006ae7e95488", "type": "electric_bike", "is_reserved": 0, "lon": -77.046817}, {"fusion_lat": 0.0, "name": "9ce169e0a58efe0c0f33f9a2b3141225", "is_disabled": 0, "rental_uris": {"android": "https://dc.lft.to/lastmile_qr_scan", "ios": "https://dc.lft.to/lastmile_qr_scan"}, "fusion_lon": 0.0, "lat": 38.93184216666667, "bike_id": "9ce169e0a58efe0c0f33f9a2b3141225", "type": "electric_scooter", "is_reserved": 0, "lon": -77.03301583333334}, {"fusion_lat": 0.0, "name": "9cf2d0c41caed1405927b2e148dec7ea", "is_disabled": 0, "rental_uris": {"android": "https://dc.lft.to/lastmile_qr_scan", "ios": "https://dc.lft.to/lastmile_qr_scan"}, "fusion_lon": 0.0, "lat": 38.90485266666666, "bike_id": "9cf2d0c41caed1405927b2e148dec7ea", "type": "electric_scooter", "is_reserved": 0, "lon": -76.949493}, {"fusion_lat": 0.0, "name": "82608a7929262699e5026e4f8922586d", "is_disabled": 0, "rental_uris": {"android": "https://dc.lft.to/lastmile_qr_scan", "ios": "https://dc.lft.to/lastmile_qr_scan"}, "fusion_lon": 0.0, "lat": 38.917995, "bike_id": "82608a7929262699e5026e4f8922586d", "type": "electric_scooter", "is_reserved": 0, "lon": -77.03434316666667}, {"fusion_lat": 0.0, "name": "97c57801bfdbfcd7fa414109d8a8756d", "is_disabled": 0, "rental_uris": {"android": "https://dc.lft.to/lastmile_qr_scan", "ios": "https://dc.lft.to/lastmile_qr_scan"}, "fusion_lon": 0.0, "lat": 38.93061016666667, "bike_id": "97c57801bfdbfcd7fa414109d8a8756d", "type": "electric_scooter", "is_reserved": 0, "lon": -77.0394095}, {"fusion_lat": 0.0, "name": "c8835f2379119b01f068b536436dcf0e", "is_disabled": 0, "rental_uris": {"android": "https://dc.lft.to/lastmile_qr_scan", "ios": "https://dc.lft.to/lastmile_qr_scan"}, "fusion_lon": 0.0, "lat": 38.907701, "bike_id": "c8835f2379119b01f068b536436dcf0e", "type": "electric_scooter", "is_reserved": 0, "lon": -77.06208733333334}, {"fusion_lat": 0.0, "name": "c3a508f81a403bc172b8ddbd4ecc55a7", "is_disabled": 0, "rental_uris": {"android": "https://dc.lft.to/lastmile_qr_scan", "ios": "https://dc.lft.to/lastmile_qr_scan"}, "fusion_lon": 0.0, "lat": 38.90125883333333, "bike_id": "c3a508f81a403bc172b8ddbd4ecc55a7", "type": "electric_scooter", "is_reserved": 0, "lon": -77.01815983333333}, {"fusion_lat": 0.0, "name": "2abbdae7fc8c76a5ed1993427e47d6d4", "is_disabled": 0, "rental_uris": {"android": "https://dc.lft.to/lastmile_qr_scan", "ios": "https://dc.lft.to/lastmile_qr_scan"}, "fusion_lon": 0.0, "lat": 38.909044, "bike_id": "2abbdae7fc8c76a5ed1993427e47d6d4", "type": "electric_scooter", "is_reserved": 0, "lon": -77.0260935}, {"fusion_lat": 0.0, "name": "d1606688521f1e85416e0c6f34ec9f05", "is_disabled": 0, "rental_uris": {"android": "https://dc.lft.to/lastmile_qr_scan", "ios": "https://dc.lft.to/lastmile_qr_scan"}, "fusion_lon": 0.0, "lat": 38.87653266666667, "bike_id": "d1606688521f1e85416e0c6f34ec9f05", "type": "electric_scooter", "is_reserved": 0, "lon": -77.00739866666666}, {"fusion_lat": 0.0, "name": "fe74448f5ac16ce946f84d27dc98681e", "is_disabled": 0, "rental_uris": {"android": "https://dc.lft.to/lastmile_qr_scan", "ios": "https://dc.lft.to/lastmile_qr_scan"}, "fusion_lon": 0.0, "lat": 38.900062166666665, "bike_id": "fe74448f5ac16ce946f84d27dc98681e", "type": "electric_scooter", "is_reserved": 0, "lon": -77.00374033333334}, {"fusion_lat": 0.0, "name": "5721cf5bc447b0a80619cf3adf92d466", "is_disabled": 0, "rental_uris": {"android": "https://dc.lft.to/lastmile_qr_scan", "ios": "https://dc.lft.to/lastmile_qr_scan"}, "fusion_lon": 0.0, "lat": 38.926124, "bike_id": "5721cf5bc447b0a80619cf3adf92d466", "type": "electric_scooter", "is_reserved": 0, "lon": -77.07568333333333}, {"fusion_lat": 0.0, "name": "8c4346f3d3bc8386803a93555735bf25", "is_disabled": 0, "rental_uris": {"android": "https://dc.lft.to/lastmile_qr_scan", "ios": "https://dc.lft.to/lastmile_qr_scan"}, "fusion_lon": 0.0, "lat": 38.90782733333333, "bike_id": "8c4346f3d3bc8386803a93555735bf25", "type": "electric_scooter", "is_reserved": 0, "lon": -77.0422565}, {"fusion_lat": 0.0, "name": "04d1d5178f54a24a4da04637ac429aad", "is_disabled": 0, "rental_uris": {"android": "https://dc.lft.to/lastmile_qr_scan", "ios": "https://dc.lft.to/lastmile_qr_scan"}, "fusion_lon": 0.0, "lat": 38.901083666666665, "bike_id": "04d1d5178f54a24a4da04637ac429aad", "type": "electric_scooter", "is_reserved": 0, "lon": -76.97424733333334}, {"fusion_lat": 0.0, "name": "1472bf3d5c71ea652acd4f57aaf2946d", "is_disabled": 0, "rental_uris": {"android": "https://dc.lft.to/lastmile_qr_scan", "ios": "https://dc.lft.to/lastmile_qr_scan"}, "fusion_lon": 0.0, "lat": 38.90009833333333, "bike_id": "1472bf3d5c71ea652acd4f57aaf2946d", "type": "electric_scooter", "is_reserved": 0, "lon": -77.04478583333334}, {"fusion_lat": 0.0, "name": "f3e0247feb273e354d2d8f454691e209", "is_disabled": 0, "rental_uris": {"android": "https://dc.lft.to/lastmile_qr_scan", "ios": "https://dc.lft.to/lastmile_qr_scan"}, "fusion_lon": 0.0, "lat": 38.90544933333334, "bike_id": "f3e0247feb273e354d2d8f454691e209", "type": "electric_scooter", "is_reserved": 0, "lon": -77.0474935}, {"fusion_lat": 0.0, "name": "bb86713289ea164de4ca992d31116349", "is_disabled": 0, "rental_uris": {"android": "https://dc.lft.to/lastmile_qr_scan", "ios": "https://dc.lft.to/lastmile_qr_scan"}, "fusion_lon": 0.0, "lat": 38.92805666666667, "bike_id": "bb86713289ea164de4ca992d31116349", "type": "electric_scooter", "is_reserved": 0, "lon": -77.04366616666667}, {"fusion_lat": 0.0, "name": "201a57424ffa3a2a53a861232c199dfb", "is_disabled": 0, "rental_uris": {"android": "https://dc.lft.to/lastmile_qr_scan", "ios": "https://dc.lft.to/lastmile_qr_scan"}, "fusion_lon": 0.0, "lat": 38.87128766666667, "bike_id": "201a57424ffa3a2a53a861232c199dfb", "type": "electric_scooter", "is_reserved": 0, "lon": -77.01225833333334}, {"fusion_lat": 0.0, "name": "1f767b43f97adcdc08e2eed2fa674ecd", "is_disabled": 0, "rental_uris": {"android": "https://dc.lft.to/lastmile_qr_scan", "ios": "https://dc.lft.to/lastmile_qr_scan"}, "fusion_lon": 0.0, "lat": 38.91603216666667, "bike_id": "1f767b43f97adcdc08e2eed2fa674ecd", "type": "electric_scooter", "is_reserved": 0, "lon": -77.04161783333333}, {"fusion_lat": 0.0, "name": "cfb4fe0b92efa12e802bd18b3bb03c72", "is_disabled": 0, "rental_uris": {"android": "https://dc.lft.to/lastmile_qr_scan", "ios": "https://dc.lft.to/lastmile_qr_scan"}, "fusion_lon": 0.0, "lat": 38.83156433333333, "bike_id": "cfb4fe0b92efa12e802bd18b3bb03c72", "type": "electric_bike", "is_reserved": 0, "lon": -76.99549816666666}, {"fusion_lat": 0.0, "name": "a49525cc93935815dee7790dccd06b2f", "is_disabled": 0, "rental_uris": {"android": "https://dc.lft.to/lastmile_qr_scan", "ios": "https://dc.lft.to/lastmile_qr_scan"}, "fusion_lon": 0.0, "lat": 38.8851105, "bike_id": "a49525cc93935815dee7790dccd06b2f", "type": "electric_scooter", "is_reserved": 0, "lon": -77.01115683333333}, {"fusion_lat": 0.0, "name": "8b969956a131813851ff61b877bef1dd", "is_disabled": 0, "rental_uris": {"android": "https://dc.lft.to/lastmile_qr_scan", "ios": "https://dc.lft.to/lastmile_qr_scan"}, "fusion_lon": 0.0, "lat": 38.914381, "bike_id": "8b969956a131813851ff61b877bef1dd", "type": "electric_scooter", "is_reserved": 0, "lon": -76.9935345}, {"fusion_lat": 0.0, "name": "6f639cbfec3394e9f4b562cb8d770e01", "is_disabled": 0, "rental_uris": {"android": "https://dc.lft.to/lastmile_qr_scan", "ios": "https://dc.lft.to/lastmile_qr_scan"}, "fusion_lon": 0.0, "lat": 38.92903866666666, "bike_id": "6f639cbfec3394e9f4b562cb8d770e01", "type": "electric_scooter", "is_reserved": 0, "lon": -77.02148633333333}, {"fusion_lat": 0.0, "name": "caa1317074daa99d092dade2bd325f8e", "is_disabled": 0, "rental_uris": {"android": "https://dc.lft.to/lastmile_qr_scan", "ios": "https://dc.lft.to/lastmile_qr_scan"}, "fusion_lon": 0.0, "lat": 38.933142333333336, "bike_id": "caa1317074daa99d092dade2bd325f8e", "type": "electric_bike", "is_reserved": 0, "lon": -77.03215683333333}, {"fusion_lat": 0.0, "name": "066acbcd605b5a7f22ca08c02f428784", "is_disabled": 0, "rental_uris": {"android": "https://dc.lft.to/lastmile_qr_scan", "ios": "https://dc.lft.to/lastmile_qr_scan"}, "fusion_lon": 0.0, "lat": 38.902146333333334, "bike_id": "066acbcd605b5a7f22ca08c02f428784", "type": "electric_scooter", "is_reserved": 0, "lon": -76.98615533333333}, {"fusion_lat": 0.0, "name": "4a9ee95c86d2dd70228813d28268dd42", "is_disabled": 0, "rental_uris": {"android": "https://dc.lft.to/lastmile_qr_scan", "ios": "https://dc.lft.to/lastmile_qr_scan"}, "fusion_lon": 0.0, "lat": 38.922018333333334, "bike_id": "4a9ee95c86d2dd70228813d28268dd42", "type": "electric_scooter", "is_reserved": 0, "lon": -77.0378465}, {"fusion_lat": 0.0, "name": "81dd5498566f8fc4203ec819623ed077", "is_disabled": 0, "rental_uris": {"android": "https://dc.lft.to/lastmile_qr_scan", "ios": "https://dc.lft.to/lastmile_qr_scan"}, "fusion_lon": 0.0, "lat": 38.91803916666667, "bike_id": "81dd5498566f8fc4203ec819623ed077", "type": "electric_scooter", "is_reserved": 0, "lon": -77.02495066666667}, {"fusion_lat": 0.0, "name": "f6cff44c845a850a8d10e9d001a9508c", "is_disabled": 0, "rental_uris": {"android": "https://dc.lft.to/lastmile_qr_scan", "ios": "https://dc.lft.to/lastmile_qr_scan"}, "fusion_lon": 0.0, "lat": 38.9396535, "bike_id": "f6cff44c845a850a8d10e9d001a9508c", "type": "electric_scooter", "is_reserved": 0, "lon": -77.032854}, {"fusion_lat": 0.0, "name": "19566163f51f08914c7cf79ddcde6b57", "is_disabled": 0, "rental_uris": {"android": "https://dc.lft.to/lastmile_qr_scan", "ios": "https://dc.lft.to/lastmile_qr_scan"}, "fusion_lon": 0.0, "lat": 38.917821833333335, "bike_id": "19566163f51f08914c7cf79ddcde6b57", "type": "electric_scooter", "is_reserved": 0, "lon": -77.043055}, {"fusion_lat": 0.0, "name": "af6786fc1c90dcd2ba847c0f4014976a", "is_disabled": 0, "rental_uris": {"android": "https://dc.lft.to/lastmile_qr_scan", "ios": "https://dc.lft.to/lastmile_qr_scan"}, "fusion_lon": 0.0, "lat": 38.90377066666667, "bike_id": "af6786fc1c90dcd2ba847c0f4014976a", "type": "electric_scooter", "is_reserved": 0, "lon": -77.01843233333334}, {"fusion_lat": 0.0, "name": "e620fbd7ca23a20c731928a96688c1f1", "is_disabled": 0, "rental_uris": {"android": "https://dc.lft.to/lastmile_qr_scan", "ios": "https://dc.lft.to/lastmile_qr_scan"}, "fusion_lon": 0.0, "lat": 38.9499855, "bike_id": "e620fbd7ca23a20c731928a96688c1f1", "type": "electric_scooter", "is_reserved": 0, "lon": -77.01950166666667}, {"fusion_lat": 0.0, "name": "4e8eb862edf5344c941a8e1969f05305", "is_disabled": 0, "rental_uris": {"android": "https://dc.lft.to/lastmile_qr_scan", "ios": "https://dc.lft.to/lastmile_qr_scan"}, "fusion_lon": 0.0, "lat": 38.918443, "bike_id": "4e8eb862edf5344c941a8e1969f05305", "type": "electric_scooter", "is_reserved": 0, "lon": -76.96539733333333}, {"fusion_lat": 0.0, "name": "74acc622e170274f978f118a78b1eec9", "is_disabled": 0, "rental_uris": {"android": "https://dc.lft.to/lastmile_qr_scan", "ios": "https://dc.lft.to/lastmile_qr_scan"}, "fusion_lon": 0.0, "lat": 38.91822033333333, "bike_id": "74acc622e170274f978f118a78b1eec9", "type": "electric_scooter", "is_reserved": 0, "lon": -77.03683433333333}, {"fusion_lat": 0.0, "name": "ae937160f64e8a28f4b519b8d93f2869", "is_disabled": 0, "rental_uris": {"android": "https://dc.lft.to/lastmile_qr_scan", "ios": "https://dc.lft.to/lastmile_qr_scan"}, "fusion_lon": 0.0, "lat": 38.9847595, "bike_id": "ae937160f64e8a28f4b519b8d93f2869", "type": "electric_scooter", "is_reserved": 0, "lon": -77.02643716666667}, {"fusion_lat": 0.0, "name": "e87c455364839b2574ff2d8ca2cf8347", "is_disabled": 0, "rental_uris": {"android": "https://dc.lft.to/lastmile_qr_scan", "ios": "https://dc.lft.to/lastmile_qr_scan"}, "fusion_lon": 0.0, "lat": 38.9141385, "bike_id": "e87c455364839b2574ff2d8ca2cf8347", "type": "electric_scooter", "is_reserved": 0, "lon": -77.03175683333333}, {"fusion_lat": 0.0, "name": "0f8bed9368065070c0abb00e2912f944", "is_disabled": 0, "rental_uris": {"android": "https://dc.lft.to/lastmile_qr_scan", "ios": "https://dc.lft.to/lastmile_qr_scan"}, "fusion_lon": 0.0, "lat": 38.914767166666664, "bike_id": "0f8bed9368065070c0abb00e2912f944", "type": "electric_scooter", "is_reserved": 0, "lon": -76.98396616666666}, {"fusion_lat": 0.0, "name": "66c33ef46a37a455559a2a251b748f65", "is_disabled": 0, "rental_uris": {"android": "https://dc.lft.to/lastmile_qr_scan", "ios": "https://dc.lft.to/lastmile_qr_scan"}, "fusion_lon": 0.0, "lat": 38.90235466666667, "bike_id": "66c33ef46a37a455559a2a251b748f65", "type": "electric_scooter", "is_reserved": 0, "lon": -77.01925433333334}, {"fusion_lat": 0.0, "name": "c19b6c9e6da85d24ab88200e6c49f4cc", "is_disabled": 0, "rental_uris": {"android": "https://dc.lft.to/lastmile_qr_scan", "ios": "https://dc.lft.to/lastmile_qr_scan"}, "fusion_lon": 0.0, "lat": 38.921902333333335, "bike_id": "c19b6c9e6da85d24ab88200e6c49f4cc", "type": "electric_scooter", "is_reserved": 0, "lon": -77.0402135}, {"fusion_lat": 0.0, "name": "88973eb68886567f21290545e7d34bce", "is_disabled": 0, "rental_uris": {"android": "https://dc.lft.to/lastmile_qr_scan", "ios": "https://dc.lft.to/lastmile_qr_scan"}, "fusion_lon": 0.0, "lat": 38.918452, "bike_id": "88973eb68886567f21290545e7d34bce", "type": "electric_scooter", "is_reserved": 0, "lon": -77.04100216666667}, {"fusion_lat": 0.0, "name": "513cab3d186418b2b63b431962aa5083", "is_disabled": 0, "rental_uris": {"android": "https://dc.lft.to/lastmile_qr_scan", "ios": "https://dc.lft.to/lastmile_qr_scan"}, "fusion_lon": 0.0, "lat": 38.91350583333333, "bike_id": "513cab3d186418b2b63b431962aa5083", "type": "electric_scooter", "is_reserved": 0, "lon": -77.03337183333333}, {"fusion_lat": 0.0, "name": "633098a8cc69c9b2755af61f14a9f6b4", "is_disabled": 0, "rental_uris": {"android": "https://dc.lft.to/lastmile_qr_scan", "ios": "https://dc.lft.to/lastmile_qr_scan"}, "fusion_lon": 0.0, "lat": 38.909738, "bike_id": "633098a8cc69c9b2755af61f14a9f6b4", "type": "electric_scooter", "is_reserved": 0, "lon": -77.0337415}, {"fusion_lat": 0.0, "name": "f9198172d4620559ea8623a75e93f985", "is_disabled": 0, "rental_uris": {"android": "https://dc.lft.to/lastmile_qr_scan", "ios": "https://dc.lft.to/lastmile_qr_scan"}, "fusion_lon": 0.0, "lat": 38.93365633333333, "bike_id": "f9198172d4620559ea8623a75e93f985", "type": "electric_scooter", "is_reserved": 0, "lon": -77.04190416666667}, {"fusion_lat": 0.0, "name": "424a735ed077077e031809d9183c5e56", "is_disabled": 0, "rental_uris": {"android": "https://dc.lft.to/lastmile_qr_scan", "ios": "https://dc.lft.to/lastmile_qr_scan"}, "fusion_lon": 0.0, "lat": 38.90005016666667, "bike_id": "424a735ed077077e031809d9183c5e56", "type": "electric_scooter", "is_reserved": 0, "lon": -77.03213916666667}, {"fusion_lat": 0.0, "name": "406ab11cb83cd919298af025e38da3f1", "is_disabled": 0, "rental_uris": {"android": "https://dc.lft.to/lastmile_qr_scan", "ios": "https://dc.lft.to/lastmile_qr_scan"}, "fusion_lon": 0.0, "lat": 38.8848505, "bike_id": "406ab11cb83cd919298af025e38da3f1", "type": "electric_scooter", "is_reserved": 0, "lon": -77.02093383333333}, {"fusion_lat": 0.0, "name": "dee9fd323c746186468788eb6b136c7c", "is_disabled": 0, "rental_uris": {"android": "https://dc.lft.to/lastmile_qr_scan", "ios": "https://dc.lft.to/lastmile_qr_scan"}, "fusion_lon": 0.0, "lat": 38.8999175, "bike_id": "dee9fd323c746186468788eb6b136c7c", "type": "electric_scooter", "is_reserved": 0, "lon": -77.01943833333333}, {"fusion_lat": 0.0, "name": "f8eb3db01aceb4631bcb9384c91f2e21", "is_disabled": 0, "rental_uris": {"android": "https://dc.lft.to/lastmile_qr_scan", "ios": "https://dc.lft.to/lastmile_qr_scan"}, "fusion_lon": 0.0, "lat": 38.874063, "bike_id": "f8eb3db01aceb4631bcb9384c91f2e21", "type": "electric_scooter", "is_reserved": 0, "lon": -76.97478583333333}, {"fusion_lat": 0.0, "name": "c6e2fd09170d3f273eca3cd31ef6deb9", "is_disabled": 0, "rental_uris": {"android": "https://dc.lft.to/lastmile_qr_scan", "ios": "https://dc.lft.to/lastmile_qr_scan"}, "fusion_lon": 0.0, "lat": 38.89893766666667, "bike_id": "c6e2fd09170d3f273eca3cd31ef6deb9", "type": "electric_scooter", "is_reserved": 0, "lon": -76.980646}, {"fusion_lat": 0.0, "name": "c51d624150dc0c61424127ee59c18167", "is_disabled": 0, "rental_uris": {"android": "https://dc.lft.to/lastmile_qr_scan", "ios": "https://dc.lft.to/lastmile_qr_scan"}, "fusion_lon": 0.0, "lat": 38.91819616666667, "bike_id": "c51d624150dc0c61424127ee59c18167", "type": "electric_scooter", "is_reserved": 0, "lon": -77.025347}, {"fusion_lat": 0.0, "name": "fd352aded5bdc552791e2fe6c407dc05", "is_disabled": 0, "rental_uris": {"android": "https://dc.lft.to/lastmile_qr_scan", "ios": "https://dc.lft.to/lastmile_qr_scan"}, "fusion_lon": 0.0, "lat": 38.9097125, "bike_id": "fd352aded5bdc552791e2fe6c407dc05", "type": "electric_scooter", "is_reserved": 0, "lon": -77.03927733333333}, {"fusion_lat": 0.0, "name": "b760e794440619e64828a8a43c66c4b0", "is_disabled": 0, "rental_uris": {"android": "https://dc.lft.to/lastmile_qr_scan", "ios": "https://dc.lft.to/lastmile_qr_scan"}, "fusion_lon": 0.0, "lat": 39.070521666666664, "bike_id": "b760e794440619e64828a8a43c66c4b0", "type": "electric_bike", "is_reserved": 0, "lon": -77.1147845}, {"fusion_lat": 0.0, "name": "4130ee99838d41c80f471377c159efa7", "is_disabled": 0, "rental_uris": {"android": "https://dc.lft.to/lastmile_qr_scan", "ios": "https://dc.lft.to/lastmile_qr_scan"}, "fusion_lon": 0.0, "lat": 38.900307833333336, "bike_id": "4130ee99838d41c80f471377c159efa7", "type": "electric_scooter", "is_reserved": 0, "lon": -76.98933099999999}, {"fusion_lat": 0.0, "name": "e1ecbab94a9bfe0fa808d3f5ca4a13e9", "is_disabled": 0, "rental_uris": {"android": "https://dc.lft.to/lastmile_qr_scan", "ios": "https://dc.lft.to/lastmile_qr_scan"}, "fusion_lon": 0.0, "lat": 38.869872666666666, "bike_id": "e1ecbab94a9bfe0fa808d3f5ca4a13e9", "type": "electric_scooter", "is_reserved": 0, "lon": -77.01373616666666}, {"fusion_lat": 0.0, "name": "7cc30305e2ec82b4b17b392219af75d4", "is_disabled": 0, "rental_uris": {"android": "https://dc.lft.to/lastmile_qr_scan", "ios": "https://dc.lft.to/lastmile_qr_scan"}, "fusion_lon": 0.0, "lat": 38.915796, "bike_id": "7cc30305e2ec82b4b17b392219af75d4", "type": "electric_scooter", "is_reserved": 0, "lon": -77.032044}, {"fusion_lat": 0.0, "name": "29b45a529ab4100f4288a27579608457", "is_disabled": 0, "rental_uris": {"android": "https://dc.lft.to/lastmile_qr_scan", "ios": "https://dc.lft.to/lastmile_qr_scan"}, "fusion_lon": 0.0, "lat": 38.86090933333333, "bike_id": "29b45a529ab4100f4288a27579608457", "type": "electric_scooter", "is_reserved": 0, "lon": -76.98109983333333}, {"fusion_lat": 0.0, "name": "9234609ce27d4ab21fe818c26ddf05b9", "is_disabled": 0, "rental_uris": {"android": "https://dc.lft.to/lastmile_qr_scan", "ios": "https://dc.lft.to/lastmile_qr_scan"}, "fusion_lon": 0.0, "lat": 38.90856383333333, "bike_id": "9234609ce27d4ab21fe818c26ddf05b9", "type": "electric_scooter", "is_reserved": 0, "lon": -77.063699}, {"fusion_lat": 0.0, "name": "caf18554dbb036c4c42b463f3b21bcf1", "is_disabled": 0, "rental_uris": {"android": "https://dc.lft.to/lastmile_qr_scan", "ios": "https://dc.lft.to/lastmile_qr_scan"}, "fusion_lon": 0.0, "lat": 38.9177305, "bike_id": "caf18554dbb036c4c42b463f3b21bcf1", "type": "electric_scooter", "is_reserved": 0, "lon": -77.02305066666666}, {"fusion_lat": 0.0, "name": "0503c0bb1852545767abbbe977a926fc", "is_disabled": 0, "rental_uris": {"android": "https://dc.lft.to/lastmile_qr_scan", "ios": "https://dc.lft.to/lastmile_qr_scan"}, "fusion_lon": 0.0, "lat": 38.9163985, "bike_id": "0503c0bb1852545767abbbe977a926fc", "type": "electric_scooter", "is_reserved": 0, "lon": -77.05058616666666}, {"fusion_lat": 0.0, "name": "d6c61e6b05641eee9e6554adbf109563", "is_disabled": 0, "rental_uris": {"android": "https://dc.lft.to/lastmile_qr_scan", "ios": "https://dc.lft.to/lastmile_qr_scan"}, "fusion_lon": 0.0, "lat": 38.90528583333333, "bike_id": "d6c61e6b05641eee9e6554adbf109563", "type": "electric_scooter", "is_reserved": 0, "lon": -77.02975233333333}, {"fusion_lat": 0.0, "name": "008913a8478b00a3bdbd036dace1c436", "is_disabled": 0, "rental_uris": {"android": "https://dc.lft.to/lastmile_qr_scan", "ios": "https://dc.lft.to/lastmile_qr_scan"}, "fusion_lon": 0.0, "lat": 38.88152983333333, "bike_id": "008913a8478b00a3bdbd036dace1c436", "type": "electric_scooter", "is_reserved": 0, "lon": -77.026829}, {"fusion_lat": 0.0, "name": "8fe6315456b214d731dc087fe8952775", "is_disabled": 0, "rental_uris": {"android": "https://dc.lft.to/lastmile_qr_scan", "ios": "https://dc.lft.to/lastmile_qr_scan"}, "fusion_lon": 0.0, "lat": 38.86222033333333, "bike_id": "8fe6315456b214d731dc087fe8952775", "type": "electric_bike", "is_reserved": 0, "lon": -76.9955}, {"fusion_lat": 0.0, "name": "87bdab5e12a81e9bb9c6e8e9aeacd484", "is_disabled": 0, "rental_uris": {"android": "https://dc.lft.to/lastmile_qr_scan", "ios": "https://dc.lft.to/lastmile_qr_scan"}, "fusion_lon": 0.0, "lat": 38.919284166666664, "bike_id": "87bdab5e12a81e9bb9c6e8e9aeacd484", "type": "electric_scooter", "is_reserved": 0, "lon": -77.024124}, {"fusion_lat": 0.0, "name": "11ccb805ce9fdfeaf5ca364c7f362e7f", "is_disabled": 0, "rental_uris": {"android": "https://dc.lft.to/lastmile_qr_scan", "ios": "https://dc.lft.to/lastmile_qr_scan"}, "fusion_lon": 0.0, "lat": 39.036096, "bike_id": "11ccb805ce9fdfeaf5ca364c7f362e7f", "type": "electric_bike", "is_reserved": 0, "lon": -77.0554525}, {"fusion_lat": 0.0, "name": "37f518cd5dfc860cbf3f6163c9cb5ac7", "is_disabled": 0, "rental_uris": {"android": "https://dc.lft.to/lastmile_qr_scan", "ios": "https://dc.lft.to/lastmile_qr_scan"}, "fusion_lon": 0.0, "lat": 38.9043085, "bike_id": "37f518cd5dfc860cbf3f6163c9cb5ac7", "type": "electric_scooter", "is_reserved": 0, "lon": -77.05150716666667}, {"fusion_lat": 0.0, "name": "a4080e23fba5e62ff96e8f36ee9f532b", "is_disabled": 0, "rental_uris": {"android": "https://dc.lft.to/lastmile_qr_scan", "ios": "https://dc.lft.to/lastmile_qr_scan"}, "fusion_lon": 0.0, "lat": 38.9370335, "bike_id": "a4080e23fba5e62ff96e8f36ee9f532b", "type": "electric_scooter", "is_reserved": 0, "lon": -77.061}, {"fusion_lat": 0.0, "name": "d4568c12f9d7f8239a07d45e05bf8a18", "is_disabled": 0, "rental_uris": {"android": "https://dc.lft.to/lastmile_qr_scan", "ios": "https://dc.lft.to/lastmile_qr_scan"}, "fusion_lon": 0.0, "lat": 38.9153145, "bike_id": "d4568c12f9d7f8239a07d45e05bf8a18", "type": "electric_scooter", "is_reserved": 0, "lon": -77.02000166666667}, {"fusion_lat": 0.0, "name": "66c269fb2ddecec71aafcc6eef4f3605", "is_disabled": 0, "rental_uris": {"android": "https://dc.lft.to/lastmile_qr_scan", "ios": "https://dc.lft.to/lastmile_qr_scan"}, "fusion_lon": 0.0, "lat": 38.84838583333333, "bike_id": "66c269fb2ddecec71aafcc6eef4f3605", "type": "electric_bike", "is_reserved": 0, "lon": -77.0791095}, {"fusion_lat": 0.0, "name": "bfd4d03a678a8593e82e61f3b9ca6651", "is_disabled": 0, "rental_uris": {"android": "https://dc.lft.to/lastmile_qr_scan", "ios": "https://dc.lft.to/lastmile_qr_scan"}, "fusion_lon": 0.0, "lat": 38.964466, "bike_id": "bfd4d03a678a8593e82e61f3b9ca6651", "type": "electric_bike", "is_reserved": 0, "lon": -77.02074866666666}, {"fusion_lat": 0.0, "name": "8245a8c75eac0ebddb0321631fc79947", "is_disabled": 0, "rental_uris": {"android": "https://dc.lft.to/lastmile_qr_scan", "ios": "https://dc.lft.to/lastmile_qr_scan"}, "fusion_lon": 0.0, "lat": 38.92020566666667, "bike_id": "8245a8c75eac0ebddb0321631fc79947", "type": "electric_scooter", "is_reserved": 0, "lon": -77.08193616666667}, {"fusion_lat": 0.0, "name": "8d4c4d822e4c5f68e382af8d7a3e40fa", "is_disabled": 0, "rental_uris": {"android": "https://dc.lft.to/lastmile_qr_scan", "ios": "https://dc.lft.to/lastmile_qr_scan"}, "fusion_lon": 0.0, "lat": 38.89838983333333, "bike_id": "8d4c4d822e4c5f68e382af8d7a3e40fa", "type": "electric_scooter", "is_reserved": 0, "lon": -77.027836}, {"fusion_lat": 0.0, "name": "77407ef5abca7e8bf90b1fc18b143c1a", "is_disabled": 0, "rental_uris": {"android": "https://dc.lft.to/lastmile_qr_scan", "ios": "https://dc.lft.to/lastmile_qr_scan"}, "fusion_lon": 0.0, "lat": 38.9194065, "bike_id": "77407ef5abca7e8bf90b1fc18b143c1a", "type": "electric_scooter", "is_reserved": 0, "lon": -77.04161216666667}, {"fusion_lat": 0.0, "name": "bb55229ff5dc61dbc80b1e754ef20f3c", "is_disabled": 0, "rental_uris": {"android": "https://dc.lft.to/lastmile_qr_scan", "ios": "https://dc.lft.to/lastmile_qr_scan"}, "fusion_lon": 0.0, "lat": 38.847563666666666, "bike_id": "bb55229ff5dc61dbc80b1e754ef20f3c", "type": "electric_scooter", "is_reserved": 0, "lon": -76.9950465}, {"fusion_lat": 0.0, "name": "5011277caa0c44b6177f101192ba3acd", "is_disabled": 0, "rental_uris": {"android": "https://dc.lft.to/lastmile_qr_scan", "ios": "https://dc.lft.to/lastmile_qr_scan"}, "fusion_lon": 0.0, "lat": 38.928586333333335, "bike_id": "5011277caa0c44b6177f101192ba3acd", "type": "electric_scooter", "is_reserved": 0, "lon": -77.03050366666666}, {"fusion_lat": 0.0, "name": "a22e746d730053e0f17b7adf65852346", "is_disabled": 0, "rental_uris": {"android": "https://dc.lft.to/lastmile_qr_scan", "ios": "https://dc.lft.to/lastmile_qr_scan"}, "fusion_lon": 0.0, "lat": 38.9148895, "bike_id": "a22e746d730053e0f17b7adf65852346", "type": "electric_scooter", "is_reserved": 0, "lon": -77.013239}, {"fusion_lat": 0.0, "name": "2ccff646f5be67b2f1ebc1a2c0de6803", "is_disabled": 0, "rental_uris": {"android": "https://dc.lft.to/lastmile_qr_scan", "ios": "https://dc.lft.to/lastmile_qr_scan"}, "fusion_lon": 0.0, "lat": 38.874832, "bike_id": "2ccff646f5be67b2f1ebc1a2c0de6803", "type": "electric_scooter", "is_reserved": 0, "lon": -77.00025383333333}, {"fusion_lat": 0.0, "name": "c9f63d8971bebde2aef04ad9cb2a0a90", "is_disabled": 0, "rental_uris": {"android": "https://dc.lft.to/lastmile_qr_scan", "ios": "https://dc.lft.to/lastmile_qr_scan"}, "fusion_lon": 0.0, "lat": 38.91135716666667, "bike_id": "c9f63d8971bebde2aef04ad9cb2a0a90", "type": "electric_scooter", "is_reserved": 0, "lon": -77.03842266666666}, {"fusion_lat": 0.0, "name": "c0c0e2e956286e772485f20127b6a136", "is_disabled": 0, "rental_uris": {"android": "https://dc.lft.to/lastmile_qr_scan", "ios": "https://dc.lft.to/lastmile_qr_scan"}, "fusion_lon": 0.0, "lat": 38.853563666666666, "bike_id": "c0c0e2e956286e772485f20127b6a136", "type": "electric_bike", "is_reserved": 0, "lon": -77.13471133333333}, {"fusion_lat": 0.0, "name": "63269050c6319993e1067ba22394076f", "is_disabled": 0, "rental_uris": {"android": "https://dc.lft.to/lastmile_qr_scan", "ios": "https://dc.lft.to/lastmile_qr_scan"}, "fusion_lon": 0.0, "lat": 38.92548166666667, "bike_id": "63269050c6319993e1067ba22394076f", "type": "electric_scooter", "is_reserved": 0, "lon": -77.033365}, {"fusion_lat": 0.0, "name": "267b7ee203afacf10382e1de2d0655eb", "is_disabled": 0, "rental_uris": {"android": "https://dc.lft.to/lastmile_qr_scan", "ios": "https://dc.lft.to/lastmile_qr_scan"}, "fusion_lon": 0.0, "lat": 38.92467283333333, "bike_id": "267b7ee203afacf10382e1de2d0655eb", "type": "electric_scooter", "is_reserved": 0, "lon": -77.03534333333333}, {"fusion_lat": 0.0, "name": "08cef944d9bdf23e760012e5d63e3d4e", "is_disabled": 0, "rental_uris": {"android": "https://dc.lft.to/lastmile_qr_scan", "ios": "https://dc.lft.to/lastmile_qr_scan"}, "fusion_lon": 0.0, "lat": 38.916157, "bike_id": "08cef944d9bdf23e760012e5d63e3d4e", "type": "electric_scooter", "is_reserved": 0, "lon": -77.036419}, {"fusion_lat": 0.0, "name": "8d8ac0200846dc494fa40ab330066ebe", "is_disabled": 0, "rental_uris": {"android": "https://dc.lft.to/lastmile_qr_scan", "ios": "https://dc.lft.to/lastmile_qr_scan"}, "fusion_lon": 0.0, "lat": 38.915785, "bike_id": "8d8ac0200846dc494fa40ab330066ebe", "type": "electric_scooter", "is_reserved": 0, "lon": -77.012301}, {"fusion_lat": 0.0, "name": "9078299a55848eeef5f1a429f8dce4d5", "is_disabled": 0, "rental_uris": {"android": "https://dc.lft.to/lastmile_qr_scan", "ios": "https://dc.lft.to/lastmile_qr_scan"}, "fusion_lon": 0.0, "lat": 38.9227435, "bike_id": "9078299a55848eeef5f1a429f8dce4d5", "type": "electric_scooter", "is_reserved": 0, "lon": -77.04237733333333}, {"fusion_lat": 0.0, "name": "d40f9a94a2c6003d1bafae6e68ebd95b", "is_disabled": 0, "rental_uris": {"android": "https://dc.lft.to/lastmile_qr_scan", "ios": "https://dc.lft.to/lastmile_qr_scan"}, "fusion_lon": 0.0, "lat": 38.93863066666667, "bike_id": "d40f9a94a2c6003d1bafae6e68ebd95b", "type": "electric_scooter", "is_reserved": 0, "lon": -77.0320235}, {"fusion_lat": 0.0, "name": "beca41cfa2eadbbca4706fd6ccbe72f9", "is_disabled": 0, "rental_uris": {"android": "https://dc.lft.to/lastmile_qr_scan", "ios": "https://dc.lft.to/lastmile_qr_scan"}, "fusion_lon": 0.0, "lat": 38.8962905, "bike_id": "beca41cfa2eadbbca4706fd6ccbe72f9", "type": "electric_scooter", "is_reserved": 0, "lon": -77.0220405}, {"fusion_lat": 0.0, "name": "f06cf9633711e6d6a8786037e68640f4", "is_disabled": 0, "rental_uris": {"android": "https://dc.lft.to/lastmile_qr_scan", "ios": "https://dc.lft.to/lastmile_qr_scan"}, "fusion_lon": 0.0, "lat": 38.873886166666665, "bike_id": "f06cf9633711e6d6a8786037e68640f4", "type": "electric_scooter", "is_reserved": 0, "lon": -77.000474}, {"fusion_lat": 0.0, "name": "7bba7e181b6828059b85ecf9df07cd5b", "is_disabled": 0, "rental_uris": {"android": "https://dc.lft.to/lastmile_qr_scan", "ios": "https://dc.lft.to/lastmile_qr_scan"}, "fusion_lon": 0.0, "lat": 38.92988616666667, "bike_id": "7bba7e181b6828059b85ecf9df07cd5b", "type": "electric_scooter", "is_reserved": 0, "lon": -77.03270733333333}, {"fusion_lat": 0.0, "name": "3d3221e4e7db68fb3aae347147946254", "is_disabled": 0, "rental_uris": {"android": "https://dc.lft.to/lastmile_qr_scan", "ios": "https://dc.lft.to/lastmile_qr_scan"}, "fusion_lon": 0.0, "lat": 38.8783445, "bike_id": "3d3221e4e7db68fb3aae347147946254", "type": "electric_scooter", "is_reserved": 0, "lon": -76.99036933333333}, {"fusion_lat": 0.0, "name": "2de2c3ee35e0bd2f0f50b0743def3a95", "is_disabled": 0, "rental_uris": {"android": "https://dc.lft.to/lastmile_qr_scan", "ios": "https://dc.lft.to/lastmile_qr_scan"}, "fusion_lon": 0.0, "lat": 38.85362966666667, "bike_id": "2de2c3ee35e0bd2f0f50b0743def3a95", "type": "electric_bike", "is_reserved": 0, "lon": -77.115083}, {"fusion_lat": 0.0, "name": "613376439dd3f3adcd45bb28252434cf", "is_disabled": 0, "rental_uris": {"android": "https://dc.lft.to/lastmile_qr_scan", "ios": "https://dc.lft.to/lastmile_qr_scan"}, "fusion_lon": 0.0, "lat": 38.92671766666667, "bike_id": "613376439dd3f3adcd45bb28252434cf", "type": "electric_scooter", "is_reserved": 0, "lon": -77.02962833333333}, {"fusion_lat": 0.0, "name": "e9d9c3d666466c8351fb42be5b5153cc", "is_disabled": 0, "rental_uris": {"android": "https://dc.lft.to/lastmile_qr_scan", "ios": "https://dc.lft.to/lastmile_qr_scan"}, "fusion_lon": 0.0, "lat": 38.91425233333333, "bike_id": "e9d9c3d666466c8351fb42be5b5153cc", "type": "electric_scooter", "is_reserved": 0, "lon": -76.98439916666666}, {"fusion_lat": 0.0, "name": "612e26d39eeeef1f585d2365675138a8", "is_disabled": 0, "rental_uris": {"android": "https://dc.lft.to/lastmile_qr_scan", "ios": "https://dc.lft.to/lastmile_qr_scan"}, "fusion_lon": 0.0, "lat": 38.9203365, "bike_id": "612e26d39eeeef1f585d2365675138a8", "type": "electric_scooter", "is_reserved": 0, "lon": -77.0122025}, {"fusion_lat": 0.0, "name": "80e436967cd9f3a7408e4d7058ae87a2", "is_disabled": 0, "rental_uris": {"android": "https://dc.lft.to/lastmile_qr_scan", "ios": "https://dc.lft.to/lastmile_qr_scan"}, "fusion_lon": 0.0, "lat": 38.90045666666666, "bike_id": "80e436967cd9f3a7408e4d7058ae87a2", "type": "electric_scooter", "is_reserved": 0, "lon": -77.04478133333333}, {"fusion_lat": 0.0, "name": "c692bd710b529ea314d96a1cde9f63ee", "is_disabled": 0, "rental_uris": {"android": "https://dc.lft.to/lastmile_qr_scan", "ios": "https://dc.lft.to/lastmile_qr_scan"}, "fusion_lon": 0.0, "lat": 38.902714833333334, "bike_id": "c692bd710b529ea314d96a1cde9f63ee", "type": "electric_scooter", "is_reserved": 0, "lon": -77.01744433333333}, {"fusion_lat": 0.0, "name": "d2e5cef5957d25c96a82869be84ebff8", "is_disabled": 0, "rental_uris": {"android": "https://dc.lft.to/lastmile_qr_scan", "ios": "https://dc.lft.to/lastmile_qr_scan"}, "fusion_lon": 0.0, "lat": 39.03430933333333, "bike_id": "d2e5cef5957d25c96a82869be84ebff8", "type": "electric_bike", "is_reserved": 0, "lon": -77.0429815}, {"fusion_lat": 0.0, "name": "ed8e0fb45a95685713d61dced1459454", "is_disabled": 0, "rental_uris": {"android": "https://dc.lft.to/lastmile_qr_scan", "ios": "https://dc.lft.to/lastmile_qr_scan"}, "fusion_lon": 0.0, "lat": 38.89898483333333, "bike_id": "ed8e0fb45a95685713d61dced1459454", "type": "electric_scooter", "is_reserved": 0, "lon": -77.0397515}, {"fusion_lat": 0.0, "name": "772b55998a5e5e4afa774695f007d111", "is_disabled": 0, "rental_uris": {"android": "https://dc.lft.to/lastmile_qr_scan", "ios": "https://dc.lft.to/lastmile_qr_scan"}, "fusion_lon": 0.0, "lat": 38.902771666666666, "bike_id": "772b55998a5e5e4afa774695f007d111", "type": "electric_scooter", "is_reserved": 0, "lon": -77.033733}, {"fusion_lat": 0.0, "name": "a60c21b141832d4d16462808f06df89e", "is_disabled": 0, "rental_uris": {"android": "https://dc.lft.to/lastmile_qr_scan", "ios": "https://dc.lft.to/lastmile_qr_scan"}, "fusion_lon": 0.0, "lat": 38.973699833333335, "bike_id": "a60c21b141832d4d16462808f06df89e", "type": "electric_scooter", "is_reserved": 0, "lon": -77.01853316666667}, {"fusion_lat": 0.0, "name": "933f384cedd862833007b59c1d787b11", "is_disabled": 0, "rental_uris": {"android": "https://dc.lft.to/lastmile_qr_scan", "ios": "https://dc.lft.to/lastmile_qr_scan"}, "fusion_lon": 0.0, "lat": 38.894715, "bike_id": "933f384cedd862833007b59c1d787b11", "type": "electric_scooter", "is_reserved": 0, "lon": -77.01040083333334}, {"fusion_lat": 0.0, "name": "626dbcd27c61f75f0c2937d3ce4f154e", "is_disabled": 0, "rental_uris": {"android": "https://dc.lft.to/lastmile_qr_scan", "ios": "https://dc.lft.to/lastmile_qr_scan"}, "fusion_lon": 0.0, "lat": 38.918575, "bike_id": "626dbcd27c61f75f0c2937d3ce4f154e", "type": "electric_scooter", "is_reserved": 0, "lon": -77.0418115}, {"fusion_lat": 0.0, "name": "6d2c83b8a9a657a56b146a421b1a7ca1", "is_disabled": 0, "rental_uris": {"android": "https://dc.lft.to/lastmile_qr_scan", "ios": "https://dc.lft.to/lastmile_qr_scan"}, "fusion_lon": 0.0, "lat": 38.945414, "bike_id": "6d2c83b8a9a657a56b146a421b1a7ca1", "type": "electric_scooter", "is_reserved": 0, "lon": -77.01693383333334}, {"fusion_lat": 0.0, "name": "aaf39d0803fcc27f00ef92f446e1c398", "is_disabled": 0, "rental_uris": {"android": "https://dc.lft.to/lastmile_qr_scan", "ios": "https://dc.lft.to/lastmile_qr_scan"}, "fusion_lon": 0.0, "lat": 38.83313066666667, "bike_id": "aaf39d0803fcc27f00ef92f446e1c398", "type": "electric_bike", "is_reserved": 0, "lon": -77.04183366666666}, {"fusion_lat": 0.0, "name": "b047740a5248de2b70366d85a625cdcf", "is_disabled": 0, "rental_uris": {"android": "https://dc.lft.to/lastmile_qr_scan", "ios": "https://dc.lft.to/lastmile_qr_scan"}, "fusion_lon": 0.0, "lat": 38.93486016666667, "bike_id": "b047740a5248de2b70366d85a625cdcf", "type": "electric_scooter", "is_reserved": 0, "lon": -77.03020316666667}, {"fusion_lat": 0.0, "name": "930a6f05d0576880bff57935192dc0bf", "is_disabled": 0, "rental_uris": {"android": "https://dc.lft.to/lastmile_qr_scan", "ios": "https://dc.lft.to/lastmile_qr_scan"}, "fusion_lon": 0.0, "lat": 38.8656105, "bike_id": "930a6f05d0576880bff57935192dc0bf", "type": "electric_bike", "is_reserved": 0, "lon": -76.97374133333334}, {"fusion_lat": 0.0, "name": "0537115f349364709c01e5228b693e71", "is_disabled": 0, "rental_uris": {"android": "https://dc.lft.to/lastmile_qr_scan", "ios": "https://dc.lft.to/lastmile_qr_scan"}, "fusion_lon": 0.0, "lat": 38.91487566666667, "bike_id": "0537115f349364709c01e5228b693e71", "type": "electric_scooter", "is_reserved": 0, "lon": -77.01227316666666}, {"fusion_lat": 0.0, "name": "eb004da343193d1a22f3e02cce1e16c2", "is_disabled": 0, "rental_uris": {"android": "https://dc.lft.to/lastmile_qr_scan", "ios": "https://dc.lft.to/lastmile_qr_scan"}, "fusion_lon": 0.0, "lat": 38.91556416666667, "bike_id": "eb004da343193d1a22f3e02cce1e16c2", "type": "electric_scooter", "is_reserved": 0, "lon": -77.03174383333334}, {"fusion_lat": 0.0, "name": "02bbcb2217440c77f9eddf8fa5623f46", "is_disabled": 0, "rental_uris": {"android": "https://dc.lft.to/lastmile_qr_scan", "ios": "https://dc.lft.to/lastmile_qr_scan"}, "fusion_lon": 0.0, "lat": 38.8747625, "bike_id": "02bbcb2217440c77f9eddf8fa5623f46", "type": "electric_scooter", "is_reserved": 0, "lon": -77.00238716666667}, {"fusion_lat": 0.0, "name": "5f3c41fd29a1e1e980604f16f1dcfd6c", "is_disabled": 0, "rental_uris": {"android": "https://dc.lft.to/lastmile_qr_scan", "ios": "https://dc.lft.to/lastmile_qr_scan"}, "fusion_lon": 0.0, "lat": 38.924579333333334, "bike_id": "5f3c41fd29a1e1e980604f16f1dcfd6c", "type": "electric_scooter", "is_reserved": 0, "lon": -76.9933395}, {"fusion_lat": 0.0, "name": "3e509e71d49e8570316e938990d41b0b", "is_disabled": 0, "rental_uris": {"android": "https://dc.lft.to/lastmile_qr_scan", "ios": "https://dc.lft.to/lastmile_qr_scan"}, "fusion_lon": 0.0, "lat": 38.90858016666667, "bike_id": "3e509e71d49e8570316e938990d41b0b", "type": "electric_bike", "is_reserved": 0, "lon": -76.99955766666666}, {"fusion_lat": 0.0, "name": "36a3d7bd6f296875e3e2dd0294325358", "is_disabled": 0, "rental_uris": {"android": "https://dc.lft.to/lastmile_qr_scan", "ios": "https://dc.lft.to/lastmile_qr_scan"}, "fusion_lon": 0.0, "lat": 38.923594666666666, "bike_id": "36a3d7bd6f296875e3e2dd0294325358", "type": "electric_scooter", "is_reserved": 0, "lon": -77.04239383333334}, {"fusion_lat": 0.0, "name": "729b0b27d4c110b64c1f3ef60ae2a1a8", "is_disabled": 0, "rental_uris": {"android": "https://dc.lft.to/lastmile_qr_scan", "ios": "https://dc.lft.to/lastmile_qr_scan"}, "fusion_lon": 0.0, "lat": 38.92056016666667, "bike_id": "729b0b27d4c110b64c1f3ef60ae2a1a8", "type": "electric_scooter", "is_reserved": 0, "lon": -76.99867333333333}, {"fusion_lat": 0.0, "name": "d913347b198f6cc687428868151d0af7", "is_disabled": 0, "rental_uris": {"android": "https://dc.lft.to/lastmile_qr_scan", "ios": "https://dc.lft.to/lastmile_qr_scan"}, "fusion_lon": 0.0, "lat": 38.928392333333335, "bike_id": "d913347b198f6cc687428868151d0af7", "type": "electric_scooter", "is_reserved": 0, "lon": -76.980365}, {"fusion_lat": 0.0, "name": "2e10fd86afbec2e732d59e26ea42c013", "is_disabled": 0, "rental_uris": {"android": "https://dc.lft.to/lastmile_qr_scan", "ios": "https://dc.lft.to/lastmile_qr_scan"}, "fusion_lon": 0.0, "lat": 38.90573583333333, "bike_id": "2e10fd86afbec2e732d59e26ea42c013", "type": "electric_scooter", "is_reserved": 0, "lon": -77.03114616666667}, {"fusion_lat": 0.0, "name": "78d5be3277e0029e8ccc101c48cbc62d", "is_disabled": 0, "rental_uris": {"android": "https://dc.lft.to/lastmile_qr_scan", "ios": "https://dc.lft.to/lastmile_qr_scan"}, "fusion_lon": 0.0, "lat": 38.88835783333333, "bike_id": "78d5be3277e0029e8ccc101c48cbc62d", "type": "electric_scooter", "is_reserved": 0, "lon": -77.04909833333333}, {"fusion_lat": 0.0, "name": "78d019e8543753b6d32e7bbb812de6a6", "is_disabled": 0, "rental_uris": {"android": "https://dc.lft.to/lastmile_qr_scan", "ios": "https://dc.lft.to/lastmile_qr_scan"}, "fusion_lon": 0.0, "lat": 38.896967333333336, "bike_id": "78d019e8543753b6d32e7bbb812de6a6", "type": "electric_scooter", "is_reserved": 0, "lon": -77.04353466666667}, {"fusion_lat": 0.0, "name": "1f56073e8cfd3afa2d0b7f623a33cdfa", "is_disabled": 0, "rental_uris": {"android": "https://dc.lft.to/lastmile_qr_scan", "ios": "https://dc.lft.to/lastmile_qr_scan"}, "fusion_lon": 0.0, "lat": 38.9209465, "bike_id": "1f56073e8cfd3afa2d0b7f623a33cdfa", "type": "electric_scooter", "is_reserved": 0, "lon": -77.02219566666666}, {"fusion_lat": 0.0, "name": "94109a2c9faf949f40161623f6f27119", "is_disabled": 0, "rental_uris": {"android": "https://dc.lft.to/lastmile_qr_scan", "ios": "https://dc.lft.to/lastmile_qr_scan"}, "fusion_lon": 0.0, "lat": 38.9025665, "bike_id": "94109a2c9faf949f40161623f6f27119", "type": "electric_scooter", "is_reserved": 0, "lon": -77.04259266666666}, {"fusion_lat": 0.0, "name": "7da81db78e1a537d2e75cb7e0a224365", "is_disabled": 0, "rental_uris": {"android": "https://dc.lft.to/lastmile_qr_scan", "ios": "https://dc.lft.to/lastmile_qr_scan"}, "fusion_lon": 0.0, "lat": 38.85798966666667, "bike_id": "7da81db78e1a537d2e75cb7e0a224365", "type": "electric_bike", "is_reserved": 0, "lon": -76.987399}, {"fusion_lat": 0.0, "name": "7bb5a1c41685aa5eba1a553882019e1e", "is_disabled": 0, "rental_uris": {"android": "https://dc.lft.to/lastmile_qr_scan", "ios": "https://dc.lft.to/lastmile_qr_scan"}, "fusion_lon": 0.0, "lat": 38.917261333333336, "bike_id": "7bb5a1c41685aa5eba1a553882019e1e", "type": "electric_scooter", "is_reserved": 0, "lon": -77.008158}, {"fusion_lat": 0.0, "name": "c1e0b14c4f8d6e912541879d2ca66e41", "is_disabled": 0, "rental_uris": {"android": "https://dc.lft.to/lastmile_qr_scan", "ios": "https://dc.lft.to/lastmile_qr_scan"}, "fusion_lon": 0.0, "lat": 38.8625425, "bike_id": "c1e0b14c4f8d6e912541879d2ca66e41", "type": "electric_bike", "is_reserved": 0, "lon": -76.9834275}, {"fusion_lat": 0.0, "name": "60e8cc532b5646a4e5e61e5342d0552b", "is_disabled": 0, "rental_uris": {"android": "https://dc.lft.to/lastmile_qr_scan", "ios": "https://dc.lft.to/lastmile_qr_scan"}, "fusion_lon": 0.0, "lat": 38.90093566666667, "bike_id": "60e8cc532b5646a4e5e61e5342d0552b", "type": "electric_scooter", "is_reserved": 0, "lon": -77.01942383333333}, {"fusion_lat": 0.0, "name": "c2473bd48ff1cffce458348cdeb5c424", "is_disabled": 0, "rental_uris": {"android": "https://dc.lft.to/lastmile_qr_scan", "ios": "https://dc.lft.to/lastmile_qr_scan"}, "fusion_lon": 0.0, "lat": 39.01075083333333, "bike_id": "c2473bd48ff1cffce458348cdeb5c424", "type": "electric_bike", "is_reserved": 0, "lon": -76.91064916666667}, {"fusion_lat": 0.0, "name": "04812f163b24493ec4c49141f8ae4f3b", "is_disabled": 0, "rental_uris": {"android": "https://dc.lft.to/lastmile_qr_scan", "ios": "https://dc.lft.to/lastmile_qr_scan"}, "fusion_lon": 0.0, "lat": 38.930518666666664, "bike_id": "04812f163b24493ec4c49141f8ae4f3b", "type": "electric_scooter", "is_reserved": 0, "lon": -77.04067666666667}, {"fusion_lat": 0.0, "name": "15d20c3cdbac534fd9244667e35c244b", "is_disabled": 0, "rental_uris": {"android": "https://dc.lft.to/lastmile_qr_scan", "ios": "https://dc.lft.to/lastmile_qr_scan"}, "fusion_lon": 0.0, "lat": 38.91929783333333, "bike_id": "15d20c3cdbac534fd9244667e35c244b", "type": "electric_scooter", "is_reserved": 0, "lon": -77.0244045}, {"fusion_lat": 0.0, "name": "1b25170de6d3f36606515ff3a8014d3b", "is_disabled": 0, "rental_uris": {"android": "https://dc.lft.to/lastmile_qr_scan", "ios": "https://dc.lft.to/lastmile_qr_scan"}, "fusion_lon": 0.0, "lat": 38.9237185, "bike_id": "1b25170de6d3f36606515ff3a8014d3b", "type": "electric_scooter", "is_reserved": 0, "lon": -77.02919533333333}, {"fusion_lat": 0.0, "name": "69adafdba851967d5f864dd07f55c5b2", "is_disabled": 0, "rental_uris": {"android": "https://dc.lft.to/lastmile_qr_scan", "ios": "https://dc.lft.to/lastmile_qr_scan"}, "fusion_lon": 0.0, "lat": 38.91927366666667, "bike_id": "69adafdba851967d5f864dd07f55c5b2", "type": "electric_scooter", "is_reserved": 0, "lon": -77.01207233333334}, {"fusion_lat": 0.0, "name": "f076d6a2374a1624fc1fc39ec72491eb", "is_disabled": 0, "rental_uris": {"android": "https://dc.lft.to/lastmile_qr_scan", "ios": "https://dc.lft.to/lastmile_qr_scan"}, "fusion_lon": 0.0, "lat": 38.894940166666665, "bike_id": "f076d6a2374a1624fc1fc39ec72491eb", "type": "electric_scooter", "is_reserved": 0, "lon": -77.0109005}, {"fusion_lat": 0.0, "name": "26190e5069526638803eafd2be55eab0", "is_disabled": 0, "rental_uris": {"android": "https://dc.lft.to/lastmile_qr_scan", "ios": "https://dc.lft.to/lastmile_qr_scan"}, "fusion_lon": 0.0, "lat": 38.91419233333333, "bike_id": "26190e5069526638803eafd2be55eab0", "type": "electric_scooter", "is_reserved": 0, "lon": -77.01412733333333}, {"fusion_lat": 0.0, "name": "37845fd21cf7b75fde675274ffc40a3e", "is_disabled": 0, "rental_uris": {"android": "https://dc.lft.to/lastmile_qr_scan", "ios": "https://dc.lft.to/lastmile_qr_scan"}, "fusion_lon": 0.0, "lat": 38.90078966666667, "bike_id": "37845fd21cf7b75fde675274ffc40a3e", "type": "electric_scooter", "is_reserved": 0, "lon": -77.02017433333333}, {"fusion_lat": 0.0, "name": "d7d6100e3662f7f2bd52683c142cc316", "is_disabled": 0, "rental_uris": {"android": "https://dc.lft.to/lastmile_qr_scan", "ios": "https://dc.lft.to/lastmile_qr_scan"}, "fusion_lon": 0.0, "lat": 38.92152933333333, "bike_id": "d7d6100e3662f7f2bd52683c142cc316", "type": "electric_scooter", "is_reserved": 0, "lon": -77.033649}, {"fusion_lat": 0.0, "name": "9645bdebd37fbd94d334557f4a53283d", "is_disabled": 0, "rental_uris": {"android": "https://dc.lft.to/lastmile_qr_scan", "ios": "https://dc.lft.to/lastmile_qr_scan"}, "fusion_lon": 0.0, "lat": 38.902823833333336, "bike_id": "9645bdebd37fbd94d334557f4a53283d", "type": "electric_scooter", "is_reserved": 0, "lon": -77.0364695}, {"fusion_lat": 0.0, "name": "36c4a108a6a98967190eac6f53e4270c", "is_disabled": 0, "rental_uris": {"android": "https://dc.lft.to/lastmile_qr_scan", "ios": "https://dc.lft.to/lastmile_qr_scan"}, "fusion_lon": 0.0, "lat": 38.95640216666666, "bike_id": "36c4a108a6a98967190eac6f53e4270c", "type": "electric_bike", "is_reserved": 0, "lon": -76.9387475}, {"fusion_lat": 0.0, "name": "328686294378b003f7906411cf1a1d1e", "is_disabled": 0, "rental_uris": {"android": "https://dc.lft.to/lastmile_qr_scan", "ios": "https://dc.lft.to/lastmile_qr_scan"}, "fusion_lon": 0.0, "lat": 38.9228665, "bike_id": "328686294378b003f7906411cf1a1d1e", "type": "electric_scooter", "is_reserved": 0, "lon": -77.03658216666666}, {"fusion_lat": 0.0, "name": "39ecf9d39b49d413088ec539da5e38f5", "is_disabled": 0, "rental_uris": {"android": "https://dc.lft.to/lastmile_qr_scan", "ios": "https://dc.lft.to/lastmile_qr_scan"}, "fusion_lon": 0.0, "lat": 38.945281666666666, "bike_id": "39ecf9d39b49d413088ec539da5e38f5", "type": "electric_scooter", "is_reserved": 0, "lon": -77.02087533333334}, {"fusion_lat": 0.0, "name": "a69299c62b3364661fa6dc91b8e4f025", "is_disabled": 0, "rental_uris": {"android": "https://dc.lft.to/lastmile_qr_scan", "ios": "https://dc.lft.to/lastmile_qr_scan"}, "fusion_lon": 0.0, "lat": 38.9212255, "bike_id": "a69299c62b3364661fa6dc91b8e4f025", "type": "electric_scooter", "is_reserved": 0, "lon": -77.01023333333333}, {"fusion_lat": 0.0, "name": "28d32a772e2f33a1927a3c19794b6712", "is_disabled": 0, "rental_uris": {"android": "https://dc.lft.to/lastmile_qr_scan", "ios": "https://dc.lft.to/lastmile_qr_scan"}, "fusion_lon": 0.0, "lat": 38.900161833333335, "bike_id": "28d32a772e2f33a1927a3c19794b6712", "type": "electric_scooter", "is_reserved": 0, "lon": -77.0240825}, {"fusion_lat": 0.0, "name": "600a7a962fad4f6c81b215fc360b5e96", "is_disabled": 0, "rental_uris": {"android": "https://dc.lft.to/lastmile_qr_scan", "ios": "https://dc.lft.to/lastmile_qr_scan"}, "fusion_lon": 0.0, "lat": 38.8736995, "bike_id": "600a7a962fad4f6c81b215fc360b5e96", "type": "electric_scooter", "is_reserved": 0, "lon": -77.001262}, {"fusion_lat": 0.0, "name": "49bbf2a78212bc10c41586ee84c92bb0", "is_disabled": 0, "rental_uris": {"android": "https://dc.lft.to/lastmile_qr_scan", "ios": "https://dc.lft.to/lastmile_qr_scan"}, "fusion_lon": 0.0, "lat": 38.91661166666667, "bike_id": "49bbf2a78212bc10c41586ee84c92bb0", "type": "electric_scooter", "is_reserved": 0, "lon": -77.03853183333334}, {"fusion_lat": 0.0, "name": "493afe15011b9b33e1f4b0bc1c7d8d74", "is_disabled": 0, "rental_uris": {"android": "https://dc.lft.to/lastmile_qr_scan", "ios": "https://dc.lft.to/lastmile_qr_scan"}, "fusion_lon": 0.0, "lat": 38.905465666666665, "bike_id": "493afe15011b9b33e1f4b0bc1c7d8d74", "type": "electric_scooter", "is_reserved": 0, "lon": -77.05821783333333}, {"fusion_lat": 0.0, "name": "f255cb5596cab0b2abb9cef4e29a9c61", "is_disabled": 0, "rental_uris": {"android": "https://dc.lft.to/lastmile_qr_scan", "ios": "https://dc.lft.to/lastmile_qr_scan"}, "fusion_lon": 0.0, "lat": 38.94164283333333, "bike_id": "f255cb5596cab0b2abb9cef4e29a9c61", "type": "electric_bike", "is_reserved": 0, "lon": -76.96649233333333}, {"fusion_lat": 0.0, "name": "9b4a96430d78de94dac55fa2bd0484e7", "is_disabled": 0, "rental_uris": {"android": "https://dc.lft.to/lastmile_qr_scan", "ios": "https://dc.lft.to/lastmile_qr_scan"}, "fusion_lon": 0.0, "lat": 38.90968433333333, "bike_id": "9b4a96430d78de94dac55fa2bd0484e7", "type": "electric_scooter", "is_reserved": 0, "lon": -77.01107466666667}, {"fusion_lat": 0.0, "name": "4423756960f1b3bd3b8fdcad59f9ea12", "is_disabled": 0, "rental_uris": {"android": "https://dc.lft.to/lastmile_qr_scan", "ios": "https://dc.lft.to/lastmile_qr_scan"}, "fusion_lon": 0.0, "lat": 38.98786233333333, "bike_id": "4423756960f1b3bd3b8fdcad59f9ea12", "type": "electric_bike", "is_reserved": 0, "lon": -77.14103083333333}, {"fusion_lat": 0.0, "name": "bcfacecae7786cb7c429172f1270adb7", "is_disabled": 0, "rental_uris": {"android": "https://dc.lft.to/lastmile_qr_scan", "ios": "https://dc.lft.to/lastmile_qr_scan"}, "fusion_lon": 0.0, "lat": 38.87902716666667, "bike_id": "bcfacecae7786cb7c429172f1270adb7", "type": "electric_scooter", "is_reserved": 0, "lon": -77.02220283333334}, {"fusion_lat": 0.0, "name": "6f09bb1f4ea2d1296d4f17c849861f02", "is_disabled": 0, "rental_uris": {"android": "https://dc.lft.to/lastmile_qr_scan", "ios": "https://dc.lft.to/lastmile_qr_scan"}, "fusion_lon": 0.0, "lat": 38.94152283333333, "bike_id": "6f09bb1f4ea2d1296d4f17c849861f02", "type": "electric_bike", "is_reserved": 0, "lon": -77.00201116666666}, {"fusion_lat": 0.0, "name": "944fcf8074a1de12d8f83d67851f99ef", "is_disabled": 0, "rental_uris": {"android": "https://dc.lft.to/lastmile_qr_scan", "ios": "https://dc.lft.to/lastmile_qr_scan"}, "fusion_lon": 0.0, "lat": 38.87732333333334, "bike_id": "944fcf8074a1de12d8f83d67851f99ef", "type": "electric_scooter", "is_reserved": 0, "lon": -76.99487216666667}, {"fusion_lat": 0.0, "name": "7d0d1748b95c3c1262d385be2898c087", "is_disabled": 0, "rental_uris": {"android": "https://dc.lft.to/lastmile_qr_scan", "ios": "https://dc.lft.to/lastmile_qr_scan"}, "fusion_lon": 0.0, "lat": 38.91839016666667, "bike_id": "7d0d1748b95c3c1262d385be2898c087", "type": "electric_scooter", "is_reserved": 0, "lon": -77.0402775}, {"fusion_lat": 0.0, "name": "3fdaa73dc17fd09cc3ff44659c0d24f3", "is_disabled": 0, "rental_uris": {"android": "https://dc.lft.to/lastmile_qr_scan", "ios": "https://dc.lft.to/lastmile_qr_scan"}, "fusion_lon": 0.0, "lat": 38.94521816666666, "bike_id": "3fdaa73dc17fd09cc3ff44659c0d24f3", "type": "electric_scooter", "is_reserved": 0, "lon": -77.02271966666666}, {"fusion_lat": 0.0, "name": "424fa822dffeb4ddb9c5ad082d0eadce", "is_disabled": 0, "rental_uris": {"android": "https://dc.lft.to/lastmile_qr_scan", "ios": "https://dc.lft.to/lastmile_qr_scan"}, "fusion_lon": 0.0, "lat": 38.91776816666667, "bike_id": "424fa822dffeb4ddb9c5ad082d0eadce", "type": "electric_scooter", "is_reserved": 0, "lon": -77.04103616666667}, {"fusion_lat": 0.0, "name": "ef1ed15ae0d36606c7d0b789d99269b2", "is_disabled": 0, "rental_uris": {"android": "https://dc.lft.to/lastmile_qr_scan", "ios": "https://dc.lft.to/lastmile_qr_scan"}, "fusion_lon": 0.0, "lat": 38.93356133333333, "bike_id": "ef1ed15ae0d36606c7d0b789d99269b2", "type": "electric_scooter", "is_reserved": 0, "lon": -77.07307933333334}, {"fusion_lat": 0.0, "name": "12484ef78f96db571ffb900f15f0fc6a", "is_disabled": 0, "rental_uris": {"android": "https://dc.lft.to/lastmile_qr_scan", "ios": "https://dc.lft.to/lastmile_qr_scan"}, "fusion_lon": 0.0, "lat": 38.9449805, "bike_id": "12484ef78f96db571ffb900f15f0fc6a", "type": "electric_scooter", "is_reserved": 0, "lon": -77.038798}, {"fusion_lat": 0.0, "name": "2577174569d843570b17a98ac52d6978", "is_disabled": 0, "rental_uris": {"android": "https://dc.lft.to/lastmile_qr_scan", "ios": "https://dc.lft.to/lastmile_qr_scan"}, "fusion_lon": 0.0, "lat": 38.89013216666667, "bike_id": "2577174569d843570b17a98ac52d6978", "type": "electric_scooter", "is_reserved": 0, "lon": -76.9373745}, {"fusion_lat": 0.0, "name": "2ab18c35e385df99c7ee68a6408e7f3d", "is_disabled": 0, "rental_uris": {"android": "https://dc.lft.to/lastmile_qr_scan", "ios": "https://dc.lft.to/lastmile_qr_scan"}, "fusion_lon": 0.0, "lat": 38.89578266666667, "bike_id": "2ab18c35e385df99c7ee68a6408e7f3d", "type": "electric_scooter", "is_reserved": 0, "lon": -76.94881183333334}, {"fusion_lat": 0.0, "name": "ab45738bdfb9cc6bb42ae8a8790c603c", "is_disabled": 0, "rental_uris": {"android": "https://dc.lft.to/lastmile_qr_scan", "ios": "https://dc.lft.to/lastmile_qr_scan"}, "fusion_lon": 0.0, "lat": 38.9268485, "bike_id": "ab45738bdfb9cc6bb42ae8a8790c603c", "type": "electric_scooter", "is_reserved": 0, "lon": -77.03146283333334}, {"fusion_lat": 0.0, "name": "2d4bf0fe1ab63176a8ce0489b8b5c248", "is_disabled": 0, "rental_uris": {"android": "https://dc.lft.to/lastmile_qr_scan", "ios": "https://dc.lft.to/lastmile_qr_scan"}, "fusion_lon": 0.0, "lat": 38.888083, "bike_id": "2d4bf0fe1ab63176a8ce0489b8b5c248", "type": "electric_scooter", "is_reserved": 0, "lon": -76.98354866666666}, {"fusion_lat": 0.0, "name": "a4c13ceb02b88f1d9bbe104a6b52ea20", "is_disabled": 0, "rental_uris": {"android": "https://dc.lft.to/lastmile_qr_scan", "ios": "https://dc.lft.to/lastmile_qr_scan"}, "fusion_lon": 0.0, "lat": 38.89951283333333, "bike_id": "a4c13ceb02b88f1d9bbe104a6b52ea20", "type": "electric_scooter", "is_reserved": 0, "lon": -77.05492583333333}, {"fusion_lat": 0.0, "name": "81d1cd48cb686a69cad19a8c3e9cf0c4", "is_disabled": 0, "rental_uris": {"android": "https://dc.lft.to/lastmile_qr_scan", "ios": "https://dc.lft.to/lastmile_qr_scan"}, "fusion_lon": 0.0, "lat": 38.924246, "bike_id": "81d1cd48cb686a69cad19a8c3e9cf0c4", "type": "electric_scooter", "is_reserved": 0, "lon": -77.02011416666667}, {"fusion_lat": 0.0, "name": "8605cd84d0e7829b017f8d9708289591", "is_disabled": 0, "rental_uris": {"android": "https://dc.lft.to/lastmile_qr_scan", "ios": "https://dc.lft.to/lastmile_qr_scan"}, "fusion_lon": 0.0, "lat": 38.8719215, "bike_id": "8605cd84d0e7829b017f8d9708289591", "type": "electric_scooter", "is_reserved": 0, "lon": -77.00627066666667}, {"fusion_lat": 0.0, "name": "d9f8eefc3b38cce8d8e696d1be4ee109", "is_disabled": 0, "rental_uris": {"android": "https://dc.lft.to/lastmile_qr_scan", "ios": "https://dc.lft.to/lastmile_qr_scan"}, "fusion_lon": 0.0, "lat": 38.873785166666664, "bike_id": "d9f8eefc3b38cce8d8e696d1be4ee109", "type": "electric_scooter", "is_reserved": 0, "lon": -77.00065033333334}, {"fusion_lat": 0.0, "name": "ae406754793007931725fa329a50f042", "is_disabled": 0, "rental_uris": {"android": "https://dc.lft.to/lastmile_qr_scan", "ios": "https://dc.lft.to/lastmile_qr_scan"}, "fusion_lon": 0.0, "lat": 38.91344466666666, "bike_id": "ae406754793007931725fa329a50f042", "type": "electric_bike", "is_reserved": 0, "lon": -76.98896733333333}, {"fusion_lat": 0.0, "name": "8c9a246b17e9470f896a8def1bca6395", "is_disabled": 0, "rental_uris": {"android": "https://dc.lft.to/lastmile_qr_scan", "ios": "https://dc.lft.to/lastmile_qr_scan"}, "fusion_lon": 0.0, "lat": 38.90297, "bike_id": "8c9a246b17e9470f896a8def1bca6395", "type": "electric_scooter", "is_reserved": 0, "lon": -76.99260233333334}, {"fusion_lat": 0.0, "name": "ad25479b9efba7df30f0d2e6718953d7", "is_disabled": 0, "rental_uris": {"android": "https://dc.lft.to/lastmile_qr_scan", "ios": "https://dc.lft.to/lastmile_qr_scan"}, "fusion_lon": 0.0, "lat": 38.91607416666667, "bike_id": "ad25479b9efba7df30f0d2e6718953d7", "type": "electric_scooter", "is_reserved": 0, "lon": -77.02114216666666}, {"fusion_lat": 0.0, "name": "ab17200d2f7f5a4961efdf1ccd69beea", "is_disabled": 0, "rental_uris": {"android": "https://dc.lft.to/lastmile_qr_scan", "ios": "https://dc.lft.to/lastmile_qr_scan"}, "fusion_lon": 0.0, "lat": 38.88386666666667, "bike_id": "ab17200d2f7f5a4961efdf1ccd69beea", "type": "electric_scooter", "is_reserved": 0, "lon": -76.985673}, {"fusion_lat": 0.0, "name": "ef35efd705fd84083f33f1e2b4646565", "is_disabled": 0, "rental_uris": {"android": "https://dc.lft.to/lastmile_qr_scan", "ios": "https://dc.lft.to/lastmile_qr_scan"}, "fusion_lon": 0.0, "lat": 38.9178725, "bike_id": "ef35efd705fd84083f33f1e2b4646565", "type": "electric_scooter", "is_reserved": 0, "lon": -77.02372283333334}, {"fusion_lat": 0.0, "name": "35549b24689c6a06e6f4a298b2762c49", "is_disabled": 0, "rental_uris": {"android": "https://dc.lft.to/lastmile_qr_scan", "ios": "https://dc.lft.to/lastmile_qr_scan"}, "fusion_lon": 0.0, "lat": 38.944306833333336, "bike_id": "35549b24689c6a06e6f4a298b2762c49", "type": "electric_bike", "is_reserved": 0, "lon": -77.02601483333333}, {"fusion_lat": 0.0, "name": "ff893dba420213c3af121d40cc368814", "is_disabled": 0, "rental_uris": {"android": "https://dc.lft.to/lastmile_qr_scan", "ios": "https://dc.lft.to/lastmile_qr_scan"}, "fusion_lon": 0.0, "lat": 38.93598216666667, "bike_id": "ff893dba420213c3af121d40cc368814", "type": "electric_scooter", "is_reserved": 0, "lon": -77.0230045}, {"fusion_lat": 0.0, "name": "ebbb0ffe1937fa8f4e654a6a82962b17", "is_disabled": 0, "rental_uris": {"android": "https://dc.lft.to/lastmile_qr_scan", "ios": "https://dc.lft.to/lastmile_qr_scan"}, "fusion_lon": 0.0, "lat": 38.790242, "bike_id": "ebbb0ffe1937fa8f4e654a6a82962b17", "type": "electric_bike", "is_reserved": 0, "lon": -77.01547116666667}, {"fusion_lat": 0.0, "name": "15d8f1bddafe815234a2d245c29df315", "is_disabled": 0, "rental_uris": {"android": "https://dc.lft.to/lastmile_qr_scan", "ios": "https://dc.lft.to/lastmile_qr_scan"}, "fusion_lon": 0.0, "lat": 38.9227215, "bike_id": "15d8f1bddafe815234a2d245c29df315", "type": "electric_scooter", "is_reserved": 0, "lon": -77.04232516666667}, {"fusion_lat": 0.0, "name": "f285c7d69880bc121c8fdb8a4a8abbb7", "is_disabled": 0, "rental_uris": {"android": "https://dc.lft.to/lastmile_qr_scan", "ios": "https://dc.lft.to/lastmile_qr_scan"}, "fusion_lon": 0.0, "lat": 38.92074816666667, "bike_id": "f285c7d69880bc121c8fdb8a4a8abbb7", "type": "electric_scooter", "is_reserved": 0, "lon": -76.99181566666667}, {"fusion_lat": 0.0, "name": "6f9feda7d9c4fec8cd0ac2d0c14cab54", "is_disabled": 0, "rental_uris": {"android": "https://dc.lft.to/lastmile_qr_scan", "ios": "https://dc.lft.to/lastmile_qr_scan"}, "fusion_lon": 0.0, "lat": 38.92669816666667, "bike_id": "6f9feda7d9c4fec8cd0ac2d0c14cab54", "type": "electric_scooter", "is_reserved": 0, "lon": -77.0305445}, {"fusion_lat": 0.0, "name": "3b8030263abc9f29272e5ddd4df4617c", "is_disabled": 0, "rental_uris": {"android": "https://dc.lft.to/lastmile_qr_scan", "ios": "https://dc.lft.to/lastmile_qr_scan"}, "fusion_lon": 0.0, "lat": 38.89087416666667, "bike_id": "3b8030263abc9f29272e5ddd4df4617c", "type": "electric_scooter", "is_reserved": 0, "lon": -76.91928966666667}, {"fusion_lat": 0.0, "name": "7aadf416b847706349b57fa77a2d216c", "is_disabled": 0, "rental_uris": {"android": "https://dc.lft.to/lastmile_qr_scan", "ios": "https://dc.lft.to/lastmile_qr_scan"}, "fusion_lon": 0.0, "lat": 38.878936333333336, "bike_id": "7aadf416b847706349b57fa77a2d216c", "type": "electric_scooter", "is_reserved": 0, "lon": -77.0220975}, {"fusion_lat": 0.0, "name": "5590bf743fef5138d91005ad789c64b8", "is_disabled": 0, "rental_uris": {"android": "https://dc.lft.to/lastmile_qr_scan", "ios": "https://dc.lft.to/lastmile_qr_scan"}, "fusion_lon": 0.0, "lat": 38.92687016666667, "bike_id": "5590bf743fef5138d91005ad789c64b8", "type": "electric_scooter", "is_reserved": 0, "lon": -77.03231333333333}, {"fusion_lat": 0.0, "name": "55b01384f03cf8efc784e0cfbd59e428", "is_disabled": 0, "rental_uris": {"android": "https://dc.lft.to/lastmile_qr_scan", "ios": "https://dc.lft.to/lastmile_qr_scan"}, "fusion_lon": 0.0, "lat": 38.876366166666664, "bike_id": "55b01384f03cf8efc784e0cfbd59e428", "type": "electric_scooter", "is_reserved": 0, "lon": -77.01479}, {"fusion_lat": 0.0, "name": "1b33cc3f2a35944ef726c03cc93394ae", "is_disabled": 0, "rental_uris": {"android": "https://dc.lft.to/lastmile_qr_scan", "ios": "https://dc.lft.to/lastmile_qr_scan"}, "fusion_lon": 0.0, "lat": 38.905078833333334, "bike_id": "1b33cc3f2a35944ef726c03cc93394ae", "type": "electric_scooter", "is_reserved": 0, "lon": -76.984836}, {"fusion_lat": 0.0, "name": "a382d0ee326a866ca92f3133f750f32d", "is_disabled": 0, "rental_uris": {"android": "https://dc.lft.to/lastmile_qr_scan", "ios": "https://dc.lft.to/lastmile_qr_scan"}, "fusion_lon": 0.0, "lat": 38.89751533333333, "bike_id": "a382d0ee326a866ca92f3133f750f32d", "type": "electric_scooter", "is_reserved": 0, "lon": -77.02550966666666}, {"fusion_lat": 0.0, "name": "2b8044baca6ca40dbf3cfcb4e4219a60", "is_disabled": 0, "rental_uris": {"android": "https://dc.lft.to/lastmile_qr_scan", "ios": "https://dc.lft.to/lastmile_qr_scan"}, "fusion_lon": 0.0, "lat": 38.89915716666667, "bike_id": "2b8044baca6ca40dbf3cfcb4e4219a60", "type": "electric_scooter", "is_reserved": 0, "lon": -76.93344716666667}, {"fusion_lat": 0.0, "name": "2e581a708fd63f2b00a976ca8305b123", "is_disabled": 0, "rental_uris": {"android": "https://dc.lft.to/lastmile_qr_scan", "ios": "https://dc.lft.to/lastmile_qr_scan"}, "fusion_lon": 0.0, "lat": 38.934100666666666, "bike_id": "2e581a708fd63f2b00a976ca8305b123", "type": "electric_scooter", "is_reserved": 0, "lon": -77.04155933333334}, {"fusion_lat": 0.0, "name": "4045d970c70e27a05b3c09fe0b3627cc", "is_disabled": 0, "rental_uris": {"android": "https://dc.lft.to/lastmile_qr_scan", "ios": "https://dc.lft.to/lastmile_qr_scan"}, "fusion_lon": 0.0, "lat": 38.92788916666667, "bike_id": "4045d970c70e27a05b3c09fe0b3627cc", "type": "electric_scooter", "is_reserved": 0, "lon": -77.02258383333333}, {"fusion_lat": 0.0, "name": "bda3d6d010951c00c35b404e09625cf1", "is_disabled": 0, "rental_uris": {"android": "https://dc.lft.to/lastmile_qr_scan", "ios": "https://dc.lft.to/lastmile_qr_scan"}, "fusion_lon": 0.0, "lat": 38.91694666666667, "bike_id": "bda3d6d010951c00c35b404e09625cf1", "type": "electric_scooter", "is_reserved": 0, "lon": -77.034966}, {"fusion_lat": 0.0, "name": "9fff9f99452e104f4f6cf1b145821c72", "is_disabled": 0, "rental_uris": {"android": "https://dc.lft.to/lastmile_qr_scan", "ios": "https://dc.lft.to/lastmile_qr_scan"}, "fusion_lon": 0.0, "lat": 38.92844433333333, "bike_id": "9fff9f99452e104f4f6cf1b145821c72", "type": "electric_bike", "is_reserved": 0, "lon": -77.02063316666667}, {"fusion_lat": 0.0, "name": "2f432b1a5d8cf7786f5a903f4fe84f8c", "is_disabled": 0, "rental_uris": {"android": "https://dc.lft.to/lastmile_qr_scan", "ios": "https://dc.lft.to/lastmile_qr_scan"}, "fusion_lon": 0.0, "lat": 38.90028483333333, "bike_id": "2f432b1a5d8cf7786f5a903f4fe84f8c", "type": "electric_scooter", "is_reserved": 0, "lon": -76.99138866666667}, {"fusion_lat": 0.0, "name": "e4ee406c63aa70f8c660e466209aed99", "is_disabled": 0, "rental_uris": {"android": "https://dc.lft.to/lastmile_qr_scan", "ios": "https://dc.lft.to/lastmile_qr_scan"}, "fusion_lon": 0.0, "lat": 38.91678916666667, "bike_id": "e4ee406c63aa70f8c660e466209aed99", "type": "electric_scooter", "is_reserved": 0, "lon": -77.0272185}, {"fusion_lat": 0.0, "name": "d41e6b458192ce1fa053b59880924a36", "is_disabled": 0, "rental_uris": {"android": "https://dc.lft.to/lastmile_qr_scan", "ios": "https://dc.lft.to/lastmile_qr_scan"}, "fusion_lon": 0.0, "lat": 38.88424333333333, "bike_id": "d41e6b458192ce1fa053b59880924a36", "type": "electric_scooter", "is_reserved": 0, "lon": -77.01970533333333}, {"fusion_lat": 0.0, "name": "008a267106b762ce68ee656c7c3796e8", "is_disabled": 0, "rental_uris": {"android": "https://dc.lft.to/lastmile_qr_scan", "ios": "https://dc.lft.to/lastmile_qr_scan"}, "fusion_lon": 0.0, "lat": 38.90626016666667, "bike_id": "008a267106b762ce68ee656c7c3796e8", "type": "electric_scooter", "is_reserved": 0, "lon": -77.02607983333333}, {"fusion_lat": 0.0, "name": "9116fba52931f9d4ea00052eb3119845", "is_disabled": 0, "rental_uris": {"android": "https://dc.lft.to/lastmile_qr_scan", "ios": "https://dc.lft.to/lastmile_qr_scan"}, "fusion_lon": 0.0, "lat": 38.875131, "bike_id": "9116fba52931f9d4ea00052eb3119845", "type": "electric_bike", "is_reserved": 0, "lon": -77.00764216666667}, {"fusion_lat": 0.0, "name": "1bc6a5eb84c6f01beab111f11a3e44e5", "is_disabled": 0, "rental_uris": {"android": "https://dc.lft.to/lastmile_qr_scan", "ios": "https://dc.lft.to/lastmile_qr_scan"}, "fusion_lon": 0.0, "lat": 38.8826505, "bike_id": "1bc6a5eb84c6f01beab111f11a3e44e5", "type": "electric_scooter", "is_reserved": 0, "lon": -76.99946483333333}, {"fusion_lat": 0.0, "name": "194a8124f0dce715845428870425280f", "is_disabled": 0, "rental_uris": {"android": "https://dc.lft.to/lastmile_qr_scan", "ios": "https://dc.lft.to/lastmile_qr_scan"}, "fusion_lon": 0.0, "lat": 38.928714666666664, "bike_id": "194a8124f0dce715845428870425280f", "type": "electric_scooter", "is_reserved": 0, "lon": -76.99555766666667}, {"fusion_lat": 0.0, "name": "68bfa55773a019fb2744a84d652009ce", "is_disabled": 0, "rental_uris": {"android": "https://dc.lft.to/lastmile_qr_scan", "ios": "https://dc.lft.to/lastmile_qr_scan"}, "fusion_lon": 0.0, "lat": 38.89813316666667, "bike_id": "68bfa55773a019fb2744a84d652009ce", "type": "electric_scooter", "is_reserved": 0, "lon": -77.04682333333334}, {"fusion_lat": 0.0, "name": "848a91b775952e9a5a8dc825956a33fb", "is_disabled": 0, "rental_uris": {"android": "https://dc.lft.to/lastmile_qr_scan", "ios": "https://dc.lft.to/lastmile_qr_scan"}, "fusion_lon": 0.0, "lat": 38.9353155, "bike_id": "848a91b775952e9a5a8dc825956a33fb", "type": "electric_scooter", "is_reserved": 0, "lon": -77.045248}, {"fusion_lat": 0.0, "name": "75c7213ed0cb0adb2867de09a59282c0", "is_disabled": 0, "rental_uris": {"android": "https://dc.lft.to/lastmile_qr_scan", "ios": "https://dc.lft.to/lastmile_qr_scan"}, "fusion_lon": 0.0, "lat": 38.884014, "bike_id": "75c7213ed0cb0adb2867de09a59282c0", "type": "electric_scooter", "is_reserved": 0, "lon": -77.00832316666667}, {"fusion_lat": 0.0, "name": "deb4f7e1832de1215eeae02e18ed6c8a", "is_disabled": 0, "rental_uris": {"android": "https://dc.lft.to/lastmile_qr_scan", "ios": "https://dc.lft.to/lastmile_qr_scan"}, "fusion_lon": 0.0, "lat": 38.920762833333335, "bike_id": "deb4f7e1832de1215eeae02e18ed6c8a", "type": "electric_scooter", "is_reserved": 0, "lon": -77.02316066666667}, {"fusion_lat": 0.0, "name": "f333ca849835263b1d199c5a6dea9cd8", "is_disabled": 0, "rental_uris": {"android": "https://dc.lft.to/lastmile_qr_scan", "ios": "https://dc.lft.to/lastmile_qr_scan"}, "fusion_lon": 0.0, "lat": 38.97364733333333, "bike_id": "f333ca849835263b1d199c5a6dea9cd8", "type": "electric_scooter", "is_reserved": 0, "lon": -77.01295}, {"fusion_lat": 0.0, "name": "3b8b8a124955f1e616e3c2a17985ae40", "is_disabled": 0, "rental_uris": {"android": "https://dc.lft.to/lastmile_qr_scan", "ios": "https://dc.lft.to/lastmile_qr_scan"}, "fusion_lon": 0.0, "lat": 38.903513, "bike_id": "3b8b8a124955f1e616e3c2a17985ae40", "type": "electric_scooter", "is_reserved": 0, "lon": -76.974787}, {"fusion_lat": 0.0, "name": "9504fea6e2a5896b92be05ebe6307559", "is_disabled": 0, "rental_uris": {"android": "https://dc.lft.to/lastmile_qr_scan", "ios": "https://dc.lft.to/lastmile_qr_scan"}, "fusion_lon": 0.0, "lat": 38.9382585, "bike_id": "9504fea6e2a5896b92be05ebe6307559", "type": "electric_scooter", "is_reserved": 0, "lon": -77.0265175}, {"fusion_lat": 0.0, "name": "84a9ce9c7bedc8d4d31cccc57aa4c517", "is_disabled": 0, "rental_uris": {"android": "https://dc.lft.to/lastmile_qr_scan", "ios": "https://dc.lft.to/lastmile_qr_scan"}, "fusion_lon": 0.0, "lat": 38.90932316666667, "bike_id": "84a9ce9c7bedc8d4d31cccc57aa4c517", "type": "electric_scooter", "is_reserved": 0, "lon": -77.06254216666666}, {"fusion_lat": 0.0, "name": "c32225ef769e92767c72723c8d4717df", "is_disabled": 0, "rental_uris": {"android": "https://dc.lft.to/lastmile_qr_scan", "ios": "https://dc.lft.to/lastmile_qr_scan"}, "fusion_lon": 0.0, "lat": 38.908578, "bike_id": "c32225ef769e92767c72723c8d4717df", "type": "electric_scooter", "is_reserved": 0, "lon": -77.024354}, {"fusion_lat": 0.0, "name": "9fa9ce3680cff6b652c96a7f0dc3146a", "is_disabled": 0, "rental_uris": {"android": "https://dc.lft.to/lastmile_qr_scan", "ios": "https://dc.lft.to/lastmile_qr_scan"}, "fusion_lon": 0.0, "lat": 38.900854333333335, "bike_id": "9fa9ce3680cff6b652c96a7f0dc3146a", "type": "electric_scooter", "is_reserved": 0, "lon": -77.05063516666667}, {"fusion_lat": 0.0, "name": "ec73974d6d0b74cf53c759c281c6a55c", "is_disabled": 0, "rental_uris": {"android": "https://dc.lft.to/lastmile_qr_scan", "ios": "https://dc.lft.to/lastmile_qr_scan"}, "fusion_lon": 0.0, "lat": 38.871142666666664, "bike_id": "ec73974d6d0b74cf53c759c281c6a55c", "type": "electric_scooter", "is_reserved": 0, "lon": -77.00578466666667}, {"fusion_lat": 0.0, "name": "67184252eb1ae0d6bfe01ad8b7529e12", "is_disabled": 0, "rental_uris": {"android": "https://dc.lft.to/lastmile_qr_scan", "ios": "https://dc.lft.to/lastmile_qr_scan"}, "fusion_lon": 0.0, "lat": 38.937369833333335, "bike_id": "67184252eb1ae0d6bfe01ad8b7529e12", "type": "electric_scooter", "is_reserved": 0, "lon": -77.03594116666666}, {"fusion_lat": 0.0, "name": "2887807889647dd724a8f903f86a7244", "is_disabled": 0, "rental_uris": {"android": "https://dc.lft.to/lastmile_qr_scan", "ios": "https://dc.lft.to/lastmile_qr_scan"}, "fusion_lon": 0.0, "lat": 38.9050145, "bike_id": "2887807889647dd724a8f903f86a7244", "type": "electric_scooter", "is_reserved": 0, "lon": -77.00932683333333}, {"fusion_lat": 0.0, "name": "09f3bedc5f82cdb865e6fc0afa9cca3d", "is_disabled": 0, "rental_uris": {"android": "https://dc.lft.to/lastmile_qr_scan", "ios": "https://dc.lft.to/lastmile_qr_scan"}, "fusion_lon": 0.0, "lat": 38.884509333333334, "bike_id": "09f3bedc5f82cdb865e6fc0afa9cca3d", "type": "electric_scooter", "is_reserved": 0, "lon": -76.9939125}, {"fusion_lat": 0.0, "name": "5fe8bcf5b75cab3d468d03371097c917", "is_disabled": 0, "rental_uris": {"android": "https://dc.lft.to/lastmile_qr_scan", "ios": "https://dc.lft.to/lastmile_qr_scan"}, "fusion_lon": 0.0, "lat": 38.913313, "bike_id": "5fe8bcf5b75cab3d468d03371097c917", "type": "electric_scooter", "is_reserved": 0, "lon": -77.01030783333333}, {"fusion_lat": 0.0, "name": "8f036ce24a6abd40dcddb6feac9cc7d9", "is_disabled": 0, "rental_uris": {"android": "https://dc.lft.to/lastmile_qr_scan", "ios": "https://dc.lft.to/lastmile_qr_scan"}, "fusion_lon": 0.0, "lat": 38.9072675, "bike_id": "8f036ce24a6abd40dcddb6feac9cc7d9", "type": "electric_scooter", "is_reserved": 0, "lon": -77.05053033333333}, {"fusion_lat": 0.0, "name": "d6a96fea3e4227efd44e9bcf03009ffa", "is_disabled": 0, "rental_uris": {"android": "https://dc.lft.to/lastmile_qr_scan", "ios": "https://dc.lft.to/lastmile_qr_scan"}, "fusion_lon": 0.0, "lat": 38.92081066666667, "bike_id": "d6a96fea3e4227efd44e9bcf03009ffa", "type": "electric_scooter", "is_reserved": 0, "lon": -77.02306766666666}, {"fusion_lat": 0.0, "name": "fd94355d33654dd321d0ff8c6c8a74d7", "is_disabled": 0, "rental_uris": {"android": "https://dc.lft.to/lastmile_qr_scan", "ios": "https://dc.lft.to/lastmile_qr_scan"}, "fusion_lon": 0.0, "lat": 38.92120666666667, "bike_id": "fd94355d33654dd321d0ff8c6c8a74d7", "type": "electric_scooter", "is_reserved": 0, "lon": -77.07222966666667}, {"fusion_lat": 0.0, "name": "2ca68c87ea33637275aed73613a329c4", "is_disabled": 0, "rental_uris": {"android": "https://dc.lft.to/lastmile_qr_scan", "ios": "https://dc.lft.to/lastmile_qr_scan"}, "fusion_lon": 0.0, "lat": 38.91133116666666, "bike_id": "2ca68c87ea33637275aed73613a329c4", "type": "electric_bike", "is_reserved": 0, "lon": -77.06573433333334}, {"fusion_lat": 0.0, "name": "6e11ee1ef0bcd48ad9e4b28e3f0e9aeb", "is_disabled": 0, "rental_uris": {"android": "https://dc.lft.to/lastmile_qr_scan", "ios": "https://dc.lft.to/lastmile_qr_scan"}, "fusion_lon": 0.0, "lat": 38.90170883333333, "bike_id": "6e11ee1ef0bcd48ad9e4b28e3f0e9aeb", "type": "electric_scooter", "is_reserved": 0, "lon": -76.99260716666667}, {"fusion_lat": 0.0, "name": "244ed341076481efca783d815e178b02", "is_disabled": 0, "rental_uris": {"android": "https://dc.lft.to/lastmile_qr_scan", "ios": "https://dc.lft.to/lastmile_qr_scan"}, "fusion_lon": 0.0, "lat": 38.906906166666666, "bike_id": "244ed341076481efca783d815e178b02", "type": "electric_scooter", "is_reserved": 0, "lon": -77.00051666666667}, {"fusion_lat": 0.0, "name": "49945c6d1c0fc73acbf98ac76cc9a59c", "is_disabled": 0, "rental_uris": {"android": "https://dc.lft.to/lastmile_qr_scan", "ios": "https://dc.lft.to/lastmile_qr_scan"}, "fusion_lon": 0.0, "lat": 38.89616783333334, "bike_id": "49945c6d1c0fc73acbf98ac76cc9a59c", "type": "electric_scooter", "is_reserved": 0, "lon": -77.044914}, {"fusion_lat": 0.0, "name": "78cbcc6d88ad0c38c18a1b76aa701899", "is_disabled": 0, "rental_uris": {"android": "https://dc.lft.to/lastmile_qr_scan", "ios": "https://dc.lft.to/lastmile_qr_scan"}, "fusion_lon": 0.0, "lat": 38.8066915, "bike_id": "78cbcc6d88ad0c38c18a1b76aa701899", "type": "electric_bike", "is_reserved": 0, "lon": -77.06919416666666}, {"fusion_lat": 0.0, "name": "c4a3371181653b02cf78245c655d9572", "is_disabled": 0, "rental_uris": {"android": "https://dc.lft.to/lastmile_qr_scan", "ios": "https://dc.lft.to/lastmile_qr_scan"}, "fusion_lon": 0.0, "lat": 38.91822583333333, "bike_id": "c4a3371181653b02cf78245c655d9572", "type": "electric_scooter", "is_reserved": 0, "lon": -77.036882}, {"fusion_lat": 0.0, "name": "c686f14161b891cb43c6ab0f2248bc0c", "is_disabled": 0, "rental_uris": {"android": "https://dc.lft.to/lastmile_qr_scan", "ios": "https://dc.lft.to/lastmile_qr_scan"}, "fusion_lon": 0.0, "lat": 38.899666333333336, "bike_id": "c686f14161b891cb43c6ab0f2248bc0c", "type": "electric_scooter", "is_reserved": 0, "lon": -76.9871955}, {"fusion_lat": 0.0, "name": "f2f77f658985b04aea0dff00b0615da3", "is_disabled": 0, "rental_uris": {"android": "https://dc.lft.to/lastmile_qr_scan", "ios": "https://dc.lft.to/lastmile_qr_scan"}, "fusion_lon": 0.0, "lat": 38.898356166666666, "bike_id": "f2f77f658985b04aea0dff00b0615da3", "type": "electric_scooter", "is_reserved": 0, "lon": -77.01943083333333}, {"fusion_lat": 0.0, "name": "fd24a32928738e50144bbda00ec361ff", "is_disabled": 0, "rental_uris": {"android": "https://dc.lft.to/lastmile_qr_scan", "ios": "https://dc.lft.to/lastmile_qr_scan"}, "fusion_lon": 0.0, "lat": 38.94224633333333, "bike_id": "fd24a32928738e50144bbda00ec361ff", "type": "electric_scooter", "is_reserved": 0, "lon": -77.01387116666666}, {"fusion_lat": 0.0, "name": "c1e0200c467e74d3fc9bd68260eee06e", "is_disabled": 0, "rental_uris": {"android": "https://dc.lft.to/lastmile_qr_scan", "ios": "https://dc.lft.to/lastmile_qr_scan"}, "fusion_lon": 0.0, "lat": 38.92702516666667, "bike_id": "c1e0200c467e74d3fc9bd68260eee06e", "type": "electric_scooter", "is_reserved": 0, "lon": -77.02410883333333}, {"fusion_lat": 0.0, "name": "8a5c37d3f4d69c71906e6d8fe3a5de66", "is_disabled": 0, "rental_uris": {"android": "https://dc.lft.to/lastmile_qr_scan", "ios": "https://dc.lft.to/lastmile_qr_scan"}, "fusion_lon": 0.0, "lat": 38.912716833333334, "bike_id": "8a5c37d3f4d69c71906e6d8fe3a5de66", "type": "electric_scooter", "is_reserved": 0, "lon": -77.0433455}, {"fusion_lat": 0.0, "name": "e652d7168a36ada04cca94f38088e60b", "is_disabled": 0, "rental_uris": {"android": "https://dc.lft.to/lastmile_qr_scan", "ios": "https://dc.lft.to/lastmile_qr_scan"}, "fusion_lon": 0.0, "lat": 38.92078266666667, "bike_id": "e652d7168a36ada04cca94f38088e60b", "type": "electric_bike", "is_reserved": 0, "lon": -76.9894815}, {"fusion_lat": 0.0, "name": "9886fdf58c553d758e66c3e7c1924044", "is_disabled": 0, "rental_uris": {"android": "https://dc.lft.to/lastmile_qr_scan", "ios": "https://dc.lft.to/lastmile_qr_scan"}, "fusion_lon": 0.0, "lat": 38.9353425, "bike_id": "9886fdf58c553d758e66c3e7c1924044", "type": "electric_scooter", "is_reserved": 0, "lon": -77.02354633333333}, {"fusion_lat": 0.0, "name": "4f8bd1b30f684b7ed023ccff67068a32", "is_disabled": 0, "rental_uris": {"android": "https://dc.lft.to/lastmile_qr_scan", "ios": "https://dc.lft.to/lastmile_qr_scan"}, "fusion_lon": 0.0, "lat": 38.88738466666667, "bike_id": "4f8bd1b30f684b7ed023ccff67068a32", "type": "electric_scooter", "is_reserved": 0, "lon": -77.00324133333334}, {"fusion_lat": 0.0, "name": "2869eb572899ce50801934ecc4c88e5c", "is_disabled": 0, "rental_uris": {"android": "https://dc.lft.to/lastmile_qr_scan", "ios": "https://dc.lft.to/lastmile_qr_scan"}, "fusion_lon": 0.0, "lat": 38.89217566666667, "bike_id": "2869eb572899ce50801934ecc4c88e5c", "type": "electric_scooter", "is_reserved": 0, "lon": -77.03167833333333}, {"fusion_lat": 0.0, "name": "2fa8cb625b6282602bcd5fc06865ca31", "is_disabled": 0, "rental_uris": {"android": "https://dc.lft.to/lastmile_qr_scan", "ios": "https://dc.lft.to/lastmile_qr_scan"}, "fusion_lon": 0.0, "lat": 38.8872465, "bike_id": "2fa8cb625b6282602bcd5fc06865ca31", "type": "electric_scooter", "is_reserved": 0, "lon": -76.98357183333333}, {"fusion_lat": 0.0, "name": "948fac74d62836f7484828232376745c", "is_disabled": 0, "rental_uris": {"android": "https://dc.lft.to/lastmile_qr_scan", "ios": "https://dc.lft.to/lastmile_qr_scan"}, "fusion_lon": 0.0, "lat": 38.93673966666667, "bike_id": "948fac74d62836f7484828232376745c", "type": "electric_scooter", "is_reserved": 0, "lon": -77.03638933333333}, {"fusion_lat": 0.0, "name": "54bc04926d2089ddcfde8def9ef9666e", "is_disabled": 0, "rental_uris": {"android": "https://dc.lft.to/lastmile_qr_scan", "ios": "https://dc.lft.to/lastmile_qr_scan"}, "fusion_lon": 0.0, "lat": 38.917088166666666, "bike_id": "54bc04926d2089ddcfde8def9ef9666e", "type": "electric_scooter", "is_reserved": 0, "lon": -77.03716316666667}, {"fusion_lat": 0.0, "name": "eda17adb68e53e8af5d8fa1370207a47", "is_disabled": 0, "rental_uris": {"android": "https://dc.lft.to/lastmile_qr_scan", "ios": "https://dc.lft.to/lastmile_qr_scan"}, "fusion_lon": 0.0, "lat": 38.934742666666665, "bike_id": "eda17adb68e53e8af5d8fa1370207a47", "type": "electric_scooter", "is_reserved": 0, "lon": -77.07352266666666}, {"fusion_lat": 0.0, "name": "7c75d70de1d97a908d9becae0a01c5e0", "is_disabled": 0, "rental_uris": {"android": "https://dc.lft.to/lastmile_qr_scan", "ios": "https://dc.lft.to/lastmile_qr_scan"}, "fusion_lon": 0.0, "lat": 38.90958716666667, "bike_id": "7c75d70de1d97a908d9becae0a01c5e0", "type": "electric_scooter", "is_reserved": 0, "lon": -77.0460815}, {"fusion_lat": 0.0, "name": "741e9d126448fd292829dbe1a8c8e340", "is_disabled": 0, "rental_uris": {"android": "https://dc.lft.to/lastmile_qr_scan", "ios": "https://dc.lft.to/lastmile_qr_scan"}, "fusion_lon": 0.0, "lat": 38.921726166666666, "bike_id": "741e9d126448fd292829dbe1a8c8e340", "type": "electric_scooter", "is_reserved": 0, "lon": -77.031803}, {"fusion_lat": 0.0, "name": "ac856b78b60dd7f7024e50f129388e9a", "is_disabled": 0, "rental_uris": {"android": "https://dc.lft.to/lastmile_qr_scan", "ios": "https://dc.lft.to/lastmile_qr_scan"}, "fusion_lon": 0.0, "lat": 38.9150315, "bike_id": "ac856b78b60dd7f7024e50f129388e9a", "type": "electric_scooter", "is_reserved": 0, "lon": -77.03268783333333}, {"fusion_lat": 0.0, "name": "d18b804306cb0e8dee9dc68a93038bb4", "is_disabled": 0, "rental_uris": {"android": "https://dc.lft.to/lastmile_qr_scan", "ios": "https://dc.lft.to/lastmile_qr_scan"}, "fusion_lon": 0.0, "lat": 38.90530016666666, "bike_id": "d18b804306cb0e8dee9dc68a93038bb4", "type": "electric_bike", "is_reserved": 0, "lon": -76.99809933333333}, {"fusion_lat": 0.0, "name": "d697b27aca2815f8c85219cd8fafcc04", "is_disabled": 0, "rental_uris": {"android": "https://dc.lft.to/lastmile_qr_scan", "ios": "https://dc.lft.to/lastmile_qr_scan"}, "fusion_lon": 0.0, "lat": 38.943400833333335, "bike_id": "d697b27aca2815f8c85219cd8fafcc04", "type": "electric_scooter", "is_reserved": 0, "lon": -77.060559}, {"fusion_lat": 0.0, "name": "aeb0e0dac0100d7d0b01ad41c5df98cb", "is_disabled": 0, "rental_uris": {"android": "https://dc.lft.to/lastmile_qr_scan", "ios": "https://dc.lft.to/lastmile_qr_scan"}, "fusion_lon": 0.0, "lat": 38.916447166666664, "bike_id": "aeb0e0dac0100d7d0b01ad41c5df98cb", "type": "electric_scooter", "is_reserved": 0, "lon": -77.03696966666666}, {"fusion_lat": 0.0, "name": "a981c734f3b884697df2d1065597f4fb", "is_disabled": 0, "rental_uris": {"android": "https://dc.lft.to/lastmile_qr_scan", "ios": "https://dc.lft.to/lastmile_qr_scan"}, "fusion_lon": 0.0, "lat": 38.91694116666667, "bike_id": "a981c734f3b884697df2d1065597f4fb", "type": "electric_scooter", "is_reserved": 0, "lon": -77.0408615}, {"fusion_lat": 0.0, "name": "2a1e37e57f874aee85772ad70772f975", "is_disabled": 0, "rental_uris": {"android": "https://dc.lft.to/lastmile_qr_scan", "ios": "https://dc.lft.to/lastmile_qr_scan"}, "fusion_lon": 0.0, "lat": 38.914267, "bike_id": "2a1e37e57f874aee85772ad70772f975", "type": "electric_scooter", "is_reserved": 0, "lon": -77.014197}, {"fusion_lat": 0.0, "name": "bc87165d593158e59b43b4f99d327fd6", "is_disabled": 0, "rental_uris": {"android": "https://dc.lft.to/lastmile_qr_scan", "ios": "https://dc.lft.to/lastmile_qr_scan"}, "fusion_lon": 0.0, "lat": 38.902272833333335, "bike_id": "bc87165d593158e59b43b4f99d327fd6", "type": "electric_scooter", "is_reserved": 0, "lon": -77.05465916666667}, {"fusion_lat": 0.0, "name": "d46d0de9b5c6fbb976c95bac37007084", "is_disabled": 0, "rental_uris": {"android": "https://dc.lft.to/lastmile_qr_scan", "ios": "https://dc.lft.to/lastmile_qr_scan"}, "fusion_lon": 0.0, "lat": 38.872293166666665, "bike_id": "d46d0de9b5c6fbb976c95bac37007084", "type": "electric_scooter", "is_reserved": 0, "lon": -77.0176575}, {"fusion_lat": 0.0, "name": "f1fa7ba226de547fa25797d78e1585b8", "is_disabled": 0, "rental_uris": {"android": "https://dc.lft.to/lastmile_qr_scan", "ios": "https://dc.lft.to/lastmile_qr_scan"}, "fusion_lon": 0.0, "lat": 38.96622583333333, "bike_id": "f1fa7ba226de547fa25797d78e1585b8", "type": "electric_bike", "is_reserved": 0, "lon": -77.03424833333334}, {"fusion_lat": 0.0, "name": "93d7896ca0277e8d58ffa94b3123cc94", "is_disabled": 0, "rental_uris": {"android": "https://dc.lft.to/lastmile_qr_scan", "ios": "https://dc.lft.to/lastmile_qr_scan"}, "fusion_lon": 0.0, "lat": 38.905098, "bike_id": "93d7896ca0277e8d58ffa94b3123cc94", "type": "electric_scooter", "is_reserved": 0, "lon": -77.06155783333334}, {"fusion_lat": 0.0, "name": "74e3af4876764881287737a7fe10064b", "is_disabled": 0, "rental_uris": {"android": "https://dc.lft.to/lastmile_qr_scan", "ios": "https://dc.lft.to/lastmile_qr_scan"}, "fusion_lon": 0.0, "lat": 38.9151975, "bike_id": "74e3af4876764881287737a7fe10064b", "type": "electric_scooter", "is_reserved": 0, "lon": -77.0321025}, {"fusion_lat": 0.0, "name": "0a8e2cf8dc5235751994d6bb106b9b22", "is_disabled": 0, "rental_uris": {"android": "https://dc.lft.to/lastmile_qr_scan", "ios": "https://dc.lft.to/lastmile_qr_scan"}, "fusion_lon": 0.0, "lat": 38.905744, "bike_id": "0a8e2cf8dc5235751994d6bb106b9b22", "type": "electric_scooter", "is_reserved": 0, "lon": -77.00806566666667}, {"fusion_lat": 0.0, "name": "8a6050f4bb2d1d97280eb1e003a2f76a", "is_disabled": 0, "rental_uris": {"android": "https://dc.lft.to/lastmile_qr_scan", "ios": "https://dc.lft.to/lastmile_qr_scan"}, "fusion_lon": 0.0, "lat": 38.9069185, "bike_id": "8a6050f4bb2d1d97280eb1e003a2f76a", "type": "electric_scooter", "is_reserved": 0, "lon": -77.04155766666666}, {"fusion_lat": 0.0, "name": "e3462f0f2dae6d9ab37cb7cc4c27b847", "is_disabled": 0, "rental_uris": {"android": "https://dc.lft.to/lastmile_qr_scan", "ios": "https://dc.lft.to/lastmile_qr_scan"}, "fusion_lon": 0.0, "lat": 38.914037, "bike_id": "e3462f0f2dae6d9ab37cb7cc4c27b847", "type": "electric_scooter", "is_reserved": 0, "lon": -77.03220216666666}, {"fusion_lat": 0.0, "name": "257b6a0166a6a0693c3c4278a9a94ba3", "is_disabled": 0, "rental_uris": {"android": "https://dc.lft.to/lastmile_qr_scan", "ios": "https://dc.lft.to/lastmile_qr_scan"}, "fusion_lon": 0.0, "lat": 38.91113716666667, "bike_id": "257b6a0166a6a0693c3c4278a9a94ba3", "type": "electric_scooter", "is_reserved": 0, "lon": -77.08136383333333}, {"fusion_lat": 0.0, "name": "571d492dcdba618c774d103e88549686", "is_disabled": 0, "rental_uris": {"android": "https://dc.lft.to/lastmile_qr_scan", "ios": "https://dc.lft.to/lastmile_qr_scan"}, "fusion_lon": 0.0, "lat": 38.8814645, "bike_id": "571d492dcdba618c774d103e88549686", "type": "electric_scooter", "is_reserved": 0, "lon": -76.9950965}, {"fusion_lat": 0.0, "name": "5ef43ebc14114c192663591eadbdf7a9", "is_disabled": 0, "rental_uris": {"android": "https://dc.lft.to/lastmile_qr_scan", "ios": "https://dc.lft.to/lastmile_qr_scan"}, "fusion_lon": 0.0, "lat": 38.91578466666667, "bike_id": "5ef43ebc14114c192663591eadbdf7a9", "type": "electric_scooter", "is_reserved": 0, "lon": -77.01236383333334}, {"fusion_lat": 0.0, "name": "5b39f0f94bf73ea31aea6b871eed9cd8", "is_disabled": 0, "rental_uris": {"android": "https://dc.lft.to/lastmile_qr_scan", "ios": "https://dc.lft.to/lastmile_qr_scan"}, "fusion_lon": 0.0, "lat": 38.84424383333333, "bike_id": "5b39f0f94bf73ea31aea6b871eed9cd8", "type": "electric_scooter", "is_reserved": 0, "lon": -76.99782583333334}, {"fusion_lat": 0.0, "name": "851d822afd7793f831505726f8f98eb3", "is_disabled": 0, "rental_uris": {"android": "https://dc.lft.to/lastmile_qr_scan", "ios": "https://dc.lft.to/lastmile_qr_scan"}, "fusion_lon": 0.0, "lat": 38.92229366666667, "bike_id": "851d822afd7793f831505726f8f98eb3", "type": "electric_scooter", "is_reserved": 0, "lon": -77.0236875}, {"fusion_lat": 0.0, "name": "290fb1d20471eae268e8da2ee06b4519", "is_disabled": 0, "rental_uris": {"android": "https://dc.lft.to/lastmile_qr_scan", "ios": "https://dc.lft.to/lastmile_qr_scan"}, "fusion_lon": 0.0, "lat": 38.939626833333335, "bike_id": "290fb1d20471eae268e8da2ee06b4519", "type": "electric_scooter", "is_reserved": 0, "lon": -77.03286733333333}, {"fusion_lat": 0.0, "name": "a7231fa72066f502638d217a513707e8", "is_disabled": 0, "rental_uris": {"android": "https://dc.lft.to/lastmile_qr_scan", "ios": "https://dc.lft.to/lastmile_qr_scan"}, "fusion_lon": 0.0, "lat": 38.8984885, "bike_id": "a7231fa72066f502638d217a513707e8", "type": "electric_scooter", "is_reserved": 0, "lon": -77.02994333333334}, {"fusion_lat": 0.0, "name": "34a69f463e8391f5ef6f1c87044a40f2", "is_disabled": 0, "rental_uris": {"android": "https://dc.lft.to/lastmile_qr_scan", "ios": "https://dc.lft.to/lastmile_qr_scan"}, "fusion_lon": 0.0, "lat": 38.90762383333333, "bike_id": "34a69f463e8391f5ef6f1c87044a40f2", "type": "electric_scooter", "is_reserved": 0, "lon": -77.0565575}, {"fusion_lat": 0.0, "name": "795f6ecbdb6254af3e3a73fd15745d34", "is_disabled": 0, "rental_uris": {"android": "https://dc.lft.to/lastmile_qr_scan", "ios": "https://dc.lft.to/lastmile_qr_scan"}, "fusion_lon": 0.0, "lat": 38.92079433333333, "bike_id": "795f6ecbdb6254af3e3a73fd15745d34", "type": "electric_scooter", "is_reserved": 0, "lon": -77.02307366666666}, {"fusion_lat": 0.0, "name": "87e7f03d18447407459262f6cbf6f914", "is_disabled": 0, "rental_uris": {"android": "https://dc.lft.to/lastmile_qr_scan", "ios": "https://dc.lft.to/lastmile_qr_scan"}, "fusion_lon": 0.0, "lat": 38.950864, "bike_id": "87e7f03d18447407459262f6cbf6f914", "type": "electric_scooter", "is_reserved": 0, "lon": -77.0231435}, {"fusion_lat": 0.0, "name": "eb622f3edb2620227ef978f24d1c9130", "is_disabled": 0, "rental_uris": {"android": "https://dc.lft.to/lastmile_qr_scan", "ios": "https://dc.lft.to/lastmile_qr_scan"}, "fusion_lon": 0.0, "lat": 38.9027105, "bike_id": "eb622f3edb2620227ef978f24d1c9130", "type": "electric_bike", "is_reserved": 0, "lon": -77.06003166666666}, {"fusion_lat": 0.0, "name": "75bf8690d92327dcc77bf92b6baa984c", "is_disabled": 0, "rental_uris": {"android": "https://dc.lft.to/lastmile_qr_scan", "ios": "https://dc.lft.to/lastmile_qr_scan"}, "fusion_lon": 0.0, "lat": 38.88510683333333, "bike_id": "75bf8690d92327dcc77bf92b6baa984c", "type": "electric_scooter", "is_reserved": 0, "lon": -77.0174415}, {"fusion_lat": 0.0, "name": "ed6de6aadf17d13630102fb70b2b5f04", "is_disabled": 0, "rental_uris": {"android": "https://dc.lft.to/lastmile_qr_scan", "ios": "https://dc.lft.to/lastmile_qr_scan"}, "fusion_lon": 0.0, "lat": 38.827904, "bike_id": "ed6de6aadf17d13630102fb70b2b5f04", "type": "electric_bike", "is_reserved": 0, "lon": -77.12490416666667}, {"fusion_lat": 0.0, "name": "00d3109d615ca4e734584baf855e3833", "is_disabled": 0, "rental_uris": {"android": "https://dc.lft.to/lastmile_qr_scan", "ios": "https://dc.lft.to/lastmile_qr_scan"}, "fusion_lon": 0.0, "lat": 38.893218166666664, "bike_id": "00d3109d615ca4e734584baf855e3833", "type": "electric_bike", "is_reserved": 0, "lon": -76.95124983333334}, {"fusion_lat": 0.0, "name": "cb155f56da764a4a6624d4c1d45cac6d", "is_disabled": 0, "rental_uris": {"android": "https://dc.lft.to/lastmile_qr_scan", "ios": "https://dc.lft.to/lastmile_qr_scan"}, "fusion_lon": 0.0, "lat": 38.876759166666666, "bike_id": "cb155f56da764a4a6624d4c1d45cac6d", "type": "electric_scooter", "is_reserved": 0, "lon": -77.0066035}, {"fusion_lat": 0.0, "name": "7ac08200297a058ac9afa0ad6b1bbc5b", "is_disabled": 0, "rental_uris": {"android": "https://dc.lft.to/lastmile_qr_scan", "ios": "https://dc.lft.to/lastmile_qr_scan"}, "fusion_lon": 0.0, "lat": 38.958879, "bike_id": "7ac08200297a058ac9afa0ad6b1bbc5b", "type": "electric_scooter", "is_reserved": 0, "lon": -77.00281633333333}, {"fusion_lat": 0.0, "name": "5b7b24e2601231f3aad2b057772fd41b", "is_disabled": 0, "rental_uris": {"android": "https://dc.lft.to/lastmile_qr_scan", "ios": "https://dc.lft.to/lastmile_qr_scan"}, "fusion_lon": 0.0, "lat": 38.86826, "bike_id": "5b7b24e2601231f3aad2b057772fd41b", "type": "electric_scooter", "is_reserved": 0, "lon": -77.01124366666667}, {"fusion_lat": 0.0, "name": "6e3588b6afc437cb1b1e290bd4222dfa", "is_disabled": 0, "rental_uris": {"android": "https://dc.lft.to/lastmile_qr_scan", "ios": "https://dc.lft.to/lastmile_qr_scan"}, "fusion_lon": 0.0, "lat": 38.91675633333333, "bike_id": "6e3588b6afc437cb1b1e290bd4222dfa", "type": "electric_scooter", "is_reserved": 0, "lon": -77.029515}, {"fusion_lat": 0.0, "name": "b5d3d979141629069b77648d9b8746c5", "is_disabled": 0, "rental_uris": {"android": "https://dc.lft.to/lastmile_qr_scan", "ios": "https://dc.lft.to/lastmile_qr_scan"}, "fusion_lon": 0.0, "lat": 38.916895333333336, "bike_id": "b5d3d979141629069b77648d9b8746c5", "type": "electric_scooter", "is_reserved": 0, "lon": -77.03110283333334}, {"fusion_lat": 0.0, "name": "d23c05001f4d1657793086eaf306bc1f", "is_disabled": 0, "rental_uris": {"android": "https://dc.lft.to/lastmile_qr_scan", "ios": "https://dc.lft.to/lastmile_qr_scan"}, "fusion_lon": 0.0, "lat": 38.921236666666665, "bike_id": "d23c05001f4d1657793086eaf306bc1f", "type": "electric_scooter", "is_reserved": 0, "lon": -77.04433816666666}, {"fusion_lat": 0.0, "name": "a1ba758f750f876d88086343802968fd", "is_disabled": 0, "rental_uris": {"android": "https://dc.lft.to/lastmile_qr_scan", "ios": "https://dc.lft.to/lastmile_qr_scan"}, "fusion_lon": 0.0, "lat": 38.919334, "bike_id": "a1ba758f750f876d88086343802968fd", "type": "electric_scooter", "is_reserved": 0, "lon": -77.02493683333333}, {"fusion_lat": 0.0, "name": "083414f4b8b2bd974fa2b9b73dde8ca3", "is_disabled": 0, "rental_uris": {"android": "https://dc.lft.to/lastmile_qr_scan", "ios": "https://dc.lft.to/lastmile_qr_scan"}, "fusion_lon": 0.0, "lat": 38.933829333333335, "bike_id": "083414f4b8b2bd974fa2b9b73dde8ca3", "type": "electric_scooter", "is_reserved": 0, "lon": -77.0388525}, {"fusion_lat": 0.0, "name": "5cace6d6ed770060f9d2e7b521b137c3", "is_disabled": 0, "rental_uris": {"android": "https://dc.lft.to/lastmile_qr_scan", "ios": "https://dc.lft.to/lastmile_qr_scan"}, "fusion_lon": 0.0, "lat": 38.870395, "bike_id": "5cace6d6ed770060f9d2e7b521b137c3", "type": "electric_scooter", "is_reserved": 0, "lon": -77.01009566666667}, {"fusion_lat": 0.0, "name": "4486a531613c354ff74ab762797bb5d7", "is_disabled": 0, "rental_uris": {"android": "https://dc.lft.to/lastmile_qr_scan", "ios": "https://dc.lft.to/lastmile_qr_scan"}, "fusion_lon": 0.0, "lat": 38.91237183333333, "bike_id": "4486a531613c354ff74ab762797bb5d7", "type": "electric_scooter", "is_reserved": 0, "lon": -77.0091805}, {"fusion_lat": 0.0, "name": "e6f1db3ad2703bd9eee6634fd3c2830f", "is_disabled": 0, "rental_uris": {"android": "https://dc.lft.to/lastmile_qr_scan", "ios": "https://dc.lft.to/lastmile_qr_scan"}, "fusion_lon": 0.0, "lat": 38.9147275, "bike_id": "e6f1db3ad2703bd9eee6634fd3c2830f", "type": "electric_scooter", "is_reserved": 0, "lon": -76.9844675}, {"fusion_lat": 0.0, "name": "4203ee43b9e74203e9bbbfd1c582a35a", "is_disabled": 0, "rental_uris": {"android": "https://dc.lft.to/lastmile_qr_scan", "ios": "https://dc.lft.to/lastmile_qr_scan"}, "fusion_lon": 0.0, "lat": 38.965931166666664, "bike_id": "4203ee43b9e74203e9bbbfd1c582a35a", "type": "electric_scooter", "is_reserved": 0, "lon": -77.01595566666667}, {"fusion_lat": 0.0, "name": "e4f87f9ac5da7ac2285673580e1086d6", "is_disabled": 0, "rental_uris": {"android": "https://dc.lft.to/lastmile_qr_scan", "ios": "https://dc.lft.to/lastmile_qr_scan"}, "fusion_lon": 0.0, "lat": 38.919566333333336, "bike_id": "e4f87f9ac5da7ac2285673580e1086d6", "type": "electric_scooter", "is_reserved": 0, "lon": -77.03213483333333}, {"fusion_lat": 0.0, "name": "c2ee4f73119615560742d4ed3409f69a", "is_disabled": 0, "rental_uris": {"android": "https://dc.lft.to/lastmile_qr_scan", "ios": "https://dc.lft.to/lastmile_qr_scan"}, "fusion_lon": 0.0, "lat": 38.92253266666667, "bike_id": "c2ee4f73119615560742d4ed3409f69a", "type": "electric_scooter", "is_reserved": 0, "lon": -77.07455216666666}, {"fusion_lat": 0.0, "name": "f55a1e216ec85431ebf7f5201c3160cc", "is_disabled": 0, "rental_uris": {"android": "https://dc.lft.to/lastmile_qr_scan", "ios": "https://dc.lft.to/lastmile_qr_scan"},