{"data": {"bikes": [{"lat": 38.92156283333333, "fusion_lon": 0.0, "fusion_lat": 0.0, "is_disabled": 0, "type": "electric_scooter", "lon": -77.0435775, "rental_uris": {"android": "https://dc.lft.to/lastmile_qr_scan", "ios": "https://dc.lft.to/lastmile_qr_scan"}, "is_reserved": 0, "bike_id": "04af126afa36d7b7015d3d076890e164", "name": "04af126afa36d7b7015d3d076890e164"}, {"lat": 38.89881616666667, "fusion_lon": 0.0, "fusion_lat": 0.0, "is_disabled": 0, "type": "electric_scooter", "lon": -76.93155716666666, "rental_uris": {"android": "https://dc.lft.to/lastmile_qr_scan", "ios": "https://dc.lft.to/lastmile_qr_scan"}, "is_reserved": 0, "bike_id": "651bd2fe5869cd4185409d48cd973459", "name": "651bd2fe5869cd4185409d48cd973459"}, {"lat": 38.906752833333336, "fusion_lon": 0.0, "fusion_lat": 0.0, "is_disabled": 0, "type": "electric_scooter", "lon": -77.03481883333333, "rental_uris": {"android": "https://dc.lft.to/lastmile_qr_scan", "ios": "https://dc.lft.to/lastmile_qr_scan"}, "is_reserved": 0, "bike_id": "2788c5ae45dfc738cd759d9caadf9c57", "name": "2788c5ae45dfc738cd759d9caadf9c57"}, {"lat": 38.902626166666664, "fusion_lon": 0.0, "fusion_lat": 0.0, "is_disabled": 0, "type": "electric_scooter", "lon": -77.03435133333333, "rental_uris": {"android": "https://dc.lft.to/lastmile_qr_scan", "ios": "https://dc.lft.to/lastmile_qr_scan"}, "is_reserved": 0, "bike_id": "809d33d9e70faa815958f287581122df", "name": "809d33d9e70faa815958f287581122df"}, {"lat": 38.914094666666664, "fusion_lon": 0.0, "fusion_lat": 0.0, "is_disabled": 0, "type": "electric_scooter", "lon": -77.03995866666666, "rental_uris": {"android": "https://dc.lft.to/lastmile_qr_scan", "ios": "https://dc.lft.to/lastmile_qr_scan"}, "is_reserved": 0, "bike_id": "371fdb2d0a591f5754bbc5ddb8232ecf", "name": "371fdb2d0a591f5754bbc5ddb8232ecf"}, {"lat": 38.902447, "fusion_lon": 0.0, "fusion_lat": 0.0, "is_disabled": 0, "type": "electric_scooter", "lon": -76.99888483333334, "rental_uris": {"android": "https://dc.lft.to/lastmile_qr_scan", "ios": "https://dc.lft.to/lastmile_qr_scan"}, "is_reserved": 0, "bike_id": "f50112fcf363577694f01f1d02eb6560", "name": "f50112fcf363577694f01f1d02eb6560"}, {"lat": 38.90443333333333, "fusion_lon": 0.0, "fusion_lat": 0.0, "is_disabled": 0, "type": "electric_scooter", "lon": -77.04651833333334, "rental_uris": {"android": "https://dc.lft.to/lastmile_qr_scan", "ios": "https://dc.lft.to/lastmile_qr_scan"}, "is_reserved": 0, "bike_id": "d5dca294973aa290e591f3b14edfb5fb", "name": "d5dca294973aa290e591f3b14edfb5fb"}, {"lat": 38.898745, "fusion_lon": 0.0, "fusion_lat": 0.0, "is_disabled": 0, "type": "electric_scooter", "lon": -76.93187366666666, "rental_uris": {"android": "https://dc.lft.to/lastmile_qr_scan", "ios": "https://dc.lft.to/lastmile_qr_scan"}, "is_reserved": 0, "bike_id": "488e3db2436b9be57121a7edb335ac40", "name": "488e3db2436b9be57121a7edb335ac40"}, {"lat": 38.90388816666667, "fusion_lon": 0.0, "fusion_lat": 0.0, "is_disabled": 0, "type": "electric_scooter", "lon": -77.04347716666666, "rental_uris": {"android": "https://dc.lft.to/lastmile_qr_scan", "ios": "https://dc.lft.to/lastmile_qr_scan"}, "is_reserved": 0, "bike_id": "4a7a6f5bfc2d1991a2e04b3f4e937df1", "name": "4a7a6f5bfc2d1991a2e04b3f4e937df1"}, {"lat": 38.90791766666667, "fusion_lon": 0.0, "fusion_lat": 0.0, "is_disabled": 0, "type": "electric_scooter", "lon": -76.94122183333333, "rental_uris": {"android": "https://dc.lft.to/lastmile_qr_scan", "ios": "https://dc.lft.to/lastmile_qr_scan"}, "is_reserved": 0, "bike_id": "e0c2887e69b1ffd2442b7a7e64204c47", "name": "e0c2887e69b1ffd2442b7a7e64204c47"}, {"lat": 38.88738683333333, "fusion_lon": 0.0, "fusion_lat": 0.0, "is_disabled": 0, "type": "electric_scooter", "lon": -77.02393683333334, "rental_uris": {"android": "https://dc.lft.to/lastmile_qr_scan", "ios": "https://dc.lft.to/lastmile_qr_scan"}, "is_reserved": 0, "bike_id": "817fee328ff6558ba372322a1c9d81a6", "name": "817fee328ff6558ba372322a1c9d81a6"}, {"lat": 38.911717, "fusion_lon": 0.0, "fusion_lat": 0.0, "is_disabled": 0, "type": "electric_scooter", "lon": -76.98771833333333, "rental_uris": {"android": "https://dc.lft.to/lastmile_qr_scan", "ios": "https://dc.lft.to/lastmile_qr_scan"}, "is_reserved": 0, "bike_id": "08d69b4ac1cc911588ebdc4d152579e2", "name": "08d69b4ac1cc911588ebdc4d152579e2"}, {"lat": 38.91430533333333, "fusion_lon": 0.0, "fusion_lat": 0.0, "is_disabled": 0, "type": "electric_scooter", "lon": -77.075604, "rental_uris": {"android": "https://dc.lft.to/lastmile_qr_scan", "ios": "https://dc.lft.to/lastmile_qr_scan"}, "is_reserved": 0, "bike_id": "94ec3be8f1f5e5acf6a9e93be376be7a", "name": "94ec3be8f1f5e5acf6a9e93be376be7a"}, {"lat": 38.9423225, "fusion_lon": 0.0, "fusion_lat": 0.0, "is_disabled": 0, "type": "electric_scooter", "lon": -77.061558, "rental_uris": {"android": "https://dc.lft.to/lastmile_qr_scan", "ios": "https://dc.lft.to/lastmile_qr_scan"}, "is_reserved": 0, "bike_id": "afc20a4c368c5aa42c247990028a0beb", "name": "afc20a4c368c5aa42c247990028a0beb"}, {"lat": 38.85568083333333, "fusion_lon": 0.0, "fusion_lat": 0.0, "is_disabled": 0, "type": "electric_scooter", "lon": -76.98676516666667, "rental_uris": {"android": "https://dc.lft.to/lastmile_qr_scan", "ios": "https://dc.lft.to/lastmile_qr_scan"}, "is_reserved": 0, "bike_id": "76a4d11eca0fb53f1af639a7d6cf2f17", "name": "76a4d11eca0fb53f1af639a7d6cf2f17"}, {"lat": 38.905309333333335, "fusion_lon": 0.0, "fusion_lat": 0.0, "is_disabled": 0, "type": "electric_scooter", "lon": -77.05005166666666, "rental_uris": {"android": "https://dc.lft.to/lastmile_qr_scan", "ios": "https://dc.lft.to/lastmile_qr_scan"}, "is_reserved": 0, "bike_id": "489c666a5f7099df3cfb333aa5686084", "name": "489c666a5f7099df3cfb333aa5686084"}, {"lat": 38.88822733333333, "fusion_lon": 0.0, "fusion_lat": 0.0, "is_disabled": 0, "type": "electric_bike", "lon": -77.12735966666666, "rental_uris": {"android": "https://dc.lft.to/lastmile_qr_scan", "ios": "https://dc.lft.to/lastmile_qr_scan"}, "is_reserved": 0, "bike_id": "68c18ea42fc9e62da03ea2cb921d317f", "name": "68c18ea42fc9e62da03ea2cb921d317f"}, {"lat": 38.905696666666664, "fusion_lon": 0.0, "fusion_lat": 0.0, "is_disabled": 0, "type": "electric_scooter", "lon": -77.00595666666666, "rental_uris": {"android": "https://dc.lft.to/lastmile_qr_scan", "ios": "https://dc.lft.to/lastmile_qr_scan"}, "is_reserved": 0, "bike_id": "cad0be0c947adcc5d99bfaa8ae2b365c", "name": "cad0be0c947adcc5d99bfaa8ae2b365c"}, {"lat": 38.9096325, "fusion_lon": 0.0, "fusion_lat": 0.0, "is_disabled": 0, "type": "electric_scooter", "lon": -77.04532866666666, "rental_uris": {"android": "https://dc.lft.to/lastmile_qr_scan", "ios": "https://dc.lft.to/lastmile_qr_scan"}, "is_reserved": 0, "bike_id": "131a99d9d39e68e6c4b34820322a7b72", "name": "131a99d9d39e68e6c4b34820322a7b72"}, {"lat": 38.911379833333335, "fusion_lon": 0.0, "fusion_lat": 0.0, "is_disabled": 0, "type": "electric_scooter", "lon": -77.04839633333333, "rental_uris": {"android": "https://dc.lft.to/lastmile_qr_scan", "ios": "https://dc.lft.to/lastmile_qr_scan"}, "is_reserved": 0, "bike_id": "66bbac370c12241bda5d15d3fde7a64c", "name": "66bbac370c12241bda5d15d3fde7a64c"}, {"lat": 38.936877833333334, "fusion_lon": 0.0, "fusion_lat": 0.0, "is_disabled": 0, "type": "electric_bike", "lon": -76.99054433333333, "rental_uris": {"android": "https://dc.lft.to/lastmile_qr_scan", "ios": "https://dc.lft.to/lastmile_qr_scan"}, "is_reserved": 0, "bike_id": "3b09d1f8f61c718a497084479425175c", "name": "3b09d1f8f61c718a497084479425175c"}, {"lat": 38.87359933333333, "fusion_lon": 0.0, "fusion_lat": 0.0, "is_disabled": 0, "type": "electric_scooter", "lon": -77.00903183333334, "rental_uris": {"android": "https://dc.lft.to/lastmile_qr_scan", "ios": "https://dc.lft.to/lastmile_qr_scan"}, "is_reserved": 0, "bike_id": "f7b2193fe8c856116032d0b2b344c597", "name": "f7b2193fe8c856116032d0b2b344c597"}, {"lat": 38.89618866666667, "fusion_lon": 0.0, "fusion_lat": 0.0, "is_disabled": 0, "type": "electric_scooter", "lon": -77.0121625, "rental_uris": {"android": "https://dc.lft.to/lastmile_qr_scan", "ios": "https://dc.lft.to/lastmile_qr_scan"}, "is_reserved": 0, "bike_id": "a4bb3a122f2ff4b00703234a453375eb", "name": "a4bb3a122f2ff4b00703234a453375eb"}, {"lat": 38.930603833333336, "fusion_lon": 0.0, "fusion_lat": 0.0, "is_disabled": 0, "type": "electric_scooter", "lon": -77.02803716666666, "rental_uris": {"android": "https://dc.lft.to/lastmile_qr_scan", "ios": "https://dc.lft.to/lastmile_qr_scan"}, "is_reserved": 0, "bike_id": "77ec4ed4d332821d44e574a0662a418b", "name": "77ec4ed4d332821d44e574a0662a418b"}, {"lat": 38.892216833333336, "fusion_lon": 0.0, "fusion_lat": 0.0, "is_disabled": 0, "type": "electric_scooter", "lon": -77.027197, "rental_uris": {"android": "https://dc.lft.to/lastmile_qr_scan", "ios": "https://dc.lft.to/lastmile_qr_scan"}, "is_reserved": 0, "bike_id": "1b8d8129ad8b8a1feb939321dc5b5865", "name": "1b8d8129ad8b8a1feb939321dc5b5865"}, {"lat": 38.91695766666667, "fusion_lon": 0.0, "fusion_lat": 0.0, "is_disabled": 0, "type": "electric_scooter", "lon": -77.052985, "rental_uris": {"android": "https://dc.lft.to/lastmile_qr_scan", "ios": "https://dc.lft.to/lastmile_qr_scan"}, "is_reserved": 0, "bike_id": "4f61a72b87011f965939c6ffd69088ec", "name": "4f61a72b87011f965939c6ffd69088ec"}, {"lat": 38.89081733333333, "fusion_lon": 0.0, "fusion_lat": 0.0, "is_disabled": 0, "type": "electric_scooter", "lon": -76.9192135, "rental_uris": {"android": "https://dc.lft.to/lastmile_qr_scan", "ios": "https://dc.lft.to/lastmile_qr_scan"}, "is_reserved": 0, "bike_id": "f191b936c5818c6e12ccbb4c107943b6", "name": "f191b936c5818c6e12ccbb4c107943b6"}, {"lat": 38.92408233333333, "fusion_lon": 0.0, "fusion_lat": 0.0, "is_disabled": 0, "type": "electric_scooter", "lon": -77.040321, "rental_uris": {"android": "https://dc.lft.to/lastmile_qr_scan", "ios": "https://dc.lft.to/lastmile_qr_scan"}, "is_reserved": 0, "bike_id": "6fd01947cba5c7324c0ad0ec4726d91c", "name": "6fd01947cba5c7324c0ad0ec4726d91c"}, {"lat": 38.898881333333335, "fusion_lon": 0.0, "fusion_lat": 0.0, "is_disabled": 0, "type": "electric_scooter", "lon": -76.9965545, "rental_uris": {"android": "https://dc.lft.to/lastmile_qr_scan", "ios": "https://dc.lft.to/lastmile_qr_scan"}, "is_reserved": 0, "bike_id": "a02aadaa3b7d586b44e86e215fbb3564", "name": "a02aadaa3b7d586b44e86e215fbb3564"}, {"lat": 38.920660166666664, "fusion_lon": 0.0, "fusion_lat": 0.0, "is_disabled": 0, "type": "electric_scooter", "lon": -77.03818666666666, "rental_uris": {"android": "https://dc.lft.to/lastmile_qr_scan", "ios": "https://dc.lft.to/lastmile_qr_scan"}, "is_reserved": 0, "bike_id": "c1b0af2cba57181f600da0c5d28fd753", "name": "c1b0af2cba57181f600da0c5d28fd753"}, {"lat": 38.897924833333335, "fusion_lon": 0.0, "fusion_lat": 0.0, "is_disabled": 0, "type": "electric_bike", "lon": -77.00582183333333, "rental_uris": {"android": "https://dc.lft.to/lastmile_qr_scan", "ios": "https://dc.lft.to/lastmile_qr_scan"}, "is_reserved": 0, "bike_id": "f57b3fe32616c8a4315204610a45c1b6", "name": "f57b3fe32616c8a4315204610a45c1b6"}, {"lat": 38.904155, "fusion_lon": 0.0, "fusion_lat": 0.0, "is_disabled": 0, "type": "electric_scooter", "lon": -77.04880216666666, "rental_uris": {"android": "https://dc.lft.to/lastmile_qr_scan", "ios": "https://dc.lft.to/lastmile_qr_scan"}, "is_reserved": 0, "bike_id": "abd865757504ba000b30e85078706c97", "name": "abd865757504ba000b30e85078706c97"}, {"lat": 38.90445583333333, "fusion_lon": 0.0, "fusion_lat": 0.0, "is_disabled": 0, "type": "electric_scooter", "lon": -77.0344935, "rental_uris": {"android": "https://dc.lft.to/lastmile_qr_scan", "ios": "https://dc.lft.to/lastmile_qr_scan"}, "is_reserved": 0, "bike_id": "8251ff0b637bf8d4998788113e2bdc31", "name": "8251ff0b637bf8d4998788113e2bdc31"}, {"lat": 38.8969955, "fusion_lon": 0.0, "fusion_lat": 0.0, "is_disabled": 0, "type": "electric_bike", "lon": -77.088619, "rental_uris": {"android": "https://dc.lft.to/lastmile_qr_scan", "ios": "https://dc.lft.to/lastmile_qr_scan"}, "is_reserved": 0, "bike_id": "4caf63f05b715e3f0c6610c24c0770ca", "name": "4caf63f05b715e3f0c6610c24c0770ca"}, {"lat": 38.90526216666667, "fusion_lon": 0.0, "fusion_lat": 0.0, "is_disabled": 0, "type": "electric_scooter", "lon": -77.06143266666666, "rental_uris": {"android": "https://dc.lft.to/lastmile_qr_scan", "ios": "https://dc.lft.to/lastmile_qr_scan"}, "is_reserved": 0, "bike_id": "05081994e8c13e50f0e90c80f0f87470", "name": "05081994e8c13e50f0e90c80f0f87470"}, {"lat": 38.877003333333334, "fusion_lon": 0.0, "fusion_lat": 0.0, "is_disabled": 0, "type": "electric_scooter", "lon": -77.01658916666666, "rental_uris": {"android": "https://dc.lft.to/lastmile_qr_scan", "ios": "https://dc.lft.to/lastmile_qr_scan"}, "is_reserved": 0, "bike_id": "ee67a465df6feeb55347de4729e165e8", "name": "ee67a465df6feeb55347de4729e165e8"}, {"lat": 38.90388333333333, "fusion_lon": 0.0, "fusion_lat": 0.0, "is_disabled": 0, "type": "electric_scooter", "lon": -77.033624, "rental_uris": {"android": "https://dc.lft.to/lastmile_qr_scan", "ios": "https://dc.lft.to/lastmile_qr_scan"}, "is_reserved": 0, "bike_id": "2d0b80874b1298f129ed23691e59eb6b", "name": "2d0b80874b1298f129ed23691e59eb6b"}, {"lat": 38.91926983333333, "fusion_lon": 0.0, "fusion_lat": 0.0, "is_disabled": 0, "type": "electric_scooter", "lon": -77.03122433333333, "rental_uris": {"android": "https://dc.lft.to/lastmile_qr_scan", "ios": "https://dc.lft.to/lastmile_qr_scan"}, "is_reserved": 0, "bike_id": "920950fc07568efb3adb8642b4b35abe", "name": "920950fc07568efb3adb8642b4b35abe"}, {"lat": 38.90632933333333, "fusion_lon": 0.0, "fusion_lat": 0.0, "is_disabled": 0, "type": "electric_scooter", "lon": -77.03428533333333, "rental_uris": {"android": "https://dc.lft.to/lastmile_qr_scan", "ios": "https://dc.lft.to/lastmile_qr_scan"}, "is_reserved": 0, "bike_id": "a64609574f9089006eb62b9cc5312be3", "name": "a64609574f9089006eb62b9cc5312be3"}, {"lat": 38.900714666666666, "fusion_lon": 0.0, "fusion_lat": 0.0, "is_disabled": 0, "type": "electric_scooter", "lon": -77.00206183333333, "rental_uris": {"android": "https://dc.lft.to/lastmile_qr_scan", "ios": "https://dc.lft.to/lastmile_qr_scan"}, "is_reserved": 0, "bike_id": "5ec1f82a30bc3e093e37aae7aa6ad0e1", "name": "5ec1f82a30bc3e093e37aae7aa6ad0e1"}, {"lat": 38.95616183333333, "fusion_lon": 0.0, "fusion_lat": 0.0, "is_disabled": 0, "type": "electric_scooter", "lon": -77.03615616666667, "rental_uris": {"android": "https://dc.lft.to/lastmile_qr_scan", "ios": "https://dc.lft.to/lastmile_qr_scan"}, "is_reserved": 0, "bike_id": "fc79baf76270915c6d6a14298a7fc2d1", "name": "fc79baf76270915c6d6a14298a7fc2d1"}, {"lat": 38.93857766666667, "fusion_lon": 0.0, "fusion_lat": 0.0, "is_disabled": 0, "type": "electric_scooter", "lon": -77.02477916666666, "rental_uris": {"android": "https://dc.lft.to/lastmile_qr_scan", "ios": "https://dc.lft.to/lastmile_qr_scan"}, "is_reserved": 0, "bike_id": "10155595f27b48055d14bf83550debb7", "name": "10155595f27b48055d14bf83550debb7"}, {"lat": 38.8960575, "fusion_lon": 0.0, "fusion_lat": 0.0, "is_disabled": 0, "type": "electric_scooter", "lon": -76.97819383333334, "rental_uris": {"android": "https://dc.lft.to/lastmile_qr_scan", "ios": "https://dc.lft.to/lastmile_qr_scan"}, "is_reserved": 0, "bike_id": "e3230259f5d336a5731541660f70f219", "name": "e3230259f5d336a5731541660f70f219"}, {"lat": 38.91704216666667, "fusion_lon": 0.0, "fusion_lat": 0.0, "is_disabled": 0, "type": "electric_scooter", "lon": -77.03520683333333, "rental_uris": {"android": "https://dc.lft.to/lastmile_qr_scan", "ios": "https://dc.lft.to/lastmile_qr_scan"}, "is_reserved": 0, "bike_id": "2b09cd182fbaaec47365bcfea289e6a6", "name": "2b09cd182fbaaec47365bcfea289e6a6"}, {"lat": 38.900580166666664, "fusion_lon": 0.0, "fusion_lat": 0.0, "is_disabled": 0, "type": "electric_scooter", "lon": -76.9936885, "rental_uris": {"android": "https://dc.lft.to/lastmile_qr_scan", "ios": "https://dc.lft.to/lastmile_qr_scan"}, "is_reserved": 0, "bike_id": "f1ae675cbfc3496b0b60de6aeae5b459", "name": "f1ae675cbfc3496b0b60de6aeae5b459"}, {"lat": 38.902504, "fusion_lon": 0.0, "fusion_lat": 0.0, "is_disabled": 0, "type": "electric_scooter", "lon": -77.03266016666667, "rental_uris": {"android": "https://dc.lft.to/lastmile_qr_scan", "ios": "https://dc.lft.to/lastmile_qr_scan"}, "is_reserved": 0, "bike_id": "cf45f8d47c9e9b437c1bdd2fe6872984", "name": "cf45f8d47c9e9b437c1bdd2fe6872984"}, {"lat": 38.900029333333336, "fusion_lon": 0.0, "fusion_lat": 0.0, "is_disabled": 0, "type": "electric_scooter", "lon": -77.03189116666667, "rental_uris": {"android": "https://dc.lft.to/lastmile_qr_scan", "ios": "https://dc.lft.to/lastmile_qr_scan"}, "is_reserved": 0, "bike_id": "31f47387a2a4bfb2da57728c817fff42", "name": "31f47387a2a4bfb2da57728c817fff42"}, {"lat": 38.91631866666667, "fusion_lon": 0.0, "fusion_lat": 0.0, "is_disabled": 0, "type": "electric_scooter", "lon": -77.039768, "rental_uris": {"android": "https://dc.lft.to/lastmile_qr_scan", "ios": "https://dc.lft.to/lastmile_qr_scan"}, "is_reserved": 0, "bike_id": "cfb867c2a0e167696a5c80c25b832d24", "name": "cfb867c2a0e167696a5c80c25b832d24"}, {"lat": 38.92884166666666, "fusion_lon": 0.0, "fusion_lat": 0.0, "is_disabled": 0, "type": "electric_scooter", "lon": -77.0331255, "rental_uris": {"android": "https://dc.lft.to/lastmile_qr_scan", "ios": "https://dc.lft.to/lastmile_qr_scan"}, "is_reserved": 0, "bike_id": "e7540a676efba6af56754b7f64f7da62", "name": "e7540a676efba6af56754b7f64f7da62"}, {"lat": 38.93061133333333, "fusion_lon": 0.0, "fusion_lat": 0.0, "is_disabled": 0, "type": "electric_scooter", "lon": -77.02800933333333, "rental_uris": {"android": "https://dc.lft.to/lastmile_qr_scan", "ios": "https://dc.lft.to/lastmile_qr_scan"}, "is_reserved": 0, "bike_id": "3747954d153fd0c8e577658c4b2f6347", "name": "3747954d153fd0c8e577658c4b2f6347"}, {"lat": 38.892213, "fusion_lon": 0.0, "fusion_lat": 0.0, "is_disabled": 0, "type": "electric_scooter", "lon": -77.02775083333333, "rental_uris": {"android": "https://dc.lft.to/lastmile_qr_scan", "ios": "https://dc.lft.to/lastmile_qr_scan"}, "is_reserved": 0, "bike_id": "20a57ee51ecbd0ffcdfb7b89e137c6f8", "name": "20a57ee51ecbd0ffcdfb7b89e137c6f8"}, {"lat": 38.903446, "fusion_lon": 0.0, "fusion_lat": 0.0, "is_disabled": 0, "type": "electric_scooter", "lon": -76.98850666666667, "rental_uris": {"android": "https://dc.lft.to/lastmile_qr_scan", "ios": "https://dc.lft.to/lastmile_qr_scan"}, "is_reserved": 0, "bike_id": "29182eec57cd5dc55e9ed2797018f5ea", "name": "29182eec57cd5dc55e9ed2797018f5ea"}, {"lat": 38.93568783333333, "fusion_lon": 0.0, "fusion_lat": 0.0, "is_disabled": 0, "type": "electric_scooter", "lon": -77.03267016666666, "rental_uris": {"android": "https://dc.lft.to/lastmile_qr_scan", "ios": "https://dc.lft.to/lastmile_qr_scan"}, "is_reserved": 0, "bike_id": "a4c017509c2f624cf821b8f2bfc748bb", "name": "a4c017509c2f624cf821b8f2bfc748bb"}, {"lat": 38.8956735, "fusion_lon": 0.0, "fusion_lat": 0.0, "is_disabled": 0, "type": "electric_bike", "lon": -77.1274065, "rental_uris": {"android": "https://dc.lft.to/lastmile_qr_scan", "ios": "https://dc.lft.to/lastmile_qr_scan"}, "is_reserved": 0, "bike_id": "8e2024d70b3a7818c9564f77ef8b84c0", "name": "8e2024d70b3a7818c9564f77ef8b84c0"}, {"lat": 38.91407733333333, "fusion_lon": 0.0, "fusion_lat": 0.0, "is_disabled": 0, "type": "electric_scooter", "lon": -77.0417725, "rental_uris": {"android": "https://dc.lft.to/lastmile_qr_scan", "ios": "https://dc.lft.to/lastmile_qr_scan"}, "is_reserved": 0, "bike_id": "d871366380a176cd63d9450ca40046f9", "name": "d871366380a176cd63d9450ca40046f9"}, {"lat": 38.8766425, "fusion_lon": 0.0, "fusion_lat": 0.0, "is_disabled": 0, "type": "electric_scooter", "lon": -77.01198833333333, "rental_uris": {"android": "https://dc.lft.to/lastmile_qr_scan", "ios": "https://dc.lft.to/lastmile_qr_scan"}, "is_reserved": 0, "bike_id": "7a593a18bca51d9186360307473bf6fa", "name": "7a593a18bca51d9186360307473bf6fa"}, {"lat": 38.90466466666667, "fusion_lon": 0.0, "fusion_lat": 0.0, "is_disabled": 0, "type": "electric_scooter", "lon": -77.03553433333333, "rental_uris": {"android": "https://dc.lft.to/lastmile_qr_scan", "ios": "https://dc.lft.to/lastmile_qr_scan"}, "is_reserved": 0, "bike_id": "c1d1df6bf7b83657bc79a98a73b965fd", "name": "c1d1df6bf7b83657bc79a98a73b965fd"}, {"lat": 38.922687, "fusion_lon": 0.0, "fusion_lat": 0.0, "is_disabled": 0, "type": "electric_scooter", "lon": -77.02347583333334, "rental_uris": {"android": "https://dc.lft.to/lastmile_qr_scan", "ios": "https://dc.lft.to/lastmile_qr_scan"}, "is_reserved": 0, "bike_id": "dac5dcec48cfa6517e2e07d9f3a73e12", "name": "dac5dcec48cfa6517e2e07d9f3a73e12"}, {"lat": 38.912682, "fusion_lon": 0.0, "fusion_lat": 0.0, "is_disabled": 0, "type": "electric_scooter", "lon": -77.0222045, "rental_uris": {"android": "https://dc.lft.to/lastmile_qr_scan", "ios": "https://dc.lft.to/lastmile_qr_scan"}, "is_reserved": 0, "bike_id": "3349e068c04972bc239c9589aca5018f", "name": "3349e068c04972bc239c9589aca5018f"}, {"lat": 38.90973816666666, "fusion_lon": 0.0, "fusion_lat": 0.0, "is_disabled": 0, "type": "electric_scooter", "lon": -77.03113383333333, "rental_uris": {"android": "https://dc.lft.to/lastmile_qr_scan", "ios": "https://dc.lft.to/lastmile_qr_scan"}, "is_reserved": 0, "bike_id": "0b1785e06a9a1e462b7e6253ab156d92", "name": "0b1785e06a9a1e462b7e6253ab156d92"}, {"lat": 38.92933383333333, "fusion_lon": 0.0, "fusion_lat": 0.0, "is_disabled": 0, "type": "electric_scooter", "lon": -77.03260166666666, "rental_uris": {"android": "https://dc.lft.to/lastmile_qr_scan", "ios": "https://dc.lft.to/lastmile_qr_scan"}, "is_reserved": 0, "bike_id": "52118a23bd3f70c9fd908db881308931", "name": "52118a23bd3f70c9fd908db881308931"}, {"lat": 38.887449, "fusion_lon": 0.0, "fusion_lat": 0.0, "is_disabled": 0, "type": "electric_scooter", "lon": -77.02830733333333, "rental_uris": {"android": "https://dc.lft.to/lastmile_qr_scan", "ios": "https://dc.lft.to/lastmile_qr_scan"}, "is_reserved": 0, "bike_id": "ad063e0e656cacdf04b9ce4902f01064", "name": "ad063e0e656cacdf04b9ce4902f01064"}, {"lat": 38.9366845, "fusion_lon": 0.0, "fusion_lat": 0.0, "is_disabled": 0, "type": "electric_bike", "lon": -76.95206966666667, "rental_uris": {"android": "https://dc.lft.to/lastmile_qr_scan", "ios": "https://dc.lft.to/lastmile_qr_scan"}, "is_reserved": 0, "bike_id": "c11659cf14c3dcc60c6892133c6ad22d", "name": "c11659cf14c3dcc60c6892133c6ad22d"}, {"lat": 38.931505333333334, "fusion_lon": 0.0, "fusion_lat": 0.0, "is_disabled": 0, "type": "electric_scooter", "lon": -77.03625866666667, "rental_uris": {"android": "https://dc.lft.to/lastmile_qr_scan", "ios": "https://dc.lft.to/lastmile_qr_scan"}, "is_reserved": 0, "bike_id": "2083865f3da98cef9232b24320ecbf98", "name": "2083865f3da98cef9232b24320ecbf98"}, {"lat": 38.863563166666665, "fusion_lon": 0.0, "fusion_lat": 0.0, "is_disabled": 0, "type": "electric_scooter", "lon": -76.99093066666667, "rental_uris": {"android": "https://dc.lft.to/lastmile_qr_scan", "ios": "https://dc.lft.to/lastmile_qr_scan"}, "is_reserved": 0, "bike_id": "58ab1949fbba9b5c1b2d6b10ed9105dd", "name": "58ab1949fbba9b5c1b2d6b10ed9105dd"}, {"lat": 38.86709033333333, "fusion_lon": 0.0, "fusion_lat": 0.0, "is_disabled": 0, "type": "electric_scooter", "lon": -76.98729883333333, "rental_uris": {"android": "https://dc.lft.to/lastmile_qr_scan", "ios": "https://dc.lft.to/lastmile_qr_scan"}, "is_reserved": 0, "bike_id": "ffabea447953294c57c8264ac6df81a8", "name": "ffabea447953294c57c8264ac6df81a8"}, {"lat": 38.907232666666665, "fusion_lon": 0.0, "fusion_lat": 0.0, "is_disabled": 0, "type": "electric_scooter", "lon": -77.0319555, "rental_uris": {"android": "https://dc.lft.to/lastmile_qr_scan", "ios": "https://dc.lft.to/lastmile_qr_scan"}, "is_reserved": 0, "bike_id": "9f30d3e0867f71a732713ea37408a66d", "name": "9f30d3e0867f71a732713ea37408a66d"}, {"lat": 38.939794166666665, "fusion_lon": 0.0, "fusion_lat": 0.0, "is_disabled": 0, "type": "electric_scooter", "lon": -77.027084, "rental_uris": {"android": "https://dc.lft.to/lastmile_qr_scan", "ios": "https://dc.lft.to/lastmile_qr_scan"}, "is_reserved": 0, "bike_id": "5738d3ecc86a58283fc1ce504f47877d", "name": "5738d3ecc86a58283fc1ce504f47877d"}, {"lat": 38.903923666666664, "fusion_lon": 0.0, "fusion_lat": 0.0, "is_disabled": 0, "type": "electric_scooter", "lon": -77.04209633333333, "rental_uris": {"android": "https://dc.lft.to/lastmile_qr_scan", "ios": "https://dc.lft.to/lastmile_qr_scan"}, "is_reserved": 0, "bike_id": "ed39521d7d273bd9be3a4a5e8ec2e984", "name": "ed39521d7d273bd9be3a4a5e8ec2e984"}, {"lat": 38.868606666666665, "fusion_lon": 0.0, "fusion_lat": 0.0, "is_disabled": 0, "type": "electric_bike", "lon": -76.91656583333334, "rental_uris": {"android": "https://dc.lft.to/lastmile_qr_scan", "ios": "https://dc.lft.to/lastmile_qr_scan"}, "is_reserved": 0, "bike_id": "a217cb3463db17e25a56fd4591f2bd22", "name": "a217cb3463db17e25a56fd4591f2bd22"}, {"lat": 38.9038735, "fusion_lon": 0.0, "fusion_lat": 0.0, "is_disabled": 0, "type": "electric_scooter", "lon": -77.04371366666666, "rental_uris": {"android": "https://dc.lft.to/lastmile_qr_scan", "ios": "https://dc.lft.to/lastmile_qr_scan"}, "is_reserved": 0, "bike_id": "05903014e9ad9a4a066f13c0ae773000", "name": "05903014e9ad9a4a066f13c0ae773000"}, {"lat": 38.9013555, "fusion_lon": 0.0, "fusion_lat": 0.0, "is_disabled": 0, "type": "electric_scooter", "lon": -77.04723983333334, "rental_uris": {"android": "https://dc.lft.to/lastmile_qr_scan", "ios": "https://dc.lft.to/lastmile_qr_scan"}, "is_reserved": 0, "bike_id": "2fad9c2c811355e5a32ad2c7608ea99b", "name": "2fad9c2c811355e5a32ad2c7608ea99b"}, {"lat": 38.89222083333333, "fusion_lon": 0.0, "fusion_lat": 0.0, "is_disabled": 0, "type": "electric_scooter", "lon": -77.03217766666667, "rental_uris": {"android": "https://dc.lft.to/lastmile_qr_scan", "ios": "https://dc.lft.to/lastmile_qr_scan"}, "is_reserved": 0, "bike_id": "0d9a047c425b8d7cbdd6d49383daa76c", "name": "0d9a047c425b8d7cbdd6d49383daa76c"}, {"lat": 38.925259833333335, "fusion_lon": 0.0, "fusion_lat": 0.0, "is_disabled": 0, "type": "electric_bike", "lon": -77.23277783333333, "rental_uris": {"android": "https://dc.lft.to/lastmile_qr_scan", "ios": "https://dc.lft.to/lastmile_qr_scan"}, "is_reserved": 0, "bike_id": "36bd972f5146e3395cc541e17ffde2ea", "name": "36bd972f5146e3395cc541e17ffde2ea"}, {"lat": 38.89161716666667, "fusion_lon": 0.0, "fusion_lat": 0.0, "is_disabled": 0, "type": "electric_scooter", "lon": -76.954096, "rental_uris": {"android": "https://dc.lft.to/lastmile_qr_scan", "ios": "https://dc.lft.to/lastmile_qr_scan"}, "is_reserved": 0, "bike_id": "e630ae1c58396cfa578a6ddabe88496a", "name": "e630ae1c58396cfa578a6ddabe88496a"}, {"lat": 38.91305116666667, "fusion_lon": 0.0, "fusion_lat": 0.0, "is_disabled": 0, "type": "electric_scooter", "lon": -77.04015616666666, "rental_uris": {"android": "https://dc.lft.to/lastmile_qr_scan", "ios": "https://dc.lft.to/lastmile_qr_scan"}, "is_reserved": 0, "bike_id": "c7665e5e7def4569b55173e4aec29e17", "name": "c7665e5e7def4569b55173e4aec29e17"}, {"lat": 38.900717666666665, "fusion_lon": 0.0, "fusion_lat": 0.0, "is_disabled": 0, "type": "electric_bike", "lon": -77.05048133333334, "rental_uris": {"android": "https://dc.lft.to/lastmile_qr_scan", "ios": "https://dc.lft.to/lastmile_qr_scan"}, "is_reserved": 0, "bike_id": "7922c885f9ce911965aa077b6dc809a0", "name": "7922c885f9ce911965aa077b6dc809a0"}, {"lat": 38.89732933333333, "fusion_lon": 0.0, "fusion_lat": 0.0, "is_disabled": 0, "type": "electric_bike", "lon": -77.12270116666667, "rental_uris": {"android": "https://dc.lft.to/lastmile_qr_scan", "ios": "https://dc.lft.to/lastmile_qr_scan"}, "is_reserved": 0, "bike_id": "166fa366b5643baa6079b918f8a99d83", "name": "166fa366b5643baa6079b918f8a99d83"}, {"lat": 38.91102983333333, "fusion_lon": 0.0, "fusion_lat": 0.0, "is_disabled": 0, "type": "electric_scooter", "lon": -77.07350683333334, "rental_uris": {"android": "https://dc.lft.to/lastmile_qr_scan", "ios": "https://dc.lft.to/lastmile_qr_scan"}, "is_reserved": 0, "bike_id": "c42bc788dcbd799f4d244d2a297e035c", "name": "c42bc788dcbd799f4d244d2a297e035c"}, {"lat": 38.855572333333335, "fusion_lon": 0.0, "fusion_lat": 0.0, "is_disabled": 0, "type": "electric_bike", "lon": -77.10714683333333, "rental_uris": {"android": "https://dc.lft.to/lastmile_qr_scan", "ios": "https://dc.lft.to/lastmile_qr_scan"}, "is_reserved": 0, "bike_id": "642578d50126c0fa852beccb946d513d", "name": "642578d50126c0fa852beccb946d513d"}, {"lat": 38.9263215, "fusion_lon": 0.0, "fusion_lat": 0.0, "is_disabled": 0, "type": "electric_scooter", "lon": -77.03785266666667, "rental_uris": {"android": "https://dc.lft.to/lastmile_qr_scan", "ios": "https://dc.lft.to/lastmile_qr_scan"}, "is_reserved": 0, "bike_id": "8031f9fa0d97a941e2e2d65099f5625e", "name": "8031f9fa0d97a941e2e2d65099f5625e"}, {"lat": 38.89836233333333, "fusion_lon": 0.0, "fusion_lat": 0.0, "is_disabled": 0, "type": "electric_scooter", "lon": -77.04832133333333, "rental_uris": {"android": "https://dc.lft.to/lastmile_qr_scan", "ios": "https://dc.lft.to/lastmile_qr_scan"}, "is_reserved": 0, "bike_id": "110fe8529711dbc33594c41a181319cd", "name": "110fe8529711dbc33594c41a181319cd"}, {"lat": 38.893545833333334, "fusion_lon": 0.0, "fusion_lat": 0.0, "is_disabled": 0, "type": "electric_scooter", "lon": -77.0033455, "rental_uris": {"android": "https://dc.lft.to/lastmile_qr_scan", "ios": "https://dc.lft.to/lastmile_qr_scan"}, "is_reserved": 0, "bike_id": "d6d8ba82081f2911677786d1e626341e", "name": "d6d8ba82081f2911677786d1e626341e"}, {"lat": 38.905783666666665, "fusion_lon": 0.0, "fusion_lat": 0.0, "is_disabled": 0, "type": "electric_scooter", "lon": -77.02162416666667, "rental_uris": {"android": "https://dc.lft.to/lastmile_qr_scan", "ios": "https://dc.lft.to/lastmile_qr_scan"}, "is_reserved": 0, "bike_id": "e85d9097266eb6a1eb3125b9f43aabd6", "name": "e85d9097266eb6a1eb3125b9f43aabd6"}, {"lat": 38.90028483333333, "fusion_lon": 0.0, "fusion_lat": 0.0, "is_disabled": 0, "type": "electric_scooter", "lon": -76.98778316666667, "rental_uris": {"android": "https://dc.lft.to/lastmile_qr_scan", "ios": "https://dc.lft.to/lastmile_qr_scan"}, "is_reserved": 0, "bike_id": "1ed8e4562cab27d6bfbaf5cee9306ce0", "name": "1ed8e4562cab27d6bfbaf5cee9306ce0"}, {"lat": 38.992272, "fusion_lon": 0.0, "fusion_lat": 0.0, "is_disabled": 0, "type": "electric_bike", "lon": -76.87775783333333, "rental_uris": {"android": "https://dc.lft.to/lastmile_qr_scan", "ios": "https://dc.lft.to/lastmile_qr_scan"}, "is_reserved": 0, "bike_id": "2ec23beb55b33376abbf82af14ae85f6", "name": "2ec23beb55b33376abbf82af14ae85f6"}, {"lat": 38.9758425, "fusion_lon": 0.0, "fusion_lat": 0.0, "is_disabled": 0, "type": "electric_bike", "lon": -76.96384833333333, "rental_uris": {"android": "https://dc.lft.to/lastmile_qr_scan", "ios": "https://dc.lft.to/lastmile_qr_scan"}, "is_reserved": 0, "bike_id": "5b73fd1b4094039b7d672223af51444e", "name": "5b73fd1b4094039b7d672223af51444e"}, {"lat": 38.900280333333335, "fusion_lon": 0.0, "fusion_lat": 0.0, "is_disabled": 0, "type": "electric_scooter", "lon": -76.98780233333333, "rental_uris": {"android": "https://dc.lft.to/lastmile_qr_scan", "ios": "https://dc.lft.to/lastmile_qr_scan"}, "is_reserved": 0, "bike_id": "3ff36b5495d14ddc8777cc158fcc2c51", "name": "3ff36b5495d14ddc8777cc158fcc2c51"}, {"lat": 38.90964316666667, "fusion_lon": 0.0, "fusion_lat": 0.0, "is_disabled": 0, "type": "electric_scooter", "lon": -77.03372283333333, "rental_uris": {"android": "https://dc.lft.to/lastmile_qr_scan", "ios": "https://dc.lft.to/lastmile_qr_scan"}, "is_reserved": 0, "bike_id": "79f8ef78a6cf033a2598faa043f05074", "name": "79f8ef78a6cf033a2598faa043f05074"}, {"lat": 38.898216166666664, "fusion_lon": 0.0, "fusion_lat": 0.0, "is_disabled": 0, "type": "electric_scooter", "lon": -77.0280095, "rental_uris": {"android": "https://dc.lft.to/lastmile_qr_scan", "ios": "https://dc.lft.to/lastmile_qr_scan"}, "is_reserved": 0, "bike_id": "65e241f212fe6c15df1943d279f8bd6c", "name": "65e241f212fe6c15df1943d279f8bd6c"}, {"lat": 38.88957666666667, "fusion_lon": 0.0, "fusion_lat": 0.0, "is_disabled": 0, "type": "electric_bike", "lon": -76.94873633333333, "rental_uris": {"android": "https://dc.lft.to/lastmile_qr_scan", "ios": "https://dc.lft.to/lastmile_qr_scan"}, "is_reserved": 0, "bike_id": "16e371c70e9da3577a032aa965bd9b37", "name": "16e371c70e9da3577a032aa965bd9b37"}, {"lat": 38.862664333333335, "fusion_lon": 0.0, "fusion_lat": 0.0, "is_disabled": 0, "type": "electric_bike", "lon": -76.9946835, "rental_uris": {"android": "https://dc.lft.to/lastmile_qr_scan", "ios": "https://dc.lft.to/lastmile_qr_scan"}, "is_reserved": 0, "bike_id": "888e5a0906fbceb5787bdc489da26fcf", "name": "888e5a0906fbceb5787bdc489da26fcf"}, {"lat": 38.9199225, "fusion_lon": 0.0, "fusion_lat": 0.0, "is_disabled": 0, "type": "electric_bike", "lon": -76.98529533333334, "rental_uris": {"android": "https://dc.lft.to/lastmile_qr_scan", "ios": "https://dc.lft.to/lastmile_qr_scan"}, "is_reserved": 0, "bike_id": "e1cd76d9df939b9ac223e30eb752b913", "name": "e1cd76d9df939b9ac223e30eb752b913"}, {"lat": 38.9027395, "fusion_lon": 0.0, "fusion_lat": 0.0, "is_disabled": 0, "type": "electric_scooter", "lon": -77.03657883333334, "rental_uris": {"android": "https://dc.lft.to/lastmile_qr_scan", "ios": "https://dc.lft.to/lastmile_qr_scan"}, "is_reserved": 0, "bike_id": "9b30512450d25f555aa9d24d276329f1", "name": "9b30512450d25f555aa9d24d276329f1"}, {"lat": 38.89238433333333, "fusion_lon": 0.0, "fusion_lat": 0.0, "is_disabled": 0, "type": "electric_scooter", "lon": -77.04354983333333, "rental_uris": {"android": "https://dc.lft.to/lastmile_qr_scan", "ios": "https://dc.lft.to/lastmile_qr_scan"}, "is_reserved": 0, "bike_id": "cd438ce8b539bcc313a9d9ced6a8723d", "name": "cd438ce8b539bcc313a9d9ced6a8723d"}, {"lat": 38.916082, "fusion_lon": 0.0, "fusion_lat": 0.0, "is_disabled": 0, "type": "electric_scooter", "lon": -77.0228045, "rental_uris": {"android": "https://dc.lft.to/lastmile_qr_scan", "ios": "https://dc.lft.to/lastmile_qr_scan"}, "is_reserved": 0, "bike_id": "96bba5d51b475bd7b4c21ea29805a0e9", "name": "96bba5d51b475bd7b4c21ea29805a0e9"}, {"lat": 38.885048166666664, "fusion_lon": 0.0, "fusion_lat": 0.0, "is_disabled": 0, "type": "electric_scooter", "lon": -77.00565266666666, "rental_uris": {"android": "https://dc.lft.to/lastmile_qr_scan", "ios": "https://dc.lft.to/lastmile_qr_scan"}, "is_reserved": 0, "bike_id": "534f5239637a18ac6126e72e94dd61aa", "name": "534f5239637a18ac6126e72e94dd61aa"}, {"lat": 38.89824433333333, "fusion_lon": 0.0, "fusion_lat": 0.0, "is_disabled": 0, "type": "electric_scooter", "lon": -77.02624466666667, "rental_uris": {"android": "https://dc.lft.to/lastmile_qr_scan", "ios": "https://dc.lft.to/lastmile_qr_scan"}, "is_reserved": 0, "bike_id": "d289047f3b003294f904395fc4c99d4b", "name": "d289047f3b003294f904395fc4c99d4b"}, {"lat": 38.9000835, "fusion_lon": 0.0, "fusion_lat": 0.0, "is_disabled": 0, "type": "electric_scooter", "lon": -77.02613383333333, "rental_uris": {"android": "https://dc.lft.to/lastmile_qr_scan", "ios": "https://dc.lft.to/lastmile_qr_scan"}, "is_reserved": 0, "bike_id": "20091f09e51c8187d9fca6219e7bf85e", "name": "20091f09e51c8187d9fca6219e7bf85e"}, {"lat": 38.900610666666665, "fusion_lon": 0.0, "fusion_lat": 0.0, "is_disabled": 0, "type": "electric_bike", "lon": -77.04652833333333, "rental_uris": {"android": "https://dc.lft.to/lastmile_qr_scan", "ios": "https://dc.lft.to/lastmile_qr_scan"}, "is_reserved": 0, "bike_id": "2973ad1ac12526b96ec5f5e615387bb6", "name": "2973ad1ac12526b96ec5f5e615387bb6"}, {"lat": 38.919537, "fusion_lon": 0.0, "fusion_lat": 0.0, "is_disabled": 0, "type": "electric_scooter", "lon": -77.0178605, "rental_uris": {"android": "https://dc.lft.to/lastmile_qr_scan", "ios": "https://dc.lft.to/lastmile_qr_scan"}, "is_reserved": 0, "bike_id": "06bd118bb17560fda4ec493dc843eede", "name": "06bd118bb17560fda4ec493dc843eede"}, {"lat": 38.9508635, "fusion_lon": 0.0, "fusion_lat": 0.0, "is_disabled": 0, "type": "electric_scooter", "lon": -77.028203, "rental_uris": {"android": "https://dc.lft.to/lastmile_qr_scan", "ios": "https://dc.lft.to/lastmile_qr_scan"}, "is_reserved": 0, "bike_id": "2edbcfeae412fd75e8720ed8b7995971", "name": "2edbcfeae412fd75e8720ed8b7995971"}, {"lat": 38.903765, "fusion_lon": 0.0, "fusion_lat": 0.0, "is_disabled": 0, "type": "electric_scooter", "lon": -77.00268833333334, "rental_uris": {"android": "https://dc.lft.to/lastmile_qr_scan", "ios": "https://dc.lft.to/lastmile_qr_scan"}, "is_reserved": 0, "bike_id": "88f3e92893dce690eb41e582ae7554de", "name": "88f3e92893dce690eb41e582ae7554de"}, {"lat": 38.87935866666667, "fusion_lon": 0.0, "fusion_lat": 0.0, "is_disabled": 0, "type": "electric_scooter", "lon": -77.004129, "rental_uris": {"android": "https://dc.lft.to/lastmile_qr_scan", "ios": "https://dc.lft.to/lastmile_qr_scan"}, "is_reserved": 0, "bike_id": "c17373e8bbf3c0e84107a1a1a109a33e", "name": "c17373e8bbf3c0e84107a1a1a109a33e"}, {"lat": 38.86378833333333, "fusion_lon": 0.0, "fusion_lat": 0.0, "is_disabled": 0, "type": "electric_bike", "lon": -77.12903066666667, "rental_uris": {"android": "https://dc.lft.to/lastmile_qr_scan", "ios": "https://dc.lft.to/lastmile_qr_scan"}, "is_reserved": 0, "bike_id": "ed31f57d09829f2d21f5c76b2c4631e6", "name": "ed31f57d09829f2d21f5c76b2c4631e6"}, {"lat": 38.90980033333334, "fusion_lon": 0.0, "fusion_lat": 0.0, "is_disabled": 0, "type": "electric_scooter", "lon": -77.0426435, "rental_uris": {"android": "https://dc.lft.to/lastmile_qr_scan", "ios": "https://dc.lft.to/lastmile_qr_scan"}, "is_reserved": 0, "bike_id": "a0b1f8502dc5702642b5337f92626a27", "name": "a0b1f8502dc5702642b5337f92626a27"}, {"lat": 38.88534, "fusion_lon": 0.0, "fusion_lat": 0.0, "is_disabled": 0, "type": "electric_scooter", "lon": -77.00580983333333, "rental_uris": {"android": "https://dc.lft.to/lastmile_qr_scan", "ios": "https://dc.lft.to/lastmile_qr_scan"}, "is_reserved": 0, "bike_id": "b2607ad6fa36f9c8a238d7cda478a056", "name": "b2607ad6fa36f9c8a238d7cda478a056"}, {"lat": 38.94279016666667, "fusion_lon": 0.0, "fusion_lat": 0.0, "is_disabled": 0, "type": "electric_scooter", "lon": -77.02934166666667, "rental_uris": {"android": "https://dc.lft.to/lastmile_qr_scan", "ios": "https://dc.lft.to/lastmile_qr_scan"}, "is_reserved": 0, "bike_id": "67ae36164b5519bdb55d25699b8edc6d", "name": "67ae36164b5519bdb55d25699b8edc6d"}, {"lat": 38.8921915, "fusion_lon": 0.0, "fusion_lat": 0.0, "is_disabled": 0, "type": "electric_scooter", "lon": -77.03217483333333, "rental_uris": {"android": "https://dc.lft.to/lastmile_qr_scan", "ios": "https://dc.lft.to/lastmile_qr_scan"}, "is_reserved": 0, "bike_id": "15e5d1bd2bd4a100d5db7d592f9807a0", "name": "15e5d1bd2bd4a100d5db7d592f9807a0"}, {"lat": 38.9109775, "fusion_lon": 0.0, "fusion_lat": 0.0, "is_disabled": 0, "type": "electric_scooter", "lon": -77.0744615, "rental_uris": {"android": "https://dc.lft.to/lastmile_qr_scan", "ios": "https://dc.lft.to/lastmile_qr_scan"}, "is_reserved": 0, "bike_id": "5cfc0ce0347d2586cca370e24d51eff1", "name": "5cfc0ce0347d2586cca370e24d51eff1"}, {"lat": 38.9052515, "fusion_lon": 0.0, "fusion_lat": 0.0, "is_disabled": 0, "type": "electric_scooter", "lon": -77.050946, "rental_uris": {"android": "https://dc.lft.to/lastmile_qr_scan", "ios": "https://dc.lft.to/lastmile_qr_scan"}, "is_reserved": 0, "bike_id": "d27ccd2d7aa90d3c7e77b9c6b771aed8", "name": "d27ccd2d7aa90d3c7e77b9c6b771aed8"}, {"lat": 38.909175833333336, "fusion_lon": 0.0, "fusion_lat": 0.0, "is_disabled": 0, "type": "electric_scooter", "lon": -77.0398485, "rental_uris": {"android": "https://dc.lft.to/lastmile_qr_scan", "ios": "https://dc.lft.to/lastmile_qr_scan"}, "is_reserved": 0, "bike_id": "7387e1fcc671ca50a56ac00868396f98", "name": "7387e1fcc671ca50a56ac00868396f98"}, {"lat": 38.88452783333334, "fusion_lon": 0.0, "fusion_lat": 0.0, "is_disabled": 0, "type": "electric_scooter", "lon": -76.99391, "rental_uris": {"android": "https://dc.lft.to/lastmile_qr_scan", "ios": "https://dc.lft.to/lastmile_qr_scan"}, "is_reserved": 0, "bike_id": "1f1cd7fa4ed3a7b01456fe3fcac00593", "name": "1f1cd7fa4ed3a7b01456fe3fcac00593"}, {"lat": 38.924258, "fusion_lon": 0.0, "fusion_lat": 0.0, "is_disabled": 0, "type": "electric_scooter", "lon": -77.0404445, "rental_uris": {"android": "https://dc.lft.to/lastmile_qr_scan", "ios": "https://dc.lft.to/lastmile_qr_scan"}, "is_reserved": 0, "bike_id": "ae562cab2163970677f2a83facfeeaff", "name": "ae562cab2163970677f2a83facfeeaff"}, {"lat": 38.895548166666664, "fusion_lon": 0.0, "fusion_lat": 0.0, "is_disabled": 0, "type": "electric_scooter", "lon": -77.0467355, "rental_uris": {"android": "https://dc.lft.to/lastmile_qr_scan", "ios": "https://dc.lft.to/lastmile_qr_scan"}, "is_reserved": 0, "bike_id": "3e312636be1f72d0ec0d2628e1783488", "name": "3e312636be1f72d0ec0d2628e1783488"}, {"lat": 38.93665883333333, "fusion_lon": 0.0, "fusion_lat": 0.0, "is_disabled": 0, "type": "electric_scooter", "lon": -77.03265066666667, "rental_uris": {"android": "https://dc.lft.to/lastmile_qr_scan", "ios": "https://dc.lft.to/lastmile_qr_scan"}, "is_reserved": 0, "bike_id": "5f3890b51e884ba0121c41ae2b1d0e3f", "name": "5f3890b51e884ba0121c41ae2b1d0e3f"}, {"lat": 38.9056975, "fusion_lon": 0.0, "fusion_lat": 0.0, "is_disabled": 0, "type": "electric_scooter", "lon": -77.046672, "rental_uris": {"android": "https://dc.lft.to/lastmile_qr_scan", "ios": "https://dc.lft.to/lastmile_qr_scan"}, "is_reserved": 0, "bike_id": "65ff9a5e7e440d3a8da4bc8fe9fb483d", "name": "65ff9a5e7e440d3a8da4bc8fe9fb483d"}, {"lat": 38.939307166666666, "fusion_lon": 0.0, "fusion_lat": 0.0, "is_disabled": 0, "type": "electric_scooter", "lon": -77.06035633333333, "rental_uris": {"android": "https://dc.lft.to/lastmile_qr_scan", "ios": "https://dc.lft.to/lastmile_qr_scan"}, "is_reserved": 0, "bike_id": "5952dd8d5829bc02f31dfc272495c203", "name": "5952dd8d5829bc02f31dfc272495c203"}, {"lat": 38.8974445, "fusion_lon": 0.0, "fusion_lat": 0.0, "is_disabled": 0, "type": "electric_scooter", "lon": -77.02985566666666, "rental_uris": {"android": "https://dc.lft.to/lastmile_qr_scan", "ios": "https://dc.lft.to/lastmile_qr_scan"}, "is_reserved": 0, "bike_id": "e6526ba75507868477f7bacc9f2cded6", "name": "e6526ba75507868477f7bacc9f2cded6"}, {"lat": 39.02294916666666, "fusion_lon": 0.0, "fusion_lat": 0.0, "is_disabled": 0, "type": "electric_bike", "lon": -77.0210845, "rental_uris": {"android": "https://dc.lft.to/lastmile_qr_scan", "ios": "https://dc.lft.to/lastmile_qr_scan"}, "is_reserved": 0, "bike_id": "2e5c922f498271bc0b21430643f73336", "name": "2e5c922f498271bc0b21430643f73336"}, {"lat": 38.89854, "fusion_lon": 0.0, "fusion_lat": 0.0, "is_disabled": 0, "type": "electric_scooter", "lon": -77.0330595, "rental_uris": {"android": "https://dc.lft.to/lastmile_qr_scan", "ios": "https://dc.lft.to/lastmile_qr_scan"}, "is_reserved": 0, "bike_id": "bacaac77a3ab64d9480889e95314ccc2", "name": "bacaac77a3ab64d9480889e95314ccc2"}, {"lat": 38.880222333333336, "fusion_lon": 0.0, "fusion_lat": 0.0, "is_disabled": 0, "type": "electric_scooter", "lon": -76.98827066666666, "rental_uris": {"android": "https://dc.lft.to/lastmile_qr_scan", "ios": "https://dc.lft.to/lastmile_qr_scan"}, "is_reserved": 0, "bike_id": "869d9a9e748c3b0ae1a19d778d815736", "name": "869d9a9e748c3b0ae1a19d778d815736"}, {"lat": 38.892213, "fusion_lon": 0.0, "fusion_lat": 0.0, "is_disabled": 0, "type": "electric_scooter", "lon": -77.0419965, "rental_uris": {"android": "https://dc.lft.to/lastmile_qr_scan", "ios": "https://dc.lft.to/lastmile_qr_scan"}, "is_reserved": 0, "bike_id": "0a6f5bd8499f6bf6a0d9c38c8ec880b2", "name": "0a6f5bd8499f6bf6a0d9c38c8ec880b2"}, {"lat": 38.88107566666667, "fusion_lon": 0.0, "fusion_lat": 0.0, "is_disabled": 0, "type": "electric_scooter", "lon": -77.02640883333333, "rental_uris": {"android": "https://dc.lft.to/lastmile_qr_scan", "ios": "https://dc.lft.to/lastmile_qr_scan"}, "is_reserved": 0, "bike_id": "a7dd1a41edd27fe254aee8d4c76653dc", "name": "a7dd1a41edd27fe254aee8d4c76653dc"}, {"lat": 38.86369633333333, "fusion_lon": 0.0, "fusion_lat": 0.0, "is_disabled": 0, "type": "electric_scooter", "lon": -76.9746115, "rental_uris": {"android": "https://dc.lft.to/lastmile_qr_scan", "ios": "https://dc.lft.to/lastmile_qr_scan"}, "is_reserved": 0, "bike_id": "83db2dd50d51c480bdb165ab4dec9d2b", "name": "83db2dd50d51c480bdb165ab4dec9d2b"}, {"lat": 38.92044633333333, "fusion_lon": 0.0, "fusion_lat": 0.0, "is_disabled": 0, "type": "electric_scooter", "lon": -77.04189166666667, "rental_uris": {"android": "https://dc.lft.to/lastmile_qr_scan", "ios": "https://dc.lft.to/lastmile_qr_scan"}, "is_reserved": 0, "bike_id": "fa604d200ad5d457fc5efc53b69c3db3", "name": "fa604d200ad5d457fc5efc53b69c3db3"}, {"lat": 38.902862999999996, "fusion_lon": 0.0, "fusion_lat": 0.0, "is_disabled": 0, "type": "electric_scooter", "lon": -77.0347555, "rental_uris": {"android": "https://dc.lft.to/lastmile_qr_scan", "ios": "https://dc.lft.to/lastmile_qr_scan"}, "is_reserved": 0, "bike_id": "cec29d22982e08bfd8f39126234b746e", "name": "cec29d22982e08bfd8f39126234b746e"}, {"lat": 38.9110785, "fusion_lon": 0.0, "fusion_lat": 0.0, "is_disabled": 0, "type": "electric_scooter", "lon": -77.04229033333333, "rental_uris": {"android": "https://dc.lft.to/lastmile_qr_scan", "ios": "https://dc.lft.to/lastmile_qr_scan"}, "is_reserved": 0, "bike_id": "fee490f1899f61fd47f928164e808dc6", "name": "fee490f1899f61fd47f928164e808dc6"}, {"lat": 38.9056665, "fusion_lon": 0.0, "fusion_lat": 0.0, "is_disabled": 0, "type": "electric_scooter", "lon": -77.00586266666667, "rental_uris": {"android": "https://dc.lft.to/lastmile_qr_scan", "ios": "https://dc.lft.to/lastmile_qr_scan"}, "is_reserved": 0, "bike_id": "38bd5e1024d8479a85d01e90c9d3b26e", "name": "38bd5e1024d8479a85d01e90c9d3b26e"}, {"lat": 38.926093, "fusion_lon": 0.0, "fusion_lat": 0.0, "is_disabled": 0, "type": "electric_scooter", "lon": -77.021616, "rental_uris": {"android": "https://dc.lft.to/lastmile_qr_scan", "ios": "https://dc.lft.to/lastmile_qr_scan"}, "is_reserved": 0, "bike_id": "9301629a3973502926f60270206616f2", "name": "9301629a3973502926f60270206616f2"}, {"lat": 38.90483566666666, "fusion_lon": 0.0, "fusion_lat": 0.0, "is_disabled": 0, "type": "electric_scooter", "lon": -77.00725683333333, "rental_uris": {"android": "https://dc.lft.to/lastmile_qr_scan", "ios": "https://dc.lft.to/lastmile_qr_scan"}, "is_reserved": 0, "bike_id": "557a8d25756997cf23665b91d72c0caa", "name": "557a8d25756997cf23665b91d72c0caa"}, {"lat": 38.939418833333335, "fusion_lon": 0.0, "fusion_lat": 0.0, "is_disabled": 0, "type": "electric_scooter", "lon": -77.0601315, "rental_uris": {"android": "https://dc.lft.to/lastmile_qr_scan", "ios": "https://dc.lft.to/lastmile_qr_scan"}, "is_reserved": 0, "bike_id": "75d1012c54dfb09db2d0185e6b24b210", "name": "75d1012c54dfb09db2d0185e6b24b210"}, {"lat": 38.88449633333333, "fusion_lon": 0.0, "fusion_lat": 0.0, "is_disabled": 0, "type": "electric_scooter", "lon": -76.99608183333333, "rental_uris": {"android": "https://dc.lft.to/lastmile_qr_scan", "ios": "https://dc.lft.to/lastmile_qr_scan"}, "is_reserved": 0, "bike_id": "eb963ec37a0b1af89aa79d6f61058ea4", "name": "eb963ec37a0b1af89aa79d6f61058ea4"}, {"lat": 38.892301833333335, "fusion_lon": 0.0, "fusion_lat": 0.0, "is_disabled": 0, "type": "electric_scooter", "lon": -77.02829483333333, "rental_uris": {"android": "https://dc.lft.to/lastmile_qr_scan", "ios": "https://dc.lft.to/lastmile_qr_scan"}, "is_reserved": 0, "bike_id": "2870e55510405ce30241694a5c1dbcf4", "name": "2870e55510405ce30241694a5c1dbcf4"}, {"lat": 38.90794283333334, "fusion_lon": 0.0, "fusion_lat": 0.0, "is_disabled": 0, "type": "electric_scooter", "lon": -76.94120966666667, "rental_uris": {"android": "https://dc.lft.to/lastmile_qr_scan", "ios": "https://dc.lft.to/lastmile_qr_scan"}, "is_reserved": 0, "bike_id": "abfdc304b78ef560b6745d983645b77f", "name": "abfdc304b78ef560b6745d983645b77f"}, {"lat": 38.92907816666666, "fusion_lon": 0.0, "fusion_lat": 0.0, "is_disabled": 0, "type": "electric_scooter", "lon": -77.06395916666666, "rental_uris": {"android": "https://dc.lft.to/lastmile_qr_scan", "ios": "https://dc.lft.to/lastmile_qr_scan"}, "is_reserved": 0, "bike_id": "0db80a613df68c2b25fbe485056e162b", "name": "0db80a613df68c2b25fbe485056e162b"}, {"lat": 38.90872516666667, "fusion_lon": 0.0, "fusion_lat": 0.0, "is_disabled": 0, "type": "electric_scooter", "lon": -77.02301616666666, "rental_uris": {"android": "https://dc.lft.to/lastmile_qr_scan", "ios": "https://dc.lft.to/lastmile_qr_scan"}, "is_reserved": 0, "bike_id": "c38459350cb1922e8fb8c23b2806322b", "name": "c38459350cb1922e8fb8c23b2806322b"}, {"lat": 38.91704, "fusion_lon": 0.0, "fusion_lat": 0.0, "is_disabled": 0, "type": "electric_scooter", "lon": -77.02940666666667, "rental_uris": {"android": "https://dc.lft.to/lastmile_qr_scan", "ios": "https://dc.lft.to/lastmile_qr_scan"}, "is_reserved": 0, "bike_id": "a65c1af8775b8dda0632782648dbf45a", "name": "a65c1af8775b8dda0632782648dbf45a"}, {"lat": 38.9052495, "fusion_lon": 0.0, "fusion_lat": 0.0, "is_disabled": 0, "type": "electric_scooter", "lon": -77.05006566666667, "rental_uris": {"android": "https://dc.lft.to/lastmile_qr_scan", "ios": "https://dc.lft.to/lastmile_qr_scan"}, "is_reserved": 0, "bike_id": "1124af07654875bc96bfb013c86c3c4b", "name": "1124af07654875bc96bfb013c86c3c4b"}, {"lat": 38.90436783333333, "fusion_lon": 0.0, "fusion_lat": 0.0, "is_disabled": 0, "type": "electric_scooter", "lon": -77.05152166666667, "rental_uris": {"android": "https://dc.lft.to/lastmile_qr_scan", "ios": "https://dc.lft.to/lastmile_qr_scan"}, "is_reserved": 0, "bike_id": "f7030829a1ec5d0d5e7b953ace2d4bd9", "name": "f7030829a1ec5d0d5e7b953ace2d4bd9"}, {"lat": 38.962253, "fusion_lon": 0.0, "fusion_lat": 0.0, "is_disabled": 0, "type": "electric_scooter", "lon": -77.02975866666667, "rental_uris": {"android": "https://dc.lft.to/lastmile_qr_scan", "ios": "https://dc.lft.to/lastmile_qr_scan"}, "is_reserved": 0, "bike_id": "bd0aaeb7841bf800ebb746cb3c328165", "name": "bd0aaeb7841bf800ebb746cb3c328165"}, {"lat": 38.90382, "fusion_lon": 0.0, "fusion_lat": 0.0, "is_disabled": 0, "type": "electric_scooter", "lon": -77.03489783333333, "rental_uris": {"android": "https://dc.lft.to/lastmile_qr_scan", "ios": "https://dc.lft.to/lastmile_qr_scan"}, "is_reserved": 0, "bike_id": "08de47f45aa6e34fbfa8e7dbea1a340c", "name": "08de47f45aa6e34fbfa8e7dbea1a340c"}, {"lat": 38.936801, "fusion_lon": 0.0, "fusion_lat": 0.0, "is_disabled": 0, "type": "electric_scooter", "lon": -77.0362375, "rental_uris": {"android": "https://dc.lft.to/lastmile_qr_scan", "ios": "https://dc.lft.to/lastmile_qr_scan"}, "is_reserved": 0, "bike_id": "bea0a330d952d0f5d04b31058cddd9e2", "name": "bea0a330d952d0f5d04b31058cddd9e2"}, {"lat": 38.904114, "fusion_lon": 0.0, "fusion_lat": 0.0, "is_disabled": 0, "type": "electric_scooter", "lon": -77.0013665, "rental_uris": {"android": "https://dc.lft.to/lastmile_qr_scan", "ios": "https://dc.lft.to/lastmile_qr_scan"}, "is_reserved": 0, "bike_id": "ea2356f3a693fdd92f3bad3dfe27ebcf", "name": "ea2356f3a693fdd92f3bad3dfe27ebcf"}, {"lat": 38.901965, "fusion_lon": 0.0, "fusion_lat": 0.0, "is_disabled": 0, "type": "electric_scooter", "lon": -77.021807, "rental_uris": {"android": "https://dc.lft.to/lastmile_qr_scan", "ios": "https://dc.lft.to/lastmile_qr_scan"}, "is_reserved": 0, "bike_id": "9879e85e67ce6f677b22d5b9b222194d", "name": "9879e85e67ce6f677b22d5b9b222194d"}, {"lat": 38.8769805, "fusion_lon": 0.0, "fusion_lat": 0.0, "is_disabled": 0, "type": "electric_scooter", "lon": -77.00588633333334, "rental_uris": {"android": "https://dc.lft.to/lastmile_qr_scan", "ios": "https://dc.lft.to/lastmile_qr_scan"}, "is_reserved": 0, "bike_id": "c2774919eb43a12b13e57cdcf1edc78b", "name": "c2774919eb43a12b13e57cdcf1edc78b"}, {"lat": 38.90377483333333, "fusion_lon": 0.0, "fusion_lat": 0.0, "is_disabled": 0, "type": "electric_scooter", "lon": -77.04468866666667, "rental_uris": {"android": "https://dc.lft.to/lastmile_qr_scan", "ios": "https://dc.lft.to/lastmile_qr_scan"}, "is_reserved": 0, "bike_id": "f59e556c1e95336d40382df8fe7c6baa", "name": "f59e556c1e95336d40382df8fe7c6baa"}, {"lat": 38.85206516666667, "fusion_lon": 0.0, "fusion_lat": 0.0, "is_disabled": 0, "type": "electric_bike", "lon": -77.101274, "rental_uris": {"android": "https://dc.lft.to/lastmile_qr_scan", "ios": "https://dc.lft.to/lastmile_qr_scan"}, "is_reserved": 0, "bike_id": "db2df2c122bd114af041ca4506fc64b5", "name": "db2df2c122bd114af041ca4506fc64b5"}, {"lat": 38.86218683333333, "fusion_lon": 0.0, "fusion_lat": 0.0, "is_disabled": 0, "type": "electric_scooter", "lon": -76.994939, "rental_uris": {"android": "https://dc.lft.to/lastmile_qr_scan", "ios": "https://dc.lft.to/lastmile_qr_scan"}, "is_reserved": 0, "bike_id": "7b54bbf00f644e62e9e9820eff0f5994", "name": "7b54bbf00f644e62e9e9820eff0f5994"}, {"lat": 38.93121766666667, "fusion_lon": 0.0, "fusion_lat": 0.0, "is_disabled": 0, "type": "electric_scooter", "lon": -77.023539, "rental_uris": {"android": "https://dc.lft.to/lastmile_qr_scan", "ios": "https://dc.lft.to/lastmile_qr_scan"}, "is_reserved": 0, "bike_id": "3b6a057fc5e7f27173569dabe0ef057f", "name": "3b6a057fc5e7f27173569dabe0ef057f"}, {"lat": 38.923569, "fusion_lon": 0.0, "fusion_lat": 0.0, "is_disabled": 0, "type": "electric_scooter", "lon": -77.043898, "rental_uris": {"android": "https://dc.lft.to/lastmile_qr_scan", "ios": "https://dc.lft.to/lastmile_qr_scan"}, "is_reserved": 0, "bike_id": "9a98871288e66fd03e2666be0e734d1e", "name": "9a98871288e66fd03e2666be0e734d1e"}, {"lat": 38.982254166666664, "fusion_lon": 0.0, "fusion_lat": 0.0, "is_disabled": 0, "type": "electric_bike", "lon": -77.02643183333333, "rental_uris": {"android": "https://dc.lft.to/lastmile_qr_scan", "ios": "https://dc.lft.to/lastmile_qr_scan"}, "is_reserved": 0, "bike_id": "32958e3d2f971ac1b2c8653615182cf1", "name": "32958e3d2f971ac1b2c8653615182cf1"}, {"lat": 38.88592966666667, "fusion_lon": 0.0, "fusion_lat": 0.0, "is_disabled": 0, "type": "electric_scooter", "lon": -76.95202066666667, "rental_uris": {"android": "https://dc.lft.to/lastmile_qr_scan", "ios": "https://dc.lft.to/lastmile_qr_scan"}, "is_reserved": 0, "bike_id": "99d665a5557fe9ab35a12940fe5b3f40", "name": "99d665a5557fe9ab35a12940fe5b3f40"}, {"lat": 38.90967883333333, "fusion_lon": 0.0, "fusion_lat": 0.0, "is_disabled": 0, "type": "electric_scooter", "lon": -77.03872816666667, "rental_uris": {"android": "https://dc.lft.to/lastmile_qr_scan", "ios": "https://dc.lft.to/lastmile_qr_scan"}, "is_reserved": 0, "bike_id": "f8df2c6ef236c7e8eb67ca28d8c9eca9", "name": "f8df2c6ef236c7e8eb67ca28d8c9eca9"}, {"lat": 38.905788666666666, "fusion_lon": 0.0, "fusion_lat": 0.0, "is_disabled": 0, "type": "electric_scooter", "lon": -77.0466725, "rental_uris": {"android": "https://dc.lft.to/lastmile_qr_scan", "ios": "https://dc.lft.to/lastmile_qr_scan"}, "is_reserved": 0, "bike_id": "45cc453412ddc9ba145a2fd4085846c3", "name": "45cc453412ddc9ba145a2fd4085846c3"}, {"lat": 38.91141366666667, "fusion_lon": 0.0, "fusion_lat": 0.0, "is_disabled": 0, "type": "electric_scooter", "lon": -76.990127, "rental_uris": {"android": "https://dc.lft.to/lastmile_qr_scan", "ios": "https://dc.lft.to/lastmile_qr_scan"}, "is_reserved": 0, "bike_id": "5756f1c7a835770afa369d5928b46a92", "name": "5756f1c7a835770afa369d5928b46a92"}, {"lat": 38.90038633333333, "fusion_lon": 0.0, "fusion_lat": 0.0, "is_disabled": 0, "type": "electric_scooter", "lon": -77.02960783333333, "rental_uris": {"android": "https://dc.lft.to/lastmile_qr_scan", "ios": "https://dc.lft.to/lastmile_qr_scan"}, "is_reserved": 0, "bike_id": "1a16191da15d58826d92aa5c7117075a", "name": "1a16191da15d58826d92aa5c7117075a"}, {"lat": 38.90238816666667, "fusion_lon": 0.0, "fusion_lat": 0.0, "is_disabled": 0, "type": "electric_scooter", "lon": -77.04582266666667, "rental_uris": {"android": "https://dc.lft.to/lastmile_qr_scan", "ios": "https://dc.lft.to/lastmile_qr_scan"}, "is_reserved": 0, "bike_id": "04fc065bbe03ab9e84de18b291dae66d", "name": "04fc065bbe03ab9e84de18b291dae66d"}, {"lat": 38.911973333333336, "fusion_lon": 0.0, "fusion_lat": 0.0, "is_disabled": 0, "type": "electric_scooter", "lon": -77.03855133333333, "rental_uris": {"android": "https://dc.lft.to/lastmile_qr_scan", "ios": "https://dc.lft.to/lastmile_qr_scan"}, "is_reserved": 0, "bike_id": "f28548e29174c9c0d97dd0388d864472", "name": "f28548e29174c9c0d97dd0388d864472"}, {"lat": 38.921002333333334, "fusion_lon": 0.0, "fusion_lat": 0.0, "is_disabled": 0, "type": "electric_scooter", "lon": -77.03175783333333, "rental_uris": {"android": "https://dc.lft.to/lastmile_qr_scan", "ios": "https://dc.lft.to/lastmile_qr_scan"}, "is_reserved": 0, "bike_id": "04998da9c1f8244fbe1e8544f643306b", "name": "04998da9c1f8244fbe1e8544f643306b"}, {"lat": 38.90384783333333, "fusion_lon": 0.0, "fusion_lat": 0.0, "is_disabled": 0, "type": "electric_scooter", "lon": -77.0135415, "rental_uris": {"android": "https://dc.lft.to/lastmile_qr_scan", "ios": "https://dc.lft.to/lastmile_qr_scan"}, "is_reserved": 0, "bike_id": "fbe6f68900c6cb6c8427cf34e970165f", "name": "fbe6f68900c6cb6c8427cf34e970165f"}, {"lat": 38.88989483333334, "fusion_lon": 0.0, "fusion_lat": 0.0, "is_disabled": 0, "type": "electric_scooter", "lon": -76.99821833333333, "rental_uris": {"android": "https://dc.lft.to/lastmile_qr_scan", "ios": "https://dc.lft.to/lastmile_qr_scan"}, "is_reserved": 0, "bike_id": "870a0b06a7d99711935a5404e55770e5", "name": "870a0b06a7d99711935a5404e55770e5"}, {"lat": 38.903868833333334, "fusion_lon": 0.0, "fusion_lat": 0.0, "is_disabled": 0, "type": "electric_scooter", "lon": -76.97906766666667, "rental_uris": {"android": "https://dc.lft.to/lastmile_qr_scan", "ios": "https://dc.lft.to/lastmile_qr_scan"}, "is_reserved": 0, "bike_id": "38120c621bd9df75e22f399f2cc08057", "name": "38120c621bd9df75e22f399f2cc08057"}, {"lat": 39.01038116666667, "fusion_lon": 0.0, "fusion_lat": 0.0, "is_disabled": 0, "type": "electric_bike", "lon": -76.91123866666666, "rental_uris": {"android": "https://dc.lft.to/lastmile_qr_scan", "ios": "https://dc.lft.to/lastmile_qr_scan"}, "is_reserved": 0, "bike_id": "eda857cfa9343ce25c471c39d8074b5a", "name": "eda857cfa9343ce25c471c39d8074b5a"}, {"lat": 38.8936485, "fusion_lon": 0.0, "fusion_lat": 0.0, "is_disabled": 0, "type": "electric_scooter", "lon": -77.04790866666667, "rental_uris": {"android": "https://dc.lft.to/lastmile_qr_scan", "ios": "https://dc.lft.to/lastmile_qr_scan"}, "is_reserved": 0, "bike_id": "3b5d2ca7f87a4e43f62fe871e386d7bf", "name": "3b5d2ca7f87a4e43f62fe871e386d7bf"}, {"lat": 38.88449683333333, "fusion_lon": 0.0, "fusion_lat": 0.0, "is_disabled": 0, "type": "electric_scooter", "lon": -77.01044916666666, "rental_uris": {"android": "https://dc.lft.to/lastmile_qr_scan", "ios": "https://dc.lft.to/lastmile_qr_scan"}, "is_reserved": 0, "bike_id": "b15918b9ac368ed3be8f9d2f1b7acd40", "name": "b15918b9ac368ed3be8f9d2f1b7acd40"}, {"lat": 38.8984755, "fusion_lon": 0.0, "fusion_lat": 0.0, "is_disabled": 0, "type": "electric_scooter", "lon": -77.03307033333333, "rental_uris": {"android": "https://dc.lft.to/lastmile_qr_scan", "ios": "https://dc.lft.to/lastmile_qr_scan"}, "is_reserved": 0, "bike_id": "d778744a175c460684dfb9a210964418", "name": "d778744a175c460684dfb9a210964418"}, {"lat": 38.91709316666667, "fusion_lon": 0.0, "fusion_lat": 0.0, "is_disabled": 0, "type": "electric_scooter", "lon": -77.02604033333333, "rental_uris": {"android": "https://dc.lft.to/lastmile_qr_scan", "ios": "https://dc.lft.to/lastmile_qr_scan"}, "is_reserved": 0, "bike_id": "ef7115c0601f0988f71442677f138df0", "name": "ef7115c0601f0988f71442677f138df0"}, {"lat": 38.902426, "fusion_lon": 0.0, "fusion_lat": 0.0, "is_disabled": 0, "type": "electric_scooter", "lon": -77.02658016666666, "rental_uris": {"android": "https://dc.lft.to/lastmile_qr_scan", "ios": "https://dc.lft.to/lastmile_qr_scan"}, "is_reserved": 0, "bike_id": "14ec29a7357762e8d261ca37088c701c", "name": "14ec29a7357762e8d261ca37088c701c"}, {"lat": 38.92900516666667, "fusion_lon": 0.0, "fusion_lat": 0.0, "is_disabled": 0, "type": "electric_scooter", "lon": -77.0546075, "rental_uris": {"android": "https://dc.lft.to/lastmile_qr_scan", "ios": "https://dc.lft.to/lastmile_qr_scan"}, "is_reserved": 0, "bike_id": "d40fd00c3369fe28b60dff8f91d18cd7", "name": "d40fd00c3369fe28b60dff8f91d18cd7"}, {"lat": 38.884102166666665, "fusion_lon": 0.0, "fusion_lat": 0.0, "is_disabled": 0, "type": "electric_scooter", "lon": -77.030442, "rental_uris": {"android": "https://dc.lft.to/lastmile_qr_scan", "ios": "https://dc.lft.to/lastmile_qr_scan"}, "is_reserved": 0, "bike_id": "75510ce93862c7144c9cc86420b49097", "name": "75510ce93862c7144c9cc86420b49097"}, {"lat": 38.90839483333333, "fusion_lon": 0.0, "fusion_lat": 0.0, "is_disabled": 0, "type": "electric_scooter", "lon": -77.01213316666667, "rental_uris": {"android": "https://dc.lft.to/lastmile_qr_scan", "ios": "https://dc.lft.to/lastmile_qr_scan"}, "is_reserved": 0, "bike_id": "a42a63a75a10a39a598863115b6ed1ca", "name": "a42a63a75a10a39a598863115b6ed1ca"}, {"lat": 38.920284333333335, "fusion_lon": 0.0, "fusion_lat": 0.0, "is_disabled": 0, "type": "electric_scooter", "lon": -77.031946, "rental_uris": {"android": "https://dc.lft.to/lastmile_qr_scan", "ios": "https://dc.lft.to/lastmile_qr_scan"}, "is_reserved": 0, "bike_id": "c55d901075d4156adee5fcd5f2b0b642", "name": "c55d901075d4156adee5fcd5f2b0b642"}, {"lat": 38.896391333333334, "fusion_lon": 0.0, "fusion_lat": 0.0, "is_disabled": 0, "type": "electric_scooter", "lon": -77.0093215, "rental_uris": {"android": "https://dc.lft.to/lastmile_qr_scan", "ios": "https://dc.lft.to/lastmile_qr_scan"}, "is_reserved": 0, "bike_id": "44863bfc2bd386ea393794f03894da44", "name": "44863bfc2bd386ea393794f03894da44"}, {"lat": 38.911133, "fusion_lon": 0.0, "fusion_lat": 0.0, "is_disabled": 0, "type": "electric_scooter", "lon": -77.04360333333334, "rental_uris": {"android": "https://dc.lft.to/lastmile_qr_scan", "ios": "https://dc.lft.to/lastmile_qr_scan"}, "is_reserved": 0, "bike_id": "b34dfee83199c2f6a43acbab533cbf9a", "name": "b34dfee83199c2f6a43acbab533cbf9a"}, {"lat": 38.887736333333336, "fusion_lon": 0.0, "fusion_lat": 0.0, "is_disabled": 0, "type": "electric_scooter", "lon": -77.00178, "rental_uris": {"android": "https://dc.lft.to/lastmile_qr_scan", "ios": "https://dc.lft.to/lastmile_qr_scan"}, "is_reserved": 0, "bike_id": "626f0dcafdb90771da1e9268d3ebdf69", "name": "626f0dcafdb90771da1e9268d3ebdf69"}, {"lat": 38.900764, "fusion_lon": 0.0, "fusion_lat": 0.0, "is_disabled": 0, "type": "electric_scooter", "lon": -77.04957316666666, "rental_uris": {"android": "https://dc.lft.to/lastmile_qr_scan", "ios": "https://dc.lft.to/lastmile_qr_scan"}, "is_reserved": 0, "bike_id": "533301cd6618d5f13229bccfc2391af6", "name": "533301cd6618d5f13229bccfc2391af6"}, {"lat": 38.9408525, "fusion_lon": 0.0, "fusion_lat": 0.0, "is_disabled": 0, "type": "electric_scooter", "lon": -77.06128033333333, "rental_uris": {"android": "https://dc.lft.to/lastmile_qr_scan", "ios": "https://dc.lft.to/lastmile_qr_scan"}, "is_reserved": 0, "bike_id": "8db1915f521acae15535cfa4b8ae9711", "name": "8db1915f521acae15535cfa4b8ae9711"}, {"lat": 38.88083683333333, "fusion_lon": 0.0, "fusion_lat": 0.0, "is_disabled": 0, "type": "electric_scooter", "lon": -76.985095, "rental_uris": {"android": "https://dc.lft.to/lastmile_qr_scan", "ios": "https://dc.lft.to/lastmile_qr_scan"}, "is_reserved": 0, "bike_id": "4d2f39fa5228faf159f83065c9cfc46d", "name": "4d2f39fa5228faf159f83065c9cfc46d"}, {"lat": 38.90244533333333, "fusion_lon": 0.0, "fusion_lat": 0.0, "is_disabled": 0, "type": "electric_scooter", "lon": -77.00225933333333, "rental_uris": {"android": "https://dc.lft.to/lastmile_qr_scan", "ios": "https://dc.lft.to/lastmile_qr_scan"}, "is_reserved": 0, "bike_id": "830032e0954c3001d33620580b7431c6", "name": "830032e0954c3001d33620580b7431c6"}, {"lat": 38.89328716666667, "fusion_lon": 0.0, "fusion_lat": 0.0, "is_disabled": 0, "type": "electric_bike", "lon": -77.12407283333333, "rental_uris": {"android": "https://dc.lft.to/lastmile_qr_scan", "ios": "https://dc.lft.to/lastmile_qr_scan"}, "is_reserved": 0, "bike_id": "ad4e128512967b6327e2a65b4b824ab9", "name": "ad4e128512967b6327e2a65b4b824ab9"}, {"lat": 38.907409333333334, "fusion_lon": 0.0, "fusion_lat": 0.0, "is_disabled": 0, "type": "electric_scooter", "lon": -77.03216566666667, "rental_uris": {"android": "https://dc.lft.to/lastmile_qr_scan", "ios": "https://dc.lft.to/lastmile_qr_scan"}, "is_reserved": 0, "bike_id": "4201b1b365b385f38783e25a32610aef", "name": "4201b1b365b385f38783e25a32610aef"}, {"lat": 38.846193, "fusion_lon": 0.0, "fusion_lat": 0.0, "is_disabled": 0, "type": "electric_scooter", "lon": -76.99632183333334, "rental_uris": {"android": "https://dc.lft.to/lastmile_qr_scan", "ios": "https://dc.lft.to/lastmile_qr_scan"}, "is_reserved": 0, "bike_id": "327c30f1f5d7deb1f6242d51a83ba3bf", "name": "327c30f1f5d7deb1f6242d51a83ba3bf"}, {"lat": 38.90709583333334, "fusion_lon": 0.0, "fusion_lat": 0.0, "is_disabled": 0, "type": "electric_scooter", "lon": -77.04319416666667, "rental_uris": {"android": "https://dc.lft.to/lastmile_qr_scan", "ios": "https://dc.lft.to/lastmile_qr_scan"}, "is_reserved": 0, "bike_id": "00707a6a6f3c97e400ada7602ede5e64", "name": "00707a6a6f3c97e400ada7602ede5e64"}, {"lat": 38.91676366666667, "fusion_lon": 0.0, "fusion_lat": 0.0, "is_disabled": 0, "type": "electric_scooter", "lon": -77.03197416666667, "rental_uris": {"android": "https://dc.lft.to/lastmile_qr_scan", "ios": "https://dc.lft.to/lastmile_qr_scan"}, "is_reserved": 0, "bike_id": "adf98c56954c5866c1c703f4eaa68015", "name": "adf98c56954c5866c1c703f4eaa68015"}, {"lat": 38.905703333333335, "fusion_lon": 0.0, "fusion_lat": 0.0, "is_disabled": 0, "type": "electric_scooter", "lon": -77.0441515, "rental_uris": {"android": "https://dc.lft.to/lastmile_qr_scan", "ios": "https://dc.lft.to/lastmile_qr_scan"}, "is_reserved": 0, "bike_id": "4407bbc50823c9eeb28a5117c519c005", "name": "4407bbc50823c9eeb28a5117c519c005"}, {"lat": 38.88754383333333, "fusion_lon": 0.0, "fusion_lat": 0.0, "is_disabled": 0, "type": "electric_scooter", "lon": -76.93675716666667, "rental_uris": {"android": "https://dc.lft.to/lastmile_qr_scan", "ios": "https://dc.lft.to/lastmile_qr_scan"}, "is_reserved": 0, "bike_id": "5b0bed65c6f4bb9418826b07381ac086", "name": "5b0bed65c6f4bb9418826b07381ac086"}, {"lat": 38.90511133333333, "fusion_lon": 0.0, "fusion_lat": 0.0, "is_disabled": 0, "type": "electric_scooter", "lon": -77.04984166666667, "rental_uris": {"android": "https://dc.lft.to/lastmile_qr_scan", "ios": "https://dc.lft.to/lastmile_qr_scan"}, "is_reserved": 0, "bike_id": "c5e3cf4ff872525ba4c017fc6edeb4f1", "name": "c5e3cf4ff872525ba4c017fc6edeb4f1"}, {"lat": 38.916867833333335, "fusion_lon": 0.0, "fusion_lat": 0.0, "is_disabled": 0, "type": "electric_scooter", "lon": -77.02955016666667, "rental_uris": {"android": "https://dc.lft.to/lastmile_qr_scan", "ios": "https://dc.lft.to/lastmile_qr_scan"}, "is_reserved": 0, "bike_id": "41dfadd4c7ec26e1174ed644f3c2952c", "name": "41dfadd4c7ec26e1174ed644f3c2952c"}, {"lat": 38.930607333333334, "fusion_lon": 0.0, "fusion_lat": 0.0, "is_disabled": 0, "type": "electric_scooter", "lon": -77.02805816666667, "rental_uris": {"android": "https://dc.lft.to/lastmile_qr_scan", "ios": "https://dc.lft.to/lastmile_qr_scan"}, "is_reserved": 0, "bike_id": "2c5e6f3af7a1e3991c72af203de6377a", "name": "2c5e6f3af7a1e3991c72af203de6377a"}, {"lat": 38.9326845, "fusion_lon": 0.0, "fusion_lat": 0.0, "is_disabled": 0, "type": "electric_scooter", "lon": -77.03916183333334, "rental_uris": {"android": "https://dc.lft.to/lastmile_qr_scan", "ios": "https://dc.lft.to/lastmile_qr_scan"}, "is_reserved": 0, "bike_id": "9255391236ce2044815f47d18956dd02", "name": "9255391236ce2044815f47d18956dd02"}, {"lat": 38.90269716666667, "fusion_lon": 0.0, "fusion_lat": 0.0, "is_disabled": 0, "type": "electric_scooter", "lon": -77.03212166666667, "rental_uris": {"android": "https://dc.lft.to/lastmile_qr_scan", "ios": "https://dc.lft.to/lastmile_qr_scan"}, "is_reserved": 0, "bike_id": "8af7abc8ab2827924da4512ae77ccc29", "name": "8af7abc8ab2827924da4512ae77ccc29"}, {"lat": 38.9498085, "fusion_lon": 0.0, "fusion_lat": 0.0, "is_disabled": 0, "type": "electric_scooter", "lon": -77.06763766666667, "rental_uris": {"android": "https://dc.lft.to/lastmile_qr_scan", "ios": "https://dc.lft.to/lastmile_qr_scan"}, "is_reserved": 0, "bike_id": "6405a26bf47e15fcf45016d35f9bb135", "name": "6405a26bf47e15fcf45016d35f9bb135"}, {"lat": 38.89997116666667, "fusion_lon": 0.0, "fusion_lat": 0.0, "is_disabled": 0, "type": "electric_scooter", "lon": -77.0315445, "rental_uris": {"android": "https://dc.lft.to/lastmile_qr_scan", "ios": "https://dc.lft.to/lastmile_qr_scan"}, "is_reserved": 0, "bike_id": "b8f17ac9e782a058dcc0b01ff7001761", "name": "b8f17ac9e782a058dcc0b01ff7001761"}, {"lat": 38.924202, "fusion_lon": 0.0, "fusion_lat": 0.0, "is_disabled": 0, "type": "electric_scooter", "lon": -77.020112, "rental_uris": {"android": "https://dc.lft.to/lastmile_qr_scan", "ios": "https://dc.lft.to/lastmile_qr_scan"}, "is_reserved": 0, "bike_id": "98adea4eb0258107609b43bec3deebd5", "name": "98adea4eb0258107609b43bec3deebd5"}, {"lat": 38.9050285, "fusion_lon": 0.0, "fusion_lat": 0.0, "is_disabled": 0, "type": "electric_scooter", "lon": -77.05692533333334, "rental_uris": {"android": "https://dc.lft.to/lastmile_qr_scan", "ios": "https://dc.lft.to/lastmile_qr_scan"}, "is_reserved": 0, "bike_id": "4bdbaf010d0cc2bc63a753626b7a0e17", "name": "4bdbaf010d0cc2bc63a753626b7a0e17"}, {"lat": 38.878448666666664, "fusion_lon": 0.0, "fusion_lat": 0.0, "is_disabled": 0, "type": "electric_bike", "lon": -77.00779616666667, "rental_uris": {"android": "https://dc.lft.to/lastmile_qr_scan", "ios": "https://dc.lft.to/lastmile_qr_scan"}, "is_reserved": 0, "bike_id": "641aad31633d1e197c8ddfdfc20a07f0", "name": "641aad31633d1e197c8ddfdfc20a07f0"}, {"lat": 38.90959266666667, "fusion_lon": 0.0, "fusion_lat": 0.0, "is_disabled": 0, "type": "electric_scooter", "lon": -77.02407733333334, "rental_uris": {"android": "https://dc.lft.to/lastmile_qr_scan", "ios": "https://dc.lft.to/lastmile_qr_scan"}, "is_reserved": 0, "bike_id": "1fb3e25a13251aafb72d32cd6343d365", "name": "1fb3e25a13251aafb72d32cd6343d365"}, {"lat": 38.91267066666666, "fusion_lon": 0.0, "fusion_lat": 0.0, "is_disabled": 0, "type": "electric_scooter", "lon": -77.03268666666666, "rental_uris": {"android": "https://dc.lft.to/lastmile_qr_scan", "ios": "https://dc.lft.to/lastmile_qr_scan"}, "is_reserved": 0, "bike_id": "364f7a31c694003d7f47cba7c254e9f9", "name": "364f7a31c694003d7f47cba7c254e9f9"}, {"lat": 38.9084035, "fusion_lon": 0.0, "fusion_lat": 0.0, "is_disabled": 0, "type": "electric_scooter", "lon": -77.025895, "rental_uris": {"android": "https://dc.lft.to/lastmile_qr_scan", "ios": "https://dc.lft.to/lastmile_qr_scan"}, "is_reserved": 0, "bike_id": "52e8355e59b361d8abeb92fffb70ea6f", "name": "52e8355e59b361d8abeb92fffb70ea6f"}, {"lat": 38.958783, "fusion_lon": 0.0, "fusion_lat": 0.0, "is_disabled": 0, "type": "electric_scooter", "lon": -77.0076915, "rental_uris": {"android": "https://dc.lft.to/lastmile_qr_scan", "ios": "https://dc.lft.to/lastmile_qr_scan"}, "is_reserved": 0, "bike_id": "19f1331dbd5b5fd00e10d8d90360956f", "name": "19f1331dbd5b5fd00e10d8d90360956f"}, {"lat": 38.93973866666666, "fusion_lon": 0.0, "fusion_lat": 0.0, "is_disabled": 0, "type": "electric_scooter", "lon": -77.03205616666666, "rental_uris": {"android": "https://dc.lft.to/lastmile_qr_scan", "ios": "https://dc.lft.to/lastmile_qr_scan"}, "is_reserved": 0, "bike_id": "1d10b90938cf25000c070e3f0c73e19d", "name": "1d10b90938cf25000c070e3f0c73e19d"}, {"lat": 38.844796, "fusion_lon": 0.0, "fusion_lat": 0.0, "is_disabled": 0, "type": "electric_bike", "lon": -76.97218033333333, "rental_uris": {"android": "https://dc.lft.to/lastmile_qr_scan", "ios": "https://dc.lft.to/lastmile_qr_scan"}, "is_reserved": 0, "bike_id": "c0f9f32d32016112f5bd4ac18ba1a4a2", "name": "c0f9f32d32016112f5bd4ac18ba1a4a2"}, {"lat": 38.91956416666667, "fusion_lon": 0.0, "fusion_lat": 0.0, "is_disabled": 0, "type": "electric_scooter", "lon": -77.01852033333333, "rental_uris": {"android": "https://dc.lft.to/lastmile_qr_scan", "ios": "https://dc.lft.to/lastmile_qr_scan"}, "is_reserved": 0, "bike_id": "3d19fed7d330d7b3c57cbaa888eb50fa", "name": "3d19fed7d330d7b3c57cbaa888eb50fa"}, {"lat": 38.902573333333336, "fusion_lon": 0.0, "fusion_lat": 0.0, "is_disabled": 0, "type": "electric_scooter", "lon": -77.01742833333333, "rental_uris": {"android": "https://dc.lft.to/lastmile_qr_scan", "ios": "https://dc.lft.to/lastmile_qr_scan"}, "is_reserved": 0, "bike_id": "a695a98c94917d71298ddba92109d45f", "name": "a695a98c94917d71298ddba92109d45f"}, {"lat": 38.89678883333333, "fusion_lon": 0.0, "fusion_lat": 0.0, "is_disabled": 0, "type": "electric_scooter", "lon": -76.94726133333333, "rental_uris": {"android": "https://dc.lft.to/lastmile_qr_scan", "ios": "https://dc.lft.to/lastmile_qr_scan"}, "is_reserved": 0, "bike_id": "57605ca424733f9a4d59c43551d73b7c", "name": "57605ca424733f9a4d59c43551d73b7c"}, {"lat": 38.892349, "fusion_lon": 0.0, "fusion_lat": 0.0, "is_disabled": 0, "type": "electric_scooter", "lon": -77.04359583333333, "rental_uris": {"android": "https://dc.lft.to/lastmile_qr_scan", "ios": "https://dc.lft.to/lastmile_qr_scan"}, "is_reserved": 0, "bike_id": "dc7c542bc67804bca7da1287d6d4ca6f", "name": "dc7c542bc67804bca7da1287d6d4ca6f"}, {"lat": 38.9118545, "fusion_lon": 0.0, "fusion_lat": 0.0, "is_disabled": 0, "type": "electric_scooter", "lon": -77.033592, "rental_uris": {"android": "https://dc.lft.to/lastmile_qr_scan", "ios": "https://dc.lft.to/lastmile_qr_scan"}, "is_reserved": 0, "bike_id": "27d65ea5f3e780eefdb32c21eef990cd", "name": "27d65ea5f3e780eefdb32c21eef990cd"}, {"lat": 38.916770666666665, "fusion_lon": 0.0, "fusion_lat": 0.0, "is_disabled": 0, "type": "electric_scooter", "lon": -76.98041233333333, "rental_uris": {"android": "https://dc.lft.to/lastmile_qr_scan", "ios": "https://dc.lft.to/lastmile_qr_scan"}, "is_reserved": 0, "bike_id": "1fbd3cae734bea22841c92e34715aa39", "name": "1fbd3cae734bea22841c92e34715aa39"}, {"lat": 38.84293, "fusion_lon": 0.0, "fusion_lat": 0.0, "is_disabled": 0, "type": "electric_scooter", "lon": -76.999457, "rental_uris": {"android": "https://dc.lft.to/lastmile_qr_scan", "ios": "https://dc.lft.to/lastmile_qr_scan"}, "is_reserved": 0, "bike_id": "cccd9cc17be520d35554383a795aa3ea", "name": "cccd9cc17be520d35554383a795aa3ea"}, {"lat": 38.88741916666667, "fusion_lon": 0.0, "fusion_lat": 0.0, "is_disabled": 0, "type": "electric_scooter", "lon": -77.0153465, "rental_uris": {"android": "https://dc.lft.to/lastmile_qr_scan", "ios": "https://dc.lft.to/lastmile_qr_scan"}, "is_reserved": 0, "bike_id": "7dde4e2bcd8b6b999a18903156c68ea6", "name": "7dde4e2bcd8b6b999a18903156c68ea6"}, {"lat": 38.8960275, "fusion_lon": 0.0, "fusion_lat": 0.0, "is_disabled": 0, "type": "electric_scooter", "lon": -77.05437983333333, "rental_uris": {"android": "https://dc.lft.to/lastmile_qr_scan", "ios": "https://dc.lft.to/lastmile_qr_scan"}, "is_reserved": 0, "bike_id": "4604a1be70ef6f4a61ee13b8e372599b", "name": "4604a1be70ef6f4a61ee13b8e372599b"}, {"lat": 38.88500966666667, "fusion_lon": 0.0, "fusion_lat": 0.0, "is_disabled": 0, "type": "electric_scooter", "lon": -77.00565466666667, "rental_uris": {"android": "https://dc.lft.to/lastmile_qr_scan", "ios": "https://dc.lft.to/lastmile_qr_scan"}, "is_reserved": 0, "bike_id": "bfd6de55a00a2267d96e97af0585c8e4", "name": "bfd6de55a00a2267d96e97af0585c8e4"}, {"lat": 38.928541833333334, "fusion_lon": 0.0, "fusion_lat": 0.0, "is_disabled": 0, "type": "electric_scooter", "lon": -77.05423766666667, "rental_uris": {"android": "https://dc.lft.to/lastmile_qr_scan", "ios": "https://dc.lft.to/lastmile_qr_scan"}, "is_reserved": 0, "bike_id": "1bf3dc1d8fb46ce89c4feb24e99fcf5f", "name": "1bf3dc1d8fb46ce89c4feb24e99fcf5f"}, {"lat": 38.91753966666667, "fusion_lon": 0.0, "fusion_lat": 0.0, "is_disabled": 0, "type": "electric_scooter", "lon": -77.0229835, "rental_uris": {"android": "https://dc.lft.to/lastmile_qr_scan", "ios": "https://dc.lft.to/lastmile_qr_scan"}, "is_reserved": 0, "bike_id": "32f7dbeb3a132f8a5117457e11d950a9", "name": "32f7dbeb3a132f8a5117457e11d950a9"}, {"lat": 38.9226355, "fusion_lon": 0.0, "fusion_lat": 0.0, "is_disabled": 0, "type": "electric_scooter", "lon": -77.032138, "rental_uris": {"android": "https://dc.lft.to/lastmile_qr_scan", "ios": "https://dc.lft.to/lastmile_qr_scan"}, "is_reserved": 0, "bike_id": "19e0c332d9393546c619fc594b707f03", "name": "19e0c332d9393546c619fc594b707f03"}, {"lat": 38.90574083333333, "fusion_lon": 0.0, "fusion_lat": 0.0, "is_disabled": 0, "type": "electric_scooter", "lon": -77.0058995, "rental_uris": {"android": "https://dc.lft.to/lastmile_qr_scan", "ios": "https://dc.lft.to/lastmile_qr_scan"}, "is_reserved": 0, "bike_id": "cf21ca832975f8a06f843aa690d5d8ae", "name": "cf21ca832975f8a06f843aa690d5d8ae"}, {"lat": 38.97406466666666, "fusion_lon": 0.0, "fusion_lat": 0.0, "is_disabled": 0, "type": "electric_bike", "lon": -77.024933, "rental_uris": {"android": "https://dc.lft.to/lastmile_qr_scan", "ios": "https://dc.lft.to/lastmile_qr_scan"}, "is_reserved": 0, "bike_id": "e398b36fc9171ff5ee30d29a89a0be96", "name": "e398b36fc9171ff5ee30d29a89a0be96"}, {"lat": 38.92642883333333, "fusion_lon": 0.0, "fusion_lat": 0.0, "is_disabled": 0, "type": "electric_scooter", "lon": -77.0369655, "rental_uris": {"android": "https://dc.lft.to/lastmile_qr_scan", "ios": "https://dc.lft.to/lastmile_qr_scan"}, "is_reserved": 0, "bike_id": "c3019249901d9716e69a0a28cede1818", "name": "c3019249901d9716e69a0a28cede1818"}, {"lat": 38.95213533333333, "fusion_lon": 0.0, "fusion_lat": 0.0, "is_disabled": 0, "type": "electric_scooter", "lon": -77.06779533333334, "rental_uris": {"android": "https://dc.lft.to/lastmile_qr_scan", "ios": "https://dc.lft.to/lastmile_qr_scan"}, "is_reserved": 0, "bike_id": "8ea8fc3029c5a46b4532ca3e69a5a0bb", "name": "8ea8fc3029c5a46b4532ca3e69a5a0bb"}, {"lat": 38.881291166666664, "fusion_lon": 0.0, "fusion_lat": 0.0, "is_disabled": 0, "type": "electric_scooter", "lon": -77.009656, "rental_uris": {"android": "https://dc.lft.to/lastmile_qr_scan", "ios": "https://dc.lft.to/lastmile_qr_scan"}, "is_reserved": 0, "bike_id": "d614904c910142b2f95a311cac03086d", "name": "d614904c910142b2f95a311cac03086d"}, {"lat": 38.955226, "fusion_lon": 0.0, "fusion_lat": 0.0, "is_disabled": 0, "type": "electric_scooter", "lon": -77.00741116666667, "rental_uris": {"android": "https://dc.lft.to/lastmile_qr_scan", "ios": "https://dc.lft.to/lastmile_qr_scan"}, "is_reserved": 0, "bike_id": "427783982a224ad1207d725cc18faf2a", "name": "427783982a224ad1207d725cc18faf2a"}, {"lat": 38.924186666666664, "fusion_lon": 0.0, "fusion_lat": 0.0, "is_disabled": 0, "type": "electric_scooter", "lon": -77.02011166666666, "rental_uris": {"android": "https://dc.lft.to/lastmile_qr_scan", "ios": "https://dc.lft.to/lastmile_qr_scan"}, "is_reserved": 0, "bike_id": "a088b83e1f3c0cc11d6def18ac9b85ef", "name": "a088b83e1f3c0cc11d6def18ac9b85ef"}, {"lat": 38.914019833333334, "fusion_lon": 0.0, "fusion_lat": 0.0, "is_disabled": 0, "type": "electric_scooter", "lon": -77.04177383333334, "rental_uris": {"android": "https://dc.lft.to/lastmile_qr_scan", "ios": "https://dc.lft.to/lastmile_qr_scan"}, "is_reserved": 0, "bike_id": "8b23ff18e0372317b99da40b6864f14f", "name": "8b23ff18e0372317b99da40b6864f14f"}, {"lat": 38.949926833333336, "fusion_lon": 0.0, "fusion_lat": 0.0, "is_disabled": 0, "type": "electric_scooter", "lon": -77.01846133333333, "rental_uris": {"android": "https://dc.lft.to/lastmile_qr_scan", "ios": "https://dc.lft.to/lastmile_qr_scan"}, "is_reserved": 0, "bike_id": "9aaa6423f81e5ae1e16578d1e635052c", "name": "9aaa6423f81e5ae1e16578d1e635052c"}, {"lat": 38.902443833333336, "fusion_lon": 0.0, "fusion_lat": 0.0, "is_disabled": 0, "type": "electric_scooter", "lon": -77.03335983333334, "rental_uris": {"android": "https://dc.lft.to/lastmile_qr_scan", "ios": "https://dc.lft.to/lastmile_qr_scan"}, "is_reserved": 0, "bike_id": "8463eed514a1aab0ba1b64d2fe5a8fe0", "name": "8463eed514a1aab0ba1b64d2fe5a8fe0"}, {"lat": 38.9290135, "fusion_lon": 0.0, "fusion_lat": 0.0, "is_disabled": 0, "type": "electric_scooter", "lon": -77.032734, "rental_uris": {"android": "https://dc.lft.to/lastmile_qr_scan", "ios": "https://dc.lft.to/lastmile_qr_scan"}, "is_reserved": 0, "bike_id": "e9d2182763bf1b7ea88420b9beab5f62", "name": "e9d2182763bf1b7ea88420b9beab5f62"}, {"lat": 38.902614166666666, "fusion_lon": 0.0, "fusion_lat": 0.0, "is_disabled": 0, "type": "electric_scooter", "lon": -77.04357, "rental_uris": {"android": "https://dc.lft.to/lastmile_qr_scan", "ios": "https://dc.lft.to/lastmile_qr_scan"}, "is_reserved": 0, "bike_id": "db8c2c0abe78a3b49d4fb03fbdda46f5", "name": "db8c2c0abe78a3b49d4fb03fbdda46f5"}, {"lat": 38.9613695, "fusion_lon": 0.0, "fusion_lat": 0.0, "is_disabled": 0, "type": "electric_scooter", "lon": -77.0279565, "rental_uris": {"android": "https://dc.lft.to/lastmile_qr_scan", "ios": "https://dc.lft.to/lastmile_qr_scan"}, "is_reserved": 0, "bike_id": "fdbf7c636f8d0c62b6667d0c757f9781", "name": "fdbf7c636f8d0c62b6667d0c757f9781"}, {"lat": 38.9092045, "fusion_lon": 0.0, "fusion_lat": 0.0, "is_disabled": 0, "type": "electric_scooter", "lon": -77.04420383333333, "rental_uris": {"android": "https://dc.lft.to/lastmile_qr_scan", "ios": "https://dc.lft.to/lastmile_qr_scan"}, "is_reserved": 0, "bike_id": "b0eed03d9f33c008f7a6d58881399f7e", "name": "b0eed03d9f33c008f7a6d58881399f7e"}, {"lat": 38.905245, "fusion_lon": 0.0, "fusion_lat": 0.0, "is_disabled": 0, "type": "electric_scooter", "lon": -77.0435625, "rental_uris": {"android": "https://dc.lft.to/lastmile_qr_scan", "ios": "https://dc.lft.to/lastmile_qr_scan"}, "is_reserved": 0, "bike_id": "97e052feb8c94e761ede6ea6bb7f2277", "name": "97e052feb8c94e761ede6ea6bb7f2277"}, {"lat": 38.894841, "fusion_lon": 0.0, "fusion_lat": 0.0, "is_disabled": 0, "type": "electric_scooter", "lon": -77.001879, "rental_uris": {"android": "https://dc.lft.to/lastmile_qr_scan", "ios": "https://dc.lft.to/lastmile_qr_scan"}, "is_reserved": 0, "bike_id": "184e8e62fa95efffea25d96c268e2201", "name": "184e8e62fa95efffea25d96c268e2201"}, {"lat": 38.867009333333336, "fusion_lon": 0.0, "fusion_lat": 0.0, "is_disabled": 0, "type": "electric_scooter", "lon": -76.9871455, "rental_uris": {"android": "https://dc.lft.to/lastmile_qr_scan", "ios": "https://dc.lft.to/lastmile_qr_scan"}, "is_reserved": 0, "bike_id": "0c6fede96a5ca36f4648d744ab832f51", "name": "0c6fede96a5ca36f4648d744ab832f51"}, {"lat": 39.0078775, "fusion_lon": 0.0, "fusion_lat": 0.0, "is_disabled": 0, "type": "electric_bike", "lon": -76.9956855, "rental_uris": {"android": "https://dc.lft.to/lastmile_qr_scan", "ios": "https://dc.lft.to/lastmile_qr_scan"}, "is_reserved": 0, "bike_id": "efffe5593005eb1dbd8b6a5290baae41", "name": "efffe5593005eb1dbd8b6a5290baae41"}, {"lat": 38.90509983333333, "fusion_lon": 0.0, "fusion_lat": 0.0, "is_disabled": 0, "type": "electric_scooter", "lon": -77.00169566666666, "rental_uris": {"android": "https://dc.lft.to/lastmile_qr_scan", "ios": "https://dc.lft.to/lastmile_qr_scan"}, "is_reserved": 0, "bike_id": "2487b7a076e5f4ca534c15a45f77cc37", "name": "2487b7a076e5f4ca534c15a45f77cc37"}, {"lat": 38.897335166666664, "fusion_lon": 0.0, "fusion_lat": 0.0, "is_disabled": 0, "type": "electric_scooter", "lon": -77.00474533333333, "rental_uris": {"android": "https://dc.lft.to/lastmile_qr_scan", "ios": "https://dc.lft.to/lastmile_qr_scan"}, "is_reserved": 0, "bike_id": "d43762fcd11751b1efb9b76e9245d5b0", "name": "d43762fcd11751b1efb9b76e9245d5b0"}, {"lat": 39.0242295, "fusion_lon": 0.0, "fusion_lat": 0.0, "is_disabled": 0, "type": "electric_bike", "lon": -77.125026, "rental_uris": {"android": "https://dc.lft.to/lastmile_qr_scan", "ios": "https://dc.lft.to/lastmile_qr_scan"}, "is_reserved": 0, "bike_id": "7e503b45327040d6221cb4b7df9f8f08", "name": "7e503b45327040d6221cb4b7df9f8f08"}, {"lat": 38.958345, "fusion_lon": 0.0, "fusion_lat": 0.0, "is_disabled": 0, "type": "electric_scooter", "lon": -77.07163266666667, "rental_uris": {"android": "https://dc.lft.to/lastmile_qr_scan", "ios": "https://dc.lft.to/lastmile_qr_scan"}, "is_reserved": 0, "bike_id": "37473ffcd1c903195e364b51123ec496", "name": "37473ffcd1c903195e364b51123ec496"}, {"lat": 38.8922125, "fusion_lon": 0.0, "fusion_lat": 0.0, "is_disabled": 0, "type": "electric_scooter", "lon": -77.04503266666667, "rental_uris": {"android": "https://dc.lft.to/lastmile_qr_scan", "ios": "https://dc.lft.to/lastmile_qr_scan"}, "is_reserved": 0, "bike_id": "cce9a48b94e9c5ef01c814baa7e0c7a2", "name": "cce9a48b94e9c5ef01c814baa7e0c7a2"}, {"lat": 38.89479883333333, "fusion_lon": 0.0, "fusion_lat": 0.0, "is_disabled": 0, "type": "electric_scooter", "lon": -77.0110795, "rental_uris": {"android": "https://dc.lft.to/lastmile_qr_scan", "ios": "https://dc.lft.to/lastmile_qr_scan"}, "is_reserved": 0, "bike_id": "baf7cb4c7edd74bb159a8fb60a7d9b27", "name": "baf7cb4c7edd74bb159a8fb60a7d9b27"}, {"lat": 38.91555983333333, "fusion_lon": 0.0, "fusion_lat": 0.0, "is_disabled": 0, "type": "electric_scooter", "lon": -77.00830083333334, "rental_uris": {"android": "https://dc.lft.to/lastmile_qr_scan", "ios": "https://dc.lft.to/lastmile_qr_scan"}, "is_reserved": 0, "bike_id": "4a3beba025c8b068d8ef961feaed54ca", "name": "4a3beba025c8b068d8ef961feaed54ca"}, {"lat": 38.937046333333335, "fusion_lon": 0.0, "fusion_lat": 0.0, "is_disabled": 0, "type": "electric_scooter", "lon": -77.02396416666667, "rental_uris": {"android": "https://dc.lft.to/lastmile_qr_scan", "ios": "https://dc.lft.to/lastmile_qr_scan"}, "is_reserved": 0, "bike_id": "a58407b4209e9d028b67451a7c420266", "name": "a58407b4209e9d028b67451a7c420266"}, {"lat": 38.89736283333333, "fusion_lon": 0.0, "fusion_lat": 0.0, "is_disabled": 0, "type": "electric_bike", "lon": -76.90535616666666, "rental_uris": {"android": "https://dc.lft.to/lastmile_qr_scan", "ios": "https://dc.lft.to/lastmile_qr_scan"}, "is_reserved": 0, "bike_id": "dbe17a89b85dc6dd972b461e46817e9b", "name": "dbe17a89b85dc6dd972b461e46817e9b"}, {"lat": 38.89771433333333, "fusion_lon": 0.0, "fusion_lat": 0.0, "is_disabled": 0, "type": "electric_scooter", "lon": -77.027112, "rental_uris": {"android": "https://dc.lft.to/lastmile_qr_scan", "ios": "https://dc.lft.to/lastmile_qr_scan"}, "is_reserved": 0, "bike_id": "5f36d31f0b0c861d41b9fdcc5c36f232", "name": "5f36d31f0b0c861d41b9fdcc5c36f232"}, {"lat": 38.902614666666665, "fusion_lon": 0.0, "fusion_lat": 0.0, "is_disabled": 0, "type": "electric_scooter", "lon": -77.03268783333333, "rental_uris": {"android": "https://dc.lft.to/lastmile_qr_scan", "ios": "https://dc.lft.to/lastmile_qr_scan"}, "is_reserved": 0, "bike_id": "1cd1629341a69233495a903022e2f59e", "name": "1cd1629341a69233495a903022e2f59e"}, {"lat": 38.8874435, "fusion_lon": 0.0, "fusion_lat": 0.0, "is_disabled": 0, "type": "electric_scooter", "lon": -77.02169316666667, "rental_uris": {"android": "https://dc.lft.to/lastmile_qr_scan", "ios": "https://dc.lft.to/lastmile_qr_scan"}, "is_reserved": 0, "bike_id": "95b3476f9ae0e45dc5ebdd6fd7cd2621", "name": "95b3476f9ae0e45dc5ebdd6fd7cd2621"}, {"lat": 38.92377883333333, "fusion_lon": 0.0, "fusion_lat": 0.0, "is_disabled": 0, "type": "electric_scooter", "lon": -77.05257966666667, "rental_uris": {"android": "https://dc.lft.to/lastmile_qr_scan", "ios": "https://dc.lft.to/lastmile_qr_scan"}, "is_reserved": 0, "bike_id": "678c9fb4f6af40259bca0d62bfbdc164", "name": "678c9fb4f6af40259bca0d62bfbdc164"}, {"lat": 38.921093166666665, "fusion_lon": 0.0, "fusion_lat": 0.0, "is_disabled": 0, "type": "electric_scooter", "lon": -77.0319785, "rental_uris": {"android": "https://dc.lft.to/lastmile_qr_scan", "ios": "https://dc.lft.to/lastmile_qr_scan"}, "is_reserved": 0, "bike_id": "629ca2d7817fd3c92bb04c10bc026e68", "name": "629ca2d7817fd3c92bb04c10bc026e68"}, {"lat": 38.94408766666667, "fusion_lon": 0.0, "fusion_lat": 0.0, "is_disabled": 0, "type": "electric_scooter", "lon": -77.05517483333334, "rental_uris": {"android": "https://dc.lft.to/lastmile_qr_scan", "ios": "https://dc.lft.to/lastmile_qr_scan"}, "is_reserved": 0, "bike_id": "df6eb793cff264c805da84da3f376f4e", "name": "df6eb793cff264c805da84da3f376f4e"}, {"lat": 38.9012465, "fusion_lon": 0.0, "fusion_lat": 0.0, "is_disabled": 0, "type": "electric_scooter", "lon": -77.03202233333333, "rental_uris": {"android": "https://dc.lft.to/lastmile_qr_scan", "ios": "https://dc.lft.to/lastmile_qr_scan"}, "is_reserved": 0, "bike_id": "6531db70422de761d50d19c78650eac3", "name": "6531db70422de761d50d19c78650eac3"}, {"lat": 38.8929065, "fusion_lon": 0.0, "fusion_lat": 0.0, "is_disabled": 0, "type": "electric_scooter", "lon": -77.026121, "rental_uris": {"android": "https://dc.lft.to/lastmile_qr_scan", "ios": "https://dc.lft.to/lastmile_qr_scan"}, "is_reserved": 0, "bike_id": "c958ca21ec1fb3149168ec282694820e", "name": "c958ca21ec1fb3149168ec282694820e"}, {"lat": 38.87459416666667, "fusion_lon": 0.0, "fusion_lat": 0.0, "is_disabled": 0, "type": "electric_scooter", "lon": -77.006047, "rental_uris": {"android": "https://dc.lft.to/lastmile_qr_scan", "ios": "https://dc.lft.to/lastmile_qr_scan"}, "is_reserved": 0, "bike_id": "0061e6fb22553e978993009cc00fd8a5", "name": "0061e6fb22553e978993009cc00fd8a5"}, {"lat": 38.941333166666666, "fusion_lon": 0.0, "fusion_lat": 0.0, "is_disabled": 0, "type": "electric_scooter", "lon": -77.09202483333334, "rental_uris": {"android": "https://dc.lft.to/lastmile_qr_scan", "ios": "https://dc.lft.to/lastmile_qr_scan"}, "is_reserved": 0, "bike_id": "6aa82d2ceacfb9691fe40aaa78a7ebe4", "name": "6aa82d2ceacfb9691fe40aaa78a7ebe4"}, {"lat": 38.91479116666667, "fusion_lon": 0.0, "fusion_lat": 0.0, "is_disabled": 0, "type": "electric_scooter", "lon": -77.0455335, "rental_uris": {"android": "https://dc.lft.to/lastmile_qr_scan", "ios": "https://dc.lft.to/lastmile_qr_scan"}, "is_reserved": 0, "bike_id": "5765acc29823117223a4f2f4292d289c", "name": "5765acc29823117223a4f2f4292d289c"}, {"lat": 38.89646833333333, "fusion_lon": 0.0, "fusion_lat": 0.0, "is_disabled": 0, "type": "electric_scooter", "lon": -77.026866, "rental_uris": {"android": "https://dc.lft.to/lastmile_qr_scan", "ios": "https://dc.lft.to/lastmile_qr_scan"}, "is_reserved": 0, "bike_id": "ed0d010d2e1049f33249440107c388de", "name": "ed0d010d2e1049f33249440107c388de"}, {"lat": 38.9007135, "fusion_lon": 0.0, "fusion_lat": 0.0, "is_disabled": 0, "type": "electric_scooter", "lon": -77.0020415, "rental_uris": {"android": "https://dc.lft.to/lastmile_qr_scan", "ios": "https://dc.lft.to/lastmile_qr_scan"}, "is_reserved": 0, "bike_id": "ac30f99052ff1231b43d735f020734f8", "name": "ac30f99052ff1231b43d735f020734f8"}, {"lat": 38.894828833333335, "fusion_lon": 0.0, "fusion_lat": 0.0, "is_disabled": 0, "type": "electric_scooter", "lon": -76.99516066666666, "rental_uris": {"android": "https://dc.lft.to/lastmile_qr_scan", "ios": "https://dc.lft.to/lastmile_qr_scan"}, "is_reserved": 0, "bike_id": "ee7a82a0a85fbe424e189b61b8b87138", "name": "ee7a82a0a85fbe424e189b61b8b87138"}, {"lat": 38.8522035, "fusion_lon": 0.0, "fusion_lat": 0.0, "is_disabled": 0, "type": "electric_bike", "lon": -77.12964383333333, "rental_uris": {"android": "https://dc.lft.to/lastmile_qr_scan", "ios": "https://dc.lft.to/lastmile_qr_scan"}, "is_reserved": 0, "bike_id": "6b3234e62f36ccc9ce6132de4abb2418", "name": "6b3234e62f36ccc9ce6132de4abb2418"}, {"lat": 38.9125565, "fusion_lon": 0.0, "fusion_lat": 0.0, "is_disabled": 0, "type": "electric_scooter", "lon": -77.00929533333333, "rental_uris": {"android": "https://dc.lft.to/lastmile_qr_scan", "ios": "https://dc.lft.to/lastmile_qr_scan"}, "is_reserved": 0, "bike_id": "894aaabaff6268d4f6d545a1c0cfc859", "name": "894aaabaff6268d4f6d545a1c0cfc859"}, {"lat": 38.90721633333333, "fusion_lon": 0.0, "fusion_lat": 0.0, "is_disabled": 0, "type": "electric_scooter", "lon": -77.038209, "rental_uris": {"android": "https://dc.lft.to/lastmile_qr_scan", "ios": "https://dc.lft.to/lastmile_qr_scan"}, "is_reserved": 0, "bike_id": "3b4c9369a5b9bf18b54cb3eedbcd995b", "name": "3b4c9369a5b9bf18b54cb3eedbcd995b"}, {"lat": 38.90855033333333, "fusion_lon": 0.0, "fusion_lat": 0.0, "is_disabled": 0, "type": "electric_scooter", "lon": -77.04548633333333, "rental_uris": {"android": "https://dc.lft.to/lastmile_qr_scan", "ios": "https://dc.lft.to/lastmile_qr_scan"}, "is_reserved": 0, "bike_id": "d16cf1b6f67b1bc3399ec577c7226725", "name": "d16cf1b6f67b1bc3399ec577c7226725"}, {"lat": 38.91685733333333, "fusion_lon": 0.0, "fusion_lat": 0.0, "is_disabled": 0, "type": "electric_scooter", "lon": -77.0351995, "rental_uris": {"android": "https://dc.lft.to/lastmile_qr_scan", "ios": "https://dc.lft.to/lastmile_qr_scan"}, "is_reserved": 0, "bike_id": "02470eee7df6bee4ac87e5b9684e4890", "name": "02470eee7df6bee4ac87e5b9684e4890"}, {"lat": 38.909829333333334, "fusion_lon": 0.0, "fusion_lat": 0.0, "is_disabled": 0, "type": "electric_scooter", "lon": -77.03252866666666, "rental_uris": {"android": "https://dc.lft.to/lastmile_qr_scan", "ios": "https://dc.lft.to/lastmile_qr_scan"}, "is_reserved": 0, "bike_id": "d3e625f5b39676e5ad23da556c40a27c", "name": "d3e625f5b39676e5ad23da556c40a27c"}, {"lat": 38.86592866666667, "fusion_lon": 0.0, "fusion_lat": 0.0, "is_disabled": 0, "type": "electric_bike", "lon": -76.932347, "rental_uris": {"android": "https://dc.lft.to/lastmile_qr_scan", "ios": "https://dc.lft.to/lastmile_qr_scan"}, "is_reserved": 0, "bike_id": "e98505849b5d2da669460a707dd5c5d0", "name": "e98505849b5d2da669460a707dd5c5d0"}, {"lat": 38.90560583333333, "fusion_lon": 0.0, "fusion_lat": 0.0, "is_disabled": 0, "type": "electric_scooter", "lon": -77.00606266666666, "rental_uris": {"android": "https://dc.lft.to/lastmile_qr_scan", "ios": "https://dc.lft.to/lastmile_qr_scan"}, "is_reserved": 0, "bike_id": "6f4f5d624dd1bb2119e289f21ad60c14", "name": "6f4f5d624dd1bb2119e289f21ad60c14"}, {"lat": 38.90723233333333, "fusion_lon": 0.0, "fusion_lat": 0.0, "is_disabled": 0, "type": "electric_scooter", "lon": -77.02489516666667, "rental_uris": {"android": "https://dc.lft.to/lastmile_qr_scan", "ios": "https://dc.lft.to/lastmile_qr_scan"}, "is_reserved": 0, "bike_id": "173893af5a08c0f5837ed427a0391c04", "name": "173893af5a08c0f5837ed427a0391c04"}, {"lat": 38.9350065, "fusion_lon": 0.0, "fusion_lat": 0.0, "is_disabled": 0, "type": "electric_bike", "lon": -76.94957516666666, "rental_uris": {"android": "https://dc.lft.to/lastmile_qr_scan", "ios": "https://dc.lft.to/lastmile_qr_scan"}, "is_reserved": 0, "bike_id": "76374706107711195ede1cbd83aa86c4", "name": "76374706107711195ede1cbd83aa86c4"}, {"lat": 38.905910166666665, "fusion_lon": 0.0, "fusion_lat": 0.0, "is_disabled": 0, "type": "electric_bike", "lon": -77.04718766666667, "rental_uris": {"android": "https://dc.lft.to/lastmile_qr_scan", "ios": "https://dc.lft.to/lastmile_qr_scan"}, "is_reserved": 0, "bike_id": "6bf2cbcfda102a85b2d1b12d76c332c6", "name": "6bf2cbcfda102a85b2d1b12d76c332c6"}, {"lat": 38.892201166666666, "fusion_lon": 0.0, "fusion_lat": 0.0, "is_disabled": 0, "type": "electric_scooter", "lon": -77.02718333333333, "rental_uris": {"android": "https://dc.lft.to/lastmile_qr_scan", "ios": "https://dc.lft.to/lastmile_qr_scan"}, "is_reserved": 0, "bike_id": "aad3c20d48fab42d7667fb9ee5d01651", "name": "aad3c20d48fab42d7667fb9ee5d01651"}, {"lat": 38.90356766666667, "fusion_lon": 0.0, "fusion_lat": 0.0, "is_disabled": 0, "type": "electric_scooter", "lon": -77.0112135, "rental_uris": {"android": "https://dc.lft.to/lastmile_qr_scan", "ios": "https://dc.lft.to/lastmile_qr_scan"}, "is_reserved": 0, "bike_id": "f35cb7ca19ba235a31f1e5887bd71a79", "name": "f35cb7ca19ba235a31f1e5887bd71a79"}, {"lat": 38.901176666666665, "fusion_lon": 0.0, "fusion_lat": 0.0, "is_disabled": 0, "type": "electric_bike", "lon": -77.050026, "rental_uris": {"android": "https://dc.lft.to/lastmile_qr_scan", "ios": "https://dc.lft.to/lastmile_qr_scan"}, "is_reserved": 0, "bike_id": "cf09a557f0aa12b70c6081615d03bf95", "name": "cf09a557f0aa12b70c6081615d03bf95"}, {"lat": 38.90746883333333, "fusion_lon": 0.0, "fusion_lat": 0.0, "is_disabled": 0, "type": "electric_scooter", "lon": -77.03216366666666, "rental_uris": {"android": "https://dc.lft.to/lastmile_qr_scan", "ios": "https://dc.lft.to/lastmile_qr_scan"}, "is_reserved": 0, "bike_id": "44a611b0f473969ec66d7290a4c26129", "name": "44a611b0f473969ec66d7290a4c26129"}, {"lat": 38.897431, "fusion_lon": 0.0, "fusion_lat": 0.0, "is_disabled": 0, "type": "electric_scooter", "lon": -77.048127, "rental_uris": {"android": "https://dc.lft.to/lastmile_qr_scan", "ios": "https://dc.lft.to/lastmile_qr_scan"}, "is_reserved": 0, "bike_id": "321e85da903641b6229574638835f01d", "name": "321e85da903641b6229574638835f01d"}, {"lat": 38.914877833333335, "fusion_lon": 0.0, "fusion_lat": 0.0, "is_disabled": 0, "type": "electric_scooter", "lon": -77.04823016666667, "rental_uris": {"android": "https://dc.lft.to/lastmile_qr_scan", "ios": "https://dc.lft.to/lastmile_qr_scan"}, "is_reserved": 0, "bike_id": "c12377f2486143fa767ef63614d1a3c2", "name": "c12377f2486143fa767ef63614d1a3c2"}, {"lat": 38.89483416666667, "fusion_lon": 0.0, "fusion_lat": 0.0, "is_disabled": 0, "type": "electric_scooter", "lon": -77.00188433333334, "rental_uris": {"android": "https://dc.lft.to/lastmile_qr_scan", "ios": "https://dc.lft.to/lastmile_qr_scan"}, "is_reserved": 0, "bike_id": "cb98b2ba61fc5ab95a8c597088d72d59", "name": "cb98b2ba61fc5ab95a8c597088d72d59"}, {"lat": 38.950093, "fusion_lon": 0.0, "fusion_lat": 0.0, "is_disabled": 0, "type": "electric_scooter", "lon": -77.0067435, "rental_uris": {"android": "https://dc.lft.to/lastmile_qr_scan", "ios": "https://dc.lft.to/lastmile_qr_scan"}, "is_reserved": 0, "bike_id": "2bbffd0aac15dabbab7266c5ff7528bd", "name": "2bbffd0aac15dabbab7266c5ff7528bd"}, {"lat": 38.903937666666664, "fusion_lon": 0.0, "fusion_lat": 0.0, "is_disabled": 0, "type": "electric_scooter", "lon": -76.99007983333334, "rental_uris": {"android": "https://dc.lft.to/lastmile_qr_scan", "ios": "https://dc.lft.to/lastmile_qr_scan"}, "is_reserved": 0, "bike_id": "684229a0c43104272574008eadedc2c3", "name": "684229a0c43104272574008eadedc2c3"}, {"lat": 38.91040683333333, "fusion_lon": 0.0, "fusion_lat": 0.0, "is_disabled": 0, "type": "electric_scooter", "lon": -77.0326915, "rental_uris": {"android": "https://dc.lft.to/lastmile_qr_scan", "ios": "https://dc.lft.to/lastmile_qr_scan"}, "is_reserved": 0, "bike_id": "84c5e50b8019efb6f26316ae20670a7c", "name": "84c5e50b8019efb6f26316ae20670a7c"}, {"lat": 38.8820885, "fusion_lon": 0.0, "fusion_lat": 0.0, "is_disabled": 0, "type": "electric_scooter", "lon": -76.98681033333334, "rental_uris": {"android": "https://dc.lft.to/lastmile_qr_scan", "ios": "https://dc.lft.to/lastmile_qr_scan"}, "is_reserved": 0, "bike_id": "6a14b5f1dceb1dd9d27b3945cddc6a47", "name": "6a14b5f1dceb1dd9d27b3945cddc6a47"}, {"lat": 38.909554, "fusion_lon": 0.0, "fusion_lat": 0.0, "is_disabled": 0, "type": "electric_scooter", "lon": -77.0227705, "rental_uris": {"android": "https://dc.lft.to/lastmile_qr_scan", "ios": "https://dc.lft.to/lastmile_qr_scan"}, "is_reserved": 0, "bike_id": "17f240f1b7bc9b5e6ec0f9c3bba0426b", "name": "17f240f1b7bc9b5e6ec0f9c3bba0426b"}, {"lat": 38.939824, "fusion_lon": 0.0, "fusion_lat": 0.0, "is_disabled": 0, "type": "electric_scooter", "lon": -77.0327775, "rental_uris": {"android": "https://dc.lft.to/lastmile_qr_scan", "ios": "https://dc.lft.to/lastmile_qr_scan"}, "is_reserved": 0, "bike_id": "dd501e0ff2bf99a34baebb8e13a9e4b2", "name": "dd501e0ff2bf99a34baebb8e13a9e4b2"}, {"lat": 38.905265666666665, "fusion_lon": 0.0, "fusion_lat": 0.0, "is_disabled": 0, "type": "electric_scooter", "lon": -77.034488, "rental_uris": {"android": "https://dc.lft.to/lastmile_qr_scan", "ios": "https://dc.lft.to/lastmile_qr_scan"}, "is_reserved": 0, "bike_id": "e4d6c151d5a762c00d86f5049f2e2ddb", "name": "e4d6c151d5a762c00d86f5049f2e2ddb"},