{"data": {"bikes": [{"fusion_lat": 0.0, "name": "88b9390b88486d59173d05c99da0b0b8", "lon": -77.03956733333334, "rental_uris": {"android": "https://dc.lft.to/lastmile_qr_scan", "ios": "https://dc.lft.to/lastmile_qr_scan"}, "fusion_lon": 0.0, "bike_id": "88b9390b88486d59173d05c99da0b0b8", "is_disabled": 0, "lat": 38.892401166666666, "is_reserved": 0, "type": "electric_scooter"}, {"fusion_lat": 0.0, "name": "11defebd8a456313e92eb1aaffb33bcc", "lon": -77.02995583333333, "rental_uris": {"android": "https://dc.lft.to/lastmile_qr_scan", "ios": "https://dc.lft.to/lastmile_qr_scan"}, "fusion_lon": 0.0, "bike_id": "11defebd8a456313e92eb1aaffb33bcc", "is_disabled": 0, "lat": 38.901246, "is_reserved": 0, "type": "electric_scooter"}, {"fusion_lat": 0.0, "name": "1e2db7bf90f72e5cf12a7c6eb1f56773", "lon": -77.1084065, "rental_uris": {"android": "https://dc.lft.to/lastmile_qr_scan", "ios": "https://dc.lft.to/lastmile_qr_scan"}, "fusion_lon": 0.0, "bike_id": "1e2db7bf90f72e5cf12a7c6eb1f56773", "is_disabled": 0, "lat": 38.811990333333334, "is_reserved": 0, "type": "electric_bike"}, {"fusion_lat": 0.0, "name": "f45abe7ec56d2e3019051a1efa306b04", "lon": -77.0229705, "rental_uris": {"android": "https://dc.lft.to/lastmile_qr_scan", "ios": "https://dc.lft.to/lastmile_qr_scan"}, "fusion_lon": 0.0, "bike_id": "f45abe7ec56d2e3019051a1efa306b04", "is_disabled": 0, "lat": 38.926530666666665, "is_reserved": 0, "type": "electric_scooter"}, {"fusion_lat": 0.0, "name": "7af749da3567919a549a1c71648516db", "lon": -76.92914766666667, "rental_uris": {"android": "https://dc.lft.to/lastmile_qr_scan", "ios": "https://dc.lft.to/lastmile_qr_scan"}, "fusion_lon": 0.0, "bike_id": "7af749da3567919a549a1c71648516db", "is_disabled": 0, "lat": 38.89291266666667, "is_reserved": 0, "type": "electric_scooter"}, {"fusion_lat": 0.0, "name": "8cd57579739f4a14c0fe3e6827594d25", "lon": -77.04794316666667, "rental_uris": {"android": "https://dc.lft.to/lastmile_qr_scan", "ios": "https://dc.lft.to/lastmile_qr_scan"}, "fusion_lon": 0.0, "bike_id": "8cd57579739f4a14c0fe3e6827594d25", "is_disabled": 0, "lat": 38.899512333333334, "is_reserved": 0, "type": "electric_scooter"}, {"fusion_lat": 0.0, "name": "63f07dac7b77e7f943fc3b89aa399853", "lon": -77.03315766666667, "rental_uris": {"android": "https://dc.lft.to/lastmile_qr_scan", "ios": "https://dc.lft.to/lastmile_qr_scan"}, "fusion_lon": 0.0, "bike_id": "63f07dac7b77e7f943fc3b89aa399853", "is_disabled": 0, "lat": 38.89823833333333, "is_reserved": 0, "type": "electric_scooter"}, {"fusion_lat": 0.0, "name": "b88857d11a290c044ab73695a1f23370", "lon": -77.0091815, "rental_uris": {"android": "https://dc.lft.to/lastmile_qr_scan", "ios": "https://dc.lft.to/lastmile_qr_scan"}, "fusion_lon": 0.0, "bike_id": "b88857d11a290c044ab73695a1f23370", "is_disabled": 0, "lat": 38.895358333333334, "is_reserved": 0, "type": "electric_scooter"}, {"fusion_lat": 0.0, "name": "bd46ba77f54c7790ffa7854c75c90318", "lon": -77.0280315, "rental_uris": {"android": "https://dc.lft.to/lastmile_qr_scan", "ios": "https://dc.lft.to/lastmile_qr_scan"}, "fusion_lon": 0.0, "bike_id": "bd46ba77f54c7790ffa7854c75c90318", "is_disabled": 0, "lat": 38.916810166666664, "is_reserved": 0, "type": "electric_scooter"}, {"fusion_lat": 0.0, "name": "1fe8a29d666100463280a663621ecba5", "lon": -76.98895833333333, "rental_uris": {"android": "https://dc.lft.to/lastmile_qr_scan", "ios": "https://dc.lft.to/lastmile_qr_scan"}, "fusion_lon": 0.0, "bike_id": "1fe8a29d666100463280a663621ecba5", "is_disabled": 0, "lat": 38.86662333333334, "is_reserved": 0, "type": "electric_scooter"}, {"fusion_lat": 0.0, "name": "af4695ad88d7b6fd93064f2948568ff8", "lon": -77.036466, "rental_uris": {"android": "https://dc.lft.to/lastmile_qr_scan", "ios": "https://dc.lft.to/lastmile_qr_scan"}, "fusion_lon": 0.0, "bike_id": "af4695ad88d7b6fd93064f2948568ff8", "is_disabled": 0, "lat": 38.91382433333333, "is_reserved": 0, "type": "electric_scooter"}, {"fusion_lat": 0.0, "name": "77836af1f66c4365b9f393bb8de8f067", "lon": -76.99005516666666, "rental_uris": {"android": "https://dc.lft.to/lastmile_qr_scan", "ios": "https://dc.lft.to/lastmile_qr_scan"}, "fusion_lon": 0.0, "bike_id": "77836af1f66c4365b9f393bb8de8f067", "is_disabled": 0, "lat": 38.86498266666667, "is_reserved": 0, "type": "electric_scooter"}, {"fusion_lat": 0.0, "name": "8a3bca20875926d06025382f37a405b5", "lon": -77.02265033333333, "rental_uris": {"android": "https://dc.lft.to/lastmile_qr_scan", "ios": "https://dc.lft.to/lastmile_qr_scan"}, "fusion_lon": 0.0, "bike_id": "8a3bca20875926d06025382f37a405b5", "is_disabled": 0, "lat": 38.927408166666666, "is_reserved": 0, "type": "electric_scooter"}, {"fusion_lat": 0.0, "name": "d353c3bd6d1c95be16f3dd9d03d653fa", "lon": -77.04620866666667, "rental_uris": {"android": "https://dc.lft.to/lastmile_qr_scan", "ios": "https://dc.lft.to/lastmile_qr_scan"}, "fusion_lon": 0.0, "bike_id": "d353c3bd6d1c95be16f3dd9d03d653fa", "is_disabled": 0, "lat": 38.902111833333336, "is_reserved": 0, "type": "electric_scooter"}, {"fusion_lat": 0.0, "name": "e3e2f3af76f1a60900cc227ae33f8d86", "lon": -77.24540083333333, "rental_uris": {"android": "https://dc.lft.to/lastmile_qr_scan", "ios": "https://dc.lft.to/lastmile_qr_scan"}, "fusion_lon": 0.0, "bike_id": "e3e2f3af76f1a60900cc227ae33f8d86", "is_disabled": 0, "lat": 38.88236583333333, "is_reserved": 0, "type": "electric_bike"}, {"fusion_lat": 0.0, "name": "2f1b31a1fb647588864f32191571296a", "lon": -77.02961366666666, "rental_uris": {"android": "https://dc.lft.to/lastmile_qr_scan", "ios": "https://dc.lft.to/lastmile_qr_scan"}, "fusion_lon": 0.0, "bike_id": "2f1b31a1fb647588864f32191571296a", "is_disabled": 0, "lat": 38.91663416666667, "is_reserved": 0, "type": "electric_scooter"}, {"fusion_lat": 0.0, "name": "0fdab6b263331ba967a545c1c86b51f4", "lon": -77.0283375, "rental_uris": {"android": "https://dc.lft.to/lastmile_qr_scan", "ios": "https://dc.lft.to/lastmile_qr_scan"}, "fusion_lon": 0.0, "bike_id": "0fdab6b263331ba967a545c1c86b51f4", "is_disabled": 0, "lat": 38.88730266666666, "is_reserved": 0, "type": "electric_scooter"}, {"fusion_lat": 0.0, "name": "42478ebd6b30a68d8a3c64125fc599c5", "lon": -76.992933, "rental_uris": {"android": "https://dc.lft.to/lastmile_qr_scan", "ios": "https://dc.lft.to/lastmile_qr_scan"}, "fusion_lon": 0.0, "bike_id": "42478ebd6b30a68d8a3c64125fc599c5", "is_disabled": 0, "lat": 38.857549166666665, "is_reserved": 0, "type": "electric_scooter"}, {"fusion_lat": 0.0, "name": "cd88a55ac01ee0c9e25c7307c5c02c42", "lon": -76.9914405, "rental_uris": {"android": "https://dc.lft.to/lastmile_qr_scan", "ios": "https://dc.lft.to/lastmile_qr_scan"}, "fusion_lon": 0.0, "bike_id": "cd88a55ac01ee0c9e25c7307c5c02c42", "is_disabled": 0, "lat": 38.88592883333333, "is_reserved": 0, "type": "electric_scooter"}, {"fusion_lat": 0.0, "name": "7e264bda87c5270010e14f22c59a2abb", "lon": -77.0427565, "rental_uris": {"android": "https://dc.lft.to/lastmile_qr_scan", "ios": "https://dc.lft.to/lastmile_qr_scan"}, "fusion_lon": 0.0, "bike_id": "7e264bda87c5270010e14f22c59a2abb", "is_disabled": 0, "lat": 38.905408, "is_reserved": 0, "type": "electric_scooter"}, {"fusion_lat": 0.0, "name": "f24cc893dd9fb1bb11dac372876c0060", "lon": -77.02215883333334, "rental_uris": {"android": "https://dc.lft.to/lastmile_qr_scan", "ios": "https://dc.lft.to/lastmile_qr_scan"}, "fusion_lon": 0.0, "bike_id": "f24cc893dd9fb1bb11dac372876c0060", "is_disabled": 0, "lat": 38.92469083333334, "is_reserved": 0, "type": "electric_scooter"}, {"fusion_lat": 0.0, "name": "bd1b105c177138020eb3bf7fa5602b97", "lon": -77.03268533333333, "rental_uris": {"android": "https://dc.lft.to/lastmile_qr_scan", "ios": "https://dc.lft.to/lastmile_qr_scan"}, "fusion_lon": 0.0, "bike_id": "bd1b105c177138020eb3bf7fa5602b97", "is_disabled": 0, "lat": 38.920919166666664, "is_reserved": 0, "type": "electric_scooter"}, {"fusion_lat": 0.0, "name": "a9f6a5cded28f52e250a0ce9db663c7b", "lon": -77.015208, "rental_uris": {"android": "https://dc.lft.to/lastmile_qr_scan", "ios": "https://dc.lft.to/lastmile_qr_scan"}, "fusion_lon": 0.0, "bike_id": "a9f6a5cded28f52e250a0ce9db663c7b", "is_disabled": 0, "lat": 38.900430666666665, "is_reserved": 0, "type": "electric_scooter"}, {"fusion_lat": 0.0, "name": "e06240623de48ac129acb1e993c2f95f", "lon": -77.049054, "rental_uris": {"android": "https://dc.lft.to/lastmile_qr_scan", "ios": "https://dc.lft.to/lastmile_qr_scan"}, "fusion_lon": 0.0, "bike_id": "e06240623de48ac129acb1e993c2f95f", "is_disabled": 0, "lat": 38.91161833333334, "is_reserved": 0, "type": "electric_scooter"}, {"fusion_lat": 0.0, "name": "cd2a0597db0ada95fa4e141bfd059bc3", "lon": -77.0442185, "rental_uris": {"android": "https://dc.lft.to/lastmile_qr_scan", "ios": "https://dc.lft.to/lastmile_qr_scan"}, "fusion_lon": 0.0, "bike_id": "cd2a0597db0ada95fa4e141bfd059bc3", "is_disabled": 0, "lat": 38.909402666666665, "is_reserved": 0, "type": "electric_scooter"}, {"fusion_lat": 0.0, "name": "546cfa8029a4d53705082c6ec22be946", "lon": -77.02561133333333, "rental_uris": {"android": "https://dc.lft.to/lastmile_qr_scan", "ios": "https://dc.lft.to/lastmile_qr_scan"}, "fusion_lon": 0.0, "bike_id": "546cfa8029a4d53705082c6ec22be946", "is_disabled": 0, "lat": 38.9385515, "is_reserved": 0, "type": "electric_scooter"}, {"fusion_lat": 0.0, "name": "8edb35ffd57c23ac2b822f0d0bbf0de7", "lon": -77.02886066666667, "rental_uris": {"android": "https://dc.lft.to/lastmile_qr_scan", "ios": "https://dc.lft.to/lastmile_qr_scan"}, "fusion_lon": 0.0, "bike_id": "8edb35ffd57c23ac2b822f0d0bbf0de7", "is_disabled": 0, "lat": 38.93978633333333, "is_reserved": 0, "type": "electric_scooter"}, {"fusion_lat": 0.0, "name": "633f6a746509a89431543564a70c7cc4", "lon": -77.13102016666667, "rental_uris": {"android": "https://dc.lft.to/lastmile_qr_scan", "ios": "https://dc.lft.to/lastmile_qr_scan"}, "fusion_lon": 0.0, "bike_id": "633f6a746509a89431543564a70c7cc4", "is_disabled": 0, "lat": 39.02432733333333, "is_reserved": 0, "type": "electric_bike"}, {"fusion_lat": 0.0, "name": "66864ca8ccf925c87fe2d7372838d717", "lon": -77.0510895, "rental_uris": {"android": "https://dc.lft.to/lastmile_qr_scan", "ios": "https://dc.lft.to/lastmile_qr_scan"}, "fusion_lon": 0.0, "bike_id": "66864ca8ccf925c87fe2d7372838d717", "is_disabled": 0, "lat": 38.923630833333334, "is_reserved": 0, "type": "electric_scooter"}, {"fusion_lat": 0.0, "name": "2256840a477fa9165132b33652e2a949", "lon": -77.04176233333334, "rental_uris": {"android": "https://dc.lft.to/lastmile_qr_scan", "ios": "https://dc.lft.to/lastmile_qr_scan"}, "fusion_lon": 0.0, "bike_id": "2256840a477fa9165132b33652e2a949", "is_disabled": 0, "lat": 38.9185665, "is_reserved": 0, "type": "electric_scooter"}, {"fusion_lat": 0.0, "name": "8e358cb28f5da377f22c2b0cd9b942aa", "lon": -77.02390266666667, "rental_uris": {"android": "https://dc.lft.to/lastmile_qr_scan", "ios": "https://dc.lft.to/lastmile_qr_scan"}, "fusion_lon": 0.0, "bike_id": "8e358cb28f5da377f22c2b0cd9b942aa", "is_disabled": 0, "lat": 38.92069933333333, "is_reserved": 0, "type": "electric_scooter"}, {"fusion_lat": 0.0, "name": "69290273203528b2cc1c0851cbcff0bb", "lon": -77.01061633333333, "rental_uris": {"android": "https://dc.lft.to/lastmile_qr_scan", "ios": "https://dc.lft.to/lastmile_qr_scan"}, "fusion_lon": 0.0, "bike_id": "69290273203528b2cc1c0851cbcff0bb", "is_disabled": 0, "lat": 38.91269066666667, "is_reserved": 0, "type": "electric_scooter"}, {"fusion_lat": 0.0, "name": "ef792c07d05847426333a3d551de8ba6", "lon": -77.0059705, "rental_uris": {"android": "https://dc.lft.to/lastmile_qr_scan", "ios": "https://dc.lft.to/lastmile_qr_scan"}, "fusion_lon": 0.0, "bike_id": "ef792c07d05847426333a3d551de8ba6", "is_disabled": 0, "lat": 38.87642266666667, "is_reserved": 0, "type": "electric_scooter"}, {"fusion_lat": 0.0, "name": "118531ac54384b9aeff11d78fba3c204", "lon": -77.028094, "rental_uris": {"android": "https://dc.lft.to/lastmile_qr_scan", "ios": "https://dc.lft.to/lastmile_qr_scan"}, "fusion_lon": 0.0, "bike_id": "118531ac54384b9aeff11d78fba3c204", "is_disabled": 0, "lat": 38.895644833333336, "is_reserved": 0, "type": "electric_scooter"}, {"fusion_lat": 0.0, "name": "6263fd31097c86c6073717d587df1c60", "lon": -76.98230633333333, "rental_uris": {"android": "https://dc.lft.to/lastmile_qr_scan", "ios": "https://dc.lft.to/lastmile_qr_scan"}, "fusion_lon": 0.0, "bike_id": "6263fd31097c86c6073717d587df1c60", "is_disabled": 0, "lat": 38.91647483333333, "is_reserved": 0, "type": "electric_scooter"}, {"fusion_lat": 0.0, "name": "922de6e94d665f12b895c7b4e771df70", "lon": -77.03595566666667, "rental_uris": {"android": "https://dc.lft.to/lastmile_qr_scan", "ios": "https://dc.lft.to/lastmile_qr_scan"}, "fusion_lon": 0.0, "bike_id": "922de6e94d665f12b895c7b4e771df70", "is_disabled": 0, "lat": 38.928089, "is_reserved": 0, "type": "electric_scooter"}, {"fusion_lat": 0.0, "name": "ecedaab52b84ebe32fb86d0dbc68d0c7", "lon": -77.0194105, "rental_uris": {"android": "https://dc.lft.to/lastmile_qr_scan", "ios": "https://dc.lft.to/lastmile_qr_scan"}, "fusion_lon": 0.0, "bike_id": "ecedaab52b84ebe32fb86d0dbc68d0c7", "is_disabled": 0, "lat": 38.923691833333336, "is_reserved": 0, "type": "electric_scooter"}, {"fusion_lat": 0.0, "name": "617532ef6b88893d53b63361690f2d7b", "lon": -77.0177625, "rental_uris": {"android": "https://dc.lft.to/lastmile_qr_scan", "ios": "https://dc.lft.to/lastmile_qr_scan"}, "fusion_lon": 0.0, "bike_id": "617532ef6b88893d53b63361690f2d7b", "is_disabled": 0, "lat": 38.88711816666667, "is_reserved": 0, "type": "electric_scooter"}, {"fusion_lat": 0.0, "name": "51eb30012fe70560313dad54d4b4dc42", "lon": -77.03537033333333, "rental_uris": {"android": "https://dc.lft.to/lastmile_qr_scan", "ios": "https://dc.lft.to/lastmile_qr_scan"}, "fusion_lon": 0.0, "bike_id": "51eb30012fe70560313dad54d4b4dc42", "is_disabled": 0, "lat": 38.91864233333333, "is_reserved": 0, "type": "electric_scooter"}, {"fusion_lat": 0.0, "name": "8f94902b78fbd841bfaae1f964f73d93", "lon": -77.0090205, "rental_uris": {"android": "https://dc.lft.to/lastmile_qr_scan", "ios": "https://dc.lft.to/lastmile_qr_scan"}, "fusion_lon": 0.0, "bike_id": "8f94902b78fbd841bfaae1f964f73d93", "is_disabled": 0, "lat": 38.89890166666667, "is_reserved": 0, "type": "electric_scooter"}, {"fusion_lat": 0.0, "name": "8e15d0df936ac636ce916eec40be727d", "lon": -77.05848766666666, "rental_uris": {"android": "https://dc.lft.to/lastmile_qr_scan", "ios": "https://dc.lft.to/lastmile_qr_scan"}, "fusion_lon": 0.0, "bike_id": "8e15d0df936ac636ce916eec40be727d", "is_disabled": 0, "lat": 38.93044483333333, "is_reserved": 0, "type": "electric_scooter"}, {"fusion_lat": 0.0, "name": "04e02a29a86859de650dc87ef7b9ff55", "lon": -77.02966683333334, "rental_uris": {"android": "https://dc.lft.to/lastmile_qr_scan", "ios": "https://dc.lft.to/lastmile_qr_scan"}, "fusion_lon": 0.0, "bike_id": "04e02a29a86859de650dc87ef7b9ff55", "is_disabled": 0, "lat": 38.9166385, "is_reserved": 0, "type": "electric_scooter"}, {"fusion_lat": 0.0, "name": "e0fe88e3c226d659bfa011fb5186ebf6", "lon": -77.02533366666667, "rental_uris": {"android": "https://dc.lft.to/lastmile_qr_scan", "ios": "https://dc.lft.to/lastmile_qr_scan"}, "fusion_lon": 0.0, "bike_id": "e0fe88e3c226d659bfa011fb5186ebf6", "is_disabled": 0, "lat": 38.92747816666667, "is_reserved": 0, "type": "electric_scooter"}, {"fusion_lat": 0.0, "name": "9a5f8cb73db5d958f9c0962c581a8ecd", "lon": -77.00922366666667, "rental_uris": {"android": "https://dc.lft.to/lastmile_qr_scan", "ios": "https://dc.lft.to/lastmile_qr_scan"}, "fusion_lon": 0.0, "bike_id": "9a5f8cb73db5d958f9c0962c581a8ecd", "is_disabled": 0, "lat": 38.916168, "is_reserved": 0, "type": "electric_scooter"}, {"fusion_lat": 0.0, "name": "b75f18a00f709dadffd978b85a9162bd", "lon": -77.0436835, "rental_uris": {"android": "https://dc.lft.to/lastmile_qr_scan", "ios": "https://dc.lft.to/lastmile_qr_scan"}, "fusion_lon": 0.0, "bike_id": "b75f18a00f709dadffd978b85a9162bd", "is_disabled": 0, "lat": 38.91040483333333, "is_reserved": 0, "type": "electric_scooter"}, {"fusion_lat": 0.0, "name": "4e719d23cd3c87e590351780a5ef03d9", "lon": -77.0262805, "rental_uris": {"android": "https://dc.lft.to/lastmile_qr_scan", "ios": "https://dc.lft.to/lastmile_qr_scan"}, "fusion_lon": 0.0, "bike_id": "4e719d23cd3c87e590351780a5ef03d9", "is_disabled": 0, "lat": 38.96219633333333, "is_reserved": 0, "type": "electric_bike"}, {"fusion_lat": 0.0, "name": "343e0f99ddd0c4b47e8359003b0e37e1", "lon": -76.98593016666666, "rental_uris": {"android": "https://dc.lft.to/lastmile_qr_scan", "ios": "https://dc.lft.to/lastmile_qr_scan"}, "fusion_lon": 0.0, "bike_id": "343e0f99ddd0c4b47e8359003b0e37e1", "is_disabled": 0, "lat": 38.86685083333333, "is_reserved": 0, "type": "electric_scooter"}, {"fusion_lat": 0.0, "name": "19d22dac50835f2d0ea0343345597ede", "lon": -76.99371666666667, "rental_uris": {"android": "https://dc.lft.to/lastmile_qr_scan", "ios": "https://dc.lft.to/lastmile_qr_scan"}, "fusion_lon": 0.0, "bike_id": "19d22dac50835f2d0ea0343345597ede", "is_disabled": 0, "lat": 38.888323, "is_reserved": 0, "type": "electric_scooter"}, {"fusion_lat": 0.0, "name": "53327a6f4cc814cfe2e279917a5f0afc", "lon": -76.99486466666667, "rental_uris": {"android": "https://dc.lft.to/lastmile_qr_scan", "ios": "https://dc.lft.to/lastmile_qr_scan"}, "fusion_lon": 0.0, "bike_id": "53327a6f4cc814cfe2e279917a5f0afc", "is_disabled": 0, "lat": 38.88602866666667, "is_reserved": 0, "type": "electric_scooter"}, {"fusion_lat": 0.0, "name": "7ed4896acb68dea8d868c43cfe8652f7", "lon": -77.034554, "rental_uris": {"android": "https://dc.lft.to/lastmile_qr_scan", "ios": "https://dc.lft.to/lastmile_qr_scan"}, "fusion_lon": 0.0, "bike_id": "7ed4896acb68dea8d868c43cfe8652f7", "is_disabled": 0, "lat": 38.9181255, "is_reserved": 0, "type": "electric_scooter"}, {"fusion_lat": 0.0, "name": "4fcded252c54007c5f5d2ef5b1c49ffa", "lon": -77.042105, "rental_uris": {"android": "https://dc.lft.to/lastmile_qr_scan", "ios": "https://dc.lft.to/lastmile_qr_scan"}, "fusion_lon": 0.0, "bike_id": "4fcded252c54007c5f5d2ef5b1c49ffa", "is_disabled": 0, "lat": 38.91122816666667, "is_reserved": 0, "type": "electric_scooter"}, {"fusion_lat": 0.0, "name": "372c70ee889177dee36c0c975102a018", "lon": -77.080265, "rental_uris": {"android": "https://dc.lft.to/lastmile_qr_scan", "ios": "https://dc.lft.to/lastmile_qr_scan"}, "fusion_lon": 0.0, "bike_id": "372c70ee889177dee36c0c975102a018", "is_disabled": 0, "lat": 38.9505545, "is_reserved": 0, "type": "electric_scooter"}, {"fusion_lat": 0.0, "name": "8f3e9fe5c5d5d1add3c4c8810adf5f2f", "lon": -76.97532283333334, "rental_uris": {"android": "https://dc.lft.to/lastmile_qr_scan", "ios": "https://dc.lft.to/lastmile_qr_scan"}, "fusion_lon": 0.0, "bike_id": "8f3e9fe5c5d5d1add3c4c8810adf5f2f", "is_disabled": 0, "lat": 38.9032735, "is_reserved": 0, "type": "electric_bike"}, {"fusion_lat": 0.0, "name": "ee394e0d0ad26bf5ff353faa7e7bd63b", "lon": -77.05130416666667, "rental_uris": {"android": "https://dc.lft.to/lastmile_qr_scan", "ios": "https://dc.lft.to/lastmile_qr_scan"}, "fusion_lon": 0.0, "bike_id": "ee394e0d0ad26bf5ff353faa7e7bd63b", "is_disabled": 0, "lat": 38.92360633333333, "is_reserved": 0, "type": "electric_scooter"}, {"fusion_lat": 0.0, "name": "10b76dbf7e563abd761261931054e61f", "lon": -77.0591655, "rental_uris": {"android": "https://dc.lft.to/lastmile_qr_scan", "ios": "https://dc.lft.to/lastmile_qr_scan"}, "fusion_lon": 0.0, "bike_id": "10b76dbf7e563abd761261931054e61f", "is_disabled": 0, "lat": 38.905435833333335, "is_reserved": 0, "type": "electric_scooter"}, {"fusion_lat": 0.0, "name": "9e0c40fa63d4d080352882f91db9e356", "lon": -77.03653566666667, "rental_uris": {"android": "https://dc.lft.to/lastmile_qr_scan", "ios": "https://dc.lft.to/lastmile_qr_scan"}, "fusion_lon": 0.0, "bike_id": "9e0c40fa63d4d080352882f91db9e356", "is_disabled": 0, "lat": 38.902731333333335, "is_reserved": 0, "type": "electric_scooter"}, {"fusion_lat": 0.0, "name": "fec1e476d76bd57c8e2082c52e093683", "lon": -77.0909705, "rental_uris": {"android": "https://dc.lft.to/lastmile_qr_scan", "ios": "https://dc.lft.to/lastmile_qr_scan"}, "fusion_lon": 0.0, "bike_id": "fec1e476d76bd57c8e2082c52e093683", "is_disabled": 0, "lat": 38.94154, "is_reserved": 0, "type": "electric_scooter"}, {"fusion_lat": 0.0, "name": "9127c62be4c1d18bf67639b53f49c332", "lon": -76.9288495, "rental_uris": {"android": "https://dc.lft.to/lastmile_qr_scan", "ios": "https://dc.lft.to/lastmile_qr_scan"}, "fusion_lon": 0.0, "bike_id": "9127c62be4c1d18bf67639b53f49c332", "is_disabled": 0, "lat": 38.978336166666665, "is_reserved": 0, "type": "electric_bike"}, {"fusion_lat": 0.0, "name": "416fbb1e6762be112427b2973f73a496", "lon": -77.045462, "rental_uris": {"android": "https://dc.lft.to/lastmile_qr_scan", "ios": "https://dc.lft.to/lastmile_qr_scan"}, "fusion_lon": 0.0, "bike_id": "416fbb1e6762be112427b2973f73a496", "is_disabled": 0, "lat": 38.91311066666667, "is_reserved": 0, "type": "electric_scooter"}, {"fusion_lat": 0.0, "name": "2ef8a0c3cd27d3e644b13c2e9b6106f9", "lon": -76.980777, "rental_uris": {"android": "https://dc.lft.to/lastmile_qr_scan", "ios": "https://dc.lft.to/lastmile_qr_scan"}, "fusion_lon": 0.0, "bike_id": "2ef8a0c3cd27d3e644b13c2e9b6106f9", "is_disabled": 0, "lat": 38.919467, "is_reserved": 0, "type": "electric_scooter"}, {"fusion_lat": 0.0, "name": "4a1495e77fdc9e655bf93b9fd007996d", "lon": -76.930224, "rental_uris": {"android": "https://dc.lft.to/lastmile_qr_scan", "ios": "https://dc.lft.to/lastmile_qr_scan"}, "fusion_lon": 0.0, "bike_id": "4a1495e77fdc9e655bf93b9fd007996d", "is_disabled": 0, "lat": 38.90165066666667, "is_reserved": 0, "type": "electric_scooter"}, {"fusion_lat": 0.0, "name": "83d61b1330cfe65e948abec032e3d1a1", "lon": -76.93019983333333, "rental_uris": {"android": "https://dc.lft.to/lastmile_qr_scan", "ios": "https://dc.lft.to/lastmile_qr_scan"}, "fusion_lon": 0.0, "bike_id": "83d61b1330cfe65e948abec032e3d1a1", "is_disabled": 0, "lat": 38.896476, "is_reserved": 0, "type": "electric_bike"}, {"fusion_lat": 0.0, "name": "18d314dd1e85d4daf5d2937e0828995a", "lon": -77.0881145, "rental_uris": {"android": "https://dc.lft.to/lastmile_qr_scan", "ios": "https://dc.lft.to/lastmile_qr_scan"}, "fusion_lon": 0.0, "bike_id": "18d314dd1e85d4daf5d2937e0828995a", "is_disabled": 0, "lat": 38.911752, "is_reserved": 0, "type": "electric_bike"}, {"fusion_lat": 0.0, "name": "129484c0d585afec31e8c50835cf20dd", "lon": -77.022776, "rental_uris": {"android": "https://dc.lft.to/lastmile_qr_scan", "ios": "https://dc.lft.to/lastmile_qr_scan"}, "fusion_lon": 0.0, "bike_id": "129484c0d585afec31e8c50835cf20dd", "is_disabled": 0, "lat": 38.8936475, "is_reserved": 0, "type": "electric_scooter"}, {"fusion_lat": 0.0, "name": "80b535a92c9ce586b3d90df6d20237ea", "lon": -77.01740866666667, "rental_uris": {"android": "https://dc.lft.to/lastmile_qr_scan", "ios": "https://dc.lft.to/lastmile_qr_scan"}, "fusion_lon": 0.0, "bike_id": "80b535a92c9ce586b3d90df6d20237ea", "is_disabled": 0, "lat": 38.88014283333333, "is_reserved": 0, "type": "electric_scooter"}, {"fusion_lat": 0.0, "name": "441550c817391840d91338373731b79c", "lon": -76.97613833333334, "rental_uris": {"android": "https://dc.lft.to/lastmile_qr_scan", "ios": "https://dc.lft.to/lastmile_qr_scan"}, "fusion_lon": 0.0, "bike_id": "441550c817391840d91338373731b79c", "is_disabled": 0, "lat": 38.926488666666664, "is_reserved": 0, "type": "electric_scooter"}, {"fusion_lat": 0.0, "name": "c0c0ab81fedbc3e3db8e57888504ca32", "lon": -77.00676816666666, "rental_uris": {"android": "https://dc.lft.to/lastmile_qr_scan", "ios": "https://dc.lft.to/lastmile_qr_scan"}, "fusion_lon": 0.0, "bike_id": "c0c0ab81fedbc3e3db8e57888504ca32", "is_disabled": 0, "lat": 38.834914, "is_reserved": 0, "type": "electric_scooter"}, {"fusion_lat": 0.0, "name": "1ea88ee01e5a0fa7512c6af0a4b6f7f2", "lon": -77.01076583333334, "rental_uris": {"android": "https://dc.lft.to/lastmile_qr_scan", "ios": "https://dc.lft.to/lastmile_qr_scan"}, "fusion_lon": 0.0, "bike_id": "1ea88ee01e5a0fa7512c6af0a4b6f7f2", "is_disabled": 0, "lat": 38.894800000000004, "is_reserved": 0, "type": "electric_scooter"}, {"fusion_lat": 0.0, "name": "aa10a6a7957c58323902a4cca66fef28", "lon": -76.997098, "rental_uris": {"android": "https://dc.lft.to/lastmile_qr_scan", "ios": "https://dc.lft.to/lastmile_qr_scan"}, "fusion_lon": 0.0, "bike_id": "aa10a6a7957c58323902a4cca66fef28", "is_disabled": 0, "lat": 38.884835, "is_reserved": 0, "type": "electric_scooter"}, {"fusion_lat": 0.0, "name": "c89fdeb0adc7b8eeee8b065fac262e1e", "lon": -76.99991066666666, "rental_uris": {"android": "https://dc.lft.to/lastmile_qr_scan", "ios": "https://dc.lft.to/lastmile_qr_scan"}, "fusion_lon": 0.0, "bike_id": "c89fdeb0adc7b8eeee8b065fac262e1e", "is_disabled": 0, "lat": 38.90745616666667, "is_reserved": 0, "type": "electric_scooter"}, {"fusion_lat": 0.0, "name": "c7183da0ba08b2102bd67f753b02d3d4", "lon": -77.03710066666666, "rental_uris": {"android": "https://dc.lft.to/lastmile_qr_scan", "ios": "https://dc.lft.to/lastmile_qr_scan"}, "fusion_lon": 0.0, "bike_id": "c7183da0ba08b2102bd67f753b02d3d4", "is_disabled": 0, "lat": 38.926520833333335, "is_reserved": 0, "type": "electric_scooter"}, {"fusion_lat": 0.0, "name": "a51807ea6bae43c3219b939e0ac807e8", "lon": -77.031824, "rental_uris": {"android": "https://dc.lft.to/lastmile_qr_scan", "ios": "https://dc.lft.to/lastmile_qr_scan"}, "fusion_lon": 0.0, "bike_id": "a51807ea6bae43c3219b939e0ac807e8", "is_disabled": 0, "lat": 38.91124283333333, "is_reserved": 0, "type": "electric_scooter"}, {"fusion_lat": 0.0, "name": "729d93263f5904c7e2f7ab44489dd126", "lon": -77.03254283333334, "rental_uris": {"android": "https://dc.lft.to/lastmile_qr_scan", "ios": "https://dc.lft.to/lastmile_qr_scan"}, "fusion_lon": 0.0, "bike_id": "729d93263f5904c7e2f7ab44489dd126", "is_disabled": 0, "lat": 38.931312166666665, "is_reserved": 0, "type": "electric_scooter"}, {"fusion_lat": 0.0, "name": "00b9c406afaa01d4694fb41a2882df28", "lon": -76.948848, "rental_uris": {"android": "https://dc.lft.to/lastmile_qr_scan", "ios": "https://dc.lft.to/lastmile_qr_scan"}, "fusion_lon": 0.0, "bike_id": "00b9c406afaa01d4694fb41a2882df28", "is_disabled": 0, "lat": 38.895067833333336, "is_reserved": 0, "type": "electric_scooter"}, {"fusion_lat": 0.0, "name": "138d88b24c3f13fbc9676a6016c730dd", "lon": -77.02201683333334, "rental_uris": {"android": "https://dc.lft.to/lastmile_qr_scan", "ios": "https://dc.lft.to/lastmile_qr_scan"}, "fusion_lon": 0.0, "bike_id": "138d88b24c3f13fbc9676a6016c730dd", "is_disabled": 0, "lat": 38.892422333333336, "is_reserved": 0, "type": "electric_scooter"}, {"fusion_lat": 0.0, "name": "23902ede7583aef4766fb2d6186574c4", "lon": -77.0233955, "rental_uris": {"android": "https://dc.lft.to/lastmile_qr_scan", "ios": "https://dc.lft.to/lastmile_qr_scan"}, "fusion_lon": 0.0, "bike_id": "23902ede7583aef4766fb2d6186574c4", "is_disabled": 0, "lat": 38.9296925, "is_reserved": 0, "type": "electric_scooter"}, {"fusion_lat": 0.0, "name": "01b6ba008a15ff5c888fdd99f6196663", "lon": -77.03217916666667, "rental_uris": {"android": "https://dc.lft.to/lastmile_qr_scan", "ios": "https://dc.lft.to/lastmile_qr_scan"}, "fusion_lon": 0.0, "bike_id": "01b6ba008a15ff5c888fdd99f6196663", "is_disabled": 0, "lat": 38.917825, "is_reserved": 0, "type": "electric_scooter"}, {"fusion_lat": 0.0, "name": "2a43854d6e130de56123c333e880025f", "lon": -77.022002, "rental_uris": {"android": "https://dc.lft.to/lastmile_qr_scan", "ios": "https://dc.lft.to/lastmile_qr_scan"}, "fusion_lon": 0.0, "bike_id": "2a43854d6e130de56123c333e880025f", "is_disabled": 0, "lat": 38.91434733333333, "is_reserved": 0, "type": "electric_scooter"}, {"fusion_lat": 0.0, "name": "bddf345bbf045389422fb4751e1567e6", "lon": -77.0020525, "rental_uris": {"android": "https://dc.lft.to/lastmile_qr_scan", "ios": "https://dc.lft.to/lastmile_qr_scan"}, "fusion_lon": 0.0, "bike_id": "bddf345bbf045389422fb4751e1567e6", "is_disabled": 0, "lat": 38.888448333333336, "is_reserved": 0, "type": "electric_scooter"}, {"fusion_lat": 0.0, "name": "28e0658c38ce5434779d89f760d8aaf7", "lon": -77.02928933333334, "rental_uris": {"android": "https://dc.lft.to/lastmile_qr_scan", "ios": "https://dc.lft.to/lastmile_qr_scan"}, "fusion_lon": 0.0, "bike_id": "28e0658c38ce5434779d89f760d8aaf7", "is_disabled": 0, "lat": 38.92057783333333, "is_reserved": 0, "type": "electric_scooter"}, {"fusion_lat": 0.0, "name": "a61493a6ce8ba295ad511778f1bcb0c9", "lon": -77.03795016666666, "rental_uris": {"android": "https://dc.lft.to/lastmile_qr_scan", "ios": "https://dc.lft.to/lastmile_qr_scan"}, "fusion_lon": 0.0, "bike_id": "a61493a6ce8ba295ad511778f1bcb0c9", "is_disabled": 0, "lat": 38.93103633333333, "is_reserved": 0, "type": "electric_scooter"}, {"fusion_lat": 0.0, "name": "a128eaac102e11c123d4579888ce43b8", "lon": -76.93303033333333, "rental_uris": {"android": "https://dc.lft.to/lastmile_qr_scan", "ios": "https://dc.lft.to/lastmile_qr_scan"}, "fusion_lon": 0.0, "bike_id": "a128eaac102e11c123d4579888ce43b8", "is_disabled": 0, "lat": 38.8919425, "is_reserved": 0, "type": "electric_scooter"}, {"fusion_lat": 0.0, "name": "2eb9a971e18f08a44aabb07296df841d", "lon": -77.03181633333334, "rental_uris": {"android": "https://dc.lft.to/lastmile_qr_scan", "ios": "https://dc.lft.to/lastmile_qr_scan"}, "fusion_lon": 0.0, "bike_id": "2eb9a971e18f08a44aabb07296df841d", "is_disabled": 0, "lat": 38.901081833333336, "is_reserved": 0, "type": "electric_scooter"}, {"fusion_lat": 0.0, "name": "e453ff0320066f5b01885a96b4e74092", "lon": -77.0191605, "rental_uris": {"android": "https://dc.lft.to/lastmile_qr_scan", "ios": "https://dc.lft.to/lastmile_qr_scan"}, "fusion_lon": 0.0, "bike_id": "e453ff0320066f5b01885a96b4e74092", "is_disabled": 0, "lat": 38.9237335, "is_reserved": 0, "type": "electric_scooter"}, {"fusion_lat": 0.0, "name": "49b2af8aba5b242d6a6aecd28588af06", "lon": -77.04644816666666, "rental_uris": {"android": "https://dc.lft.to/lastmile_qr_scan", "ios": "https://dc.lft.to/lastmile_qr_scan"}, "fusion_lon": 0.0, "bike_id": "49b2af8aba5b242d6a6aecd28588af06", "is_disabled": 0, "lat": 38.915715, "is_reserved": 0, "type": "electric_scooter"}, {"fusion_lat": 0.0, "name": "867e2bd5b1ae8c71a15373c8c3b91686", "lon": -77.08517916666666, "rental_uris": {"android": "https://dc.lft.to/lastmile_qr_scan", "ios": "https://dc.lft.to/lastmile_qr_scan"}, "fusion_lon": 0.0, "bike_id": "867e2bd5b1ae8c71a15373c8c3b91686", "is_disabled": 0, "lat": 38.961180166666665, "is_reserved": 0, "type": "electric_bike"}, {"fusion_lat": 0.0, "name": "834deba5b7c36a9dcd6320a2e919794c", "lon": -77.02388066666667, "rental_uris": {"android": "https://dc.lft.to/lastmile_qr_scan", "ios": "https://dc.lft.to/lastmile_qr_scan"}, "fusion_lon": 0.0, "bike_id": "834deba5b7c36a9dcd6320a2e919794c", "is_disabled": 0, "lat": 38.915609833333335, "is_reserved": 0, "type": "electric_scooter"}, {"fusion_lat": 0.0, "name": "7c7c4747c88c04eab50245c3425bb66a", "lon": -77.02782733333333, "rental_uris": {"android": "https://dc.lft.to/lastmile_qr_scan", "ios": "https://dc.lft.to/lastmile_qr_scan"}, "fusion_lon": 0.0, "bike_id": "7c7c4747c88c04eab50245c3425bb66a", "is_disabled": 0, "lat": 38.95398216666667, "is_reserved": 0, "type": "electric_scooter"}, {"fusion_lat": 0.0, "name": "0004e168592ea0a3dbe52a0861debc77", "lon": -77.05160366666667, "rental_uris": {"android": "https://dc.lft.to/lastmile_qr_scan", "ios": "https://dc.lft.to/lastmile_qr_scan"}, "fusion_lon": 0.0, "bike_id": "0004e168592ea0a3dbe52a0861debc77", "is_disabled": 0, "lat": 39.04309966666667, "is_reserved": 0, "type": "electric_bike"}, {"fusion_lat": 0.0, "name": "64b2c15cf8b275b9be1a282e7166831a", "lon": -77.03981666666667, "rental_uris": {"android": "https://dc.lft.to/lastmile_qr_scan", "ios": "https://dc.lft.to/lastmile_qr_scan"}, "fusion_lon": 0.0, "bike_id": "64b2c15cf8b275b9be1a282e7166831a", "is_disabled": 0, "lat": 38.901439333333336, "is_reserved": 0, "type": "electric_scooter"}, {"fusion_lat": 0.0, "name": "e9057f0f5f8253ada949e1029eac45af", "lon": -77.0297815, "rental_uris": {"android": "https://dc.lft.to/lastmile_qr_scan", "ios": "https://dc.lft.to/lastmile_qr_scan"}, "fusion_lon": 0.0, "bike_id": "e9057f0f5f8253ada949e1029eac45af", "is_disabled": 0, "lat": 38.922516333333334, "is_reserved": 0, "type": "electric_scooter"}, {"fusion_lat": 0.0, "name": "c7c3dc485a21a9fb221224b78263305a", "lon": -77.03082, "rental_uris": {"android": "https://dc.lft.to/lastmile_qr_scan", "ios": "https://dc.lft.to/lastmile_qr_scan"}, "fusion_lon": 0.0, "bike_id": "c7c3dc485a21a9fb221224b78263305a", "is_disabled": 0, "lat": 38.899718666666665, "is_reserved": 0, "type": "electric_scooter"}, {"fusion_lat": 0.0, "name": "2825ff0706de137fe56cc47c0ef619c8", "lon": -77.00696233333333, "rental_uris": {"android": "https://dc.lft.to/lastmile_qr_scan", "ios": "https://dc.lft.to/lastmile_qr_scan"}, "fusion_lon": 0.0, "bike_id": "2825ff0706de137fe56cc47c0ef619c8", "is_disabled": 0, "lat": 38.90027283333333, "is_reserved": 0, "type": "electric_scooter"}, {"fusion_lat": 0.0, "name": "c2b2fb6ae31a36fb595ffc9d457a4f63", "lon": -76.98511233333333, "rental_uris": {"android": "https://dc.lft.to/lastmile_qr_scan", "ios": "https://dc.lft.to/lastmile_qr_scan"}, "fusion_lon": 0.0, "bike_id": "c2b2fb6ae31a36fb595ffc9d457a4f63", "is_disabled": 0, "lat": 38.860111333333336, "is_reserved": 0, "type": "electric_scooter"}, {"fusion_lat": 0.0, "name": "34b5a77217a69553ade9bad1dffa36ed", "lon": -77.02464916666666, "rental_uris": {"android": "https://dc.lft.to/lastmile_qr_scan", "ios": "https://dc.lft.to/lastmile_qr_scan"}, "fusion_lon": 0.0, "bike_id": "34b5a77217a69553ade9bad1dffa36ed", "is_disabled": 0, "lat": 38.938773833333336, "is_reserved": 0, "type": "electric_scooter"}, {"fusion_lat": 0.0, "name": "a38b5d792887e6c84ccb9394201dbf36", "lon": -77.02065066666667, "rental_uris": {"android": "https://dc.lft.to/lastmile_qr_scan", "ios": "https://dc.lft.to/lastmile_qr_scan"}, "fusion_lon": 0.0, "bike_id": "a38b5d792887e6c84ccb9394201dbf36", "is_disabled": 0, "lat": 38.936452333333335, "is_reserved": 0, "type": "electric_bike"}, {"fusion_lat": 0.0, "name": "81eecd09464777ef3212df8202036dd3", "lon": -77.00133083333333, "rental_uris": {"android": "https://dc.lft.to/lastmile_qr_scan", "ios": "https://dc.lft.to/lastmile_qr_scan"}, "fusion_lon": 0.0, "bike_id": "81eecd09464777ef3212df8202036dd3", "is_disabled": 0, "lat": 38.894641166666666, "is_reserved": 0, "type": "electric_scooter"}, {"fusion_lat": 0.0, "name": "af0c6f84f696e5f06e07121ca7c2a3e1", "lon": -77.024674, "rental_uris": {"android": "https://dc.lft.to/lastmile_qr_scan", "ios": "https://dc.lft.to/lastmile_qr_scan"}, "fusion_lon": 0.0, "bike_id": "af0c6f84f696e5f06e07121ca7c2a3e1", "is_disabled": 0, "lat": 38.941925499999996, "is_reserved": 0, "type": "electric_scooter"}, {"fusion_lat": 0.0, "name": "90741948cb7e38942f65268b47ba12b0", "lon": -76.95759816666667, "rental_uris": {"android": "https://dc.lft.to/lastmile_qr_scan", "ios": "https://dc.lft.to/lastmile_qr_scan"}, "fusion_lon": 0.0, "bike_id": "90741948cb7e38942f65268b47ba12b0", "is_disabled": 0, "lat": 38.96958166666667, "is_reserved": 0, "type": "electric_bike"}, {"fusion_lat": 0.0, "name": "249e1f245f4f7a76b23b1f6471d16821", "lon": -77.04655783333334, "rental_uris": {"android": "https://dc.lft.to/lastmile_qr_scan", "ios": "https://dc.lft.to/lastmile_qr_scan"}, "fusion_lon": 0.0, "bike_id": "249e1f245f4f7a76b23b1f6471d16821", "is_disabled": 0, "lat": 38.91359083333333, "is_reserved": 0, "type": "electric_scooter"}, {"fusion_lat": 0.0, "name": "96125960eb931db640e1176001fa191f", "lon": -76.97330283333334, "rental_uris": {"android": "https://dc.lft.to/lastmile_qr_scan", "ios": "https://dc.lft.to/lastmile_qr_scan"}, "fusion_lon": 0.0, "bike_id": "96125960eb931db640e1176001fa191f", "is_disabled": 0, "lat": 38.904035, "is_reserved": 0, "type": "electric_scooter"}, {"fusion_lat": 0.0, "name": "a520be831bfa55143a5bbc2c6f55d3d8", "lon": -77.02733383333333, "rental_uris": {"android": "https://dc.lft.to/lastmile_qr_scan", "ios": "https://dc.lft.to/lastmile_qr_scan"}, "fusion_lon": 0.0, "bike_id": "a520be831bfa55143a5bbc2c6f55d3d8", "is_disabled": 0, "lat": 38.943754166666665, "is_reserved": 0, "type": "electric_scooter"}, {"fusion_lat": 0.0, "name": "6dae138d8e0008797f53a235cbe06323", "lon": -77.0220105, "rental_uris": {"android": "https://dc.lft.to/lastmile_qr_scan", "ios": "https://dc.lft.to/lastmile_qr_scan"}, "fusion_lon": 0.0, "bike_id": "6dae138d8e0008797f53a235cbe06323", "is_disabled": 0, "lat": 38.91126366666667, "is_reserved": 0, "type": "electric_scooter"}, {"fusion_lat": 0.0, "name": "b2ecef049de5461dce58fa9764293273", "lon": -77.02173316666666, "rental_uris": {"android": "https://dc.lft.to/lastmile_qr_scan", "ios": "https://dc.lft.to/lastmile_qr_scan"}, "fusion_lon": 0.0, "bike_id": "b2ecef049de5461dce58fa9764293273", "is_disabled": 0, "lat": 38.89707883333333, "is_reserved": 0, "type": "electric_scooter"}, {"fusion_lat": 0.0, "name": "5f4ab1978102a46f82cdd993b7952caf", "lon": -77.02026033333334, "rental_uris": {"android": "https://dc.lft.to/lastmile_qr_scan", "ios": "https://dc.lft.to/lastmile_qr_scan"}, "fusion_lon": 0.0, "bike_id": "5f4ab1978102a46f82cdd993b7952caf", "is_disabled": 0, "lat": 38.89973483333333, "is_reserved": 0, "type": "electric_scooter"}, {"fusion_lat": 0.0, "name": "751ec652124e589d7d6f7862720af553", "lon": -77.0158145, "rental_uris": {"android": "https://dc.lft.to/lastmile_qr_scan", "ios": "https://dc.lft.to/lastmile_qr_scan"}, "fusion_lon": 0.0, "bike_id": "751ec652124e589d7d6f7862720af553", "is_disabled": 0, "lat": 38.876695, "is_reserved": 0, "type": "electric_scooter"}, {"fusion_lat": 0.0, "name": "6089fb06282983d605eb558ce98a8597", "lon": -77.00899833333334, "rental_uris": {"android": "https://dc.lft.to/lastmile_qr_scan", "ios": "https://dc.lft.to/lastmile_qr_scan"}, "fusion_lon": 0.0, "bike_id": "6089fb06282983d605eb558ce98a8597", "is_disabled": 0, "lat": 38.874827333333336, "is_reserved": 0, "type": "electric_scooter"}, {"fusion_lat": 0.0, "name": "cf49c3f04ec50f9e99271936cc553a78", "lon": -76.93273733333334, "rental_uris": {"android": "https://dc.lft.to/lastmile_qr_scan", "ios": "https://dc.lft.to/lastmile_qr_scan"}, "fusion_lon": 0.0, "bike_id": "cf49c3f04ec50f9e99271936cc553a78", "is_disabled": 0, "lat": 38.95420566666667, "is_reserved": 0, "type": "electric_bike"}, {"fusion_lat": 0.0, "name": "f0a30d4306f98427afdc5576f608a35e", "lon": -76.98998283333333, "rental_uris": {"android": "https://dc.lft.to/lastmile_qr_scan", "ios": "https://dc.lft.to/lastmile_qr_scan"}, "fusion_lon": 0.0, "bike_id": "f0a30d4306f98427afdc5576f608a35e", "is_disabled": 0, "lat": 38.86500216666666, "is_reserved": 0, "type": "electric_scooter"}, {"fusion_lat": 0.0, "name": "fd94a96bedf0716092988e9c9bdc7f99", "lon": -77.01890616666667, "rental_uris": {"android": "https://dc.lft.to/lastmile_qr_scan", "ios": "https://dc.lft.to/lastmile_qr_scan"}, "fusion_lon": 0.0, "bike_id": "fd94a96bedf0716092988e9c9bdc7f99", "is_disabled": 0, "lat": 38.908960666666665, "is_reserved": 0, "type": "electric_scooter"}, {"fusion_lat": 0.0, "name": "0a429cc439d75caac3c3724a59aeb602", "lon": -77.0273495, "rental_uris": {"android": "https://dc.lft.to/lastmile_qr_scan", "ios": "https://dc.lft.to/lastmile_qr_scan"}, "fusion_lon": 0.0, "bike_id": "0a429cc439d75caac3c3724a59aeb602", "is_disabled": 0, "lat": 38.887421333333336, "is_reserved": 0, "type": "electric_scooter"}, {"fusion_lat": 0.0, "name": "b8139bbc8ca40aa90ce3cb93611e44aa", "lon": -77.04100216666667, "rental_uris": {"android": "https://dc.lft.to/lastmile_qr_scan", "ios": "https://dc.lft.to/lastmile_qr_scan"}, "fusion_lon": 0.0, "bike_id": "b8139bbc8ca40aa90ce3cb93611e44aa", "is_disabled": 0, "lat": 38.918362, "is_reserved": 0, "type": "electric_scooter"}, {"fusion_lat": 0.0, "name": "96a60884063cf38a309132d9a96b0ef8", "lon": -77.0247375, "rental_uris": {"android": "https://dc.lft.to/lastmile_qr_scan", "ios": "https://dc.lft.to/lastmile_qr_scan"}, "fusion_lon": 0.0, "bike_id": "96a60884063cf38a309132d9a96b0ef8", "is_disabled": 0, "lat": 38.939047, "is_reserved": 0, "type": "electric_scooter"}, {"fusion_lat": 0.0, "name": "9b3fd451f7e8b0f7c862a9b2c2157e62", "lon": -77.00942266666667, "rental_uris": {"android": "https://dc.lft.to/lastmile_qr_scan", "ios": "https://dc.lft.to/lastmile_qr_scan"}, "fusion_lon": 0.0, "bike_id": "9b3fd451f7e8b0f7c862a9b2c2157e62", "is_disabled": 0, "lat": 38.87630516666667, "is_reserved": 0, "type": "electric_scooter"}, {"fusion_lat": 0.0, "name": "1c11c8b829434c5806e93cef6c5eccd2", "lon": -77.07246783333333, "rental_uris": {"android": "https://dc.lft.to/lastmile_qr_scan", "ios": "https://dc.lft.to/lastmile_qr_scan"}, "fusion_lon": 0.0, "bike_id": "1c11c8b829434c5806e93cef6c5eccd2", "is_disabled": 0, "lat": 38.9394615, "is_reserved": 0, "type": "electric_scooter"}, {"fusion_lat": 0.0, "name": "f1161bb3f6558780a5242090298d795a", "lon": -77.04964833333334, "rental_uris": {"android": "https://dc.lft.to/lastmile_qr_scan", "ios": "https://dc.lft.to/lastmile_qr_scan"}, "fusion_lon": 0.0, "bike_id": "f1161bb3f6558780a5242090298d795a", "is_disabled": 0, "lat": 38.9006765, "is_reserved": 0, "type": "electric_scooter"}, {"fusion_lat": 0.0, "name": "1aa0950b75ebe232f7aa5ecdc0f6f9d5", "lon": -76.97343383333333, "rental_uris": {"android": "https://dc.lft.to/lastmile_qr_scan", "ios": "https://dc.lft.to/lastmile_qr_scan"}, "fusion_lon": 0.0, "bike_id": "1aa0950b75ebe232f7aa5ecdc0f6f9d5", "is_disabled": 0, "lat": 38.865064, "is_reserved": 0, "type": "electric_bike"}, {"fusion_lat": 0.0, "name": "3ad6f464281f8eb7ab169d5d9ea2863f", "lon": -77.0241785, "rental_uris": {"android": "https://dc.lft.to/lastmile_qr_scan", "ios": "https://dc.lft.to/lastmile_qr_scan"}, "fusion_lon": 0.0, "bike_id": "3ad6f464281f8eb7ab169d5d9ea2863f", "is_disabled": 0, "lat": 38.919243333333334, "is_reserved": 0, "type": "electric_scooter"}, {"fusion_lat": 0.0, "name": "d1185417ddf1cc532c57cd40797298a0", "lon": -77.04170616666667, "rental_uris": {"android": "https://dc.lft.to/lastmile_qr_scan", "ios": "https://dc.lft.to/lastmile_qr_scan"}, "fusion_lon": 0.0, "bike_id": "d1185417ddf1cc532c57cd40797298a0", "is_disabled": 0, "lat": 38.9181445, "is_reserved": 0, "type": "electric_scooter"}, {"fusion_lat": 0.0, "name": "34e872ca9e4f6b445280b0f2a7ae2f07", "lon": -77.04263866666666, "rental_uris": {"android": "https://dc.lft.to/lastmile_qr_scan", "ios": "https://dc.lft.to/lastmile_qr_scan"}, "fusion_lon": 0.0, "bike_id": "34e872ca9e4f6b445280b0f2a7ae2f07", "is_disabled": 0, "lat": 38.922955, "is_reserved": 0, "type": "electric_scooter"}, {"fusion_lat": 0.0, "name": "cf388370125b9ba37b2ecc9273a1b93e", "lon": -77.05048783333334, "rental_uris": {"android": "https://dc.lft.to/lastmile_qr_scan", "ios": "https://dc.lft.to/lastmile_qr_scan"}, "fusion_lon": 0.0, "bike_id": "cf388370125b9ba37b2ecc9273a1b93e", "is_disabled": 0, "lat": 38.923576, "is_reserved": 0, "type": "electric_scooter"}, {"fusion_lat": 0.0, "name": "7d604f268615a90a215aada23d70f11d", "lon": -76.9903095, "rental_uris": {"android": "https://dc.lft.to/lastmile_qr_scan", "ios": "https://dc.lft.to/lastmile_qr_scan"}, "fusion_lon": 0.0, "bike_id": "7d604f268615a90a215aada23d70f11d", "is_disabled": 0, "lat": 38.8917415, "is_reserved": 0, "type": "electric_scooter"}, {"fusion_lat": 0.0, "name": "51a4bf1e5dbf9549cc09a871b9bc412e", "lon": -76.99546316666667, "rental_uris": {"android": "https://dc.lft.to/lastmile_qr_scan", "ios": "https://dc.lft.to/lastmile_qr_scan"}, "fusion_lon": 0.0, "bike_id": "51a4bf1e5dbf9549cc09a871b9bc412e", "is_disabled": 0, "lat": 38.83153816666667, "is_reserved": 0, "type": "electric_bike"}, {"fusion_lat": 0.0, "name": "edb8c01b0162a9c3ace99e7fb8b96860", "lon": -76.98922366666666, "rental_uris": {"android": "https://dc.lft.to/lastmile_qr_scan", "ios": "https://dc.lft.to/lastmile_qr_scan"}, "fusion_lon": 0.0, "bike_id": "edb8c01b0162a9c3ace99e7fb8b96860", "is_disabled": 0, "lat": 38.865656, "is_reserved": 0, "type": "electric_scooter"}, {"fusion_lat": 0.0, "name": "af1ad0af259272f108a74ea29d5314ce", "lon": -77.03270266666667, "rental_uris": {"android": "https://dc.lft.to/lastmile_qr_scan", "ios": "https://dc.lft.to/lastmile_qr_scan"}, "fusion_lon": 0.0, "bike_id": "af1ad0af259272f108a74ea29d5314ce", "is_disabled": 0, "lat": 38.92742966666667, "is_reserved": 0, "type": "electric_scooter"}, {"fusion_lat": 0.0, "name": "f29fbbaf517e7efa1a5e65515afc5e71", "lon": -77.10833766666667, "rental_uris": {"android": "https://dc.lft.to/lastmile_qr_scan", "ios": "https://dc.lft.to/lastmile_qr_scan"}, "fusion_lon": 0.0, "bike_id": "f29fbbaf517e7efa1a5e65515afc5e71", "is_disabled": 0, "lat": 38.812033, "is_reserved": 0, "type": "electric_bike"}, {"fusion_lat": 0.0, "name": "d2923011085f4a899b01112bc645da51", "lon": -77.021177, "rental_uris": {"android": "https://dc.lft.to/lastmile_qr_scan", "ios": "https://dc.lft.to/lastmile_qr_scan"}, "fusion_lon": 0.0, "bike_id": "d2923011085f4a899b01112bc645da51", "is_disabled": 0, "lat": 38.92331883333333, "is_reserved": 0, "type": "electric_scooter"}, {"fusion_lat": 0.0, "name": "9c0d7a67bfbcd683ff75d537cbe8d337", "lon": -77.00192133333333, "rental_uris": {"android": "https://dc.lft.to/lastmile_qr_scan", "ios": "https://dc.lft.to/lastmile_qr_scan"}, "fusion_lon": 0.0, "bike_id": "9c0d7a67bfbcd683ff75d537cbe8d337", "is_disabled": 0, "lat": 38.8998885, "is_reserved": 0, "type": "electric_scooter"}, {"fusion_lat": 0.0, "name": "a69242c2fb3f0508a292e2b138ba9869", "lon": -77.02873633333333, "rental_uris": {"android": "https://dc.lft.to/lastmile_qr_scan", "ios": "https://dc.lft.to/lastmile_qr_scan"}, "fusion_lon": 0.0, "bike_id": "a69242c2fb3f0508a292e2b138ba9869", "is_disabled": 0, "lat": 38.9213865, "is_reserved": 0, "type": "electric_scooter"}, {"fusion_lat": 0.0, "name": "e0007cac88e6b113d87db85070c8c54b", "lon": -77.02455183333333, "rental_uris": {"android": "https://dc.lft.to/lastmile_qr_scan", "ios": "https://dc.lft.to/lastmile_qr_scan"}, "fusion_lon": 0.0, "bike_id": "e0007cac88e6b113d87db85070c8c54b", "is_disabled": 0, "lat": 38.938580333333334, "is_reserved": 0, "type": "electric_scooter"}, {"fusion_lat": 0.0, "name": "206087cdaf4b0b55fced15aa71b249f7", "lon": -77.10091316666667, "rental_uris": {"android": "https://dc.lft.to/lastmile_qr_scan", "ios": "https://dc.lft.to/lastmile_qr_scan"}, "fusion_lon": 0.0, "bike_id": "206087cdaf4b0b55fced15aa71b249f7", "is_disabled": 0, "lat": 38.95951733333333, "is_reserved": 0, "type": "electric_bike"}, {"fusion_lat": 0.0, "name": "a915c45c55b249c44a3beca7f7b9d087", "lon": -77.03966933333334, "rental_uris": {"android": "https://dc.lft.to/lastmile_qr_scan", "ios": "https://dc.lft.to/lastmile_qr_scan"}, "fusion_lon": 0.0, "bike_id": "a915c45c55b249c44a3beca7f7b9d087", "is_disabled": 0, "lat": 38.900244, "is_reserved": 0, "type": "electric_scooter"}, {"fusion_lat": 0.0, "name": "164c110aa97eae7e03b8886544451135", "lon": -77.0216765, "rental_uris": {"android": "https://dc.lft.to/lastmile_qr_scan", "ios": "https://dc.lft.to/lastmile_qr_scan"}, "fusion_lon": 0.0, "bike_id": "164c110aa97eae7e03b8886544451135", "is_disabled": 0, "lat": 38.88723666666667, "is_reserved": 0, "type": "electric_scooter"}, {"fusion_lat": 0.0, "name": "f466b8a1f263a38b0625f5c905d45deb", "lon": -77.01348266666666, "rental_uris": {"android": "https://dc.lft.to/lastmile_qr_scan", "ios": "https://dc.lft.to/lastmile_qr_scan"}, "fusion_lon": 0.0, "bike_id": "f466b8a1f263a38b0625f5c905d45deb", "is_disabled": 0, "lat": 38.95614583333333, "is_reserved": 0, "type": "electric_scooter"}, {"fusion_lat": 0.0, "name": "1c43da54dd3d813f931901e18c83494a", "lon": -77.04365866666667, "rental_uris": {"android": "https://dc.lft.to/lastmile_qr_scan", "ios": "https://dc.lft.to/lastmile_qr_scan"}, "fusion_lon": 0.0, "bike_id": "1c43da54dd3d813f931901e18c83494a", "is_disabled": 0, "lat": 38.8973375, "is_reserved": 0, "type": "electric_scooter"}, {"fusion_lat": 0.0, "name": "344f53980b94015a8f7999dc8d2b8810", "lon": -76.94291966666667, "rental_uris": {"android": "https://dc.lft.to/lastmile_qr_scan", "ios": "https://dc.lft.to/lastmile_qr_scan"}, "fusion_lon": 0.0, "bike_id": "344f53980b94015a8f7999dc8d2b8810", "is_disabled": 0, "lat": 38.9386725, "is_reserved": 0, "type": "electric_bike"}, {"fusion_lat": 0.0, "name": "813c69791db61bf8c92947c32ec63b0e", "lon": -76.92622233333333, "rental_uris": {"android": "https://dc.lft.to/lastmile_qr_scan", "ios": "https://dc.lft.to/lastmile_qr_scan"}, "fusion_lon": 0.0, "bike_id": "813c69791db61bf8c92947c32ec63b0e", "is_disabled": 0, "lat": 38.884568, "is_reserved": 0, "type": "electric_scooter"}, {"fusion_lat": 0.0, "name": "c5da1fb35f249caad7b5727eed0b5b21", "lon": -77.03289283333334, "rental_uris": {"android": "https://dc.lft.to/lastmile_qr_scan", "ios": "https://dc.lft.to/lastmile_qr_scan"}, "fusion_lon": 0.0, "bike_id": "c5da1fb35f249caad7b5727eed0b5b21", "is_disabled": 0, "lat": 38.93037783333333, "is_reserved": 0, "type": "electric_scooter"}, {"fusion_lat": 0.0, "name": "45a01345b2f66f184968f5c9a967c6cb", "lon": -76.9805175, "rental_uris": {"android": "https://dc.lft.to/lastmile_qr_scan", "ios": "https://dc.lft.to/lastmile_qr_scan"}, "fusion_lon": 0.0, "bike_id": "45a01345b2f66f184968f5c9a967c6cb", "is_disabled": 0, "lat": 38.90254983333333, "is_reserved": 0, "type": "electric_scooter"}, {"fusion_lat": 0.0, "name": "9aea99044de58e2d4dfab0ea7b484233", "lon": -77.027224, "rental_uris": {"android": "https://dc.lft.to/lastmile_qr_scan", "ios": "https://dc.lft.to/lastmile_qr_scan"}, "fusion_lon": 0.0, "bike_id": "9aea99044de58e2d4dfab0ea7b484233", "is_disabled": 0, "lat": 38.940788, "is_reserved": 0, "type": "electric_scooter"}, {"fusion_lat": 0.0, "name": "54a900609a6ee84f943a8201b0fbf1df", "lon": -77.06410716666667, "rental_uris": {"android": "https://dc.lft.to/lastmile_qr_scan", "ios": "https://dc.lft.to/lastmile_qr_scan"}, "fusion_lon": 0.0, "bike_id": "54a900609a6ee84f943a8201b0fbf1df", "is_disabled": 0, "lat": 38.94496516666667, "is_reserved": 0, "type": "electric_bike"}, {"fusion_lat": 0.0, "name": "2b62029f9bde7efe2b0cce8a2f8343ad", "lon": -77.03684583333333, "rental_uris": {"android": "https://dc.lft.to/lastmile_qr_scan", "ios": "https://dc.lft.to/lastmile_qr_scan"}, "fusion_lon": 0.0, "bike_id": "2b62029f9bde7efe2b0cce8a2f8343ad", "is_disabled": 0, "lat": 38.91674016666666, "is_reserved": 0, "type": "electric_scooter"}, {"fusion_lat": 0.0, "name": "bfb6dace348da46cb77e79bae2c6ae32", "lon": -77.02746716666667, "rental_uris": {"android": "https://dc.lft.to/lastmile_qr_scan", "ios": "https://dc.lft.to/lastmile_qr_scan"}, "fusion_lon": 0.0, "bike_id": "bfb6dace348da46cb77e79bae2c6ae32", "is_disabled": 0, "lat": 38.94177166666667, "is_reserved": 0, "type": "electric_scooter"}, {"fusion_lat": 0.0, "name": "eb209d40c9c66cd4052f50275873583b", "lon": -77.05315433333334, "rental_uris": {"android": "https://dc.lft.to/lastmile_qr_scan", "ios": "https://dc.lft.to/lastmile_qr_scan"}, "fusion_lon": 0.0, "bike_id": "eb209d40c9c66cd4052f50275873583b", "is_disabled": 0, "lat": 38.904239, "is_reserved": 0, "type": "electric_scooter"}, {"fusion_lat": 0.0, "name": "10119ffb2e4a2ed4b29ba16ef157bb3c", "lon": -77.0222805, "rental_uris": {"android": "https://dc.lft.to/lastmile_qr_scan", "ios": "https://dc.lft.to/lastmile_qr_scan"}, "fusion_lon": 0.0, "bike_id": "10119ffb2e4a2ed4b29ba16ef157bb3c", "is_disabled": 0, "lat": 38.9125205, "is_reserved": 0, "type": "electric_scooter"}, {"fusion_lat": 0.0, "name": "67a7b79c1d6a8a388b1c05e08d978e70", "lon": -77.0033155, "rental_uris": {"android": "https://dc.lft.to/lastmile_qr_scan", "ios": "https://dc.lft.to/lastmile_qr_scan"}, "fusion_lon": 0.0, "bike_id": "67a7b79c1d6a8a388b1c05e08d978e70", "is_disabled": 0, "lat": 38.89353233333333, "is_reserved": 0, "type": "electric_scooter"}, {"fusion_lat": 0.0, "name": "22d7a566c5c75bf6d9d1497ef24114f7", "lon": -77.045178, "rental_uris": {"android": "https://dc.lft.to/lastmile_qr_scan", "ios": "https://dc.lft.to/lastmile_qr_scan"}, "fusion_lon": 0.0, "bike_id": "22d7a566c5c75bf6d9d1497ef24114f7", "is_disabled": 0, "lat": 38.919535333333336, "is_reserved": 0, "type": "electric_bike"}, {"fusion_lat": 0.0, "name": "789e012d031d9b49341dbc138ccf9222", "lon": -77.02048033333334, "rental_uris": {"android": "https://dc.lft.to/lastmile_qr_scan", "ios": "https://dc.lft.to/lastmile_qr_scan"}, "fusion_lon": 0.0, "bike_id": "789e012d031d9b49341dbc138ccf9222", "is_disabled": 0, "lat": 38.9155525, "is_reserved": 0, "type": "electric_scooter"}, {"fusion_lat": 0.0, "name": "24dc14461ee6cb25764f54917f2a8ac0", "lon": -77.0060005, "rental_uris": {"android": "https://dc.lft.to/lastmile_qr_scan", "ios": "https://dc.lft.to/lastmile_qr_scan"}, "fusion_lon": 0.0, "bike_id": "24dc14461ee6cb25764f54917f2a8ac0", "is_disabled": 0, "lat": 38.87179483333333, "is_reserved": 0, "type": "electric_scooter"}, {"fusion_lat": 0.0, "name": "dab0be79464612c88f35049052b1e8d7", "lon": -77.01977783333334, "rental_uris": {"android": "https://dc.lft.to/lastmile_qr_scan", "ios": "https://dc.lft.to/lastmile_qr_scan"}, "fusion_lon": 0.0, "bike_id": "dab0be79464612c88f35049052b1e8d7", "is_disabled": 0, "lat": 38.89232033333333, "is_reserved": 0, "type": "electric_scooter"}, {"fusion_lat": 0.0, "name": "d23d6660ace1fdeaa0534f6fe7563656", "lon": -77.11576, "rental_uris": {"android": "https://dc.lft.to/lastmile_qr_scan", "ios": "https://dc.lft.to/lastmile_qr_scan"}, "fusion_lon": 0.0, "bike_id": "d23d6660ace1fdeaa0534f6fe7563656", "is_disabled": 0, "lat": 38.99342716666666, "is_reserved": 0, "type": "electric_bike"}, {"fusion_lat": 0.0, "name": "cc8bbcacc61b9edc026e502042bfc027", "lon": -77.02552016666667, "rental_uris": {"android": "https://dc.lft.to/lastmile_qr_scan", "ios": "https://dc.lft.to/lastmile_qr_scan"}, "fusion_lon": 0.0, "bike_id": "cc8bbcacc61b9edc026e502042bfc027", "is_disabled": 0, "lat": 38.91630683333333, "is_reserved": 0, "type": "electric_scooter"}, {"fusion_lat": 0.0, "name": "2b3113086c273aa2bb8322d27e6bdc3d", "lon": -77.03873066666667, "rental_uris": {"android": "https://dc.lft.to/lastmile_qr_scan", "ios": "https://dc.lft.to/lastmile_qr_scan"}, "fusion_lon": 0.0, "bike_id": "2b3113086c273aa2bb8322d27e6bdc3d", "is_disabled": 0, "lat": 38.92148983333333, "is_reserved": 0, "type": "electric_scooter"}, {"fusion_lat": 0.0, "name": "c233db815641ed56947a239617ebc8ee", "lon": -77.03743433333334, "rental_uris": {"android": "https://dc.lft.to/lastmile_qr_scan", "ios": "https://dc.lft.to/lastmile_qr_scan"}, "fusion_lon": 0.0, "bike_id": "c233db815641ed56947a239617ebc8ee", "is_disabled": 0, "lat": 38.92874116666667, "is_reserved": 0, "type": "electric_scooter"}, {"fusion_lat": 0.0, "name": "9dfd77e56f0a7d53dc79edc5f8f91a92", "lon": -77.04395283333334, "rental_uris": {"android": "https://dc.lft.to/lastmile_qr_scan", "ios": "https://dc.lft.to/lastmile_qr_scan"}, "fusion_lon": 0.0, "bike_id": "9dfd77e56f0a7d53dc79edc5f8f91a92", "is_disabled": 0, "lat": 38.90148083333333, "is_reserved": 0, "type": "electric_scooter"}, {"fusion_lat": 0.0, "name": "67dad7bddfac6e970ff09b2ebda5bb23", "lon": -77.05525533333333, "rental_uris": {"android": "https://dc.lft.to/lastmile_qr_scan", "ios": "https://dc.lft.to/lastmile_qr_scan"}, "fusion_lon": 0.0, "bike_id": "67dad7bddfac6e970ff09b2ebda5bb23", "is_disabled": 0, "lat": 38.929968833333334, "is_reserved": 0, "type": "electric_scooter"}, {"fusion_lat": 0.0, "name": "639747b6c5e6ed087d9f21c666a4d21f", "lon": -77.02695033333333, "rental_uris": {"android": "https://dc.lft.to/lastmile_qr_scan", "ios": "https://dc.lft.to/lastmile_qr_scan"}, "fusion_lon": 0.0, "bike_id": "639747b6c5e6ed087d9f21c666a4d21f", "is_disabled": 0, "lat": 38.90708333333333, "is_reserved": 0, "type": "electric_scooter"}, {"fusion_lat": 0.0, "name": "b21e8ad82a63144902efc12a7e527afa", "lon": -77.04335933333333, "rental_uris": {"android": "https://dc.lft.to/lastmile_qr_scan", "ios": "https://dc.lft.to/lastmile_qr_scan"}, "fusion_lon": 0.0, "bike_id": "b21e8ad82a63144902efc12a7e527afa", "is_disabled": 0, "lat": 38.89225183333333, "is_reserved": 0, "type": "electric_scooter"}, {"fusion_lat": 0.0, "name": "8466d1e9abe28c2ad85727194cb9bec7", "lon": -77.04249766666666, "rental_uris": {"android": "https://dc.lft.to/lastmile_qr_scan", "ios": "https://dc.lft.to/lastmile_qr_scan"}, "fusion_lon": 0.0, "bike_id": "8466d1e9abe28c2ad85727194cb9bec7", "is_disabled": 0, "lat": 38.922282333333335, "is_reserved": 0, "type": "electric_scooter"}, {"fusion_lat": 0.0, "name": "21e6ae6fb92b36590b7bb5731e887fae", "lon": -76.98512266666667, "rental_uris": {"android": "https://dc.lft.to/lastmile_qr_scan", "ios": "https://dc.lft.to/lastmile_qr_scan"}, "fusion_lon": 0.0, "bike_id": "21e6ae6fb92b36590b7bb5731e887fae", "is_disabled": 0, "lat": 38.86650066666667, "is_reserved": 0, "type": "electric_scooter"}, {"fusion_lat": 0.0, "name": "b50b545d6b7872c0b662a8299fffea05", "lon": -77.03354016666667, "rental_uris": {"android": "https://dc.lft.to/lastmile_qr_scan", "ios": "https://dc.lft.to/lastmile_qr_scan"}, "fusion_lon": 0.0, "bike_id": "b50b545d6b7872c0b662a8299fffea05", "is_disabled": 0, "lat": 38.902673, "is_reserved": 0, "type": "electric_scooter"}, {"fusion_lat": 0.0, "name": "476363e6986ef817e7cd4892d90678a8", "lon": -77.032007, "rental_uris": {"android": "https://dc.lft.to/lastmile_qr_scan", "ios": "https://dc.lft.to/lastmile_qr_scan"}, "fusion_lon": 0.0, "bike_id": "476363e6986ef817e7cd4892d90678a8", "is_disabled": 0, "lat": 38.91316366666667, "is_reserved": 0, "type": "electric_scooter"}, {"fusion_lat": 0.0, "name": "ca89866484977cd944c489fcaa4e174f", "lon": -77.06595983333334, "rental_uris": {"android": "https://dc.lft.to/lastmile_qr_scan", "ios": "https://dc.lft.to/lastmile_qr_scan"}, "fusion_lon": 0.0, "bike_id": "ca89866484977cd944c489fcaa4e174f", "is_disabled": 0, "lat": 38.912220833333336, "is_reserved": 0, "type": "electric_scooter"}, {"fusion_lat": 0.0, "name": "524041c3467a47a5322a6f7762e340ed", "lon": -77.02423683333333, "rental_uris": {"android": "https://dc.lft.to/lastmile_qr_scan", "ios": "https://dc.lft.to/lastmile_qr_scan"}, "fusion_lon": 0.0, "bike_id": "524041c3467a47a5322a6f7762e340ed", "is_disabled": 0, "lat": 38.926552666666666, "is_reserved": 0, "type": "electric_scooter"}, {"fusion_lat": 0.0, "name": "c9714a37de60e12c606046bd0e884584", "lon": -77.0262095, "rental_uris": {"android": "https://dc.lft.to/lastmile_qr_scan", "ios": "https://dc.lft.to/lastmile_qr_scan"}, "fusion_lon": 0.0, "bike_id": "c9714a37de60e12c606046bd0e884584", "is_disabled": 0, "lat": 38.896522166666664, "is_reserved": 0, "type": "electric_scooter"}, {"fusion_lat": 0.0, "name": "85174210e50b3f92b609da4543b78142", "lon": -77.06675333333334, "rental_uris": {"android": "https://dc.lft.to/lastmile_qr_scan", "ios": "https://dc.lft.to/lastmile_qr_scan"}, "fusion_lon": 0.0, "bike_id": "85174210e50b3f92b609da4543b78142", "is_disabled": 0, "lat": 38.950182, "is_reserved": 0, "type": "electric_scooter"}, {"fusion_lat": 0.0, "name": "6d3f4b90922c8c13cd860106175e768b", "lon": -77.07004433333333, "rental_uris": {"android": "https://dc.lft.to/lastmile_qr_scan", "ios": "https://dc.lft.to/lastmile_qr_scan"}, "fusion_lon": 0.0, "bike_id": "6d3f4b90922c8c13cd860106175e768b", "is_disabled": 0, "lat": 38.955571666666664, "is_reserved": 0, "type": "electric_scooter"}, {"fusion_lat": 0.0, "name": "ab254e3871f457fdc6e971ce958165ef", "lon": -76.983706, "rental_uris": {"android": "https://dc.lft.to/lastmile_qr_scan", "ios": "https://dc.lft.to/lastmile_qr_scan"}, "fusion_lon": 0.0, "bike_id": "ab254e3871f457fdc6e971ce958165ef", "is_disabled": 0, "lat": 38.88963483333333, "is_reserved": 0, "type": "electric_scooter"}, {"fusion_lat": 0.0, "name": "931b66bbcc2e8b2ed1eefc00dc24cf04", "lon": -76.977413, "rental_uris": {"android": "https://dc.lft.to/lastmile_qr_scan", "ios": "https://dc.lft.to/lastmile_qr_scan"}, "fusion_lon": 0.0, "bike_id": "931b66bbcc2e8b2ed1eefc00dc24cf04", "is_disabled": 0, "lat": 38.87147216666666, "is_reserved": 0, "type": "electric_scooter"}, {"fusion_lat": 0.0, "name": "b4c0491e75d7075c71360d3cd0ad76cc", "lon": -77.023277, "rental_uris": {"android": "https://dc.lft.to/lastmile_qr_scan", "ios": "https://dc.lft.to/lastmile_qr_scan"}, "fusion_lon": 0.0, "bike_id": "b4c0491e75d7075c71360d3cd0ad76cc", "is_disabled": 0, "lat": 38.91656666666667, "is_reserved": 0, "type": "electric_scooter"}, {"fusion_lat": 0.0, "name": "1a0900b891e65a5e5223286e0502feff", "lon": -77.05191083333334, "rental_uris": {"android": "https://dc.lft.to/lastmile_qr_scan", "ios": "https://dc.lft.to/lastmile_qr_scan"}, "fusion_lon": 0.0, "bike_id": "1a0900b891e65a5e5223286e0502feff", "is_disabled": 0, "lat": 38.92415733333333, "is_reserved": 0, "type": "electric_scooter"}, {"fusion_lat": 0.0, "name": "3a6c80a48c8b11744896bea5f8e428b7", "lon": -77.0232585, "rental_uris": {"android": "https://dc.lft.to/lastmile_qr_scan", "ios": "https://dc.lft.to/lastmile_qr_scan"}, "fusion_lon": 0.0, "bike_id": "3a6c80a48c8b11744896bea5f8e428b7", "is_disabled": 0, "lat": 38.8972855, "is_reserved": 0, "type": "electric_scooter"}, {"fusion_lat": 0.0, "name": "0512208aca88c17c96ce715001ad6053", "lon": -77.044183, "rental_uris": {"android": "https://dc.lft.to/lastmile_qr_scan", "ios": "https://dc.lft.to/lastmile_qr_scan"}, "fusion_lon": 0.0, "bike_id": "0512208aca88c17c96ce715001ad6053", "is_disabled": 0, "lat": 38.894026333333336, "is_reserved": 0, "type": "electric_scooter"}, {"fusion_lat": 0.0, "name": "2aa79699324b3cc8de972c8050281af0", "lon": -77.02225466666667, "rental_uris": {"android": "https://dc.lft.to/lastmile_qr_scan", "ios": "https://dc.lft.to/lastmile_qr_scan"}, "fusion_lon": 0.0, "bike_id": "2aa79699324b3cc8de972c8050281af0", "is_disabled": 0, "lat": 38.8934985, "is_reserved": 0, "type": "electric_scooter"}, {"fusion_lat": 0.0, "name": "27d43ef0e804d9e4c24394235ef093a6", "lon": -77.03453566666667, "rental_uris": {"android": "https://dc.lft.to/lastmile_qr_scan", "ios": "https://dc.lft.to/lastmile_qr_scan"}, "fusion_lon": 0.0, "bike_id": "27d43ef0e804d9e4c24394235ef093a6", "is_disabled": 0, "lat": 38.91813333333333, "is_reserved": 0, "type": "electric_scooter"}, {"fusion_lat": 0.0, "name": "d41861eb47fbded478e2685acd487c87", "lon": -77.03252166666667, "rental_uris": {"android": "https://dc.lft.to/lastmile_qr_scan", "ios": "https://dc.lft.to/lastmile_qr_scan"}, "fusion_lon": 0.0, "bike_id": "d41861eb47fbded478e2685acd487c87", "is_disabled": 0, "lat": 38.91111883333333, "is_reserved": 0, "type": "electric_scooter"}, {"fusion_lat": 0.0, "name": "15d0153b65145089e8c5b38914da4d7d", "lon": -77.03290283333334, "rental_uris": {"android": "https://dc.lft.to/lastmile_qr_scan", "ios": "https://dc.lft.to/lastmile_qr_scan"}, "fusion_lon": 0.0, "bike_id": "15d0153b65145089e8c5b38914da4d7d", "is_disabled": 0, "lat": 38.923410833333335, "is_reserved": 0, "type": "electric_scooter"}, {"fusion_lat": 0.0, "name": "89691628cd74f9f1cf46e20de98b92f1", "lon": -77.03560016666667, "rental_uris": {"android": "https://dc.lft.to/lastmile_qr_scan", "ios": "https://dc.lft.to/lastmile_qr_scan"}, "fusion_lon": 0.0, "bike_id": "89691628cd74f9f1cf46e20de98b92f1", "is_disabled": 0, "lat": 38.924096166666665, "is_reserved": 0, "type": "electric_scooter"}, {"fusion_lat": 0.0, "name": "12a912ba721d64731823b187adbdb72d", "lon": -77.0269955, "rental_uris": {"android": "https://dc.lft.to/lastmile_qr_scan", "ios": "https://dc.lft.to/lastmile_qr_scan"}, "fusion_lon": 0.0, "bike_id": "12a912ba721d64731823b187adbdb72d", "is_disabled": 0, "lat": 38.90662583333334, "is_reserved": 0, "type": "electric_scooter"}, {"fusion_lat": 0.0, "name": "02475f9c0e6bcb116ecd08acb10e0319", "lon": -77.0168075, "rental_uris": {"android": "https://dc.lft.to/lastmile_qr_scan", "ios": "https://dc.lft.to/lastmile_qr_scan"}, "fusion_lon": 0.0, "bike_id": "02475f9c0e6bcb116ecd08acb10e0319", "is_disabled": 0, "lat": 38.974902, "is_reserved": 0, "type": "electric_scooter"}, {"fusion_lat": 0.0, "name": "bd5d02573312064530c2b528b5461b5f", "lon": -76.98512033333333, "rental_uris": {"android": "https://dc.lft.to/lastmile_qr_scan", "ios": "https://dc.lft.to/lastmile_qr_scan"}, "fusion_lon": 0.0, "bike_id": "bd5d02573312064530c2b528b5461b5f", "is_disabled": 0, "lat": 38.86663083333333, "is_reserved": 0, "type": "electric_scooter"}, {"fusion_lat": 0.0, "name": "dd115df70cc839266a8d0b7d7d6a2a18", "lon": -77.0308165, "rental_uris": {"android": "https://dc.lft.to/lastmile_qr_scan", "ios": "https://dc.lft.to/lastmile_qr_scan"}, "fusion_lon": 0.0, "bike_id": "dd115df70cc839266a8d0b7d7d6a2a18", "is_disabled": 0, "lat": 38.9169105, "is_reserved": 0, "type": "electric_scooter"}, {"fusion_lat": 0.0, "name": "76ee8576c4cad2535bcd4069c8c752d1", "lon": -77.095227, "rental_uris": {"android": "https://dc.lft.to/lastmile_qr_scan", "ios": "https://dc.lft.to/lastmile_qr_scan"}, "fusion_lon": 0.0, "bike_id": "76ee8576c4cad2535bcd4069c8c752d1", "is_disabled": 0, "lat": 38.83808033333333, "is_reserved": 0, "type": "electric_bike"}, {"fusion_lat": 0.0, "name": "8930f3745fecaf13c710217fb232ca8e", "lon": -77.03161716666666, "rental_uris": {"android": "https://dc.lft.to/lastmile_qr_scan", "ios": "https://dc.lft.to/lastmile_qr_scan"}, "fusion_lon": 0.0, "bike_id": "8930f3745fecaf13c710217fb232ca8e", "is_disabled": 0, "lat": 38.89216016666666, "is_reserved": 0, "type": "electric_scooter"}, {"fusion_lat": 0.0, "name": "a71d9d6dff086fa8d919ba67f21a8696", "lon": -76.98977083333334, "rental_uris": {"android": "https://dc.lft.to/lastmile_qr_scan", "ios": "https://dc.lft.to/lastmile_qr_scan"}, "fusion_lon": 0.0, "bike_id": "a71d9d6dff086fa8d919ba67f21a8696", "is_disabled": 0, "lat": 38.8973725, "is_reserved": 0, "type": "electric_scooter"}, {"fusion_lat": 0.0, "name": "4ac2f52372c0f3dbdf94c8666eb8ef84", "lon": -77.0475555, "rental_uris": {"android": "https://dc.lft.to/lastmile_qr_scan", "ios": "https://dc.lft.to/lastmile_qr_scan"}, "fusion_lon": 0.0, "bike_id": "4ac2f52372c0f3dbdf94c8666eb8ef84", "is_disabled": 0, "lat": 38.900748666666665, "is_reserved": 0, "type": "electric_scooter"}, {"fusion_lat": 0.0, "name": "2e456dd17529a3ada4a55f84d3c0f636", "lon": -77.01040583333334, "rental_uris": {"android": "https://dc.lft.to/lastmile_qr_scan", "ios": "https://dc.lft.to/lastmile_qr_scan"}, "fusion_lon": 0.0, "bike_id": "2e456dd17529a3ada4a55f84d3c0f636", "is_disabled": 0, "lat": 38.90656216666667, "is_reserved": 0, "type": "electric_scooter"}, {"fusion_lat": 0.0, "name": "cfe7314e8379340985753cd3bb1d181f", "lon": -76.99160316666666, "rental_uris": {"android": "https://dc.lft.to/lastmile_qr_scan", "ios": "https://dc.lft.to/lastmile_qr_scan"}, "fusion_lon": 0.0, "bike_id": "cfe7314e8379340985753cd3bb1d181f", "is_disabled": 0, "lat": 38.898022166666664, "is_reserved": 0, "type": "electric_scooter"}, {"fusion_lat": 0.0, "name": "e0c746e65286cefbad21502149d94437", "lon": -77.0323465, "rental_uris": {"android": "https://dc.lft.to/lastmile_qr_scan", "ios": "https://dc.lft.to/lastmile_qr_scan"}, "fusion_lon": 0.0, "bike_id": "e0c746e65286cefbad21502149d94437", "is_disabled": 0, "lat": 38.928912, "is_reserved": 0, "type": "electric_scooter"}, {"fusion_lat": 0.0, "name": "c41860f406218e0b3644441bccd7dbfd", "lon": -76.97332616666667, "rental_uris": {"android": "https://dc.lft.to/lastmile_qr_scan", "ios": "https://dc.lft.to/lastmile_qr_scan"}, "fusion_lon": 0.0, "bike_id": "c41860f406218e0b3644441bccd7dbfd", "is_disabled": 0, "lat": 38.86519233333333, "is_reserved": 0, "type": "electric_bike"}, {"fusion_lat": 0.0, "name": "6fb54cae3131d9a33b6da50ad29b564a", "lon": -77.03217866666667, "rental_uris": {"android": "https://dc.lft.to/lastmile_qr_scan", "ios": "https://dc.lft.to/lastmile_qr_scan"}, "fusion_lon": 0.0, "bike_id": "6fb54cae3131d9a33b6da50ad29b564a", "is_disabled": 0, "lat": 38.89216583333334, "is_reserved": 0, "type": "electric_scooter"}, {"fusion_lat": 0.0, "name": "ae6ac9ab1d5cef5de4fcae11d8464270", "lon": -76.9721965, "rental_uris": {"android": "https://dc.lft.to/lastmile_qr_scan", "ios": "https://dc.lft.to/lastmile_qr_scan"}, "fusion_lon": 0.0, "bike_id": "ae6ac9ab1d5cef5de4fcae11d8464270", "is_disabled": 0, "lat": 38.9836315, "is_reserved": 0, "type": "electric_bike"}, {"fusion_lat": 0.0, "name": "b931761220e92fa4abf2f5f3bc7f28e2", "lon": -77.0239025, "rental_uris": {"android": "https://dc.lft.to/lastmile_qr_scan", "ios": "https://dc.lft.to/lastmile_qr_scan"}, "fusion_lon": 0.0, "bike_id": "b931761220e92fa4abf2f5f3bc7f28e2", "is_disabled": 0, "lat": 38.92071033333333, "is_reserved": 0, "type": "electric_scooter"}, {"fusion_lat": 0.0, "name": "38d92bb2719195d9f8e5391f574ec59e", "lon": -77.03709566666667, "rental_uris": {"android": "https://dc.lft.to/lastmile_qr_scan", "ios": "https://dc.lft.to/lastmile_qr_scan"}, "fusion_lon": 0.0, "bike_id": "38d92bb2719195d9f8e5391f574ec59e", "is_disabled": 0, "lat": 38.9282975, "is_reserved": 0, "type": "electric_scooter"}, {"fusion_lat": 0.0, "name": "17380a76eec2c62362fdd42c6e801b53", "lon": -77.01877433333334, "rental_uris": {"android": "https://dc.lft.to/lastmile_qr_scan", "ios": "https://dc.lft.to/lastmile_qr_scan"}, "fusion_lon": 0.0, "bike_id": "17380a76eec2c62362fdd42c6e801b53", "is_disabled": 0, "lat": 38.93204333333333, "is_reserved": 0, "type": "electric_bike"}, {"fusion_lat": 0.0, "name": "31052f6a8418cebb1c48e27a625f2810", "lon": -77.01544783333334, "rental_uris": {"android": "https://dc.lft.to/lastmile_qr_scan", "ios": "https://dc.lft.to/lastmile_qr_scan"}, "fusion_lon": 0.0, "bike_id": "31052f6a8418cebb1c48e27a625f2810", "is_disabled": 0, "lat": 38.891671333333335, "is_reserved": 0, "type": "electric_scooter"}, {"fusion_lat": 0.0, "name": "36a39bd75de1261a3c6403dcdb4171b7", "lon": -77.012869, "rental_uris": {"android": "https://dc.lft.to/lastmile_qr_scan", "ios": "https://dc.lft.to/lastmile_qr_scan"}, "fusion_lon": 0.0, "bike_id": "36a39bd75de1261a3c6403dcdb4171b7", "is_disabled": 0, "lat": 38.9515465, "is_reserved": 0, "type": "electric_bike"}, {"fusion_lat": 0.0, "name": "7f2e3d9b5d968ab4b1e81a27ac500046", "lon": -76.97328816666666, "rental_uris": {"android": "https://dc.lft.to/lastmile_qr_scan", "ios": "https://dc.lft.to/lastmile_qr_scan"}, "fusion_lon": 0.0, "bike_id": "7f2e3d9b5d968ab4b1e81a27ac500046", "is_disabled": 0, "lat": 38.904085, "is_reserved": 0, "type": "electric_scooter"}, {"fusion_lat": 0.0, "name": "6b4c55bbee956917f30c0db3ea240006", "lon": -77.06955016666667, "rental_uris": {"android": "https://dc.lft.to/lastmile_qr_scan", "ios": "https://dc.lft.to/lastmile_qr_scan"}, "fusion_lon": 0.0, "bike_id": "6b4c55bbee956917f30c0db3ea240006", "is_disabled": 0, "lat": 38.91779, "is_reserved": 0, "type": "electric_scooter"}, {"fusion_lat": 0.0, "name": "68eba9e9858eabff657681b0d6755c41", "lon": -77.038802, "rental_uris": {"android": "https://dc.lft.to/lastmile_qr_scan", "ios": "https://dc.lft.to/lastmile_qr_scan"}, "fusion_lon": 0.0, "bike_id": "68eba9e9858eabff657681b0d6755c41", "is_disabled": 0, "lat": 38.93125033333333, "is_reserved": 0, "type": "electric_scooter"}, {"fusion_lat": 0.0, "name": "3dbfda511caffaad231c6b1616a287b4", "lon": -76.9714385, "rental_uris": {"android": "https://dc.lft.to/lastmile_qr_scan", "ios": "https://dc.lft.to/lastmile_qr_scan"}, "fusion_lon": 0.0, "bike_id": "3dbfda511caffaad231c6b1616a287b4", "is_disabled": 0, "lat": 38.923374333333335, "is_reserved": 0, "type": "electric_bike"}, {"fusion_lat": 0.0, "name": "b2b416f77ea6d4e399ec435170f6464c", "lon": -77.04165533333334, "rental_uris": {"android": "https://dc.lft.to/lastmile_qr_scan", "ios": "https://dc.lft.to/lastmile_qr_scan"}, "fusion_lon": 0.0, "bike_id": "b2b416f77ea6d4e399ec435170f6464c", "is_disabled": 0, "lat": 38.91638666666667, "is_reserved": 0, "type": "electric_scooter"}, {"fusion_lat": 0.0, "name": "cd689ea458cbbbe111a96decf140846c", "lon": -77.00583483333334, "rental_uris": {"android": "https://dc.lft.to/lastmile_qr_scan", "ios": "https://dc.lft.to/lastmile_qr_scan"}, "fusion_lon": 0.0, "bike_id": "cd689ea458cbbbe111a96decf140846c", "is_disabled": 0, "lat": 38.875605166666666, "is_reserved": 0, "type": "electric_scooter"}, {"fusion_lat": 0.0, "name": "e9c5e98c5ecc0e3d4b5f10935319b3e3", "lon": -77.0021145, "rental_uris": {"android": "https://dc.lft.to/lastmile_qr_scan", "ios": "https://dc.lft.to/lastmile_qr_scan"}, "fusion_lon": 0.0, "bike_id": "e9c5e98c5ecc0e3d4b5f10935319b3e3", "is_disabled": 0, "lat": 38.90733816666667, "is_reserved": 0, "type": "electric_scooter"}, {"fusion_lat": 0.0, "name": "a3f193c4e4f3d9183e70f7dad4118753", "lon": -77.02381683333333, "rental_uris": {"android": "https://dc.lft.to/lastmile_qr_scan", "ios": "https://dc.lft.to/lastmile_qr_scan"}, "fusion_lon": 0.0, "bike_id": "a3f193c4e4f3d9183e70f7dad4118753", "is_disabled": 0, "lat": 38.8923395, "is_reserved": 0, "type": "electric_scooter"}, {"fusion_lat": 0.0, "name": "e4ebbbae8c1bfb29d87a1965aca078c2", "lon": -77.0154925, "rental_uris": {"android": "https://dc.lft.to/lastmile_qr_scan", "ios": "https://dc.lft.to/lastmile_qr_scan"}, "fusion_lon": 0.0, "bike_id": "e4ebbbae8c1bfb29d87a1965aca078c2", "is_disabled": 0, "lat": 38.89169283333333, "is_reserved": 0, "type": "electric_scooter"}, {"fusion_lat": 0.0, "name": "2cb8e8e2543dcaee437670537b9d933f", "lon": -77.04355683333333, "rental_uris": {"android": "https://dc.lft.to/lastmile_qr_scan", "ios": "https://dc.lft.to/lastmile_qr_scan"}, "fusion_lon": 0.0, "bike_id": "2cb8e8e2543dcaee437670537b9d933f", "is_disabled": 0, "lat": 38.8971865, "is_reserved": 0, "type": "electric_scooter"}, {"fusion_lat": 0.0, "name": "705e99686f384e1c365319a922379a45", "lon": -77.04670916666667, "rental_uris": {"android": "https://dc.lft.to/lastmile_qr_scan", "ios": "https://dc.lft.to/lastmile_qr_scan"}, "fusion_lon": 0.0, "bike_id": "705e99686f384e1c365319a922379a45", "is_disabled": 0, "lat": 38.893219, "is_reserved": 0, "type": "electric_scooter"}, {"fusion_lat": 0.0, "name": "55eb8f3dd390c9ea71ddd91066f12298", "lon": -77.00568533333333, "rental_uris": {"android": "https://dc.lft.to/lastmile_qr_scan", "ios": "https://dc.lft.to/lastmile_qr_scan"}, "fusion_lon": 0.0, "bike_id": "55eb8f3dd390c9ea71ddd91066f12298", "is_disabled": 0, "lat": 38.875496, "is_reserved": 0, "type": "electric_scooter"}, {"fusion_lat": 0.0, "name": "fb307339a149630e438a2fdad7834c0f", "lon": -77.03186083333334, "rental_uris": {"android": "https://dc.lft.to/lastmile_qr_scan", "ios": "https://dc.lft.to/lastmile_qr_scan"}, "fusion_lon": 0.0, "bike_id": "fb307339a149630e438a2fdad7834c0f", "is_disabled": 0, "lat": 38.995963, "is_reserved": 0, "type": "electric_scooter"}, {"fusion_lat": 0.0, "name": "6b476847540f6aea8182685667f3f303", "lon": -77.02238816666667, "rental_uris": {"android": "https://dc.lft.to/lastmile_qr_scan", "ios": "https://dc.lft.to/lastmile_qr_scan"}, "fusion_lon": 0.0, "bike_id": "6b476847540f6aea8182685667f3f303", "is_disabled": 0, "lat": 38.89344766666667, "is_reserved": 0, "type": "electric_scooter"}, {"fusion_lat": 0.0, "name": "f67976cfcab1ae584a096f44b61e02c6", "lon": -77.03202916666666, "rental_uris": {"android": "https://dc.lft.to/lastmile_qr_scan", "ios": "https://dc.lft.to/lastmile_qr_scan"}, "fusion_lon": 0.0, "bike_id": "f67976cfcab1ae584a096f44b61e02c6", "is_disabled": 0, "lat": 38.89294966666667, "is_reserved": 0, "type": "electric_scooter"}, {"fusion_lat": 0.0, "name": "1fea2db50b14d932e484a6f4571a418d", "lon": -76.97722316666666, "rental_uris": {"android": "https://dc.lft.to/lastmile_qr_scan", "ios": "https://dc.lft.to/lastmile_qr_scan"}, "fusion_lon": 0.0, "bike_id": "1fea2db50b14d932e484a6f4571a418d", "is_disabled": 0, "lat": 38.8724175, "is_reserved": 0, "type": "electric_scooter"}, {"fusion_lat": 0.0, "name": "890e964b09ea21d3ad36258cfc908348", "lon": -77.0435065, "rental_uris": {"android": "https://dc.lft.to/lastmile_qr_scan", "ios": "https://dc.lft.to/lastmile_qr_scan"}, "fusion_lon": 0.0, "bike_id": "890e964b09ea21d3ad36258cfc908348", "is_disabled": 0, "lat": 38.9080415, "is_reserved": 0, "type": "electric_scooter"}, {"fusion_lat": 0.0, "name": "69bbc2f2fbbd58d8939edc5b6b4cc07e", "lon": -76.93221616666666, "rental_uris": {"android": "https://dc.lft.to/lastmile_qr_scan", "ios": "https://dc.lft.to/lastmile_qr_scan"}, "fusion_lon": 0.0, "bike_id": "69bbc2f2fbbd58d8939edc5b6b4cc07e", "is_disabled": 0, "lat": 38.880610833333336, "is_reserved": 0, "type": "electric_scooter"}, {"fusion_lat": 0.0, "name": "cc20045f150892a5fddffb83dbbc0a7f", "lon": -77.00501516666667, "rental_uris": {"android": "https://dc.lft.to/lastmile_qr_scan", "ios": "https://dc.lft.to/lastmile_qr_scan"}, "fusion_lon": 0.0, "bike_id": "cc20045f150892a5fddffb83dbbc0a7f", "is_disabled": 0, "lat": 38.89677866666667, "is_reserved": 0, "type": "electric_scooter"}, {"fusion_lat": 0.0, "name": "0dbf0ebf55459c4b4bb253bd866ce469", "lon": -77.02265783333333, "rental_uris": {"android": "https://dc.lft.to/lastmile_qr_scan", "ios": "https://dc.lft.to/lastmile_qr_scan"}, "fusion_lon": 0.0, "bike_id": "0dbf0ebf55459c4b4bb253bd866ce469", "is_disabled": 0, "lat": 38.93383866666667, "is_reserved": 0, "type": "electric_scooter"}, {"fusion_lat": 0.0, "name": "47ebd3cef07be7a7cf979f4f0e7478e9", "lon": -77.02674933333333, "rental_uris": {"android": "https://dc.lft.to/lastmile_qr_scan", "ios": "https://dc.lft.to/lastmile_qr_scan"}, "fusion_lon": 0.0, "bike_id": "47ebd3cef07be7a7cf979f4f0e7478e9", "is_disabled": 0, "lat": 38.92679116666667, "is_reserved": 0, "type": "electric_scooter"}, {"fusion_lat": 0.0, "name": "b01201aae2f8b71fb14e515d2a7b677a", "lon": -77.02585116666667, "rental_uris": {"android": "https://dc.lft.to/lastmile_qr_scan", "ios": "https://dc.lft.to/lastmile_qr_scan"}, "fusion_lon": 0.0, "bike_id": "b01201aae2f8b71fb14e515d2a7b677a", "is_disabled": 0, "lat": 38.91412116666667, "is_reserved": 0, "type": "electric_scooter"}, {"fusion_lat": 0.0, "name": "aba77efd295accb0011b9430858f7c9a", "lon": -77.050052, "rental_uris": {"android": "https://dc.lft.to/lastmile_qr_scan", "ios": "https://dc.lft.to/lastmile_qr_scan"}, "fusion_lon": 0.0, "bike_id": "aba77efd295accb0011b9430858f7c9a", "is_disabled": 0, "lat": 38.89228766666667, "is_reserved": 0, "type": "electric_scooter"}, {"fusion_lat": 0.0, "name": "61a36b91fdf1433108a24c216b8dbfa1", "lon": -76.97738933333333, "rental_uris": {"android": "https://dc.lft.to/lastmile_qr_scan", "ios": "https://dc.lft.to/lastmile_qr_scan"}, "fusion_lon": 0.0, "bike_id": "61a36b91fdf1433108a24c216b8dbfa1", "is_disabled": 0, "lat": 38.8646975, "is_reserved": 0, "type": "electric_scooter"}, {"fusion_lat": 0.0, "name": "b9c0e65a5f7bf80b3ccbac2701676aff", "lon": -77.00165266666667, "rental_uris": {"android": "https://dc.lft.to/lastmile_qr_scan", "ios": "https://dc.lft.to/lastmile_qr_scan"}, "fusion_lon": 0.0, "bike_id": "b9c0e65a5f7bf80b3ccbac2701676aff", "is_disabled": 0, "lat": 38.902561666666664, "is_reserved": 0, "type": "electric_scooter"}, {"fusion_lat": 0.0, "name": "753fb76ef780515df4e8ddd31cdb657f", "lon": -76.96509766666667, "rental_uris": {"android": "https://dc.lft.to/lastmile_qr_scan", "ios": "https://dc.lft.to/lastmile_qr_scan"}, "fusion_lon": 0.0, "bike_id": "753fb76ef780515df4e8ddd31cdb657f", "is_disabled": 0, "lat": 38.8765095, "is_reserved": 0, "type": "electric_scooter"}, {"fusion_lat": 0.0, "name": "36bbf0cc38306ebccca84eb2482cc3fe", "lon": -77.03701983333333, "rental_uris": {"android": "https://dc.lft.to/lastmile_qr_scan", "ios": "https://dc.lft.to/lastmile_qr_scan"}, "fusion_lon": 0.0, "bike_id": "36bbf0cc38306ebccca84eb2482cc3fe", "is_disabled": 0, "lat": 38.916625, "is_reserved": 0, "type": "electric_scooter"}, {"fusion_lat": 0.0, "name": "b1dbd0e3bafca2f122919e7501b90415", "lon": -77.02477533333334, "rental_uris": {"android": "https://dc.lft.to/lastmile_qr_scan", "ios": "https://dc.lft.to/lastmile_qr_scan"}, "fusion_lon": 0.0, "bike_id": "b1dbd0e3bafca2f122919e7501b90415", "is_disabled": 0, "lat": 38.93098, "is_reserved": 0, "type": "electric_scooter"}, {"fusion_lat": 0.0, "name": "ac725102d72db124c045d6adc5f15602", "lon": -76.91213866666666, "rental_uris": {"android": "https://dc.lft.to/lastmile_qr_scan", "ios": "https://dc.lft.to/lastmile_qr_scan"}, "fusion_lon": 0.0, "bike_id": "ac725102d72db124c045d6adc5f15602", "is_disabled": 0, "lat": 38.90313366666667, "is_reserved": 0, "type": "electric_bike"}, {"fusion_lat": 0.0, "name": "9333e0fe8c46517d67939c7736c92d87", "lon": -77.0352765, "rental_uris": {"android": "https://dc.lft.to/lastmile_qr_scan", "ios": "https://dc.lft.to/lastmile_qr_scan"}, "fusion_lon": 0.0, "bike_id": "9333e0fe8c46517d67939c7736c92d87", "is_disabled": 0, "lat": 38.916931, "is_reserved": 0, "type": "electric_scooter"}, {"fusion_lat": 0.0, "name": "7503a964ed267e57a7fb0a500f5b8d48", "lon": -77.02832, "rental_uris": {"android": "https://dc.lft.to/lastmile_qr_scan", "ios": "https://dc.lft.to/lastmile_qr_scan"}, "fusion_lon": 0.0, "bike_id": "7503a964ed267e57a7fb0a500f5b8d48", "is_disabled": 0, "lat": 38.932006666666666, "is_reserved": 0, "type": "electric_scooter"}, {"fusion_lat": 0.0, "name": "0a5a4b2e93112ffb5564ed51f3ca9d35", "lon": -76.98711733333333, "rental_uris": {"android": "https://dc.lft.to/lastmile_qr_scan", "ios": "https://dc.lft.to/lastmile_qr_scan"}, "fusion_lon": 0.0, "bike_id": "0a5a4b2e93112ffb5564ed51f3ca9d35", "is_disabled": 0, "lat": 38.866975, "is_reserved": 0, "type": "electric_scooter"}, {"fusion_lat": 0.0, "name": "4b865ee179dde7ecff57070a046e82eb", "lon": -76.99699166666667, "rental_uris": {"android": "https://dc.lft.to/lastmile_qr_scan", "ios": "https://dc.lft.to/lastmile_qr_scan"}, "fusion_lon": 0.0, "bike_id": "4b865ee179dde7ecff57070a046e82eb", "is_disabled": 0, "lat": 38.884805, "is_reserved": 0, "type": "electric_scooter"}, {"fusion_lat": 0.0, "name": "600d6981072dfbac716c56ff42b677de", "lon": -77.02815416666667, "rental_uris": {"android": "https://dc.lft.to/lastmile_qr_scan", "ios": "https://dc.lft.to/lastmile_qr_scan"}, "fusion_lon": 0.0, "bike_id": "600d6981072dfbac716c56ff42b677de", "is_disabled": 0, "lat": 38.91200333333333, "is_reserved": 0, "type": "electric_scooter"}, {"fusion_lat": 0.0, "name": "7fca0c4a942a414cabfec5c13d5e701e", "lon": -77.03652416666667, "rental_uris": {"android": "https://dc.lft.to/lastmile_qr_scan", "ios": "https://dc.lft.to/lastmile_qr_scan"}, "fusion_lon": 0.0, "bike_id": "7fca0c4a942a414cabfec5c13d5e701e", "is_disabled": 0, "lat": 38.9026865, "is_reserved": 0, "type": "electric_scooter"}, {"fusion_lat": 0.0, "name": "69673cd1f0063d2e8e76cba991791e36", "lon": -77.03516666666667, "rental_uris": {"android": "https://dc.lft.to/lastmile_qr_scan", "ios": "https://dc.lft.to/lastmile_qr_scan"}, "fusion_lon": 0.0, "bike_id": "69673cd1f0063d2e8e76cba991791e36", "is_disabled": 0, "lat": 38.915901, "is_reserved": 0, "type": "electric_scooter"}, {"fusion_lat": 0.0, "name": "19cb456b0699ee5c43933a275c4b9959", "lon": -77.03643166666667, "rental_uris": {"android": "https://dc.lft.to/lastmile_qr_scan", "ios": "https://dc.lft.to/lastmile_qr_scan"}, "fusion_lon": 0.0, "bike_id": "19cb456b0699ee5c43933a275c4b9959", "is_disabled": 0, "lat": 38.92267966666667, "is_reserved": 0, "type": "electric_scooter"}, {"fusion_lat": 0.0, "name": "b0d9f30a30d1e57b2686c2ab8d0fe114", "lon": -76.99929766666666, "rental_uris": {"android": "https://dc.lft.to/lastmile_qr_scan", "ios": "https://dc.lft.to/lastmile_qr_scan"}, "fusion_lon": 0.0, "bike_id": "b0d9f30a30d1e57b2686c2ab8d0fe114", "is_disabled": 0, "lat": 38.84311016666667, "is_reserved": 0, "type": "electric_scooter"}, {"fusion_lat": 0.0, "name": "3f3bd74c583812a149832b6e23dff22d", "lon": -77.0178275, "rental_uris": {"android": "https://dc.lft.to/lastmile_qr_scan", "ios": "https://dc.lft.to/lastmile_qr_scan"}, "fusion_lon": 0.0, "bike_id": "3f3bd74c583812a149832b6e23dff22d", "is_disabled": 0, "lat": 38.921359833333334, "is_reserved": 0, "type": "electric_scooter"}, {"fusion_lat": 0.0, "name": "d4a02dd04141fa13195106fa3e81a6a3", "lon": -77.0453195, "rental_uris": {"android": "https://dc.lft.to/lastmile_qr_scan", "ios": "https://dc.lft.to/lastmile_qr_scan"}, "fusion_lon": 0.0, "bike_id": "d4a02dd04141fa13195106fa3e81a6a3", "is_disabled": 0, "lat": 38.90053533333333, "is_reserved": 0, "type": "electric_scooter"}, {"fusion_lat": 0.0, "name": "9667cb5d247436fee486b977e37e7714", "lon": -77.02801816666667, "rental_uris": {"android": "https://dc.lft.to/lastmile_qr_scan", "ios": "https://dc.lft.to/lastmile_qr_scan"}, "fusion_lon": 0.0, "bike_id": "9667cb5d247436fee486b977e37e7714", "is_disabled": 0, "lat": 38.912178, "is_reserved": 0, "type": "electric_scooter"}, {"fusion_lat": 0.0, "name": "81e18a85836a72708622171ab607b1fe", "lon": -77.05135666666666, "rental_uris": {"android": "https://dc.lft.to/lastmile_qr_scan", "ios": "https://dc.lft.to/lastmile_qr_scan"}, "fusion_lon": 0.0, "bike_id": "81e18a85836a72708622171ab607b1fe", "is_disabled": 0, "lat": 38.906198333333336, "is_reserved": 0, "type": "electric_scooter"}, {"fusion_lat": 0.0, "name": "a3b2b49a1dc78f3764a6edab41ea2fff", "lon": -77.04283166666667, "rental_uris": {"android": "https://dc.lft.to/lastmile_qr_scan", "ios": "https://dc.lft.to/lastmile_qr_scan"}, "fusion_lon": 0.0, "bike_id": "a3b2b49a1dc78f3764a6edab41ea2fff", "is_disabled": 0, "lat": 38.90278833333333, "is_reserved": 0, "type": "electric_scooter"}, {"fusion_lat": 0.0, "name": "f11ade3383874d9460ce8b14af1a8b70", "lon": -77.04200466666667, "rental_uris": {"android": "https://dc.lft.to/lastmile_qr_scan", "ios": "https://dc.lft.to/lastmile_qr_scan"}, "fusion_lon": 0.0, "bike_id": "f11ade3383874d9460ce8b14af1a8b70", "is_disabled": 0, "lat": 38.90745616666667, "is_reserved": 0, "type": "electric_scooter"}, {"fusion_lat": 0.0, "name": "56174bc100da1193102dd471a7857c39", "lon": -77.0327465, "rental_uris": {"android": "https://dc.lft.to/lastmile_qr_scan", "ios": "https://dc.lft.to/lastmile_qr_scan"}, "fusion_lon": 0.0, "bike_id": "56174bc100da1193102dd471a7857c39", "is_disabled": 0, "lat": 38.9217165, "is_reserved": 0, "type": "electric_scooter"}, {"fusion_lat": 0.0, "name": "b995200fc229c6a43f867068f2f3c693", "lon": -77.00019683333333, "rental_uris": {"android": "https://dc.lft.to/lastmile_qr_scan", "ios": "https://dc.lft.to/lastmile_qr_scan"}, "fusion_lon": 0.0, "bike_id": "b995200fc229c6a43f867068f2f3c693", "is_disabled": 0, "lat": 38.87401083333334, "is_reserved": 0, "type": "electric_scooter"}, {"fusion_lat": 0.0, "name": "a3c525adae8c6edefb11dff0044d1d85", "lon": -76.93319883333334, "rental_uris": {"android": "https://dc.lft.to/lastmile_qr_scan", "ios": "https://dc.lft.to/lastmile_qr_scan"}, "fusion_lon": 0.0, "bike_id": "a3c525adae8c6edefb11dff0044d1d85", "is_disabled": 0, "lat": 38.90047933333334, "is_reserved": 0, "type": "electric_scooter"}, {"fusion_lat": 0.0, "name": "1a0a8e2cdec8764f09f68673ee910887", "lon": -77.01609433333333, "rental_uris": {"android": "https://dc.lft.to/lastmile_qr_scan", "ios": "https://dc.lft.to/lastmile_qr_scan"}, "fusion_lon": 0.0, "bike_id": "1a0a8e2cdec8764f09f68673ee910887", "is_disabled": 0, "lat": 38.87698683333333, "is_reserved": 0, "type": "electric_scooter"}, {"fusion_lat": 0.0, "name": "3de157da27a9fe36963ac5397a22a28a", "lon": -77.04541316666666, "rental_uris": {"android": "https://dc.lft.to/lastmile_qr_scan", "ios": "https://dc.lft.to/lastmile_qr_scan"}, "fusion_lon": 0.0, "bike_id": "3de157da27a9fe36963ac5397a22a28a", "is_disabled": 0, "lat": 38.90729233333333, "is_reserved": 0, "type": "electric_scooter"}, {"fusion_lat": 0.0, "name": "caab152dd9b1ad36bf0ea61ab9b60349", "lon": -77.05109616666667, "rental_uris": {"android": "https://dc.lft.to/lastmile_qr_scan", "ios": "https://dc.lft.to/lastmile_qr_scan"}, "fusion_lon": 0.0, "bike_id": "caab152dd9b1ad36bf0ea61ab9b60349", "is_disabled": 0, "lat": 38.905152666666666, "is_reserved": 0, "type": "electric_scooter"}, {"fusion_lat": 0.0, "name": "8a320a723d9b3acdcc3f46f40756d9a3", "lon": -77.0161335, "rental_uris": {"android": "https://dc.lft.to/lastmile_qr_scan", "ios": "https://dc.lft.to/lastmile_qr_scan"}, "fusion_lon": 0.0, "bike_id": "8a320a723d9b3acdcc3f46f40756d9a3", "is_disabled": 0, "lat": 38.953287, "is_reserved": 0, "type": "electric_scooter"}, {"fusion_lat": 0.0, "name": "3fdfa59aeac0ec7971692a71cf3b76d2", "lon": -77.045264, "rental_uris": {"android": "https://dc.lft.to/lastmile_qr_scan", "ios": "https://dc.lft.to/lastmile_qr_scan"}, "fusion_lon": 0.0, "bike_id": "3fdfa59aeac0ec7971692a71cf3b76d2", "is_disabled": 0, "lat": 38.9319, "is_reserved": 0, "type": "electric_scooter"}, {"fusion_lat": 0.0, "name": "642ba080aa6d8cbd26ad9154b76d22c3", "lon": -77.01965, "rental_uris": {"android": "https://dc.lft.to/lastmile_qr_scan", "ios": "https://dc.lft.to/lastmile_qr_scan"}, "fusion_lon": 0.0, "bike_id": "642ba080aa6d8cbd26ad9154b76d22c3", "is_disabled": 0, "lat": 38.878362333333335, "is_reserved": 0, "type": "electric_scooter"}, {"fusion_lat": 0.0, "name": "dff60227e05139c68e6f7e9f8452cee0", "lon": -77.0191135, "rental_uris": {"android": "https://dc.lft.to/lastmile_qr_scan", "ios": "https://dc.lft.to/lastmile_qr_scan"}, "fusion_lon": 0.0, "bike_id": "dff60227e05139c68e6f7e9f8452cee0", "is_disabled": 0, "lat": 38.92334566666667, "is_reserved": 0, "type": "electric_scooter"}, {"fusion_lat": 0.0, "name": "a61cec8a6ed562e8697c26667a663da7", "lon": -77.02846883333333, "rental_uris": {"android": "https://dc.lft.to/lastmile_qr_scan", "ios": "https://dc.lft.to/lastmile_qr_scan"}, "fusion_lon": 0.0, "bike_id": "a61cec8a6ed562e8697c26667a663da7", "is_disabled": 0, "lat": 38.8970955, "is_reserved": 0, "type": "electric_scooter"}, {"fusion_lat": 0.0, "name": "21c10d512669979f923871af37453eea", "lon": -77.09311783333334, "rental_uris": {"android": "https://dc.lft.to/lastmile_qr_scan", "ios": "https://dc.lft.to/lastmile_qr_scan"}, "fusion_lon": 0.0, "bike_id": "21c10d512669979f923871af37453eea", "is_disabled": 0, "lat": 38.88598733333333, "is_reserved": 0, "type": "electric_bike"}, {"fusion_lat": 0.0, "name": "5c4ba09cf5ae2c76e94f2d2e1012cd06", "lon": -77.0282755, "rental_uris": {"android": "https://dc.lft.to/lastmile_qr_scan", "ios": "https://dc.lft.to/lastmile_qr_scan"}, "fusion_lon": 0.0, "bike_id": "5c4ba09cf5ae2c76e94f2d2e1012cd06", "is_disabled": 0, "lat": 38.88728916666667, "is_reserved": 0, "type": "electric_scooter"}, {"fusion_lat": 0.0, "name": "87b5c655a9779b4103457ac3840a5c16", "lon": -77.024535, "rental_uris": {"android": "https://dc.lft.to/lastmile_qr_scan", "ios": "https://dc.lft.to/lastmile_qr_scan"}, "fusion_lon": 0.0, "bike_id": "87b5c655a9779b4103457ac3840a5c16", "is_disabled": 0, "lat": 38.9139825, "is_reserved": 0, "type": "electric_scooter"}, {"fusion_lat": 0.0, "name": "6ff0bf51772edd5209de4ba9e0bb1c8e", "lon": -77.078966, "rental_uris": {"android": "https://dc.lft.to/lastmile_qr_scan", "ios": "https://dc.lft.to/lastmile_qr_scan"}, "fusion_lon": 0.0, "bike_id": "6ff0bf51772edd5209de4ba9e0bb1c8e", "is_disabled": 0, "lat": 38.839241, "is_reserved": 0, "type": "electric_bike"}, {"fusion_lat": 0.0, "name": "b3a9ef3dd7d8b11210dc9ba9629dfd4b", "lon": -77.006016, "rental_uris": {"android": "https://dc.lft.to/lastmile_qr_scan", "ios": "https://dc.lft.to/lastmile_qr_scan"}, "fusion_lon": 0.0, "bike_id": "b3a9ef3dd7d8b11210dc9ba9629dfd4b", "is_disabled": 0, "lat": 38.8718215, "is_reserved": 0, "type": "electric_scooter"}, {"fusion_lat": 0.0, "name": "d4aed8d785a181d744a9d9f2e9ca010e", "lon": -77.032856, "rental_uris": {"android": "https://dc.lft.to/lastmile_qr_scan", "ios": "https://dc.lft.to/lastmile_qr_scan"}, "fusion_lon": 0.0, "bike_id": "d4aed8d785a181d744a9d9f2e9ca010e", "is_disabled": 0, "lat": 38.903520666666665, "is_reserved": 0, "type": "electric_scooter"}, {"fusion_lat": 0.0, "name": "17f935cd011bdc49e476f7b6fbdfd6b7", "lon": -77.0512855, "rental_uris": {"android": "https://dc.lft.to/lastmile_qr_scan", "ios": "https://dc.lft.to/lastmile_qr_scan"}, "fusion_lon": 0.0, "bike_id": "17f935cd011bdc49e476f7b6fbdfd6b7", "is_disabled": 0, "lat": 38.92357066666667, "is_reserved": 0, "type": "electric_scooter"}, {"fusion_lat": 0.0, "name": "9c34b456528fbf85b1e7759e2954daa7", "lon": -77.0260425, "rental_uris": {"android": "https://dc.lft.to/lastmile_qr_scan", "ios": "https://dc.lft.to/lastmile_qr_scan"}, "fusion_lon": 0.0, "bike_id": "9c34b456528fbf85b1e7759e2954daa7", "is_disabled": 0, "lat": 38.91552333333333, "is_reserved": 0, "type": "electric_scooter"}, {"fusion_lat": 0.0, "name": "ea814c1e7a0ce6ffd12194db60429d24", "lon": -77.0088845, "rental_uris": {"android": "https://dc.lft.to/lastmile_qr_scan", "ios": "https://dc.lft.to/lastmile_qr_scan"}, "fusion_lon": 0.0, "bike_id": "ea814c1e7a0ce6ffd12194db60429d24", "is_disabled": 0, "lat": 38.96120783333333, "is_reserved": 0, "type": "electric_scooter"}, {"fusion_lat": 0.0, "name": "d3c1029e0977d7558b85a3410ab84a68", "lon": -77.04397416666667, "rental_uris": {"android": "https://dc.lft.to/lastmile_qr_scan", "ios": "https://dc.lft.to/lastmile_qr_scan"}, "fusion_lon": 0.0, "bike_id": "d3c1029e0977d7558b85a3410ab84a68", "is_disabled": 0, "lat": 38.90554616666667, "is_reserved": 0, "type": "electric_scooter"}, {"fusion_lat": 0.0, "name": "d4a154c178ef8bd51f650d68719afbf0", "lon": -76.97016216666667, "rental_uris": {"android": "https://dc.lft.to/lastmile_qr_scan", "ios": "https://dc.lft.to/lastmile_qr_scan"}, "fusion_lon": 0.0, "bike_id": "d4a154c178ef8bd51f650d68719afbf0", "is_disabled": 0, "lat": 38.8736175, "is_reserved": 0, "type": "electric_scooter"}, {"fusion_lat": 0.0, "name": "7cfcae449109ba00a959fa2b871c1dc2", "lon": -77.04828116666667, "rental_uris": {"android": "https://dc.lft.to/lastmile_qr_scan", "ios": "https://dc.lft.to/lastmile_qr_scan"}, "fusion_lon": 0.0, "bike_id": "7cfcae449109ba00a959fa2b871c1dc2", "is_disabled": 0, "lat": 38.91887216666667, "is_reserved": 0, "type": "electric_scooter"}, {"fusion_lat": 0.0, "name": "06135df6face4f2e9926fb23f8a469df", "lon": -76.993977, "rental_uris": {"android": "https://dc.lft.to/lastmile_qr_scan", "ios": "https://dc.lft.to/lastmile_qr_scan"}, "fusion_lon": 0.0, "bike_id": "06135df6face4f2e9926fb23f8a469df", "is_disabled": 0, "lat": 38.921537666666666, "is_reserved": 0, "type": "electric_scooter"}, {"fusion_lat": 0.0, "name": "915e9ac1a861f9b82574deab979d266b", "lon": -77.03284833333333, "rental_uris": {"android": "https://dc.lft.to/lastmile_qr_scan", "ios": "https://dc.lft.to/lastmile_qr_scan"}, "fusion_lon": 0.0, "bike_id": "915e9ac1a861f9b82574deab979d266b", "is_disabled": 0, "lat": 38.89845116666667, "is_reserved": 0, "type": "electric_scooter"}, {"fusion_lat": 0.0, "name": "e8911efecb6fdba7f283211bc3df2f2b", "lon": -77.0252095, "rental_uris": {"android": "https://dc.lft.to/lastmile_qr_scan", "ios": "https://dc.lft.to/lastmile_qr_scan"}, "fusion_lon": 0.0, "bike_id": "e8911efecb6fdba7f283211bc3df2f2b", "is_disabled": 0, "lat": 38.90853216666667, "is_reserved": 0, "type": "electric_scooter"}, {"fusion_lat": 0.0, "name": "807475cdc6e156263d83d2ea05a3c843", "lon": -77.029661, "rental_uris": {"android": "https://dc.lft.to/lastmile_qr_scan", "ios": "https://dc.lft.to/lastmile_qr_scan"}, "fusion_lon": 0.0, "bike_id": "807475cdc6e156263d83d2ea05a3c843", "is_disabled": 0, "lat": 38.91677583333333, "is_reserved": 0, "type": "electric_scooter"}, {"fusion_lat": 0.0, "name": "8f96b7ab0bd4d552b45881f30833585d", "lon": -77.025713, "rental_uris": {"android": "https://dc.lft.to/lastmile_qr_scan", "ios": "https://dc.lft.to/lastmile_qr_scan"}, "fusion_lon": 0.0, "bike_id": "8f96b7ab0bd4d552b45881f30833585d", "is_disabled": 0, "lat": 38.914875333333335, "is_reserved": 0, "type": "electric_scooter"}, {"fusion_lat": 0.0, "name": "ae960a57b97227dab51bf3074c095777", "lon": -76.986844, "rental_uris": {"android": "https://dc.lft.to/lastmile_qr_scan", "ios": "https://dc.lft.to/lastmile_qr_scan"}, "fusion_lon": 0.0, "bike_id": "ae960a57b97227dab51bf3074c095777", "is_disabled": 0, "lat": 38.899530666666664, "is_reserved": 0, "type": "electric_bike"}, {"fusion_lat": 0.0, "name": "827ac0cac6f8483a85db32ba4f7c245c", "lon": -77.0730685, "rental_uris": {"android": "https://dc.lft.to/lastmile_qr_scan", "ios": "https://dc.lft.to/lastmile_qr_scan"}, "fusion_lon": 0.0, "bike_id": "827ac0cac6f8483a85db32ba4f7c245c", "is_disabled": 0, "lat": 38.93346316666667, "is_reserved": 0, "type": "electric_scooter"}, {"fusion_lat": 0.0, "name": "1adc1770d659426a15f6818d928faa56", "lon": -77.02684566666667, "rental_uris": {"android": "https://dc.lft.to/lastmile_qr_scan", "ios": "https://dc.lft.to/lastmile_qr_scan"}, "fusion_lon": 0.0, "bike_id": "1adc1770d659426a15f6818d928faa56", "is_disabled": 0, "lat": 38.9104975, "is_reserved": 0, "type": "electric_scooter"}, {"fusion_lat": 0.0, "name": "1aa188f92a066ce3c05381ed743cfff9", "lon": -77.04659633333333, "rental_uris": {"android": "https://dc.lft.to/lastmile_qr_scan", "ios": "https://dc.lft.to/lastmile_qr_scan"}, "fusion_lon": 0.0, "bike_id": "1aa188f92a066ce3c05381ed743cfff9", "is_disabled": 0, "lat": 38.8937945, "is_reserved": 0, "type": "electric_scooter"}, {"fusion_lat": 0.0, "name": "9ae9c95fb8308bc9454cfd7824643e97", "lon": -77.0220555, "rental_uris": {"android": "https://dc.lft.to/lastmile_qr_scan", "ios": "https://dc.lft.to/lastmile_qr_scan"}, "fusion_lon": 0.0, "bike_id": "9ae9c95fb8308bc9454cfd7824643e97", "is_disabled": 0, "lat": 38.90540883333333, "is_reserved": 0, "type": "electric_scooter"}, {"fusion_lat": 0.0, "name": "c935640dd3ad5088694c3149d4708190", "lon": -76.99593216666666, "rental_uris": {"android": "https://dc.lft.to/lastmile_qr_scan", "ios": "https://dc.lft.to/lastmile_qr_scan"}, "fusion_lon": 0.0, "bike_id": "c935640dd3ad5088694c3149d4708190", "is_disabled": 0, "lat": 38.884344166666665, "is_reserved": 0, "type": "electric_scooter"}, {"fusion_lat": 0.0, "name": "f57a0debb7f5cb51c881ebe882c17227", "lon": -77.054969, "rental_uris": {"android": "https://dc.lft.to/lastmile_qr_scan", "ios": "https://dc.lft.to/lastmile_qr_scan"}, "fusion_lon": 0.0, "bike_id": "f57a0debb7f5cb51c881ebe882c17227", "is_disabled": 0, "lat": 38.9297335, "is_reserved": 0, "type": "electric_scooter"}, {"fusion_lat": 0.0, "name": "c71cbe6dba19844d830dd1ede8e3be26", "lon": -77.03869216666666, "rental_uris": {"android": "https://dc.lft.to/lastmile_qr_scan", "ios": "https://dc.lft.to/lastmile_qr_scan"}, "fusion_lon": 0.0, "bike_id": "c71cbe6dba19844d830dd1ede8e3be26", "is_disabled": 0, "lat": 38.92142366666667, "is_reserved": 0, "type": "electric_scooter"}, {"fusion_lat": 0.0, "name": "619cd0dcc277a5f2e5f532572400d62e", "lon": -77.03979133333333, "rental_uris": {"android": "https://dc.lft.to/lastmile_qr_scan", "ios": "https://dc.lft.to/lastmile_qr_scan"}, "fusion_lon": 0.0, "bike_id": "619cd0dcc277a5f2e5f532572400d62e", "is_disabled": 0, "lat": 38.89796483333333, "is_reserved": 0, "type": "electric_scooter"}, {"fusion_lat": 0.0, "name": "49cf5cbe63e8f7e0042241ecb4063356", "lon": -77.02519283333334, "rental_uris": {"android": "https://dc.lft.to/lastmile_qr_scan", "ios": "https://dc.lft.to/lastmile_qr_scan"}, "fusion_lon": 0.0, "bike_id": "49cf5cbe63e8f7e0042241ecb4063356", "is_disabled": 0, "lat": 38.919738333333335, "is_reserved": 0, "type": "electric_scooter"}, {"fusion_lat": 0.0, "name": "b1d5e0286c2b76c6d15714223df0d2f6", "lon": -76.993904, "rental_uris": {"android": "https://dc.lft.to/lastmile_qr_scan", "ios": "https://dc.lft.to/lastmile_qr_scan"}, "fusion_lon": 0.0, "bike_id": "b1d5e0286c2b76c6d15714223df0d2f6", "is_disabled": 0, "lat": 38.8845005, "is_reserved": 0, "type": "electric_scooter"}, {"fusion_lat": 0.0, "name": "5e44d9b59dd18e664d8e11b584dce157", "lon": -77.02020166666667, "rental_uris": {"android": "https://dc.lft.to/lastmile_qr_scan", "ios": "https://dc.lft.to/lastmile_qr_scan"}, "fusion_lon": 0.0, "bike_id": "5e44d9b59dd18e664d8e11b584dce157", "is_disabled": 0, "lat": 38.92844866666667, "is_reserved": 0, "type": "electric_scooter"}, {"fusion_lat": 0.0, "name": "d7e29b0ad7aedd902faa440b34b7fe73", "lon": -77.04386716666667, "rental_uris": {"android": "https://dc.lft.to/lastmile_qr_scan", "ios": "https://dc.lft.to/lastmile_qr_scan"}, "fusion_lon": 0.0, "bike_id": "d7e29b0ad7aedd902faa440b34b7fe73", "is_disabled": 0, "lat": 38.91126833333333, "is_reserved": 0, "type": "electric_scooter"}, {"fusion_lat": 0.0, "name": "64537f400839dd00af399279259ddd61", "lon": -77.0376335, "rental_uris": {"android": "https://dc.lft.to/lastmile_qr_scan", "ios": "https://dc.lft.to/lastmile_qr_scan"},