{"data": {"bikes": [{"is_reserved": 0, "lat": 38.923641333333336, "rental_uris": {"android": "https://dc.lft.to/lastmile_qr_scan", "ios": "https://dc.lft.to/lastmile_qr_scan"}, "bike_id": "5c2058c65c860e3b2c6915fdfc3f0e6c", "fusion_lon": 0.0, "fusion_lat": 0.0, "is_disabled": 0, "name": "5c2058c65c860e3b2c6915fdfc3f0e6c", "type": "electric_scooter", "lon": -77.05128783333333}, {"is_reserved": 0, "lat": 38.9325125, "rental_uris": {"android": "https://dc.lft.to/lastmile_qr_scan", "ios": "https://dc.lft.to/lastmile_qr_scan"}, "bike_id": "d4f3e20044e377d17295576e6a5e7349", "fusion_lon": 0.0, "fusion_lat": 0.0, "is_disabled": 0, "name": "d4f3e20044e377d17295576e6a5e7349", "type": "electric_scooter", "lon": -77.03271433333333}, {"is_reserved": 0, "lat": 38.91051816666667, "rental_uris": {"android": "https://dc.lft.to/lastmile_qr_scan", "ios": "https://dc.lft.to/lastmile_qr_scan"}, "bike_id": "27983dd8693d33fb21e4a2343beccd54", "fusion_lon": 0.0, "fusion_lat": 0.0, "is_disabled": 0, "name": "27983dd8693d33fb21e4a2343beccd54", "type": "electric_scooter", "lon": -77.055822}, {"is_reserved": 0, "lat": 38.912531333333334, "rental_uris": {"android": "https://dc.lft.to/lastmile_qr_scan", "ios": "https://dc.lft.to/lastmile_qr_scan"}, "bike_id": "0de66b19d764571eb828d9dd6dc84bc7", "fusion_lon": 0.0, "fusion_lat": 0.0, "is_disabled": 0, "name": "0de66b19d764571eb828d9dd6dc84bc7", "type": "electric_scooter", "lon": -77.02208266666666}, {"is_reserved": 0, "lat": 38.9045475, "rental_uris": {"android": "https://dc.lft.to/lastmile_qr_scan", "ios": "https://dc.lft.to/lastmile_qr_scan"}, "bike_id": "b5c2148860ac82d06dbea52199003ab2", "fusion_lon": 0.0, "fusion_lat": 0.0, "is_disabled": 0, "name": "b5c2148860ac82d06dbea52199003ab2", "type": "electric_scooter", "lon": -76.9824745}, {"is_reserved": 0, "lat": 38.900586833333335, "rental_uris": {"android": "https://dc.lft.to/lastmile_qr_scan", "ios": "https://dc.lft.to/lastmile_qr_scan"}, "bike_id": "5b3b483c48645256dc4ca92550dae4f6", "fusion_lon": 0.0, "fusion_lat": 0.0, "is_disabled": 0, "name": "5b3b483c48645256dc4ca92550dae4f6", "type": "electric_scooter", "lon": -77.00204866666667}, {"is_reserved": 0, "lat": 38.9143235, "rental_uris": {"android": "https://dc.lft.to/lastmile_qr_scan", "ios": "https://dc.lft.to/lastmile_qr_scan"}, "bike_id": "3192406add2e8a1d79bbb1ddf7e272ba", "fusion_lon": 0.0, "fusion_lat": 0.0, "is_disabled": 0, "name": "3192406add2e8a1d79bbb1ddf7e272ba", "type": "electric_bike", "lon": -77.01715666666666}, {"is_reserved": 0, "lat": 38.91847683333334, "rental_uris": {"android": "https://dc.lft.to/lastmile_qr_scan", "ios": "https://dc.lft.to/lastmile_qr_scan"}, "bike_id": "9d84e9ef5ddad9ae4381332b7b739bd7", "fusion_lon": 0.0, "fusion_lat": 0.0, "is_disabled": 0, "name": "9d84e9ef5ddad9ae4381332b7b739bd7", "type": "electric_scooter", "lon": -77.03442183333334}, {"is_reserved": 0, "lat": 38.908561666666664, "rental_uris": {"android": "https://dc.lft.to/lastmile_qr_scan", "ios": "https://dc.lft.to/lastmile_qr_scan"}, "bike_id": "e8c8f599311ee04cd5273546c9fe0418", "fusion_lon": 0.0, "fusion_lat": 0.0, "is_disabled": 0, "name": "e8c8f599311ee04cd5273546c9fe0418", "type": "electric_scooter", "lon": -77.04587583333333}, {"is_reserved": 0, "lat": 38.836761, "rental_uris": {"android": "https://dc.lft.to/lastmile_qr_scan", "ios": "https://dc.lft.to/lastmile_qr_scan"}, "bike_id": "4691f080505441cbece5fa13eb79ee0f", "fusion_lon": 0.0, "fusion_lat": 0.0, "is_disabled": 0, "name": "4691f080505441cbece5fa13eb79ee0f", "type": "electric_scooter", "lon": -77.0059265}, {"is_reserved": 0, "lat": 38.913224666666665, "rental_uris": {"android": "https://dc.lft.to/lastmile_qr_scan", "ios": "https://dc.lft.to/lastmile_qr_scan"}, "bike_id": "d62df2c85f7f20175c77f1c44f2f4ee2", "fusion_lon": 0.0, "fusion_lat": 0.0, "is_disabled": 0, "name": "d62df2c85f7f20175c77f1c44f2f4ee2", "type": "electric_scooter", "lon": -77.03196483333333}, {"is_reserved": 0, "lat": 38.902757666666666, "rental_uris": {"android": "https://dc.lft.to/lastmile_qr_scan", "ios": "https://dc.lft.to/lastmile_qr_scan"}, "bike_id": "7981f2e8c1dc650259226e2df778aea9", "fusion_lon": 0.0, "fusion_lat": 0.0, "is_disabled": 0, "name": "7981f2e8c1dc650259226e2df778aea9", "type": "electric_scooter", "lon": -77.01929816666667}, {"is_reserved": 0, "lat": 38.9072645, "rental_uris": {"android": "https://dc.lft.to/lastmile_qr_scan", "ios": "https://dc.lft.to/lastmile_qr_scan"}, "bike_id": "13fd0ec58dc39f8aeb2c56616b2b11b8", "fusion_lon": 0.0, "fusion_lat": 0.0, "is_disabled": 0, "name": "13fd0ec58dc39f8aeb2c56616b2b11b8", "type": "electric_scooter", "lon": -76.99676}, {"is_reserved": 0, "lat": 38.915602166666666, "rental_uris": {"android": "https://dc.lft.to/lastmile_qr_scan", "ios": "https://dc.lft.to/lastmile_qr_scan"}, "bike_id": "9ca7b1a4f9884b5d1eaa1fbd5dab7dc6", "fusion_lon": 0.0, "fusion_lat": 0.0, "is_disabled": 0, "name": "9ca7b1a4f9884b5d1eaa1fbd5dab7dc6", "type": "electric_scooter", "lon": -77.02002866666666}, {"is_reserved": 0, "lat": 38.892187166666666, "rental_uris": {"android": "https://dc.lft.to/lastmile_qr_scan", "ios": "https://dc.lft.to/lastmile_qr_scan"}, "bike_id": "6403c72be3abdb44a7180c4de75e2421", "fusion_lon": 0.0, "fusion_lat": 0.0, "is_disabled": 0, "name": "6403c72be3abdb44a7180c4de75e2421", "type": "electric_scooter", "lon": -77.02628}, {"is_reserved": 0, "lat": 38.906168666666666, "rental_uris": {"android": "https://dc.lft.to/lastmile_qr_scan", "ios": "https://dc.lft.to/lastmile_qr_scan"}, "bike_id": "7b9b9e6bee3b93fed2c4308dd83f6f50", "fusion_lon": 0.0, "fusion_lat": 0.0, "is_disabled": 0, "name": "7b9b9e6bee3b93fed2c4308dd83f6f50", "type": "electric_scooter", "lon": -77.02186233333333}, {"is_reserved": 0, "lat": 38.9067435, "rental_uris": {"android": "https://dc.lft.to/lastmile_qr_scan", "ios": "https://dc.lft.to/lastmile_qr_scan"}, "bike_id": "188b10323b57dde42eb5dde84e0e96c0", "fusion_lon": 0.0, "fusion_lat": 0.0, "is_disabled": 0, "name": "188b10323b57dde42eb5dde84e0e96c0", "type": "electric_scooter", "lon": -77.03827483333333}, {"is_reserved": 0, "lat": 38.917586666666665, "rental_uris": {"android": "https://dc.lft.to/lastmile_qr_scan", "ios": "https://dc.lft.to/lastmile_qr_scan"}, "bike_id": "cca84ec3c85cfdb7e8adb76fad56a317", "fusion_lon": 0.0, "fusion_lat": 0.0, "is_disabled": 0, "name": "cca84ec3c85cfdb7e8adb76fad56a317", "type": "electric_scooter", "lon": -77.03840183333334}, {"is_reserved": 0, "lat": 38.893908833333334, "rental_uris": {"android": "https://dc.lft.to/lastmile_qr_scan", "ios": "https://dc.lft.to/lastmile_qr_scan"}, "bike_id": "dc3d351026c4344cdd242e082e07511b", "fusion_lon": 0.0, "fusion_lat": 0.0, "is_disabled": 0, "name": "dc3d351026c4344cdd242e082e07511b", "type": "electric_scooter", "lon": -76.94995166666666}, {"is_reserved": 0, "lat": 38.923605333333334, "rental_uris": {"android": "https://dc.lft.to/lastmile_qr_scan", "ios": "https://dc.lft.to/lastmile_qr_scan"}, "bike_id": "079ef547fbe9a617c8ba5f203701755e", "fusion_lon": 0.0, "fusion_lat": 0.0, "is_disabled": 0, "name": "079ef547fbe9a617c8ba5f203701755e", "type": "electric_scooter", "lon": -77.05129416666666}, {"is_reserved": 0, "lat": 38.918038333333335, "rental_uris": {"android": "https://dc.lft.to/lastmile_qr_scan", "ios": "https://dc.lft.to/lastmile_qr_scan"}, "bike_id": "1e78fa1c2a1cac42c9ed4983ab62f850", "fusion_lon": 0.0, "fusion_lat": 0.0, "is_disabled": 0, "name": "1e78fa1c2a1cac42c9ed4983ab62f850", "type": "electric_scooter", "lon": -77.04026433333334}, {"is_reserved": 0, "lat": 38.91110583333333, "rental_uris": {"android": "https://dc.lft.to/lastmile_qr_scan", "ios": "https://dc.lft.to/lastmile_qr_scan"}, "bike_id": "044649680afac27ddffb7e638c46317f", "fusion_lon": 0.0, "fusion_lat": 0.0, "is_disabled": 0, "name": "044649680afac27ddffb7e638c46317f", "type": "electric_scooter", "lon": -77.03145133333334}, {"is_reserved": 0, "lat": 38.911148, "rental_uris": {"android": "https://dc.lft.to/lastmile_qr_scan", "ios": "https://dc.lft.to/lastmile_qr_scan"}, "bike_id": "4c2c13d2cbd7a46655582a126396d4cd", "fusion_lon": 0.0, "fusion_lat": 0.0, "is_disabled": 0, "name": "4c2c13d2cbd7a46655582a126396d4cd", "type": "electric_scooter", "lon": -77.031506}, {"is_reserved": 0, "lat": 38.944140833333336, "rental_uris": {"android": "https://dc.lft.to/lastmile_qr_scan", "ios": "https://dc.lft.to/lastmile_qr_scan"}, "bike_id": "38e044404a64ee0c5f81f0f423fb8be3", "fusion_lon": 0.0, "fusion_lat": 0.0, "is_disabled": 0, "name": "38e044404a64ee0c5f81f0f423fb8be3", "type": "electric_scooter", "lon": -77.055152}, {"is_reserved": 0, "lat": 38.9220125, "rental_uris": {"android": "https://dc.lft.to/lastmile_qr_scan", "ios": "https://dc.lft.to/lastmile_qr_scan"}, "bike_id": "0ab03d8cc8a10240f20caa1920818950", "fusion_lon": 0.0, "fusion_lat": 0.0, "is_disabled": 0, "name": "0ab03d8cc8a10240f20caa1920818950", "type": "electric_scooter", "lon": -77.04250566666667}, {"is_reserved": 0, "lat": 38.87925933333333, "rental_uris": {"android": "https://dc.lft.to/lastmile_qr_scan", "ios": "https://dc.lft.to/lastmile_qr_scan"}, "bike_id": "54e250fd2fd73724c828016f6e6f1e65", "fusion_lon": 0.0, "fusion_lat": 0.0, "is_disabled": 0, "name": "54e250fd2fd73724c828016f6e6f1e65", "type": "electric_bike", "lon": -77.02367516666666}, {"is_reserved": 0, "lat": 38.909625, "rental_uris": {"android": "https://dc.lft.to/lastmile_qr_scan", "ios": "https://dc.lft.to/lastmile_qr_scan"}, "bike_id": "b6dc161b4d28f49670ca9a2dac27a8d3", "fusion_lon": 0.0, "fusion_lat": 0.0, "is_disabled": 0, "name": "b6dc161b4d28f49670ca9a2dac27a8d3", "type": "electric_scooter", "lon": -77.0382365}, {"is_reserved": 0, "lat": 38.898875833333335, "rental_uris": {"android": "https://dc.lft.to/lastmile_qr_scan", "ios": "https://dc.lft.to/lastmile_qr_scan"}, "bike_id": "e312741f9d568a2b6ccf21e5a2ccd9b4", "fusion_lon": 0.0, "fusion_lat": 0.0, "is_disabled": 0, "name": "e312741f9d568a2b6ccf21e5a2ccd9b4", "type": "electric_scooter", "lon": -77.0395965}, {"is_reserved": 0, "lat": 38.9609355, "rental_uris": {"android": "https://dc.lft.to/lastmile_qr_scan", "ios": "https://dc.lft.to/lastmile_qr_scan"}, "bike_id": "6b20eb303dc487043920567c93e6bcf7", "fusion_lon": 0.0, "fusion_lat": 0.0, "is_disabled": 0, "name": "6b20eb303dc487043920567c93e6bcf7", "type": "electric_scooter", "lon": -77.08285583333333}, {"is_reserved": 0, "lat": 38.90312466666666, "rental_uris": {"android": "https://dc.lft.to/lastmile_qr_scan", "ios": "https://dc.lft.to/lastmile_qr_scan"}, "bike_id": "3ef1e07b5e448f25f09439141c192cd4", "fusion_lon": 0.0, "fusion_lat": 0.0, "is_disabled": 0, "name": "3ef1e07b5e448f25f09439141c192cd4", "type": "electric_scooter", "lon": -77.033193}, {"is_reserved": 0, "lat": 38.90002166666667, "rental_uris": {"android": "https://dc.lft.to/lastmile_qr_scan", "ios": "https://dc.lft.to/lastmile_qr_scan"}, "bike_id": "65dd39605dfad06bda24773616589ce3", "fusion_lon": 0.0, "fusion_lat": 0.0, "is_disabled": 0, "name": "65dd39605dfad06bda24773616589ce3", "type": "electric_scooter", "lon": -76.99851166666667}, {"is_reserved": 0, "lat": 38.9018865, "rental_uris": {"android": "https://dc.lft.to/lastmile_qr_scan", "ios": "https://dc.lft.to/lastmile_qr_scan"}, "bike_id": "585390ee7775d0c0ecb22108fe5cbb75", "fusion_lon": 0.0, "fusion_lat": 0.0, "is_disabled": 0, "name": "585390ee7775d0c0ecb22108fe5cbb75", "type": "electric_scooter", "lon": -77.04886133333333}, {"is_reserved": 0, "lat": 38.92590583333333, "rental_uris": {"android": "https://dc.lft.to/lastmile_qr_scan", "ios": "https://dc.lft.to/lastmile_qr_scan"}, "bike_id": "2bb4219097e96495314fd16ee26e1947", "fusion_lon": 0.0, "fusion_lat": 0.0, "is_disabled": 0, "name": "2bb4219097e96495314fd16ee26e1947", "type": "electric_scooter", "lon": -77.02138183333334}, {"is_reserved": 0, "lat": 38.93402116666667, "rental_uris": {"android": "https://dc.lft.to/lastmile_qr_scan", "ios": "https://dc.lft.to/lastmile_qr_scan"}, "bike_id": "abe084b1026e3293d39a980f4fd5293c", "fusion_lon": 0.0, "fusion_lat": 0.0, "is_disabled": 0, "name": "abe084b1026e3293d39a980f4fd5293c", "type": "electric_scooter", "lon": -77.04128633333333}, {"is_reserved": 0, "lat": 38.93488583333333, "rental_uris": {"android": "https://dc.lft.to/lastmile_qr_scan", "ios": "https://dc.lft.to/lastmile_qr_scan"}, "bike_id": "ec220d69dde38d39469b61a21e12ec56", "fusion_lon": 0.0, "fusion_lat": 0.0, "is_disabled": 0, "name": "ec220d69dde38d39469b61a21e12ec56", "type": "electric_scooter", "lon": -77.07268566666667}, {"is_reserved": 0, "lat": 38.92256666666667, "rental_uris": {"android": "https://dc.lft.to/lastmile_qr_scan", "ios": "https://dc.lft.to/lastmile_qr_scan"}, "bike_id": "04161d6c5d0d4732a6d2133ceb9a1d07", "fusion_lon": 0.0, "fusion_lat": 0.0, "is_disabled": 0, "name": "04161d6c5d0d4732a6d2133ceb9a1d07", "type": "electric_scooter", "lon": -77.04283466666666}, {"is_reserved": 0, "lat": 38.842765166666666, "rental_uris": {"android": "https://dc.lft.to/lastmile_qr_scan", "ios": "https://dc.lft.to/lastmile_qr_scan"}, "bike_id": "ee040ba890f631cf8f5e66226e26df33", "fusion_lon": 0.0, "fusion_lat": 0.0, "is_disabled": 0, "name": "ee040ba890f631cf8f5e66226e26df33", "type": "electric_bike", "lon": -77.0451475}, {"is_reserved": 0, "lat": 38.8991675, "rental_uris": {"android": "https://dc.lft.to/lastmile_qr_scan", "ios": "https://dc.lft.to/lastmile_qr_scan"}, "bike_id": "987f32c9da8b51bf29dd335af9f8192f", "fusion_lon": 0.0, "fusion_lat": 0.0, "is_disabled": 0, "name": "987f32c9da8b51bf29dd335af9f8192f", "type": "electric_scooter", "lon": -77.041273}, {"is_reserved": 0, "lat": 38.89999866666667, "rental_uris": {"android": "https://dc.lft.to/lastmile_qr_scan", "ios": "https://dc.lft.to/lastmile_qr_scan"}, "bike_id": "06b1149d9684b283e1fb87c7375b7aab", "fusion_lon": 0.0, "fusion_lat": 0.0, "is_disabled": 0, "name": "06b1149d9684b283e1fb87c7375b7aab", "type": "electric_scooter", "lon": -77.00665716666667}, {"is_reserved": 0, "lat": 38.9300835, "rental_uris": {"android": "https://dc.lft.to/lastmile_qr_scan", "ios": "https://dc.lft.to/lastmile_qr_scan"}, "bike_id": "3567a54172cc1bf2e2e98dc81f0d9e02", "fusion_lon": 0.0, "fusion_lat": 0.0, "is_disabled": 0, "name": "3567a54172cc1bf2e2e98dc81f0d9e02", "type": "electric_bike", "lon": -77.21651283333334}, {"is_reserved": 0, "lat": 38.994589166666664, "rental_uris": {"android": "https://dc.lft.to/lastmile_qr_scan", "ios": "https://dc.lft.to/lastmile_qr_scan"}, "bike_id": "0bef3ea46cbe8d383d15d54bec7aeeb0", "fusion_lon": 0.0, "fusion_lat": 0.0, "is_disabled": 0, "name": "0bef3ea46cbe8d383d15d54bec7aeeb0", "type": "electric_bike", "lon": -77.03147583333333}, {"is_reserved": 0, "lat": 38.91565416666667, "rental_uris": {"android": "https://dc.lft.to/lastmile_qr_scan", "ios": "https://dc.lft.to/lastmile_qr_scan"}, "bike_id": "229bb85d16114186dbc727f0f5e3eb82", "fusion_lon": 0.0, "fusion_lat": 0.0, "is_disabled": 0, "name": "229bb85d16114186dbc727f0f5e3eb82", "type": "electric_scooter", "lon": -77.02186766666667}, {"is_reserved": 0, "lat": 38.9030135, "rental_uris": {"android": "https://dc.lft.to/lastmile_qr_scan", "ios": "https://dc.lft.to/lastmile_qr_scan"}, "bike_id": "7cf9fab966e9cfd56d05ae3883e95e88", "fusion_lon": 0.0, "fusion_lat": 0.0, "is_disabled": 0, "name": "7cf9fab966e9cfd56d05ae3883e95e88", "type": "electric_scooter", "lon": -77.03624716666667}, {"is_reserved": 0, "lat": 38.879253, "rental_uris": {"android": "https://dc.lft.to/lastmile_qr_scan", "ios": "https://dc.lft.to/lastmile_qr_scan"}, "bike_id": "fd9b3bb90f47a0cb03aeec7ada65a730", "fusion_lon": 0.0, "fusion_lat": 0.0, "is_disabled": 0, "name": "fd9b3bb90f47a0cb03aeec7ada65a730", "type": "electric_bike", "lon": -77.004113}, {"is_reserved": 0, "lat": 38.948201, "rental_uris": {"android": "https://dc.lft.to/lastmile_qr_scan", "ios": "https://dc.lft.to/lastmile_qr_scan"}, "bike_id": "997b532badb10a0e2eb0940a27e0ea26", "fusion_lon": 0.0, "fusion_lat": 0.0, "is_disabled": 0, "name": "997b532badb10a0e2eb0940a27e0ea26", "type": "electric_scooter", "lon": -77.0261745}, {"is_reserved": 0, "lat": 38.9196005, "rental_uris": {"android": "https://dc.lft.to/lastmile_qr_scan", "ios": "https://dc.lft.to/lastmile_qr_scan"}, "bike_id": "08219e51e45b4ac12eb6b7b43143cacf", "fusion_lon": 0.0, "fusion_lat": 0.0, "is_disabled": 0, "name": "08219e51e45b4ac12eb6b7b43143cacf", "type": "electric_bike", "lon": -76.97271233333333}, {"is_reserved": 0, "lat": 38.948508, "rental_uris": {"android": "https://dc.lft.to/lastmile_qr_scan", "ios": "https://dc.lft.to/lastmile_qr_scan"}, "bike_id": "12e53ce4b32f2e511f5793c297659a7f", "fusion_lon": 0.0, "fusion_lat": 0.0, "is_disabled": 0, "name": "12e53ce4b32f2e511f5793c297659a7f", "type": "electric_scooter", "lon": -77.019422}, {"is_reserved": 0, "lat": 38.884065, "rental_uris": {"android": "https://dc.lft.to/lastmile_qr_scan", "ios": "https://dc.lft.to/lastmile_qr_scan"}, "bike_id": "a9f989cd0907390addfe3a7249f1d1cc", "fusion_lon": 0.0, "fusion_lat": 0.0, "is_disabled": 0, "name": "a9f989cd0907390addfe3a7249f1d1cc", "type": "electric_bike", "lon": -76.96061433333334}, {"is_reserved": 0, "lat": 38.91844733333333, "rental_uris": {"android": "https://dc.lft.to/lastmile_qr_scan", "ios": "https://dc.lft.to/lastmile_qr_scan"}, "bike_id": "1c11b3412e407fa0ae8589691fc02551", "fusion_lon": 0.0, "fusion_lat": 0.0, "is_disabled": 0, "name": "1c11b3412e407fa0ae8589691fc02551", "type": "electric_scooter", "lon": -77.02440066666666}, {"is_reserved": 0, "lat": 38.93670316666667, "rental_uris": {"android": "https://dc.lft.to/lastmile_qr_scan", "ios": "https://dc.lft.to/lastmile_qr_scan"}, "bike_id": "d2094d7d6745e98881d0bc17ffb509aa", "fusion_lon": 0.0, "fusion_lat": 0.0, "is_disabled": 0, "name": "d2094d7d6745e98881d0bc17ffb509aa", "type": "electric_bike", "lon": -76.95202516666667}, {"is_reserved": 0, "lat": 38.894966333333336, "rental_uris": {"android": "https://dc.lft.to/lastmile_qr_scan", "ios": "https://dc.lft.to/lastmile_qr_scan"}, "bike_id": "018228f6e647f77705068500ea29df79", "fusion_lon": 0.0, "fusion_lat": 0.0, "is_disabled": 0, "name": "018228f6e647f77705068500ea29df79", "type": "electric_scooter", "lon": -77.0220475}, {"is_reserved": 0, "lat": 38.91480383333333, "rental_uris": {"android": "https://dc.lft.to/lastmile_qr_scan", "ios": "https://dc.lft.to/lastmile_qr_scan"}, "bike_id": "ab268153ce9510d6232d60659c248580", "fusion_lon": 0.0, "fusion_lat": 0.0, "is_disabled": 0, "name": "ab268153ce9510d6232d60659c248580", "type": "electric_bike", "lon": -77.01013966666666}, {"is_reserved": 0, "lat": 38.897656, "rental_uris": {"android": "https://dc.lft.to/lastmile_qr_scan", "ios": "https://dc.lft.to/lastmile_qr_scan"}, "bike_id": "1c873495d06c5524350daf0e4146f691", "fusion_lon": 0.0, "fusion_lat": 0.0, "is_disabled": 0, "name": "1c873495d06c5524350daf0e4146f691", "type": "electric_scooter", "lon": -77.02694466666667}, {"is_reserved": 0, "lat": 38.93056516666667, "rental_uris": {"android": "https://dc.lft.to/lastmile_qr_scan", "ios": "https://dc.lft.to/lastmile_qr_scan"}, "bike_id": "23acb0323eabb794e8518d48c9ac5021", "fusion_lon": 0.0, "fusion_lat": 0.0, "is_disabled": 0, "name": "23acb0323eabb794e8518d48c9ac5021", "type": "electric_scooter", "lon": -77.04115416666667}, {"is_reserved": 0, "lat": 38.94173683333333, "rental_uris": {"android": "https://dc.lft.to/lastmile_qr_scan", "ios": "https://dc.lft.to/lastmile_qr_scan"}, "bike_id": "11cb37a3fba2d43d03253f9df5610f2c", "fusion_lon": 0.0, "fusion_lat": 0.0, "is_disabled": 0, "name": "11cb37a3fba2d43d03253f9df5610f2c", "type": "electric_scooter", "lon": -77.04133083333333}, {"is_reserved": 0, "lat": 39.00007883333333, "rental_uris": {"android": "https://dc.lft.to/lastmile_qr_scan", "ios": "https://dc.lft.to/lastmile_qr_scan"}, "bike_id": "df9f3f1105adb86ed9b0506886320b92", "fusion_lon": 0.0, "fusion_lat": 0.0, "is_disabled": 0, "name": "df9f3f1105adb86ed9b0506886320b92", "type": "electric_bike", "lon": -76.91076933333333}, {"is_reserved": 0, "lat": 38.962796833333336, "rental_uris": {"android": "https://dc.lft.to/lastmile_qr_scan", "ios": "https://dc.lft.to/lastmile_qr_scan"}, "bike_id": "c9211cbdf5ef63b033e29b117de8160e", "fusion_lon": 0.0, "fusion_lat": 0.0, "is_disabled": 0, "name": "c9211cbdf5ef63b033e29b117de8160e", "type": "electric_bike", "lon": -76.982964}, {"is_reserved": 0, "lat": 38.900651333333336, "rental_uris": {"android": "https://dc.lft.to/lastmile_qr_scan", "ios": "https://dc.lft.to/lastmile_qr_scan"}, "bike_id": "12a95a5a09d451b11e8e8ee55ce28eca", "fusion_lon": 0.0, "fusion_lat": 0.0, "is_disabled": 0, "name": "12a95a5a09d451b11e8e8ee55ce28eca", "type": "electric_scooter", "lon": -77.00755883333333}, {"is_reserved": 0, "lat": 38.91113566666667, "rental_uris": {"android": "https://dc.lft.to/lastmile_qr_scan", "ios": "https://dc.lft.to/lastmile_qr_scan"}, "bike_id": "7997f4161de52caa388ac1495626e753", "fusion_lon": 0.0, "fusion_lat": 0.0, "is_disabled": 0, "name": "7997f4161de52caa388ac1495626e753", "type": "electric_scooter", "lon": -77.03299483333333}, {"is_reserved": 0, "lat": 38.936380166666666, "rental_uris": {"android": "https://dc.lft.to/lastmile_qr_scan", "ios": "https://dc.lft.to/lastmile_qr_scan"}, "bike_id": "607b5c3d4eca39931a24389b3f54d9d7", "fusion_lon": 0.0, "fusion_lat": 0.0, "is_disabled": 0, "name": "607b5c3d4eca39931a24389b3f54d9d7", "type": "electric_scooter", "lon": -77.024837}, {"is_reserved": 0, "lat": 38.91805133333333, "rental_uris": {"android": "https://dc.lft.to/lastmile_qr_scan", "ios": "https://dc.lft.to/lastmile_qr_scan"}, "bike_id": "0d6199ecf38dc2d4936155cb001bb888", "fusion_lon": 0.0, "fusion_lat": 0.0, "is_disabled": 0, "name": "0d6199ecf38dc2d4936155cb001bb888", "type": "electric_scooter", "lon": -77.02492033333333}, {"is_reserved": 0, "lat": 38.9252615, "rental_uris": {"android": "https://dc.lft.to/lastmile_qr_scan", "ios": "https://dc.lft.to/lastmile_qr_scan"}, "bike_id": "ff9954f7850a80c27a000c9f5104a026", "fusion_lon": 0.0, "fusion_lat": 0.0, "is_disabled": 0, "name": "ff9954f7850a80c27a000c9f5104a026", "type": "electric_scooter", "lon": -77.04432783333333}, {"is_reserved": 0, "lat": 38.916766, "rental_uris": {"android": "https://dc.lft.to/lastmile_qr_scan", "ios": "https://dc.lft.to/lastmile_qr_scan"}, "bike_id": "74f648cea99fd907a71db5458a683bd4", "fusion_lon": 0.0, "fusion_lat": 0.0, "is_disabled": 0, "name": "74f648cea99fd907a71db5458a683bd4", "type": "electric_scooter", "lon": -77.03688016666666}, {"is_reserved": 0, "lat": 38.877132333333336, "rental_uris": {"android": "https://dc.lft.to/lastmile_qr_scan", "ios": "https://dc.lft.to/lastmile_qr_scan"}, "bike_id": "b7f570f9e8edfefd933b22f17323b795", "fusion_lon": 0.0, "fusion_lat": 0.0, "is_disabled": 0, "name": "b7f570f9e8edfefd933b22f17323b795", "type": "electric_scooter", "lon": -77.01762}, {"is_reserved": 0, "lat": 38.91815283333333, "rental_uris": {"android": "https://dc.lft.to/lastmile_qr_scan", "ios": "https://dc.lft.to/lastmile_qr_scan"}, "bike_id": "190c79a4331a2959e6b519ccf54102a3", "fusion_lon": 0.0, "fusion_lat": 0.0, "is_disabled": 0, "name": "190c79a4331a2959e6b519ccf54102a3", "type": "electric_scooter", "lon": -77.03172766666667}, {"is_reserved": 0, "lat": 38.916414833333334, "rental_uris": {"android": "https://dc.lft.to/lastmile_qr_scan", "ios": "https://dc.lft.to/lastmile_qr_scan"}, "bike_id": "82d2aae8521eaefadf565bcd08a2772e", "fusion_lon": 0.0, "fusion_lat": 0.0, "is_disabled": 0, "name": "82d2aae8521eaefadf565bcd08a2772e", "type": "electric_scooter", "lon": -77.04776583333333}, {"is_reserved": 0, "lat": 38.93246283333333, "rental_uris": {"android": "https://dc.lft.to/lastmile_qr_scan", "ios": "https://dc.lft.to/lastmile_qr_scan"}, "bike_id": "a6e146d5ead3ac9c55a3b92e2b4e3eba", "fusion_lon": 0.0, "fusion_lat": 0.0, "is_disabled": 0, "name": "a6e146d5ead3ac9c55a3b92e2b4e3eba", "type": "electric_scooter", "lon": -77.0326995}, {"is_reserved": 0, "lat": 38.89350483333333, "rental_uris": {"android": "https://dc.lft.to/lastmile_qr_scan", "ios": "https://dc.lft.to/lastmile_qr_scan"}, "bike_id": "e42791001006d25601ce9f909638f52e", "fusion_lon": 0.0, "fusion_lat": 0.0, "is_disabled": 0, "name": "e42791001006d25601ce9f909638f52e", "type": "electric_scooter", "lon": -77.04134733333333}, {"is_reserved": 0, "lat": 38.91792783333333, "rental_uris": {"android": "https://dc.lft.to/lastmile_qr_scan", "ios": "https://dc.lft.to/lastmile_qr_scan"}, "bike_id": "d4a86e279d86ce79aeab48056bd57d93", "fusion_lon": 0.0, "fusion_lat": 0.0, "is_disabled": 0, "name": "d4a86e279d86ce79aeab48056bd57d93", "type": "electric_scooter", "lon": -77.04035716666667}, {"is_reserved": 0, "lat": 38.93082783333333, "rental_uris": {"android": "https://dc.lft.to/lastmile_qr_scan", "ios": "https://dc.lft.to/lastmile_qr_scan"}, "bike_id": "ea6a571b1dcd1559ea2a99b60c82de81", "fusion_lon": 0.0, "fusion_lat": 0.0, "is_disabled": 0, "name": "ea6a571b1dcd1559ea2a99b60c82de81", "type": "electric_scooter", "lon": -77.037444}, {"is_reserved": 0, "lat": 38.93713183333333, "rental_uris": {"android": "https://dc.lft.to/lastmile_qr_scan", "ios": "https://dc.lft.to/lastmile_qr_scan"}, "bike_id": "b6fa876fbc68e5831ce0bd9d9afe9053", "fusion_lon": 0.0, "fusion_lat": 0.0, "is_disabled": 0, "name": "b6fa876fbc68e5831ce0bd9d9afe9053", "type": "electric_scooter", "lon": -77.0363955}, {"is_reserved": 0, "lat": 38.90037783333333, "rental_uris": {"android": "https://dc.lft.to/lastmile_qr_scan", "ios": "https://dc.lft.to/lastmile_qr_scan"}, "bike_id": "c1cf83c35e49397ace767733e9d5fe83", "fusion_lon": 0.0, "fusion_lat": 0.0, "is_disabled": 0, "name": "c1cf83c35e49397ace767733e9d5fe83", "type": "electric_scooter", "lon": -76.99379}, {"is_reserved": 0, "lat": 38.914171, "rental_uris": {"android": "https://dc.lft.to/lastmile_qr_scan", "ios": "https://dc.lft.to/lastmile_qr_scan"}, "bike_id": "9f8ca84bae1c6c04aaceed2881de23df", "fusion_lon": 0.0, "fusion_lat": 0.0, "is_disabled": 0, "name": "9f8ca84bae1c6c04aaceed2881de23df", "type": "electric_scooter", "lon": -77.03177033333333}, {"is_reserved": 0, "lat": 38.917730166666665, "rental_uris": {"android": "https://dc.lft.to/lastmile_qr_scan", "ios": "https://dc.lft.to/lastmile_qr_scan"}, "bike_id": "75a599d2de8d27e155495a2adae3ae33", "fusion_lon": 0.0, "fusion_lat": 0.0, "is_disabled": 0, "name": "75a599d2de8d27e155495a2adae3ae33", "type": "electric_scooter", "lon": -77.023047}, {"is_reserved": 0, "lat": 38.93509483333333, "rental_uris": {"android": "https://dc.lft.to/lastmile_qr_scan", "ios": "https://dc.lft.to/lastmile_qr_scan"}, "bike_id": "285a0e03c1d313d9b9a0e30816cacc29", "fusion_lon": 0.0, "fusion_lat": 0.0, "is_disabled": 0, "name": "285a0e03c1d313d9b9a0e30816cacc29", "type": "electric_scooter", "lon": -77.03269766666666}, {"is_reserved": 0, "lat": 38.89273033333333, "rental_uris": {"android": "https://dc.lft.to/lastmile_qr_scan", "ios": "https://dc.lft.to/lastmile_qr_scan"}, "bike_id": "f1191f4570579120a883729ed458ee88", "fusion_lon": 0.0, "fusion_lat": 0.0, "is_disabled": 0, "name": "f1191f4570579120a883729ed458ee88", "type": "electric_scooter", "lon": -76.93139066666667}, {"is_reserved": 0, "lat": 38.90408266666667, "rental_uris": {"android": "https://dc.lft.to/lastmile_qr_scan", "ios": "https://dc.lft.to/lastmile_qr_scan"}, "bike_id": "4db2d6a947dd0f7a1e06cce3196f34f6", "fusion_lon": 0.0, "fusion_lat": 0.0, "is_disabled": 0, "name": "4db2d6a947dd0f7a1e06cce3196f34f6", "type": "electric_scooter", "lon": -77.02586233333334}, {"is_reserved": 0, "lat": 38.92212083333333, "rental_uris": {"android": "https://dc.lft.to/lastmile_qr_scan", "ios": "https://dc.lft.to/lastmile_qr_scan"}, "bike_id": "c55da90ccca417d67fefacb163f09512", "fusion_lon": 0.0, "fusion_lat": 0.0, "is_disabled": 0, "name": "c55da90ccca417d67fefacb163f09512", "type": "electric_scooter", "lon": -77.04238133333334}, {"is_reserved": 0, "lat": 38.935197333333335, "rental_uris": {"android": "https://dc.lft.to/lastmile_qr_scan", "ios": "https://dc.lft.to/lastmile_qr_scan"}, "bike_id": "d576a5b869c6de750914339f941b464e", "fusion_lon": 0.0, "fusion_lat": 0.0, "is_disabled": 0, "name": "d576a5b869c6de750914339f941b464e", "type": "electric_scooter", "lon": -77.03261733333333}, {"is_reserved": 0, "lat": 38.876261, "rental_uris": {"android": "https://dc.lft.to/lastmile_qr_scan", "ios": "https://dc.lft.to/lastmile_qr_scan"}, "bike_id": "18e2dabe100469c86424c586ca8bcff0", "fusion_lon": 0.0, "fusion_lat": 0.0, "is_disabled": 0, "name": "18e2dabe100469c86424c586ca8bcff0", "type": "electric_scooter", "lon": -76.96525516666667}, {"is_reserved": 0, "lat": 38.911849, "rental_uris": {"android": "https://dc.lft.to/lastmile_qr_scan", "ios": "https://dc.lft.to/lastmile_qr_scan"}, "bike_id": "979b3eb50c75978bfbd9b2dd352d93ef", "fusion_lon": 0.0, "fusion_lat": 0.0, "is_disabled": 0, "name": "979b3eb50c75978bfbd9b2dd352d93ef", "type": "electric_scooter", "lon": -77.00550516666667}, {"is_reserved": 0, "lat": 38.969363, "rental_uris": {"android": "https://dc.lft.to/lastmile_qr_scan", "ios": "https://dc.lft.to/lastmile_qr_scan"}, "bike_id": "17900b9c0800c6390a78471423f6db89", "fusion_lon": 0.0, "fusion_lat": 0.0, "is_disabled": 0, "name": "17900b9c0800c6390a78471423f6db89", "type": "electric_bike", "lon": -77.0334125}, {"is_reserved": 0, "lat": 38.886706, "rental_uris": {"android": "https://dc.lft.to/lastmile_qr_scan", "ios": "https://dc.lft.to/lastmile_qr_scan"}, "bike_id": "9c4d91dee4d95ee71b7e761de91be669", "fusion_lon": 0.0, "fusion_lat": 0.0, "is_disabled": 0, "name": "9c4d91dee4d95ee71b7e761de91be669", "type": "electric_scooter", "lon": -77.01331116666667}, {"is_reserved": 0, "lat": 38.902571, "rental_uris": {"android": "https://dc.lft.to/lastmile_qr_scan", "ios": "https://dc.lft.to/lastmile_qr_scan"}, "bike_id": "25292875c31342e1aae59e356fa376b6", "fusion_lon": 0.0, "fusion_lat": 0.0, "is_disabled": 0, "name": "25292875c31342e1aae59e356fa376b6", "type": "electric_scooter", "lon": -77.04364866666667}, {"is_reserved": 0, "lat": 38.92382716666667, "rental_uris": {"android": "https://dc.lft.to/lastmile_qr_scan", "ios": "https://dc.lft.to/lastmile_qr_scan"}, "bike_id": "532f0e274ed887b5ce273be203b38f91", "fusion_lon": 0.0, "fusion_lat": 0.0, "is_disabled": 0, "name": "532f0e274ed887b5ce273be203b38f91", "type": "electric_scooter", "lon": -77.05754783333333}, {"is_reserved": 0, "lat": 38.871809666666664, "rental_uris": {"android": "https://dc.lft.to/lastmile_qr_scan", "ios": "https://dc.lft.to/lastmile_qr_scan"}, "bike_id": "a6aeef5e225e2551bb3452f0cd5f2f11", "fusion_lon": 0.0, "fusion_lat": 0.0, "is_disabled": 0, "name": "a6aeef5e225e2551bb3452f0cd5f2f11", "type": "electric_scooter", "lon": -77.00609}, {"is_reserved": 0, "lat": 38.924882833333335, "rental_uris": {"android": "https://dc.lft.to/lastmile_qr_scan", "ios": "https://dc.lft.to/lastmile_qr_scan"}, "bike_id": "af0a57079c03f24d016363ee7a43df2e", "fusion_lon": 0.0, "fusion_lat": 0.0, "is_disabled": 0, "name": "af0a57079c03f24d016363ee7a43df2e", "type": "electric_scooter", "lon": -77.0317565}, {"is_reserved": 0, "lat": 38.90625566666667, "rental_uris": {"android": "https://dc.lft.to/lastmile_qr_scan", "ios": "https://dc.lft.to/lastmile_qr_scan"}, "bike_id": "56cb0b42a8a4a295566d6851b5d924d1", "fusion_lon": 0.0, "fusion_lat": 0.0, "is_disabled": 0, "name": "56cb0b42a8a4a295566d6851b5d924d1", "type": "electric_scooter", "lon": -77.005811}, {"is_reserved": 0, "lat": 38.892188166666664, "rental_uris": {"android": "https://dc.lft.to/lastmile_qr_scan", "ios": "https://dc.lft.to/lastmile_qr_scan"}, "bike_id": "213d2cb4f8e47b855c82411a68950fd7", "fusion_lon": 0.0, "fusion_lat": 0.0, "is_disabled": 0, "name": "213d2cb4f8e47b855c82411a68950fd7", "type": "electric_bike", "lon": -77.10777283333333}, {"is_reserved": 0, "lat": 38.889989, "rental_uris": {"android": "https://dc.lft.to/lastmile_qr_scan", "ios": "https://dc.lft.to/lastmile_qr_scan"}, "bike_id": "4f9e528ed58878fcf93535deec71c4a9", "fusion_lon": 0.0, "fusion_lat": 0.0, "is_disabled": 0, "name": "4f9e528ed58878fcf93535deec71c4a9", "type": "electric_scooter", "lon": -77.0005165}, {"is_reserved": 0, "lat": 38.9241495, "rental_uris": {"android": "https://dc.lft.to/lastmile_qr_scan", "ios": "https://dc.lft.to/lastmile_qr_scan"}, "bike_id": "d12ea95c41199cc12cf1bbe0c37f3cf2", "fusion_lon": 0.0, "fusion_lat": 0.0, "is_disabled": 0, "name": "d12ea95c41199cc12cf1bbe0c37f3cf2", "type": "electric_scooter", "lon": -77.02011783333333}, {"is_reserved": 0, "lat": 38.962179666666664, "rental_uris": {"android": "https://dc.lft.to/lastmile_qr_scan", "ios": "https://dc.lft.to/lastmile_qr_scan"}, "bike_id": "c897c7adb46d4bd5174bf3a2430aead4", "fusion_lon": 0.0, "fusion_lat": 0.0, "is_disabled": 0, "name": "c897c7adb46d4bd5174bf3a2430aead4", "type": "electric_bike", "lon": -77.02623}, {"is_reserved": 0, "lat": 38.90217633333334, "rental_uris": {"android": "https://dc.lft.to/lastmile_qr_scan", "ios": "https://dc.lft.to/lastmile_qr_scan"}, "bike_id": "c9212afa2fd48d8d05928dfe01059177", "fusion_lon": 0.0, "fusion_lat": 0.0, "is_disabled": 0, "name": "c9212afa2fd48d8d05928dfe01059177", "type": "electric_scooter", "lon": -77.00566816666667}, {"is_reserved": 0, "lat": 38.913980333333335, "rental_uris": {"android": "https://dc.lft.to/lastmile_qr_scan", "ios": "https://dc.lft.to/lastmile_qr_scan"}, "bike_id": "dc24f92567e1ae2ba0f74aa116fcd7cf", "fusion_lon": 0.0, "fusion_lat": 0.0, "is_disabled": 0, "name": "dc24f92567e1ae2ba0f74aa116fcd7cf", "type": "electric_scooter", "lon": -77.014087}, {"is_reserved": 0, "lat": 38.923129333333335, "rental_uris": {"android": "https://dc.lft.to/lastmile_qr_scan", "ios": "https://dc.lft.to/lastmile_qr_scan"}, "bike_id": "ee6b58114c65f116e945ea21bdbae2e6", "fusion_lon": 0.0, "fusion_lat": 0.0, "is_disabled": 0, "name": "ee6b58114c65f116e945ea21bdbae2e6", "type": "electric_scooter", "lon": -77.03657616666666}, {"is_reserved": 0, "lat": 38.9318715, "rental_uris": {"android": "https://dc.lft.to/lastmile_qr_scan", "ios": "https://dc.lft.to/lastmile_qr_scan"}, "bike_id": "b2e79406fec4292aed19f60c612d2c7d", "fusion_lon": 0.0, "fusion_lat": 0.0, "is_disabled": 0, "name": "b2e79406fec4292aed19f60c612d2c7d", "type": "electric_scooter", "lon": -77.028337}, {"is_reserved": 0, "lat": 38.922828333333335, "rental_uris": {"android": "https://dc.lft.to/lastmile_qr_scan", "ios": "https://dc.lft.to/lastmile_qr_scan"}, "bike_id": "d0cb6f57121be79fce63f163788c15b0", "fusion_lon": 0.0, "fusion_lat": 0.0, "is_disabled": 0, "name": "d0cb6f57121be79fce63f163788c15b0", "type": "electric_scooter", "lon": -77.03659916666666}, {"is_reserved": 0, "lat": 38.918166, "rental_uris": {"android": "https://dc.lft.to/lastmile_qr_scan", "ios": "https://dc.lft.to/lastmile_qr_scan"}, "bike_id": "990d10f01c82cbed6909b0eb763b63fa", "fusion_lon": 0.0, "fusion_lat": 0.0, "is_disabled": 0, "name": "990d10f01c82cbed6909b0eb763b63fa", "type": "electric_scooter", "lon": -77.041707}, {"is_reserved": 0, "lat": 38.91896233333333, "rental_uris": {"android": "https://dc.lft.to/lastmile_qr_scan", "ios": "https://dc.lft.to/lastmile_qr_scan"}, "bike_id": "7f09fe2fc3e1908593eada62d1da1cae", "fusion_lon": 0.0, "fusion_lat": 0.0, "is_disabled": 0, "name": "7f09fe2fc3e1908593eada62d1da1cae", "type": "electric_scooter", "lon": -77.03132166666667}, {"is_reserved": 0, "lat": 38.892184666666665, "rental_uris": {"android": "https://dc.lft.to/lastmile_qr_scan", "ios": "https://dc.lft.to/lastmile_qr_scan"}, "bike_id": "c0ed57780646a6d7026eca928ab804bf", "fusion_lon": 0.0, "fusion_lat": 0.0, "is_disabled": 0, "name": "c0ed57780646a6d7026eca928ab804bf", "type": "electric_scooter", "lon": -77.04327833333333}, {"is_reserved": 0, "lat": 38.92027733333333, "rental_uris": {"android": "https://dc.lft.to/lastmile_qr_scan", "ios": "https://dc.lft.to/lastmile_qr_scan"}, "bike_id": "6e2acf2af265cd1ab00375f36e6bcac1", "fusion_lon": 0.0, "fusion_lat": 0.0, "is_disabled": 0, "name": "6e2acf2af265cd1ab00375f36e6bcac1", "type": "electric_scooter", "lon": -77.0112105}, {"is_reserved": 0, "lat": 38.918020166666665, "rental_uris": {"android": "https://dc.lft.to/lastmile_qr_scan", "ios": "https://dc.lft.to/lastmile_qr_scan"}, "bike_id": "37c01736b83e8948d671c99790feb810", "fusion_lon": 0.0, "fusion_lat": 0.0, "is_disabled": 0, "name": "37c01736b83e8948d671c99790feb810", "type": "electric_bike", "lon": -77.223396}, {"is_reserved": 0, "lat": 38.884139, "rental_uris": {"android": "https://dc.lft.to/lastmile_qr_scan", "ios": "https://dc.lft.to/lastmile_qr_scan"}, "bike_id": "88cbf8b940eb97ba1e712835f2d667b1", "fusion_lon": 0.0, "fusion_lat": 0.0, "is_disabled": 0, "name": "88cbf8b940eb97ba1e712835f2d667b1", "type": "electric_scooter", "lon": -76.9420765}, {"is_reserved": 0, "lat": 38.9182015, "rental_uris": {"android": "https://dc.lft.to/lastmile_qr_scan", "ios": "https://dc.lft.to/lastmile_qr_scan"}, "bike_id": "62b7bbe031be53fcb778650fa9d485a4", "fusion_lon": 0.0, "fusion_lat": 0.0, "is_disabled": 0, "name": "62b7bbe031be53fcb778650fa9d485a4", "type": "electric_scooter", "lon": -77.03528983333334}, {"is_reserved": 0, "lat": 38.91121416666667, "rental_uris": {"android": "https://dc.lft.to/lastmile_qr_scan", "ios": "https://dc.lft.to/lastmile_qr_scan"}, "bike_id": "14ef5e63ced92c816b412fe6a973d0c3", "fusion_lon": 0.0, "fusion_lat": 0.0, "is_disabled": 0, "name": "14ef5e63ced92c816b412fe6a973d0c3", "type": "electric_scooter", "lon": -77.02692233333333}, {"is_reserved": 0, "lat": 38.90228033333333, "rental_uris": {"android": "https://dc.lft.to/lastmile_qr_scan", "ios": "https://dc.lft.to/lastmile_qr_scan"}, "bike_id": "e68476b6b129bf03a7982b2037ff117a", "fusion_lon": 0.0, "fusion_lat": 0.0, "is_disabled": 0, "name": "e68476b6b129bf03a7982b2037ff117a", "type": "electric_scooter", "lon": -77.06014183333333}, {"is_reserved": 0, "lat": 38.87648216666667, "rental_uris": {"android": "https://dc.lft.to/lastmile_qr_scan", "ios": "https://dc.lft.to/lastmile_qr_scan"}, "bike_id": "0a645ddda8aa4ddf9882ac216935ca6d", "fusion_lon": 0.0, "fusion_lat": 0.0, "is_disabled": 0, "name": "0a645ddda8aa4ddf9882ac216935ca6d", "type": "electric_scooter", "lon": -77.004216}, {"is_reserved": 0, "lat": 38.918273, "rental_uris": {"android": "https://dc.lft.to/lastmile_qr_scan", "ios": "https://dc.lft.to/lastmile_qr_scan"}, "bike_id": "75fbe123cf9516c28bb1c42ce870139b", "fusion_lon": 0.0, "fusion_lat": 0.0, "is_disabled": 0, "name": "75fbe123cf9516c28bb1c42ce870139b", "type": "electric_scooter", "lon": -77.03197916666667}, {"is_reserved": 0, "lat": 38.907349833333335, "rental_uris": {"android": "https://dc.lft.to/lastmile_qr_scan", "ios": "https://dc.lft.to/lastmile_qr_scan"}, "bike_id": "666a1696f392c85a64d3ba8887f8478c", "fusion_lon": 0.0, "fusion_lat": 0.0, "is_disabled": 0, "name": "666a1696f392c85a64d3ba8887f8478c", "type": "electric_scooter", "lon": -77.027133}, {"is_reserved": 0, "lat": 38.8922315, "rental_uris": {"android": "https://dc.lft.to/lastmile_qr_scan", "ios": "https://dc.lft.to/lastmile_qr_scan"}, "bike_id": "994d0d0366358d65d040f2e81ae03838", "fusion_lon": 0.0, "fusion_lat": 0.0, "is_disabled": 0, "name": "994d0d0366358d65d040f2e81ae03838", "type": "electric_scooter", "lon": -77.045041}, {"is_reserved": 0, "lat": 38.90783116666667, "rental_uris": {"android": "https://dc.lft.to/lastmile_qr_scan", "ios": "https://dc.lft.to/lastmile_qr_scan"}, "bike_id": "650a5d7192d14add8fca95d87c474f0d", "fusion_lon": 0.0, "fusion_lat": 0.0, "is_disabled": 0, "name": "650a5d7192d14add8fca95d87c474f0d", "type": "electric_scooter", "lon": -77.07253133333333}, {"is_reserved": 0, "lat": 38.84073633333333, "rental_uris": {"android": "https://dc.lft.to/lastmile_qr_scan", "ios": "https://dc.lft.to/lastmile_qr_scan"}, "bike_id": "f0ce934394efedbfc3587f2f3f11f13b", "fusion_lon": 0.0, "fusion_lat": 0.0, "is_disabled": 0, "name": "f0ce934394efedbfc3587f2f3f11f13b", "type": "electric_scooter", "lon": -76.98922383333333}, {"is_reserved": 0, "lat": 38.897184833333334, "rental_uris": {"android": "https://dc.lft.to/lastmile_qr_scan", "ios": "https://dc.lft.to/lastmile_qr_scan"}, "bike_id": "5c25b523dbeb0474bc6e5f5502c199f6", "fusion_lon": 0.0, "fusion_lat": 0.0, "is_disabled": 0, "name": "5c25b523dbeb0474bc6e5f5502c199f6", "type": "electric_scooter", "lon": -77.02758266666666}, {"is_reserved": 0, "lat": 38.9108415, "rental_uris": {"android": "https://dc.lft.to/lastmile_qr_scan", "ios": "https://dc.lft.to/lastmile_qr_scan"}, "bike_id": "96ce59d42208ee032030a7c003faa7e1", "fusion_lon": 0.0, "fusion_lat": 0.0, "is_disabled": 0, "name": "96ce59d42208ee032030a7c003faa7e1", "type": "electric_scooter", "lon": -77.00389883333334}, {"is_reserved": 0, "lat": 38.9288325, "rental_uris": {"android": "https://dc.lft.to/lastmile_qr_scan", "ios": "https://dc.lft.to/lastmile_qr_scan"}, "bike_id": "e4fdf4b81aba3026ebbfe9c39953bd29", "fusion_lon": 0.0, "fusion_lat": 0.0, "is_disabled": 0, "name": "e4fdf4b81aba3026ebbfe9c39953bd29", "type": "electric_scooter", "lon": -77.027074}, {"is_reserved": 0, "lat": 38.91265683333334, "rental_uris": {"android": "https://dc.lft.to/lastmile_qr_scan", "ios": "https://dc.lft.to/lastmile_qr_scan"}, "bike_id": "8ce6fdf54a73e76e7a5d1bea9083ce2f", "fusion_lon": 0.0, "fusion_lat": 0.0, "is_disabled": 0, "name": "8ce6fdf54a73e76e7a5d1bea9083ce2f", "type": "electric_scooter", "lon": -77.02220083333333}, {"is_reserved": 0, "lat": 38.9374035, "rental_uris": {"android": "https://dc.lft.to/lastmile_qr_scan", "ios": "https://dc.lft.to/lastmile_qr_scan"}, "bike_id": "82996be1bc424804f07ba1bb220777a0", "fusion_lon": 0.0, "fusion_lat": 0.0, "is_disabled": 0, "name": "82996be1bc424804f07ba1bb220777a0", "type": "electric_scooter", "lon": -77.03276583333333}, {"is_reserved": 0, "lat": 38.92216616666666, "rental_uris": {"android": "https://dc.lft.to/lastmile_qr_scan", "ios": "https://dc.lft.to/lastmile_qr_scan"}, "bike_id": "d0a22d242e5e2869aa9b2c977b027264", "fusion_lon": 0.0, "fusion_lat": 0.0, "is_disabled": 0, "name": "d0a22d242e5e2869aa9b2c977b027264", "type": "electric_scooter", "lon": -77.0424825}, {"is_reserved": 0, "lat": 38.9317515, "rental_uris": {"android": "https://dc.lft.to/lastmile_qr_scan", "ios": "https://dc.lft.to/lastmile_qr_scan"}, "bike_id": "40b8f141fdf154b38cc1da4a0253c395", "fusion_lon": 0.0, "fusion_lat": 0.0, "is_disabled": 0, "name": "40b8f141fdf154b38cc1da4a0253c395", "type": "electric_scooter", "lon": -77.0705485}, {"is_reserved": 0, "lat": 38.941465666666666, "rental_uris": {"android": "https://dc.lft.to/lastmile_qr_scan", "ios": "https://dc.lft.to/lastmile_qr_scan"}, "bike_id": "9f3a0ccdd0ed2a7606857ed2c777fa78", "fusion_lon": 0.0, "fusion_lat": 0.0, "is_disabled": 0, "name": "9f3a0ccdd0ed2a7606857ed2c777fa78", "type": "electric_bike", "lon": -77.00193183333333}, {"is_reserved": 0, "lat": 38.918031166666665, "rental_uris": {"android": "https://dc.lft.to/lastmile_qr_scan", "ios": "https://dc.lft.to/lastmile_qr_scan"}, "bike_id": "634b5d786b0094e24f4db0b2bd6f3655", "fusion_lon": 0.0, "fusion_lat": 0.0, "is_disabled": 0, "name": "634b5d786b0094e24f4db0b2bd6f3655", "type": "electric_scooter", "lon": -77.02489516666667}, {"is_reserved": 0, "lat": 38.92046066666666, "rental_uris": {"android": "https://dc.lft.to/lastmile_qr_scan", "ios": "https://dc.lft.to/lastmile_qr_scan"}, "bike_id": "bdd3ad31254e8f39a45c3900cdbc9db2", "fusion_lon": 0.0, "fusion_lat": 0.0, "is_disabled": 0, "name": "bdd3ad31254e8f39a45c3900cdbc9db2", "type": "electric_scooter", "lon": -77.03405466666666}, {"is_reserved": 0, "lat": 38.911158666666665, "rental_uris": {"android": "https://dc.lft.to/lastmile_qr_scan", "ios": "https://dc.lft.to/lastmile_qr_scan"}, "bike_id": "d3de3fb89440a5e8a6ed437e976f26c3", "fusion_lon": 0.0, "fusion_lat": 0.0, "is_disabled": 0, "name": "d3de3fb89440a5e8a6ed437e976f26c3", "type": "electric_scooter", "lon": -77.04238533333333}, {"is_reserved": 0, "lat": 38.88811483333333, "rental_uris": {"android": "https://dc.lft.to/lastmile_qr_scan", "ios": "https://dc.lft.to/lastmile_qr_scan"}, "bike_id": "4a705014f16c68349b0ff84d6285533a", "fusion_lon": 0.0, "fusion_lat": 0.0, "is_disabled": 0, "name": "4a705014f16c68349b0ff84d6285533a", "type": "electric_scooter", "lon": -76.93349283333333}, {"is_reserved": 0, "lat": 38.90719083333333, "rental_uris": {"android": "https://dc.lft.to/lastmile_qr_scan", "ios": "https://dc.lft.to/lastmile_qr_scan"}, "bike_id": "e3cd5966ab36f95153d0e13dafd34479", "fusion_lon": 0.0, "fusion_lat": 0.0, "is_disabled": 0, "name": "e3cd5966ab36f95153d0e13dafd34479", "type": "electric_scooter", "lon": -77.025418}, {"is_reserved": 0, "lat": 38.8397965, "rental_uris": {"android": "https://dc.lft.to/lastmile_qr_scan", "ios": "https://dc.lft.to/lastmile_qr_scan"}, "bike_id": "6d8e753a8704c6cf6c95c11851eac5fe", "fusion_lon": 0.0, "fusion_lat": 0.0, "is_disabled": 0, "name": "6d8e753a8704c6cf6c95c11851eac5fe", "type": "electric_bike", "lon": -77.00570333333333}, {"is_reserved": 0, "lat": 38.86654466666667, "rental_uris": {"android": "https://dc.lft.to/lastmile_qr_scan", "ios": "https://dc.lft.to/lastmile_qr_scan"}, "bike_id": "65d2e06d30c2b0f3d51775fd59c28944", "fusion_lon": 0.0, "fusion_lat": 0.0, "is_disabled": 0, "name": "65d2e06d30c2b0f3d51775fd59c28944", "type": "electric_bike", "lon": -76.98993233333333}, {"is_reserved": 0, "lat": 38.907310833333334, "rental_uris": {"android": "https://dc.lft.to/lastmile_qr_scan", "ios": "https://dc.lft.to/lastmile_qr_scan"}, "bike_id": "45643bf4c12cc7f04d6e38c1a0246963", "fusion_lon": 0.0, "fusion_lat": 0.0, "is_disabled": 0, "name": "45643bf4c12cc7f04d6e38c1a0246963", "type": "electric_scooter", "lon": -77.0276355}, {"is_reserved": 0, "lat": 38.91805466666667, "rental_uris": {"android": "https://dc.lft.to/lastmile_qr_scan", "ios": "https://dc.lft.to/lastmile_qr_scan"}, "bike_id": "28dcefcbaa0f690df2315267e9bec919", "fusion_lon": 0.0, "fusion_lat": 0.0, "is_disabled": 0, "name": "28dcefcbaa0f690df2315267e9bec919", "type": "electric_scooter", "lon": -77.03669866666667}, {"is_reserved": 0, "lat": 38.92465983333334, "rental_uris": {"android": "https://dc.lft.to/lastmile_qr_scan", "ios": "https://dc.lft.to/lastmile_qr_scan"}, "bike_id": "5660bdaf12103190e406d05a88566eab", "fusion_lon": 0.0, "fusion_lat": 0.0, "is_disabled": 0, "name": "5660bdaf12103190e406d05a88566eab", "type": "electric_scooter", "lon": -77.05230583333334}, {"is_reserved": 0, "lat": 38.91744, "rental_uris": {"android": "https://dc.lft.to/lastmile_qr_scan", "ios": "https://dc.lft.to/lastmile_qr_scan"}, "bike_id": "f7973104f46d5778668f0728ecdfd31e", "fusion_lon": 0.0, "fusion_lat": 0.0, "is_disabled": 0, "name": "f7973104f46d5778668f0728ecdfd31e", "type": "electric_scooter", "lon": -77.02179166666667}, {"is_reserved": 0, "lat": 38.903355166666664, "rental_uris": {"android": "https://dc.lft.to/lastmile_qr_scan", "ios": "https://dc.lft.to/lastmile_qr_scan"}, "bike_id": "faa39015c1426330b3cf8108724b4028", "fusion_lon": 0.0, "fusion_lat": 0.0, "is_disabled": 0, "name": "faa39015c1426330b3cf8108724b4028", "type": "electric_scooter", "lon": -77.0630405}, {"is_reserved": 0, "lat": 38.9335795, "rental_uris": {"android": "https://dc.lft.to/lastmile_qr_scan", "ios": "https://dc.lft.to/lastmile_qr_scan"}, "bike_id": "bf210b89d8c71944d531c3f21766144e", "fusion_lon": 0.0, "fusion_lat": 0.0, "is_disabled": 0, "name": "bf210b89d8c71944d531c3f21766144e", "type": "electric_scooter", "lon": -77.057395}, {"is_reserved": 0, "lat": 38.905411666666666, "rental_uris": {"android": "https://dc.lft.to/lastmile_qr_scan", "ios": "https://dc.lft.to/lastmile_qr_scan"}, "bike_id": "69d6f61a7f5703ef0edc7100cb3cade0", "fusion_lon": 0.0, "fusion_lat": 0.0, "is_disabled": 0, "name": "69d6f61a7f5703ef0edc7100cb3cade0", "type": "electric_scooter", "lon": -77.04969366666667}, {"is_reserved": 0, "lat": 38.813434, "rental_uris": {"android": "https://dc.lft.to/lastmile_qr_scan", "ios": "https://dc.lft.to/lastmile_qr_scan"}, "bike_id": "459f1ea4fc99a239c361ab126fa1a079", "fusion_lon": 0.0, "fusion_lat": 0.0, "is_disabled": 0, "name": "459f1ea4fc99a239c361ab126fa1a079", "type": "electric_bike", "lon": -77.0492585}, {"is_reserved": 0, "lat": 38.9111355, "rental_uris": {"android": "https://dc.lft.to/lastmile_qr_scan", "ios": "https://dc.lft.to/lastmile_qr_scan"}, "bike_id": "46cedcf92957331dcb3becfb0087314f", "fusion_lon": 0.0, "fusion_lat": 0.0, "is_disabled": 0, "name": "46cedcf92957331dcb3becfb0087314f", "type": "electric_scooter", "lon": -77.0480835}, {"is_reserved": 0, "lat": 38.9341905, "rental_uris": {"android": "https://dc.lft.to/lastmile_qr_scan", "ios": "https://dc.lft.to/lastmile_qr_scan"}, "bike_id": "e38b77b8a5da3f5e4f33130787049eee", "fusion_lon": 0.0, "fusion_lat": 0.0, "is_disabled": 0, "name": "e38b77b8a5da3f5e4f33130787049eee", "type": "electric_scooter", "lon": -77.05550016666666}, {"is_reserved": 0, "lat": 38.911447833333334, "rental_uris": {"android": "https://dc.lft.to/lastmile_qr_scan", "ios": "https://dc.lft.to/lastmile_qr_scan"}, "bike_id": "b0ad8f2904a3e3a911a0df274d464707", "fusion_lon": 0.0, "fusion_lat": 0.0, "is_disabled": 0, "name": "b0ad8f2904a3e3a911a0df274d464707", "type": "electric_scooter", "lon": -77.0046765}, {"is_reserved": 0, "lat": 38.911212, "rental_uris": {"android": "https://dc.lft.to/lastmile_qr_scan", "ios": "https://dc.lft.to/lastmile_qr_scan"}, "bike_id": "52ffdbecaa40f283f47e76b734740782", "fusion_lon": 0.0, "fusion_lat": 0.0, "is_disabled": 0, "name": "52ffdbecaa40f283f47e76b734740782", "type": "electric_scooter", "lon": -77.02691283333333}, {"is_reserved": 0, "lat": 38.92065516666667, "rental_uris": {"android": "https://dc.lft.to/lastmile_qr_scan", "ios": "https://dc.lft.to/lastmile_qr_scan"}, "bike_id": "1d2abfe50c3f7f80419cdd7024668a02", "fusion_lon": 0.0, "fusion_lat": 0.0, "is_disabled": 0, "name": "1d2abfe50c3f7f80419cdd7024668a02", "type": "electric_scooter", "lon": -77.02244683333333}, {"is_reserved": 0, "lat": 38.85489883333334, "rental_uris": {"android": "https://dc.lft.to/lastmile_qr_scan", "ios": "https://dc.lft.to/lastmile_qr_scan"}, "bike_id": "11c3214cd0776a17530702cbe104be9a", "fusion_lon": 0.0, "fusion_lat": 0.0, "is_disabled": 0, "name": "11c3214cd0776a17530702cbe104be9a", "type": "electric_bike", "lon": -76.98403633333334}, {"is_reserved": 0, "lat": 38.92171466666667, "rental_uris": {"android": "https://dc.lft.to/lastmile_qr_scan", "ios": "https://dc.lft.to/lastmile_qr_scan"}, "bike_id": "65a97a0532ea1d75c2ba9c5cc0778eab", "fusion_lon": 0.0, "fusion_lat": 0.0, "is_disabled": 0, "name": "65a97a0532ea1d75c2ba9c5cc0778eab", "type": "electric_scooter", "lon": -76.99753866666667}, {"is_reserved": 0, "lat": 38.915531, "rental_uris": {"android": "https://dc.lft.to/lastmile_qr_scan", "ios": "https://dc.lft.to/lastmile_qr_scan"}, "bike_id": "c65be30abae90f3b808a8aec4db32ebd", "fusion_lon": 0.0, "fusion_lat": 0.0, "is_disabled": 0, "name": "c65be30abae90f3b808a8aec4db32ebd", "type": "electric_scooter", "lon": -77.03162766666667}, {"is_reserved": 0, "lat": 38.90386816666667, "rental_uris": {"android": "https://dc.lft.to/lastmile_qr_scan", "ios": "https://dc.lft.to/lastmile_qr_scan"}, "bike_id": "914679a546f9b3f0f366edda7d4f6f21", "fusion_lon": 0.0, "fusion_lat": 0.0, "is_disabled": 0, "name": "914679a546f9b3f0f366edda7d4f6f21", "type": "electric_scooter", "lon": -77.04301866666667}, {"is_reserved": 0, "lat": 38.923184, "rental_uris": {"android": "https://dc.lft.to/lastmile_qr_scan", "ios": "https://dc.lft.to/lastmile_qr_scan"}, "bike_id": "f43d08e75d94487b97491027b4d8bea8", "fusion_lon": 0.0, "fusion_lat": 0.0, "is_disabled": 0, "name": "f43d08e75d94487b97491027b4d8bea8", "type": "electric_scooter", "lon": -77.03838333333333}, {"is_reserved": 0, "lat": 38.8932705, "rental_uris": {"android": "https://dc.lft.to/lastmile_qr_scan", "ios": "https://dc.lft.to/lastmile_qr_scan"}, "bike_id": "fba71cba232e5cddbb3bd1c876d2fb8b", "fusion_lon": 0.0, "fusion_lat": 0.0, "is_disabled": 0, "name": "fba71cba232e5cddbb3bd1c876d2fb8b", "type": "electric_scooter", "lon": -77.01195783333333}, {"is_reserved": 0, "lat": 38.903665333333336, "rental_uris": {"android": "https://dc.lft.to/lastmile_qr_scan", "ios": "https://dc.lft.to/lastmile_qr_scan"}, "bike_id": "7daf6a5d739a229c81f41ab5c47f39f7", "fusion_lon": 0.0, "fusion_lat": 0.0, "is_disabled": 0, "name": "7daf6a5d739a229c81f41ab5c47f39f7", "type": "electric_scooter", "lon": -77.04463683333333}, {"is_reserved": 0, "lat": 38.9335585, "rental_uris": {"android": "https://dc.lft.to/lastmile_qr_scan", "ios": "https://dc.lft.to/lastmile_qr_scan"}, "bike_id": "6ac607754b4dcda143aaa524096c6a76", "fusion_lon": 0.0, "fusion_lat": 0.0, "is_disabled": 0, "name": "6ac607754b4dcda143aaa524096c6a76", "type": "electric_bike", "lon": -77.099602}, {"is_reserved": 0, "lat": 38.922019166666665, "rental_uris": {"android": "https://dc.lft.to/lastmile_qr_scan", "ios": "https://dc.lft.to/lastmile_qr_scan"}, "bike_id": "6775d030fa28d7e066de4ac72dafc069", "fusion_lon": 0.0, "fusion_lat": 0.0, "is_disabled": 0, "name": "6775d030fa28d7e066de4ac72dafc069", "type": "electric_scooter", "lon": -77.04252383333333}, {"is_reserved": 0, "lat": 38.9264815, "rental_uris": {"android": "https://dc.lft.to/lastmile_qr_scan", "ios": "https://dc.lft.to/lastmile_qr_scan"}, "bike_id": "76a0727cb784391c7b3131b721b174ca", "fusion_lon": 0.0, "fusion_lat": 0.0, "is_disabled": 0, "name": "76a0727cb784391c7b3131b721b174ca", "type": "electric_scooter", "lon": -77.04146016666667}, {"is_reserved": 0, "lat": 38.92363433333333, "rental_uris": {"android": "https://dc.lft.to/lastmile_qr_scan", "ios": "https://dc.lft.to/lastmile_qr_scan"}, "bike_id": "0c60d13760965693dff18758a593c471", "fusion_lon": 0.0, "fusion_lat": 0.0, "is_disabled": 0, "name": "0c60d13760965693dff18758a593c471", "type": "electric_scooter", "lon": -77.05127583333334}, {"is_reserved": 0, "lat": 38.8710805, "rental_uris": {"android": "https://dc.lft.to/lastmile_qr_scan", "ios": "https://dc.lft.to/lastmile_qr_scan"}, "bike_id": "d9c7acf4c4406e83525a2dd9c9274162", "fusion_lon": 0.0, "fusion_lat": 0.0, "is_disabled": 0, "name": "d9c7acf4c4406e83525a2dd9c9274162", "type": "electric_bike", "lon": -76.92328966666666}, {"is_reserved": 0, "lat": 38.91926516666667, "rental_uris": {"android": "https://dc.lft.to/lastmile_qr_scan", "ios": "https://dc.lft.to/lastmile_qr_scan"}, "bike_id": "186cdcf0b85f1655d457fcb6b22e38e2", "fusion_lon": 0.0, "fusion_lat": 0.0, "is_disabled": 0, "name": "186cdcf0b85f1655d457fcb6b22e38e2", "type": "electric_scooter", "lon": -77.03197266666666}, {"is_reserved": 0, "lat": 38.918379, "rental_uris": {"android": "https://dc.lft.to/lastmile_qr_scan", "ios": "https://dc.lft.to/lastmile_qr_scan"}, "bike_id": "da53d6bd73e9a4d56abb3e5647edc05b", "fusion_lon": 0.0, "fusion_lat": 0.0, "is_disabled": 0, "name": "da53d6bd73e9a4d56abb3e5647edc05b", "type": "electric_scooter", "lon": -77.0343345}, {"is_reserved": 0, "lat": 38.89825533333333, "rental_uris": {"android": "https://dc.lft.to/lastmile_qr_scan", "ios": "https://dc.lft.to/lastmile_qr_scan"}, "bike_id": "a20793bf053eb1ff025570be0f617940", "fusion_lon": 0.0, "fusion_lat": 0.0, "is_disabled": 0, "name": "a20793bf053eb1ff025570be0f617940", "type": "electric_scooter", "lon": -76.98774766666666}, {"is_reserved": 0, "lat": 38.931866, "rental_uris": {"android": "https://dc.lft.to/lastmile_qr_scan", "ios": "https://dc.lft.to/lastmile_qr_scan"}, "bike_id": "2a04a26f9b4696c0ae500a1dae6d8462", "fusion_lon": 0.0, "fusion_lat": 0.0, "is_disabled": 0, "name": "2a04a26f9b4696c0ae500a1dae6d8462", "type": "electric_scooter", "lon": -77.02825533333333}, {"is_reserved": 0, "lat": 38.9035995, "rental_uris": {"android": "https://dc.lft.to/lastmile_qr_scan", "ios": "https://dc.lft.to/lastmile_qr_scan"}, "bike_id": "07f70f03806cd447099b0795da5f1a3b", "fusion_lon": 0.0, "fusion_lat": 0.0, "is_disabled": 0, "name": "07f70f03806cd447099b0795da5f1a3b", "type": "electric_scooter", "lon": -77.045318}, {"is_reserved": 0, "lat": 38.917449500000004, "rental_uris": {"android": "https://dc.lft.to/lastmile_qr_scan", "ios": "https://dc.lft.to/lastmile_qr_scan"}, "bike_id": "019e044718be5df4423f619485e71b33", "fusion_lon": 0.0, "fusion_lat": 0.0, "is_disabled": 0, "name": "019e044718be5df4423f619485e71b33", "type": "electric_scooter", "lon": -77.023977}, {"is_reserved": 0, "lat": 38.907383833333334, "rental_uris": {"android": "https://dc.lft.to/lastmile_qr_scan", "ios": "https://dc.lft.to/lastmile_qr_scan"}, "bike_id": "08d36c686f309a97f93203d257b64584", "fusion_lon": 0.0, "fusion_lat": 0.0, "is_disabled": 0, "name": "08d36c686f309a97f93203d257b64584", "type": "electric_scooter", "lon": -77.03454316666667}, {"is_reserved": 0, "lat": 38.916687, "rental_uris": {"android": "https://dc.lft.to/lastmile_qr_scan", "ios": "https://dc.lft.to/lastmile_qr_scan"}, "bike_id": "25e600dca145495ad8ea2f7f11cca851", "fusion_lon": 0.0, "fusion_lat": 0.0, "is_disabled": 0, "name": "25e600dca145495ad8ea2f7f11cca851", "type": "electric_scooter", "lon": -77.022914}, {"is_reserved": 0, "lat": 38.90738266666666, "rental_uris": {"android": "https://dc.lft.to/lastmile_qr_scan", "ios": "https://dc.lft.to/lastmile_qr_scan"}, "bike_id": "11bf30184addf2938b7559e4b94719b0", "fusion_lon": 0.0, "fusion_lat": 0.0, "is_disabled": 0, "name": "11bf30184addf2938b7559e4b94719b0", "type": "electric_scooter", "lon": -77.02716816666667}, {"is_reserved": 0, "lat": 38.9203925, "rental_uris": {"android": "https://dc.lft.to/lastmile_qr_scan", "ios": "https://dc.lft.to/lastmile_qr_scan"}, "bike_id": "691c267abf6427090693b20c082823cc", "fusion_lon": 0.0, "fusion_lat": 0.0, "is_disabled": 0, "name": "691c267abf6427090693b20c082823cc", "type": "electric_scooter", "lon": -77.02437116666667}, {"is_reserved": 0, "lat": 38.90309366666666, "rental_uris": {"android": "https://dc.lft.to/lastmile_qr_scan", "ios": "https://dc.lft.to/lastmile_qr_scan"}, "bike_id": "da0d60b830ef635dd31f32b94c8f9576", "fusion_lon": 0.0, "fusion_lat": 0.0, "is_disabled": 0, "name": "da0d60b830ef635dd31f32b94c8f9576", "type": "electric_scooter", "lon": -77.01189483333333}, {"is_reserved": 0, "lat": 38.920387, "rental_uris": {"android": "https://dc.lft.to/lastmile_qr_scan", "ios": "https://dc.lft.to/lastmile_qr_scan"}, "bike_id": "c3f399add4c76a8ab2d2aab9c22c9aca", "fusion_lon": 0.0, "fusion_lat": 0.0, "is_disabled": 0, "name": "c3f399add4c76a8ab2d2aab9c22c9aca", "type": "electric_scooter", "lon": -77.03989066666666}, {"is_reserved": 0, "lat": 38.900021, "rental_uris": {"android": "https://dc.lft.to/lastmile_qr_scan", "ios": "https://dc.lft.to/lastmile_qr_scan"}, "bike_id": "c2d13948fa6cd220ed9f505d0361af89", "fusion_lon": 0.0, "fusion_lat": 0.0, "is_disabled": 0, "name": "c2d13948fa6cd220ed9f505d0361af89", "type": "electric_scooter", "lon": -77.03164983333333}, {"is_reserved": 0, "lat": 38.902796333333335, "rental_uris": {"android": "https://dc.lft.to/lastmile_qr_scan", "ios": "https://dc.lft.to/lastmile_qr_scan"}, "bike_id": "1ec5bffd018069029f2d227be8edd270", "fusion_lon": 0.0, "fusion_lat": 0.0, "is_disabled": 0, "name": "1ec5bffd018069029f2d227be8edd270", "type": "electric_scooter", "lon": -77.03225433333333}, {"is_reserved": 0, "lat": 38.90954983333334, "rental_uris": {"android": "https://dc.lft.to/lastmile_qr_scan", "ios": "https://dc.lft.to/lastmile_qr_scan"}, "bike_id": "432ec8be8054c77d5affcb6d3c61ade8", "fusion_lon": 0.0, "fusion_lat": 0.0, "is_disabled": 0, "name": "432ec8be8054c77d5affcb6d3c61ade8", "type": "electric_scooter", "lon": -77.0323255}, {"is_reserved": 0, "lat": 38.93420533333333, "rental_uris": {"android": "https://dc.lft.to/lastmile_qr_scan", "ios": "https://dc.lft.to/lastmile_qr_scan"}, "bike_id": "87566d7bf00b967b74abd3eb05984727", "fusion_lon": 0.0, "fusion_lat": 0.0, "is_disabled": 0, "name": "87566d7bf00b967b74abd3eb05984727", "type": "electric_scooter", "lon": -77.04134133333334}, {"is_reserved": 0, "lat": 38.899713, "rental_uris": {"android": "https://dc.lft.to/lastmile_qr_scan", "ios": "https://dc.lft.to/lastmile_qr_scan"}, "bike_id": "08714b63897307e976f56fb85cad72d9", "fusion_lon": 0.0, "fusion_lat": 0.0, "is_disabled": 0, "name": "08714b63897307e976f56fb85cad72d9", "type": "electric_scooter", "lon": -76.92722683333334}, {"is_reserved": 0, "lat": 38.904246666666666, "rental_uris": {"android": "https://dc.lft.to/lastmile_qr_scan", "ios": "https://dc.lft.to/lastmile_qr_scan"}, "bike_id": "49eb4939512652d9340268b0fd2e27a5", "fusion_lon": 0.0, "fusion_lat": 0.0, "is_disabled": 0, "name": "49eb4939512652d9340268b0fd2e27a5", "type": "electric_scooter", "lon": -77.03844866666667}, {"is_reserved": 0, "lat": 38.91981616666666, "rental_uris": {"android": "https://dc.lft.to/lastmile_qr_scan", "ios": "https://dc.lft.to/lastmile_qr_scan"}, "bike_id": "cf2d4d4bd777e7fd7cb429a15210305c", "fusion_lon": 0.0, "fusion_lat": 0.0, "is_disabled": 0, "name": "cf2d4d4bd777e7fd7cb429a15210305c", "type": "electric_scooter", "lon": -77.04090266666667}, {"is_reserved": 0, "lat": 38.9067305, "rental_uris": {"android": "https://dc.lft.to/lastmile_qr_scan", "ios": "https://dc.lft.to/lastmile_qr_scan"}, "bike_id": "d004ecf1c372bdbf4e8f6c43751a3dcc", "fusion_lon": 0.0, "fusion_lat": 0.0, "is_disabled": 0, "name": "d004ecf1c372bdbf4e8f6c43751a3dcc", "type": "electric_scooter", "lon": -77.0382785}, {"is_reserved": 0, "lat": 38.924462, "rental_uris": {"android": "https://dc.lft.to/lastmile_qr_scan", "ios": "https://dc.lft.to/lastmile_qr_scan"}, "bike_id": "69d3ee6d7475f7c2abbf96a0243df3a4", "fusion_lon": 0.0, "fusion_lat": 0.0, "is_disabled": 0, "name": "69d3ee6d7475f7c2abbf96a0243df3a4", "type": "electric_scooter", "lon": -77.0402295}, {"is_reserved": 0, "lat": 38.844235166666664, "rental_uris": {"android": "https://dc.lft.to/lastmile_qr_scan", "ios": "https://dc.lft.to/lastmile_qr_scan"}, "bike_id": "075636476eaf25a9bdbd351749638fa8", "fusion_lon": 0.0, "fusion_lat": 0.0, "is_disabled": 0, "name": "075636476eaf25a9bdbd351749638fa8", "type": "electric_scooter", "lon": -76.99777016666667}, {"is_reserved": 0, "lat": 38.88429883333333, "rental_uris": {"android": "https://dc.lft.to/lastmile_qr_scan", "ios": "https://dc.lft.to/lastmile_qr_scan"}, "bike_id": "98c8fc32b13f484fe0e7f22b7a34e8fd", "fusion_lon": 0.0, "fusion_lat": 0.0, "is_disabled": 0, "name": "98c8fc32b13f484fe0e7f22b7a34e8fd", "type": "electric_scooter", "lon": -76.95753366666666}, {"is_reserved": 0, "lat": 38.90207566666667, "rental_uris": {"android": "https://dc.lft.to/lastmile_qr_scan", "ios": "https://dc.lft.to/lastmile_qr_scan"}, "bike_id": "6a7ab8b2cee9e824d36965527d93fe20", "fusion_lon": 0.0, "fusion_lat": 0.0, "is_disabled": 0, "name": "6a7ab8b2cee9e824d36965527d93fe20", "type": "electric_scooter", "lon": -77.0335965}, {"is_reserved": 0, "lat": 38.905817, "rental_uris": {"android": "https://dc.lft.to/lastmile_qr_scan", "ios": "https://dc.lft.to/lastmile_qr_scan"}, "bike_id": "c73e276f923dbc2784fdbb7cae525592", "fusion_lon": 0.0, "fusion_lat": 0.0, "is_disabled": 0, "name": "c73e276f923dbc2784fdbb7cae525592", "type": "electric_scooter", "lon": -77.04185966666667}, {"is_reserved": 0, "lat": 38.9015765, "rental_uris": {"android": "https://dc.lft.to/lastmile_qr_scan", "ios": "https://dc.lft.to/lastmile_qr_scan"}, "bike_id": "aad4941e32942018dac9185dc9a0f7e0", "fusion_lon": 0.0, "fusion_lat": 0.0, "is_disabled": 0, "name": "aad4941e32942018dac9185dc9a0f7e0", "type": "electric_scooter", "lon": -77.02719616666667}, {"is_reserved": 0, "lat": 38.924945666666666, "rental_uris": {"android": "https://dc.lft.to/lastmile_qr_scan", "ios": "https://dc.lft.to/lastmile_qr_scan"}, "bike_id": "69bc52137e8d1481802b68783f6f07fa", "fusion_lon": 0.0, "fusion_lat": 0.0, "is_disabled": 0, "name": "69bc52137e8d1481802b68783f6f07fa", "type": "electric_scooter", "lon": -77.05224183333333}, {"is_reserved": 0, "lat": 38.94822816666667, "rental_uris": {"android": "https://dc.lft.to/lastmile_qr_scan", "ios": "https://dc.lft.to/lastmile_qr_scan"}, "bike_id": "4d4b22944a61f9cfb224051c4cb0e85d", "fusion_lon": 0.0, "fusion_lat": 0.0, "is_disabled": 0, "name": "4d4b22944a61f9cfb224051c4cb0e85d", "type": "electric_scooter", "lon": -76.9990285}, {"is_reserved": 0, "lat": 38.9174015, "rental_uris": {"android": "https://dc.lft.to/lastmile_qr_scan", "ios": "https://dc.lft.to/lastmile_qr_scan"}, "bike_id": "8c4c036e6bc35d4cfeb4eefb84528ab7", "fusion_lon": 0.0, "fusion_lat": 0.0, "is_disabled": 0, "name": "8c4c036e6bc35d4cfeb4eefb84528ab7", "type": "electric_scooter", "lon": -77.03188366666667}, {"is_reserved": 0, "lat": 38.94456183333333, "rental_uris": {"android": "https://dc.lft.to/lastmile_qr_scan", "ios": "https://dc.lft.to/lastmile_qr_scan"}, "bike_id": "2dde7c99ca6c37191997cc066febeec3", "fusion_lon": 0.0, "fusion_lat": 0.0, "is_disabled": 0, "name": "2dde7c99ca6c37191997cc066febeec3", "type": "electric_scooter", "lon": -77.06032066666667}, {"is_reserved": 0, "lat": 38.919973166666665, "rental_uris": {"android": "https://dc.lft.to/lastmile_qr_scan", "ios": "https://dc.lft.to/lastmile_qr_scan"}, "bike_id": "1e6b1a678ef17d01fa194c57459afe7a", "fusion_lon": 0.0, "fusion_lat": 0.0, "is_disabled": 0, "name": "1e6b1a678ef17d01fa194c57459afe7a", "type": "electric_scooter", "lon": -77.0323065}, {"is_reserved": 0, "lat": 38.90233333333333, "rental_uris": {"android": "https://dc.lft.to/lastmile_qr_scan", "ios": "https://dc.lft.to/lastmile_qr_scan"}, "bike_id": "d7a697f8963f6b14d7770c66aab18b5b", "fusion_lon": 0.0, "fusion_lat": 0.0, "is_disabled": 0, "name": "d7a697f8963f6b14d7770c66aab18b5b", "type": "electric_scooter", "lon": -77.06058833333333}, {"is_reserved": 0, "lat": 38.89680283333333, "rental_uris": {"android": "https://dc.lft.to/lastmile_qr_scan", "ios": "https://dc.lft.to/lastmile_qr_scan"}, "bike_id": "6d7a3896c1c08ca0834b18e03697aae1", "fusion_lon": 0.0, "fusion_lat": 0.0, "is_disabled": 0, "name": "6d7a3896c1c08ca0834b18e03697aae1", "type": "electric_scooter", "lon": -76.936073}, {"is_reserved": 0, "lat": 38.884503333333335, "rental_uris": {"android": "https://dc.lft.to/lastmile_qr_scan", "ios": "https://dc.lft.to/lastmile_qr_scan"}, "bike_id": "8ad379ee069bd4b22260e6e91a821a60", "fusion_lon": 0.0, "fusion_lat": 0.0, "is_disabled": 0, "name": "8ad379ee069bd4b22260e6e91a821a60", "type": "electric_scooter", "lon": -76.95094433333334}, {"is_reserved": 0, "lat": 38.88370466666667, "rental_uris": {"android": "https://dc.lft.to/lastmile_qr_scan", "ios": "https://dc.lft.to/lastmile_qr_scan"}, "bike_id": "5c942f734550a5958e2869007de7e4f3", "fusion_lon": 0.0, "fusion_lat": 0.0, "is_disabled": 0, "name": "5c942f734550a5958e2869007de7e4f3", "type": "electric_scooter", "lon": -76.99517633333333}, {"is_reserved": 0, "lat": 38.90059816666667, "rental_uris": {"android": "https://dc.lft.to/lastmile_qr_scan", "ios": "https://dc.lft.to/lastmile_qr_scan"}, "bike_id": "5f2dc0b309d3ce8c5d456524c66ab02b", "fusion_lon": 0.0, "fusion_lat": 0.0, "is_disabled": 0, "name": "5f2dc0b309d3ce8c5d456524c66ab02b", "type": "electric_scooter", "lon": -77.00201766666666}, {"is_reserved": 0, "lat": 38.91545333333333, "rental_uris": {"android": "https://dc.lft.to/lastmile_qr_scan", "ios": "https://dc.lft.to/lastmile_qr_scan"}, "bike_id": "1740698ca3138cd4f03ca67d8d28cf40", "fusion_lon": 0.0, "fusion_lat": 0.0, "is_disabled": 0, "name": "1740698ca3138cd4f03ca67d8d28cf40", "type": "electric_scooter", "lon": -77.038479}, {"is_reserved": 0, "lat": 38.925374, "rental_uris": {"android": "https://dc.lft.to/lastmile_qr_scan", "ios": "https://dc.lft.to/lastmile_qr_scan"}, "bike_id": "2dee7508767763f65dc1cc08593bd10a", "fusion_lon": 0.0, "fusion_lat": 0.0, "is_disabled": 0, "name": "2dee7508767763f65dc1cc08593bd10a", "type": "electric_scooter", "lon": -77.041404}, {"is_reserved": 0, "lat": 38.841350166666665, "rental_uris": {"android": "https://dc.lft.to/lastmile_qr_scan", "ios": "https://dc.lft.to/lastmile_qr_scan"}, "bike_id": "dde95fca0d7788f81416d6833bf2ad9e", "fusion_lon": 0.0, "fusion_lat": 0.0, "is_disabled": 0, "name": "dde95fca0d7788f81416d6833bf2ad9e", "type": "electric_bike", "lon": -76.9457035}, {"is_reserved": 0, "lat": 38.85395783333333, "rental_uris": {"android": "https://dc.lft.to/lastmile_qr_scan", "ios": "https://dc.lft.to/lastmile_qr_scan"}, "bike_id": "e83bf9a4cd5acca9d8a276a53be4eba2", "fusion_lon": 0.0, "fusion_lat": 0.0, "is_disabled": 0, "name": "e83bf9a4cd5acca9d8a276a53be4eba2", "type": "electric_bike", "lon": -77.12485983333333}, {"is_reserved": 0, "lat": 38.894448833333335, "rental_uris": {"android": "https://dc.lft.to/lastmile_qr_scan", "ios": "https://dc.lft.to/lastmile_qr_scan"}, "bike_id": "7ef1aea126b9d903f3d60fa6b69b4a76", "fusion_lon": 0.0, "fusion_lat": 0.0, "is_disabled": 0, "name": "7ef1aea126b9d903f3d60fa6b69b4a76", "type": "electric_scooter", "lon": -77.02687966666667}, {"is_reserved": 0, "lat": 38.89994, "rental_uris": {"android": "https://dc.lft.to/lastmile_qr_scan", "ios": "https://dc.lft.to/lastmile_qr_scan"}, "bike_id": "a18113ab8f528c3220e85c365e466587", "fusion_lon": 0.0, "fusion_lat": 0.0, "is_disabled": 0, "name": "a18113ab8f528c3220e85c365e466587", "type": "electric_scooter", "lon": -77.0270405}, {"is_reserved": 0, "lat": 38.8998785, "rental_uris": {"android": "https://dc.lft.to/lastmile_qr_scan", "ios": "https://dc.lft.to/lastmile_qr_scan"}, "bike_id": "16afde0f7fb3f7b4bdf60850db6b6535", "fusion_lon": 0.0, "fusion_lat": 0.0, "is_disabled": 0, "name": "16afde0f7fb3f7b4bdf60850db6b6535", "type": "electric_scooter", "lon": -77.05255566666666}, {"is_reserved": 0, "lat": 38.895779833333336, "rental_uris": {"android": "https://dc.lft.to/lastmile_qr_scan", "ios": "https://dc.lft.to/lastmile_qr_scan"}, "bike_id": "1a868966153e4a513e35f15ddfe7bfa9", "fusion_lon": 0.0, "fusion_lat": 0.0, "is_disabled": 0, "name": "1a868966153e4a513e35f15ddfe7bfa9", "type": "electric_scooter", "lon": -76.98179533333334}, {"is_reserved": 0, "lat": 38.90564116666667, "rental_uris": {"android": "https://dc.lft.to/lastmile_qr_scan", "ios": "https://dc.lft.to/lastmile_qr_scan"}, "bike_id": "0e4cb5c2ab784db0d45bd8ebcc30cdf4", "fusion_lon": 0.0, "fusion_lat": 0.0, "is_disabled": 0, "name": "0e4cb5c2ab784db0d45bd8ebcc30cdf4", "type": "electric_scooter", "lon": -77.02459433333334}, {"is_reserved": 0, "lat": 38.902809166666664, "rental_uris": {"android": "https://dc.lft.to/lastmile_qr_scan", "ios": "https://dc.lft.to/lastmile_qr_scan"}, "bike_id": "156c0b47acd10d3cd5c6cb07b29804f2", "fusion_lon": 0.0, "fusion_lat": 0.0, "is_disabled": 0, "name": "156c0b47acd10d3cd5c6cb07b29804f2", "type": "electric_scooter", "lon": -77.03639233333334}, {"is_reserved": 0, "lat": 38.9289675, "rental_uris": {"android": "https://dc.lft.to/lastmile_qr_scan", "ios": "https://dc.lft.to/lastmile_qr_scan"}, "bike_id": "89705180947ea54bf7d6c123d5a872f4", "fusion_lon": 0.0, "fusion_lat": 0.0, "is_disabled": 0, "name": "89705180947ea54bf7d6c123d5a872f4", "type": "electric_scooter", "lon": -77.02403033333333}, {"is_reserved": 0, "lat": 38.91419716666667, "rental_uris": {"android": "https://dc.lft.to/lastmile_qr_scan", "ios": "https://dc.lft.to/lastmile_qr_scan"}, "bike_id": "80256f13e1fad1fd3f9641111b16b26b", "fusion_lon": 0.0, "fusion_lat": 0.0, "is_disabled": 0, "name": "80256f13e1fad1fd3f9641111b16b26b", "type": "electric_scooter", "lon": -77.0318775}, {"is_reserved": 0, "lat": 38.9126435, "rental_uris": {"android": "https://dc.lft.to/lastmile_qr_scan", "ios": "https://dc.lft.to/lastmile_qr_scan"}, "bike_id": "8cc282e7a62d142f8fe00c65d11d2ae6", "fusion_lon": 0.0, "fusion_lat": 0.0, "is_disabled": 0, "name": "8cc282e7a62d142f8fe00c65d11d2ae6", "type": "electric_scooter", "lon": -77.0380315}, {"is_reserved": 0, "lat": 38.9335545, "rental_uris": {"android": "https://dc.lft.to/lastmile_qr_scan", "ios": "https://dc.lft.to/lastmile_qr_scan"}, "bike_id": "19bcc7798099e8b5e8bbe23b055cd8d0", "fusion_lon": 0.0, "fusion_lat": 0.0, "is_disabled": 0, "name": "19bcc7798099e8b5e8bbe23b055cd8d0", "type": "electric_bike", "lon": -77.0995845}, {"is_reserved": 0, "lat": 38.931892166666664, "rental_uris": {"android": "https://dc.lft.to/lastmile_qr_scan", "ios": "https://dc.lft.to/lastmile_qr_scan"}, "bike_id": "f7c2aed26adc9edd4062391a299868e9", "fusion_lon": 0.0, "fusion_lat": 0.0, "is_disabled": 0, "name": "f7c2aed26adc9edd4062391a299868e9", "type": "electric_scooter", "lon": -77.028238}, {"is_reserved": 0, "lat": 38.90811933333333, "rental_uris": {"android": "https://dc.lft.to/lastmile_qr_scan", "ios": "https://dc.lft.to/lastmile_qr_scan"}, "bike_id": "0f19459cc6e0f4dd86b7ee304e96295a", "fusion_lon": 0.0, "fusion_lat": 0.0, "is_disabled": 0, "name": "0f19459cc6e0f4dd86b7ee304e96295a", "type": "electric_scooter", "lon": -77.043397}, {"is_reserved": 0, "lat": 38.92060583333333, "rental_uris": {"android": "https://dc.lft.to/lastmile_qr_scan", "ios": "https://dc.lft.to/lastmile_qr_scan"}, "bike_id": "4e7482e3dd7aa27c657f24a652765097", "fusion_lon": 0.0, "fusion_lat": 0.0, "is_disabled": 0, "name": "4e7482e3dd7aa27c657f24a652765097", "type": "electric_scooter", "lon": -77.038059}, {"is_reserved": 0, "lat": 38.9122705, "rental_uris": {"android": "https://dc.lft.to/lastmile_qr_scan", "ios": "https://dc.lft.to/lastmile_qr_scan"}, "bike_id": "6d7ef01068e812e23e9dc6ee64b28f46", "fusion_lon": 0.0, "fusion_lat": 0.0, "is_disabled": 0, "name": "6d7ef01068e812e23e9dc6ee64b28f46", "type": "electric_scooter", "lon": -77.04477416666667}, {"is_reserved": 0, "lat": 38.9232, "rental_uris": {"android": "https://dc.lft.to/lastmile_qr_scan", "ios": "https://dc.lft.to/lastmile_qr_scan"}, "bike_id": "8512017e1c4ea63f595e3049ddbfe977", "fusion_lon": 0.0, "fusion_lat": 0.0, "is_disabled": 0, "name": "8512017e1c4ea63f595e3049ddbfe977", "type": "electric_scooter", "lon": -77.04207416666667}, {"is_reserved": 0, "lat": 38.90263133333333, "rental_uris": {"android": "https://dc.lft.to/lastmile_qr_scan", "ios": "https://dc.lft.to/lastmile_qr_scan"}, "bike_id": "47d3b49deb72f000e9d4b5d3cf3767f6", "fusion_lon": 0.0, "fusion_lat": 0.0, "is_disabled": 0, "name": "47d3b49deb72f000e9d4b5d3cf3767f6", "type": "electric_scooter", "lon": -77.033576}, {"is_reserved": 0, "lat": 38.89572016666666, "rental_uris": {"android": "https://dc.lft.to/lastmile_qr_scan", "ios": "https://dc.lft.to/lastmile_qr_scan"}, "bike_id": "5daf9a80e38cfb6078ccd8ac82f72c69", "fusion_lon": 0.0, "fusion_lat": 0.0, "is_disabled": 0, "name": "5daf9a80e38cfb6078ccd8ac82f72c69", "type": "electric_bike", "lon": -77.12701666666666}, {"is_reserved": 0, "lat": 38.91478816666667, "rental_uris": {"android": "https://dc.lft.to/lastmile_qr_scan", "ios": "https://dc.lft.to/lastmile_qr_scan"}, "bike_id": "1a4ae5c38eab77090cd282b83f497705", "fusion_lon": 0.0, "fusion_lat": 0.0, "is_disabled": 0, "name": "1a4ae5c38eab77090cd282b83f497705", "type": "electric_scooter", "lon": -77.03225083333334}, {"is_reserved": 0, "lat": 38.915655666666666, "rental_uris": {"android": "https://dc.lft.to/lastmile_qr_scan", "ios": "https://dc.lft.to/lastmile_qr_scan"}, "bike_id": "ec091cfeb3eddb196283ae73bf477838", "fusion_lon": 0.0, "fusion_lat": 0.0, "is_disabled": 0, "name": "ec091cfeb3eddb196283ae73bf477838", "type": "electric_scooter", "lon": -77.03162583333334}, {"is_reserved": 0, "lat": 38.902804833333334, "rental_uris": {"android": "https://dc.lft.to/lastmile_qr_scan", "ios": "https://dc.lft.to/lastmile_qr_scan"}, "bike_id": "ca656fda07543067e26d625c2847a061", "fusion_lon": 0.0, "fusion_lat": 0.0, "is_disabled": 0, "name": "ca656fda07543067e26d625c2847a061", "type": "electric_scooter", "lon": -77.04614716666667}, {"is_reserved": 0, "lat": 38.886682, "rental_uris": {"android": "https://dc.lft.to/lastmile_qr_scan", "ios": "https://dc.lft.to/lastmile_qr_scan"}, "bike_id": "403884da69dc5fb463f7d80a90a53910", "fusion_lon": 0.0, "fusion_lat": 0.0, "is_disabled": 0, "name": "403884da69dc5fb463f7d80a90a53910", "type": "electric_scooter", "lon": -76.98553866666667}, {"is_reserved": 0, "lat": 38.8946325, "rental_uris": {"android": "https://dc.lft.to/lastmile_qr_scan", "ios": "https://dc.lft.to/lastmile_qr_scan"}, "bike_id": "cd294147a6ae65274917dfe5360e7f00", "fusion_lon": 0.0, "fusion_lat": 0.0, "is_disabled": 0, "name": "cd294147a6ae65274917dfe5360e7f00", "type": "electric_scooter", "lon": -77.021047}, {"is_reserved": 0, "lat": 38.896902, "rental_uris": {"android": "https://dc.lft.to/lastmile_qr_scan", "ios": "https://dc.lft.to/lastmile_qr_scan"}, "bike_id": "28ddef683f79751f68574141e88a8933", "fusion_lon": 0.0, "fusion_lat": 0.0, "is_disabled": 0, "name": "28ddef683f79751f68574141e88a8933", "type": "electric_scooter", "lon": -77.00499683333334}, {"is_reserved": 0, "lat": 38.91940783333333, "rental_uris": {"android": "https://dc.lft.to/lastmile_qr_scan", "ios": "https://dc.lft.to/lastmile_qr_scan"}, "bike_id": "4e75fa8faf0d5cae7c552c5af94c2a6b", "fusion_lon": 0.0, "fusion_lat": 0.0, "is_disabled": 0, "name": "4e75fa8faf0d5cae7c552c5af94c2a6b", "type": "electric_scooter", "lon": -77.02489066666666}, {"is_reserved": 0, "lat": 38.928439833333336, "rental_uris": {"android": "https://dc.lft.to/lastmile_qr_scan", "ios": "https://dc.lft.to/lastmile_qr_scan"}, "bike_id": "b606020f2fcd0a17cf55ca4cabce90f7", "fusion_lon": 0.0, "fusion_lat": 0.0, "is_disabled": 0, "name": "b606020f2fcd0a17cf55ca4cabce90f7", "type": "electric_scooter", "lon": -77.0159865}, {"is_reserved": 0, "lat": 38.904075666666664, "rental_uris": {"android": "https://dc.lft.to/lastmile_qr_scan", "ios": "https://dc.lft.to/lastmile_qr_scan"}, "bike_id": "4aae6c09c65235be83ccc5ace50d087c", "fusion_lon": 0.0, "fusion_lat": 0.0, "is_disabled": 0, "name": "4aae6c09c65235be83ccc5ace50d087c", "type": "electric_scooter", "lon": -77.025898}, {"is_reserved": 0, "lat": 38.87666183333333, "rental_uris": {"android": "https://dc.lft.to/lastmile_qr_scan", "ios": "https://dc.lft.to/lastmile_qr_scan"}, "bike_id": "0f5e75d4f2e6d73a489387343cdb49a9", "fusion_lon": 0.0, "fusion_lat": 0.0, "is_disabled": 0, "name": "0f5e75d4f2e6d73a489387343cdb49a9", "type": "electric_scooter", "lon": -77.00407683333333}, {"is_reserved": 0, "lat": 38.85202833333334, "rental_uris": {"android": "https://dc.lft.to/lastmile_qr_scan", "ios": "https://dc.lft.to/lastmile_qr_scan"}, "bike_id": "d0783c5ac692e40f0c0b8337ccebd71f", "fusion_lon": 0.0, "fusion_lat": 0.0, "is_disabled": 0, "name": "d0783c5ac692e40f0c0b8337ccebd71f", "type": "electric_bike", "lon": -76.985566}, {"is_reserved": 0, "lat": 38.9183855, "rental_uris": {"android": "https://dc.lft.to/lastmile_qr_scan", "ios": "https://dc.lft.to/lastmile_qr_scan"}, "bike_id": "82ad94c128b22e83cc8ec9604e4c4bff", "fusion_lon": 0.0, "fusion_lat": 0.0, "is_disabled": 0, "name": "82ad94c128b22e83cc8ec9604e4c4bff", "type": "electric_scooter", "lon": -77.04162666666667}, {"is_reserved": 0, "lat": 38.9256475, "rental_uris": {"android": "https://dc.lft.to/lastmile_qr_scan", "ios": "https://dc.lft.to/lastmile_qr_scan"}, "bike_id": "cf8d1da8f2625a4d927f4caa233e70cc", "fusion_lon": 0.0, "fusion_lat": 0.0, "is_disabled": 0, "name": "cf8d1da8f2625a4d927f4caa233e70cc", "type": "electric_scooter", "lon": -77.05759516666667}, {"is_reserved": 0, "lat": 38.91709933333333, "rental_uris": {"android": "https://dc.lft.to/lastmile_qr_scan", "ios": "https://dc.lft.to/lastmile_qr_scan"}, "bike_id": "2114c6e98a2d43ec855203170672486d", "fusion_lon": 0.0, "fusion_lat": 0.0, "is_disabled": 0, "name": "2114c6e98a2d43ec855203170672486d", "type": "electric_scooter", "lon": -77.02576383333333}, {"is_reserved": 0, "lat": 38.9325675, "rental_uris": {"android": "https://dc.lft.to/lastmile_qr_scan", "ios": "https://dc.lft.to/lastmile_qr_scan"}, "bike_id": "e98b6b325fc603c2656c8e761585cbb6", "fusion_lon": 0.0, "fusion_lat": 0.0, "is_disabled": 0, "name": "e98b6b325fc603c2656c8e761585cbb6", "type": "electric_scooter", "lon": -77.0326425}, {"is_reserved": 0, "lat": 38.919254, "rental_uris": {"android": "https://dc.lft.to/lastmile_qr_scan", "ios": "https://dc.lft.to/lastmile_qr_scan"}, "bike_id": "edd23b3499036f4935272d2a93e6c305", "fusion_lon": 0.0, "fusion_lat": 0.0, "is_disabled": 0, "name": "edd23b3499036f4935272d2a93e6c305", "type": "electric_scooter", "lon": -77.04790166666666}, {"is_reserved": 0, "lat": 38.95633933333333, "rental_uris": {"android": "https://dc.lft.to/lastmile_qr_scan", "ios": "https://dc.lft.to/lastmile_qr_scan"}, "bike_id": "eacbb8f7d0ca42685d26fa1bdd5f96e7", "fusion_lon": 0.0, "fusion_lat": 0.0, "is_disabled": 0, "name": "eacbb8f7d0ca42685d26fa1bdd5f96e7", "type": "electric_bike", "lon": -76.93882383333333}, {"is_reserved": 0, "lat": 38.89785216666667, "rental_uris": {"android": "https://dc.lft.to/lastmile_qr_scan", "ios": "https://dc.lft.to/lastmile_qr_scan"}, "bike_id": "ff158c017e17fc1c6d258a4b10246bc8", "fusion_lon": 0.0, "fusion_lat": 0.0, "is_disabled": 0, "name": "ff158c017e17fc1c6d258a4b10246bc8", "type": "electric_bike", "lon": -76.90440133333334}, {"is_reserved": 0, "lat": 38.93519116666667, "rental_uris": {"android": "https://dc.lft.to/lastmile_qr_scan", "ios": "https://dc.lft.to/lastmile_qr_scan"}, "bike_id": "60d014f18f3d1e843145a07007a86449", "fusion_lon": 0.0, "fusion_lat": 0.0, "is_disabled": 0, "name": "60d014f18f3d1e843145a07007a86449", "type": "electric_scooter", "lon": -77.0326245}, {"is_reserved": 0, "lat": 38.92670316666667, "rental_uris": {"android": "https://dc.lft.to/lastmile_qr_scan", "ios": "https://dc.lft.to/lastmile_qr_scan"}, "bike_id": "abc7f965e3532ef973aae73775ff2ac4", "fusion_lon": 0.0, "fusion_lat": 0.0, "is_disabled": 0, "name": "abc7f965e3532ef973aae73775ff2ac4", "type": "electric_scooter", "lon": -76.99542166666667}, {"is_reserved": 0, "lat": 38.903775333333336, "rental_uris": {"android": "https://dc.lft.to/lastmile_qr_scan", "ios": "https://dc.lft.to/lastmile_qr_scan"}, "bike_id": "be55c189138c5373f47e4f976fb77c4c", "fusion_lon": 0.0, "fusion_lat": 0.0, "is_disabled": 0, "name": "be55c189138c5373f47e4f976fb77c4c", "type": "electric_scooter", "lon": -77.04496}, {"is_reserved": 0, "lat": 38.91108716666667, "rental_uris": {"android": "https://dc.lft.to/lastmile_qr_scan", "ios": "https://dc.lft.to/lastmile_qr_scan"}, "bike_id": "9798ee6d6ce72c6a41ae7c941586de0e", "fusion_lon": 0.0, "fusion_lat": 0.0, "is_disabled": 0, "name": "9798ee6d6ce72c6a41ae7c941586de0e", "type": "electric_scooter", "lon": -77.04308683333333}, {"is_reserved": 0, "lat": 38.9052065, "rental_uris": {"android": "https://dc.lft.to/lastmile_qr_scan", "ios": "https://dc.lft.to/lastmile_qr_scan"}, "bike_id": "bb27a3c85c870db81f805309cbe8b965", "fusion_lon": 0.0, "fusion_lat": 0.0, "is_disabled": 0, "name": "bb27a3c85c870db81f805309cbe8b965", "type": "electric_scooter", "lon": -77.04355433333333}, {"is_reserved": 0, "lat": 38.89923433333333, "rental_uris": {"android": "https://dc.lft.to/lastmile_qr_scan", "ios": "https://dc.lft.to/lastmile_qr_scan"}, "bike_id": "b533bfa004c4cd89c5f9c60bd23a55f2", "fusion_lon": 0.0, "fusion_lat": 0.0, "is_disabled": 0, "name": "b533bfa004c4cd89c5f9c60bd23a55f2", "type": "electric_scooter", "lon": -77.00356933333333}, {"is_reserved": 0, "lat": 38.922570666666665, "rental_uris": {"android": "https://dc.lft.to/lastmile_qr_scan", "ios": "https://dc.lft.to/lastmile_qr_scan"}, "bike_id": "a72186998c6b0be20271e150ea863199", "fusion_lon": 0.0, "fusion_lat": 0.0, "is_disabled": 0, "name": "a72186998c6b0be20271e150ea863199", "type": "electric_scooter", "lon": -77.04290316666666}, {"is_reserved": 0, "lat": 38.8998395, "rental_uris": {"android": "https://dc.lft.to/lastmile_qr_scan", "ios": "https://dc.lft.to/lastmile_qr_scan"}, "bike_id": "8b30f75c8645f19c31139130869edd02", "fusion_lon": 0.0, "fusion_lat": 0.0, "is_disabled": 0, "name": "8b30f75c8645f19c31139130869edd02", "type": "electric_scooter", "lon": -76.99263233333333}, {"is_reserved": 0, "lat": 38.90027283333333, "rental_uris": {"android": "https://dc.lft.to/lastmile_qr_scan", "ios": "https://dc.lft.to/lastmile_qr_scan"}, "bike_id": "6813b0ed10dc38c857a714fdc92a9003", "fusion_lon": 0.0, "fusion_lat": 0.0, "is_disabled": 0, "name": "6813b0ed10dc38c857a714fdc92a9003", "type": "electric_scooter", "lon": -77.04673966666667}, {"is_reserved": 0, "lat": 38.80492, "rental_uris": {"android": "https://dc.lft.to/lastmile_qr_scan", "ios": "https://dc.lft.to/lastmile_qr_scan"}, "bike_id": "5e4746f2dfb15fdbc07cc50d9bd369ad", "fusion_lon": 0.0, "fusion_lat": 0.0, "is_disabled": 0, "name": "5e4746f2dfb15fdbc07cc50d9bd369ad", "type": "electric_bike", "lon": -77.04126666666667}, {"is_reserved": 0, "lat": 38.91709633333333, "rental_uris": {"android": "https://dc.lft.to/lastmile_qr_scan", "ios": "https://dc.lft.to/lastmile_qr_scan"}, "bike_id": "3e93db0186d5db3922ec0d45f7838562", "fusion_lon": 0.0, "fusion_lat": 0.0, "is_disabled": 0, "name": "3e93db0186d5db3922ec0d45f7838562", "type": "electric_scooter", "lon": -77.025485}, {"is_reserved": 0, "lat": 38.90618033333333, "rental_uris": {"android": "https://dc.lft.to/lastmile_qr_scan", "ios": "https://dc.lft.to/lastmile_qr_scan"}, "bike_id": "5cd066ae3631fc7b6e37be894bfcd9e4", "fusion_lon": 0.0, "fusion_lat": 0.0, "is_disabled": 0, "name": "5cd066ae3631fc7b6e37be894bfcd9e4", "type": "electric_scooter", "lon": -77.02596866666667}, {"is_reserved": 0, "lat": 38.9134835, "rental_uris": {"android": "https://dc.lft.to/lastmile_qr_scan", "ios": "https://dc.lft.to/lastmile_qr_scan"}, "bike_id": "ba0733e2329e7124248e57ec6acd1f4b", "fusion_lon": 0.0, "fusion_lat": 0.0, "is_disabled": 0, "name": "ba0733e2329e7124248e57ec6acd1f4b", "type": "electric_scooter", "lon": -77.04405633333333}, {"is_reserved": 0, "lat": 38.925393666666665, "rental_uris": {"android": "https://dc.lft.to/lastmile_qr_scan", "ios": "https://dc.lft.to/lastmile_qr_scan"}, "bike_id": "a0767639a710c3aecc0abbc169bd72ce", "fusion_lon": 0.0, "fusion_lat": 0.0, "is_disabled": 0, "name": "a0767639a710c3aecc0abbc169bd72ce", "type": "electric_scooter", "lon": -77.03454516666666}, {"is_reserved": 0, "lat": 38.91178566666667, "rental_uris": {"android": "https://dc.lft.to/lastmile_qr_scan", "ios": "https://dc.lft.to/lastmile_qr_scan"}, "bike_id": "4fc4312e8e783c555ee3035eb283ae11", "fusion_lon": 0.0, "fusion_lat": 0.0, "is_disabled": 0, "name": "4fc4312e8e783c555ee3035eb283ae11", "type": "electric_scooter", "lon": -77.04834583333333}, {"is_reserved": 0, "lat": 38.9181865, "rental_uris": {"android": "https://dc.lft.to/lastmile_qr_scan", "ios": "https://dc.lft.to/lastmile_qr_scan"}, "bike_id": "93499d5b7f67f9f9268d4bdb055caeda", "fusion_lon": 0.0, "fusion_lat": 0.0, "is_disabled": 0, "name": "93499d5b7f67f9f9268d4bdb055caeda", "type": "electric_scooter", "lon": -77.041723}, {"is_reserved": 0, "lat": 38.875357, "rental_uris": {"android": "https://dc.lft.to/lastmile_qr_scan", "ios": "https://dc.lft.to/lastmile_qr_scan"}, "bike_id": "d8b1da64dc889c270b40dcf079fe1d75", "fusion_lon": 0.0, "fusion_lat": 0.0, "is_disabled": 0, "name": "d8b1da64dc889c270b40dcf079fe1d75", "type": "electric_scooter", "lon": -77.00063866666666}, {"is_reserved": 0, "lat": 38.81936233333333, "rental_uris": {"android": "https://dc.lft.to/lastmile_qr_scan", "ios": "https://dc.lft.to/lastmile_qr_scan"}, "bike_id": "e877b17003e02c4b26784822b4a8e03c", "fusion_lon": 0.0, "fusion_lat": 0.0, "is_disabled": 0, "name": "e877b17003e02c4b26784822b4a8e03c", "type": "electric_bike", "lon": -77.0020455}, {"is_reserved": 0, "lat": 38.91744633333333, "rental_uris": {"android": "https://dc.lft.to/lastmile_qr_scan", "ios": "https://dc.lft.to/lastmile_qr_scan"}, "bike_id": "cd96afbab9d3c5f5a30ef9a7cbcb17f5", "fusion_lon": 0.0, "fusion_lat": 0.0, "is_disabled": 0, "name": "cd96afbab9d3c5f5a30ef9a7cbcb17f5", "type": "electric_scooter", "lon": -77.02394766666667}, {"is_reserved": 0, "lat": 38.851958833333335, "rental_uris": {"android": "https://dc.lft.to/lastmile_qr_scan", "ios": "https://dc.lft.to/lastmile_qr_scan"}, "bike_id": "f3a8e84c9f899a73077e32be9202a45e", "fusion_lon": 0.0, "fusion_lat": 0.0, "is_disabled": 0, "name": "f3a8e84c9f899a73077e32be9202a45e", "type": "electric_scooter", "lon": -76.97631866666667}, {"is_reserved": 0, "lat": 38.917981166666664, "rental_uris": {"android": "https://dc.lft.to/lastmile_qr_scan", "ios": "https://dc.lft.to/lastmile_qr_scan"}, "bike_id": "e7c63e4569e9a0a73bf0f737214c3284", "fusion_lon": 0.0, "fusion_lat": 0.0, "is_disabled": 0, "name": "e7c63e4569e9a0a73bf0f737214c3284", "type": "electric_scooter", "lon": -77.023108}, {"is_reserved": 0, "lat": 38.90005983333333, "rental_uris": {"android": "https://dc.lft.to/lastmile_qr_scan", "ios": "https://dc.lft.to/lastmile_qr_scan"}, "bike_id": "26115e96ef1c0194f467e552f9366477", "fusion_lon": 0.0, "fusion_lat": 0.0, "is_disabled": 0, "name": "26115e96ef1c0194f467e552f9366477", "type": "electric_scooter", "lon": -77.046762}, {"is_reserved": 0, "lat": 38.91476516666667, "rental_uris": {"android": "https://dc.lft.to/lastmile_qr_scan", "ios": "https://dc.lft.to/lastmile_qr_scan"}, "bike_id": "738924b87a98c37d0d8a1d847e3be7ef", "fusion_lon": 0.0, "fusion_lat": 0.0, "is_disabled": 0, "name": "738924b87a98c37d0d8a1d847e3be7ef", "type": "electric_scooter", "lon": -77.04606966666667}, {"is_reserved": 0, "lat": 38.94551833333333, "rental_uris": {"android": "https://dc.lft.to/lastmile_qr_scan", "ios": "https://dc.lft.to/lastmile_qr_scan"}, "bike_id": "1d930d580fa9a4a80f97947ea2ce1c34", "fusion_lon": 0.0, "fusion_lat": 0.0, "is_disabled": 0, "name": "1d930d580fa9a4a80f97947ea2ce1c34", "type": "electric_bike", "lon": -76.895398}, {"is_reserved": 0, "lat": 38.92586283333333, "rental_uris": {"android": "https://dc.lft.to/lastmile_qr_scan", "ios": "https://dc.lft.to/lastmile_qr_scan"}, "bike_id": "bccad6ce7396485034d4ed9ab88f6e60", "fusion_lon": 0.0, "fusion_lat": 0.0, "is_disabled": 0, "name": "bccad6ce7396485034d4ed9ab88f6e60", "type": "electric_scooter", "lon": -77.04415766666666}, {"is_reserved": 0, "lat": 38.890684, "rental_uris": {"android": "https://dc.lft.to/lastmile_qr_scan", "ios": "https://dc.lft.to/lastmile_qr_scan"}, "bike_id": "15671666e493041e412ad943be3d36fb", "fusion_lon": 0.0, "fusion_lat": 0.0, "is_disabled": 0, "name": "15671666e493041e412ad943be3d36fb", "type": "electric_scooter", "lon": -76.98835633333333}, {"is_reserved": 0, "lat": 38.9160045, "rental_uris": {"android": "https://dc.lft.to/lastmile_qr_scan", "ios": "https://dc.lft.to/lastmile_qr_scan"}, "bike_id": "406ca6457abd530733e3f80dfd242756", "fusion_lon": 0.0, "fusion_lat": 0.0, "is_disabled": 0, "name": "406ca6457abd530733e3f80dfd242756", "type": "electric_scooter", "lon": -77.0417205}, {"is_reserved": 0, "lat": 38.86506633333333, "rental_uris": {"android": "https://dc.lft.to/lastmile_qr_scan", "ios": "https://dc.lft.to/lastmile_qr_scan"}, "bike_id": "dcb0b138464e4f1ca7995b021a2b094a", "fusion_lon": 0.0, "fusion_lat": 0.0, "is_disabled": 0, "name": "dcb0b138464e4f1ca7995b021a2b094a", "type": "electric_scooter", "lon": -76.989787}, {"is_reserved": 0, "lat": 38.93254116666667, "rental_uris": {"android": "https://dc.lft.to/lastmile_qr_scan", "ios": "https://dc.lft.to/lastmile_qr_scan"}, "bike_id": "ef408bd4f1ba4ef370c57b7a4ed402f4", "fusion_lon": 0.0, "fusion_lat": 0.0, "is_disabled": 0, "name": "ef408bd4f1ba4ef370c57b7a4ed402f4", "type": "electric_scooter", "lon": -77.03270616666667}, {"is_reserved": 0, "lat": 38.91681483333333, "rental_uris": {"android": "https://dc.lft.to/lastmile_qr_scan", "ios": "https://dc.lft.to/lastmile_qr_scan"}, "bike_id": "315b64dd652e80b467b17faaeb70622c", "fusion_lon": 0.0, "fusion_lat": 0.0, "is_disabled": 0, "name": "315b64dd652e80b467b17faaeb70622c", "type": "electric_scooter", "lon": -77.02290616666667}, {"is_reserved": 0, "lat": 38.89973883333333, "rental_uris": {"android": "https://dc.lft.to/lastmile_qr_scan", "ios": "https://dc.lft.to/lastmile_qr_scan"}, "bike_id": "4972b7e71a587223c7c3978e213555b8", "fusion_lon": 0.0, "fusion_lat": 0.0, "is_disabled": 0, "name": "4972b7e71a587223c7c3978e213555b8", "type": "electric_scooter", "lon": -77.03070916666667}, {"is_reserved": 0, "lat": 38.918155166666665, "rental_uris": {"android": "https://dc.lft.to/lastmile_qr_scan", "ios": "https://dc.lft.to/lastmile_qr_scan"}, "bike_id": "2bd7db5be0211b1939ebb486e6c872b5", "fusion_lon": 0.0, "fusion_lat": 0.0, "is_disabled": 0, "name": "2bd7db5be0211b1939ebb486e6c872b5", "type": "electric_scooter", "lon": -77.03456833333334}, {"is_reserved": 0, "lat": 38.90515833333333, "rental_uris": {"android": "https://dc.lft.to/lastmile_qr_scan", "ios": "https://dc.lft.to/lastmile_qr_scan"}, "bike_id": "ec3d4881660a378fd9791e6fad518bf4", "fusion_lon": 0.0, "fusion_lat": 0.0, "is_disabled": 0, "name": "ec3d4881660a378fd9791e6fad518bf4", "type": "electric_scooter", "lon": -77.06192433333334}, {"is_reserved": 0, "lat": 38.9063215, "rental_uris": {"android": "https://dc.lft.to/lastmile_qr_scan", "ios": "https://dc.lft.to/lastmile_qr_scan"}, "bike_id": "04898a2c4cadbdf59f8fb6f208203fea", "fusion_lon": 0.0, "fusion_lat": 0.0, "is_disabled": 0, "name": "04898a2c4cadbdf59f8fb6f208203fea", "type": "electric_scooter", "lon": -77.03442216666667}, {"is_reserved": 0, "lat": 38.931895833333336, "rental_uris": {"android": "https://dc.lft.to/lastmile_qr_scan", "ios": "https://dc.lft.to/lastmile_qr_scan"}, "bike_id": "f755e83dd5eada0fdaf0922f995973ba", "fusion_lon": 0.0, "fusion_lat": 0.0, "is_disabled": 0, "name": "f755e83dd5eada0fdaf0922f995973ba", "type": "electric_bike", "lon": -77.02831533333334}, {"is_reserved": 0, "lat": 39.03428483333333, "rental_uris": {"android": "https://dc.lft.to/lastmile_qr_scan", "ios": "https://dc.lft.to/lastmile_qr_scan"}, "bike_id": "a4488c0e0006ebbb6e6baf8a091cc6d6", "fusion_lon": 0.0, "fusion_lat": 0.0, "is_disabled": 0, "name": "a4488c0e0006ebbb6e6baf8a091cc6d6", "type": "electric_bike", "lon": -77.04243616666666}, {"is_reserved": 0, "lat": 38.93424816666667, "rental_uris": {"android": "https://dc.lft.to/lastmile_qr_scan", "ios": "https://dc.lft.to/lastmile_qr_scan"}, "bike_id": "1b1d59596785990607dce50a7a87f2ea", "fusion_lon": 0.0, "fusion_lat": 0.0, "is_disabled": 0, "name": "1b1d59596785990607dce50a7a87f2ea", "type": "electric_scooter", "lon": -77.039987}, {"is_reserved": 0, "lat": 38.898984, "rental_uris": {"android": "https://dc.lft.to/lastmile_qr_scan", "ios": "https://dc.lft.to/lastmile_qr_scan"}, "bike_id": "002a78662f447de6016bf24127f00ac0", "fusion_lon": 0.0, "fusion_lat": 0.0, "is_disabled": 0, "name": "002a78662f447de6016bf24127f00ac0", "type": "electric_scooter", "lon": -77.01519483333334}, {"is_reserved": 0, "lat": 38.8934735, "rental_uris": {"android": "https://dc.lft.to/lastmile_qr_scan", "ios": "https://dc.lft.to/lastmile_qr_scan"}, "bike_id": "a9128a5c842a54f0bc547feb05b46a79", "fusion_lon": 0.0, "fusion_lat": 0.0, "is_disabled": 0, "name": "a9128a5c842a54f0bc547feb05b46a79", "type": "electric_scooter", "lon": -77.04138416666666}, {"is_reserved": 0, "lat": 38.876005666666664, "rental_uris": {"android": "https://dc.lft.to/lastmile_qr_scan", "ios": "https://dc.lft.to/lastmile_qr_scan"}, "bike_id": "d3f335e817f5552f48fc717a911558e2", "fusion_lon": 0.0, "fusion_lat": 0.0, "is_disabled": 0, "name": "d3f335e817f5552f48fc717a911558e2", "type": "electric_scooter", "lon": -77.00070816666667}, {"is_reserved": 0, "lat": 38.9305595, "rental_uris": {"android": "https://dc.lft.to/lastmile_qr_scan", "ios": "https://dc.lft.to/lastmile_qr_scan"}, "bike_id": "cf9a52f97292378f58016db589baf6eb", "fusion_lon": 0.0, "fusion_lat": 0.0, "is_disabled": 0, "name": "cf9a52f97292378f58016db589baf6eb", "type": "electric_scooter", "lon": -77.04025533333333}, {"is_reserved": 0, "lat": 38.918509, "rental_uris": {"android": "https://dc.lft.to/lastmile_qr_scan", "ios": "https://dc.lft.to/lastmile_qr_scan"}, "bike_id": "ed73cb135f907dde8106ef0d42e0dce8", "fusion_lon": 0.0, "fusion_lat": 0.0, "is_disabled": 0, "name": "ed73cb135f907dde8106ef0d42e0dce8", "type": "electric_scooter", "lon": -76.96533833333334}, {"is_reserved": 0, "lat": 38.922532833333335, "rental_uris": {"android": "https://dc.lft.to/lastmile_qr_scan", "ios": "https://dc.lft.to/lastmile_qr_scan"}, "bike_id": "7cd8dc6f1e1cb9103e1421121eef71fe", "fusion_lon": 0.0, "fusion_lat": 0.0, "is_disabled": 0, "name": "7cd8dc6f1e1cb9103e1421121eef71fe", "type": "electric_scooter", "lon": -77.035238}, {"is_reserved": 0, "lat": 38.900052, "rental_uris": {"android": "https://dc.lft.to/lastmile_qr_scan", "ios": "https://dc.lft.to/lastmile_qr_scan"}, "bike_id": "d7f287d70925ab0df63f7d0a64b9603c", "fusion_lon": 0.0, "fusion_lat": 0.0, "is_disabled": 0, "name": "d7f287d70925ab0df63f7d0a64b9603c", "type": "electric_scooter", "lon": -77.0337455}, {"is_reserved": 0, "lat": 38.92402583333333, "rental_uris": {"android": "https://dc.lft.to/lastmile_qr_scan", "ios": "https://dc.lft.to/lastmile_qr_scan"}, "bike_id": "2431b3cc0c74def30ace28f1f54f0ec9", "fusion_lon": 0.0, "fusion_lat": 0.0, "is_disabled": 0, "name": "2431b3cc0c74def30ace28f1f54f0ec9", "type": "electric_scooter", "lon": -77.02544033333334}, {"is_reserved": 0, "lat": 38.8900695, "rental_uris": {"android": "https://dc.lft.to/lastmile_qr_scan", "ios": "https://dc.lft.to/lastmile_qr_scan"}, "bike_id": "fc47e5f60b26b24af636668863ebb83e", "fusion_lon": 0.0, "fusion_lat": 0.0, "is_disabled": 0, "name": "fc47e5f60b26b24af636668863ebb83e", "type": "electric_scooter", "lon": -76.93741733333333}, {"is_reserved": 0, "lat": 38.923143333333336, "rental_uris": {"android": "https://dc.lft.to/lastmile_qr_scan", "ios": "https://dc.lft.to/lastmile_qr_scan"}, "bike_id": "52aa200f138fea4e2c90b1e03c59943c", "fusion_lon": 0.0, "fusion_lat": 0.0, "is_disabled": 0, "name": "52aa200f138fea4e2c90b1e03c59943c", "type": "electric_scooter", "lon": -77.03657216666667}, {"is_reserved": 0, "lat": 38.91915866666667, "rental_uris": {"android": "https://dc.lft.to/lastmile_qr_scan", "ios": "https://dc.lft.to/lastmile_qr_scan"}, "bike_id": "b2a90500363b231cc486b4aacc4960ca", "fusion_lon": 0.0, "fusion_lat": 0.0, "is_disabled": 0, "name": "b2a90500363b231cc486b4aacc4960ca", "type": "electric_scooter", "lon": -77.0317805}, {"is_reserved": 0, "lat": 38.9206485, "rental_uris": {"android": "https://dc.lft.to/lastmile_qr_scan", "ios": "https://dc.lft.to/lastmile_qr_scan"}, "bike_id": "ab7e8212e46f423baef7cb220ec63926", "fusion_lon": 0.0, "fusion_lat": 0.0, "is_disabled": 0, "name": "ab7e8212e46f423baef7cb220ec63926", "type": "electric_scooter", "lon": -77.03199916666667}, {"is_reserved": 0, "lat": 38.918982666666665, "rental_uris": {"android": "https://dc.lft.to/lastmile_qr_scan", "ios": "https://dc.lft.to/lastmile_qr_scan"}, "bike_id": "9f17c99f822976807fce6ba19430fa72", "fusion_lon": 0.0, "fusion_lat": 0.0, "is_disabled": 0, "name": "9f17c99f822976807fce6ba19430fa72", "type": "electric_scooter", "lon": -77.02455966666666}, {"is_reserved": 0, "lat": 38.98647833333333, "rental_uris": {"android": "https://dc.lft.to/lastmile_qr_scan", "ios": "https://dc.lft.to/lastmile_qr_scan"}, "bike_id": "5da862034adeda824d0a8735961669da", "fusion_lon": 0.0, "fusion_lat": 0.0, "is_disabled": 0, "name": "5da862034adeda824d0a8735961669da", "type": "electric_bike", "lon": -77.05634783333333}, {"is_reserved": 0, "lat": 38.905571, "rental_uris": {"android": "https://dc.lft.to/lastmile_qr_scan", "ios": "https://dc.lft.to/lastmile_qr_scan"}, "bike_id": "b3a7da97efb3e40e5cc4f506281370a4", "fusion_lon": 0.0, "fusion_lat": 0.0, "is_disabled": 0, "name": "b3a7da97efb3e40e5cc4f506281370a4", "type": "electric_scooter", "lon": -77.02795266666666}, {"is_reserved": 0, "lat": 38.931941, "rental_uris": {"android": "https://dc.lft.to/lastmile_qr_scan", "ios": "https://dc.lft.to/lastmile_qr_scan"}, "bike_id": "ba30747210733d283e55bf2b0b6e0128", "fusion_lon": 0.0, "fusion_lat": 0.0, "is_disabled": 0, "name": "ba30747210733d283e55bf2b0b6e0128", "type": "electric_scooter", "lon": -77.028311}, {"is_reserved": 0, "lat": 38.9229515, "rental_uris": {"android": "https://dc.lft.to/lastmile_qr_scan", "ios": "https://dc.lft.to/lastmile_qr_scan"}, "bike_id": "8820b22a60d048ea604f4326b54dcab6", "fusion_lon": 0.0, "fusion_lat": 0.0, "is_disabled": 0, "name": "8820b22a60d048ea604f4326b54dcab6", "type": "electric_scooter", "lon": -77.038894}, {"is_reserved": 0, "lat": 38.9110525, "rental_uris": {"android": "https://dc.lft.to/lastmile_qr_scan", "ios": "https://dc.lft.to/lastmile_qr_scan"}, "bike_id": "194f2f3eddad45a89181df26f73ea9b1", "fusion_lon": 0.0, "fusion_lat": 0.0, "is_disabled": 0, "name": "194f2f3eddad45a89181df26f73ea9b1", "type": "electric_scooter", "lon": -77.06607716666667}, {"is_reserved": 0, "lat": 38.91797833333333, "rental_uris": {"android": "https://dc.lft.to/lastmile_qr_scan", "ios": "https://dc.lft.to/lastmile_qr_scan"},