{"data": {"bikes": [{"bike_id": "637e622f978325c90534017dd3de9033", "fusion_lon": 0.0, "lon": -77.0390625, "name": "637e622f978325c90534017dd3de9033", "is_disabled": 0, "rental_uris": {"android": "https://dc.lft.to/lastmile_qr_scan", "ios": "https://dc.lft.to/lastmile_qr_scan"}, "type": "electric_scooter", "lat": 38.924746666666664, "is_reserved": 0, "fusion_lat": 0.0}, {"bike_id": "04ce775f780818426732286b14064a3e", "fusion_lon": 0.0, "lon": -77.05005266666667, "name": "04ce775f780818426732286b14064a3e", "is_disabled": 0, "rental_uris": {"android": "https://dc.lft.to/lastmile_qr_scan", "ios": "https://dc.lft.to/lastmile_qr_scan"}, "type": "electric_bike", "lat": 39.039017333333334, "is_reserved": 0, "fusion_lat": 0.0}, {"bike_id": "83dc83d2b1567a25153d99f065d821db", "fusion_lon": 0.0, "lon": -77.06866433333333, "name": "83dc83d2b1567a25153d99f065d821db", "is_disabled": 0, "rental_uris": {"android": "https://dc.lft.to/lastmile_qr_scan", "ios": "https://dc.lft.to/lastmile_qr_scan"}, "type": "electric_bike", "lat": 38.805819666666665, "is_reserved": 0, "fusion_lat": 0.0}, {"bike_id": "627b1ca0999e6744ca8d5a1232aa993f", "fusion_lon": 0.0, "lon": -76.93157216666667, "name": "627b1ca0999e6744ca8d5a1232aa993f", "is_disabled": 0, "rental_uris": {"android": "https://dc.lft.to/lastmile_qr_scan", "ios": "https://dc.lft.to/lastmile_qr_scan"}, "type": "electric_scooter", "lat": 38.89885366666667, "is_reserved": 0, "fusion_lat": 0.0}, {"bike_id": "c829a4a23df6b97d75cc9b47f42794d6", "fusion_lon": 0.0, "lon": -77.03363033333333, "name": "c829a4a23df6b97d75cc9b47f42794d6", "is_disabled": 0, "rental_uris": {"android": "https://dc.lft.to/lastmile_qr_scan", "ios": "https://dc.lft.to/lastmile_qr_scan"}, "type": "electric_scooter", "lat": 38.9418735, "is_reserved": 0, "fusion_lat": 0.0}, {"bike_id": "d6a9376f0c211068969d4be3dcce6c6f", "fusion_lon": 0.0, "lon": -77.01201, "name": "d6a9376f0c211068969d4be3dcce6c6f", "is_disabled": 0, "rental_uris": {"android": "https://dc.lft.to/lastmile_qr_scan", "ios": "https://dc.lft.to/lastmile_qr_scan"}, "type": "electric_scooter", "lat": 38.90016466666667, "is_reserved": 0, "fusion_lat": 0.0}, {"bike_id": "90d1844d5d49aec3443b1c6d5ef82188", "fusion_lon": 0.0, "lon": -77.02579283333333, "name": "90d1844d5d49aec3443b1c6d5ef82188", "is_disabled": 0, "rental_uris": {"android": "https://dc.lft.to/lastmile_qr_scan", "ios": "https://dc.lft.to/lastmile_qr_scan"}, "type": "electric_scooter", "lat": 38.892321, "is_reserved": 0, "fusion_lat": 0.0}, {"bike_id": "e12defe34b57e2626be3c3df30a9bc78", "fusion_lon": 0.0, "lon": -76.987989, "name": "e12defe34b57e2626be3c3df30a9bc78", "is_disabled": 0, "rental_uris": {"android": "https://dc.lft.to/lastmile_qr_scan", "ios": "https://dc.lft.to/lastmile_qr_scan"}, "type": "electric_bike", "lat": 38.92213133333333, "is_reserved": 0, "fusion_lat": 0.0}, {"bike_id": "c5c7df2b3f0e6e7063ce24ff3e4ff4dc", "fusion_lon": 0.0, "lon": -76.927431, "name": "c5c7df2b3f0e6e7063ce24ff3e4ff4dc", "is_disabled": 0, "rental_uris": {"android": "https://dc.lft.to/lastmile_qr_scan", "ios": "https://dc.lft.to/lastmile_qr_scan"}, "type": "electric_scooter", "lat": 38.889705, "is_reserved": 0, "fusion_lat": 0.0}, {"bike_id": "99a7a7eb62246d873ba83cc5c9e04842", "fusion_lon": 0.0, "lon": -77.02331766666667, "name": "99a7a7eb62246d873ba83cc5c9e04842", "is_disabled": 0, "rental_uris": {"android": "https://dc.lft.to/lastmile_qr_scan", "ios": "https://dc.lft.to/lastmile_qr_scan"}, "type": "electric_scooter", "lat": 38.92892366666667, "is_reserved": 0, "fusion_lat": 0.0}, {"bike_id": "3efaf79390a42a09ca38bf489a0bc047", "fusion_lon": 0.0, "lon": -76.985059, "name": "3efaf79390a42a09ca38bf489a0bc047", "is_disabled": 0, "rental_uris": {"android": "https://dc.lft.to/lastmile_qr_scan", "ios": "https://dc.lft.to/lastmile_qr_scan"}, "type": "electric_scooter", "lat": 38.8666065, "is_reserved": 0, "fusion_lat": 0.0}, {"bike_id": "a3fa18d899e923349afb8cce1db5fdd6", "fusion_lon": 0.0, "lon": -77.02691583333333, "name": "a3fa18d899e923349afb8cce1db5fdd6", "is_disabled": 0, "rental_uris": {"android": "https://dc.lft.to/lastmile_qr_scan", "ios": "https://dc.lft.to/lastmile_qr_scan"}, "type": "electric_scooter", "lat": 38.8813285, "is_reserved": 0, "fusion_lat": 0.0}, {"bike_id": "e6352d4f9a66c29becd3d70f045bcd59", "fusion_lon": 0.0, "lon": -77.023265, "name": "e6352d4f9a66c29becd3d70f045bcd59", "is_disabled": 0, "rental_uris": {"android": "https://dc.lft.to/lastmile_qr_scan", "ios": "https://dc.lft.to/lastmile_qr_scan"}, "type": "electric_scooter", "lat": 38.90732583333333, "is_reserved": 0, "fusion_lat": 0.0}, {"bike_id": "b82c3d9494e7d6dc343610c4dc82b862", "fusion_lon": 0.0, "lon": -77.019422, "name": "b82c3d9494e7d6dc343610c4dc82b862", "is_disabled": 0, "rental_uris": {"android": "https://dc.lft.to/lastmile_qr_scan", "ios": "https://dc.lft.to/lastmile_qr_scan"}, "type": "electric_scooter", "lat": 38.947047, "is_reserved": 0, "fusion_lat": 0.0}, {"bike_id": "f9e38926902ba8f4e03aa2d041e488e1", "fusion_lon": 0.0, "lon": -77.021864, "name": "f9e38926902ba8f4e03aa2d041e488e1", "is_disabled": 0, "rental_uris": {"android": "https://dc.lft.to/lastmile_qr_scan", "ios": "https://dc.lft.to/lastmile_qr_scan"}, "type": "electric_scooter", "lat": 38.91068816666667, "is_reserved": 0, "fusion_lat": 0.0}, {"bike_id": "a228f88a756de586b7d85b22e631ab76", "fusion_lon": 0.0, "lon": -77.04404, "name": "a228f88a756de586b7d85b22e631ab76", "is_disabled": 0, "rental_uris": {"android": "https://dc.lft.to/lastmile_qr_scan", "ios": "https://dc.lft.to/lastmile_qr_scan"}, "type": "electric_scooter", "lat": 38.91121666666667, "is_reserved": 0, "fusion_lat": 0.0}, {"bike_id": "72d3ff52b1af832a1b8b9eac752355dc", "fusion_lon": 0.0, "lon": -77.03208266666667, "name": "72d3ff52b1af832a1b8b9eac752355dc", "is_disabled": 0, "rental_uris": {"android": "https://dc.lft.to/lastmile_qr_scan", "ios": "https://dc.lft.to/lastmile_qr_scan"}, "type": "electric_scooter", "lat": 38.91752133333333, "is_reserved": 0, "fusion_lat": 0.0}, {"bike_id": "04294ff069dfd7bd7978fde3c54c4ebb", "fusion_lon": 0.0, "lon": -77.01538733333334, "name": "04294ff069dfd7bd7978fde3c54c4ebb", "is_disabled": 0, "rental_uris": {"android": "https://dc.lft.to/lastmile_qr_scan", "ios": "https://dc.lft.to/lastmile_qr_scan"}, "type": "electric_scooter", "lat": 38.887477, "is_reserved": 0, "fusion_lat": 0.0}, {"bike_id": "bc6c8c0ac678bbe4db72dfa6d4ec4489", "fusion_lon": 0.0, "lon": -77.034485, "name": "bc6c8c0ac678bbe4db72dfa6d4ec4489", "is_disabled": 0, "rental_uris": {"android": "https://dc.lft.to/lastmile_qr_scan", "ios": "https://dc.lft.to/lastmile_qr_scan"}, "type": "electric_scooter", "lat": 38.90955066666667, "is_reserved": 0, "fusion_lat": 0.0}, {"bike_id": "d18954f21b82bbefe23562c446fd5e0f", "fusion_lon": 0.0, "lon": -77.0178705, "name": "d18954f21b82bbefe23562c446fd5e0f", "is_disabled": 0, "rental_uris": {"android": "https://dc.lft.to/lastmile_qr_scan", "ios": "https://dc.lft.to/lastmile_qr_scan"}, "type": "electric_scooter", "lat": 38.911206666666665, "is_reserved": 0, "fusion_lat": 0.0}, {"bike_id": "4fc767d51f630eec25abb5de9f4c218c", "fusion_lon": 0.0, "lon": -77.00338116666667, "name": "4fc767d51f630eec25abb5de9f4c218c", "is_disabled": 0, "rental_uris": {"android": "https://dc.lft.to/lastmile_qr_scan", "ios": "https://dc.lft.to/lastmile_qr_scan"}, "type": "electric_scooter", "lat": 38.891852166666666, "is_reserved": 0, "fusion_lat": 0.0}, {"bike_id": "850a36199b0153431f5882c0e3303633", "fusion_lon": 0.0, "lon": -77.08191033333334, "name": "850a36199b0153431f5882c0e3303633", "is_disabled": 0, "rental_uris": {"android": "https://dc.lft.to/lastmile_qr_scan", "ios": "https://dc.lft.to/lastmile_qr_scan"}, "type": "electric_scooter", "lat": 38.9354825, "is_reserved": 0, "fusion_lat": 0.0}, {"bike_id": "3b07fc6e419d941528eeb6e9f28eb412", "fusion_lon": 0.0, "lon": -77.04554916666666, "name": "3b07fc6e419d941528eeb6e9f28eb412", "is_disabled": 0, "rental_uris": {"android": "https://dc.lft.to/lastmile_qr_scan", "ios": "https://dc.lft.to/lastmile_qr_scan"}, "type": "electric_scooter", "lat": 38.917744, "is_reserved": 0, "fusion_lat": 0.0}, {"bike_id": "94ee6aa56fc5bbb14b880f7b8ade35c2", "fusion_lon": 0.0, "lon": -77.03855933333334, "name": "94ee6aa56fc5bbb14b880f7b8ade35c2", "is_disabled": 0, "rental_uris": {"android": "https://dc.lft.to/lastmile_qr_scan", "ios": "https://dc.lft.to/lastmile_qr_scan"}, "type": "electric_scooter", "lat": 38.908286833333335, "is_reserved": 0, "fusion_lat": 0.0}, {"bike_id": "915757d0da92d5aa945fede32754db43", "fusion_lon": 0.0, "lon": -77.019847, "name": "915757d0da92d5aa945fede32754db43", "is_disabled": 0, "rental_uris": {"android": "https://dc.lft.to/lastmile_qr_scan", "ios": "https://dc.lft.to/lastmile_qr_scan"}, "type": "electric_scooter", "lat": 38.8862385, "is_reserved": 0, "fusion_lat": 0.0}, {"bike_id": "f5400b25784ec72b1ce93373abce81db", "fusion_lon": 0.0, "lon": -77.02889683333333, "name": "f5400b25784ec72b1ce93373abce81db", "is_disabled": 0, "rental_uris": {"android": "https://dc.lft.to/lastmile_qr_scan", "ios": "https://dc.lft.to/lastmile_qr_scan"}, "type": "electric_scooter", "lat": 38.89854316666667, "is_reserved": 0, "fusion_lat": 0.0}, {"bike_id": "1bc40e19452bf7efe1b6315ac90cf618", "fusion_lon": 0.0, "lon": -77.0200115, "name": "1bc40e19452bf7efe1b6315ac90cf618", "is_disabled": 0, "rental_uris": {"android": "https://dc.lft.to/lastmile_qr_scan", "ios": "https://dc.lft.to/lastmile_qr_scan"}, "type": "electric_scooter", "lat": 38.895694166666665, "is_reserved": 0, "fusion_lat": 0.0}, {"bike_id": "b95c45b5d70ca8ae0f23ba69bc3d5dad", "fusion_lon": 0.0, "lon": -77.01346266666667, "name": "b95c45b5d70ca8ae0f23ba69bc3d5dad", "is_disabled": 0, "rental_uris": {"android": "https://dc.lft.to/lastmile_qr_scan", "ios": "https://dc.lft.to/lastmile_qr_scan"}, "type": "electric_scooter", "lat": 38.89923433333333, "is_reserved": 0, "fusion_lat": 0.0}, {"bike_id": "7e23c5bdfdfc7dc5e4524aa0dc344541", "fusion_lon": 0.0, "lon": -77.0236585, "name": "7e23c5bdfdfc7dc5e4524aa0dc344541", "is_disabled": 0, "rental_uris": {"android": "https://dc.lft.to/lastmile_qr_scan", "ios": "https://dc.lft.to/lastmile_qr_scan"}, "type": "electric_scooter", "lat": 38.91958616666667, "is_reserved": 0, "fusion_lat": 0.0}, {"bike_id": "8f76faf62aa97734ef4338a5e7425957", "fusion_lon": 0.0, "lon": -77.0035695, "name": "8f76faf62aa97734ef4338a5e7425957", "is_disabled": 0, "rental_uris": {"android": "https://dc.lft.to/lastmile_qr_scan", "ios": "https://dc.lft.to/lastmile_qr_scan"}, "type": "electric_scooter", "lat": 38.902432, "is_reserved": 0, "fusion_lat": 0.0}, {"bike_id": "cd9d9adb992e5ae7bccff522430feb07", "fusion_lon": 0.0, "lon": -77.04679983333334, "name": "cd9d9adb992e5ae7bccff522430feb07", "is_disabled": 0, "rental_uris": {"android": "https://dc.lft.to/lastmile_qr_scan", "ios": "https://dc.lft.to/lastmile_qr_scan"}, "type": "electric_scooter", "lat": 38.905973, "is_reserved": 0, "fusion_lat": 0.0}, {"bike_id": "df460d330fc5b645130f885c05bdf7cf", "fusion_lon": 0.0, "lon": -77.04467016666666, "name": "df460d330fc5b645130f885c05bdf7cf", "is_disabled": 0, "rental_uris": {"android": "https://dc.lft.to/lastmile_qr_scan", "ios": "https://dc.lft.to/lastmile_qr_scan"}, "type": "electric_scooter", "lat": 38.895375666666666, "is_reserved": 0, "fusion_lat": 0.0}, {"bike_id": "22adc9b87cf0cc588da417baf35c5ae7", "fusion_lon": 0.0, "lon": -77.03188333333334, "name": "22adc9b87cf0cc588da417baf35c5ae7", "is_disabled": 0, "rental_uris": {"android": "https://dc.lft.to/lastmile_qr_scan", "ios": "https://dc.lft.to/lastmile_qr_scan"}, "type": "electric_scooter", "lat": 38.919396166666665, "is_reserved": 0, "fusion_lat": 0.0}, {"bike_id": "4f2ec9d32858d6d0b2cd6b421ae850a4", "fusion_lon": 0.0, "lon": -77.0446385, "name": "4f2ec9d32858d6d0b2cd6b421ae850a4", "is_disabled": 0, "rental_uris": {"android": "https://dc.lft.to/lastmile_qr_scan", "ios": "https://dc.lft.to/lastmile_qr_scan"}, "type": "electric_scooter", "lat": 38.91855133333333, "is_reserved": 0, "fusion_lat": 0.0}, {"bike_id": "b0a7cc7e015514924c0fbf90ec57b4ba", "fusion_lon": 0.0, "lon": -77.07013383333333, "name": "b0a7cc7e015514924c0fbf90ec57b4ba", "is_disabled": 0, "rental_uris": {"android": "https://dc.lft.to/lastmile_qr_scan", "ios": "https://dc.lft.to/lastmile_qr_scan"}, "type": "electric_bike", "lat": 38.927729666666664, "is_reserved": 0, "fusion_lat": 0.0}, {"bike_id": "02a922080db249016d8450266694f003", "fusion_lon": 0.0, "lon": -77.0354985, "name": "02a922080db249016d8450266694f003", "is_disabled": 0, "rental_uris": {"android": "https://dc.lft.to/lastmile_qr_scan", "ios": "https://dc.lft.to/lastmile_qr_scan"}, "type": "electric_scooter", "lat": 38.9286405, "is_reserved": 0, "fusion_lat": 0.0}, {"bike_id": "3e3c40ca18e467a134fa9561247790b8", "fusion_lon": 0.0, "lon": -77.03289316666667, "name": "3e3c40ca18e467a134fa9561247790b8", "is_disabled": 0, "rental_uris": {"android": "https://dc.lft.to/lastmile_qr_scan", "ios": "https://dc.lft.to/lastmile_qr_scan"}, "type": "electric_scooter", "lat": 38.920530666666664, "is_reserved": 0, "fusion_lat": 0.0}, {"bike_id": "d90f3963951fff11dff749aa9bba45ff", "fusion_lon": 0.0, "lon": -77.0393195, "name": "d90f3963951fff11dff749aa9bba45ff", "is_disabled": 0, "rental_uris": {"android": "https://dc.lft.to/lastmile_qr_scan", "ios": "https://dc.lft.to/lastmile_qr_scan"}, "type": "electric_scooter", "lat": 38.92495066666667, "is_reserved": 0, "fusion_lat": 0.0}, {"bike_id": "2097e3bb9ac19530325526123cef1c58", "fusion_lon": 0.0, "lon": -76.9837875, "name": "2097e3bb9ac19530325526123cef1c58", "is_disabled": 0, "rental_uris": {"android": "https://dc.lft.to/lastmile_qr_scan", "ios": "https://dc.lft.to/lastmile_qr_scan"}, "type": "electric_scooter", "lat": 38.88596666666667, "is_reserved": 0, "fusion_lat": 0.0}, {"bike_id": "63d9a2429a8d76cacc4863b67f585c2c", "fusion_lon": 0.0, "lon": -77.03158316666666, "name": "63d9a2429a8d76cacc4863b67f585c2c", "is_disabled": 0, "rental_uris": {"android": "https://dc.lft.to/lastmile_qr_scan", "ios": "https://dc.lft.to/lastmile_qr_scan"}, "type": "electric_bike", "lat": 38.99953633333333, "is_reserved": 0, "fusion_lat": 0.0}, {"bike_id": "0e3aa6104a5246c630497aa22d31fda7", "fusion_lon": 0.0, "lon": -77.03409016666667, "name": "0e3aa6104a5246c630497aa22d31fda7", "is_disabled": 0, "rental_uris": {"android": "https://dc.lft.to/lastmile_qr_scan", "ios": "https://dc.lft.to/lastmile_qr_scan"}, "type": "electric_scooter", "lat": 38.928548666666664, "is_reserved": 0, "fusion_lat": 0.0}, {"bike_id": "1205a0b130229d9a00b9c99fbd84909a", "fusion_lon": 0.0, "lon": -77.01666683333333, "name": "1205a0b130229d9a00b9c99fbd84909a", "is_disabled": 0, "rental_uris": {"android": "https://dc.lft.to/lastmile_qr_scan", "ios": "https://dc.lft.to/lastmile_qr_scan"}, "type": "electric_scooter", "lat": 38.881291833333336, "is_reserved": 0, "fusion_lat": 0.0}, {"bike_id": "b63006e80dd73c98e95fd5f4bbfe1166", "fusion_lon": 0.0, "lon": -77.048867, "name": "b63006e80dd73c98e95fd5f4bbfe1166", "is_disabled": 0, "rental_uris": {"android": "https://dc.lft.to/lastmile_qr_scan", "ios": "https://dc.lft.to/lastmile_qr_scan"}, "type": "electric_scooter", "lat": 38.900698166666665, "is_reserved": 0, "fusion_lat": 0.0}, {"bike_id": "be731de66fd1b6e229204856a4b5a117", "fusion_lon": 0.0, "lon": -77.02995433333334, "name": "be731de66fd1b6e229204856a4b5a117", "is_disabled": 0, "rental_uris": {"android": "https://dc.lft.to/lastmile_qr_scan", "ios": "https://dc.lft.to/lastmile_qr_scan"}, "type": "electric_scooter", "lat": 38.88401833333333, "is_reserved": 0, "fusion_lat": 0.0}, {"bike_id": "48613f319e4f5ce57d8f3fecc1a03973", "fusion_lon": 0.0, "lon": -77.03594433333333, "name": "48613f319e4f5ce57d8f3fecc1a03973", "is_disabled": 0, "rental_uris": {"android": "https://dc.lft.to/lastmile_qr_scan", "ios": "https://dc.lft.to/lastmile_qr_scan"}, "type": "electric_scooter", "lat": 38.928134, "is_reserved": 0, "fusion_lat": 0.0}, {"bike_id": "01f2ffa46aeb2ed061b1a42b6972db1c", "fusion_lon": 0.0, "lon": -77.10089483333333, "name": "01f2ffa46aeb2ed061b1a42b6972db1c", "is_disabled": 0, "rental_uris": {"android": "https://dc.lft.to/lastmile_qr_scan", "ios": "https://dc.lft.to/lastmile_qr_scan"}, "type": "electric_bike", "lat": 38.95960433333333, "is_reserved": 0, "fusion_lat": 0.0}, {"bike_id": "13ebd8b2cb6f3faaa1a472c55c058e54", "fusion_lon": 0.0, "lon": -77.04354716666667, "name": "13ebd8b2cb6f3faaa1a472c55c058e54", "is_disabled": 0, "rental_uris": {"android": "https://dc.lft.to/lastmile_qr_scan", "ios": "https://dc.lft.to/lastmile_qr_scan"}, "type": "electric_scooter", "lat": 38.905215, "is_reserved": 0, "fusion_lat": 0.0}, {"bike_id": "3a65ab9ef14fe4a337acce47bc8463da", "fusion_lon": 0.0, "lon": -76.95015683333334, "name": "3a65ab9ef14fe4a337acce47bc8463da", "is_disabled": 0, "rental_uris": {"android": "https://dc.lft.to/lastmile_qr_scan", "ios": "https://dc.lft.to/lastmile_qr_scan"}, "type": "electric_scooter", "lat": 38.89390983333333, "is_reserved": 0, "fusion_lat": 0.0}, {"bike_id": "5341a91b7207b4912379912a4a0e5510", "fusion_lon": 0.0, "lon": -77.032175, "name": "5341a91b7207b4912379912a4a0e5510", "is_disabled": 0, "rental_uris": {"android": "https://dc.lft.to/lastmile_qr_scan", "ios": "https://dc.lft.to/lastmile_qr_scan"}, "type": "electric_scooter", "lat": 38.917965333333335, "is_reserved": 0, "fusion_lat": 0.0}, {"bike_id": "f9688ad834140fbbfee41cc3fadaf148", "fusion_lon": 0.0, "lon": -77.040094, "name": "f9688ad834140fbbfee41cc3fadaf148", "is_disabled": 0, "rental_uris": {"android": "https://dc.lft.to/lastmile_qr_scan", "ios": "https://dc.lft.to/lastmile_qr_scan"}, "type": "electric_scooter", "lat": 38.92432766666667, "is_reserved": 0, "fusion_lat": 0.0}, {"bike_id": "c1dc2618fa6348549da8f6c50385ebcb", "fusion_lon": 0.0, "lon": -77.037816, "name": "c1dc2618fa6348549da8f6c50385ebcb", "is_disabled": 0, "rental_uris": {"android": "https://dc.lft.to/lastmile_qr_scan", "ios": "https://dc.lft.to/lastmile_qr_scan"}, "type": "electric_scooter", "lat": 38.9169305, "is_reserved": 0, "fusion_lat": 0.0}, {"bike_id": "f537649d5f63163a28fc3a404874fa17", "fusion_lon": 0.0, "lon": -77.03795333333333, "name": "f537649d5f63163a28fc3a404874fa17", "is_disabled": 0, "rental_uris": {"android": "https://dc.lft.to/lastmile_qr_scan", "ios": "https://dc.lft.to/lastmile_qr_scan"}, "type": "electric_scooter", "lat": 38.92508316666667, "is_reserved": 0, "fusion_lat": 0.0}, {"bike_id": "f59f797caa05dcd80cdbeb822aedfaf7", "fusion_lon": 0.0, "lon": -76.99430533333333, "name": "f59f797caa05dcd80cdbeb822aedfaf7", "is_disabled": 0, "rental_uris": {"android": "https://dc.lft.to/lastmile_qr_scan", "ios": "https://dc.lft.to/lastmile_qr_scan"}, "type": "electric_scooter", "lat": 38.9031895, "is_reserved": 0, "fusion_lat": 0.0}, {"bike_id": "0cf4e52b85555943db404e61436fbc5b", "fusion_lon": 0.0, "lon": -76.98830816666667, "name": "0cf4e52b85555943db404e61436fbc5b", "is_disabled": 0, "rental_uris": {"android": "https://dc.lft.to/lastmile_qr_scan", "ios": "https://dc.lft.to/lastmile_qr_scan"}, "type": "electric_scooter", "lat": 38.90028233333334, "is_reserved": 0, "fusion_lat": 0.0}, {"bike_id": "9b11f2cad57e168938b4e554f325c7b2", "fusion_lon": 0.0, "lon": -77.027243, "name": "9b11f2cad57e168938b4e554f325c7b2", "is_disabled": 0, "rental_uris": {"android": "https://dc.lft.to/lastmile_qr_scan", "ios": "https://dc.lft.to/lastmile_qr_scan"}, "type": "electric_scooter", "lat": 38.9408895, "is_reserved": 0, "fusion_lat": 0.0}, {"bike_id": "41ca060276c880b97bb1844bf6ea2a4e", "fusion_lon": 0.0, "lon": -77.03284716666667, "name": "41ca060276c880b97bb1844bf6ea2a4e", "is_disabled": 0, "rental_uris": {"android": "https://dc.lft.to/lastmile_qr_scan", "ios": "https://dc.lft.to/lastmile_qr_scan"}, "type": "electric_scooter", "lat": 38.916398666666666, "is_reserved": 0, "fusion_lat": 0.0}, {"bike_id": "512950b32efa36d904f1e8fe54450cf0", "fusion_lon": 0.0, "lon": -77.0021255, "name": "512950b32efa36d904f1e8fe54450cf0", "is_disabled": 0, "rental_uris": {"android": "https://dc.lft.to/lastmile_qr_scan", "ios": "https://dc.lft.to/lastmile_qr_scan"}, "type": "electric_scooter", "lat": 38.907952, "is_reserved": 0, "fusion_lat": 0.0}, {"bike_id": "a91f80df5b4e118f8f8a31726a352213", "fusion_lon": 0.0, "lon": -77.02485216666666, "name": "a91f80df5b4e118f8f8a31726a352213", "is_disabled": 0, "rental_uris": {"android": "https://dc.lft.to/lastmile_qr_scan", "ios": "https://dc.lft.to/lastmile_qr_scan"}, "type": "electric_scooter", "lat": 38.927567833333335, "is_reserved": 0, "fusion_lat": 0.0}, {"bike_id": "ae3140180f92a7ac0c23c157aa759752", "fusion_lon": 0.0, "lon": -77.07831233333333, "name": "ae3140180f92a7ac0c23c157aa759752", "is_disabled": 0, "rental_uris": {"android": "https://dc.lft.to/lastmile_qr_scan", "ios": "https://dc.lft.to/lastmile_qr_scan"}, "type": "electric_bike", "lat": 38.91280033333334, "is_reserved": 0, "fusion_lat": 0.0}, {"bike_id": "57985ea6f0af6cc5e43e47bfdb8a8051", "fusion_lon": 0.0, "lon": -77.04290233333333, "name": "57985ea6f0af6cc5e43e47bfdb8a8051", "is_disabled": 0, "rental_uris": {"android": "https://dc.lft.to/lastmile_qr_scan", "ios": "https://dc.lft.to/lastmile_qr_scan"}, "type": "electric_scooter", "lat": 38.9228635, "is_reserved": 0, "fusion_lat": 0.0}, {"bike_id": "3d3dc578322c7ff576340f8166a897a9", "fusion_lon": 0.0, "lon": -77.03502416666667, "name": "3d3dc578322c7ff576340f8166a897a9", "is_disabled": 0, "rental_uris": {"android": "https://dc.lft.to/lastmile_qr_scan", "ios": "https://dc.lft.to/lastmile_qr_scan"}, "type": "electric_scooter", "lat": 38.921535166666665, "is_reserved": 0, "fusion_lat": 0.0}, {"bike_id": "fca658e2b88c8af4281850bb79deca52", "fusion_lon": 0.0, "lon": -77.0177755, "name": "fca658e2b88c8af4281850bb79deca52", "is_disabled": 0, "rental_uris": {"android": "https://dc.lft.to/lastmile_qr_scan", "ios": "https://dc.lft.to/lastmile_qr_scan"}, "type": "electric_scooter", "lat": 38.90782766666667, "is_reserved": 0, "fusion_lat": 0.0}, {"bike_id": "ac5ab7e8eb3a0882864186e76688058b", "fusion_lon": 0.0, "lon": -77.02478266666667, "name": "ac5ab7e8eb3a0882864186e76688058b", "is_disabled": 0, "rental_uris": {"android": "https://dc.lft.to/lastmile_qr_scan", "ios": "https://dc.lft.to/lastmile_qr_scan"}, "type": "electric_scooter", "lat": 38.91816216666667, "is_reserved": 0, "fusion_lat": 0.0}, {"bike_id": "0c6eda6111f0a4ec4e2b9b1cfb8a59ca", "fusion_lon": 0.0, "lon": -77.00536833333334, "name": "0c6eda6111f0a4ec4e2b9b1cfb8a59ca", "is_disabled": 0, "rental_uris": {"android": "https://dc.lft.to/lastmile_qr_scan", "ios": "https://dc.lft.to/lastmile_qr_scan"}, "type": "electric_scooter", "lat": 38.8755145, "is_reserved": 0, "fusion_lat": 0.0}, {"bike_id": "515b57668173864e49585de20c348b40", "fusion_lon": 0.0, "lon": -76.95187416666667, "name": "515b57668173864e49585de20c348b40", "is_disabled": 0, "rental_uris": {"android": "https://dc.lft.to/lastmile_qr_scan", "ios": "https://dc.lft.to/lastmile_qr_scan"}, "type": "electric_scooter", "lat": 38.9074435, "is_reserved": 0, "fusion_lat": 0.0}, {"bike_id": "d3c2f45de01de7901fe5d74806fd97b0", "fusion_lon": 0.0, "lon": -77.03568983333334, "name": "d3c2f45de01de7901fe5d74806fd97b0", "is_disabled": 0, "rental_uris": {"android": "https://dc.lft.to/lastmile_qr_scan", "ios": "https://dc.lft.to/lastmile_qr_scan"}, "type": "electric_scooter", "lat": 38.908385333333335, "is_reserved": 0, "fusion_lat": 0.0}, {"bike_id": "61d7774fa0827f3f3b686baac8caa270", "fusion_lon": 0.0, "lon": -77.023617, "name": "61d7774fa0827f3f3b686baac8caa270", "is_disabled": 0, "rental_uris": {"android": "https://dc.lft.to/lastmile_qr_scan", "ios": "https://dc.lft.to/lastmile_qr_scan"}, "type": "electric_scooter", "lat": 38.9252225, "is_reserved": 0, "fusion_lat": 0.0}, {"bike_id": "02f871ee9c785c2911ec37d780a336e9", "fusion_lon": 0.0, "lon": -77.08190233333333, "name": "02f871ee9c785c2911ec37d780a336e9", "is_disabled": 0, "rental_uris": {"android": "https://dc.lft.to/lastmile_qr_scan", "ios": "https://dc.lft.to/lastmile_qr_scan"}, "type": "electric_bike", "lat": 38.85567966666667, "is_reserved": 0, "fusion_lat": 0.0}, {"bike_id": "6a7ed544e10d5378b6329fa3ad9ce4a8", "fusion_lon": 0.0, "lon": -77.00571633333334, "name": "6a7ed544e10d5378b6329fa3ad9ce4a8", "is_disabled": 0, "rental_uris": {"android": "https://dc.lft.to/lastmile_qr_scan", "ios": "https://dc.lft.to/lastmile_qr_scan"}, "type": "electric_scooter", "lat": 38.885075666666665, "is_reserved": 0, "fusion_lat": 0.0}, {"bike_id": "33762b138a23a9c3a5fd57f69c0b9c63", "fusion_lon": 0.0, "lon": -76.93735516666666, "name": "33762b138a23a9c3a5fd57f69c0b9c63", "is_disabled": 0, "rental_uris": {"android": "https://dc.lft.to/lastmile_qr_scan", "ios": "https://dc.lft.to/lastmile_qr_scan"}, "type": "electric_scooter", "lat": 38.89021533333333, "is_reserved": 0, "fusion_lat": 0.0}, {"bike_id": "b7d7319fabfc7fc0a54881f0bc440baa", "fusion_lon": 0.0, "lon": -77.0013475, "name": "b7d7319fabfc7fc0a54881f0bc440baa", "is_disabled": 0, "rental_uris": {"android": "https://dc.lft.to/lastmile_qr_scan", "ios": "https://dc.lft.to/lastmile_qr_scan"}, "type": "electric_scooter", "lat": 38.905261833333334, "is_reserved": 0, "fusion_lat": 0.0}, {"bike_id": "315fac66cddfc01b5675a16cc5d7467f", "fusion_lon": 0.0, "lon": -77.04403883333333, "name": "315fac66cddfc01b5675a16cc5d7467f", "is_disabled": 0, "rental_uris": {"android": "https://dc.lft.to/lastmile_qr_scan", "ios": "https://dc.lft.to/lastmile_qr_scan"}, "type": "electric_scooter", "lat": 38.920684666666666, "is_reserved": 0, "fusion_lat": 0.0}, {"bike_id": "983c2f67592670416542bb751161555d", "fusion_lon": 0.0, "lon": -77.0415975, "name": "983c2f67592670416542bb751161555d", "is_disabled": 0, "rental_uris": {"android": "https://dc.lft.to/lastmile_qr_scan", "ios": "https://dc.lft.to/lastmile_qr_scan"}, "type": "electric_scooter", "lat": 38.9056935, "is_reserved": 0, "fusion_lat": 0.0}, {"bike_id": "4be5c4d5ed2057b310ea0341052ed9b6", "fusion_lon": 0.0, "lon": -76.98978516666666, "name": "4be5c4d5ed2057b310ea0341052ed9b6", "is_disabled": 0, "rental_uris": {"android": "https://dc.lft.to/lastmile_qr_scan", "ios": "https://dc.lft.to/lastmile_qr_scan"}, "type": "electric_scooter", "lat": 38.865141333333334, "is_reserved": 0, "fusion_lat": 0.0}, {"bike_id": "0740ba35391663598ff7eb8095ff740e", "fusion_lon": 0.0, "lon": -77.04347333333334, "name": "0740ba35391663598ff7eb8095ff740e", "is_disabled": 0, "rental_uris": {"android": "https://dc.lft.to/lastmile_qr_scan", "ios": "https://dc.lft.to/lastmile_qr_scan"}, "type": "electric_scooter", "lat": 38.9034285, "is_reserved": 0, "fusion_lat": 0.0}, {"bike_id": "3184d9df32eb68cde84b1df5c4d66d13", "fusion_lon": 0.0, "lon": -77.04480133333334, "name": "3184d9df32eb68cde84b1df5c4d66d13", "is_disabled": 0, "rental_uris": {"android": "https://dc.lft.to/lastmile_qr_scan", "ios": "https://dc.lft.to/lastmile_qr_scan"}, "type": "electric_scooter", "lat": 38.922500166666666, "is_reserved": 0, "fusion_lat": 0.0}, {"bike_id": "f32a21c872d8edfc74ae21453b61f032", "fusion_lon": 0.0, "lon": -76.9355075, "name": "f32a21c872d8edfc74ae21453b61f032", "is_disabled": 0, "rental_uris": {"android": "https://dc.lft.to/lastmile_qr_scan", "ios": "https://dc.lft.to/lastmile_qr_scan"}, "type": "electric_bike", "lat": 38.95560583333334, "is_reserved": 0, "fusion_lat": 0.0}, {"bike_id": "4fdd6590ed2b95bb6256b90e391c8062", "fusion_lon": 0.0, "lon": -77.01581383333334, "name": "4fdd6590ed2b95bb6256b90e391c8062", "is_disabled": 0, "rental_uris": {"android": "https://dc.lft.to/lastmile_qr_scan", "ios": "https://dc.lft.to/lastmile_qr_scan"}, "type": "electric_scooter", "lat": 38.8918415, "is_reserved": 0, "fusion_lat": 0.0}, {"bike_id": "f1e877f65c0646b7be30c39a5e68b3fa", "fusion_lon": 0.0, "lon": -77.02819583333333, "name": "f1e877f65c0646b7be30c39a5e68b3fa", "is_disabled": 0, "rental_uris": {"android": "https://dc.lft.to/lastmile_qr_scan", "ios": "https://dc.lft.to/lastmile_qr_scan"}, "type": "electric_scooter", "lat": 38.8994135, "is_reserved": 0, "fusion_lat": 0.0}, {"bike_id": "334abc77c0aa18a38cbfdc538680258f", "fusion_lon": 0.0, "lon": -77.00213333333333, "name": "334abc77c0aa18a38cbfdc538680258f", "is_disabled": 0, "rental_uris": {"android": "https://dc.lft.to/lastmile_qr_scan", "ios": "https://dc.lft.to/lastmile_qr_scan"}, "type": "electric_scooter", "lat": 38.900509, "is_reserved": 0, "fusion_lat": 0.0}, {"bike_id": "cfc269041d25c34e07ff95245a69cb2b", "fusion_lon": 0.0, "lon": -77.01782566666667, "name": "cfc269041d25c34e07ff95245a69cb2b", "is_disabled": 0, "rental_uris": {"android": "https://dc.lft.to/lastmile_qr_scan", "ios": "https://dc.lft.to/lastmile_qr_scan"}, "type": "electric_scooter", "lat": 38.88414483333333, "is_reserved": 0, "fusion_lat": 0.0}, {"bike_id": "63d69177bbd5dc7d093e6b8668eba896", "fusion_lon": 0.0, "lon": -76.98509133333333, "name": "63d69177bbd5dc7d093e6b8668eba896", "is_disabled": 0, "rental_uris": {"android": "https://dc.lft.to/lastmile_qr_scan", "ios": "https://dc.lft.to/lastmile_qr_scan"}, "type": "electric_scooter", "lat": 38.86666366666667, "is_reserved": 0, "fusion_lat": 0.0}, {"bike_id": "698c6aa7de1e49baee7d2d8b91ac637e", "fusion_lon": 0.0, "lon": -77.04505816666666, "name": "698c6aa7de1e49baee7d2d8b91ac637e", "is_disabled": 0, "rental_uris": {"android": "https://dc.lft.to/lastmile_qr_scan", "ios": "https://dc.lft.to/lastmile_qr_scan"}, "type": "electric_scooter", "lat": 38.90020483333333, "is_reserved": 0, "fusion_lat": 0.0}, {"bike_id": "8dd0c781d8af4d57a26bc446196214b4", "fusion_lon": 0.0, "lon": -77.03547033333334, "name": "8dd0c781d8af4d57a26bc446196214b4", "is_disabled": 0, "rental_uris": {"android": "https://dc.lft.to/lastmile_qr_scan", "ios": "https://dc.lft.to/lastmile_qr_scan"}, "type": "electric_scooter", "lat": 38.92420216666667, "is_reserved": 0, "fusion_lat": 0.0}, {"bike_id": "25ab778cd06d9c41fa1ac907af794f45", "fusion_lon": 0.0, "lon": -77.05146, "name": "25ab778cd06d9c41fa1ac907af794f45", "is_disabled": 0, "rental_uris": {"android": "https://dc.lft.to/lastmile_qr_scan", "ios": "https://dc.lft.to/lastmile_qr_scan"}, "type": "electric_scooter", "lat": 38.905342166666664, "is_reserved": 0, "fusion_lat": 0.0}, {"bike_id": "ca13ab06eeb999ab83fad4c67f1bc4f4", "fusion_lon": 0.0, "lon": -77.02579616666667, "name": "ca13ab06eeb999ab83fad4c67f1bc4f4", "is_disabled": 0, "rental_uris": {"android": "https://dc.lft.to/lastmile_qr_scan", "ios": "https://dc.lft.to/lastmile_qr_scan"}, "type": "electric_bike", "lat": 38.895969666666666, "is_reserved": 0, "fusion_lat": 0.0}, {"bike_id": "6e1bbfc126668ef56c3a621aed2f45c6", "fusion_lon": 0.0, "lon": -77.04333733333333, "name": "6e1bbfc126668ef56c3a621aed2f45c6", "is_disabled": 0, "rental_uris": {"android": "https://dc.lft.to/lastmile_qr_scan", "ios": "https://dc.lft.to/lastmile_qr_scan"}, "type": "electric_scooter", "lat": 38.90845483333333, "is_reserved": 0, "fusion_lat": 0.0}, {"bike_id": "1e26d9f1751d30c980077db478163339", "fusion_lon": 0.0, "lon": -76.93198933333333, "name": "1e26d9f1751d30c980077db478163339", "is_disabled": 0, "rental_uris": {"android": "https://dc.lft.to/lastmile_qr_scan", "ios": "https://dc.lft.to/lastmile_qr_scan"}, "type": "electric_scooter", "lat": 38.898817333333334, "is_reserved": 0, "fusion_lat": 0.0}, {"bike_id": "1a97b4374014f4f5bfc0878f18eb0401", "fusion_lon": 0.0, "lon": -77.04417566666666, "name": "1a97b4374014f4f5bfc0878f18eb0401", "is_disabled": 0, "rental_uris": {"android": "https://dc.lft.to/lastmile_qr_scan", "ios": "https://dc.lft.to/lastmile_qr_scan"}, "type": "electric_bike", "lat": 39.0156535, "is_reserved": 0, "fusion_lat": 0.0}, {"bike_id": "ac60a8ca111e1b2eeab7fea1a3584327", "fusion_lon": 0.0, "lon": -77.04462233333334, "name": "ac60a8ca111e1b2eeab7fea1a3584327", "is_disabled": 0, "rental_uris": {"android": "https://dc.lft.to/lastmile_qr_scan", "ios": "https://dc.lft.to/lastmile_qr_scan"}, "type": "electric_scooter", "lat": 38.903846333333334, "is_reserved": 0, "fusion_lat": 0.0}, {"bike_id": "8a1b7be7ff0fc35a75da24bd6e0a4601", "fusion_lon": 0.0, "lon": -77.013213, "name": "8a1b7be7ff0fc35a75da24bd6e0a4601", "is_disabled": 0, "rental_uris": {"android": "https://dc.lft.to/lastmile_qr_scan", "ios": "https://dc.lft.to/lastmile_qr_scan"}, "type": "electric_scooter", "lat": 38.881491833333335, "is_reserved": 0, "fusion_lat": 0.0}, {"bike_id": "9bba32e3993cd5bf5463f83edb5af207", "fusion_lon": 0.0, "lon": -77.02475, "name": "9bba32e3993cd5bf5463f83edb5af207", "is_disabled": 0, "rental_uris": {"android": "https://dc.lft.to/lastmile_qr_scan", "ios": "https://dc.lft.to/lastmile_qr_scan"}, "type": "electric_scooter", "lat": 38.93889, "is_reserved": 0, "fusion_lat": 0.0}, {"bike_id": "d6a53d6cd05d0b16039411a567c42512", "fusion_lon": 0.0, "lon": -77.032041, "name": "d6a53d6cd05d0b16039411a567c42512", "is_disabled": 0, "rental_uris": {"android": "https://dc.lft.to/lastmile_qr_scan", "ios": "https://dc.lft.to/lastmile_qr_scan"}, "type": "electric_scooter", "lat": 38.916972, "is_reserved": 0, "fusion_lat": 0.0}, {"bike_id": "b73bcd5c868b9e92d6e0962ef279ac26", "fusion_lon": 0.0, "lon": -77.00552433333333, "name": "b73bcd5c868b9e92d6e0962ef279ac26", "is_disabled": 0, "rental_uris": {"android": "https://dc.lft.to/lastmile_qr_scan", "ios": "https://dc.lft.to/lastmile_qr_scan"}, "type": "electric_scooter", "lat": 38.911923, "is_reserved": 0, "fusion_lat": 0.0}, {"bike_id": "903d58e44b219bb98eb71b9c7adb9dcb", "fusion_lon": 0.0, "lon": -77.027904, "name": "903d58e44b219bb98eb71b9c7adb9dcb", "is_disabled": 0, "rental_uris": {"android": "https://dc.lft.to/lastmile_qr_scan", "ios": "https://dc.lft.to/lastmile_qr_scan"}, "type": "electric_scooter", "lat": 38.892356, "is_reserved": 0, "fusion_lat": 0.0}, {"bike_id": "7001b4ed9bad9b1ffef9111833adb42c", "fusion_lon": 0.0, "lon": -77.02178916666666, "name": "7001b4ed9bad9b1ffef9111833adb42c", "is_disabled": 0, "rental_uris": {"android": "https://dc.lft.to/lastmile_qr_scan", "ios": "https://dc.lft.to/lastmile_qr_scan"}, "type": "electric_scooter", "lat": 38.908407833333335, "is_reserved": 0, "fusion_lat": 0.0}, {"bike_id": "8d244064b7aaa1e0108926e026d2ebd4", "fusion_lon": 0.0, "lon": -76.993681, "name": "8d244064b7aaa1e0108926e026d2ebd4", "is_disabled": 0, "rental_uris": {"android": "https://dc.lft.to/lastmile_qr_scan", "ios": "https://dc.lft.to/lastmile_qr_scan"}, "type": "electric_scooter", "lat": 38.90047066666666, "is_reserved": 0, "fusion_lat": 0.0}, {"bike_id": "4a578ead5e83bbb4b8f57b264e7aac2d", "fusion_lon": 0.0, "lon": -77.0293435, "name": "4a578ead5e83bbb4b8f57b264e7aac2d", "is_disabled": 0, "rental_uris": {"android": "https://dc.lft.to/lastmile_qr_scan", "ios": "https://dc.lft.to/lastmile_qr_scan"}, "type": "electric_scooter", "lat": 38.89839, "is_reserved": 0, "fusion_lat": 0.0}, {"bike_id": "2ead23ac5ba3b44a9aa22974f50e901e", "fusion_lon": 0.0, "lon": -77.03817066666667, "name": "2ead23ac5ba3b44a9aa22974f50e901e", "is_disabled": 0, "rental_uris": {"android": "https://dc.lft.to/lastmile_qr_scan", "ios": "https://dc.lft.to/lastmile_qr_scan"}, "type": "electric_scooter", "lat": 38.906889666666665, "is_reserved": 0, "fusion_lat": 0.0}, {"bike_id": "f5bd2e0410385c6bb2aa6ad7f8268365", "fusion_lon": 0.0, "lon": -77.04271183333333, "name": "f5bd2e0410385c6bb2aa6ad7f8268365", "is_disabled": 0, "rental_uris": {"android": "https://dc.lft.to/lastmile_qr_scan", "ios": "https://dc.lft.to/lastmile_qr_scan"}, "type": "electric_scooter", "lat": 38.91339466666667, "is_reserved": 0, "fusion_lat": 0.0}, {"bike_id": "408bda10f261e17c9d7d48c64d5424c9", "fusion_lon": 0.0, "lon": -77.04822666666666, "name": "408bda10f261e17c9d7d48c64d5424c9", "is_disabled": 0, "rental_uris": {"android": "https://dc.lft.to/lastmile_qr_scan", "ios": "https://dc.lft.to/lastmile_qr_scan"}, "type": "electric_scooter", "lat": 38.90029, "is_reserved": 0, "fusion_lat": 0.0}, {"bike_id": "1d25f2db3086cd2c3bd77767412c99a0", "fusion_lon": 0.0, "lon": -77.0313255, "name": "1d25f2db3086cd2c3bd77767412c99a0", "is_disabled": 0, "rental_uris": {"android": "https://dc.lft.to/lastmile_qr_scan", "ios": "https://dc.lft.to/lastmile_qr_scan"}, "type": "electric_scooter", "lat": 38.91561133333333, "is_reserved": 0, "fusion_lat": 0.0}, {"bike_id": "45db33bc79e09e8c318a37b979cf643c", "fusion_lon": 0.0, "lon": -77.02968233333333, "name": "45db33bc79e09e8c318a37b979cf643c", "is_disabled": 0, "rental_uris": {"android": "https://dc.lft.to/lastmile_qr_scan", "ios": "https://dc.lft.to/lastmile_qr_scan"}, "type": "electric_scooter", "lat": 38.923286833333336, "is_reserved": 0, "fusion_lat": 0.0}, {"bike_id": "2fb71115cad795858667bf91e55ffeb0", "fusion_lon": 0.0, "lon": -77.1873905, "name": "2fb71115cad795858667bf91e55ffeb0", "is_disabled": 0, "rental_uris": {"android": "https://dc.lft.to/lastmile_qr_scan", "ios": "https://dc.lft.to/lastmile_qr_scan"}, "type": "electric_bike", "lat": 38.893585, "is_reserved": 0, "fusion_lat": 0.0}, {"bike_id": "c7d20fc30f71c93d5097816ff096d5fc", "fusion_lon": 0.0, "lon": -77.00799766666667, "name": "c7d20fc30f71c93d5097816ff096d5fc", "is_disabled": 0, "rental_uris": {"android": "https://dc.lft.to/lastmile_qr_scan", "ios": "https://dc.lft.to/lastmile_qr_scan"}, "type": "electric_bike", "lat": 38.94927533333333, "is_reserved": 0, "fusion_lat": 0.0}, {"bike_id": "bdbb2c84b59a62ecf2ab0d44c182bba7", "fusion_lon": 0.0, "lon": -77.04371516666667, "name": "bdbb2c84b59a62ecf2ab0d44c182bba7", "is_disabled": 0, "rental_uris": {"android": "https://dc.lft.to/lastmile_qr_scan", "ios": "https://dc.lft.to/lastmile_qr_scan"}, "type": "electric_scooter", "lat": 38.89221766666667, "is_reserved": 0, "fusion_lat": 0.0}, {"bike_id": "1548fc3bb45a324f46b24d5415dd3f29", "fusion_lon": 0.0, "lon": -77.0370185, "name": "1548fc3bb45a324f46b24d5415dd3f29", "is_disabled": 0, "rental_uris": {"android": "https://dc.lft.to/lastmile_qr_scan", "ios": "https://dc.lft.to/lastmile_qr_scan"}, "type": "electric_scooter", "lat": 38.92652233333333, "is_reserved": 0, "fusion_lat": 0.0}, {"bike_id": "d6defeb4667490ff1fda7fb4f803946a", "fusion_lon": 0.0, "lon": -77.048716, "name": "d6defeb4667490ff1fda7fb4f803946a", "is_disabled": 0, "rental_uris": {"android": "https://dc.lft.to/lastmile_qr_scan", "ios": "https://dc.lft.to/lastmile_qr_scan"}, "type": "electric_scooter", "lat": 38.9098085, "is_reserved": 0, "fusion_lat": 0.0}, {"bike_id": "2a25c712f86e671cebe6843d67267af0", "fusion_lon": 0.0, "lon": -77.02964433333334, "name": "2a25c712f86e671cebe6843d67267af0", "is_disabled": 0, "rental_uris": {"android": "https://dc.lft.to/lastmile_qr_scan", "ios": "https://dc.lft.to/lastmile_qr_scan"}, "type": "electric_scooter", "lat": 38.92374866666667, "is_reserved": 0, "fusion_lat": 0.0}, {"bike_id": "74c34f41d4ced64880a8cfc8c1c3b43d", "fusion_lon": 0.0, "lon": -77.058582, "name": "74c34f41d4ced64880a8cfc8c1c3b43d", "is_disabled": 0, "rental_uris": {"android": "https://dc.lft.to/lastmile_qr_scan", "ios": "https://dc.lft.to/lastmile_qr_scan"}, "type": "electric_scooter", "lat": 38.936073, "is_reserved": 0, "fusion_lat": 0.0}, {"bike_id": "7d2957bc73da75ee9ea3010d84eda15d", "fusion_lon": 0.0, "lon": -76.98614016666667, "name": "7d2957bc73da75ee9ea3010d84eda15d", "is_disabled": 0, "rental_uris": {"android": "https://dc.lft.to/lastmile_qr_scan", "ios": "https://dc.lft.to/lastmile_qr_scan"}, "type": "electric_scooter", "lat": 38.938337833333335, "is_reserved": 0, "fusion_lat": 0.0}, {"bike_id": "5c28d7f5ed0c9259c7a94cd1bc55979e", "fusion_lon": 0.0, "lon": -77.0433175, "name": "5c28d7f5ed0c9259c7a94cd1bc55979e", "is_disabled": 0, "rental_uris": {"android": "https://dc.lft.to/lastmile_qr_scan", "ios": "https://dc.lft.to/lastmile_qr_scan"}, "type": "electric_scooter", "lat": 38.89966916666667, "is_reserved": 0, "fusion_lat": 0.0}, {"bike_id": "46dbb8cce99000c264eb98dbcf8d15fb", "fusion_lon": 0.0, "lon": -77.04158283333334, "name": "46dbb8cce99000c264eb98dbcf8d15fb", "is_disabled": 0, "rental_uris": {"android": "https://dc.lft.to/lastmile_qr_scan", "ios": "https://dc.lft.to/lastmile_qr_scan"}, "type": "electric_scooter", "lat": 38.916521, "is_reserved": 0, "fusion_lat": 0.0}, {"bike_id": "7b44bd621314813c184d0acf54fd7f1e", "fusion_lon": 0.0, "lon": -76.99389233333333, "name": "7b44bd621314813c184d0acf54fd7f1e", "is_disabled": 0, "rental_uris": {"android": "https://dc.lft.to/lastmile_qr_scan", "ios": "https://dc.lft.to/lastmile_qr_scan"}, "type": "electric_scooter", "lat": 38.8973495, "is_reserved": 0, "fusion_lat": 0.0}, {"bike_id": "225652b1bf8d657d3d9692537fcab43d", "fusion_lon": 0.0, "lon": -77.02723266666666, "name": "225652b1bf8d657d3d9692537fcab43d", "is_disabled": 0, "rental_uris": {"android": "https://dc.lft.to/lastmile_qr_scan", "ios": "https://dc.lft.to/lastmile_qr_scan"}, "type": "electric_scooter", "lat": 38.949624, "is_reserved": 0, "fusion_lat": 0.0}, {"bike_id": "c0409e7e4de508e228f4205434eb8e93", "fusion_lon": 0.0, "lon": -77.020022, "name": "c0409e7e4de508e228f4205434eb8e93", "is_disabled": 0, "rental_uris": {"android": "https://dc.lft.to/lastmile_qr_scan", "ios": "https://dc.lft.to/lastmile_qr_scan"}, "type": "electric_scooter", "lat": 38.89571016666667, "is_reserved": 0, "fusion_lat": 0.0}, {"bike_id": "699627ba5fa749c80bf561b513ef4670", "fusion_lon": 0.0, "lon": -77.039526, "name": "699627ba5fa749c80bf561b513ef4670", "is_disabled": 0, "rental_uris": {"android": "https://dc.lft.to/lastmile_qr_scan", "ios": "https://dc.lft.to/lastmile_qr_scan"}, "type": "electric_scooter", "lat": 38.915632, "is_reserved": 0, "fusion_lat": 0.0}, {"bike_id": "f3be116d01660253ef437e6fe164deee", "fusion_lon": 0.0, "lon": -76.99950083333333, "name": "f3be116d01660253ef437e6fe164deee", "is_disabled": 0, "rental_uris": {"android": "https://dc.lft.to/lastmile_qr_scan", "ios": "https://dc.lft.to/lastmile_qr_scan"}, "type": "electric_scooter", "lat": 38.8429465, "is_reserved": 0, "fusion_lat": 0.0}, {"bike_id": "a9b75ed018d0fd6a7d6e8b50504cb50a", "fusion_lon": 0.0, "lon": -77.01610633333334, "name": "a9b75ed018d0fd6a7d6e8b50504cb50a", "is_disabled": 0, "rental_uris": {"android": "https://dc.lft.to/lastmile_qr_scan", "ios": "https://dc.lft.to/lastmile_qr_scan"}, "type": "electric_scooter", "lat": 38.895106166666665, "is_reserved": 0, "fusion_lat": 0.0}, {"bike_id": "8933771e9f51c94f191289f331bb3587", "fusion_lon": 0.0, "lon": -77.0418585, "name": "8933771e9f51c94f191289f331bb3587", "is_disabled": 0, "rental_uris": {"android": "https://dc.lft.to/lastmile_qr_scan", "ios": "https://dc.lft.to/lastmile_qr_scan"}, "type": "electric_scooter", "lat": 38.90746266666667, "is_reserved": 0, "fusion_lat": 0.0}, {"bike_id": "877d892857dac642b5f11ac5e3507907", "fusion_lon": 0.0, "lon": -77.06406316666667, "name": "877d892857dac642b5f11ac5e3507907", "is_disabled": 0, "rental_uris": {"android": "https://dc.lft.to/lastmile_qr_scan", "ios": "https://dc.lft.to/lastmile_qr_scan"}, "type": "electric_scooter", "lat": 38.913729000000004, "is_reserved": 0, "fusion_lat": 0.0}, {"bike_id": "10f2e63d051afef2258773dedcd00685", "fusion_lon": 0.0, "lon": -77.03078616666667, "name": "10f2e63d051afef2258773dedcd00685", "is_disabled": 0, "rental_uris": {"android": "https://dc.lft.to/lastmile_qr_scan", "ios": "https://dc.lft.to/lastmile_qr_scan"}, "type": "electric_scooter", "lat": 38.91755916666666, "is_reserved": 0, "fusion_lat": 0.0}, {"bike_id": "43e3fb70c893c5207a28f5e063ec5f72", "fusion_lon": 0.0, "lon": -77.0180795, "name": "43e3fb70c893c5207a28f5e063ec5f72", "is_disabled": 0, "rental_uris": {"android": "https://dc.lft.to/lastmile_qr_scan", "ios": "https://dc.lft.to/lastmile_qr_scan"}, "type": "electric_scooter", "lat": 38.92131233333333, "is_reserved": 0, "fusion_lat": 0.0}, {"bike_id": "15c7e67ab1b1cec1b43a1d230c6ef2f0", "fusion_lon": 0.0, "lon": -77.0024595, "name": "15c7e67ab1b1cec1b43a1d230c6ef2f0", "is_disabled": 0, "rental_uris": {"android": "https://dc.lft.to/lastmile_qr_scan", "ios": "https://dc.lft.to/lastmile_qr_scan"}, "type": "electric_scooter", "lat": 38.88031483333334, "is_reserved": 0, "fusion_lat": 0.0}, {"bike_id": "867b2313a3fb28f43910704497344456", "fusion_lon": 0.0, "lon": -77.03638483333333, "name": "867b2313a3fb28f43910704497344456", "is_disabled": 0, "rental_uris": {"android": "https://dc.lft.to/lastmile_qr_scan", "ios": "https://dc.lft.to/lastmile_qr_scan"}, "type": "electric_scooter", "lat": 38.93176, "is_reserved": 0, "fusion_lat": 0.0}, {"bike_id": "48fc67dded29e6d4b4605f354dffd512", "fusion_lon": 0.0, "lon": -77.02961533333334, "name": "48fc67dded29e6d4b4605f354dffd512", "is_disabled": 0, "rental_uris": {"android": "https://dc.lft.to/lastmile_qr_scan", "ios": "https://dc.lft.to/lastmile_qr_scan"}, "type": "electric_scooter", "lat": 38.923308, "is_reserved": 0, "fusion_lat": 0.0}, {"bike_id": "cfa0995e3fdf50698ab4e3b5f52696cd", "fusion_lon": 0.0, "lon": -77.05227316666667, "name": "cfa0995e3fdf50698ab4e3b5f52696cd", "is_disabled": 0, "rental_uris": {"android": "https://dc.lft.to/lastmile_qr_scan", "ios": "https://dc.lft.to/lastmile_qr_scan"}, "type": "electric_scooter", "lat": 38.924656, "is_reserved": 0, "fusion_lat": 0.0}, {"bike_id": "7885502332e4f644f8ddf9383b0b8748", "fusion_lon": 0.0, "lon": -77.03668466666667, "name": "7885502332e4f644f8ddf9383b0b8748", "is_disabled": 0, "rental_uris": {"android": "https://dc.lft.to/lastmile_qr_scan", "ios": "https://dc.lft.to/lastmile_qr_scan"}, "type": "electric_scooter", "lat": 38.92727333333333, "is_reserved": 0, "fusion_lat": 0.0}, {"bike_id": "cbe9730c8d4c5e613345d592a552d646", "fusion_lon": 0.0, "lon": -77.02706866666666, "name": "cbe9730c8d4c5e613345d592a552d646", "is_disabled": 0, "rental_uris": {"android": "https://dc.lft.to/lastmile_qr_scan", "ios": "https://dc.lft.to/lastmile_qr_scan"}, "type": "electric_scooter", "lat": 38.928856833333334, "is_reserved": 0, "fusion_lat": 0.0}, {"bike_id": "6c44c31213f6538c40352bfdb10684e4", "fusion_lon": 0.0, "lon": -77.02568016666666, "name": "6c44c31213f6538c40352bfdb10684e4", "is_disabled": 0, "rental_uris": {"android": "https://dc.lft.to/lastmile_qr_scan", "ios": "https://dc.lft.to/lastmile_qr_scan"}, "type": "electric_scooter", "lat": 38.92538033333334, "is_reserved": 0, "fusion_lat": 0.0}, {"bike_id": "adc4f511b8b39ab2c742072a955a8d3b", "fusion_lon": 0.0, "lon": -77.0184935, "name": "adc4f511b8b39ab2c742072a955a8d3b", "is_disabled": 0, "rental_uris": {"android": "https://dc.lft.to/lastmile_qr_scan", "ios": "https://dc.lft.to/lastmile_qr_scan"}, "type": "electric_scooter", "lat": 38.91533033333333, "is_reserved": 0, "fusion_lat": 0.0}, {"bike_id": "898280950d8dc1f24543bbc609ee9c79", "fusion_lon": 0.0, "lon": -77.0272405, "name": "898280950d8dc1f24543bbc609ee9c79", "is_disabled": 0, "rental_uris": {"android": "https://dc.lft.to/lastmile_qr_scan", "ios": "https://dc.lft.to/lastmile_qr_scan"}, "type": "electric_scooter", "lat": 38.949593166666666, "is_reserved": 0, "fusion_lat": 0.0}, {"bike_id": "1bc9cc4070cfc78a56654ee0a6b3bd1c", "fusion_lon": 0.0, "lon": -77.03638466666666, "name": "1bc9cc4070cfc78a56654ee0a6b3bd1c", "is_disabled": 0, "rental_uris": {"android": "https://dc.lft.to/lastmile_qr_scan", "ios": "https://dc.lft.to/lastmile_qr_scan"}, "type": "electric_scooter", "lat": 38.93180366666667, "is_reserved": 0, "fusion_lat": 0.0}, {"bike_id": "08ca465bbca758c64e55a1c3b5725b7d", "fusion_lon": 0.0, "lon": -76.9360915, "name": "08ca465bbca758c64e55a1c3b5725b7d", "is_disabled": 0, "rental_uris": {"android": "https://dc.lft.to/lastmile_qr_scan", "ios": "https://dc.lft.to/lastmile_qr_scan"}, "type": "electric_scooter", "lat": 38.88675216666667, "is_reserved": 0, "fusion_lat": 0.0}, {"bike_id": "fdfc4b0cb9d6de556ddf84e7e50967b5", "fusion_lon": 0.0, "lon": -76.997783, "name": "fdfc4b0cb9d6de556ddf84e7e50967b5", "is_disabled": 0, "rental_uris": {"android": "https://dc.lft.to/lastmile_qr_scan", "ios": "https://dc.lft.to/lastmile_qr_scan"}, "type": "electric_scooter", "lat": 38.90907166666667, "is_reserved": 0, "fusion_lat": 0.0}, {"bike_id": "4cf0b57ce2fb414ecc662f80f398c493", "fusion_lon": 0.0, "lon": -77.02515733333334, "name": "4cf0b57ce2fb414ecc662f80f398c493", "is_disabled": 0, "rental_uris": {"android": "https://dc.lft.to/lastmile_qr_scan", "ios": "https://dc.lft.to/lastmile_qr_scan"}, "type": "electric_scooter", "lat": 38.915743, "is_reserved": 0, "fusion_lat": 0.0}, {"bike_id": "e1914ec0f5ec117fb56ce06cea9e4632", "fusion_lon": 0.0, "lon": -77.03169266666667, "name": "e1914ec0f5ec117fb56ce06cea9e4632", "is_disabled": 0, "rental_uris": {"android": "https://dc.lft.to/lastmile_qr_scan", "ios": "https://dc.lft.to/lastmile_qr_scan"}, "type": "electric_scooter", "lat": 38.928775333333334, "is_reserved": 0, "fusion_lat": 0.0}, {"bike_id": "eb357d6c4570f00c0c81d08569915d08", "fusion_lon": 0.0, "lon": -77.02010983333334, "name": "eb357d6c4570f00c0c81d08569915d08", "is_disabled": 0, "rental_uris": {"android": "https://dc.lft.to/lastmile_qr_scan", "ios": "https://dc.lft.to/lastmile_qr_scan"}, "type": "electric_scooter", "lat": 38.93034033333333, "is_reserved": 0, "fusion_lat": 0.0}, {"bike_id": "1eccf367cd2cdb8ae941b93370fbb548", "fusion_lon": 0.0, "lon": -77.02679616666667, "name": "1eccf367cd2cdb8ae941b93370fbb548", "is_disabled": 0, "rental_uris": {"android": "https://dc.lft.to/lastmile_qr_scan", "ios": "https://dc.lft.to/lastmile_qr_scan"}, "type": "electric_scooter", "lat": 38.897386833333336, "is_reserved": 0, "fusion_lat": 0.0}, {"bike_id": "83070f1452cd36c4a1d6ec1ad3c50105", "fusion_lon": 0.0, "lon": -77.04280166666666, "name": "83070f1452cd36c4a1d6ec1ad3c50105", "is_disabled": 0, "rental_uris": {"android": "https://dc.lft.to/lastmile_qr_scan", "ios": "https://dc.lft.to/lastmile_qr_scan"}, "type": "electric_scooter", "lat": 38.90576216666667, "is_reserved": 0, "fusion_lat": 0.0}, {"bike_id": "0c583cb1d87cd1825cd86d1606a3653c", "fusion_lon": 0.0, "lon": -77.03816783333333, "name": "0c583cb1d87cd1825cd86d1606a3653c", "is_disabled": 0, "rental_uris": {"android": "https://dc.lft.to/lastmile_qr_scan", "ios": "https://dc.lft.to/lastmile_qr_scan"}, "type": "electric_scooter", "lat": 38.92508766666667, "is_reserved": 0, "fusion_lat": 0.0}, {"bike_id": "97bf3cb72b516db3be0ad5e992600764", "fusion_lon": 0.0, "lon": -76.98618816666666, "name": "97bf3cb72b516db3be0ad5e992600764", "is_disabled": 0, "rental_uris": {"android": "https://dc.lft.to/lastmile_qr_scan", "ios": "https://dc.lft.to/lastmile_qr_scan"}, "type": "electric_scooter", "lat": 38.9382745, "is_reserved": 0, "fusion_lat": 0.0}, {"bike_id": "f66ee7a1880d66ea1953b864708e3db2", "fusion_lon": 0.0, "lon": -77.02711716666667, "name": "f66ee7a1880d66ea1953b864708e3db2", "is_disabled": 0, "rental_uris": {"android": "https://dc.lft.to/lastmile_qr_scan", "ios": "https://dc.lft.to/lastmile_qr_scan"}, "type": "electric_scooter", "lat": 38.906766, "is_reserved": 0, "fusion_lat": 0.0}, {"bike_id": "6a719f5c408012710cb01348390f6008", "fusion_lon": 0.0, "lon": -76.9961495, "name": "6a719f5c408012710cb01348390f6008", "is_disabled": 0, "rental_uris": {"android": "https://dc.lft.to/lastmile_qr_scan", "ios": "https://dc.lft.to/lastmile_qr_scan"}, "type": "electric_scooter", "lat": 38.9037225, "is_reserved": 0, "fusion_lat": 0.0}, {"bike_id": "ad8e4df950d3e7f4a360d8634a35bbcb", "fusion_lon": 0.0, "lon": -77.04802533333333, "name": "ad8e4df950d3e7f4a360d8634a35bbcb", "is_disabled": 0, "rental_uris": {"android": "https://dc.lft.to/lastmile_qr_scan", "ios": "https://dc.lft.to/lastmile_qr_scan"}, "type": "electric_scooter", "lat": 38.892246166666666, "is_reserved": 0, "fusion_lat": 0.0}, {"bike_id": "9444a6f80b29c799f2707323053579fb", "fusion_lon": 0.0, "lon": -77.038663, "name": "9444a6f80b29c799f2707323053579fb", "is_disabled": 0, "rental_uris": {"android": "https://dc.lft.to/lastmile_qr_scan", "ios": "https://dc.lft.to/lastmile_qr_scan"}, "type": "electric_scooter", "lat": 38.91713466666667, "is_reserved": 0, "fusion_lat": 0.0}, {"bike_id": "65af73e96df96f7ef57e95f94413738b", "fusion_lon": 0.0, "lon": -76.9653035, "name": "65af73e96df96f7ef57e95f94413738b", "is_disabled": 0, "rental_uris": {"android": "https://dc.lft.to/lastmile_qr_scan", "ios": "https://dc.lft.to/lastmile_qr_scan"}, "type": "electric_scooter", "lat": 38.87632466666667, "is_reserved": 0, "fusion_lat": 0.0}, {"bike_id": "98cff6fb5cec5eec407f61c798c219c8", "fusion_lon": 0.0, "lon": -77.06167466666666, "name": "98cff6fb5cec5eec407f61c798c219c8", "is_disabled": 0, "rental_uris": {"android": "https://dc.lft.to/lastmile_qr_scan", "ios": "https://dc.lft.to/lastmile_qr_scan"}, "type": "electric_scooter", "lat": 38.9130355, "is_reserved": 0, "fusion_lat": 0.0}, {"bike_id": "f1fcc600bef66c2c743dfb225aa33c36", "fusion_lon": 0.0, "lon": -77.002088, "name": "f1fcc600bef66c2c743dfb225aa33c36", "is_disabled": 0, "rental_uris": {"android": "https://dc.lft.to/lastmile_qr_scan", "ios": "https://dc.lft.to/lastmile_qr_scan"}, "type": "electric_scooter", "lat": 38.900803333333336, "is_reserved": 0, "fusion_lat": 0.0}, {"bike_id": "a1b78e1fa440a792efbd79af767adc9f", "fusion_lon": 0.0, "lon": -76.999572, "name": "a1b78e1fa440a792efbd79af767adc9f", "is_disabled": 0, "rental_uris": {"android": "https://dc.lft.to/lastmile_qr_scan", "ios": "https://dc.lft.to/lastmile_qr_scan"}, "type": "electric_scooter", "lat": 38.91905666666667, "is_reserved": 0, "fusion_lat": 0.0}, {"bike_id": "f6cff7f832c2681746a00c2e0162cf45", "fusion_lon": 0.0, "lon": -77.03407266666666, "name": "f6cff7f832c2681746a00c2e0162cf45", "is_disabled": 0, "rental_uris": {"android": "https://dc.lft.to/lastmile_qr_scan", "ios": "https://dc.lft.to/lastmile_qr_scan"}, "type": "electric_scooter", "lat": 38.91694716666667, "is_reserved": 0, "fusion_lat": 0.0}, {"bike_id": "7ebbb9ce84ed575ef4611329b3262f23", "fusion_lon": 0.0, "lon": -76.99689366666667, "name": "7ebbb9ce84ed575ef4611329b3262f23", "is_disabled": 0, "rental_uris": {"android": "https://dc.lft.to/lastmile_qr_scan", "ios": "https://dc.lft.to/lastmile_qr_scan"}, "type": "electric_scooter", "lat": 38.90842, "is_reserved": 0, "fusion_lat": 0.0}, {"bike_id": "852a2d4cab27df11457a9aea56c00fbd", "fusion_lon": 0.0, "lon": -77.02018033333333, "name": "852a2d4cab27df11457a9aea56c00fbd", "is_disabled": 0, "rental_uris": {"android": "https://dc.lft.to/lastmile_qr_scan", "ios": "https://dc.lft.to/lastmile_qr_scan"}, "type": "electric_scooter", "lat": 38.89961566666667, "is_reserved": 0, "fusion_lat": 0.0}, {"bike_id": "a4169f69f605e8e92da309dcbcb86a69", "fusion_lon": 0.0, "lon": -76.98071333333333, "name": "a4169f69f605e8e92da309dcbcb86a69", "is_disabled": 0, "rental_uris": {"android": "https://dc.lft.to/lastmile_qr_scan", "ios": "https://dc.lft.to/lastmile_qr_scan"}, "type": "electric_scooter", "lat": 38.901644833333336, "is_reserved": 0, "fusion_lat": 0.0}, {"bike_id": "1e2036f6bf06e1096070b800297b2824", "fusion_lon": 0.0, "lon": -77.022258, "name": "1e2036f6bf06e1096070b800297b2824", "is_disabled": 0, "rental_uris": {"android": "https://dc.lft.to/lastmile_qr_scan", "ios": "https://dc.lft.to/lastmile_qr_scan"}, "type": "electric_scooter", "lat": 38.90007216666667, "is_reserved": 0, "fusion_lat": 0.0}, {"bike_id": "80efef85bf3f370d6c8d162696a19862", "fusion_lon": 0.0, "lon": -77.0333305, "name": "80efef85bf3f370d6c8d162696a19862", "is_disabled": 0, "rental_uris": {"android": "https://dc.lft.to/lastmile_qr_scan", "ios": "https://dc.lft.to/lastmile_qr_scan"}, "type": "electric_scooter", "lat": 38.902695, "is_reserved": 0, "fusion_lat": 0.0}, {"bike_id": "fcc33473881756d829bc569b6dd63ea5", "fusion_lon": 0.0, "lon": -77.0325515, "name": "fcc33473881756d829bc569b6dd63ea5", "is_disabled": 0, "rental_uris": {"android": "https://dc.lft.to/lastmile_qr_scan", "ios": "https://dc.lft.to/lastmile_qr_scan"}, "type": "electric_scooter", "lat": 38.9397325, "is_reserved": 0, "fusion_lat": 0.0}, {"bike_id": "d8422cde1e8f3bcda835fc638a808a04", "fusion_lon": 0.0, "lon": -77.018212, "name": "d8422cde1e8f3bcda835fc638a808a04", "is_disabled": 0, "rental_uris": {"android": "https://dc.lft.to/lastmile_qr_scan", "ios": "https://dc.lft.to/lastmile_qr_scan"}, "type": "electric_scooter", "lat": 38.91933983333333, "is_reserved": 0, "fusion_lat": 0.0}, {"bike_id": "33035eba7e1b5d18a20b2e633ec3b047", "fusion_lon": 0.0, "lon": -76.99614416666667, "name": "33035eba7e1b5d18a20b2e633ec3b047", "is_disabled": 0, "rental_uris": {"android": "https://dc.lft.to/lastmile_qr_scan", "ios": "https://dc.lft.to/lastmile_qr_scan"}, "type": "electric_scooter", "lat": 38.899231666666665, "is_reserved": 0, "fusion_lat": 0.0}, {"bike_id": "2a84ea16720145ff004faedc57b81536", "fusion_lon": 0.0, "lon": -76.9937635, "name": "2a84ea16720145ff004faedc57b81536", "is_disabled": 0, "rental_uris": {"android": "https://dc.lft.to/lastmile_qr_scan", "ios": "https://dc.lft.to/lastmile_qr_scan"}, "type": "electric_bike", "lat": 38.971863, "is_reserved": 0, "fusion_lat": 0.0}, {"bike_id": "cc1ce72eaf9ed19eae8e453afa0a9b02", "fusion_lon": 0.0, "lon": -77.07424983333334, "name": "cc1ce72eaf9ed19eae8e453afa0a9b02", "is_disabled": 0, "rental_uris": {"android": "https://dc.lft.to/lastmile_qr_scan", "ios": "https://dc.lft.to/lastmile_qr_scan"}, "type": "electric_scooter", "lat": 38.913081166666665, "is_reserved": 0, "fusion_lat": 0.0}, {"bike_id": "d129c964ec19400910347f380aa6613f", "fusion_lon": 0.0, "lon": -76.97164433333333, "name": "d129c964ec19400910347f380aa6613f", "is_disabled": 0, "rental_uris": {"android": "https://dc.lft.to/lastmile_qr_scan", "ios": "https://dc.lft.to/lastmile_qr_scan"}, "type": "electric_scooter", "lat": 38.8547635, "is_reserved": 0, "fusion_lat": 0.0}, {"bike_id": "74d054c55da342fa130c9e32905aa943", "fusion_lon": 0.0, "lon": -76.93296, "name": "74d054c55da342fa130c9e32905aa943", "is_disabled": 0, "rental_uris": {"android": "https://dc.lft.to/lastmile_qr_scan", "ios": "https://dc.lft.to/lastmile_qr_scan"}, "type": "electric_scooter", "lat": 38.881454166666664, "is_reserved": 0, "fusion_lat": 0.0}, {"bike_id": "d628e157f8536559608220ce0204ddbf", "fusion_lon": 0.0, "lon": -77.00208833333333, "name": "d628e157f8536559608220ce0204ddbf", "is_disabled": 0, "rental_uris": {"android": "https://dc.lft.to/lastmile_qr_scan", "ios": "https://dc.lft.to/lastmile_qr_scan"}, "type": "electric_scooter", "lat": 38.87545316666667, "is_reserved": 0, "fusion_lat": 0.0}, {"bike_id": "ae27f3b637c80e6f7a9ec91fa693ede4", "fusion_lon": 0.0, "lon": -76.99815266666667, "name": "ae27f3b637c80e6f7a9ec91fa693ede4", "is_disabled": 0, "rental_uris": {"android": "https://dc.lft.to/lastmile_qr_scan", "ios": "https://dc.lft.to/lastmile_qr_scan"}, "type": "electric_scooter", "lat": 38.84435666666667, "is_reserved": 0, "fusion_lat": 0.0}, {"bike_id": "1fad8cbe2ce8efc95a9e57501dd3be39", "fusion_lon": 0.0, "lon": -77.0387715, "name": "1fad8cbe2ce8efc95a9e57501dd3be39", "is_disabled": 0, "rental_uris": {"android": "https://dc.lft.to/lastmile_qr_scan", "ios": "https://dc.lft.to/lastmile_qr_scan"}, "type": "electric_scooter", "lat": 38.91275983333333, "is_reserved": 0, "fusion_lat": 0.0}, {"bike_id": "88bc6a5293bafc0f54683e7cefabec5f", "fusion_lon": 0.0, "lon": -77.04346833333334, "name": "88bc6a5293bafc0f54683e7cefabec5f", "is_disabled": 0, "rental_uris": {"android": "https://dc.lft.to/lastmile_qr_scan", "ios": "https://dc.lft.to/lastmile_qr_scan"}, "type": "electric_scooter", "lat": 38.9089635, "is_reserved": 0, "fusion_lat": 0.0}, {"bike_id": "7ca4c652fc62e99582d10c7b461cfb7b", "fusion_lon": 0.0, "lon": -76.9865345, "name": "7ca4c652fc62e99582d10c7b461cfb7b", "is_disabled": 0, "rental_uris": {"android": "https://dc.lft.to/lastmile_qr_scan", "ios": "https://dc.lft.to/lastmile_qr_scan"}, "type": "electric_scooter", "lat": 38.858103166666666, "is_reserved": 0, "fusion_lat": 0.0}, {"bike_id": "8bd7b33cac2c1856ef83510db1718ea2", "fusion_lon": 0.0, "lon": -76.98925216666666, "name": "8bd7b33cac2c1856ef83510db1718ea2", "is_disabled": 0, "rental_uris": {"android": "https://dc.lft.to/lastmile_qr_scan", "ios": "https://dc.lft.to/lastmile_qr_scan"}, "type": "electric_scooter", "lat": 38.85812716666667, "is_reserved": 0, "fusion_lat": 0.0}, {"bike_id": "d73b8cef9b61070919bb12b433410704", "fusion_lon": 0.0, "lon": -77.0523775, "name": "d73b8cef9b61070919bb12b433410704", "is_disabled": 0, "rental_uris": {"android": "https://dc.lft.to/lastmile_qr_scan", "ios": "https://dc.lft.to/lastmile_qr_scan"}, "type": "electric_scooter", "lat": 38.92705483333334, "is_reserved": 0, "fusion_lat": 0.0}, {"bike_id": "562e38c469ca3acc229744fdcd8d4c46", "fusion_lon": 0.0, "lon": -77.02896116666666, "name": "562e38c469ca3acc229744fdcd8d4c46", "is_disabled": 0, "rental_uris": {"android": "https://dc.lft.to/lastmile_qr_scan", "ios": "https://dc.lft.to/lastmile_qr_scan"}, "type": "electric_scooter", "lat": 38.91409783333334, "is_reserved": 0, "fusion_lat": 0.0}, {"bike_id": "aa4007c80e366ebd07c70bf23ec1f699", "fusion_lon": 0.0, "lon": -77.04028283333334, "name": "aa4007c80e366ebd07c70bf23ec1f699", "is_disabled": 0, "rental_uris": {"android": "https://dc.lft.to/lastmile_qr_scan", "ios": "https://dc.lft.to/lastmile_qr_scan"}, "type": "electric_scooter", "lat": 38.8989395, "is_reserved": 0, "fusion_lat": 0.0}, {"bike_id": "39f217e5da358538cfb7be9475daad7d", "fusion_lon": 0.0, "lon": -77.02970433333333, "name": "39f217e5da358538cfb7be9475daad7d", "is_disabled": 0, "rental_uris": {"android": "https://dc.lft.to/lastmile_qr_scan", "ios": "https://dc.lft.to/lastmile_qr_scan"}, "type": "electric_scooter", "lat": 38.916875, "is_reserved": 0, "fusion_lat": 0.0}, {"bike_id": "8c3b37f8ece5ff674f63ee0ba01004bd", "fusion_lon": 0.0, "lon": -77.0094465, "name": "8c3b37f8ece5ff674f63ee0ba01004bd", "is_disabled": 0, "rental_uris": {"android": "https://dc.lft.to/lastmile_qr_scan", "ios": "https://dc.lft.to/lastmile_qr_scan"}, "type": "electric_bike", "lat": 38.897278666666665, "is_reserved": 0, "fusion_lat": 0.0}, {"bike_id": "0f7c641a87c251bdb20018df1c7d970f", "fusion_lon": 0.0, "lon": -77.00347183333334, "name": "0f7c641a87c251bdb20018df1c7d970f", "is_disabled": 0, "rental_uris": {"android": "https://dc.lft.to/lastmile_qr_scan", "ios": "https://dc.lft.to/lastmile_qr_scan"}, "type": "electric_scooter", "lat": 38.9071345, "is_reserved": 0, "fusion_lat": 0.0}, {"bike_id": "6d996f5842108cb51fe7f46d675450d4", "fusion_lon": 0.0, "lon": -77.01989116666667, "name": "6d996f5842108cb51fe7f46d675450d4", "is_disabled": 0, "rental_uris": {"android": "https://dc.lft.to/lastmile_qr_scan", "ios": "https://dc.lft.to/lastmile_qr_scan"}, "type": "electric_bike", "lat": 38.9228085, "is_reserved": 0, "fusion_lat": 0.0}, {"bike_id": "266e7919c28e095735306ca7d80c0764", "fusion_lon": 0.0, "lon": -77.12525616666667, "name": "266e7919c28e095735306ca7d80c0764", "is_disabled": 0, "rental_uris": {"android": "https://dc.lft.to/lastmile_qr_scan", "ios": "https://dc.lft.to/lastmile_qr_scan"}, "type": "electric_bike", "lat": 39.056351, "is_reserved": 0, "fusion_lat": 0.0}, {"bike_id": "b403a96255f18bf79493f61b20ad30c1", "fusion_lon": 0.0, "lon": -77.0259145, "name": "b403a96255f18bf79493f61b20ad30c1", "is_disabled": 0, "rental_uris": {"android": "https://dc.lft.to/lastmile_qr_scan", "ios": "https://dc.lft.to/lastmile_qr_scan"}, "type": "electric_scooter", "lat": 38.96393233333333, "is_reserved": 0, "fusion_lat": 0.0}, {"bike_id": "a5ffb4397da4d0ad7fb56aa31db1ebc4", "fusion_lon": 0.0, "lon": -77.0348195, "name": "a5ffb4397da4d0ad7fb56aa31db1ebc4", "is_disabled": 0, "rental_uris": {"android": "https://dc.lft.to/lastmile_qr_scan", "ios": "https://dc.lft.to/lastmile_qr_scan"}, "type": "electric_scooter", "lat": 38.90278683333333, "is_reserved": 0, "fusion_lat": 0.0}, {"bike_id": "bce25f2d917e50ff5edabb39058693ed", "fusion_lon": 0.0, "lon": -77.0208405, "name": "bce25f2d917e50ff5edabb39058693ed", "is_disabled": 0, "rental_uris": {"android": "https://dc.lft.to/lastmile_qr_scan", "ios": "https://dc.lft.to/lastmile_qr_scan"}, "type": "electric_scooter", "lat": 38.927200666666664, "is_reserved": 0, "fusion_lat": 0.0}, {"bike_id": "c1b98468061228c808f6f0d66c98fe23", "fusion_lon": 0.0, "lon": -76.9860855, "name": "c1b98468061228c808f6f0d66c98fe23", "is_disabled": 0, "rental_uris": {"android": "https://dc.lft.to/lastmile_qr_scan", "ios": "https://dc.lft.to/lastmile_qr_scan"}, "type": "electric_scooter", "lat": 38.86527816666667, "is_reserved": 0, "fusion_lat": 0.0}, {"bike_id": "dac6d35ae06ec3fc90accd9c1dfb008c", "fusion_lon": 0.0, "lon": -76.94637083333333, "name": "dac6d35ae06ec3fc90accd9c1dfb008c", "is_disabled": 0, "rental_uris": {"android": "https://dc.lft.to/lastmile_qr_scan", "ios": "https://dc.lft.to/lastmile_qr_scan"}, "type": "electric_scooter", "lat": 38.8984445, "is_reserved": 0, "fusion_lat": 0.0}, {"bike_id": "1c6002a81c408837b771a922c1d7c368", "fusion_lon": 0.0, "lon": -76.99505366666666, "name": "1c6002a81c408837b771a922c1d7c368", "is_disabled": 0, "rental_uris": {"android": "https://dc.lft.to/lastmile_qr_scan", "ios": "https://dc.lft.to/lastmile_qr_scan"}, "type": "electric_scooter", "lat": 38.899089333333336, "is_reserved": 0, "fusion_lat": 0.0}, {"bike_id": "338a0a3e87e4cba1cbe1e7a4395ee26e", "fusion_lon": 0.0, "lon": -77.03961033333333, "name": "338a0a3e87e4cba1cbe1e7a4395ee26e", "is_disabled": 0, "rental_uris": {"android": "https://dc.lft.to/lastmile_qr_scan", "ios": "https://dc.lft.to/lastmile_qr_scan"}, "type": "electric_scooter", "lat": 38.90833666666666, "is_reserved": 0, "fusion_lat": 0.0}, {"bike_id": "973484c8ecf35d91f3ebeb4da25076b4", "fusion_lon": 0.0, "lon": -76.99728816666666, "name": "973484c8ecf35d91f3ebeb4da25076b4", "is_disabled": 0, "rental_uris": {"android": "https://dc.lft.to/lastmile_qr_scan", "ios": "https://dc.lft.to/lastmile_qr_scan"}, "type": "electric_scooter", "lat": 38.90797083333333, "is_reserved": 0, "fusion_lat": 0.0}, {"bike_id": "1054505f7d512117370454c456e57ff1", "fusion_lon": 0.0, "lon": -77.03266516666666, "name": "1054505f7d512117370454c456e57ff1", "is_disabled": 0, "rental_uris": {"android": "https://dc.lft.to/lastmile_qr_scan", "ios": "https://dc.lft.to/lastmile_qr_scan"}, "type": "electric_scooter", "lat": 38.90965283333333, "is_reserved": 0, "fusion_lat": 0.0}, {"bike_id": "f7ddd46be290d475238bcd3c16748991", "fusion_lon": 0.0, "lon": -77.04690833333333, "name": "f7ddd46be290d475238bcd3c16748991", "is_disabled": 0, "rental_uris": {"android": "https://dc.lft.to/lastmile_qr_scan", "ios": "https://dc.lft.to/lastmile_qr_scan"}, "type": "electric_scooter", "lat": 38.90601433333333, "is_reserved": 0, "fusion_lat": 0.0}, {"bike_id": "2651a5c885473224c5ce783b0a17380c", "fusion_lon": 0.0, "lon": -77.03699316666666, "name": "2651a5c885473224c5ce783b0a17380c", "is_disabled": 0, "rental_uris": {"android": "https://dc.lft.to/lastmile_qr_scan", "ios": "https://dc.lft.to/lastmile_qr_scan"}, "type": "electric_scooter", "lat": 38.92650783333333, "is_reserved": 0, "fusion_lat": 0.0}, {"bike_id": "c3f3ceea536eab2916bbcedc8c0d692f", "fusion_lon": 0.0, "lon": -77.00140733333333, "name": "c3f3ceea536eab2916bbcedc8c0d692f", "is_disabled": 0, "rental_uris": {"android": "https://dc.lft.to/lastmile_qr_scan", "ios": "https://dc.lft.to/lastmile_qr_scan"}, "type": "electric_scooter", "lat": 38.8947035, "is_reserved": 0, "fusion_lat": 0.0}, {"bike_id": "d4284dfdd5d733de9a2e10837863dac2", "fusion_lon": 0.0, "lon": -77.02817, "name": "d4284dfdd5d733de9a2e10837863dac2", "is_disabled": 0, "rental_uris": {"android": "https://dc.lft.to/lastmile_qr_scan", "ios": "https://dc.lft.to/lastmile_qr_scan"}, "type": "electric_scooter", "lat": 38.916888666666665, "is_reserved": 0, "fusion_lat": 0.0}, {"bike_id": "ed659bcb4a9bab59012f33fb09310602", "fusion_lon": 0.0, "lon": -76.9978015, "name": "ed659bcb4a9bab59012f33fb09310602", "is_disabled": 0, "rental_uris": {"android": "https://dc.lft.to/lastmile_qr_scan", "ios": "https://dc.lft.to/lastmile_qr_scan"}, "type": "electric_scooter", "lat": 38.926544666666665, "is_reserved": 0, "fusion_lat": 0.0}, {"bike_id": "3674d475bd22320b0b4c6f0d9b6c76ce", "fusion_lon": 0.0, "lon": -77.04091483333333, "name": "3674d475bd22320b0b4c6f0d9b6c76ce", "is_disabled": 0, "rental_uris": {"android": "https://dc.lft.to/lastmile_qr_scan", "ios": "https://dc.lft.to/lastmile_qr_scan"}, "type": "electric_scooter", "lat": 38.91780966666666, "is_reserved": 0, "fusion_lat": 0.0}, {"bike_id": "a34396811549b8c83281dfa233ffb637", "fusion_lon": 0.0, "lon": -76.96525616666666, "name": "a34396811549b8c83281dfa233ffb637", "is_disabled": 0, "rental_uris": {"android": "https://dc.lft.to/lastmile_qr_scan", "ios": "https://dc.lft.to/lastmile_qr_scan"}, "type": "electric_scooter", "lat": 38.87633483333333, "is_reserved": 0, "fusion_lat": 0.0}, {"bike_id": "ac6208204ecbc4238b08c55c5a98fb9a", "fusion_lon": 0.0, "lon": -77.03840883333334, "name": "ac6208204ecbc4238b08c55c5a98fb9a", "is_disabled": 0, "rental_uris": {"android": "https://dc.lft.to/lastmile_qr_scan", "ios": "https://dc.lft.to/lastmile_qr_scan"}, "type": "electric_scooter", "lat": 38.9316655, "is_reserved": 0, "fusion_lat": 0.0}, {"bike_id": "b30beaca1ad075e823d24be69c7573a6", "fusion_lon": 0.0, "lon": -76.909752, "name": "b30beaca1ad075e823d24be69c7573a6", "is_disabled": 0, "rental_uris": {"android": "https://dc.lft.to/lastmile_qr_scan", "ios": "https://dc.lft.to/lastmile_qr_scan"}, "type": "electric_bike", "lat": 38.85436383333333, "is_reserved": 0, "fusion_lat": 0.0}, {"bike_id": "c0c8b7fba797d786ddd76a22fe6cd404", "fusion_lon": 0.0, "lon": -77.0276075, "name": "c0c8b7fba797d786ddd76a22fe6cd404", "is_disabled": 0, "rental_uris": {"android": "https://dc.lft.to/lastmile_qr_scan", "ios": "https://dc.lft.to/lastmile_qr_scan"}, "type": "electric_scooter", "lat": 38.95429, "is_reserved": 0, "fusion_lat": 0.0}, {"bike_id": "c3918be208a9227b438a264c0d3b6d69", "fusion_lon": 0.0, "lon": -77.023157, "name": "c3918be208a9227b438a264c0d3b6d69", "is_disabled": 0, "rental_uris": {"android": "https://dc.lft.to/lastmile_qr_scan", "ios": "https://dc.lft.to/lastmile_qr_scan"}, "type": "electric_scooter", "lat": 38.9179235, "is_reserved": 0, "fusion_lat": 0.0}, {"bike_id": "68893eadd8b6728b79176fc00fbcfaf9", "fusion_lon": 0.0, "lon": -77.050258, "name": "68893eadd8b6728b79176fc00fbcfaf9", "is_disabled": 0, "rental_uris": {"android": "https://dc.lft.to/lastmile_qr_scan", "ios": "https://dc.lft.to/lastmile_qr_scan"}, "type": "electric_scooter", "lat": 38.89664333333333, "is_reserved": 0, "fusion_lat": 0.0}, {"bike_id": "368f3a43991b2e68e8d99c2361367094", "fusion_lon": 0.0, "lon": -77.052269, "name": "368f3a43991b2e68e8d99c2361367094", "is_disabled": 0, "rental_uris": {"android": "https://dc.lft.to/lastmile_qr_scan", "ios": "https://dc.lft.to/lastmile_qr_scan"}, "type": "electric_scooter", "lat": 38.92461683333333, "is_reserved": 0, "fusion_lat": 0.0}, {"bike_id": "7166b320b9040015ac979a3d9cad51be", "fusion_lon": 0.0, "lon": -77.0418295, "name": "7166b320b9040015ac979a3d9cad51be", "is_disabled": 0, "rental_uris": {"android": "https://dc.lft.to/lastmile_qr_scan", "ios": "https://dc.lft.to/lastmile_qr_scan"}, "type": "electric_scooter", "lat": 38.9013725, "is_reserved": 0, "fusion_lat": 0.0}, {"bike_id": "d2d24e245d2c79fdfed2b72497f094c4", "fusion_lon": 0.0, "lon": -77.02693466666666, "name": "d2d24e245d2c79fdfed2b72497f094c4", "is_disabled": 0, "rental_uris": {"android": "https://dc.lft.to/lastmile_qr_scan", "ios": "https://dc.lft.to/lastmile_qr_scan"}, "type": "electric_scooter", "lat": 38.881304166666666, "is_reserved": 0, "fusion_lat": 0.0}, {"bike_id": "6105e923f5c2bf5bf4b9263adc8d05de", "fusion_lon": 0.0, "lon": -77.054432, "name": "6105e923f5c2bf5bf4b9263adc8d05de", "is_disabled": 0, "rental_uris": {"android": "https://dc.lft.to/lastmile_qr_scan", "ios": "https://dc.lft.to/lastmile_qr_scan"}, "type": "electric_scooter", "lat": 38.8961005, "is_reserved": 0, "fusion_lat": 0.0}, {"bike_id": "224431cd1f85772b6e3fc74c39c8c9dc", "fusion_lon": 0.0, "lon": -77.04332333333333, "name": "224431cd1f85772b6e3fc74c39c8c9dc", "is_disabled": 0, "rental_uris": {"android": "https://dc.lft.to/lastmile_qr_scan", "ios": "https://dc.lft.to/lastmile_qr_scan"}, "type": "electric_scooter", "lat": 38.89224466666667, "is_reserved": 0, "fusion_lat": 0.0}, {"bike_id": "8ae7d5489056c03e810b649c990a9d96", "fusion_lon": 0.0, "lon": -77.0419615, "name": "8ae7d5489056c03e810b649c990a9d96", "is_disabled": 0, "rental_uris": {"android": "https://dc.lft.to/lastmile_qr_scan", "ios": "https://dc.lft.to/lastmile_qr_scan"}, "type": "electric_scooter", "lat": 38.916962, "is_reserved": 0, "fusion_lat": 0.0}, {"bike_id": "6e70a25aaab8c27a8bae8a94654d8bcf", "fusion_lon": 0.0, "lon": -77.22215516666667, "name": "6e70a25aaab8c27a8bae8a94654d8bcf", "is_disabled": 0, "rental_uris": {"android": "https://dc.lft.to/lastmile_qr_scan", "ios": "https://dc.lft.to/lastmile_qr_scan"}, "type": "electric_bike", "lat": 38.92857516666667, "is_reserved": 0, "fusion_lat": 0.0}, {"bike_id": "b0f34c6a4c283dd7132fdea364e29d4f", "fusion_lon": 0.0, "lon": -76.965408, "name": "b0f34c6a4c283dd7132fdea364e29d4f", "is_disabled": 0, "rental_uris": {"android": "https://dc.lft.to/lastmile_qr_scan", "ios": "https://dc.lft.to/lastmile_qr_scan"}, "type": "electric_bike", "lat": 38.8748525, "is_reserved": 0, "fusion_lat": 0.0}, {"bike_id": "bc00f8eeb935f1549f3354b94e779c4e", "fusion_lon": 0.0, "lon": -77.02309616666666, "name": "bc00f8eeb935f1549f3354b94e779c4e", "is_disabled": 0, "rental_uris": {"android": "https://dc.lft.to/lastmile_qr_scan", "ios": "https://dc.lft.to/lastmile_qr_scan"}, "type": "electric_scooter", "lat": 38.89681266666667, "is_reserved": 0, "fusion_lat": 0.0}, {"bike_id": "917007d69a215d635d107da8a07be196", "fusion_lon": 0.0, "lon": -76.93989716666667, "name": "917007d69a215d635d107da8a07be196", "is_disabled": 0, "rental_uris": {"android": "https://dc.lft.to/lastmile_qr_scan", "ios": "https://dc.lft.to/lastmile_qr_scan"}, "type": "electric_scooter", "lat": 38.899856166666666, "is_reserved": 0, "fusion_lat": 0.0}, {"bike_id": "c8b7fdfa635e9e5be57f9424e1658f43", "fusion_lon": 0.0, "lon": -76.97888266666666, "name": "c8b7fdfa635e9e5be57f9424e1658f43", "is_disabled": 0, "rental_uris": {"android": "https://dc.lft.to/lastmile_qr_scan", "ios": "https://dc.lft.to/lastmile_qr_scan"}, "type": "electric_bike", "lat": 38.91589866666666, "is_reserved": 0, "fusion_lat": 0.0}, {"bike_id": "f27706d0132ad8969fa9fdcae71b6cf8", "fusion_lon": 0.0, "lon": -77.01105416666667, "name": "f27706d0132ad8969fa9fdcae71b6cf8", "is_disabled": 0, "rental_uris": {"android": "https://dc.lft.to/lastmile_qr_scan", "ios": "https://dc.lft.to/lastmile_qr_scan"}, "type": "electric_scooter", "lat": 38.89525783333333, "is_reserved": 0, "fusion_lat": 0.0}, {"bike_id": "52d560644bec0968aab4081d5ec95c96", "fusion_lon": 0.0, "lon": -77.02525066666666, "name": "52d560644bec0968aab4081d5ec95c96", "is_disabled": 0, "rental_uris": {"android": "https://dc.lft.to/lastmile_qr_scan", "ios": "https://dc.lft.to/lastmile_qr_scan"}, "type": "electric_scooter", "lat": 38.914881, "is_reserved": 0, "fusion_lat": 0.0}, {"bike_id": "075be46826d2f93b6667bb60382c7d73", "fusion_lon": 0.0, "lon": -77.1784455, "name": "075be46826d2f93b6667bb60382c7d73", "is_disabled": 0, "rental_uris": {"android": "https://dc.lft.to/lastmile_qr_scan", "ios": "https://dc.lft.to/lastmile_qr_scan"}, "type": "electric_bike", "lat": 39.08858566666667, "is_reserved": 0, "fusion_lat": 0.0}, {"bike_id": "3daf8d43ee4fd6d48f568fd9b519b46e", "fusion_lon": 0.0, "lon": -77.03184966666667, "name": "3daf8d43ee4fd6d48f568fd9b519b46e", "is_disabled": 0, "rental_uris": {"android": "https://dc.lft.to/lastmile_qr_scan", "ios": "https://dc.lft.to/lastmile_qr_scan"}, "type": "electric_scooter", "lat": 38.9183055, "is_reserved": 0, "fusion_lat": 0.0}, {"bike_id": "ec2c01ca8fb1da431c503e2e40e24c3a", "fusion_lon": 0.0, "lon": -77.04108233333334, "name": "ec2c01ca8fb1da431c503e2e40e24c3a", "is_disabled": 0, "rental_uris": {"android": "https://dc.lft.to/lastmile_qr_scan", "ios": "https://dc.lft.to/lastmile_qr_scan"}, "type": "electric_scooter", "lat": 38.92459483333333, "is_reserved": 0, "fusion_lat": 0.0}, {"bike_id": "95971380e587b9dbf0fc00485a7bb30f", "fusion_lon": 0.0, "lon": -76.988847, "name": "95971380e587b9dbf0fc00485a7bb30f", "is_disabled": 0, "rental_uris": {"android": "https://dc.lft.to/lastmile_qr_scan", "ios": "https://dc.lft.to/lastmile_qr_scan"}, "type": "electric_scooter", "lat": 38.866613, "is_reserved": 0, "fusion_lat": 0.0}, {"bike_id": "1930e4ff42e2b2054e551b8b176a00d6", "fusion_lon": 0.0, "lon": -76.98256883333333, "name": "1930e4ff42e2b2054e551b8b176a00d6", "is_disabled": 0, "rental_uris": {"android": "https://dc.lft.to/lastmile_qr_scan", "ios": "https://dc.lft.to/lastmile_qr_scan"}, "type": "electric_bike", "lat": 38.953389666666666, "is_reserved": 0, "fusion_lat": 0.0}, {"bike_id": "ed2a92db1a5e03f3490432c91e285edb", "fusion_lon": 0.0, "lon": -77.0449805, "name": "ed2a92db1a5e03f3490432c91e285edb", "is_disabled": 0, "rental_uris": {"android": "https://dc.lft.to/lastmile_qr_scan", "ios": "https://dc.lft.to/lastmile_qr_scan"}, "type": "electric_scooter", "lat": 38.90123633333333, "is_reserved": 0, "fusion_lat": 0.0}, {"bike_id": "f79f478a83a51126daad9ed7c8e944f2", "fusion_lon": 0.0, "lon": -77.01422533333333, "name": "f79f478a83a51126daad9ed7c8e944f2", "is_disabled": 0, "rental_uris": {"android": "https://dc.lft.to/lastmile_qr_scan", "ios": "https://dc.lft.to/lastmile_qr_scan"}, "type": "electric_scooter", "lat": 38.89949416666666, "is_reserved": 0, "fusion_lat": 0.0}, {"bike_id": "b8ae2c3ce862bc581be40f7de9872a01", "fusion_lon": 0.0, "lon": -77.023902, "name": "b8ae2c3ce862bc581be40f7de9872a01", "is_disabled": 0, "rental_uris": {"android": "https://dc.lft.to/lastmile_qr_scan", "ios": "https://dc.lft.to/lastmile_qr_scan"}, "type": "electric_scooter", "lat": 38.91958316666667, "is_reserved": 0, "fusion_lat": 0.0}, {"bike_id": "e345a8f9dc62f983a7eb9a2fe310db2b", "fusion_lon": 0.0, "lon": -77.079171, "name": "e345a8f9dc62f983a7eb9a2fe310db2b", "is_disabled": 0, "rental_uris": {"android": "https://dc.lft.to/lastmile_qr_scan", "ios": "https://dc.lft.to/lastmile_qr_scan"}, "type": "electric_bike", "lat": 38.8023025, "is_reserved": 0, "fusion_lat": 0.0}, {"bike_id": "5dc7ddda81edc6e546f3efdbb7922ac8", "fusion_lon": 0.0, "lon": -77.01399866666667, "name": "5dc7ddda81edc6e546f3efdbb7922ac8", "is_disabled": 0, "rental_uris": {"android": "https://dc.lft.to/lastmile_qr_scan", "ios": "https://dc.lft.to/lastmile_qr_scan"}, "type": "electric_scooter", "lat": 38.92841216666667, "is_reserved": 0, "fusion_lat": 0.0}, {"bike_id": "99190756fdfb35c3c7b9a3971bf25107", "fusion_lon": 0.0, "lon": -76.98839266666667, "name": "99190756fdfb35c3c7b9a3971bf25107", "is_disabled": 0, "rental_uris": {"android": "https://dc.lft.to/lastmile_qr_scan", "ios": "https://dc.lft.to/lastmile_qr_scan"}, "type": "electric_bike", "lat": 38.84281516666667, "is_reserved": 0, "fusion_lat": 0.0}, {"bike_id": "95e7e0dca46d86744801914671ee000b", "fusion_lon": 0.0, "lon": -77.160882, "name": "95e7e0dca46d86744801914671ee000b", "is_disabled": 0, "rental_uris": {"android": "https://dc.lft.to/lastmile_qr_scan", "ios": "https://dc.lft.to/lastmile_qr_scan"}, "type": "electric_bike", "lat": 38.886892833333334, "is_reserved": 0, "fusion_lat": 0.0}, {"bike_id": "fc6e6701fb29a8b849aadab4b7a13fb0", "fusion_lon": 0.0, "lon": -77.02301816666666, "name": "fc6e6701fb29a8b849aadab4b7a13fb0", "is_disabled": 0, "rental_uris": {"android": "https://dc.lft.to/lastmile_qr_scan", "ios": "https://dc.lft.to/lastmile_qr_scan"}, "type": "electric_scooter", "lat": 38.917963, "is_reserved": 0, "fusion_lat": 0.0}, {"bike_id": "f79e369bc3baa943abce887bd22e1e1c", "fusion_lon": 0.0, "lon": -77.02970633333334, "name": "f79e369bc3baa943abce887bd22e1e1c", "is_disabled": 0, "rental_uris": {"android": "https://dc.lft.to/lastmile_qr_scan", "ios": "https://dc.lft.to/lastmile_qr_scan"}, "type": "electric_scooter", "lat": 38.92263533333333, "is_reserved": 0, "fusion_lat": 0.0}, {"bike_id": "cec20ec400fbd283e893f2fb7fb1489d", "fusion_lon": 0.0, "lon": -77.0593355, "name": "cec20ec400fbd283e893f2fb7fb1489d", "is_disabled": 0, "rental_uris": {"android": "https://dc.lft.to/lastmile_qr_scan", "ios": "https://dc.lft.to/lastmile_qr_scan"}, "type": "electric_scooter", "lat": 38.909464, "is_reserved": 0, "fusion_lat": 0.0}, {"bike_id": "3b1755550cb6ce4bd1bf21b96b01e547", "fusion_lon": 0.0, "lon": -77.04631783333333, "name": "3b1755550cb6ce4bd1bf21b96b01e547", "is_disabled": 0, "rental_uris": {"android": "https://dc.lft.to/lastmile_qr_scan", "ios": "https://dc.lft.to/lastmile_qr_scan"}, "type": "electric_scooter", "lat": 38.915828166666664, "is_reserved": 0, "fusion_lat": 0.0}, {"bike_id": "6d3b01fc5fc359b7fb9fd4190875df10", "fusion_lon": 0.0, "lon": -77.0136795, "name": "6d3b01fc5fc359b7fb9fd4190875df10", "is_disabled": 0, "rental_uris": {"android": "https://dc.lft.to/lastmile_qr_scan", "ios": "https://dc.lft.to/lastmile_qr_scan"}, "type": "electric_scooter", "lat": 38.88680983333333, "is_reserved": 0, "fusion_lat": 0.0}, {"bike_id": "55d2e2000d450c9dbef3ede2c03723a3", "fusion_lon": 0.0, "lon": -77.03350233333333, "name": "55d2e2000d450c9dbef3ede2c03723a3", "is_disabled": 0, "rental_uris": {"android": "https://dc.lft.to/lastmile_qr_scan", "ios": "https://dc.lft.to/lastmile_qr_scan"}, "type": "electric_scooter", "lat": 38.928885333333334, "is_reserved": 0, "fusion_lat": 0.0}, {"bike_id": "b05e2091bf65c946d223fea6652b5d71", "fusion_lon": 0.0, "lon": -77.00044433333333, "name": "b05e2091bf65c946d223fea6652b5d71", "is_disabled": 0, "rental_uris": {"android": "https://dc.lft.to/lastmile_qr_scan", "ios": "https://dc.lft.to/lastmile_qr_scan"}, "type": "electric_bike", "lat": 38.89896733333333, "is_reserved": 0, "fusion_lat": 0.0}, {"bike_id": "1e88a306b76c4c858b8194dd95a07f59", "fusion_lon": 0.0, "lon": -77.02494266666666, "name": "1e88a306b76c4c858b8194dd95a07f59", "is_disabled": 0, "rental_uris": {"android": "https://dc.lft.to/lastmile_qr_scan", "ios": "https://dc.lft.to/lastmile_qr_scan"}, "type": "electric_scooter", "lat": 38.90735316666667, "is_reserved": 0, "fusion_lat": 0.0}, {"bike_id": "0c68fba8c1319c62067e1252b37273d7", "fusion_lon": 0.0, "lon": -77.02996966666667, "name": "0c68fba8c1319c62067e1252b37273d7", "is_disabled": 0, "rental_uris": {"android": "https://dc.lft.to/lastmile_qr_scan", "ios": "https://dc.lft.to/lastmile_qr_scan"}, "type": "electric_scooter", "lat": 38.9037375, "is_reserved": 0, "fusion_lat": 0.0}, {"bike_id": "24c7c6f0dff98ec00e1fb63b23a0c5e7", "fusion_lon": 0.0, "lon": -77.0488185, "name": "24c7c6f0dff98ec00e1fb63b23a0c5e7", "is_disabled": 0, "rental_uris": {"android": "https://dc.lft.to/lastmile_qr_scan", "ios": "https://dc.lft.to/lastmile_qr_scan"}, "type": "electric_scooter", "lat": 38.90069916666667, "is_reserved": 0, "fusion_lat": 0.0}, {"bike_id": "5ff84a97200b94b0609a02c299d86228", "fusion_lon": 0.0, "lon": -77.069279, "name": "5ff84a97200b94b0609a02c299d86228", "is_disabled": 0, "rental_uris": {"android": "https://dc.lft.to/lastmile_qr_scan", "ios": "https://dc.lft.to/lastmile_qr_scan"}, "type": "electric_scooter", "lat": 38.907891166666666, "is_reserved": 0, "fusion_lat": 0.0}, {"bike_id": "d4a1ce90f5cec35534d083e611ef4c4a", "fusion_lon": 0.0, "lon": -77.044844, "name": "d4a1ce90f5cec35534d083e611ef4c4a", "is_disabled": 0, "rental_uris": {"android": "https://dc.lft.to/lastmile_qr_scan", "ios": "https://dc.lft.to/lastmile_qr_scan"}, "type": "electric_scooter", "lat": 38.91374366666667, "is_reserved": 0, "fusion_lat": 0.0}, {"bike_id": "65dfe38e40b48ae2f34e5048267ec7d2", "fusion_lon": 0.0, "lon": -77.024417, "name": "65dfe38e40b48ae2f34e5048267ec7d2", "is_disabled": 0, "rental_uris": {"android": "https://dc.lft.to/lastmile_qr_scan", "ios": "https://dc.lft.to/lastmile_qr_scan"}, "type": "electric_scooter", "lat": 38.902204, "is_reserved": 0, "fusion_lat": 0.0}, {"bike_id": "b3818bd36834fbf45e6419a3356115c3", "fusion_lon": 0.0, "lon": -77.043104, "name": "b3818bd36834fbf45e6419a3356115c3", "is_disabled": 0, "rental_uris": {"android": "https://dc.lft.to/lastmile_qr_scan", "ios": "https://dc.lft.to/lastmile_qr_scan"}, "type": "electric_scooter", "lat": 38.918825166666664, "is_reserved": 0, "fusion_lat": 0.0}, {"bike_id": "2c886bf8567f080437be4977506005f3", "fusion_lon": 0.0, "lon": -76.93732716666666, "name": "2c886bf8567f080437be4977506005f3", "is_disabled": 0, "rental_uris": {"android": "https://dc.lft.to/lastmile_qr_scan", "ios": "https://dc.lft.to/lastmile_qr_scan"}, "type": "electric_scooter", "lat": 38.89023983333333, "is_reserved": 0, "fusion_lat": 0.0}, {"bike_id": "8b609d231aa2feaace03aee4bcce1eca", "fusion_lon": 0.0, "lon": -77.00330966666667, "name": "8b609d231aa2feaace03aee4bcce1eca", "is_disabled": 0, "rental_uris": {"android": "https://dc.lft.to/lastmile_qr_scan", "ios": "https://dc.lft.to/lastmile_qr_scan"}, "type": "electric_scooter", "lat": 38.889904666666666, "is_reserved": 0, "fusion_lat": 0.0}, {"bike_id": "76f25d5807394f8e07f8335c41565507", "fusion_lon": 0.0, "lon": -77.01479033333334, "name": "76f25d5807394f8e07f8335c41565507", "is_disabled": 0, "rental_uris": {"android": "https://dc.lft.to/lastmile_qr_scan", "ios": "https://dc.lft.to/lastmile_qr_scan"}, "type": "electric_scooter", "lat": 38.926781, "is_reserved": 0, "fusion_lat": 0.0}, {"bike_id": "e6cde683259b1fed7311721fe4ed302f", "fusion_lon": 0.0, "lon": -77.02232183333334, "name": "e6cde683259b1fed7311721fe4ed302f", "is_disabled": 0, "rental_uris": {"android": "https://dc.lft.to/lastmile_qr_scan", "ios": "https://dc.lft.to/lastmile_qr_scan"}, "type": "electric_scooter", "lat": 38.89226516666667, "is_reserved": 0, "fusion_lat": 0.0}, {"bike_id": "01ef3835693a4e0a650e7055a909944f", "fusion_lon": 0.0, "lon": -77.01409016666666, "name": "01ef3835693a4e0a650e7055a909944f", "is_disabled": 0, "rental_uris": {"android": "https://dc.lft.to/lastmile_qr_scan", "ios": "https://dc.lft.to/lastmile_qr_scan"}, "type": "electric_scooter", "lat": 38.887471833333336, "is_reserved": 0, "fusion_lat": 0.0}, {"bike_id": "d9822df9338f823c602c969769671492", "fusion_lon": 0.0, "lon": -77.04672933333333, "name": "d9822df9338f823c602c969769671492", "is_disabled": 0, "rental_uris": {"android": "https://dc.lft.to/lastmile_qr_scan", "ios": "https://dc.lft.to/lastmile_qr_scan"}, "type": "electric_scooter", "lat": 38.89951416666667, "is_reserved": 0, "fusion_lat": 0.0}, {"bike_id": "590272fa40873cc42d959b3fe9a0b752", "fusion_lon": 0.0, "lon": -77.07363433333333, "name": "590272fa40873cc42d959b3fe9a0b752", "is_disabled": 0, "rental_uris": {"android": "https://dc.lft.to/lastmile_qr_scan", "ios": "https://dc.lft.to/lastmile_qr_scan"}, "type": "electric_bike", "lat": 38.96183966666667, "is_reserved": 0, "fusion_lat": 0.0}, {"bike_id": "a8f5d5f8f9ae0d9cb2cb605b4a111088", "fusion_lon": 0.0, "lon": -77.00603266666667, "name": "a8f5d5f8f9ae0d9cb2cb605b4a111088", "is_disabled": 0, "rental_uris": {"android": "https://dc.lft.to/lastmile_qr_scan", "ios": "https://dc.lft.to/lastmile_qr_scan"}, "type": "electric_scooter", "lat": 38.9056375, "is_reserved": 0, "fusion_lat": 0.0}, {"bike_id": "e754d54344eda47e4614d49d9b934cbd", "fusion_lon": 0.0, "lon": -77.0414475, "name": "e754d54344eda47e4614d49d9b934cbd", "is_disabled": 0, "rental_uris": {"android": "https://dc.lft.to/lastmile_qr_scan", "ios": "https://dc.lft.to/lastmile_qr_scan"}, "type": "electric_scooter", "lat": 38.9218585, "is_reserved": 0, "fusion_lat": 0.0}, {"bike_id": "2ef3a482650e78e35c00155a498a140a", "fusion_lon": 0.0, "lon": -76.98841066666667, "name": "2ef3a482650e78e35c00155a498a140a", "is_disabled": 0, "rental_uris": {"android": "https://dc.lft.to/lastmile_qr_scan", "ios": "https://dc.lft.to/lastmile_qr_scan"}, "type": "electric_scooter", "lat": 38.9003885, "is_reserved": 0, "fusion_lat": 0.0}, {"bike_id": "22475dd358cab56732a0d36bad0f7f09", "fusion_lon": 0.0, "lon": -77.028149, "name": "22475dd358cab56732a0d36bad0f7f09", "is_disabled": 0, "rental_uris": {"android": "https://dc.lft.to/lastmile_qr_scan", "ios": "https://dc.lft.to/lastmile_qr_scan"}, "type": "electric_scooter", "lat": 38.93095533333333, "is_reserved": 0, "fusion_lat": 0.0}, {"bike_id": "2cf5e0555adad8e134137dfb5b4b18de", "fusion_lon": 0.0, "lon": -77.0097485, "name": "2cf5e0555adad8e134137dfb5b4b18de", "is_disabled": 0, "rental_uris": {"android": "https://dc.lft.to/lastmile_qr_scan", "ios": "https://dc.lft.to/lastmile_qr_scan"}, "type": "electric_bike", "lat": 38.961438333333334, "is_reserved": 0, "fusion_lat": 0.0}, {"bike_id": "09b5c5faaa9a7d1f390027218b7d53e5", "fusion_lon": 0.0, "lon": -77.00729283333334, "name": "09b5c5faaa9a7d1f390027218b7d53e5", "is_disabled": 0, "rental_uris": {"android": "https://dc.lft.to/lastmile_qr_scan", "ios": "https://dc.lft.to/lastmile_qr_scan"}, "type": "electric_scooter", "lat": 38.88497366666667, "is_reserved": 0, "fusion_lat": 0.0}, {"bike_id": "b797776746034a1116f6c9406a241563", "fusion_lon": 0.0, "lon": -76.99352183333333, "name": "b797776746034a1116f6c9406a241563", "is_disabled": 0, "rental_uris": {"android": "https://dc.lft.to/lastmile_qr_scan", "ios": "https://dc.lft.to/lastmile_qr_scan"}, "type": "electric_bike", "lat": 38.845087166666666, "is_reserved": 0, "fusion_lat": 0.0}, {"bike_id": "821b7dace8c93053a9c5301b0e9b027d", "fusion_lon": 0.0, "lon": -77.02409966666667, "name": "821b7dace8c93053a9c5301b0e9b027d", "is_disabled": 0, "rental_uris": {"android": "https://dc.lft.to/lastmile_qr_scan", "ios": "https://dc.lft.to/lastmile_qr_scan"}, "type": "electric_scooter", "lat": 38.905624333333336, "is_reserved": 0, "fusion_lat": 0.0}, {"bike_id": "4b9964a770030204473690d2984f5fd8", "fusion_lon": 0.0, "lon": -77.05532966666667, "name": "4b9964a770030204473690d2984f5fd8", "is_disabled": 0, "rental_uris": {"android": "https://dc.lft.to/lastmile_qr_scan", "ios": "https://dc.lft.to/lastmile_qr_scan"}, "type": "electric_scooter", "lat": 38.9298735, "is_reserved": 0, "fusion_lat": 0.0}, {"bike_id": "afbe6291d757733406efffd7faa254f0", "fusion_lon": 0.0, "lon": -77.02238066666666, "name": "afbe6291d757733406efffd7faa254f0", "is_disabled": 0, "rental_uris": {"android": "https://dc.lft.to/lastmile_qr_scan", "ios": "https://dc.lft.to/lastmile_qr_scan"}, "type": "electric_scooter", "lat": 38.878788, "is_reserved": 0, "fusion_lat": 0.0}, {"bike_id": "19cdf52c998d25c364dabec2ea38b3b1", "fusion_lon": 0.0, "lon": -77.03146266666667, "name": "19cdf52c998d25c364dabec2ea38b3b1", "is_disabled": 0, "rental_uris": {"android": "https://dc.lft.to/lastmile_qr_scan", "ios": "https://dc.lft.to/lastmile_qr_scan"}, "type": "electric_scooter", "lat": 38.9180395, "is_reserved": 0, "fusion_lat": 0.0}, {"bike_id": "fc5073365c26aa8b98be171d2a50fb31", "fusion_lon": 0.0, "lon": -77.0319895, "name": "fc5073365c26aa8b98be171d2a50fb31", "is_disabled": 0, "rental_uris": {"android": "https://dc.lft.to/lastmile_qr_scan", "ios": "https://dc.lft.to/lastmile_qr_scan"}, "type": "electric_scooter", "lat": 38.9164025, "is_reserved": 0, "fusion_lat": 0.0}, {"bike_id": "af3ba4c2a71b7d6627578d83a14049ed", "fusion_lon": 0.0, "lon": -77.02695883333334, "name": "af3ba4c2a71b7d6627578d83a14049ed", "is_disabled": 0, "rental_uris": {"android": "https://dc.lft.to/lastmile_qr_scan", "ios": "https://dc.lft.to/lastmile_qr_scan"}, "type": "electric_scooter", "lat": 38.906643333333335, "is_reserved": 0, "fusion_lat": 0.0}, {"bike_id": "cb089f7031f887a02fe6f4faf0762f5d", "fusion_lon": 0.0, "lon": -77.03509083333333, "name": "cb089f7031f887a02fe6f4faf0762f5d", "is_disabled": 0, "rental_uris": {"android": "https://dc.lft.to/lastmile_qr_scan", "ios": "https://dc.lft.to/lastmile_qr_scan"}, "type": "electric_scooter", "lat": 38.91889333333334, "is_reserved": 0, "fusion_lat": 0.0}, {"bike_id": "0b0fb987ac23a8294c2baf7f4296f99f", "fusion_lon": 0.0, "lon": -77.03444016666667, "name": "0b0fb987ac23a8294c2baf7f4296f99f", "is_disabled": 0, "rental_uris": {"android": "https://dc.lft.to/lastmile_qr_scan", "ios": "https://dc.lft.to/lastmile_qr_scan"}, "type": "electric_scooter", "lat": 38.91819116666667, "is_reserved": 0, "fusion_lat": 0.0}, {"bike_id": "9dd05fdfcd7ac205e04bdd52f144f4e1", "fusion_lon": 0.0, "lon": -77.13471866666667, "name": "9dd05fdfcd7ac205e04bdd52f144f4e1", "is_disabled": 0, "rental_uris": {"android": "https://dc.lft.to/lastmile_qr_scan", "ios": "https://dc.lft.to/lastmile_qr_scan"}, "type": "electric_bike", "lat": 38.85363433333333, "is_reserved": 0, "fusion_lat": 0.0}, {"bike_id": "c80456ee2d0c382328156766bf0133ec", "fusion_lon": 0.0, "lon": -77.10579816666667, "name": "c80456ee2d0c382328156766bf0133ec", "is_disabled": 0, "rental_uris": {"android": "https://dc.lft.to/lastmile_qr_scan", "ios": "https://dc.lft.to/lastmile_qr_scan"}, "type": "electric_bike", "lat": 38.9620515, "is_reserved": 0, "fusion_lat": 0.0}, {"bike_id": "a310d5a6d19f4cc52c0afcb74a486951", "fusion_lon": 0.0, "lon": -77.03208283333333, "name": "a310d5a6d19f4cc52c0afcb74a486951", "is_disabled": 0, "rental_uris": {"android": "https://dc.lft.to/lastmile_qr_scan", "ios": "https://dc.lft.to/lastmile_qr_scan"}, "type": "electric_scooter", "lat": 38.91935633333333, "is_reserved": 0, "fusion_lat": 0.0}, {"bike_id": "ba3fad5265d7f7ff52a69f25ce37c3c1", "fusion_lon": 0.0, "lon": -77.043509, "name": "ba3fad5265d7f7ff52a69f25ce37c3c1", "is_disabled": 0, "rental_uris": {"android": "https://dc.lft.to/lastmile_qr_scan", "ios": "https://dc.lft.to/lastmile_qr_scan"}, "type": "electric_scooter", "lat": 38.90007033333333, "is_reserved": 0, "fusion_lat": 0.0}, {"bike_id": "6aebe514eecd3471180c6973ddcc4ea8", "fusion_lon": 0.0, "lon": -77.00563616666666, "name": "6aebe514eecd3471180c6973ddcc4ea8", "is_disabled": 0, "rental_uris": {"android": "https://dc.lft.to/lastmile_qr_scan", "ios": "https://dc.lft.to/lastmile_qr_scan"}, "type": "electric_scooter", "lat": 38.88509033333333, "is_reserved": 0, "fusion_lat": 0.0}, {"bike_id": "fb56969540615e4bf19bc03f97f7bcf1", "fusion_lon": 0.0, "lon": -77.03402666666666, "name": "fb56969540615e4bf19bc03f97f7bcf1", "is_disabled": 0, "rental_uris": {"android": "https://dc.lft.to/lastmile_qr_scan", "ios": "https://dc.lft.to/lastmile_qr_scan"}, "type": "electric_scooter", "lat": 38.93125116666667, "is_reserved": 0, "fusion_lat": 0.0}, {"bike_id": "83dbbbdba3dcbf72f1dc71b0cd3340a8", "fusion_lon": 0.0, "lon": -77.03985583333333, "name": "83dbbbdba3dcbf72f1dc71b0cd3340a8", "is_disabled": 0, "rental_uris": {"android": "https://dc.lft.to/lastmile_qr_scan", "ios": "https://dc.lft.to/lastmile_qr_scan"}, "type": "electric_scooter", "lat": 38.9177075, "is_reserved": 0, "fusion_lat": 0.0}, {"bike_id": "6472cb93b35fc1bb9d502e96f9a79a56", "fusion_lon": 0.0, "lon": -77.006032, "name": "6472cb93b35fc1bb9d502e96f9a79a56", "is_disabled": 0, "rental_uris": {"android": "https://dc.lft.to/lastmile_qr_scan", "ios": "https://dc.lft.to/lastmile_qr_scan"}, "type": "electric_scooter", "lat": 38.906455666666666, "is_reserved": 0, "fusion_lat": 0.0}, {"bike_id": "87bf4c2ebdc50a91a519279eb640f344", "fusion_lon": 0.0, "lon": -77.031321, "name": "87bf4c2ebdc50a91a519279eb640f344", "is_disabled": 0, "rental_uris": {"android": "https://dc.lft.to/lastmile_qr_scan", "ios": "https://dc.lft.to/lastmile_qr_scan"}, "type": "electric_scooter", "lat": 38.91561316666667, "is_reserved": 0, "fusion_lat": 0.0}, {"bike_id": "03aeebd9e25546e4713d313c73947404", "fusion_lon": 0.0, "lon": -77.02665983333333, "name": "03aeebd9e25546e4713d313c73947404", "is_disabled": 0, "rental_uris": {"android": "https://dc.lft.to/lastmile_qr_scan", "ios": "https://dc.lft.to/lastmile_qr_scan"}, "type": "electric_scooter", "lat": 38.9288065, "is_reserved": 0, "fusion_lat": 0.0}, {"bike_id": "11daebb7caea6fbd4a1363fa03dd0e15", "fusion_lon": 0.0, "lon": -77.00801133333333, "name": "11daebb7caea6fbd4a1363fa03dd0e15", "is_disabled": 0, "rental_uris": {"android": "https://dc.lft.to/lastmile_qr_scan", "ios": "https://dc.lft.to/lastmile_qr_scan"}, "type": "electric_scooter", "lat": 38.897214, "is_reserved": 0, "fusion_lat": 0.0}, {"bike_id": "083a54040b586c99be600e7e6bad815c", "fusion_lon": 0.0, "lon": -76.924936, "name": "083a54040b586c99be600e7e6bad815c", "is_disabled": 0, "rental_uris": {"android": "https://dc.lft.to/lastmile_qr_scan", "ios": "https://dc.lft.to/lastmile_qr_scan"}, "type": "electric_bike", "lat": 38.9589275, "is_reserved": 0, "fusion_lat": 0.0}, {"bike_id": "155d560b7eec4a80c49c9f6ce8dda05f", "fusion_lon": 0.0, "lon": -77.00404233333333, "name": "155d560b7eec4a80c49c9f6ce8dda05f", "is_disabled": 0, "rental_uris": {"android": "https://dc.lft.to/lastmile_qr_scan", "ios": "https://dc.lft.to/lastmile_qr_scan"}, "type": "electric_scooter", "lat": 38.876575, "is_reserved": 0, "fusion_lat": 0.0}, {"bike_id": "7b1588a241d2e6431377396547b625a4", "fusion_lon": 0.0, "lon": -77.0306775, "name": "7b1588a241d2e6431377396547b625a4", "is_disabled": 0, "rental_uris": {"android": "https://dc.lft.to/lastmile_qr_scan", "ios": "https://dc.lft.to/lastmile_qr_scan"}, "type": "electric_scooter", "lat": 38.897595833333334, "is_reserved": 0, "fusion_lat": 0.0}, {"bike_id": "dbf4ae9d59d27cd605418ea05588fc97", "fusion_lon": 0.0, "lon": -77.0326665, "name": "dbf4ae9d59d27cd605418ea05588fc97", "is_disabled": 0, "rental_uris": {"android": "https://dc.lft.to/lastmile_qr_scan", "ios": "https://dc.lft.to/lastmile_qr_scan"}, "type": "electric_scooter", "lat": 38.914096, "is_reserved": 0, "fusion_lat": 0.0}, {"bike_id": "cb294f4a0e8efc89cfd389b06498fae3", "fusion_lon": 0.0, "lon": -77.05134116666666, "name": "cb294f4a0e8efc89cfd389b06498fae3", "is_disabled": 0, "rental_uris": {"android": "https://dc.lft.to/lastmile_qr_scan", "ios": "https://dc.lft.to/lastmile_qr_scan"}, "type": "electric_scooter", "lat": 38.9058805, "is_reserved": 0, "fusion_lat": 0.0}, {"bike_id": "1c304891a8e0682b45d67881a6cccded", "fusion_lon": 0.0, "lon": -77.041958, "name": "1c304891a8e0682b45d67881a6cccded", "is_disabled": 0, "rental_uris": {"android": "https://dc.lft.to/lastmile_qr_scan", "ios": "https://dc.lft.to/lastmile_qr_scan"}, "type": "electric_scooter", "lat": 38.926224500000004, "is_reserved": 0, "fusion_lat": 0.0}, {"bike_id": "9b9a861a2042b5863a483530fdcfb7f9", "fusion_lon": 0.0, "lon": -77.020056, "name": "9b9a861a2042b5863a483530fdcfb7f9", "is_disabled": 0, "rental_uris": {"android": "https://dc.lft.to/lastmile_qr_scan", "ios": "https://dc.lft.to/lastmile_qr_scan"}, "type": "electric_scooter", "lat": 38.91317566666667, "is_reserved": 0, "fusion_lat": 0.0}, {"bike_id": "1a3dbeb0ceea8ac066020ec0dfdf10fb", "fusion_lon": 0.0, "lon": -77.00340516666667, "name": "1a3dbeb0ceea8ac066020ec0dfdf10fb", "is_disabled": 0, "rental_uris": {"android": "https://dc.lft.to/lastmile_qr_scan", "ios": "https://dc.lft.to/lastmile_qr_scan"}, "type": "electric_scooter", "lat": 38.89188216666667, "is_reserved": 0, "fusion_lat": 0.0}, {"bike_id": "740e91b55f252d135a980ad83e3d580c", "fusion_lon": 0.0, "lon": -77.02945966666667, "name": "740e91b55f252d135a980ad83e3d580c", "is_disabled": 0, "rental_uris": {"android": "https://dc.lft.to/lastmile_qr_scan", "ios": "https://dc.lft.to/lastmile_qr_scan"}, "type": "electric_scooter", "lat": 38.89878133333333, "is_reserved": 0, "fusion_lat": 0.0}, {"bike_id": "73062ba551e38e2b2c9765d13fc67136", "fusion_lon": 0.0, "lon": -77.054111, "name": "73062ba551e38e2b2c9765d13fc67136", "is_disabled": 0, "rental_uris": {"android": "https://dc.lft.to/lastmile_qr_scan", "ios": "https://dc.lft.to/lastmile_qr_scan"}, "type": "electric_scooter", "lat": 38.9026885, "is_reserved": 0, "fusion_lat": 0.0}, {"bike_id": "cdbdd4624db4db157184278f992b7a9e", "fusion_lon": 0.0, "lon": -77.02434116666667, "name": "cdbdd4624db4db157184278f992b7a9e", "is_disabled": 0, "rental_uris": {"android": "https://dc.lft.to/lastmile_qr_scan", "ios": "https://dc.lft.to/lastmile_qr_scan"}, "type": "electric_scooter", "lat": 38.927449, "is_reserved": 0, "fusion_lat": 0.0}, {"bike_id": "c506f74b97446ba68f8ceb1d14354a58", "fusion_lon": 0.0, "lon": -77.02620483333334, "name": "c506f74b97446ba68f8ceb1d14354a58", "is_disabled": 0, "rental_uris": {"android": "https://dc.lft.to/lastmile_qr_scan", "ios": "https://dc.lft.to/lastmile_qr_scan"}, "type": "electric_scooter", "lat": 38.88367566666667, "is_reserved": 0, "fusion_lat": 0.0}, {"bike_id": "569c125e2237767f58f02c8189ed7145", "fusion_lon": 0.0, "lon": -76.98116516666667, "name": "569c125e2237767f58f02c8189ed7145", "is_disabled": 0, "rental_uris": {"android": "https://dc.lft.to/lastmile_qr_scan", "ios": "https://dc.lft.to/lastmile_qr_scan"},