{"data": {"bikes": [{"lon": -77.03262866666667, "bike_id": "a16cc6261d5922824c61fa5bccce54ed", "lat": 38.932670333333334, "fusion_lon": 0.0, "fusion_lat": 0.0, "type": "electric_scooter", "name": "a16cc6261d5922824c61fa5bccce54ed", "is_disabled": 0, "rental_uris": {"ios": "https://dc.lft.to/lastmile_qr_scan", "android": "https://dc.lft.to/lastmile_qr_scan"}, "is_reserved": 0}, {"lon": -77.03436816666667, "bike_id": "92de31ade823fe0bacc6cf0213d5f793", "lat": 38.90972933333333, "fusion_lon": 0.0, "fusion_lat": 0.0, "type": "electric_scooter", "name": "92de31ade823fe0bacc6cf0213d5f793", "is_disabled": 0, "rental_uris": {"ios": "https://dc.lft.to/lastmile_qr_scan", "android": "https://dc.lft.to/lastmile_qr_scan"}, "is_reserved": 0}, {"lon": -77.04101633333333, "bike_id": "ac0c03c2cb7d0e4b389e930f8cfb6611", "lat": 38.89233333333333, "fusion_lon": 0.0, "fusion_lat": 0.0, "type": "electric_scooter", "name": "ac0c03c2cb7d0e4b389e930f8cfb6611", "is_disabled": 0, "rental_uris": {"ios": "https://dc.lft.to/lastmile_qr_scan", "android": "https://dc.lft.to/lastmile_qr_scan"}, "is_reserved": 0}, {"lon": -77.002631, "bike_id": "e3e16d2fd996313a3cd8bedf2c83bab4", "lat": 38.91820116666667, "fusion_lon": 0.0, "fusion_lat": 0.0, "type": "electric_scooter", "name": "e3e16d2fd996313a3cd8bedf2c83bab4", "is_disabled": 0, "rental_uris": {"ios": "https://dc.lft.to/lastmile_qr_scan", "android": "https://dc.lft.to/lastmile_qr_scan"}, "is_reserved": 0}, {"lon": -77.02710133333333, "bike_id": "3f0c79b4045bd3b86ccd33b159ac9407", "lat": 38.906735, "fusion_lon": 0.0, "fusion_lat": 0.0, "type": "electric_scooter", "name": "3f0c79b4045bd3b86ccd33b159ac9407", "is_disabled": 0, "rental_uris": {"ios": "https://dc.lft.to/lastmile_qr_scan", "android": "https://dc.lft.to/lastmile_qr_scan"}, "is_reserved": 0}, {"lon": -77.03722883333333, "bike_id": "539865feeb60e51b3f1285f48bb0a962", "lat": 38.91484716666667, "fusion_lon": 0.0, "fusion_lat": 0.0, "type": "electric_scooter", "name": "539865feeb60e51b3f1285f48bb0a962", "is_disabled": 0, "rental_uris": {"ios": "https://dc.lft.to/lastmile_qr_scan", "android": "https://dc.lft.to/lastmile_qr_scan"}, "is_reserved": 0}, {"lon": -77.0010305, "bike_id": "94183bc562ad978bcb20715517b232c9", "lat": 38.91699966666667, "fusion_lon": 0.0, "fusion_lat": 0.0, "type": "electric_scooter", "name": "94183bc562ad978bcb20715517b232c9", "is_disabled": 0, "rental_uris": {"ios": "https://dc.lft.to/lastmile_qr_scan", "android": "https://dc.lft.to/lastmile_qr_scan"}, "is_reserved": 0}, {"lon": -77.01898366666667, "bike_id": "57bbb5a6708c0c57b8dccc230abb42df", "lat": 38.87460333333333, "fusion_lon": 0.0, "fusion_lat": 0.0, "type": "electric_scooter", "name": "57bbb5a6708c0c57b8dccc230abb42df", "is_disabled": 0, "rental_uris": {"ios": "https://dc.lft.to/lastmile_qr_scan", "android": "https://dc.lft.to/lastmile_qr_scan"}, "is_reserved": 0}, {"lon": -76.994908, "bike_id": "7d7eede44040085dd49b6b1d1ce6ae17", "lat": 38.86244516666667, "fusion_lon": 0.0, "fusion_lat": 0.0, "type": "electric_scooter", "name": "7d7eede44040085dd49b6b1d1ce6ae17", "is_disabled": 0, "rental_uris": {"ios": "https://dc.lft.to/lastmile_qr_scan", "android": "https://dc.lft.to/lastmile_qr_scan"}, "is_reserved": 0}, {"lon": -77.043352, "bike_id": "60535bbe7883a9466652a631056c9742", "lat": 38.901365, "fusion_lon": 0.0, "fusion_lat": 0.0, "type": "electric_scooter", "name": "60535bbe7883a9466652a631056c9742", "is_disabled": 0, "rental_uris": {"ios": "https://dc.lft.to/lastmile_qr_scan", "android": "https://dc.lft.to/lastmile_qr_scan"}, "is_reserved": 0}, {"lon": -77.0448045, "bike_id": "ca1fea391ce8c7a3cd2cc675d489d1d9", "lat": 38.9116155, "fusion_lon": 0.0, "fusion_lat": 0.0, "type": "electric_scooter", "name": "ca1fea391ce8c7a3cd2cc675d489d1d9", "is_disabled": 0, "rental_uris": {"ios": "https://dc.lft.to/lastmile_qr_scan", "android": "https://dc.lft.to/lastmile_qr_scan"}, "is_reserved": 0}, {"lon": -77.03209916666667, "bike_id": "f38beb0eb1baf7188854cbcb9d8909cb", "lat": 38.892334166666664, "fusion_lon": 0.0, "fusion_lat": 0.0, "type": "electric_scooter", "name": "f38beb0eb1baf7188854cbcb9d8909cb", "is_disabled": 0, "rental_uris": {"ios": "https://dc.lft.to/lastmile_qr_scan", "android": "https://dc.lft.to/lastmile_qr_scan"}, "is_reserved": 0}, {"lon": -76.98887466666666, "bike_id": "d6d1c6da507af4569bd6099aa04020f1", "lat": 38.866520333333334, "fusion_lon": 0.0, "fusion_lat": 0.0, "type": "electric_scooter", "name": "d6d1c6da507af4569bd6099aa04020f1", "is_disabled": 0, "rental_uris": {"ios": "https://dc.lft.to/lastmile_qr_scan", "android": "https://dc.lft.to/lastmile_qr_scan"}, "is_reserved": 0}, {"lon": -77.031859, "bike_id": "b80cb37d0d7a7d3629fe9a46cc27d726", "lat": 38.908093, "fusion_lon": 0.0, "fusion_lat": 0.0, "type": "electric_scooter", "name": "b80cb37d0d7a7d3629fe9a46cc27d726", "is_disabled": 0, "rental_uris": {"ios": "https://dc.lft.to/lastmile_qr_scan", "android": "https://dc.lft.to/lastmile_qr_scan"}, "is_reserved": 0}, {"lon": -76.98712983333333, "bike_id": "4a344d5a5e5f3c9ef6047ecb054579e7", "lat": 38.866990666666666, "fusion_lon": 0.0, "fusion_lat": 0.0, "type": "electric_scooter", "name": "4a344d5a5e5f3c9ef6047ecb054579e7", "is_disabled": 0, "rental_uris": {"ios": "https://dc.lft.to/lastmile_qr_scan", "android": "https://dc.lft.to/lastmile_qr_scan"}, "is_reserved": 0}, {"lon": -77.03665966666667, "bike_id": "7b7fe7f7f21f5dddbc5a029b7529e3f5", "lat": 38.916725, "fusion_lon": 0.0, "fusion_lat": 0.0, "type": "electric_scooter", "name": "7b7fe7f7f21f5dddbc5a029b7529e3f5", "is_disabled": 0, "rental_uris": {"ios": "https://dc.lft.to/lastmile_qr_scan", "android": "https://dc.lft.to/lastmile_qr_scan"}, "is_reserved": 0}, {"lon": -77.02852916666667, "bike_id": "9e4375317977717ae78e6151a200f868", "lat": 38.934703666666664, "fusion_lon": 0.0, "fusion_lat": 0.0, "type": "electric_scooter", "name": "9e4375317977717ae78e6151a200f868", "is_disabled": 0, "rental_uris": {"ios": "https://dc.lft.to/lastmile_qr_scan", "android": "https://dc.lft.to/lastmile_qr_scan"}, "is_reserved": 0}, {"lon": -77.03869683333333, "bike_id": "c15a0aec9691fe1e15a233fbaf71fdd2", "lat": 38.90280033333333, "fusion_lon": 0.0, "fusion_lat": 0.0, "type": "electric_scooter", "name": "c15a0aec9691fe1e15a233fbaf71fdd2", "is_disabled": 0, "rental_uris": {"ios": "https://dc.lft.to/lastmile_qr_scan", "android": "https://dc.lft.to/lastmile_qr_scan"}, "is_reserved": 0}, {"lon": -77.041757, "bike_id": "b477cbc77ca666c6afa31d77583b470d", "lat": 38.9176665, "fusion_lon": 0.0, "fusion_lat": 0.0, "type": "electric_scooter", "name": "b477cbc77ca666c6afa31d77583b470d", "is_disabled": 0, "rental_uris": {"ios": "https://dc.lft.to/lastmile_qr_scan", "android": "https://dc.lft.to/lastmile_qr_scan"}, "is_reserved": 0}, {"lon": -76.9373255, "bike_id": "461a12421e709eddcc0fdfd14b9109fc", "lat": 38.890142833333336, "fusion_lon": 0.0, "fusion_lat": 0.0, "type": "electric_scooter", "name": "461a12421e709eddcc0fdfd14b9109fc", "is_disabled": 0, "rental_uris": {"ios": "https://dc.lft.to/lastmile_qr_scan", "android": "https://dc.lft.to/lastmile_qr_scan"}, "is_reserved": 0}, {"lon": -77.04158766666667, "bike_id": "b396bea51beae2c08b5f210d93dfe46b", "lat": 38.91358833333334, "fusion_lon": 0.0, "fusion_lat": 0.0, "type": "electric_scooter", "name": "b396bea51beae2c08b5f210d93dfe46b", "is_disabled": 0, "rental_uris": {"ios": "https://dc.lft.to/lastmile_qr_scan", "android": "https://dc.lft.to/lastmile_qr_scan"}, "is_reserved": 0}, {"lon": -77.0415555, "bike_id": "cc59c6d64ed8f881f8449646401dd870", "lat": 38.9155255, "fusion_lon": 0.0, "fusion_lat": 0.0, "type": "electric_scooter", "name": "cc59c6d64ed8f881f8449646401dd870", "is_disabled": 0, "rental_uris": {"ios": "https://dc.lft.to/lastmile_qr_scan", "android": "https://dc.lft.to/lastmile_qr_scan"}, "is_reserved": 0}, {"lon": -77.04265683333334, "bike_id": "7245fe9559fd6485631798545dd809e8", "lat": 38.910375, "fusion_lon": 0.0, "fusion_lat": 0.0, "type": "electric_scooter", "name": "7245fe9559fd6485631798545dd809e8", "is_disabled": 0, "rental_uris": {"ios": "https://dc.lft.to/lastmile_qr_scan", "android": "https://dc.lft.to/lastmile_qr_scan"}, "is_reserved": 0}, {"lon": -77.0007105, "bike_id": "cd8c9c30ce6c0980b23f68253ddb9d8d", "lat": 38.873762, "fusion_lon": 0.0, "fusion_lat": 0.0, "type": "electric_scooter", "name": "cd8c9c30ce6c0980b23f68253ddb9d8d", "is_disabled": 0, "rental_uris": {"ios": "https://dc.lft.to/lastmile_qr_scan", "android": "https://dc.lft.to/lastmile_qr_scan"}, "is_reserved": 0}, {"lon": -77.025763, "bike_id": "d2f5e77b72b5a2a2e2037c78a68a69da", "lat": 38.892237, "fusion_lon": 0.0, "fusion_lat": 0.0, "type": "electric_scooter", "name": "d2f5e77b72b5a2a2e2037c78a68a69da", "is_disabled": 0, "rental_uris": {"ios": "https://dc.lft.to/lastmile_qr_scan", "android": "https://dc.lft.to/lastmile_qr_scan"}, "is_reserved": 0}, {"lon": -77.03528683333333, "bike_id": "f0d84f1f3a5ea618ac8f7f2b43d6bc59", "lat": 38.92415066666667, "fusion_lon": 0.0, "fusion_lat": 0.0, "type": "electric_scooter", "name": "f0d84f1f3a5ea618ac8f7f2b43d6bc59", "is_disabled": 0, "rental_uris": {"ios": "https://dc.lft.to/lastmile_qr_scan", "android": "https://dc.lft.to/lastmile_qr_scan"}, "is_reserved": 0}, {"lon": -76.97739483333334, "bike_id": "95cb936cef60f261ec0d897e9e7772d7", "lat": 38.864771833333336, "fusion_lon": 0.0, "fusion_lat": 0.0, "type": "electric_scooter", "name": "95cb936cef60f261ec0d897e9e7772d7", "is_disabled": 0, "rental_uris": {"ios": "https://dc.lft.to/lastmile_qr_scan", "android": "https://dc.lft.to/lastmile_qr_scan"}, "is_reserved": 0}, {"lon": -77.02990133333333, "bike_id": "d981e80ca0510590189d8ca058b7a7a6", "lat": 38.92470616666667, "fusion_lon": 0.0, "fusion_lat": 0.0, "type": "electric_scooter", "name": "d981e80ca0510590189d8ca058b7a7a6", "is_disabled": 0, "rental_uris": {"ios": "https://dc.lft.to/lastmile_qr_scan", "android": "https://dc.lft.to/lastmile_qr_scan"}, "is_reserved": 0}, {"lon": -76.98848916666667, "bike_id": "b83c0b8243c6f032a26737e7a6d73185", "lat": 38.901314666666664, "fusion_lon": 0.0, "fusion_lat": 0.0, "type": "electric_scooter", "name": "b83c0b8243c6f032a26737e7a6d73185", "is_disabled": 0, "rental_uris": {"ios": "https://dc.lft.to/lastmile_qr_scan", "android": "https://dc.lft.to/lastmile_qr_scan"}, "is_reserved": 0}, {"lon": -77.03326883333334, "bike_id": "b663348aca0c25ba2e4b97e3dec6838b", "lat": 38.896458333333335, "fusion_lon": 0.0, "fusion_lat": 0.0, "type": "electric_scooter", "name": "b663348aca0c25ba2e4b97e3dec6838b", "is_disabled": 0, "rental_uris": {"ios": "https://dc.lft.to/lastmile_qr_scan", "android": "https://dc.lft.to/lastmile_qr_scan"}, "is_reserved": 0}, {"lon": -77.11783083333333, "bike_id": "c9b697d0a4e7b248853586a1c79d79c9", "lat": 39.054910166666666, "fusion_lon": 0.0, "fusion_lat": 0.0, "type": "electric_bike", "name": "c9b697d0a4e7b248853586a1c79d79c9", "is_disabled": 0, "rental_uris": {"ios": "https://dc.lft.to/lastmile_qr_scan", "android": "https://dc.lft.to/lastmile_qr_scan"}, "is_reserved": 0}, {"lon": -77.022852, "bike_id": "76e1b261ea2f27166d936c791cb16ae2", "lat": 38.9168665, "fusion_lon": 0.0, "fusion_lat": 0.0, "type": "electric_scooter", "name": "76e1b261ea2f27166d936c791cb16ae2", "is_disabled": 0, "rental_uris": {"ios": "https://dc.lft.to/lastmile_qr_scan", "android": "https://dc.lft.to/lastmile_qr_scan"}, "is_reserved": 0}, {"lon": -77.06339933333334, "bike_id": "8a58c55657ea133a39122adbf925b6b5", "lat": 38.906826833333334, "fusion_lon": 0.0, "fusion_lat": 0.0, "type": "electric_bike", "name": "8a58c55657ea133a39122adbf925b6b5", "is_disabled": 0, "rental_uris": {"ios": "https://dc.lft.to/lastmile_qr_scan", "android": "https://dc.lft.to/lastmile_qr_scan"}, "is_reserved": 0}, {"lon": -77.03277583333333, "bike_id": "c470ea17292c539778a0700e28ca9c4f", "lat": 38.929299, "fusion_lon": 0.0, "fusion_lat": 0.0, "type": "electric_scooter", "name": "c470ea17292c539778a0700e28ca9c4f", "is_disabled": 0, "rental_uris": {"ios": "https://dc.lft.to/lastmile_qr_scan", "android": "https://dc.lft.to/lastmile_qr_scan"}, "is_reserved": 0}, {"lon": -77.04176166666667, "bike_id": "655a856b23d4f620a15104328208498f", "lat": 38.9197735, "fusion_lon": 0.0, "fusion_lat": 0.0, "type": "electric_scooter", "name": "655a856b23d4f620a15104328208498f", "is_disabled": 0, "rental_uris": {"ios": "https://dc.lft.to/lastmile_qr_scan", "android": "https://dc.lft.to/lastmile_qr_scan"}, "is_reserved": 0}, {"lon": -77.03291233333333, "bike_id": "fa532c12c7b527cb4cb036b2b45bf60e", "lat": 38.956491666666665, "fusion_lon": 0.0, "fusion_lat": 0.0, "type": "electric_scooter", "name": "fa532c12c7b527cb4cb036b2b45bf60e", "is_disabled": 0, "rental_uris": {"ios": "https://dc.lft.to/lastmile_qr_scan", "android": "https://dc.lft.to/lastmile_qr_scan"}, "is_reserved": 0}, {"lon": -77.01468666666666, "bike_id": "a4e977e4b2e9dc0d8ddd4a1570849016", "lat": 38.914738666666665, "fusion_lon": 0.0, "fusion_lat": 0.0, "type": "electric_scooter", "name": "a4e977e4b2e9dc0d8ddd4a1570849016", "is_disabled": 0, "rental_uris": {"ios": "https://dc.lft.to/lastmile_qr_scan", "android": "https://dc.lft.to/lastmile_qr_scan"}, "is_reserved": 0}, {"lon": -77.042772, "bike_id": "56f21041efc95667def9ba0ac7a22e8d", "lat": 38.910186333333336, "fusion_lon": 0.0, "fusion_lat": 0.0, "type": "electric_scooter", "name": "56f21041efc95667def9ba0ac7a22e8d", "is_disabled": 0, "rental_uris": {"ios": "https://dc.lft.to/lastmile_qr_scan", "android": "https://dc.lft.to/lastmile_qr_scan"}, "is_reserved": 0}, {"lon": -77.01523433333334, "bike_id": "7534b58634fbc23ed4c822169e45d472", "lat": 38.8848915, "fusion_lon": 0.0, "fusion_lat": 0.0, "type": "electric_scooter", "name": "7534b58634fbc23ed4c822169e45d472", "is_disabled": 0, "rental_uris": {"ios": "https://dc.lft.to/lastmile_qr_scan", "android": "https://dc.lft.to/lastmile_qr_scan"}, "is_reserved": 0}, {"lon": -77.03179066666667, "bike_id": "da6536796f0d7e007e5e97ab5f69dfcf", "lat": 38.90293233333333, "fusion_lon": 0.0, "fusion_lat": 0.0, "type": "electric_scooter", "name": "da6536796f0d7e007e5e97ab5f69dfcf", "is_disabled": 0, "rental_uris": {"ios": "https://dc.lft.to/lastmile_qr_scan", "android": "https://dc.lft.to/lastmile_qr_scan"}, "is_reserved": 0}, {"lon": -77.0217995, "bike_id": "ab63d2d55e6772cec3f9de89ddb1bfe3", "lat": 38.893549166666666, "fusion_lon": 0.0, "fusion_lat": 0.0, "type": "electric_scooter", "name": "ab63d2d55e6772cec3f9de89ddb1bfe3", "is_disabled": 0, "rental_uris": {"ios": "https://dc.lft.to/lastmile_qr_scan", "android": "https://dc.lft.to/lastmile_qr_scan"}, "is_reserved": 0}, {"lon": -77.03266183333334, "bike_id": "bf0543a34c625b982270ee761fa253c0", "lat": 38.95678933333333, "fusion_lon": 0.0, "fusion_lat": 0.0, "type": "electric_bike", "name": "bf0543a34c625b982270ee761fa253c0", "is_disabled": 0, "rental_uris": {"ios": "https://dc.lft.to/lastmile_qr_scan", "android": "https://dc.lft.to/lastmile_qr_scan"}, "is_reserved": 0}, {"lon": -76.999429, "bike_id": "be8d9ea6943da28b41d6f7d26cbdbeb3", "lat": 38.91929416666667, "fusion_lon": 0.0, "fusion_lat": 0.0, "type": "electric_scooter", "name": "be8d9ea6943da28b41d6f7d26cbdbeb3", "is_disabled": 0, "rental_uris": {"ios": "https://dc.lft.to/lastmile_qr_scan", "android": "https://dc.lft.to/lastmile_qr_scan"}, "is_reserved": 0}, {"lon": -77.10807516666667, "bike_id": "7a06f12461a2766d928a2af989a3bf4f", "lat": 38.812009, "fusion_lon": 0.0, "fusion_lat": 0.0, "type": "electric_bike", "name": "7a06f12461a2766d928a2af989a3bf4f", "is_disabled": 0, "rental_uris": {"ios": "https://dc.lft.to/lastmile_qr_scan", "android": "https://dc.lft.to/lastmile_qr_scan"}, "is_reserved": 0}, {"lon": -77.00208483333333, "bike_id": "d3377c948ea4cd35dd7162db43f5b3e2", "lat": 38.90027, "fusion_lon": 0.0, "fusion_lat": 0.0, "type": "electric_scooter", "name": "d3377c948ea4cd35dd7162db43f5b3e2", "is_disabled": 0, "rental_uris": {"ios": "https://dc.lft.to/lastmile_qr_scan", "android": "https://dc.lft.to/lastmile_qr_scan"}, "is_reserved": 0}, {"lon": -77.031642, "bike_id": "0e48e9ed54e4ccdfd03cac25ca457180", "lat": 38.92097066666667, "fusion_lon": 0.0, "fusion_lat": 0.0, "type": "electric_scooter", "name": "0e48e9ed54e4ccdfd03cac25ca457180", "is_disabled": 0, "rental_uris": {"ios": "https://dc.lft.to/lastmile_qr_scan", "android": "https://dc.lft.to/lastmile_qr_scan"}, "is_reserved": 0}, {"lon": -77.03347883333333, "bike_id": "050054417c8400e39e407116a5bb3340", "lat": 38.91915233333334, "fusion_lon": 0.0, "fusion_lat": 0.0, "type": "electric_scooter", "name": "050054417c8400e39e407116a5bb3340", "is_disabled": 0, "rental_uris": {"ios": "https://dc.lft.to/lastmile_qr_scan", "android": "https://dc.lft.to/lastmile_qr_scan"}, "is_reserved": 0}, {"lon": -77.03180266666666, "bike_id": "c58b98278c1a9f93593273bba61dfa69", "lat": 38.9361265, "fusion_lon": 0.0, "fusion_lat": 0.0, "type": "electric_scooter", "name": "c58b98278c1a9f93593273bba61dfa69", "is_disabled": 0, "rental_uris": {"ios": "https://dc.lft.to/lastmile_qr_scan", "android": "https://dc.lft.to/lastmile_qr_scan"}, "is_reserved": 0}, {"lon": -77.04246366666666, "bike_id": "1f8f5a874e9f91ab09dd2163d9093066", "lat": 38.916406333333335, "fusion_lon": 0.0, "fusion_lat": 0.0, "type": "electric_scooter", "name": "1f8f5a874e9f91ab09dd2163d9093066", "is_disabled": 0, "rental_uris": {"ios": "https://dc.lft.to/lastmile_qr_scan", "android": "https://dc.lft.to/lastmile_qr_scan"}, "is_reserved": 0}, {"lon": -77.034294, "bike_id": "7a670ee29d1dbd04c12b847ab68da757", "lat": 38.9180015, "fusion_lon": 0.0, "fusion_lat": 0.0, "type": "electric_scooter", "name": "7a670ee29d1dbd04c12b847ab68da757", "is_disabled": 0, "rental_uris": {"ios": "https://dc.lft.to/lastmile_qr_scan", "android": "https://dc.lft.to/lastmile_qr_scan"}, "is_reserved": 0}, {"lon": -77.021606, "bike_id": "670c9822d116ff60749ae77482b950bf", "lat": 38.9259925, "fusion_lon": 0.0, "fusion_lat": 0.0, "type": "electric_scooter", "name": "670c9822d116ff60749ae77482b950bf", "is_disabled": 0, "rental_uris": {"ios": "https://dc.lft.to/lastmile_qr_scan", "android": "https://dc.lft.to/lastmile_qr_scan"}, "is_reserved": 0}, {"lon": -77.0468365, "bike_id": "5bf19008389b674eafdb633278053951", "lat": 38.897384333333335, "fusion_lon": 0.0, "fusion_lat": 0.0, "type": "electric_scooter", "name": "5bf19008389b674eafdb633278053951", "is_disabled": 0, "rental_uris": {"ios": "https://dc.lft.to/lastmile_qr_scan", "android": "https://dc.lft.to/lastmile_qr_scan"}, "is_reserved": 0}, {"lon": -76.98374716666666, "bike_id": "38d2b24ef2bc0880291f3541e491d885", "lat": 38.9149745, "fusion_lon": 0.0, "fusion_lat": 0.0, "type": "electric_scooter", "name": "38d2b24ef2bc0880291f3541e491d885", "is_disabled": 0, "rental_uris": {"ios": "https://dc.lft.to/lastmile_qr_scan", "android": "https://dc.lft.to/lastmile_qr_scan"}, "is_reserved": 0}, {"lon": -76.99476033333333, "bike_id": "d035c94b57fcb32d1a4e3b983098834c", "lat": 38.86214866666667, "fusion_lon": 0.0, "fusion_lat": 0.0, "type": "electric_scooter", "name": "d035c94b57fcb32d1a4e3b983098834c", "is_disabled": 0, "rental_uris": {"ios": "https://dc.lft.to/lastmile_qr_scan", "android": "https://dc.lft.to/lastmile_qr_scan"}, "is_reserved": 0}, {"lon": -76.983821, "bike_id": "e8dbaf15c4d474cbd1c54da16ef3e0ba", "lat": 38.89140783333333, "fusion_lon": 0.0, "fusion_lat": 0.0, "type": "electric_scooter", "name": "e8dbaf15c4d474cbd1c54da16ef3e0ba", "is_disabled": 0, "rental_uris": {"ios": "https://dc.lft.to/lastmile_qr_scan", "android": "https://dc.lft.to/lastmile_qr_scan"}, "is_reserved": 0}, {"lon": -76.98839166666667, "bike_id": "c41a5a35dd4731525dfc5c2c7975e2d8", "lat": 38.900701833333336, "fusion_lon": 0.0, "fusion_lat": 0.0, "type": "electric_scooter", "name": "c41a5a35dd4731525dfc5c2c7975e2d8", "is_disabled": 0, "rental_uris": {"ios": "https://dc.lft.to/lastmile_qr_scan", "android": "https://dc.lft.to/lastmile_qr_scan"}, "is_reserved": 0}, {"lon": -77.03170233333333, "bike_id": "8749085fd5c87cd6cd68a7bf512a3a08", "lat": 38.88695116666667, "fusion_lon": 0.0, "fusion_lat": 0.0, "type": "electric_scooter", "name": "8749085fd5c87cd6cd68a7bf512a3a08", "is_disabled": 0, "rental_uris": {"ios": "https://dc.lft.to/lastmile_qr_scan", "android": "https://dc.lft.to/lastmile_qr_scan"}, "is_reserved": 0}, {"lon": -77.05613583333333, "bike_id": "ce8ca061bfdc94bfd6b172b2a770cf06", "lat": 38.931600833333334, "fusion_lon": 0.0, "fusion_lat": 0.0, "type": "electric_scooter", "name": "ce8ca061bfdc94bfd6b172b2a770cf06", "is_disabled": 0, "rental_uris": {"ios": "https://dc.lft.to/lastmile_qr_scan", "android": "https://dc.lft.to/lastmile_qr_scan"}, "is_reserved": 0}, {"lon": -77.03007316666667, "bike_id": "7229743772f63054ecc08b7dff0db8b9", "lat": 38.91688966666667, "fusion_lon": 0.0, "fusion_lat": 0.0, "type": "electric_scooter", "name": "7229743772f63054ecc08b7dff0db8b9", "is_disabled": 0, "rental_uris": {"ios": "https://dc.lft.to/lastmile_qr_scan", "android": "https://dc.lft.to/lastmile_qr_scan"}, "is_reserved": 0}, {"lon": -77.00379, "bike_id": "f36e260328395bdd19b629a482ae91fc", "lat": 38.89522233333334, "fusion_lon": 0.0, "fusion_lat": 0.0, "type": "electric_scooter", "name": "f36e260328395bdd19b629a482ae91fc", "is_disabled": 0, "rental_uris": {"ios": "https://dc.lft.to/lastmile_qr_scan", "android": "https://dc.lft.to/lastmile_qr_scan"}, "is_reserved": 0}, {"lon": -77.06132216666667, "bike_id": "ab559750b7f72d19ca6d4d7a3c39c934", "lat": 38.943641666666664, "fusion_lon": 0.0, "fusion_lat": 0.0, "type": "electric_scooter", "name": "ab559750b7f72d19ca6d4d7a3c39c934", "is_disabled": 0, "rental_uris": {"ios": "https://dc.lft.to/lastmile_qr_scan", "android": "https://dc.lft.to/lastmile_qr_scan"}, "is_reserved": 0}, {"lon": -76.98696766666667, "bike_id": "5c343bde9b9f4bbea7de3510968de154", "lat": 38.9121315, "fusion_lon": 0.0, "fusion_lat": 0.0, "type": "electric_scooter", "name": "5c343bde9b9f4bbea7de3510968de154", "is_disabled": 0, "rental_uris": {"ios": "https://dc.lft.to/lastmile_qr_scan", "android": "https://dc.lft.to/lastmile_qr_scan"}, "is_reserved": 0}, {"lon": -77.01504733333333, "bike_id": "92a98056cb526721ab8409ee6a6b0649", "lat": 38.90011033333333, "fusion_lon": 0.0, "fusion_lat": 0.0, "type": "electric_scooter", "name": "92a98056cb526721ab8409ee6a6b0649", "is_disabled": 0, "rental_uris": {"ios": "https://dc.lft.to/lastmile_qr_scan", "android": "https://dc.lft.to/lastmile_qr_scan"}, "is_reserved": 0}, {"lon": -77.00226366666666, "bike_id": "01c667896336dce793b91cf2a8152f06", "lat": 38.900288, "fusion_lon": 0.0, "fusion_lat": 0.0, "type": "electric_scooter", "name": "01c667896336dce793b91cf2a8152f06", "is_disabled": 0, "rental_uris": {"ios": "https://dc.lft.to/lastmile_qr_scan", "android": "https://dc.lft.to/lastmile_qr_scan"}, "is_reserved": 0}, {"lon": -77.04098183333333, "bike_id": "3de7155c02de2229e9e37c97a2884f48", "lat": 38.908716166666665, "fusion_lon": 0.0, "fusion_lat": 0.0, "type": "electric_scooter", "name": "3de7155c02de2229e9e37c97a2884f48", "is_disabled": 0, "rental_uris": {"ios": "https://dc.lft.to/lastmile_qr_scan", "android": "https://dc.lft.to/lastmile_qr_scan"}, "is_reserved": 0}, {"lon": -77.03674833333334, "bike_id": "8a1c538ff5d6329589f9c34fd003ef5b", "lat": 38.932039333333336, "fusion_lon": 0.0, "fusion_lat": 0.0, "type": "electric_scooter", "name": "8a1c538ff5d6329589f9c34fd003ef5b", "is_disabled": 0, "rental_uris": {"ios": "https://dc.lft.to/lastmile_qr_scan", "android": "https://dc.lft.to/lastmile_qr_scan"}, "is_reserved": 0}, {"lon": -77.02347766666666, "bike_id": "c22b3e118e49731fda856b5f526d81b1", "lat": 38.9224785, "fusion_lon": 0.0, "fusion_lat": 0.0, "type": "electric_scooter", "name": "c22b3e118e49731fda856b5f526d81b1", "is_disabled": 0, "rental_uris": {"ios": "https://dc.lft.to/lastmile_qr_scan", "android": "https://dc.lft.to/lastmile_qr_scan"}, "is_reserved": 0}, {"lon": -77.03705816666667, "bike_id": "e85a01c983ffbcd4f9e250c7df34848c", "lat": 38.92640866666667, "fusion_lon": 0.0, "fusion_lat": 0.0, "type": "electric_scooter", "name": "e85a01c983ffbcd4f9e250c7df34848c", "is_disabled": 0, "rental_uris": {"ios": "https://dc.lft.to/lastmile_qr_scan", "android": "https://dc.lft.to/lastmile_qr_scan"}, "is_reserved": 0}, {"lon": -76.9553575, "bike_id": "69212378ce792cd6ba7276e0ee4e8425", "lat": 38.888727333333335, "fusion_lon": 0.0, "fusion_lat": 0.0, "type": "electric_scooter", "name": "69212378ce792cd6ba7276e0ee4e8425", "is_disabled": 0, "rental_uris": {"ios": "https://dc.lft.to/lastmile_qr_scan", "android": "https://dc.lft.to/lastmile_qr_scan"}, "is_reserved": 0}, {"lon": -77.0712705, "bike_id": "6cbe8b6213a51cb10580d59589c77c03", "lat": 38.91972366666667, "fusion_lon": 0.0, "fusion_lat": 0.0, "type": "electric_scooter", "name": "6cbe8b6213a51cb10580d59589c77c03", "is_disabled": 0, "rental_uris": {"ios": "https://dc.lft.to/lastmile_qr_scan", "android": "https://dc.lft.to/lastmile_qr_scan"}, "is_reserved": 0}, {"lon": -77.03582583333333, "bike_id": "f462c1f0f8716e2ff144a01d7ae0179c", "lat": 38.934729, "fusion_lon": 0.0, "fusion_lat": 0.0, "type": "electric_scooter", "name": "f462c1f0f8716e2ff144a01d7ae0179c", "is_disabled": 0, "rental_uris": {"ios": "https://dc.lft.to/lastmile_qr_scan", "android": "https://dc.lft.to/lastmile_qr_scan"}, "is_reserved": 0}, {"lon": -77.03458666666667, "bike_id": "a8cd7ced53b1ec17e6b6cb13a06baefd", "lat": 38.91800583333333, "fusion_lon": 0.0, "fusion_lat": 0.0, "type": "electric_scooter", "name": "a8cd7ced53b1ec17e6b6cb13a06baefd", "is_disabled": 0, "rental_uris": {"ios": "https://dc.lft.to/lastmile_qr_scan", "android": "https://dc.lft.to/lastmile_qr_scan"}, "is_reserved": 0}, {"lon": -77.03517516666666, "bike_id": "fc125b7760108a1c0014c785efb4b417", "lat": 38.92195066666667, "fusion_lon": 0.0, "fusion_lat": 0.0, "type": "electric_scooter", "name": "fc125b7760108a1c0014c785efb4b417", "is_disabled": 0, "rental_uris": {"ios": "https://dc.lft.to/lastmile_qr_scan", "android": "https://dc.lft.to/lastmile_qr_scan"}, "is_reserved": 0}, {"lon": -77.021955, "bike_id": "135b6b9223adf829222091bc4aea198c", "lat": 38.8996875, "fusion_lon": 0.0, "fusion_lat": 0.0, "type": "electric_scooter", "name": "135b6b9223adf829222091bc4aea198c", "is_disabled": 0, "rental_uris": {"ios": "https://dc.lft.to/lastmile_qr_scan", "android": "https://dc.lft.to/lastmile_qr_scan"}, "is_reserved": 0}, {"lon": -76.9780955, "bike_id": "5ddc4b1acbd1569e459c6b7db485f92c", "lat": 38.906647166666666, "fusion_lon": 0.0, "fusion_lat": 0.0, "type": "electric_scooter", "name": "5ddc4b1acbd1569e459c6b7db485f92c", "is_disabled": 0, "rental_uris": {"ios": "https://dc.lft.to/lastmile_qr_scan", "android": "https://dc.lft.to/lastmile_qr_scan"}, "is_reserved": 0}, {"lon": -77.00686266666666, "bike_id": "644521152d7ed0c6b3e3a71b014324db", "lat": 38.944894, "fusion_lon": 0.0, "fusion_lat": 0.0, "type": "electric_bike", "name": "644521152d7ed0c6b3e3a71b014324db", "is_disabled": 0, "rental_uris": {"ios": "https://dc.lft.to/lastmile_qr_scan", "android": "https://dc.lft.to/lastmile_qr_scan"}, "is_reserved": 0}, {"lon": -77.02576133333334, "bike_id": "b705aa7ab8565689fcb1d377f9f41bca", "lat": 38.91480466666667, "fusion_lon": 0.0, "fusion_lat": 0.0, "type": "electric_scooter", "name": "b705aa7ab8565689fcb1d377f9f41bca", "is_disabled": 0, "rental_uris": {"ios": "https://dc.lft.to/lastmile_qr_scan", "android": "https://dc.lft.to/lastmile_qr_scan"}, "is_reserved": 0}, {"lon": -77.043934, "bike_id": "d0f6c7023e882a396b06239e9cedfbd3", "lat": 38.921092333333334, "fusion_lon": 0.0, "fusion_lat": 0.0, "type": "electric_scooter", "name": "d0f6c7023e882a396b06239e9cedfbd3", "is_disabled": 0, "rental_uris": {"ios": "https://dc.lft.to/lastmile_qr_scan", "android": "https://dc.lft.to/lastmile_qr_scan"}, "is_reserved": 0}, {"lon": -77.0321835, "bike_id": "635295d80a80736a93151fcc5ee27234", "lat": 38.892158333333334, "fusion_lon": 0.0, "fusion_lat": 0.0, "type": "electric_scooter", "name": "635295d80a80736a93151fcc5ee27234", "is_disabled": 0, "rental_uris": {"ios": "https://dc.lft.to/lastmile_qr_scan", "android": "https://dc.lft.to/lastmile_qr_scan"}, "is_reserved": 0}, {"lon": -77.022107, "bike_id": "4231f4b9fae1fd71edae67e15537f1b6", "lat": 38.898387166666666, "fusion_lon": 0.0, "fusion_lat": 0.0, "type": "electric_scooter", "name": "4231f4b9fae1fd71edae67e15537f1b6", "is_disabled": 0, "rental_uris": {"ios": "https://dc.lft.to/lastmile_qr_scan", "android": "https://dc.lft.to/lastmile_qr_scan"}, "is_reserved": 0}, {"lon": -77.02962616666667, "bike_id": "aefbd1bd4e32694243654540392e09fd", "lat": 38.896486, "fusion_lon": 0.0, "fusion_lat": 0.0, "type": "electric_scooter", "name": "aefbd1bd4e32694243654540392e09fd", "is_disabled": 0, "rental_uris": {"ios": "https://dc.lft.to/lastmile_qr_scan", "android": "https://dc.lft.to/lastmile_qr_scan"}, "is_reserved": 0}, {"lon": -77.04011783333333, "bike_id": "da2db5e4d9e847850d8892b66eb1c762", "lat": 38.90997983333333, "fusion_lon": 0.0, "fusion_lat": 0.0, "type": "electric_scooter", "name": "da2db5e4d9e847850d8892b66eb1c762", "is_disabled": 0, "rental_uris": {"ios": "https://dc.lft.to/lastmile_qr_scan", "android": "https://dc.lft.to/lastmile_qr_scan"}, "is_reserved": 0}, {"lon": -77.03800283333334, "bike_id": "8e886dd1237f1c8ba0b3f794f920a1ab", "lat": 38.93024183333333, "fusion_lon": 0.0, "fusion_lat": 0.0, "type": "electric_scooter", "name": "8e886dd1237f1c8ba0b3f794f920a1ab", "is_disabled": 0, "rental_uris": {"ios": "https://dc.lft.to/lastmile_qr_scan", "android": "https://dc.lft.to/lastmile_qr_scan"}, "is_reserved": 0}, {"lon": -77.01782666666666, "bike_id": "b678083f5703ed773073ace49122e362", "lat": 38.87708, "fusion_lon": 0.0, "fusion_lat": 0.0, "type": "electric_scooter", "name": "b678083f5703ed773073ace49122e362", "is_disabled": 0, "rental_uris": {"ios": "https://dc.lft.to/lastmile_qr_scan", "android": "https://dc.lft.to/lastmile_qr_scan"}, "is_reserved": 0}, {"lon": -76.89539033333334, "bike_id": "ba23dd96872af4da9aece3d09ea407cc", "lat": 38.94552183333333, "fusion_lon": 0.0, "fusion_lat": 0.0, "type": "electric_bike", "name": "ba23dd96872af4da9aece3d09ea407cc", "is_disabled": 0, "rental_uris": {"ios": "https://dc.lft.to/lastmile_qr_scan", "android": "https://dc.lft.to/lastmile_qr_scan"}, "is_reserved": 0}, {"lon": -77.12977466666666, "bike_id": "9e7692df9f1f8bd582fec2bc32662ecb", "lat": 38.79983033333333, "fusion_lon": 0.0, "fusion_lat": 0.0, "type": "electric_bike", "name": "9e7692df9f1f8bd582fec2bc32662ecb", "is_disabled": 0, "rental_uris": {"ios": "https://dc.lft.to/lastmile_qr_scan", "android": "https://dc.lft.to/lastmile_qr_scan"}, "is_reserved": 0}, {"lon": -77.0392325, "bike_id": "b6e0333c8e4034acb3b10baa2598f829", "lat": 38.9279835, "fusion_lon": 0.0, "fusion_lat": 0.0, "type": "electric_scooter", "name": "b6e0333c8e4034acb3b10baa2598f829", "is_disabled": 0, "rental_uris": {"ios": "https://dc.lft.to/lastmile_qr_scan", "android": "https://dc.lft.to/lastmile_qr_scan"}, "is_reserved": 0}, {"lon": -77.01871216666666, "bike_id": "2e7169f819c721fa721f8fe190412465", "lat": 38.95146066666667, "fusion_lon": 0.0, "fusion_lat": 0.0, "type": "electric_scooter", "name": "2e7169f819c721fa721f8fe190412465", "is_disabled": 0, "rental_uris": {"ios": "https://dc.lft.to/lastmile_qr_scan", "android": "https://dc.lft.to/lastmile_qr_scan"}, "is_reserved": 0}, {"lon": -76.99782483333334, "bike_id": "9b15fb23f237703374d8d4e36bec21a4", "lat": 38.84423133333333, "fusion_lon": 0.0, "fusion_lat": 0.0, "type": "electric_scooter", "name": "9b15fb23f237703374d8d4e36bec21a4", "is_disabled": 0, "rental_uris": {"ios": "https://dc.lft.to/lastmile_qr_scan", "android": "https://dc.lft.to/lastmile_qr_scan"}, "is_reserved": 0}, {"lon": -76.991026, "bike_id": "b773f8dd577653e96408fd59b13c9e6e", "lat": 38.90315316666667, "fusion_lon": 0.0, "fusion_lat": 0.0, "type": "electric_scooter", "name": "b773f8dd577653e96408fd59b13c9e6e", "is_disabled": 0, "rental_uris": {"ios": "https://dc.lft.to/lastmile_qr_scan", "android": "https://dc.lft.to/lastmile_qr_scan"}, "is_reserved": 0}, {"lon": -77.06334516666666, "bike_id": "7a1a9769cc264af5a1dadf618dd36ce2", "lat": 38.907582, "fusion_lon": 0.0, "fusion_lat": 0.0, "type": "electric_scooter", "name": "7a1a9769cc264af5a1dadf618dd36ce2", "is_disabled": 0, "rental_uris": {"ios": "https://dc.lft.to/lastmile_qr_scan", "android": "https://dc.lft.to/lastmile_qr_scan"}, "is_reserved": 0}, {"lon": -77.02188, "bike_id": "fd71202fd5a76f01dccd6b1c58af9739", "lat": 38.91060266666667, "fusion_lon": 0.0, "fusion_lat": 0.0, "type": "electric_scooter", "name": "fd71202fd5a76f01dccd6b1c58af9739", "is_disabled": 0, "rental_uris": {"ios": "https://dc.lft.to/lastmile_qr_scan", "android": "https://dc.lft.to/lastmile_qr_scan"}, "is_reserved": 0}, {"lon": -77.06867316666667, "bike_id": "4d65404191abd1186724d02ee5c7342e", "lat": 38.805741166666664, "fusion_lon": 0.0, "fusion_lat": 0.0, "type": "electric_bike", "name": "4d65404191abd1186724d02ee5c7342e", "is_disabled": 0, "rental_uris": {"ios": "https://dc.lft.to/lastmile_qr_scan", "android": "https://dc.lft.to/lastmile_qr_scan"}, "is_reserved": 0}, {"lon": -76.97621283333334, "bike_id": "8459a46ec74f940342cd11e879f7142c", "lat": 38.926506, "fusion_lon": 0.0, "fusion_lat": 0.0, "type": "electric_scooter", "name": "8459a46ec74f940342cd11e879f7142c", "is_disabled": 0, "rental_uris": {"ios": "https://dc.lft.to/lastmile_qr_scan", "android": "https://dc.lft.to/lastmile_qr_scan"}, "is_reserved": 0}, {"lon": -76.9523715, "bike_id": "4a1ed79f5c7ace366f0eb418e349b727", "lat": 38.89099933333333, "fusion_lon": 0.0, "fusion_lat": 0.0, "type": "electric_scooter", "name": "4a1ed79f5c7ace366f0eb418e349b727", "is_disabled": 0, "rental_uris": {"ios": "https://dc.lft.to/lastmile_qr_scan", "android": "https://dc.lft.to/lastmile_qr_scan"}, "is_reserved": 0}, {"lon": -77.08812816666666, "bike_id": "61fa4a3c3230dcc6ce182285fa4e4b95", "lat": 38.91173916666666, "fusion_lon": 0.0, "fusion_lat": 0.0, "type": "electric_bike", "name": "61fa4a3c3230dcc6ce182285fa4e4b95", "is_disabled": 0, "rental_uris": {"ios": "https://dc.lft.to/lastmile_qr_scan", "android": "https://dc.lft.to/lastmile_qr_scan"}, "is_reserved": 0}, {"lon": -77.0341215, "bike_id": "550fb8e67c3456dd997e7564203d95e2", "lat": 38.92319216666667, "fusion_lon": 0.0, "fusion_lat": 0.0, "type": "electric_scooter", "name": "550fb8e67c3456dd997e7564203d95e2", "is_disabled": 0, "rental_uris": {"ios": "https://dc.lft.to/lastmile_qr_scan", "android": "https://dc.lft.to/lastmile_qr_scan"}, "is_reserved": 0}, {"lon": -77.02389783333334, "bike_id": "363d046e77a8b8255a1787d1e1c13114", "lat": 38.919745666666664, "fusion_lon": 0.0, "fusion_lat": 0.0, "type": "electric_scooter", "name": "363d046e77a8b8255a1787d1e1c13114", "is_disabled": 0, "rental_uris": {"ios": "https://dc.lft.to/lastmile_qr_scan", "android": "https://dc.lft.to/lastmile_qr_scan"}, "is_reserved": 0}, {"lon": -77.033889, "bike_id": "a6e59219871d3d483f84b592be5f3209", "lat": 38.909727833333335, "fusion_lon": 0.0, "fusion_lat": 0.0, "type": "electric_scooter", "name": "a6e59219871d3d483f84b592be5f3209", "is_disabled": 0, "rental_uris": {"ios": "https://dc.lft.to/lastmile_qr_scan", "android": "https://dc.lft.to/lastmile_qr_scan"}, "is_reserved": 0}, {"lon": -77.05271116666667, "bike_id": "ac2fb7f53549dfdd48f069f23b4a3240", "lat": 38.927727833333336, "fusion_lon": 0.0, "fusion_lat": 0.0, "type": "electric_scooter", "name": "ac2fb7f53549dfdd48f069f23b4a3240", "is_disabled": 0, "rental_uris": {"ios": "https://dc.lft.to/lastmile_qr_scan", "android": "https://dc.lft.to/lastmile_qr_scan"}, "is_reserved": 0}, {"lon": -77.017507, "bike_id": "bf44cf2db3110b987f5322763b20f75b", "lat": 38.902624, "fusion_lon": 0.0, "fusion_lat": 0.0, "type": "electric_scooter", "name": "bf44cf2db3110b987f5322763b20f75b", "is_disabled": 0, "rental_uris": {"ios": "https://dc.lft.to/lastmile_qr_scan", "android": "https://dc.lft.to/lastmile_qr_scan"}, "is_reserved": 0}, {"lon": -77.021207, "bike_id": "a24043e7f0ace25b034711e3c727f00a", "lat": 38.9096835, "fusion_lon": 0.0, "fusion_lat": 0.0, "type": "electric_scooter", "name": "a24043e7f0ace25b034711e3c727f00a", "is_disabled": 0, "rental_uris": {"ios": "https://dc.lft.to/lastmile_qr_scan", "android": "https://dc.lft.to/lastmile_qr_scan"}, "is_reserved": 0}, {"lon": -77.021967, "bike_id": "63f9de4fda06859809f075c9a1cead89", "lat": 38.916415, "fusion_lon": 0.0, "fusion_lat": 0.0, "type": "electric_scooter", "name": "63f9de4fda06859809f075c9a1cead89", "is_disabled": 0, "rental_uris": {"ios": "https://dc.lft.to/lastmile_qr_scan", "android": "https://dc.lft.to/lastmile_qr_scan"}, "is_reserved": 0}, {"lon": -77.03831866666667, "bike_id": "78abe6d8ae179ca4d480bd3460b9cbb3", "lat": 38.906689166666666, "fusion_lon": 0.0, "fusion_lat": 0.0, "type": "electric_scooter", "name": "78abe6d8ae179ca4d480bd3460b9cbb3", "is_disabled": 0, "rental_uris": {"ios": "https://dc.lft.to/lastmile_qr_scan", "android": "https://dc.lft.to/lastmile_qr_scan"}, "is_reserved": 0}, {"lon": -77.02763366666667, "bike_id": "51a5717f210443798728161c99016f6e", "lat": 38.94405233333333, "fusion_lon": 0.0, "fusion_lat": 0.0, "type": "electric_scooter", "name": "51a5717f210443798728161c99016f6e", "is_disabled": 0, "rental_uris": {"ios": "https://dc.lft.to/lastmile_qr_scan", "android": "https://dc.lft.to/lastmile_qr_scan"}, "is_reserved": 0}, {"lon": -77.05868416666667, "bike_id": "57f2362646afc06f2ee4280da2c2ccf6", "lat": 38.936055, "fusion_lon": 0.0, "fusion_lat": 0.0, "type": "electric_scooter", "name": "57f2362646afc06f2ee4280da2c2ccf6", "is_disabled": 0, "rental_uris": {"ios": "https://dc.lft.to/lastmile_qr_scan", "android": "https://dc.lft.to/lastmile_qr_scan"}, "is_reserved": 0}, {"lon": -76.97537783333334, "bike_id": "e30f174f36edc448e7753ce21b430a63", "lat": 38.903255, "fusion_lon": 0.0, "fusion_lat": 0.0, "type": "electric_bike", "name": "e30f174f36edc448e7753ce21b430a63", "is_disabled": 0, "rental_uris": {"ios": "https://dc.lft.to/lastmile_qr_scan", "android": "https://dc.lft.to/lastmile_qr_scan"}, "is_reserved": 0}, {"lon": -77.02466333333334, "bike_id": "dbb2e885cd4b0b1a92914ed9feb8988d", "lat": 38.900877, "fusion_lon": 0.0, "fusion_lat": 0.0, "type": "electric_scooter", "name": "dbb2e885cd4b0b1a92914ed9feb8988d", "is_disabled": 0, "rental_uris": {"ios": "https://dc.lft.to/lastmile_qr_scan", "android": "https://dc.lft.to/lastmile_qr_scan"}, "is_reserved": 0}, {"lon": -77.04569483333333, "bike_id": "15d8c852434c99c5d6acc3372ab54525", "lat": 38.91578483333333, "fusion_lon": 0.0, "fusion_lat": 0.0, "type": "electric_scooter", "name": "15d8c852434c99c5d6acc3372ab54525", "is_disabled": 0, "rental_uris": {"ios": "https://dc.lft.to/lastmile_qr_scan", "android": "https://dc.lft.to/lastmile_qr_scan"}, "is_reserved": 0}, {"lon": -77.0307265, "bike_id": "dbff83cd335d151413b716b0e4378186", "lat": 38.902674, "fusion_lon": 0.0, "fusion_lat": 0.0, "type": "electric_scooter", "name": "dbff83cd335d151413b716b0e4378186", "is_disabled": 0, "rental_uris": {"ios": "https://dc.lft.to/lastmile_qr_scan", "android": "https://dc.lft.to/lastmile_qr_scan"}, "is_reserved": 0}, {"lon": -76.98837633333333, "bike_id": "bef3ae85b544fb361400761720abbfe7", "lat": 38.90120366666667, "fusion_lon": 0.0, "fusion_lat": 0.0, "type": "electric_scooter", "name": "bef3ae85b544fb361400761720abbfe7", "is_disabled": 0, "rental_uris": {"ios": "https://dc.lft.to/lastmile_qr_scan", "android": "https://dc.lft.to/lastmile_qr_scan"}, "is_reserved": 0}, {"lon": -77.04161616666667, "bike_id": "b1331fbf75d5177291274098dbfd0df4", "lat": 38.91796733333334, "fusion_lon": 0.0, "fusion_lat": 0.0, "type": "electric_scooter", "name": "b1331fbf75d5177291274098dbfd0df4", "is_disabled": 0, "rental_uris": {"ios": "https://dc.lft.to/lastmile_qr_scan", "android": "https://dc.lft.to/lastmile_qr_scan"}, "is_reserved": 0}, {"lon": -77.023798, "bike_id": "e91f0fed04f3301780fd9e92d6f5b149", "lat": 38.90788633333333, "fusion_lon": 0.0, "fusion_lat": 0.0, "type": "electric_scooter", "name": "e91f0fed04f3301780fd9e92d6f5b149", "is_disabled": 0, "rental_uris": {"ios": "https://dc.lft.to/lastmile_qr_scan", "android": "https://dc.lft.to/lastmile_qr_scan"}, "is_reserved": 0}, {"lon": -77.0240735, "bike_id": "0f2a69fdeec9955c9cc25cd3117bad41", "lat": 38.921535666666664, "fusion_lon": 0.0, "fusion_lat": 0.0, "type": "electric_scooter", "name": "0f2a69fdeec9955c9cc25cd3117bad41", "is_disabled": 0, "rental_uris": {"ios": "https://dc.lft.to/lastmile_qr_scan", "android": "https://dc.lft.to/lastmile_qr_scan"}, "is_reserved": 0}, {"lon": -77.00614966666667, "bike_id": "d72c20a91c152ff598321e4b0a78902d", "lat": 38.87176516666667, "fusion_lon": 0.0, "fusion_lat": 0.0, "type": "electric_scooter", "name": "d72c20a91c152ff598321e4b0a78902d", "is_disabled": 0, "rental_uris": {"ios": "https://dc.lft.to/lastmile_qr_scan", "android": "https://dc.lft.to/lastmile_qr_scan"}, "is_reserved": 0}, {"lon": -77.044747, "bike_id": "910b8b41c9b372697889d57f59b9528c", "lat": 38.91948266666667, "fusion_lon": 0.0, "fusion_lat": 0.0, "type": "electric_scooter", "name": "910b8b41c9b372697889d57f59b9528c", "is_disabled": 0, "rental_uris": {"ios": "https://dc.lft.to/lastmile_qr_scan", "android": "https://dc.lft.to/lastmile_qr_scan"}, "is_reserved": 0}, {"lon": -77.04877866666666, "bike_id": "eaeb17ae9a1efb08f82c4e1183f8de02", "lat": 38.892304833333334, "fusion_lon": 0.0, "fusion_lat": 0.0, "type": "electric_scooter", "name": "eaeb17ae9a1efb08f82c4e1183f8de02", "is_disabled": 0, "rental_uris": {"ios": "https://dc.lft.to/lastmile_qr_scan", "android": "https://dc.lft.to/lastmile_qr_scan"}, "is_reserved": 0}, {"lon": -77.01633366666667, "bike_id": "55d54e03a7ac9886d4696c42001ec7eb", "lat": 38.906070166666666, "fusion_lon": 0.0, "fusion_lat": 0.0, "type": "electric_scooter", "name": "55d54e03a7ac9886d4696c42001ec7eb", "is_disabled": 0, "rental_uris": {"ios": "https://dc.lft.to/lastmile_qr_scan", "android": "https://dc.lft.to/lastmile_qr_scan"}, "is_reserved": 0}, {"lon": -77.03646933333333, "bike_id": "c0e3ab1e83bec507824cee96ad9a9a13", "lat": 38.903493166666664, "fusion_lon": 0.0, "fusion_lat": 0.0, "type": "electric_scooter", "name": "c0e3ab1e83bec507824cee96ad9a9a13", "is_disabled": 0, "rental_uris": {"ios": "https://dc.lft.to/lastmile_qr_scan", "android": "https://dc.lft.to/lastmile_qr_scan"}, "is_reserved": 0}, {"lon": -77.09496266666666, "bike_id": "af923364ec624a87c977b657d65a852e", "lat": 38.80761616666667, "fusion_lon": 0.0, "fusion_lat": 0.0, "type": "electric_bike", "name": "af923364ec624a87c977b657d65a852e", "is_disabled": 0, "rental_uris": {"ios": "https://dc.lft.to/lastmile_qr_scan", "android": "https://dc.lft.to/lastmile_qr_scan"}, "is_reserved": 0}, {"lon": -76.986577, "bike_id": "24d98beb6e6e9c14e7b9bc673c392ab8", "lat": 38.9124765, "fusion_lon": 0.0, "fusion_lat": 0.0, "type": "electric_scooter", "name": "24d98beb6e6e9c14e7b9bc673c392ab8", "is_disabled": 0, "rental_uris": {"ios": "https://dc.lft.to/lastmile_qr_scan", "android": "https://dc.lft.to/lastmile_qr_scan"}, "is_reserved": 0}, {"lon": -77.0318985, "bike_id": "55152ec7aad29254c9333e4509e946fb", "lat": 38.905119, "fusion_lon": 0.0, "fusion_lat": 0.0, "type": "electric_scooter", "name": "55152ec7aad29254c9333e4509e946fb", "is_disabled": 0, "rental_uris": {"ios": "https://dc.lft.to/lastmile_qr_scan", "android": "https://dc.lft.to/lastmile_qr_scan"}, "is_reserved": 0}, {"lon": -77.0326935, "bike_id": "f2a25dcceb842a7e946892a371d1db65", "lat": 38.93662066666667, "fusion_lon": 0.0, "fusion_lat": 0.0, "type": "electric_scooter", "name": "f2a25dcceb842a7e946892a371d1db65", "is_disabled": 0, "rental_uris": {"ios": "https://dc.lft.to/lastmile_qr_scan", "android": "https://dc.lft.to/lastmile_qr_scan"}, "is_reserved": 0}, {"lon": -77.00198166666667, "bike_id": "b0ca3c89c1865750add58c84c8f9d96e", "lat": 38.9002865, "fusion_lon": 0.0, "fusion_lat": 0.0, "type": "electric_scooter", "name": "b0ca3c89c1865750add58c84c8f9d96e", "is_disabled": 0, "rental_uris": {"ios": "https://dc.lft.to/lastmile_qr_scan", "android": "https://dc.lft.to/lastmile_qr_scan"}, "is_reserved": 0}, {"lon": -77.02171416666667, "bike_id": "d7c34aa2f0e2492cce41f7cf7a68fe86", "lat": 38.89733433333333, "fusion_lon": 0.0, "fusion_lat": 0.0, "type": "electric_scooter", "name": "d7c34aa2f0e2492cce41f7cf7a68fe86", "is_disabled": 0, "rental_uris": {"ios": "https://dc.lft.to/lastmile_qr_scan", "android": "https://dc.lft.to/lastmile_qr_scan"}, "is_reserved": 0}, {"lon": -77.04110016666667, "bike_id": "5c65eefb9f9a4c262e9b58785c865fe2", "lat": 38.9086945, "fusion_lon": 0.0, "fusion_lat": 0.0, "type": "electric_scooter", "name": "5c65eefb9f9a4c262e9b58785c865fe2", "is_disabled": 0, "rental_uris": {"ios": "https://dc.lft.to/lastmile_qr_scan", "android": "https://dc.lft.to/lastmile_qr_scan"}, "is_reserved": 0}, {"lon": -77.010579, "bike_id": "67f8bffaefd7aef8079023ecfed5006e", "lat": 38.963378, "fusion_lon": 0.0, "fusion_lat": 0.0, "type": "electric_scooter", "name": "67f8bffaefd7aef8079023ecfed5006e", "is_disabled": 0, "rental_uris": {"ios": "https://dc.lft.to/lastmile_qr_scan", "android": "https://dc.lft.to/lastmile_qr_scan"}, "is_reserved": 0}, {"lon": -77.03991416666666, "bike_id": "1b3bd4570183bb7f1bd53df46bfa3fd8", "lat": 38.91625416666667, "fusion_lon": 0.0, "fusion_lat": 0.0, "type": "electric_scooter", "name": "1b3bd4570183bb7f1bd53df46bfa3fd8", "is_disabled": 0, "rental_uris": {"ios": "https://dc.lft.to/lastmile_qr_scan", "android": "https://dc.lft.to/lastmile_qr_scan"}, "is_reserved": 0}, {"lon": -77.00986716666667, "bike_id": "81853d190e8869c17e822cb4507163fd", "lat": 38.903647, "fusion_lon": 0.0, "fusion_lat": 0.0, "type": "electric_scooter", "name": "81853d190e8869c17e822cb4507163fd", "is_disabled": 0, "rental_uris": {"ios": "https://dc.lft.to/lastmile_qr_scan", "android": "https://dc.lft.to/lastmile_qr_scan"}, "is_reserved": 0}, {"lon": -77.02841616666667, "bike_id": "62a8f7110ed70dc814283ab9be81d087", "lat": 38.92957883333333, "fusion_lon": 0.0, "fusion_lat": 0.0, "type": "electric_scooter", "name": "62a8f7110ed70dc814283ab9be81d087", "is_disabled": 0, "rental_uris": {"ios": "https://dc.lft.to/lastmile_qr_scan", "android": "https://dc.lft.to/lastmile_qr_scan"}, "is_reserved": 0}, {"lon": -77.10337766666666, "bike_id": "666e1c73c702c80ccdb70fc5aafdd50e", "lat": 38.885526666666664, "fusion_lon": 0.0, "fusion_lat": 0.0, "type": "electric_bike", "name": "666e1c73c702c80ccdb70fc5aafdd50e", "is_disabled": 0, "rental_uris": {"ios": "https://dc.lft.to/lastmile_qr_scan", "android": "https://dc.lft.to/lastmile_qr_scan"}, "is_reserved": 0}, {"lon": -76.9700035, "bike_id": "06fa0b59d0e78d1b8c5f89623167ab54", "lat": 38.87374, "fusion_lon": 0.0, "fusion_lat": 0.0, "type": "electric_scooter", "name": "06fa0b59d0e78d1b8c5f89623167ab54", "is_disabled": 0, "rental_uris": {"ios": "https://dc.lft.to/lastmile_qr_scan", "android": "https://dc.lft.to/lastmile_qr_scan"}, "is_reserved": 0}, {"lon": -77.061371, "bike_id": "97fe5a7269fdad5578abe983fc77adbd", "lat": 38.943608166666664, "fusion_lon": 0.0, "fusion_lat": 0.0, "type": "electric_scooter", "name": "97fe5a7269fdad5578abe983fc77adbd", "is_disabled": 0, "rental_uris": {"ios": "https://dc.lft.to/lastmile_qr_scan", "android": "https://dc.lft.to/lastmile_qr_scan"}, "is_reserved": 0}, {"lon": -76.97746866666667, "bike_id": "47d239225250931477676196a9ff014a", "lat": 38.89895533333333, "fusion_lon": 0.0, "fusion_lat": 0.0, "type": "electric_scooter", "name": "47d239225250931477676196a9ff014a", "is_disabled": 0, "rental_uris": {"ios": "https://dc.lft.to/lastmile_qr_scan", "android": "https://dc.lft.to/lastmile_qr_scan"}, "is_reserved": 0}, {"lon": -77.02429466666666, "bike_id": "3bcee938abd5172f2a08989d58d18bf1", "lat": 38.93741216666667, "fusion_lon": 0.0, "fusion_lat": 0.0, "type": "electric_scooter", "name": "3bcee938abd5172f2a08989d58d18bf1", "is_disabled": 0, "rental_uris": {"ios": "https://dc.lft.to/lastmile_qr_scan", "android": "https://dc.lft.to/lastmile_qr_scan"}, "is_reserved": 0}, {"lon": -77.01980183333333, "bike_id": "0101cee1e4f912b4abf9dae596681507", "lat": 38.88597866666667, "fusion_lon": 0.0, "fusion_lat": 0.0, "type": "electric_scooter", "name": "0101cee1e4f912b4abf9dae596681507", "is_disabled": 0, "rental_uris": {"ios": "https://dc.lft.to/lastmile_qr_scan", "android": "https://dc.lft.to/lastmile_qr_scan"}, "is_reserved": 0}, {"lon": -77.00601333333333, "bike_id": "41a7c7df6be9d3b2641832fc08e27231", "lat": 38.871772166666666, "fusion_lon": 0.0, "fusion_lat": 0.0, "type": "electric_bike", "name": "41a7c7df6be9d3b2641832fc08e27231", "is_disabled": 0, "rental_uris": {"ios": "https://dc.lft.to/lastmile_qr_scan", "android": "https://dc.lft.to/lastmile_qr_scan"}, "is_reserved": 0}, {"lon": -77.04248283333334, "bike_id": "acf0d385d6d9a47e3c00f124de15e8a2", "lat": 38.90957933333333, "fusion_lon": 0.0, "fusion_lat": 0.0, "type": "electric_scooter", "name": "acf0d385d6d9a47e3c00f124de15e8a2", "is_disabled": 0, "rental_uris": {"ios": "https://dc.lft.to/lastmile_qr_scan", "android": "https://dc.lft.to/lastmile_qr_scan"}, "is_reserved": 0}, {"lon": -77.03141366666667, "bike_id": "e870912cf09ec5b485ec8b5a838cf1f2", "lat": 38.9156325, "fusion_lon": 0.0, "fusion_lat": 0.0, "type": "electric_scooter", "name": "e870912cf09ec5b485ec8b5a838cf1f2", "is_disabled": 0, "rental_uris": {"ios": "https://dc.lft.to/lastmile_qr_scan", "android": "https://dc.lft.to/lastmile_qr_scan"}, "is_reserved": 0}, {"lon": -77.0779285, "bike_id": "710f7b2997328f330dab496e6d494c54", "lat": 38.99602266666667, "fusion_lon": 0.0, "fusion_lat": 0.0, "type": "electric_bike", "name": "710f7b2997328f330dab496e6d494c54", "is_disabled": 0, "rental_uris": {"ios": "https://dc.lft.to/lastmile_qr_scan", "android": "https://dc.lft.to/lastmile_qr_scan"}, "is_reserved": 0}, {"lon": -77.035853, "bike_id": "29e411f37f412a769b04d5d0c1dd8c60", "lat": 38.909621666666666, "fusion_lon": 0.0, "fusion_lat": 0.0, "type": "electric_scooter", "name": "29e411f37f412a769b04d5d0c1dd8c60", "is_disabled": 0, "rental_uris": {"ios": "https://dc.lft.to/lastmile_qr_scan", "android": "https://dc.lft.to/lastmile_qr_scan"}, "is_reserved": 0}, {"lon": -77.03909416666667, "bike_id": "285f8711a04338803d3240e013c40339", "lat": 38.91839816666667, "fusion_lon": 0.0, "fusion_lat": 0.0, "type": "electric_scooter", "name": "285f8711a04338803d3240e013c40339", "is_disabled": 0, "rental_uris": {"ios": "https://dc.lft.to/lastmile_qr_scan", "android": "https://dc.lft.to/lastmile_qr_scan"}, "is_reserved": 0}, {"lon": -77.00188333333334, "bike_id": "e469e1bba64051b5b006add53303806b", "lat": 38.890990333333335, "fusion_lon": 0.0, "fusion_lat": 0.0, "type": "electric_scooter", "name": "e469e1bba64051b5b006add53303806b", "is_disabled": 0, "rental_uris": {"ios": "https://dc.lft.to/lastmile_qr_scan", "android": "https://dc.lft.to/lastmile_qr_scan"}, "is_reserved": 0}, {"lon": -77.05273, "bike_id": "928854a9372ced14d9e7d28aa493560e", "lat": 38.89969166666667, "fusion_lon": 0.0, "fusion_lat": 0.0, "type": "electric_scooter", "name": "928854a9372ced14d9e7d28aa493560e", "is_disabled": 0, "rental_uris": {"ios": "https://dc.lft.to/lastmile_qr_scan", "android": "https://dc.lft.to/lastmile_qr_scan"}, "is_reserved": 0}, {"lon": -77.05012766666667, "bike_id": "5e7b747840dc9e017e3fbad4e65ace3a", "lat": 38.900173333333335, "fusion_lon": 0.0, "fusion_lat": 0.0, "type": "electric_scooter", "name": "5e7b747840dc9e017e3fbad4e65ace3a", "is_disabled": 0, "rental_uris": {"ios": "https://dc.lft.to/lastmile_qr_scan", "android": "https://dc.lft.to/lastmile_qr_scan"}, "is_reserved": 0}, {"lon": -77.02427266666666, "bike_id": "ef8a68ce9e6e9c7b216d44030fbbf324", "lat": 38.92288466666667, "fusion_lon": 0.0, "fusion_lat": 0.0, "type": "electric_scooter", "name": "ef8a68ce9e6e9c7b216d44030fbbf324", "is_disabled": 0, "rental_uris": {"ios": "https://dc.lft.to/lastmile_qr_scan", "android": "https://dc.lft.to/lastmile_qr_scan"}, "is_reserved": 0}, {"lon": -77.0319695, "bike_id": "ccb101a82e3ccadb9c41f678d0ada944", "lat": 38.9286435, "fusion_lon": 0.0, "fusion_lat": 0.0, "type": "electric_scooter", "name": "ccb101a82e3ccadb9c41f678d0ada944", "is_disabled": 0, "rental_uris": {"ios": "https://dc.lft.to/lastmile_qr_scan", "android": "https://dc.lft.to/lastmile_qr_scan"}, "is_reserved": 0}, {"lon": -77.05862733333333, "bike_id": "871332993e6047bd2b06df8755c7a299", "lat": 38.93603016666667, "fusion_lon": 0.0, "fusion_lat": 0.0, "type": "electric_scooter", "name": "871332993e6047bd2b06df8755c7a299", "is_disabled": 0, "rental_uris": {"ios": "https://dc.lft.to/lastmile_qr_scan", "android": "https://dc.lft.to/lastmile_qr_scan"}, "is_reserved": 0}, {"lon": -77.02187266666667, "bike_id": "a7b5f45e88b42d700e725fb2f1043cf4", "lat": 38.893542833333335, "fusion_lon": 0.0, "fusion_lat": 0.0, "type": "electric_scooter", "name": "a7b5f45e88b42d700e725fb2f1043cf4", "is_disabled": 0, "rental_uris": {"ios": "https://dc.lft.to/lastmile_qr_scan", "android": "https://dc.lft.to/lastmile_qr_scan"}, "is_reserved": 0}, {"lon": -77.03912266666667, "bike_id": "3b51a117daa313a8be3e54a13b072e80", "lat": 38.91832933333333, "fusion_lon": 0.0, "fusion_lat": 0.0, "type": "electric_scooter", "name": "3b51a117daa313a8be3e54a13b072e80", "is_disabled": 0, "rental_uris": {"ios": "https://dc.lft.to/lastmile_qr_scan", "android": "https://dc.lft.to/lastmile_qr_scan"}, "is_reserved": 0}, {"lon": -76.97348483333333, "bike_id": "d885564f2cb3dcea438e4d224d2ad092", "lat": 38.865180333333335, "fusion_lon": 0.0, "fusion_lat": 0.0, "type": "electric_bike", "name": "d885564f2cb3dcea438e4d224d2ad092", "is_disabled": 0, "rental_uris": {"ios": "https://dc.lft.to/lastmile_qr_scan", "android": "https://dc.lft.to/lastmile_qr_scan"}, "is_reserved": 0}, {"lon": -76.9808935, "bike_id": "0be3d36d5dc1e403e90073eef5c9df39", "lat": 38.884202, "fusion_lon": 0.0, "fusion_lat": 0.0, "type": "electric_scooter", "name": "0be3d36d5dc1e403e90073eef5c9df39", "is_disabled": 0, "rental_uris": {"ios": "https://dc.lft.to/lastmile_qr_scan", "android": "https://dc.lft.to/lastmile_qr_scan"}, "is_reserved": 0}, {"lon": -76.985638, "bike_id": "89820775a1098f7a3f95a4b66745e036", "lat": 38.90917866666667, "fusion_lon": 0.0, "fusion_lat": 0.0, "type": "electric_scooter", "name": "89820775a1098f7a3f95a4b66745e036", "is_disabled": 0, "rental_uris": {"ios": "https://dc.lft.to/lastmile_qr_scan", "android": "https://dc.lft.to/lastmile_qr_scan"}, "is_reserved": 0}, {"lon": -77.0364475, "bike_id": "5b6ef7804d30445b0e406163aded2527", "lat": 38.912251, "fusion_lon": 0.0, "fusion_lat": 0.0, "type": "electric_scooter", "name": "5b6ef7804d30445b0e406163aded2527", "is_disabled": 0, "rental_uris": {"ios": "https://dc.lft.to/lastmile_qr_scan", "android": "https://dc.lft.to/lastmile_qr_scan"}, "is_reserved": 0}, {"lon": -77.03222, "bike_id": "64953ea2a6732c655ff1f90f5bb1b4a7", "lat": 38.89217883333333, "fusion_lon": 0.0, "fusion_lat": 0.0, "type": "electric_scooter", "name": "64953ea2a6732c655ff1f90f5bb1b4a7", "is_disabled": 0, "rental_uris": {"ios": "https://dc.lft.to/lastmile_qr_scan", "android": "https://dc.lft.to/lastmile_qr_scan"}, "is_reserved": 0}, {"lon": -77.04240266666666, "bike_id": "01c6126236424d977e1e790676c9ef3f", "lat": 38.90017533333334, "fusion_lon": 0.0, "fusion_lat": 0.0, "type": "electric_scooter", "name": "01c6126236424d977e1e790676c9ef3f", "is_disabled": 0, "rental_uris": {"ios": "https://dc.lft.to/lastmile_qr_scan", "android": "https://dc.lft.to/lastmile_qr_scan"}, "is_reserved": 0}, {"lon": -77.02115016666667, "bike_id": "8351fe9923f70008b8d9bc4b31b63786", "lat": 38.9369585, "fusion_lon": 0.0, "fusion_lat": 0.0, "type": "electric_scooter", "name": "8351fe9923f70008b8d9bc4b31b63786", "is_disabled": 0, "rental_uris": {"ios": "https://dc.lft.to/lastmile_qr_scan", "android": "https://dc.lft.to/lastmile_qr_scan"}, "is_reserved": 0}, {"lon": -76.982992, "bike_id": "0e55c7ac0a2eea3aeda80d7f96759434", "lat": 38.901099, "fusion_lon": 0.0, "fusion_lat": 0.0, "type": "electric_scooter", "name": "0e55c7ac0a2eea3aeda80d7f96759434", "is_disabled": 0, "rental_uris": {"ios": "https://dc.lft.to/lastmile_qr_scan", "android": "https://dc.lft.to/lastmile_qr_scan"}, "is_reserved": 0}, {"lon": -77.03816833333333, "bike_id": "265076566754cf9accabbe27d1904f32", "lat": 38.930945666666666, "fusion_lon": 0.0, "fusion_lat": 0.0, "type": "electric_scooter", "name": "265076566754cf9accabbe27d1904f32", "is_disabled": 0, "rental_uris": {"ios": "https://dc.lft.to/lastmile_qr_scan", "android": "https://dc.lft.to/lastmile_qr_scan"}, "is_reserved": 0}, {"lon": -77.02949466666666, "bike_id": "c078a1dd12e0123a82a5b86f29741622", "lat": 38.90504983333334, "fusion_lon": 0.0, "fusion_lat": 0.0, "type": "electric_scooter", "name": "c078a1dd12e0123a82a5b86f29741622", "is_disabled": 0, "rental_uris": {"ios": "https://dc.lft.to/lastmile_qr_scan", "android": "https://dc.lft.to/lastmile_qr_scan"}, "is_reserved": 0}, {"lon": -76.99768483333334, "bike_id": "956f9cdfa523927b940ee5d16542487a", "lat": 38.92268516666667, "fusion_lon": 0.0, "fusion_lat": 0.0, "type": "electric_scooter", "name": "956f9cdfa523927b940ee5d16542487a", "is_disabled": 0, "rental_uris": {"ios": "https://dc.lft.to/lastmile_qr_scan", "android": "https://dc.lft.to/lastmile_qr_scan"}, "is_reserved": 0}, {"lon": -76.96358683333334, "bike_id": "36ab1f5a3031ca9024e66ea745250143", "lat": 38.934973666666664, "fusion_lon": 0.0, "fusion_lat": 0.0, "type": "electric_scooter", "name": "36ab1f5a3031ca9024e66ea745250143", "is_disabled": 0, "rental_uris": {"ios": "https://dc.lft.to/lastmile_qr_scan", "android": "https://dc.lft.to/lastmile_qr_scan"}, "is_reserved": 0}, {"lon": -77.00066366666667, "bike_id": "4f1eee699f611b9b31c337a0522937cf", "lat": 38.924329666666665, "fusion_lon": 0.0, "fusion_lat": 0.0, "type": "electric_scooter", "name": "4f1eee699f611b9b31c337a0522937cf", "is_disabled": 0, "rental_uris": {"ios": "https://dc.lft.to/lastmile_qr_scan", "android": "https://dc.lft.to/lastmile_qr_scan"}, "is_reserved": 0}, {"lon": -77.0092235, "bike_id": "9648ed53c43e239f9cbc6e4c66a79595", "lat": 38.82785166666667, "fusion_lon": 0.0, "fusion_lat": 0.0, "type": "electric_bike", "name": "9648ed53c43e239f9cbc6e4c66a79595", "is_disabled": 0, "rental_uris": {"ios": "https://dc.lft.to/lastmile_qr_scan", "android": "https://dc.lft.to/lastmile_qr_scan"}, "is_reserved": 0}, {"lon": -77.0417305, "bike_id": "6388a02d5e898ebec490c83a57b7b1fe", "lat": 38.9198505, "fusion_lon": 0.0, "fusion_lat": 0.0, "type": "electric_scooter", "name": "6388a02d5e898ebec490c83a57b7b1fe", "is_disabled": 0, "rental_uris": {"ios": "https://dc.lft.to/lastmile_qr_scan", "android": "https://dc.lft.to/lastmile_qr_scan"}, "is_reserved": 0}, {"lon": -76.98946383333333, "bike_id": "065efb30abb24be8e1882b0c87bb57b4", "lat": 38.86695066666667, "fusion_lon": 0.0, "fusion_lat": 0.0, "type": "electric_bike", "name": "065efb30abb24be8e1882b0c87bb57b4", "is_disabled": 0, "rental_uris": {"ios": "https://dc.lft.to/lastmile_qr_scan", "android": "https://dc.lft.to/lastmile_qr_scan"}, "is_reserved": 0}, {"lon": -77.00076583333333, "bike_id": "7e90ea4cfa2992dbb85c4e38f17de1aa", "lat": 38.873746833333335, "fusion_lon": 0.0, "fusion_lat": 0.0, "type": "electric_scooter", "name": "7e90ea4cfa2992dbb85c4e38f17de1aa", "is_disabled": 0, "rental_uris": {"ios": "https://dc.lft.to/lastmile_qr_scan", "android": "https://dc.lft.to/lastmile_qr_scan"}, "is_reserved": 0}, {"lon": -76.98588633333334, "bike_id": "98a0a85d30496b62b44583b8b38d3360", "lat": 38.866836, "fusion_lon": 0.0, "fusion_lat": 0.0, "type": "electric_scooter", "name": "98a0a85d30496b62b44583b8b38d3360", "is_disabled": 0, "rental_uris": {"ios": "https://dc.lft.to/lastmile_qr_scan", "android": "https://dc.lft.to/lastmile_qr_scan"}, "is_reserved": 0}, {"lon": -77.054416, "bike_id": "8196bc1a5ef92bd0e2f018b2400fdbcd", "lat": 38.903664166666665, "fusion_lon": 0.0, "fusion_lat": 0.0, "type": "electric_scooter", "name": "8196bc1a5ef92bd0e2f018b2400fdbcd", "is_disabled": 0, "rental_uris": {"ios": "https://dc.lft.to/lastmile_qr_scan", "android": "https://dc.lft.to/lastmile_qr_scan"}, "is_reserved": 0}, {"lon": -77.052698, "bike_id": "efe21832bce5319000cbad5fa102c798", "lat": 38.899700333333335, "fusion_lon": 0.0, "fusion_lat": 0.0, "type": "electric_scooter", "name": "efe21832bce5319000cbad5fa102c798", "is_disabled": 0, "rental_uris": {"ios": "https://dc.lft.to/lastmile_qr_scan", "android": "https://dc.lft.to/lastmile_qr_scan"}, "is_reserved": 0}, {"lon": -76.985449, "bike_id": "a140b655f81c66431b7208dbb4cd3edc", "lat": 38.89655583333333, "fusion_lon": 0.0, "fusion_lat": 0.0, "type": "electric_scooter", "name": "a140b655f81c66431b7208dbb4cd3edc", "is_disabled": 0, "rental_uris": {"ios": "https://dc.lft.to/lastmile_qr_scan", "android": "https://dc.lft.to/lastmile_qr_scan"}, "is_reserved": 0}, {"lon": -77.02632666666666, "bike_id": "e7b64503877bf243d03e690ba28ae06f", "lat": 38.91701616666667, "fusion_lon": 0.0, "fusion_lat": 0.0, "type": "electric_scooter", "name": "e7b64503877bf243d03e690ba28ae06f", "is_disabled": 0, "rental_uris": {"ios": "https://dc.lft.to/lastmile_qr_scan", "android": "https://dc.lft.to/lastmile_qr_scan"}, "is_reserved": 0}, {"lon": -77.03302366666667, "bike_id": "e270895bcad80258d21bd331622e3f0c", "lat": 38.925486166666666, "fusion_lon": 0.0, "fusion_lat": 0.0, "type": "electric_scooter", "name": "e270895bcad80258d21bd331622e3f0c", "is_disabled": 0, "rental_uris": {"ios": "https://dc.lft.to/lastmile_qr_scan", "android": "https://dc.lft.to/lastmile_qr_scan"}, "is_reserved": 0}, {"lon": -77.01942, "bike_id": "7057afef2d77d960a0e2490b659b837e", "lat": 38.93681766666667, "fusion_lon": 0.0, "fusion_lat": 0.0, "type": "electric_scooter", "name": "7057afef2d77d960a0e2490b659b837e", "is_disabled": 0, "rental_uris": {"ios": "https://dc.lft.to/lastmile_qr_scan", "android": "https://dc.lft.to/lastmile_qr_scan"}, "is_reserved": 0}, {"lon": -77.04811033333333, "bike_id": "de83c5b3f2a01aa75b49e6db04e06419", "lat": 38.90495116666666, "fusion_lon": 0.0, "fusion_lat": 0.0, "type": "electric_bike", "name": "de83c5b3f2a01aa75b49e6db04e06419", "is_disabled": 0, "rental_uris": {"ios": "https://dc.lft.to/lastmile_qr_scan", "android": "https://dc.lft.to/lastmile_qr_scan"}, "is_reserved": 0}, {"lon": -77.04164633333333, "bike_id": "b3204eee22e58173bb1c61aaba2ef9ab", "lat": 38.912478166666666, "fusion_lon": 0.0, "fusion_lat": 0.0, "type": "electric_scooter", "name": "b3204eee22e58173bb1c61aaba2ef9ab", "is_disabled": 0, "rental_uris": {"ios": "https://dc.lft.to/lastmile_qr_scan", "android": "https://dc.lft.to/lastmile_qr_scan"}, "is_reserved": 0}, {"lon": -77.02515516666666, "bike_id": "63df0b9cdfe9b1b92b5cd18844b8b655", "lat": 38.916913, "fusion_lon": 0.0, "fusion_lat": 0.0, "type": "electric_scooter", "name": "63df0b9cdfe9b1b92b5cd18844b8b655", "is_disabled": 0, "rental_uris": {"ios": "https://dc.lft.to/lastmile_qr_scan", "android": "https://dc.lft.to/lastmile_qr_scan"}, "is_reserved": 0}, {"lon": -76.99534933333334, "bike_id": "33b36ce3c07bf3e11b76cba977ebdd4a", "lat": 38.883758, "fusion_lon": 0.0, "fusion_lat": 0.0, "type": "electric_scooter", "name": "33b36ce3c07bf3e11b76cba977ebdd4a", "is_disabled": 0, "rental_uris": {"ios": "https://dc.lft.to/lastmile_qr_scan", "android": "https://dc.lft.to/lastmile_qr_scan"}, "is_reserved": 0}, {"lon": -76.93308483333334, "bike_id": "91505be5e928c6cc8f4e2a5861cf3a70", "lat": 38.894700666666665, "fusion_lon": 0.0, "fusion_lat": 0.0, "type": "electric_scooter", "name": "91505be5e928c6cc8f4e2a5861cf3a70", "is_disabled": 0, "rental_uris": {"ios": "https://dc.lft.to/lastmile_qr_scan", "android": "https://dc.lft.to/lastmile_qr_scan"}, "is_reserved": 0}, {"lon": -77.04769316666666, "bike_id": "13cec80ac1bfad6dbc5f9649b7c2bbc4", "lat": 38.921377, "fusion_lon": 0.0, "fusion_lat": 0.0, "type": "electric_scooter", "name": "13cec80ac1bfad6dbc5f9649b7c2bbc4", "is_disabled": 0, "rental_uris": {"ios": "https://dc.lft.to/lastmile_qr_scan", "android": "https://dc.lft.to/lastmile_qr_scan"}, "is_reserved": 0}, {"lon": -77.0386215, "bike_id": "d02dd6b06d52d41c610ab1076cbe56fa", "lat": 38.9177815, "fusion_lon": 0.0, "fusion_lat": 0.0, "type": "electric_scooter", "name": "d02dd6b06d52d41c610ab1076cbe56fa", "is_disabled": 0, "rental_uris": {"ios": "https://dc.lft.to/lastmile_qr_scan", "android": "https://dc.lft.to/lastmile_qr_scan"}, "is_reserved": 0}, {"lon": -77.032196, "bike_id": "f9277693e064099ee5c6d5c66992dffa", "lat": 38.914044833333335, "fusion_lon": 0.0, "fusion_lat": 0.0, "type": "electric_scooter", "name": "f9277693e064099ee5c6d5c66992dffa", "is_disabled": 0, "rental_uris": {"ios": "https://dc.lft.to/lastmile_qr_scan", "android": "https://dc.lft.to/lastmile_qr_scan"}, "is_reserved": 0}, {"lon": -76.99491483333334, "bike_id": "b8aa4518de811b3d1d8aa931addf9089", "lat": 38.8624555, "fusion_lon": 0.0, "fusion_lat": 0.0, "type": "electric_scooter", "name": "b8aa4518de811b3d1d8aa931addf9089", "is_disabled": 0, "rental_uris": {"ios": "https://dc.lft.to/lastmile_qr_scan", "android": "https://dc.lft.to/lastmile_qr_scan"}, "is_reserved": 0}, {"lon": -77.02141166666667, "bike_id": "1e2ad1caba17b1cfe0b7027344793ef2", "lat": 38.91547216666667, "fusion_lon": 0.0, "fusion_lat": 0.0, "type": "electric_scooter", "name": "1e2ad1caba17b1cfe0b7027344793ef2", "is_disabled": 0, "rental_uris": {"ios": "https://dc.lft.to/lastmile_qr_scan", "android": "https://dc.lft.to/lastmile_qr_scan"}, "is_reserved": 0}, {"lon": -77.03525583333334, "bike_id": "d96cccf7ac8fb4eba704d920dbdef072", "lat": 38.918398833333335, "fusion_lon": 0.0, "fusion_lat": 0.0, "type": "electric_scooter", "name": "d96cccf7ac8fb4eba704d920dbdef072", "is_disabled": 0, "rental_uris": {"ios": "https://dc.lft.to/lastmile_qr_scan", "android": "https://dc.lft.to/lastmile_qr_scan"}, "is_reserved": 0}, {"lon": -77.03299216666667, "bike_id": "12a967231c48e87373c40576f44d09bd", "lat": 38.9095895, "fusion_lon": 0.0, "fusion_lat": 0.0, "type": "electric_scooter", "name": "12a967231c48e87373c40576f44d09bd", "is_disabled": 0, "rental_uris": {"ios": "https://dc.lft.to/lastmile_qr_scan", "android": "https://dc.lft.to/lastmile_qr_scan"}, "is_reserved": 0}, {"lon": -77.034172, "bike_id": "9f571cb71548aec4dc670a026f0946b0", "lat": 38.905376, "fusion_lon": 0.0, "fusion_lat": 0.0, "type": "electric_scooter", "name": "9f571cb71548aec4dc670a026f0946b0", "is_disabled": 0, "rental_uris": {"ios": "https://dc.lft.to/lastmile_qr_scan", "android": "https://dc.lft.to/lastmile_qr_scan"}, "is_reserved": 0}, {"lon": -76.993803, "bike_id": "e5a6c4f0be761b1f4e8b2a38d19419bc", "lat": 38.923959333333336, "fusion_lon": 0.0, "fusion_lat": 0.0, "type": "electric_scooter", "name": "e5a6c4f0be761b1f4e8b2a38d19419bc", "is_disabled": 0, "rental_uris": {"ios": "https://dc.lft.to/lastmile_qr_scan", "android": "https://dc.lft.to/lastmile_qr_scan"}, "is_reserved": 0}, {"lon": -77.04346183333334, "bike_id": "fa4c96fe2f1cc34c22a4fe3dedba0650", "lat": 38.910581666666666, "fusion_lon": 0.0, "fusion_lat": 0.0, "type": "electric_scooter", "name": "fa4c96fe2f1cc34c22a4fe3dedba0650", "is_disabled": 0, "rental_uris": {"ios": "https://dc.lft.to/lastmile_qr_scan", "android": "https://dc.lft.to/lastmile_qr_scan"}, "is_reserved": 0}, {"lon": -77.03333166666667, "bike_id": "625a69f5e66657c6a05b171761f7c720", "lat": 38.939013833333334, "fusion_lon": 0.0, "fusion_lat": 0.0, "type": "electric_scooter", "name": "625a69f5e66657c6a05b171761f7c720", "is_disabled": 0, "rental_uris": {"ios": "https://dc.lft.to/lastmile_qr_scan", "android": "https://dc.lft.to/lastmile_qr_scan"}, "is_reserved": 0}, {"lon": -77.03519533333333, "bike_id": "b411599b5e51e2c875f2027b431433d4", "lat": 38.91600116666667, "fusion_lon": 0.0, "fusion_lat": 0.0, "type": "electric_scooter", "name": "b411599b5e51e2c875f2027b431433d4", "is_disabled": 0, "rental_uris": {"ios": "https://dc.lft.to/lastmile_qr_scan", "android": "https://dc.lft.to/lastmile_qr_scan"}, "is_reserved": 0}, {"lon": -77.03262466666666, "bike_id": "afc14b75b628df0e5cd5b10441c7982d", "lat": 38.939009, "fusion_lon": 0.0, "fusion_lat": 0.0, "type": "electric_scooter", "name": "afc14b75b628df0e5cd5b10441c7982d", "is_disabled": 0, "rental_uris": {"ios": "https://dc.lft.to/lastmile_qr_scan", "android": "https://dc.lft.to/lastmile_qr_scan"}, "is_reserved": 0}, {"lon": -77.02974066666667, "bike_id": "937a7589deeabab78ee1e05b660e3632", "lat": 38.9162605, "fusion_lon": 0.0, "fusion_lat": 0.0, "type": "electric_scooter", "name": "937a7589deeabab78ee1e05b660e3632", "is_disabled": 0, "rental_uris": {"ios": "https://dc.lft.to/lastmile_qr_scan", "android": "https://dc.lft.to/lastmile_qr_scan"}, "is_reserved": 0}, {"lon": -77.115951, "bike_id": "3cd37be7cf326ff521514f9a8ad09619", "lat": 39.074919666666666, "fusion_lon": 0.0, "fusion_lat": 0.0, "type": "electric_bike", "name": "3cd37be7cf326ff521514f9a8ad09619", "is_disabled": 0, "rental_uris": {"ios": "https://dc.lft.to/lastmile_qr_scan", "android": "https://dc.lft.to/lastmile_qr_scan"}, "is_reserved": 0}, {"lon": -77.038086, "bike_id": "955b31b3ba7180cf0aa1f37ab3064f51", "lat": 38.91177233333333, "fusion_lon": 0.0, "fusion_lat": 0.0, "type": "electric_scooter", "name": "955b31b3ba7180cf0aa1f37ab3064f51", "is_disabled": 0, "rental_uris": {"ios": "https://dc.lft.to/lastmile_qr_scan", "android": "https://dc.lft.to/lastmile_qr_scan"}, "is_reserved": 0}, {"lon": -76.99055, "bike_id": "a2dc84870f151d73c3cf2ae06df6ba7c", "lat": 38.863809, "fusion_lon": 0.0, "fusion_lat": 0.0, "type": "electric_scooter", "name": "a2dc84870f151d73c3cf2ae06df6ba7c", "is_disabled": 0, "rental_uris": {"ios": "https://dc.lft.to/lastmile_qr_scan", "android": "https://dc.lft.to/lastmile_qr_scan"}, "is_reserved": 0}, {"lon": -76.99934033333334, "bike_id": "fdfce113cc989131f740b33ea0350faf", "lat": 38.8431255, "fusion_lon": 0.0, "fusion_lat": 0.0, "type": "electric_scooter", "name": "fdfce113cc989131f740b33ea0350faf", "is_disabled": 0, "rental_uris": {"ios": "https://dc.lft.to/lastmile_qr_scan", "android": "https://dc.lft.to/lastmile_qr_scan"}, "is_reserved": 0}, {"lon": -77.031243, "bike_id": "5b6ad4a3884e984bfc86b5faed5b7426", "lat": 38.912638, "fusion_lon": 0.0, "fusion_lat": 0.0, "type": "electric_scooter", "name": "5b6ad4a3884e984bfc86b5faed5b7426", "is_disabled": 0, "rental_uris": {"ios": "https://dc.lft.to/lastmile_qr_scan", "android": "https://dc.lft.to/lastmile_qr_scan"}, "is_reserved": 0}, {"lon": -76.9907105, "bike_id": "0d4bb9365f2425d955a3e39f52dab20f", "lat": 38.9274455, "fusion_lon": 0.0, "fusion_lat": 0.0, "type": "electric_scooter", "name": "0d4bb9365f2425d955a3e39f52dab20f", "is_disabled": 0, "rental_uris": {"ios": "https://dc.lft.to/lastmile_qr_scan", "android": "https://dc.lft.to/lastmile_qr_scan"}, "is_reserved": 0}, {"lon": -76.969156, "bike_id": "9aeb1025b78408fb59da21fe33385601", "lat": 38.846112, "fusion_lon": 0.0, "fusion_lat": 0.0, "type": "electric_bike", "name": "9aeb1025b78408fb59da21fe33385601", "is_disabled": 0, "rental_uris": {"ios": "https://dc.lft.to/lastmile_qr_scan", "android": "https://dc.lft.to/lastmile_qr_scan"}, "is_reserved": 0}, {"lon": -77.0315995, "bike_id": "54b28736938437100c36199047fd4030", "lat": 38.913069166666666, "fusion_lon": 0.0, "fusion_lat": 0.0, "type": "electric_scooter", "name": "54b28736938437100c36199047fd4030", "is_disabled": 0, "rental_uris": {"ios": "https://dc.lft.to/lastmile_qr_scan", "android": "https://dc.lft.to/lastmile_qr_scan"}, "is_reserved": 0}, {"lon": -77.0629815, "bike_id": "58494808452f87923a5cdeea12eabbc4", "lat": 38.90598383333333, "fusion_lon": 0.0, "fusion_lat": 0.0, "type": "electric_scooter", "name": "58494808452f87923a5cdeea12eabbc4", "is_disabled": 0, "rental_uris": {"ios": "https://dc.lft.to/lastmile_qr_scan", "android": "https://dc.lft.to/lastmile_qr_scan"}, "is_reserved": 0}, {"lon": -77.033483, "bike_id": "dd3109e18b41195e9a7385328cf1c0ec", "lat": 38.9287355, "fusion_lon": 0.0, "fusion_lat": 0.0, "type": "electric_scooter", "name": "dd3109e18b41195e9a7385328cf1c0ec", "is_disabled": 0, "rental_uris": {"ios": "https://dc.lft.to/lastmile_qr_scan", "android": "https://dc.lft.to/lastmile_qr_scan"}, "is_reserved": 0}, {"lon": -77.03202983333334, "bike_id": "b70711047da8ee0231e0be4e43318e6a", "lat": 38.892326, "fusion_lon": 0.0, "fusion_lat": 0.0, "type": "electric_scooter", "name": "b70711047da8ee0231e0be4e43318e6a", "is_disabled": 0, "rental_uris": {"ios": "https://dc.lft.to/lastmile_qr_scan", "android": "https://dc.lft.to/lastmile_qr_scan"}, "is_reserved": 0}, {"lon": -77.0332395, "bike_id": "04a2d29cef77966cdc50854acf2081e3", "lat": 38.921505833333335, "fusion_lon": 0.0, "fusion_lat": 0.0, "type": "electric_scooter", "name": "04a2d29cef77966cdc50854acf2081e3", "is_disabled": 0, "rental_uris": {"ios": "https://dc.lft.to/lastmile_qr_scan", "android": "https://dc.lft.to/lastmile_qr_scan"}, "is_reserved": 0}, {"lon": -77.08337583333333, "bike_id": "df819332766d9df78da0f6bd195c11d7", "lat": 38.85439183333333, "fusion_lon": 0.0, "fusion_lat": 0.0, "type": "electric_bike", "name": "df819332766d9df78da0f6bd195c11d7", "is_disabled": 0, "rental_uris": {"ios": "https://dc.lft.to/lastmile_qr_scan", "android": "https://dc.lft.to/lastmile_qr_scan"}, "is_reserved": 0}, {"lon": -77.04174066666667, "bike_id": "7e439e093536b7e4fb09900c51e31f14", "lat": 38.913929, "fusion_lon": 0.0, "fusion_lat": 0.0, "type": "electric_scooter", "name": "7e439e093536b7e4fb09900c51e31f14", "is_disabled": 0, "rental_uris": {"ios": "https://dc.lft.to/lastmile_qr_scan", "android": "https://dc.lft.to/lastmile_qr_scan"}, "is_reserved": 0}, {"lon": -76.97829766666666, "bike_id": "017743f5861761547cd2287abb07b58e", "lat": 38.8436705, "fusion_lon": 0.0, "fusion_lat": 0.0, "type": "electric_bike", "name": "017743f5861761547cd2287abb07b58e", "is_disabled": 0, "rental_uris": {"ios": "https://dc.lft.to/lastmile_qr_scan", "android": "https://dc.lft.to/lastmile_qr_scan"}, "is_reserved": 0}, {"lon": -77.03867933333333, "bike_id": "4ebe015bbc6e6f816b893ffd50d029bb", "lat": 38.91263033333333, "fusion_lon": 0.0, "fusion_lat": 0.0, "type": "electric_scooter", "name": "4ebe015bbc6e6f816b893ffd50d029bb", "is_disabled": 0, "rental_uris": {"ios": "https://dc.lft.to/lastmile_qr_scan", "android": "https://dc.lft.to/lastmile_qr_scan"}, "is_reserved": 0}, {"lon": -77.022882, "bike_id": "5036e9a3506451d49d4947afac9e19e3", "lat": 38.908779333333335, "fusion_lon": 0.0, "fusion_lat": 0.0, "type": "electric_scooter", "name": "5036e9a3506451d49d4947afac9e19e3", "is_disabled": 0, "rental_uris": {"ios": "https://dc.lft.to/lastmile_qr_scan", "android": "https://dc.lft.to/lastmile_qr_scan"}, "is_reserved": 0}, {"lon": -77.0172565, "bike_id": "1f2750b0877f55d036cc0542af0f9fe3", "lat": 38.90560133333334, "fusion_lon": 0.0, "fusion_lat": 0.0, "type": "electric_scooter", "name": "1f2750b0877f55d036cc0542af0f9fe3", "is_disabled": 0, "rental_uris": {"ios": "https://dc.lft.to/lastmile_qr_scan", "android": "https://dc.lft.to/lastmile_qr_scan"}, "is_reserved": 0}, {"lon": -77.03588316666666, "bike_id": "2e4b36e112079465a235eaa9a3d7ddde", "lat": 38.992263666666666, "fusion_lon": 0.0, "fusion_lat": 0.0, "type": "electric_scooter", "name": "2e4b36e112079465a235eaa9a3d7ddde", "is_disabled": 0, "rental_uris": {"ios": "https://dc.lft.to/lastmile_qr_scan", "android": "https://dc.lft.to/lastmile_qr_scan"}, "is_reserved": 0}, {"lon": -77.03525766666667, "bike_id": "3a7c171a32d4151b98a6553e0f55915f", "lat": 38.927292333333334, "fusion_lon": 0.0, "fusion_lat": 0.0, "type": "electric_scooter", "name": "3a7c171a32d4151b98a6553e0f55915f", "is_disabled": 0, "rental_uris": {"ios": "https://dc.lft.to/lastmile_qr_scan", "android": "https://dc.lft.to/lastmile_qr_scan"}, "is_reserved": 0}, {"lon": -77.0251285, "bike_id": "07c7a06d34ae0dedfa2b629d9a13489d", "lat": 38.90426183333334, "fusion_lon": 0.0, "fusion_lat": 0.0, "type": "electric_scooter", "name": "07c7a06d34ae0dedfa2b629d9a13489d", "is_disabled": 0, "rental_uris": {"ios": "https://dc.lft.to/lastmile_qr_scan", "android": "https://dc.lft.to/lastmile_qr_scan"}, "is_reserved": 0}, {"lon": -77.0094245, "bike_id": "7110d2294039e8913937606391b251b1", "lat": 38.89974866666667, "fusion_lon": 0.0, "fusion_lat": 0.0, "type": "electric_scooter", "name": "7110d2294039e8913937606391b251b1", "is_disabled": 0, "rental_uris": {"ios": "https://dc.lft.to/lastmile_qr_scan", "android": "https://dc.lft.to/lastmile_qr_scan"}, "is_reserved": 0}, {"lon": -77.0328725, "bike_id": "1d1d8a0d2d1d22a61260781d826c2401", "lat": 38.927378, "fusion_lon": 0.0, "fusion_lat": 0.0, "type": "electric_scooter", "name": "1d1d8a0d2d1d22a61260781d826c2401", "is_disabled": 0, "rental_uris": {"ios": "https://dc.lft.to/lastmile_qr_scan", "android": "https://dc.lft.to/lastmile_qr_scan"}, "is_reserved": 0}, {"lon": -77.000658, "bike_id": "ab761dfc2097f10fee067ccfa20ebaab", "lat": 38.89994316666667, "fusion_lon": 0.0, "fusion_lat": 0.0, "type": "electric_scooter", "name": "ab761dfc2097f10fee067ccfa20ebaab", "is_disabled": 0, "rental_uris": {"ios": "https://dc.lft.to/lastmile_qr_scan", "android": "https://dc.lft.to/lastmile_qr_scan"}, "is_reserved": 0}, {"lon": -77.02504816666666, "bike_id": "e1e9991504f580a68e467544921ba0ad", "lat": 38.905532666666666, "fusion_lon": 0.0, "fusion_lat": 0.0, "type": "electric_scooter", "name": "e1e9991504f580a68e467544921ba0ad", "is_disabled": 0, "rental_uris": {"ios": "https://dc.lft.to/lastmile_qr_scan", "android": "https://dc.lft.to/lastmile_qr_scan"}, "is_reserved": 0}, {"lon": -77.01843666666667, "bike_id": "32599ba20173b50779e798c7a904ebd7", "lat": 38.91266016666667, "fusion_lon": 0.0, "fusion_lat": 0.0, "type": "electric_scooter", "name": "32599ba20173b50779e798c7a904ebd7", "is_disabled": 0, "rental_uris": {"ios": "https://dc.lft.to/lastmile_qr_scan", "android": "https://dc.lft.to/lastmile_qr_scan"}, "is_reserved": 0}, {"lon": -77.01101416666667, "bike_id": "55dd33d31dea57c08d34066a664cb201", "lat": 38.903659166666664, "fusion_lon": 0.0, "fusion_lat": 0.0, "type": "electric_scooter", "name": "55dd33d31dea57c08d34066a664cb201", "is_disabled": 0, "rental_uris": {"ios": "https://dc.lft.to/lastmile_qr_scan", "android": "https://dc.lft.to/lastmile_qr_scan"}, "is_reserved": 0}, {"lon": -77.04865333333333, "bike_id": "5f9436bc86c95882e6019719ad2df3f2", "lat": 38.916197, "fusion_lon": 0.0, "fusion_lat": 0.0, "type": "electric_scooter", "name": "5f9436bc86c95882e6019719ad2df3f2", "is_disabled": 0, "rental_uris": {"ios": "https://dc.lft.to/lastmile_qr_scan", "android": "https://dc.lft.to/lastmile_qr_scan"}, "is_reserved": 0}, {"lon": -77.04384383333333, "bike_id": "e1905fef6b1971f84971c7f5ede9484e", "lat": 38.9187265, "fusion_lon": 0.0, "fusion_lat": 0.0, "type": "electric_scooter", "name": "e1905fef6b1971f84971c7f5ede9484e", "is_disabled": 0, "rental_uris": {"ios": "https://dc.lft.to/lastmile_qr_scan", "android": "https://dc.lft.to/lastmile_qr_scan"}, "is_reserved": 0}, {"lon": -77.03192116666666, "bike_id": "1bc5c50dcbd4511198a94719db3bf8b1", "lat": 38.9174, "fusion_lon": 0.0, "fusion_lat": 0.0, "type": "electric_scooter", "name": "1bc5c50dcbd4511198a94719db3bf8b1", "is_disabled": 0, "rental_uris": {"ios": "https://dc.lft.to/lastmile_qr_scan", "android": "https://dc.lft.to/lastmile_qr_scan"}, "is_reserved": 0}, {"lon": -76.98844483333333, "bike_id": "49be50613dff64f421ecea778a066525", "lat": 38.88530883333333, "fusion_lon": 0.0, "fusion_lat": 0.0, "type": "electric_bike", "name": "49be50613dff64f421ecea778a066525", "is_disabled": 0, "rental_uris": {"ios": "https://dc.lft.to/lastmile_qr_scan", "android": "https://dc.lft.to/lastmile_qr_scan"}, "is_reserved": 0}, {"lon": -77.040962, "bike_id": "d3318b7589e0fc6586fcfc9199038a93", "lat": 38.9172165, "fusion_lon": 0.0, "fusion_lat": 0.0, "type": "electric_scooter", "name": "d3318b7589e0fc6586fcfc9199038a93", "is_disabled": 0, "rental_uris": {"ios": "https://dc.lft.to/lastmile_qr_scan", "android": "https://dc.lft.to/lastmile_qr_scan"}, "is_reserved": 0}, {"lon": -77.02769833333333, "bike_id": "7a75a1394f5654ce11a8abf3f0924fa7", "lat": 38.954235, "fusion_lon": 0.0, "fusion_lat": 0.0, "type": "electric_scooter", "name": "7a75a1394f5654ce11a8abf3f0924fa7", "is_disabled": 0, "rental_uris": {"ios": "https://dc.lft.to/lastmile_qr_scan", "android": "https://dc.lft.to/lastmile_qr_scan"}, "is_reserved": 0}, {"lon": -77.000708, "bike_id": "9bb6e4d59542f7c43113d31e8191d58b", "lat": 38.873762166666666, "fusion_lon": 0.0, "fusion_lat": 0.0, "type": "electric_scooter", "name": "9bb6e4d59542f7c43113d31e8191d58b", "is_disabled": 0, "rental_uris": {"ios": "https://dc.lft.to/lastmile_qr_scan", "android": "https://dc.lft.to/lastmile_qr_scan"}, "is_reserved": 0}, {"lon": -77.048195, "bike_id": "1a880f6e4baa25b2f75e1b8b480dc8be", "lat": 38.911119166666666, "fusion_lon": 0.0, "fusion_lat": 0.0, "type": "electric_scooter", "name": "1a880f6e4baa25b2f75e1b8b480dc8be", "is_disabled": 0, "rental_uris": {"ios": "https://dc.lft.to/lastmile_qr_scan", "android": "https://dc.lft.to/lastmile_qr_scan"}, "is_reserved": 0}, {"lon": -77.04475916666667, "bike_id": "5696370638632600cb35740cf58d2f24", "lat": 38.923944166666665, "fusion_lon": 0.0, "fusion_lat": 0.0, "type": "electric_scooter", "name": "5696370638632600cb35740cf58d2f24", "is_disabled": 0, "rental_uris": {"ios": "https://dc.lft.to/lastmile_qr_scan", "android": "https://dc.lft.to/lastmile_qr_scan"}, "is_reserved": 0}, {"lon": -77.03993866666667, "bike_id": "d2710404837d2f4a7c2edf69ac3a9bbf", "lat": 38.9333675, "fusion_lon": 0.0, "fusion_lat": 0.0, "type": "electric_scooter", "name": "d2710404837d2f4a7c2edf69ac3a9bbf", "is_disabled": 0, "rental_uris": {"ios": "https://dc.lft.to/lastmile_qr_scan", "android": "https://dc.lft.to/lastmile_qr_scan"}, "is_reserved": 0}, {"lon": -76.98529066666667, "bike_id": "29962426dec9799273ad251e54baadfa", "lat": 38.86683383333333, "fusion_lon": 0.0, "fusion_lat": 0.0, "type": "electric_scooter", "name": "29962426dec9799273ad251e54baadfa", "is_disabled": 0, "rental_uris": {"ios": "https://dc.lft.to/lastmile_qr_scan", "android": "https://dc.lft.to/lastmile_qr_scan"}, "is_reserved": 0}, {"lon": -77.03285966666667, "bike_id": "7a401d3ec6d6f9587746264c89e166bf", "lat": 38.928858166666664, "fusion_lon": 0.0, "fusion_lat": 0.0, "type": "electric_scooter", "name": "7a401d3ec6d6f9587746264c89e166bf", "is_disabled": 0, "rental_uris": {"ios": "https://dc.lft.to/lastmile_qr_scan", "android": "https://dc.lft.to/lastmile_qr_scan"}, "is_reserved": 0}, {"lon": -77.04869283333333, "bike_id": "e57646dae476da30acb86241a216fb62", "lat": 38.892217, "fusion_lon": 0.0, "fusion_lat": 0.0, "type": "electric_scooter", "name": "e57646dae476da30acb86241a216fb62", "is_disabled": 0, "rental_uris": {"ios": "https://dc.lft.to/lastmile_qr_scan", "android": "https://dc.lft.to/lastmile_qr_scan"}, "is_reserved": 0}, {"lon": -77.0229385, "bike_id": "275243ed2957055e37658e08e43ebb81", "lat": 38.9222855, "fusion_lon": 0.0, "fusion_lat": 0.0, "type": "electric_scooter", "name": "275243ed2957055e37658e08e43ebb81", "is_disabled": 0, "rental_uris": {"ios": "https://dc.lft.to/lastmile_qr_scan", "android": "https://dc.lft.to/lastmile_qr_scan"}, "is_reserved": 0}, {"lon": -77.0697845, "bike_id": "49acb13b1748cc042e9bb7a068ab903f", "lat": 38.95517433333333, "fusion_lon": 0.0, "fusion_lat": 0.0, "type": "electric_scooter", "name": "49acb13b1748cc042e9bb7a068ab903f", "is_disabled": 0, "rental_uris": {"ios": "https://dc.lft.to/lastmile_qr_scan", "android": "https://dc.lft.to/lastmile_qr_scan"}, "is_reserved": 0}, {"lon": -76.9799925, "bike_id": "076571b24b490283361ca11b787a30b9", "lat": 38.900916333333335, "fusion_lon": 0.0, "fusion_lat": 0.0, "type": "electric_scooter", "name": "076571b24b490283361ca11b787a30b9", "is_disabled": 0, "rental_uris": {"ios": "https://dc.lft.to/lastmile_qr_scan", "android": "https://dc.lft.to/lastmile_qr_scan"}, "is_reserved": 0}, {"lon": -77.00559916666667, "bike_id": "201ef19cc61fc1ca82465846ec80469c", "lat": 38.8746925, "fusion_lon": 0.0, "fusion_lat": 0.0, "type": "electric_scooter", "name": "201ef19cc61fc1ca82465846ec80469c", "is_disabled": 0, "rental_uris": {"ios": "https://dc.lft.to/lastmile_qr_scan", "android": "https://dc.lft.to/lastmile_qr_scan"}, "is_reserved": 0}, {"lon": -76.90741116666666, "bike_id": "222cb48c491f45b3415b77e2ca4d082d", "lat": 38.896150666666664, "fusion_lon": 0.0, "fusion_lat": 0.0, "type": "electric_bike", "name": "222cb48c491f45b3415b77e2ca4d082d", "is_disabled": 0, "rental_uris": {"ios": "https://dc.lft.to/lastmile_qr_scan", "android": "https://dc.lft.to/lastmile_qr_scan"}, "is_reserved": 0}, {"lon": -76.9976025, "bike_id": "768f0b1fc42bbc790fa8f58ed0a22a56", "lat": 38.900295, "fusion_lon": 0.0, "fusion_lat": 0.0, "type": "electric_scooter", "name": "768f0b1fc42bbc790fa8f58ed0a22a56", "is_disabled": 0, "rental_uris": {"ios": "https://dc.lft.to/lastmile_qr_scan", "android": "https://dc.lft.to/lastmile_qr_scan"}, "is_reserved": 0}, {"lon": -77.038132, "bike_id": "38b7700be4022efc3470cf7e0c0c77dc", "lat": 38.92064366666666, "fusion_lon": 0.0, "fusion_lat": 0.0, "type": "electric_scooter", "name": "38b7700be4022efc3470cf7e0c0c77dc", "is_disabled": 0, "rental_uris": {"ios": "https://dc.lft.to/lastmile_qr_scan", "android": "https://dc.lft.to/lastmile_qr_scan"}, "is_reserved": 0}, {"lon": -77.00677333333333, "bike_id": "b46df7a73c4098ee7f29a8ab626f68e8", "lat": 38.94516566666667, "fusion_lon": 0.0, "fusion_lat": 0.0, "type": "electric_bike", "name": "b46df7a73c4098ee7f29a8ab626f68e8", "is_disabled": 0, "rental_uris": {"ios": "https://dc.lft.to/lastmile_qr_scan", "android": "https://dc.lft.to/lastmile_qr_scan"}, "is_reserved": 0}, {"lon": -77.04159216666666, "bike_id": "11d8298b46eb667d0acfe0be228e1880", "lat": 38.91924, "fusion_lon": 0.0, "fusion_lat": 0.0, "type": "electric_scooter", "name": "11d8298b46eb667d0acfe0be228e1880", "is_disabled": 0, "rental_uris": {"ios": "https://dc.lft.to/lastmile_qr_scan", "android": "https://dc.lft.to/lastmile_qr_scan"}, "is_reserved": 0}, {"lon": -77.01765383333333, "bike_id": "1327db1208fbb209f75fe8978a075e13", "lat": 38.885992, "fusion_lon": 0.0, "fusion_lat": 0.0, "type": "electric_scooter", "name": "1327db1208fbb209f75fe8978a075e13", "is_disabled": 0, "rental_uris": {"ios": "https://dc.lft.to/lastmile_qr_scan", "android": "https://dc.lft.to/lastmile_qr_scan"}, "is_reserved": 0}, {"lon": -77.04299466666667, "bike_id": "41d16ad9afc6189d270b0c584a04859d", "lat": 38.908596, "fusion_lon": 0.0, "fusion_lat": 0.0, "type": "electric_scooter", "name": "41d16ad9afc6189d270b0c584a04859d", "is_disabled": 0, "rental_uris": {"ios": "https://dc.lft.to/lastmile_qr_scan", "android": "https://dc.lft.to/lastmile_qr_scan"}, "is_reserved": 0}, {"lon": -77.03206, "bike_id": "1fcb72ed9b862e6fcdaf6fb5e2c881b8", "lat": 38.89857933333333, "fusion_lon": 0.0, "fusion_lat": 0.0, "type": "electric_scooter", "name": "1fcb72ed9b862e6fcdaf6fb5e2c881b8", "is_disabled": 0, "rental_uris": {"ios": "https://dc.lft.to/lastmile_qr_scan", "android": "https://dc.lft.to/lastmile_qr_scan"}, "is_reserved": 0}, {"lon": -77.04232083333333, "bike_id": "49ad6ac5af12c0e7158c54200082bf3c", "lat": 38.92127133333334, "fusion_lon": 0.0, "fusion_lat": 0.0, "type": "electric_scooter", "name": "49ad6ac5af12c0e7158c54200082bf3c", "is_disabled": 0, "rental_uris": {"ios": "https://dc.lft.to/lastmile_qr_scan", "android": "https://dc.lft.to/lastmile_qr_scan"}, "is_reserved": 0}, {"lon": -77.04600616666667, "bike_id": "2057dcb9316782e38bf8984da85954f4", "lat": 38.91667316666667, "fusion_lon": 0.0, "fusion_lat": 0.0, "type": "electric_scooter", "name": "2057dcb9316782e38bf8984da85954f4", "is_disabled": 0, "rental_uris": {"ios": "https://dc.lft.to/lastmile_qr_scan", "android": "https://dc.lft.to/lastmile_qr_scan"}, "is_reserved": 0}, {"lon": -77.02089733333334, "bike_id": "698ae6f217f9e827361ed579779e9eb3", "lat": 38.929081, "fusion_lon": 0.0, "fusion_lat": 0.0, "type": "electric_scooter", "name": "698ae6f217f9e827361ed579779e9eb3", "is_disabled": 0, "rental_uris": {"ios": "https://dc.lft.to/lastmile_qr_scan", "android": "https://dc.lft.to/lastmile_qr_scan"}, "is_reserved": 0}, {"lon": -77.05040116666666, "bike_id": "5aab65a77bc78eea4dbfeb3698644d75", "lat": 38.923572, "fusion_lon": 0.0, "fusion_lat": 0.0, "type": "electric_scooter", "name": "5aab65a77bc78eea4dbfeb3698644d75", "is_disabled": 0, "rental_uris": {"ios": "https://dc.lft.to/lastmile_qr_scan", "android": "https://dc.lft.to/lastmile_qr_scan"}, "is_reserved": 0}, {"lon": -77.03852983333333, "bike_id": "016169bb26f6bacb529f47da807ef810", "lat": 38.93236983333333, "fusion_lon": 0.0, "fusion_lat": 0.0, "type": "electric_scooter", "name": "016169bb26f6bacb529f47da807ef810", "is_disabled": 0, "rental_uris": {"ios": "https://dc.lft.to/lastmile_qr_scan", "android": "https://dc.lft.to/lastmile_qr_scan"}, "is_reserved": 0}, {"lon": -76.97862533333333, "bike_id": "fee0f73f5558f7632c789faeeb26883d", "lat": 38.90719883333333, "fusion_lon": 0.0, "fusion_lat": 0.0, "type": "electric_scooter", "name": "fee0f73f5558f7632c789faeeb26883d", "is_disabled": 0, "rental_uris": {"ios": "https://dc.lft.to/lastmile_qr_scan", "android": "https://dc.lft.to/lastmile_qr_scan"}, "is_reserved": 0}, {"lon": -77.03863033333333, "bike_id": "3a230276ee6bd56d12618f89331e7a1c", "lat": 38.911746666666666, "fusion_lon": 0.0, "fusion_lat": 0.0, "type": "electric_scooter", "name": "3a230276ee6bd56d12618f89331e7a1c", "is_disabled": 0, "rental_uris": {"ios": "https://dc.lft.to/lastmile_qr_scan", "android": "https://dc.lft.to/lastmile_qr_scan"}, "is_reserved": 0}, {"lon": -76.949935, "bike_id": "e8d3ff0dc122a3ea6108fe4a53c54c42", "lat": 38.89380933333333, "fusion_lon": 0.0, "fusion_lat": 0.0, "type": "electric_scooter", "name": "e8d3ff0dc122a3ea6108fe4a53c54c42", "is_disabled": 0, "rental_uris": {"ios": "https://dc.lft.to/lastmile_qr_scan", "android": "https://dc.lft.to/lastmile_qr_scan"}, "is_reserved": 0}, {"lon": -77.03261866666666, "bike_id": "e41f13f38a15b7d4c5437cdf7e6eace6", "lat": 38.9377365, "fusion_lon": 0.0, "fusion_lat": 0.0, "type": "electric_scooter", "name": "e41f13f38a15b7d4c5437cdf7e6eace6", "is_disabled": 0, "rental_uris": {"ios": "https://dc.lft.to/lastmile_qr_scan", "android": "https://dc.lft.to/lastmile_qr_scan"}, "is_reserved": 0}, {"lon": -77.03282583333333, "bike_id": "7509bd83f237d8918dbcfc25130eda9f", "lat": 38.92887783333333, "fusion_lon": 0.0, "fusion_lat": 0.0, "type": "electric_scooter", "name": "7509bd83f237d8918dbcfc25130eda9f", "is_disabled": 0, "rental_uris": {"ios": "https://dc.lft.to/lastmile_qr_scan", "android": "https://dc.lft.to/lastmile_qr_scan"}, "is_reserved": 0}, {"lon": -77.01575366666667, "bike_id": "94d236c0d25eefad09c6678779b375ba", "lat": 38.88301216666667, "fusion_lon": 0.0, "fusion_lat": 0.0, "type": "electric_scooter", "name": "94d236c0d25eefad09c6678779b375ba", "is_disabled": 0, "rental_uris": {"ios": "https://dc.lft.to/lastmile_qr_scan", "android": "https://dc.lft.to/lastmile_qr_scan"}, "is_reserved": 0}, {"lon": -76.9960235, "bike_id": "eeb043a30da5d53a87c7eee2cc1a98e9", "lat": 38.950702666666665, "fusion_lon": 0.0, "fusion_lat": 0.0, "type": "electric_bike", "name": "eeb043a30da5d53a87c7eee2cc1a98e9", "is_disabled": 0, "rental_uris": {"ios": "https://dc.lft.to/lastmile_qr_scan", "android": "https://dc.lft.to/lastmile_qr_scan"}, "is_reserved": 0}, {"lon": -77.03264983333334, "bike_id": "dc64468e4e66335902217b4742368085", "lat": 38.93130766666667, "fusion_lon": 0.0, "fusion_lat": 0.0, "type": "electric_scooter", "name": "dc64468e4e66335902217b4742368085", "is_disabled": 0, "rental_uris": {"ios": "https://dc.lft.to/lastmile_qr_scan", "android": "https://dc.lft.to/lastmile_qr_scan"}, "is_reserved": 0}, {"lon": -76.97560483333334, "bike_id": "eb03b8de2ba316c76b46bd9145abc878", "lat": 38.924548, "fusion_lon": 0.0, "fusion_lat": 0.0, "type": "electric_bike", "name": "eb03b8de2ba316c76b46bd9145abc878", "is_disabled": 0, "rental_uris": {"ios": "https://dc.lft.to/lastmile_qr_scan", "android": "https://dc.lft.to/lastmile_qr_scan"}, "is_reserved": 0}, {"lon": -77.04320583333333, "bike_id": "d56da352ebbb068a0916192a5a935a3e", "lat": 38.8919705, "fusion_lon": 0.0, "fusion_lat": 0.0, "type": "electric_scooter", "name": "d56da352ebbb068a0916192a5a935a3e", "is_disabled": 0, "rental_uris": {"ios": "https://dc.lft.to/lastmile_qr_scan", "android": "https://dc.lft.to/lastmile_qr_scan"}, "is_reserved": 0}, {"lon": -77.02149733333333, "bike_id": "e96f660e30cca8e56a31d4cf029a0d6e", "lat": 38.915536, "fusion_lon": 0.0, "fusion_lat": 0.0, "type": "electric_scooter", "name": "e96f660e30cca8e56a31d4cf029a0d6e", "is_disabled": 0, "rental_uris": {"ios": "https://dc.lft.to/lastmile_qr_scan", "android": "https://dc.lft.to/lastmile_qr_scan"}, "is_reserved": 0}, {"lon": -76.98525716666667, "bike_id": "da44c7c2153690bf306575995e1bf536", "lat": 38.866796, "fusion_lon": 0.0, "fusion_lat": 0.0, "type": "electric_scooter", "name": "da44c7c2153690bf306575995e1bf536", "is_disabled": 0, "rental_uris": {"ios": "https://dc.lft.to/lastmile_qr_scan", "android": "https://dc.lft.to/lastmile_qr_scan"}, "is_reserved": 0}, {"lon": -76.973038, "bike_id": "6397ba0319f70c7360d1d56e8e6e6f1a", "lat": 38.916471666666666, "fusion_lon": 0.0, "fusion_lat": 0.0, "type": "electric_bike", "name": "6397ba0319f70c7360d1d56e8e6e6f1a", "is_disabled": 0, "rental_uris": {"ios": "https://dc.lft.to/lastmile_qr_scan", "android": "https://dc.lft.to/lastmile_qr_scan"}, "is_reserved": 0}, {"lon": -77.0435775, "bike_id": "5718911ca8281de894e1eeb6b2548795", "lat": 38.911206666666665, "fusion_lon": 0.0, "fusion_lat": 0.0, "type": "electric_scooter", "name": "5718911ca8281de894e1eeb6b2548795", "is_disabled": 0, "rental_uris": {"ios": "https://dc.lft.to/lastmile_qr_scan", "android": "https://dc.lft.to/lastmile_qr_scan"}, "is_reserved": 0}, {"lon": -77.02652766666667, "bike_id": "b345dcca5246db8d606a61e88377889a", "lat": 38.89747416666667, "fusion_lon": 0.0, "fusion_lat": 0.0, "type": "electric_scooter", "name": "b345dcca5246db8d606a61e88377889a", "is_disabled": 0, "rental_uris": {"ios": "https://dc.lft.to/lastmile_qr_scan", "android": "https://dc.lft.to/lastmile_qr_scan"}, "is_reserved": 0}, {"lon": -77.23332883333333, "bike_id": "37a1ad771c43692b650b509e4f60be1c", "lat": 38.87272316666667, "fusion_lon": 0.0, "fusion_lat": 0.0, "type": "electric_bike", "name": "37a1ad771c43692b650b509e4f60be1c", "is_disabled": 0, "rental_uris": {"ios": "https://dc.lft.to/lastmile_qr_scan", "android": "https://dc.lft.to/lastmile_qr_scan"}, "is_reserved": 0}, {"lon": -76.965424, "bike_id": "85f7e65d628363b3c808414ff09c97a9", "lat": 38.918367833333335, "fusion_lon": 0.0, "fusion_lat": 0.0, "type": "electric_scooter", "name": "85f7e65d628363b3c808414ff09c97a9", "is_disabled": 0, "rental_uris": {"ios": "https://dc.lft.to/lastmile_qr_scan", "android": "https://dc.lft.to/lastmile_qr_scan"}, "is_reserved": 0}, {"lon": -76.99454333333334, "bike_id": "6aef545f9ce373cbfc80e537abe6a1b1", "lat": 38.8627825, "fusion_lon": 0.0, "fusion_lat": 0.0, "type": "electric_scooter", "name": "6aef545f9ce373cbfc80e537abe6a1b1", "is_disabled": 0, "rental_uris": {"ios": "https://dc.lft.to/lastmile_qr_scan", "android": "https://dc.lft.to/lastmile_qr_scan"}, "is_reserved": 0}, {"lon": -77.02700116666666, "bike_id": "ab895ffed3f4b6ca9e328acfa01251c0", "lat": 38.90840583333333, "fusion_lon": 0.0, "fusion_lat": 0.0, "type": "electric_scooter", "name": "ab895ffed3f4b6ca9e328acfa01251c0", "is_disabled": 0, "rental_uris": {"ios": "https://dc.lft.to/lastmile_qr_scan", "android": "https://dc.lft.to/lastmile_qr_scan"}, "is_reserved": 0}, {"lon": -76.94996633333334, "bike_id": "69d9dc52f309a9eb3ece30769a731246", "lat": 38.89383383333333, "fusion_lon": 0.0, "fusion_lat": 0.0, "type": "electric_scooter", "name": "69d9dc52f309a9eb3ece30769a731246", "is_disabled": 0, "rental_uris": {"ios": "https://dc.lft.to/lastmile_qr_scan", "android": "https://dc.lft.to/lastmile_qr_scan"}, "is_reserved": 0}, {"lon": -76.98884333333334, "bike_id": "fd19e1e7a619417bc8dfe5f11a384d55", "lat": 38.86659916666667, "fusion_lon": 0.0, "fusion_lat": 0.0, "type": "electric_scooter", "name": "fd19e1e7a619417bc8dfe5f11a384d55", "is_disabled": 0, "rental_uris": {"ios": "https://dc.lft.to/lastmile_qr_scan", "android": "https://dc.lft.to/lastmile_qr_scan"}, "is_reserved": 0}, {"lon": -77.02799166666667, "bike_id": "8c7e3a6146049d93d13c82c46ac9bc63", "lat": 38.92959583333333, "fusion_lon": 0.0, "fusion_lat": 0.0, "type": "electric_scooter", "name": "8c7e3a6146049d93d13c82c46ac9bc63", "is_disabled": 0, "rental_uris": {"ios": "https://dc.lft.to/lastmile_qr_scan", "android": "https://dc.lft.to/lastmile_qr_scan"}, "is_reserved": 0}, {"lon": -77.00102733333334, "bike_id": "e6e129623b2a4a86b6535afd54f5bd3f", "lat": 38.91240333333333, "fusion_lon": 0.0, "fusion_lat": 0.0, "type": "electric_scooter", "name": "e6e129623b2a4a86b6535afd54f5bd3f", "is_disabled": 0, "rental_uris": {"ios": "https://dc.lft.to/lastmile_qr_scan", "android": "https://dc.lft.to/lastmile_qr_scan"}, "is_reserved": 0}, {"lon": -77.0397925, "bike_id": "e6d8e5e96d6b4a45f1b9d343657c3d0f", "lat": 38.927948, "fusion_lon": 0.0, "fusion_lat": 0.0, "type": "electric_scooter", "name": "e6d8e5e96d6b4a45f1b9d343657c3d0f", "is_disabled": 0, "rental_uris": {"ios": "https://dc.lft.to/lastmile_qr_scan", "android": "https://dc.lft.to/lastmile_qr_scan"}, "is_reserved": 0}, {"lon": -77.0316025, "bike_id": "c2345ff12a1278e2c6ab8142a7e031fb", "lat": 38.916938333333334, "fusion_lon": 0.0, "fusion_lat": 0.0, "type": "electric_scooter", "name": "c2345ff12a1278e2c6ab8142a7e031fb", "is_disabled": 0, "rental_uris": {"ios": "https://dc.lft.to/lastmile_qr_scan", "android": "https://dc.lft.to/lastmile_qr_scan"}, "is_reserved": 0}, {"lon": -77.0029365, "bike_id": "d2ce604771ff97d23cd3060eaf896643", "lat": 38.90124333333333, "fusion_lon": 0.0, "fusion_lat": 0.0, "type": "electric_scooter", "name": "d2ce604771ff97d23cd3060eaf896643", "is_disabled": 0, "rental_uris": {"ios": "https://dc.lft.to/lastmile_qr_scan", "android": "https://dc.lft.to/lastmile_qr_scan"}, "is_reserved": 0}, {"lon": -76.987205, "bike_id": "8393d9d1d2a75eb5a6f7eb943766b231", "lat": 38.86621616666667, "fusion_lon": 0.0, "fusion_lat": 0.0, "type": "electric_scooter", "name": "8393d9d1d2a75eb5a6f7eb943766b231", "is_disabled": 0, "rental_uris": {"ios": "https://dc.lft.to/lastmile_qr_scan", "android": "https://dc.lft.to/lastmile_qr_scan"}, "is_reserved": 0}, {"lon": -77.0581095, "bike_id": "1ae664662cb1f144196be04888a99faf", "lat": 38.823898166666666, "fusion_lon": 0.0, "fusion_lat": 0.0, "type": "electric_bike", "name": "1ae664662cb1f144196be04888a99faf", "is_disabled": 0, "rental_uris": {"ios": "https://dc.lft.to/lastmile_qr_scan", "android": "https://dc.lft.to/lastmile_qr_scan"}, "is_reserved": 0}, {"lon": -77.02861633333333, "bike_id": "e44997e4f4032507a886b83a66d0bdc3", "lat": 38.9332075, "fusion_lon": 0.0, "fusion_lat": 0.0, "type": "electric_scooter", "name": "e44997e4f4032507a886b83a66d0bdc3", "is_disabled": 0, "rental_uris": {"ios": "https://dc.lft.to/lastmile_qr_scan", "android": "https://dc.lft.to/lastmile_qr_scan"}, "is_reserved": 0}, {"lon": -77.032256, "bike_id": "1e6bf47d6424a82448f7d27e0ce92b7e", "lat": 38.914025333333335, "fusion_lon": 0.0, "fusion_lat": 0.0, "type": "electric_scooter", "name": "1e6bf47d6424a82448f7d27e0ce92b7e", "is_disabled": 0, "rental_uris": {"ios": "https://dc.lft.to/lastmile_qr_scan", "android": "https://dc.lft.to/lastmile_qr_scan"}, "is_reserved": 0}, {"lon": -76.949231, "bike_id": "93a7e353078d38ad3831a6edb180f842", "lat": 38.893526, "fusion_lon": 0.0, "fusion_lat": 0.0, "type": "electric_scooter", "name": "93a7e353078d38ad3831a6edb180f842", "is_disabled": 0, "rental_uris": {"ios": "https://dc.lft.to/lastmile_qr_scan", "android": "https://dc.lft.to/lastmile_qr_scan"}, "is_reserved": 0}, {"lon": -77.02012066666667, "bike_id": "71ccf47bc6b6e6c1d539d471a5f7ede5", "lat": 38.924095, "fusion_lon": 0.0, "fusion_lat": 0.0, "type": "electric_scooter", "name": "71ccf47bc6b6e6c1d539d471a5f7ede5", "is_disabled": 0, "rental_uris": {"ios": "https://dc.lft.to/lastmile_qr_scan", "android": "https://dc.lft.to/lastmile_qr_scan"}, "is_reserved": 0},