{"data": {"bikes": [{"name": "21f1dfb5c959ba8ef3a5fa8dc2828e97", "type": "electric_scooter", "lat": 38.899002333333335, "is_reserved": 0, "lon": -77.0330155, "fusion_lon": 0.0, "is_disabled": 0, "fusion_lat": 0.0, "bike_id": "21f1dfb5c959ba8ef3a5fa8dc2828e97", "rental_uris": {"ios": "https://dc.lft.to/lastmile_qr_scan", "android": "https://dc.lft.to/lastmile_qr_scan"}}, {"name": "372309e27111a837a2d6b6eb0fb0bad7", "type": "electric_scooter", "lat": 38.91660783333333, "is_reserved": 0, "lon": -77.02394916666667, "fusion_lon": 0.0, "is_disabled": 0, "fusion_lat": 0.0, "bike_id": "372309e27111a837a2d6b6eb0fb0bad7", "rental_uris": {"ios": "https://dc.lft.to/lastmile_qr_scan", "android": "https://dc.lft.to/lastmile_qr_scan"}}, {"name": "4b26b3391cceb1af81d799d6bc89aeb3", "type": "electric_scooter", "lat": 38.87834866666667, "is_reserved": 0, "lon": -77.000487, "fusion_lon": 0.0, "is_disabled": 0, "fusion_lat": 0.0, "bike_id": "4b26b3391cceb1af81d799d6bc89aeb3", "rental_uris": {"ios": "https://dc.lft.to/lastmile_qr_scan", "android": "https://dc.lft.to/lastmile_qr_scan"}}, {"name": "1bbaa906fb18a7766147466bce74643a", "type": "electric_scooter", "lat": 38.885126166666666, "is_reserved": 0, "lon": -77.00573833333333, "fusion_lon": 0.0, "is_disabled": 0, "fusion_lat": 0.0, "bike_id": "1bbaa906fb18a7766147466bce74643a", "rental_uris": {"ios": "https://dc.lft.to/lastmile_qr_scan", "android": "https://dc.lft.to/lastmile_qr_scan"}}, {"name": "aeabcb5003fc0d5c853380595a3ec109", "type": "electric_scooter", "lat": 38.89528166666667, "is_reserved": 0, "lon": -76.949307, "fusion_lon": 0.0, "is_disabled": 0, "fusion_lat": 0.0, "bike_id": "aeabcb5003fc0d5c853380595a3ec109", "rental_uris": {"ios": "https://dc.lft.to/lastmile_qr_scan", "android": "https://dc.lft.to/lastmile_qr_scan"}}, {"name": "154c0827a2e08067bbeb9ec356785dd6", "type": "electric_scooter", "lat": 38.91191466666667, "is_reserved": 0, "lon": -77.06096983333333, "fusion_lon": 0.0, "is_disabled": 0, "fusion_lat": 0.0, "bike_id": "154c0827a2e08067bbeb9ec356785dd6", "rental_uris": {"ios": "https://dc.lft.to/lastmile_qr_scan", "android": "https://dc.lft.to/lastmile_qr_scan"}}, {"name": "3c5b77c27ebf30687a5fbd2d5d3a32df", "type": "electric_scooter", "lat": 38.90055866666667, "is_reserved": 0, "lon": -77.0504945, "fusion_lon": 0.0, "is_disabled": 0, "fusion_lat": 0.0, "bike_id": "3c5b77c27ebf30687a5fbd2d5d3a32df", "rental_uris": {"ios": "https://dc.lft.to/lastmile_qr_scan", "android": "https://dc.lft.to/lastmile_qr_scan"}}, {"name": "b43c0595bba0a0f68f00b0a6f10f5c0e", "type": "electric_scooter", "lat": 38.9359675, "is_reserved": 0, "lon": -77.03766316666666, "fusion_lon": 0.0, "is_disabled": 0, "fusion_lat": 0.0, "bike_id": "b43c0595bba0a0f68f00b0a6f10f5c0e", "rental_uris": {"ios": "https://dc.lft.to/lastmile_qr_scan", "android": "https://dc.lft.to/lastmile_qr_scan"}}, {"name": "98261ad700e01685d4581a56fd1adfcd", "type": "electric_scooter", "lat": 38.89223466666667, "is_reserved": 0, "lon": -77.04540016666667, "fusion_lon": 0.0, "is_disabled": 0, "fusion_lat": 0.0, "bike_id": "98261ad700e01685d4581a56fd1adfcd", "rental_uris": {"ios": "https://dc.lft.to/lastmile_qr_scan", "android": "https://dc.lft.to/lastmile_qr_scan"}}, {"name": "676844a679b006efcdbc9f42a71b7345", "type": "electric_scooter", "lat": 38.92906966666666, "is_reserved": 0, "lon": -77.02165683333334, "fusion_lon": 0.0, "is_disabled": 0, "fusion_lat": 0.0, "bike_id": "676844a679b006efcdbc9f42a71b7345", "rental_uris": {"ios": "https://dc.lft.to/lastmile_qr_scan", "android": "https://dc.lft.to/lastmile_qr_scan"}}, {"name": "deabf9c1dcabf04c44f9a65fa74ae8cf", "type": "electric_scooter", "lat": 38.934982166666664, "is_reserved": 0, "lon": -77.02842616666666, "fusion_lon": 0.0, "is_disabled": 0, "fusion_lat": 0.0, "bike_id": "deabf9c1dcabf04c44f9a65fa74ae8cf", "rental_uris": {"ios": "https://dc.lft.to/lastmile_qr_scan", "android": "https://dc.lft.to/lastmile_qr_scan"}}, {"name": "a541e7f93877f6787281b6233490fd46", "type": "electric_scooter", "lat": 38.935428, "is_reserved": 0, "lon": -77.03417683333333, "fusion_lon": 0.0, "is_disabled": 0, "fusion_lat": 0.0, "bike_id": "a541e7f93877f6787281b6233490fd46", "rental_uris": {"ios": "https://dc.lft.to/lastmile_qr_scan", "android": "https://dc.lft.to/lastmile_qr_scan"}}, {"name": "3d14dc38cc4c206a723fd6f71f27512d", "type": "electric_scooter", "lat": 38.90004666666667, "is_reserved": 0, "lon": -76.9870145, "fusion_lon": 0.0, "is_disabled": 0, "fusion_lat": 0.0, "bike_id": "3d14dc38cc4c206a723fd6f71f27512d", "rental_uris": {"ios": "https://dc.lft.to/lastmile_qr_scan", "android": "https://dc.lft.to/lastmile_qr_scan"}}, {"name": "a4a0333d5f9365e925427457cc5e7cca", "type": "electric_bike", "lat": 38.854258333333334, "is_reserved": 0, "lon": -76.90975316666666, "fusion_lon": 0.0, "is_disabled": 0, "fusion_lat": 0.0, "bike_id": "a4a0333d5f9365e925427457cc5e7cca", "rental_uris": {"ios": "https://dc.lft.to/lastmile_qr_scan", "android": "https://dc.lft.to/lastmile_qr_scan"}}, {"name": "51bb27a95f764df0180ecaebaa504794", "type": "electric_bike", "lat": 38.810519, "is_reserved": 0, "lon": -77.08511, "fusion_lon": 0.0, "is_disabled": 0, "fusion_lat": 0.0, "bike_id": "51bb27a95f764df0180ecaebaa504794", "rental_uris": {"ios": "https://dc.lft.to/lastmile_qr_scan", "android": "https://dc.lft.to/lastmile_qr_scan"}}, {"name": "539956c7cc687f9c8a24b93a9446cd08", "type": "electric_scooter", "lat": 38.92662216666667, "is_reserved": 0, "lon": -76.99550783333333, "fusion_lon": 0.0, "is_disabled": 0, "fusion_lat": 0.0, "bike_id": "539956c7cc687f9c8a24b93a9446cd08", "rental_uris": {"ios": "https://dc.lft.to/lastmile_qr_scan", "android": "https://dc.lft.to/lastmile_qr_scan"}}, {"name": "7bcb99eabc27714f6dbb843aa6a6e6e1", "type": "electric_scooter", "lat": 38.84423316666667, "is_reserved": 0, "lon": -76.997761, "fusion_lon": 0.0, "is_disabled": 0, "fusion_lat": 0.0, "bike_id": "7bcb99eabc27714f6dbb843aa6a6e6e1", "rental_uris": {"ios": "https://dc.lft.to/lastmile_qr_scan", "android": "https://dc.lft.to/lastmile_qr_scan"}}, {"name": "285550c06a4b4007e1089bebbddc1820", "type": "electric_bike", "lat": 39.0265185, "is_reserved": 0, "lon": -77.12518266666666, "fusion_lon": 0.0, "is_disabled": 0, "fusion_lat": 0.0, "bike_id": "285550c06a4b4007e1089bebbddc1820", "rental_uris": {"ios": "https://dc.lft.to/lastmile_qr_scan", "android": "https://dc.lft.to/lastmile_qr_scan"}}, {"name": "4730ce4d8a1a917ad9fdb6090e72eba9", "type": "electric_scooter", "lat": 38.949594166666664, "is_reserved": 0, "lon": -77.0271695, "fusion_lon": 0.0, "is_disabled": 0, "fusion_lat": 0.0, "bike_id": "4730ce4d8a1a917ad9fdb6090e72eba9", "rental_uris": {"ios": "https://dc.lft.to/lastmile_qr_scan", "android": "https://dc.lft.to/lastmile_qr_scan"}}, {"name": "c8da8d92bdf122a85a62a3c947cc3a4b", "type": "electric_scooter", "lat": 38.92732733333333, "is_reserved": 0, "lon": -77.02494616666667, "fusion_lon": 0.0, "is_disabled": 0, "fusion_lat": 0.0, "bike_id": "c8da8d92bdf122a85a62a3c947cc3a4b", "rental_uris": {"ios": "https://dc.lft.to/lastmile_qr_scan", "android": "https://dc.lft.to/lastmile_qr_scan"}}, {"name": "d0c044317962cca9629e821633bc71eb", "type": "electric_scooter", "lat": 38.922723, "is_reserved": 0, "lon": -77.03668416666666, "fusion_lon": 0.0, "is_disabled": 0, "fusion_lat": 0.0, "bike_id": "d0c044317962cca9629e821633bc71eb", "rental_uris": {"ios": "https://dc.lft.to/lastmile_qr_scan", "android": "https://dc.lft.to/lastmile_qr_scan"}}, {"name": "1f93fd8aa848b292a11eac63e3aa442f", "type": "electric_scooter", "lat": 38.905851, "is_reserved": 0, "lon": -77.03444366666666, "fusion_lon": 0.0, "is_disabled": 0, "fusion_lat": 0.0, "bike_id": "1f93fd8aa848b292a11eac63e3aa442f", "rental_uris": {"ios": "https://dc.lft.to/lastmile_qr_scan", "android": "https://dc.lft.to/lastmile_qr_scan"}}, {"name": "e40a48b988cc0e156a7720aa2890176d", "type": "electric_bike", "lat": 38.8393465, "is_reserved": 0, "lon": -77.079001, "fusion_lon": 0.0, "is_disabled": 0, "fusion_lat": 0.0, "bike_id": "e40a48b988cc0e156a7720aa2890176d", "rental_uris": {"ios": "https://dc.lft.to/lastmile_qr_scan", "android": "https://dc.lft.to/lastmile_qr_scan"}}, {"name": "4d26a433dd99b0b5526caefe4dcc33cc", "type": "electric_scooter", "lat": 38.93261183333333, "is_reserved": 0, "lon": -77.0327155, "fusion_lon": 0.0, "is_disabled": 0, "fusion_lat": 0.0, "bike_id": "4d26a433dd99b0b5526caefe4dcc33cc", "rental_uris": {"ios": "https://dc.lft.to/lastmile_qr_scan", "android": "https://dc.lft.to/lastmile_qr_scan"}}, {"name": "15865c9d99b37f2f9787d6da985f424b", "type": "electric_scooter", "lat": 38.9181875, "is_reserved": 0, "lon": -77.02313916666667, "fusion_lon": 0.0, "is_disabled": 0, "fusion_lat": 0.0, "bike_id": "15865c9d99b37f2f9787d6da985f424b", "rental_uris": {"ios": "https://dc.lft.to/lastmile_qr_scan", "android": "https://dc.lft.to/lastmile_qr_scan"}}, {"name": "af3437cebe6641126b6b27835044eb94", "type": "electric_scooter", "lat": 38.92181166666667, "is_reserved": 0, "lon": -77.04290083333333, "fusion_lon": 0.0, "is_disabled": 0, "fusion_lat": 0.0, "bike_id": "af3437cebe6641126b6b27835044eb94", "rental_uris": {"ios": "https://dc.lft.to/lastmile_qr_scan", "android": "https://dc.lft.to/lastmile_qr_scan"}}, {"name": "9eac6a08675ff3bef51c34d76eb44675", "type": "electric_scooter", "lat": 38.89605933333333, "is_reserved": 0, "lon": -77.05082433333334, "fusion_lon": 0.0, "is_disabled": 0, "fusion_lat": 0.0, "bike_id": "9eac6a08675ff3bef51c34d76eb44675", "rental_uris": {"ios": "https://dc.lft.to/lastmile_qr_scan", "android": "https://dc.lft.to/lastmile_qr_scan"}}, {"name": "5f3c3b5f862282c391a18c6d7bf573f9", "type": "electric_scooter", "lat": 38.921512, "is_reserved": 0, "lon": -77.03662883333334, "fusion_lon": 0.0, "is_disabled": 0, "fusion_lat": 0.0, "bike_id": "5f3c3b5f862282c391a18c6d7bf573f9", "rental_uris": {"ios": "https://dc.lft.to/lastmile_qr_scan", "android": "https://dc.lft.to/lastmile_qr_scan"}}, {"name": "ab3f33fe3591b816cf5dc42f533b44fd", "type": "electric_scooter", "lat": 38.89219583333333, "is_reserved": 0, "lon": -77.0463915, "fusion_lon": 0.0, "is_disabled": 0, "fusion_lat": 0.0, "bike_id": "ab3f33fe3591b816cf5dc42f533b44fd", "rental_uris": {"ios": "https://dc.lft.to/lastmile_qr_scan", "android": "https://dc.lft.to/lastmile_qr_scan"}}, {"name": "81198c3fea91d7bbfa05f8970be00eee", "type": "electric_bike", "lat": 38.82787483333333, "is_reserved": 0, "lon": -77.0090785, "fusion_lon": 0.0, "is_disabled": 0, "fusion_lat": 0.0, "bike_id": "81198c3fea91d7bbfa05f8970be00eee", "rental_uris": {"ios": "https://dc.lft.to/lastmile_qr_scan", "android": "https://dc.lft.to/lastmile_qr_scan"}}, {"name": "7a1d9205f9014e682718b44ada6421a2", "type": "electric_scooter", "lat": 38.89496183333333, "is_reserved": 0, "lon": -77.00211583333333, "fusion_lon": 0.0, "is_disabled": 0, "fusion_lat": 0.0, "bike_id": "7a1d9205f9014e682718b44ada6421a2", "rental_uris": {"ios": "https://dc.lft.to/lastmile_qr_scan", "android": "https://dc.lft.to/lastmile_qr_scan"}}, {"name": "c071e5ba0650335cb50e7616f45adf49", "type": "electric_scooter", "lat": 38.8624535, "is_reserved": 0, "lon": -76.99498183333333, "fusion_lon": 0.0, "is_disabled": 0, "fusion_lat": 0.0, "bike_id": "c071e5ba0650335cb50e7616f45adf49", "rental_uris": {"ios": "https://dc.lft.to/lastmile_qr_scan", "android": "https://dc.lft.to/lastmile_qr_scan"}}, {"name": "1f0b702b1fc485a705bd2fa92565fe18", "type": "electric_scooter", "lat": 38.89912916666667, "is_reserved": 0, "lon": -76.93355866666667, "fusion_lon": 0.0, "is_disabled": 0, "fusion_lat": 0.0, "bike_id": "1f0b702b1fc485a705bd2fa92565fe18", "rental_uris": {"ios": "https://dc.lft.to/lastmile_qr_scan", "android": "https://dc.lft.to/lastmile_qr_scan"}}, {"name": "cdb897b97d24f2e10ed5279d5e03a721", "type": "electric_bike", "lat": 38.867527, "is_reserved": 0, "lon": -76.94534766666666, "fusion_lon": 0.0, "is_disabled": 0, "fusion_lat": 0.0, "bike_id": "cdb897b97d24f2e10ed5279d5e03a721", "rental_uris": {"ios": "https://dc.lft.to/lastmile_qr_scan", "android": "https://dc.lft.to/lastmile_qr_scan"}}, {"name": "d71836e392faf03e6452eabb6d52d8d5", "type": "electric_scooter", "lat": 38.92723566666667, "is_reserved": 0, "lon": -77.00564283333334, "fusion_lon": 0.0, "is_disabled": 0, "fusion_lat": 0.0, "bike_id": "d71836e392faf03e6452eabb6d52d8d5", "rental_uris": {"ios": "https://dc.lft.to/lastmile_qr_scan", "android": "https://dc.lft.to/lastmile_qr_scan"}}, {"name": "6295a90e6ed9709b9d14a2ff34d69a9d", "type": "electric_bike", "lat": 38.8627385, "is_reserved": 0, "lon": -77.06368833333333, "fusion_lon": 0.0, "is_disabled": 0, "fusion_lat": 0.0, "bike_id": "6295a90e6ed9709b9d14a2ff34d69a9d", "rental_uris": {"ios": "https://dc.lft.to/lastmile_qr_scan", "android": "https://dc.lft.to/lastmile_qr_scan"}}, {"name": "eacb02e35050eae1855259b3e78b5b7a", "type": "electric_bike", "lat": 38.875265, "is_reserved": 0, "lon": -77.19908666666667, "fusion_lon": 0.0, "is_disabled": 0, "fusion_lat": 0.0, "bike_id": "eacb02e35050eae1855259b3e78b5b7a", "rental_uris": {"ios": "https://dc.lft.to/lastmile_qr_scan", "android": "https://dc.lft.to/lastmile_qr_scan"}}, {"name": "9e40c3da3f12138fbf60728dbe2b458a", "type": "electric_scooter", "lat": 38.929521333333334, "is_reserved": 0, "lon": -77.05506966666667, "fusion_lon": 0.0, "is_disabled": 0, "fusion_lat": 0.0, "bike_id": "9e40c3da3f12138fbf60728dbe2b458a", "rental_uris": {"ios": "https://dc.lft.to/lastmile_qr_scan", "android": "https://dc.lft.to/lastmile_qr_scan"}}, {"name": "47297414b934a38be5628745eb71c554", "type": "electric_bike", "lat": 38.84065583333334, "is_reserved": 0, "lon": -77.0640285, "fusion_lon": 0.0, "is_disabled": 0, "fusion_lat": 0.0, "bike_id": "47297414b934a38be5628745eb71c554", "rental_uris": {"ios": "https://dc.lft.to/lastmile_qr_scan", "android": "https://dc.lft.to/lastmile_qr_scan"}}, {"name": "cffb09f02d4a461d8eb63c8d5da00279", "type": "electric_scooter", "lat": 38.902669, "is_reserved": 0, "lon": -77.017604, "fusion_lon": 0.0, "is_disabled": 0, "fusion_lat": 0.0, "bike_id": "cffb09f02d4a461d8eb63c8d5da00279", "rental_uris": {"ios": "https://dc.lft.to/lastmile_qr_scan", "android": "https://dc.lft.to/lastmile_qr_scan"}}, {"name": "b2cced1635ecbad9ac4c1ff7f86fccaa", "type": "electric_bike", "lat": 39.09456266666667, "is_reserved": 0, "lon": -77.14994083333333, "fusion_lon": 0.0, "is_disabled": 0, "fusion_lat": 0.0, "bike_id": "b2cced1635ecbad9ac4c1ff7f86fccaa", "rental_uris": {"ios": "https://dc.lft.to/lastmile_qr_scan", "android": "https://dc.lft.to/lastmile_qr_scan"}}, {"name": "6c3ca598ab88d1470378a32f0cf65fa3", "type": "electric_scooter", "lat": 38.897369, "is_reserved": 0, "lon": -77.01047633333333, "fusion_lon": 0.0, "is_disabled": 0, "fusion_lat": 0.0, "bike_id": "6c3ca598ab88d1470378a32f0cf65fa3", "rental_uris": {"ios": "https://dc.lft.to/lastmile_qr_scan", "android": "https://dc.lft.to/lastmile_qr_scan"}}, {"name": "28e8a7c7000f765e04976aa9997d2ca0", "type": "electric_scooter", "lat": 38.898425333333336, "is_reserved": 0, "lon": -76.94476066666667, "fusion_lon": 0.0, "is_disabled": 0, "fusion_lat": 0.0, "bike_id": "28e8a7c7000f765e04976aa9997d2ca0", "rental_uris": {"ios": "https://dc.lft.to/lastmile_qr_scan", "android": "https://dc.lft.to/lastmile_qr_scan"}}, {"name": "f3c8092059778a6391a8c0cae038494c", "type": "electric_scooter", "lat": 38.90109566666667, "is_reserved": 0, "lon": -77.05165083333333, "fusion_lon": 0.0, "is_disabled": 0, "fusion_lat": 0.0, "bike_id": "f3c8092059778a6391a8c0cae038494c", "rental_uris": {"ios": "https://dc.lft.to/lastmile_qr_scan", "android": "https://dc.lft.to/lastmile_qr_scan"}}, {"name": "95a1a8e4418afd06fcef89a053ef1533", "type": "electric_scooter", "lat": 38.9233825, "is_reserved": 0, "lon": -77.05046716666666, "fusion_lon": 0.0, "is_disabled": 0, "fusion_lat": 0.0, "bike_id": "95a1a8e4418afd06fcef89a053ef1533", "rental_uris": {"ios": "https://dc.lft.to/lastmile_qr_scan", "android": "https://dc.lft.to/lastmile_qr_scan"}}, {"name": "ea9b4704c98cd55826d5756252e5d729", "type": "electric_scooter", "lat": 38.8980715, "is_reserved": 0, "lon": -76.995021, "fusion_lon": 0.0, "is_disabled": 0, "fusion_lat": 0.0, "bike_id": "ea9b4704c98cd55826d5756252e5d729", "rental_uris": {"ios": "https://dc.lft.to/lastmile_qr_scan", "android": "https://dc.lft.to/lastmile_qr_scan"}}, {"name": "2e75f57d771547d219834e1b78d3dfe3", "type": "electric_scooter", "lat": 38.90040233333333, "is_reserved": 0, "lon": -76.91918416666667, "fusion_lon": 0.0, "is_disabled": 0, "fusion_lat": 0.0, "bike_id": "2e75f57d771547d219834e1b78d3dfe3", "rental_uris": {"ios": "https://dc.lft.to/lastmile_qr_scan", "android": "https://dc.lft.to/lastmile_qr_scan"}}, {"name": "b7de86818b9ee30056f28a953c20c493", "type": "electric_scooter", "lat": 38.90578816666667, "is_reserved": 0, "lon": -77.03976433333334, "fusion_lon": 0.0, "is_disabled": 0, "fusion_lat": 0.0, "bike_id": "b7de86818b9ee30056f28a953c20c493", "rental_uris": {"ios": "https://dc.lft.to/lastmile_qr_scan", "android": "https://dc.lft.to/lastmile_qr_scan"}}, {"name": "187109076de07d8c4a1f50e4d6fb9082", "type": "electric_scooter", "lat": 38.903458, "is_reserved": 0, "lon": -77.03826933333333, "fusion_lon": 0.0, "is_disabled": 0, "fusion_lat": 0.0, "bike_id": "187109076de07d8c4a1f50e4d6fb9082", "rental_uris": {"ios": "https://dc.lft.to/lastmile_qr_scan", "android": "https://dc.lft.to/lastmile_qr_scan"}}, {"name": "8323baa33b56ecd190a802775e51f03b", "type": "electric_bike", "lat": 38.9290475, "is_reserved": 0, "lon": -77.02378333333333, "fusion_lon": 0.0, "is_disabled": 0, "fusion_lat": 0.0, "bike_id": "8323baa33b56ecd190a802775e51f03b", "rental_uris": {"ios": "https://dc.lft.to/lastmile_qr_scan", "android": "https://dc.lft.to/lastmile_qr_scan"}}, {"name": "684ffa60fa890b53f6f698d1d04608ac", "type": "electric_scooter", "lat": 38.86198683333333, "is_reserved": 0, "lon": -76.99468666666667, "fusion_lon": 0.0, "is_disabled": 0, "fusion_lat": 0.0, "bike_id": "684ffa60fa890b53f6f698d1d04608ac", "rental_uris": {"ios": "https://dc.lft.to/lastmile_qr_scan", "android": "https://dc.lft.to/lastmile_qr_scan"}}, {"name": "a39bf0d42699f6c515d7ab1105750a55", "type": "electric_scooter", "lat": 38.959245333333335, "is_reserved": 0, "lon": -77.03323266666666, "fusion_lon": 0.0, "is_disabled": 0, "fusion_lat": 0.0, "bike_id": "a39bf0d42699f6c515d7ab1105750a55", "rental_uris": {"ios": "https://dc.lft.to/lastmile_qr_scan", "android": "https://dc.lft.to/lastmile_qr_scan"}}, {"name": "16f5314d70f54d35825da6506a0f09af", "type": "electric_scooter", "lat": 38.90384616666667, "is_reserved": 0, "lon": -77.04463716666666, "fusion_lon": 0.0, "is_disabled": 0, "fusion_lat": 0.0, "bike_id": "16f5314d70f54d35825da6506a0f09af", "rental_uris": {"ios": "https://dc.lft.to/lastmile_qr_scan", "android": "https://dc.lft.to/lastmile_qr_scan"}}, {"name": "43f73edc0f738df28753ce0afd46b668", "type": "electric_scooter", "lat": 38.87878633333333, "is_reserved": 0, "lon": -77.02318066666666, "fusion_lon": 0.0, "is_disabled": 0, "fusion_lat": 0.0, "bike_id": "43f73edc0f738df28753ce0afd46b668", "rental_uris": {"ios": "https://dc.lft.to/lastmile_qr_scan", "android": "https://dc.lft.to/lastmile_qr_scan"}}, {"name": "0f8482f96cd603413c34f172094b79ba", "type": "electric_scooter", "lat": 38.914817166666666, "is_reserved": 0, "lon": -77.02445916666667, "fusion_lon": 0.0, "is_disabled": 0, "fusion_lat": 0.0, "bike_id": "0f8482f96cd603413c34f172094b79ba", "rental_uris": {"ios": "https://dc.lft.to/lastmile_qr_scan", "android": "https://dc.lft.to/lastmile_qr_scan"}}, {"name": "29fdf4e328309092ee52298f45d630ff", "type": "electric_scooter", "lat": 38.89674083333333, "is_reserved": 0, "lon": -76.9472395, "fusion_lon": 0.0, "is_disabled": 0, "fusion_lat": 0.0, "bike_id": "29fdf4e328309092ee52298f45d630ff", "rental_uris": {"ios": "https://dc.lft.to/lastmile_qr_scan", "android": "https://dc.lft.to/lastmile_qr_scan"}}, {"name": "c698c268d708269c522991e888bdad7f", "type": "electric_scooter", "lat": 38.913331666666664, "is_reserved": 0, "lon": -77.031869, "fusion_lon": 0.0, "is_disabled": 0, "fusion_lat": 0.0, "bike_id": "c698c268d708269c522991e888bdad7f", "rental_uris": {"ios": "https://dc.lft.to/lastmile_qr_scan", "android": "https://dc.lft.to/lastmile_qr_scan"}}, {"name": "ed99ea3dd0c6f2a0378ef710dd3273cf", "type": "electric_scooter", "lat": 38.907302333333334, "is_reserved": 0, "lon": -77.04350466666666, "fusion_lon": 0.0, "is_disabled": 0, "fusion_lat": 0.0, "bike_id": "ed99ea3dd0c6f2a0378ef710dd3273cf", "rental_uris": {"ios": "https://dc.lft.to/lastmile_qr_scan", "android": "https://dc.lft.to/lastmile_qr_scan"}}, {"name": "b597561cbcd69316486b3e711f147e58", "type": "electric_scooter", "lat": 38.91657933333333, "is_reserved": 0, "lon": -77.00505216666667, "fusion_lon": 0.0, "is_disabled": 0, "fusion_lat": 0.0, "bike_id": "b597561cbcd69316486b3e711f147e58", "rental_uris": {"ios": "https://dc.lft.to/lastmile_qr_scan", "android": "https://dc.lft.to/lastmile_qr_scan"}}, {"name": "fefd1c1fde641ed3f0f3ce65805592b5", "type": "electric_scooter", "lat": 38.92075033333333, "is_reserved": 0, "lon": -77.0220365, "fusion_lon": 0.0, "is_disabled": 0, "fusion_lat": 0.0, "bike_id": "fefd1c1fde641ed3f0f3ce65805592b5", "rental_uris": {"ios": "https://dc.lft.to/lastmile_qr_scan", "android": "https://dc.lft.to/lastmile_qr_scan"}}, {"name": "564f4f5abf67c325a89893009f3edbc4", "type": "electric_scooter", "lat": 38.9165965, "is_reserved": 0, "lon": -77.02697416666666, "fusion_lon": 0.0, "is_disabled": 0, "fusion_lat": 0.0, "bike_id": "564f4f5abf67c325a89893009f3edbc4", "rental_uris": {"ios": "https://dc.lft.to/lastmile_qr_scan", "android": "https://dc.lft.to/lastmile_qr_scan"}}, {"name": "0c39f2619aad141dfeb11b7bac1bcc9a", "type": "electric_scooter", "lat": 38.9295175, "is_reserved": 0, "lon": -77.02315133333333, "fusion_lon": 0.0, "is_disabled": 0, "fusion_lat": 0.0, "bike_id": "0c39f2619aad141dfeb11b7bac1bcc9a", "rental_uris": {"ios": "https://dc.lft.to/lastmile_qr_scan", "android": "https://dc.lft.to/lastmile_qr_scan"}}, {"name": "80c86bb148a517864da860866ad6c06c", "type": "electric_scooter", "lat": 38.92582, "is_reserved": 0, "lon": -77.02842883333334, "fusion_lon": 0.0, "is_disabled": 0, "fusion_lat": 0.0, "bike_id": "80c86bb148a517864da860866ad6c06c", "rental_uris": {"ios": "https://dc.lft.to/lastmile_qr_scan", "android": "https://dc.lft.to/lastmile_qr_scan"}}, {"name": "2627e99ae2cec7901897364785bdbe13", "type": "electric_scooter", "lat": 38.891838, "is_reserved": 0, "lon": -77.01531866666667, "fusion_lon": 0.0, "is_disabled": 0, "fusion_lat": 0.0, "bike_id": "2627e99ae2cec7901897364785bdbe13", "rental_uris": {"ios": "https://dc.lft.to/lastmile_qr_scan", "android": "https://dc.lft.to/lastmile_qr_scan"}}, {"name": "44aa7933c015cbcc593dc7cfe0491f92", "type": "electric_scooter", "lat": 38.9348325, "is_reserved": 0, "lon": -77.03290716666666, "fusion_lon": 0.0, "is_disabled": 0, "fusion_lat": 0.0, "bike_id": "44aa7933c015cbcc593dc7cfe0491f92", "rental_uris": {"ios": "https://dc.lft.to/lastmile_qr_scan", "android": "https://dc.lft.to/lastmile_qr_scan"}}, {"name": "4514c7c481e673086db9a63fd8db7e0d", "type": "electric_scooter", "lat": 38.91717333333333, "is_reserved": 0, "lon": -77.03859983333334, "fusion_lon": 0.0, "is_disabled": 0, "fusion_lat": 0.0, "bike_id": "4514c7c481e673086db9a63fd8db7e0d", "rental_uris": {"ios": "https://dc.lft.to/lastmile_qr_scan", "android": "https://dc.lft.to/lastmile_qr_scan"}}, {"name": "cf39edab2372eabc1aaf6da5be916c4d", "type": "electric_bike", "lat": 38.89809916666667, "is_reserved": 0, "lon": -77.00602633333334, "fusion_lon": 0.0, "is_disabled": 0, "fusion_lat": 0.0, "bike_id": "cf39edab2372eabc1aaf6da5be916c4d", "rental_uris": {"ios": "https://dc.lft.to/lastmile_qr_scan", "android": "https://dc.lft.to/lastmile_qr_scan"}}, {"name": "5d31f7934b65cc1d6abc86211992c821", "type": "electric_scooter", "lat": 38.916895, "is_reserved": 0, "lon": -77.009288, "fusion_lon": 0.0, "is_disabled": 0, "fusion_lat": 0.0, "bike_id": "5d31f7934b65cc1d6abc86211992c821", "rental_uris": {"ios": "https://dc.lft.to/lastmile_qr_scan", "android": "https://dc.lft.to/lastmile_qr_scan"}}, {"name": "a6139ca914a926dc15ec617c7f3d778b", "type": "electric_scooter", "lat": 38.896244833333334, "is_reserved": 0, "lon": -77.027291, "fusion_lon": 0.0, "is_disabled": 0, "fusion_lat": 0.0, "bike_id": "a6139ca914a926dc15ec617c7f3d778b", "rental_uris": {"ios": "https://dc.lft.to/lastmile_qr_scan", "android": "https://dc.lft.to/lastmile_qr_scan"}}, {"name": "3775eabab1c0d43c49bc043ade1135c8", "type": "electric_scooter", "lat": 38.914013, "is_reserved": 0, "lon": -77.00806566666667, "fusion_lon": 0.0, "is_disabled": 0, "fusion_lat": 0.0, "bike_id": "3775eabab1c0d43c49bc043ade1135c8", "rental_uris": {"ios": "https://dc.lft.to/lastmile_qr_scan", "android": "https://dc.lft.to/lastmile_qr_scan"}}, {"name": "83f475d74e8f6b22a74a986559910ca4", "type": "electric_scooter", "lat": 38.90027933333333, "is_reserved": 0, "lon": -76.998595, "fusion_lon": 0.0, "is_disabled": 0, "fusion_lat": 0.0, "bike_id": "83f475d74e8f6b22a74a986559910ca4", "rental_uris": {"ios": "https://dc.lft.to/lastmile_qr_scan", "android": "https://dc.lft.to/lastmile_qr_scan"}}, {"name": "4650c8ea09ae46cf73b3e8ba642eac4f", "type": "electric_bike", "lat": 38.8616295, "is_reserved": 0, "lon": -77.130952, "fusion_lon": 0.0, "is_disabled": 0, "fusion_lat": 0.0, "bike_id": "4650c8ea09ae46cf73b3e8ba642eac4f", "rental_uris": {"ios": "https://dc.lft.to/lastmile_qr_scan", "android": "https://dc.lft.to/lastmile_qr_scan"}}, {"name": "5de597fe76d0ce1243ff298faa57751e", "type": "electric_scooter", "lat": 38.902393833333335, "is_reserved": 0, "lon": -76.97411766666667, "fusion_lon": 0.0, "is_disabled": 0, "fusion_lat": 0.0, "bike_id": "5de597fe76d0ce1243ff298faa57751e", "rental_uris": {"ios": "https://dc.lft.to/lastmile_qr_scan", "android": "https://dc.lft.to/lastmile_qr_scan"}}, {"name": "da28eb78d50c37693374ac8a6af187d2", "type": "electric_scooter", "lat": 38.936575, "is_reserved": 0, "lon": -77.03691483333333, "fusion_lon": 0.0, "is_disabled": 0, "fusion_lat": 0.0, "bike_id": "da28eb78d50c37693374ac8a6af187d2", "rental_uris": {"ios": "https://dc.lft.to/lastmile_qr_scan", "android": "https://dc.lft.to/lastmile_qr_scan"}}, {"name": "87ee3c0038504141bea97829b2f0b365", "type": "electric_bike", "lat": 38.92287116666667, "is_reserved": 0, "lon": -77.036657, "fusion_lon": 0.0, "is_disabled": 0, "fusion_lat": 0.0, "bike_id": "87ee3c0038504141bea97829b2f0b365", "rental_uris": {"ios": "https://dc.lft.to/lastmile_qr_scan", "android": "https://dc.lft.to/lastmile_qr_scan"}}, {"name": "fb359256a6fe7d6d3bb36665986da442", "type": "electric_scooter", "lat": 38.90024583333334, "is_reserved": 0, "lon": -77.0116655, "fusion_lon": 0.0, "is_disabled": 0, "fusion_lat": 0.0, "bike_id": "fb359256a6fe7d6d3bb36665986da442", "rental_uris": {"ios": "https://dc.lft.to/lastmile_qr_scan", "android": "https://dc.lft.to/lastmile_qr_scan"}}, {"name": "ccfa49650f07949584ad00e1d821f41e", "type": "electric_scooter", "lat": 38.877317166666664, "is_reserved": 0, "lon": -76.97280216666667, "fusion_lon": 0.0, "is_disabled": 0, "fusion_lat": 0.0, "bike_id": "ccfa49650f07949584ad00e1d821f41e", "rental_uris": {"ios": "https://dc.lft.to/lastmile_qr_scan", "android": "https://dc.lft.to/lastmile_qr_scan"}}, {"name": "c5fefcba8ffac4755ffca9fd5e30b236", "type": "electric_scooter", "lat": 38.86202016666667, "is_reserved": 0, "lon": -76.99466633333333, "fusion_lon": 0.0, "is_disabled": 0, "fusion_lat": 0.0, "bike_id": "c5fefcba8ffac4755ffca9fd5e30b236", "rental_uris": {"ios": "https://dc.lft.to/lastmile_qr_scan", "android": "https://dc.lft.to/lastmile_qr_scan"}}, {"name": "638e104843a8db0126a26ffcad92c4e1", "type": "electric_scooter", "lat": 38.9484035, "is_reserved": 0, "lon": -77.0254895, "fusion_lon": 0.0, "is_disabled": 0, "fusion_lat": 0.0, "bike_id": "638e104843a8db0126a26ffcad92c4e1", "rental_uris": {"ios": "https://dc.lft.to/lastmile_qr_scan", "android": "https://dc.lft.to/lastmile_qr_scan"}}, {"name": "eab05e46c6c06c591b54d19bb726daa4", "type": "electric_scooter", "lat": 38.932485, "is_reserved": 0, "lon": -77.03276383333333, "fusion_lon": 0.0, "is_disabled": 0, "fusion_lat": 0.0, "bike_id": "eab05e46c6c06c591b54d19bb726daa4", "rental_uris": {"ios": "https://dc.lft.to/lastmile_qr_scan", "android": "https://dc.lft.to/lastmile_qr_scan"}}, {"name": "5dce28c040d8fa59c1d7ce959273fd6e", "type": "electric_scooter", "lat": 38.91109933333333, "is_reserved": 0, "lon": -77.04225516666666, "fusion_lon": 0.0, "is_disabled": 0, "fusion_lat": 0.0, "bike_id": "5dce28c040d8fa59c1d7ce959273fd6e", "rental_uris": {"ios": "https://dc.lft.to/lastmile_qr_scan", "android": "https://dc.lft.to/lastmile_qr_scan"}}, {"name": "6288b452c0ed70f9196e774c0ead6e4e", "type": "electric_scooter", "lat": 38.93496366666667, "is_reserved": 0, "lon": -77.027242, "fusion_lon": 0.0, "is_disabled": 0, "fusion_lat": 0.0, "bike_id": "6288b452c0ed70f9196e774c0ead6e4e", "rental_uris": {"ios": "https://dc.lft.to/lastmile_qr_scan", "android": "https://dc.lft.to/lastmile_qr_scan"}}, {"name": "082307efdc18d8bb0bfa3f1c9828696b", "type": "electric_scooter", "lat": 38.903521166666664, "is_reserved": 0, "lon": -77.0251195, "fusion_lon": 0.0, "is_disabled": 0, "fusion_lat": 0.0, "bike_id": "082307efdc18d8bb0bfa3f1c9828696b", "rental_uris": {"ios": "https://dc.lft.to/lastmile_qr_scan", "android": "https://dc.lft.to/lastmile_qr_scan"}}, {"name": "d92be138d1771ce9e25b63881cd87379", "type": "electric_scooter", "lat": 38.9290095, "is_reserved": 0, "lon": -77.02501933333333, "fusion_lon": 0.0, "is_disabled": 0, "fusion_lat": 0.0, "bike_id": "d92be138d1771ce9e25b63881cd87379", "rental_uris": {"ios": "https://dc.lft.to/lastmile_qr_scan", "android": "https://dc.lft.to/lastmile_qr_scan"}}, {"name": "1f918524d6f1adf360bb78f05535e5e4", "type": "electric_scooter", "lat": 38.92053, "is_reserved": 0, "lon": -77.03395333333333, "fusion_lon": 0.0, "is_disabled": 0, "fusion_lat": 0.0, "bike_id": "1f918524d6f1adf360bb78f05535e5e4", "rental_uris": {"ios": "https://dc.lft.to/lastmile_qr_scan", "android": "https://dc.lft.to/lastmile_qr_scan"}}, {"name": "bdbd5a049542a8e0eeb6bc07677c6a78", "type": "electric_scooter", "lat": 38.9180065, "is_reserved": 0, "lon": -77.0270955, "fusion_lon": 0.0, "is_disabled": 0, "fusion_lat": 0.0, "bike_id": "bdbd5a049542a8e0eeb6bc07677c6a78", "rental_uris": {"ios": "https://dc.lft.to/lastmile_qr_scan", "android": "https://dc.lft.to/lastmile_qr_scan"}}, {"name": "2f1ef757089ae4c19b37110fc9599e17", "type": "electric_scooter", "lat": 38.929529333333335, "is_reserved": 0, "lon": -77.0346675, "fusion_lon": 0.0, "is_disabled": 0, "fusion_lat": 0.0, "bike_id": "2f1ef757089ae4c19b37110fc9599e17", "rental_uris": {"ios": "https://dc.lft.to/lastmile_qr_scan", "android": "https://dc.lft.to/lastmile_qr_scan"}}, {"name": "bf8a62ab2f07a60d1c904dbac747f367", "type": "electric_scooter", "lat": 38.8833255, "is_reserved": 0, "lon": -77.01744083333334, "fusion_lon": 0.0, "is_disabled": 0, "fusion_lat": 0.0, "bike_id": "bf8a62ab2f07a60d1c904dbac747f367", "rental_uris": {"ios": "https://dc.lft.to/lastmile_qr_scan", "android": "https://dc.lft.to/lastmile_qr_scan"}}, {"name": "4318bcc3b693eb1d31df83267fe70fbf", "type": "electric_scooter", "lat": 38.92332916666667, "is_reserved": 0, "lon": -77.0351735, "fusion_lon": 0.0, "is_disabled": 0, "fusion_lat": 0.0, "bike_id": "4318bcc3b693eb1d31df83267fe70fbf", "rental_uris": {"ios": "https://dc.lft.to/lastmile_qr_scan", "android": "https://dc.lft.to/lastmile_qr_scan"}}, {"name": "424bf0c5a4ec5bb3276ceb99e19b5bd7", "type": "electric_bike", "lat": 38.990638, "is_reserved": 0, "lon": -77.10026266666667, "fusion_lon": 0.0, "is_disabled": 0, "fusion_lat": 0.0, "bike_id": "424bf0c5a4ec5bb3276ceb99e19b5bd7", "rental_uris": {"ios": "https://dc.lft.to/lastmile_qr_scan", "android": "https://dc.lft.to/lastmile_qr_scan"}}, {"name": "7a965397c13361e283bb3ed1a32e7d8e", "type": "electric_scooter", "lat": 38.9477535, "is_reserved": 0, "lon": -77.06540583333333, "fusion_lon": 0.0, "is_disabled": 0, "fusion_lat": 0.0, "bike_id": "7a965397c13361e283bb3ed1a32e7d8e", "rental_uris": {"ios": "https://dc.lft.to/lastmile_qr_scan", "android": "https://dc.lft.to/lastmile_qr_scan"}}, {"name": "ba269f82fe63ff1ade1562733c66e42f", "type": "electric_scooter", "lat": 38.913137166666665, "is_reserved": 0, "lon": -77.04476783333334, "fusion_lon": 0.0, "is_disabled": 0, "fusion_lat": 0.0, "bike_id": "ba269f82fe63ff1ade1562733c66e42f", "rental_uris": {"ios": "https://dc.lft.to/lastmile_qr_scan", "android": "https://dc.lft.to/lastmile_qr_scan"}}, {"name": "b0eeefeb22103c6606119e298c145eca", "type": "electric_scooter", "lat": 38.9073765, "is_reserved": 0, "lon": -77.03066916666667, "fusion_lon": 0.0, "is_disabled": 0, "fusion_lat": 0.0, "bike_id": "b0eeefeb22103c6606119e298c145eca", "rental_uris": {"ios": "https://dc.lft.to/lastmile_qr_scan", "android": "https://dc.lft.to/lastmile_qr_scan"}}, {"name": "c00e3a5d63b33ea1f1da95a3caf5ef05", "type": "electric_scooter", "lat": 38.91188416666667, "is_reserved": 0, "lon": -77.00557166666667, "fusion_lon": 0.0, "is_disabled": 0, "fusion_lat": 0.0, "bike_id": "c00e3a5d63b33ea1f1da95a3caf5ef05", "rental_uris": {"ios": "https://dc.lft.to/lastmile_qr_scan", "android": "https://dc.lft.to/lastmile_qr_scan"}}, {"name": "e5fcdd318a182344c3c481aa17d3f1da", "type": "electric_scooter", "lat": 38.93970816666667, "is_reserved": 0, "lon": -77.03259466666667, "fusion_lon": 0.0, "is_disabled": 0, "fusion_lat": 0.0, "bike_id": "e5fcdd318a182344c3c481aa17d3f1da", "rental_uris": {"ios": "https://dc.lft.to/lastmile_qr_scan", "android": "https://dc.lft.to/lastmile_qr_scan"}}, {"name": "39547439b3acc99d8c2727b5373b929a", "type": "electric_scooter", "lat": 38.93840483333334, "is_reserved": 0, "lon": -77.02454583333333, "fusion_lon": 0.0, "is_disabled": 0, "fusion_lat": 0.0, "bike_id": "39547439b3acc99d8c2727b5373b929a", "rental_uris": {"ios": "https://dc.lft.to/lastmile_qr_scan", "android": "https://dc.lft.to/lastmile_qr_scan"}}, {"name": "baac8e92f109d7d698f6b4293360e62b", "type": "electric_scooter", "lat": 38.881129, "is_reserved": 0, "lon": -76.999443, "fusion_lon": 0.0, "is_disabled": 0, "fusion_lat": 0.0, "bike_id": "baac8e92f109d7d698f6b4293360e62b", "rental_uris": {"ios": "https://dc.lft.to/lastmile_qr_scan", "android": "https://dc.lft.to/lastmile_qr_scan"}}, {"name": "8b6ff7f3079719678128106f83b05d7f", "type": "electric_scooter", "lat": 38.939475, "is_reserved": 0, "lon": -77.03262416666666, "fusion_lon": 0.0, "is_disabled": 0, "fusion_lat": 0.0, "bike_id": "8b6ff7f3079719678128106f83b05d7f", "rental_uris": {"ios": "https://dc.lft.to/lastmile_qr_scan", "android": "https://dc.lft.to/lastmile_qr_scan"}}, {"name": "4c5575c5c69100f0477c62daca8ec270", "type": "electric_scooter", "lat": 38.940731166666666, "is_reserved": 0, "lon": -77.02698833333334, "fusion_lon": 0.0, "is_disabled": 0, "fusion_lat": 0.0, "bike_id": "4c5575c5c69100f0477c62daca8ec270", "rental_uris": {"ios": "https://dc.lft.to/lastmile_qr_scan", "android": "https://dc.lft.to/lastmile_qr_scan"}}, {"name": "b4b6e862144865f73bc31d00eb9c6d94", "type": "electric_scooter", "lat": 38.90560466666667, "is_reserved": 0, "lon": -77.02173866666666, "fusion_lon": 0.0, "is_disabled": 0, "fusion_lat": 0.0, "bike_id": "b4b6e862144865f73bc31d00eb9c6d94", "rental_uris": {"ios": "https://dc.lft.to/lastmile_qr_scan", "android": "https://dc.lft.to/lastmile_qr_scan"}}, {"name": "0b58978aca00ef293b265d0e7402dac3", "type": "electric_scooter", "lat": 38.900125, "is_reserved": 0, "lon": -76.99078416666667, "fusion_lon": 0.0, "is_disabled": 0, "fusion_lat": 0.0, "bike_id": "0b58978aca00ef293b265d0e7402dac3", "rental_uris": {"ios": "https://dc.lft.to/lastmile_qr_scan", "android": "https://dc.lft.to/lastmile_qr_scan"}}, {"name": "fcdb70776984093d375c796af7962156", "type": "electric_scooter", "lat": 38.91496433333333, "is_reserved": 0, "lon": -77.032566, "fusion_lon": 0.0, "is_disabled": 0, "fusion_lat": 0.0, "bike_id": "fcdb70776984093d375c796af7962156", "rental_uris": {"ios": "https://dc.lft.to/lastmile_qr_scan", "android": "https://dc.lft.to/lastmile_qr_scan"}}, {"name": "9e3306359dd37a2c6c8ba6a8a5d062a3", "type": "electric_bike", "lat": 38.90296333333333, "is_reserved": 0, "lon": -76.94440966666667, "fusion_lon": 0.0, "is_disabled": 0, "fusion_lat": 0.0, "bike_id": "9e3306359dd37a2c6c8ba6a8a5d062a3", "rental_uris": {"ios": "https://dc.lft.to/lastmile_qr_scan", "android": "https://dc.lft.to/lastmile_qr_scan"}}, {"name": "fc54ce79e2dfa9f0dbbbafb9b38d8b08", "type": "electric_scooter", "lat": 38.955358, "is_reserved": 0, "lon": -77.02468466666667, "fusion_lon": 0.0, "is_disabled": 0, "fusion_lat": 0.0, "bike_id": "fc54ce79e2dfa9f0dbbbafb9b38d8b08", "rental_uris": {"ios": "https://dc.lft.to/lastmile_qr_scan", "android": "https://dc.lft.to/lastmile_qr_scan"}}, {"name": "4cd349b503fee28cb125ad4382fe97c8", "type": "electric_scooter", "lat": 38.91716516666666, "is_reserved": 0, "lon": -77.01864733333333, "fusion_lon": 0.0, "is_disabled": 0, "fusion_lat": 0.0, "bike_id": "4cd349b503fee28cb125ad4382fe97c8", "rental_uris": {"ios": "https://dc.lft.to/lastmile_qr_scan", "android": "https://dc.lft.to/lastmile_qr_scan"}}, {"name": "e2c8a3f08e9aa6824c79b10f15a7f28b", "type": "electric_scooter", "lat": 38.8950025, "is_reserved": 0, "lon": -77.01119766666666, "fusion_lon": 0.0, "is_disabled": 0, "fusion_lat": 0.0, "bike_id": "e2c8a3f08e9aa6824c79b10f15a7f28b", "rental_uris": {"ios": "https://dc.lft.to/lastmile_qr_scan", "android": "https://dc.lft.to/lastmile_qr_scan"}}, {"name": "5e56d9c56450e5a4763bf761c74e7277", "type": "electric_scooter", "lat": 38.90384866666667, "is_reserved": 0, "lon": -77.01742166666666, "fusion_lon": 0.0, "is_disabled": 0, "fusion_lat": 0.0, "bike_id": "5e56d9c56450e5a4763bf761c74e7277", "rental_uris": {"ios": "https://dc.lft.to/lastmile_qr_scan", "android": "https://dc.lft.to/lastmile_qr_scan"}}, {"name": "4ef1717d52ab635c888c1d567320c678", "type": "electric_scooter", "lat": 38.90241816666666, "is_reserved": 0, "lon": -77.00199566666667, "fusion_lon": 0.0, "is_disabled": 0, "fusion_lat": 0.0, "bike_id": "4ef1717d52ab635c888c1d567320c678", "rental_uris": {"ios": "https://dc.lft.to/lastmile_qr_scan", "android": "https://dc.lft.to/lastmile_qr_scan"}}, {"name": "eef608a64952d113c2b371a10f80a0b9", "type": "electric_bike", "lat": 38.88084, "is_reserved": 0, "lon": -76.98537366666666, "fusion_lon": 0.0, "is_disabled": 0, "fusion_lat": 0.0, "bike_id": "eef608a64952d113c2b371a10f80a0b9", "rental_uris": {"ios": "https://dc.lft.to/lastmile_qr_scan", "android": "https://dc.lft.to/lastmile_qr_scan"}}, {"name": "336d16c22ed8023bcfb9a05f6654ca7c", "type": "electric_scooter", "lat": 38.91765433333333, "is_reserved": 0, "lon": -77.02710833333333, "fusion_lon": 0.0, "is_disabled": 0, "fusion_lat": 0.0, "bike_id": "336d16c22ed8023bcfb9a05f6654ca7c", "rental_uris": {"ios": "https://dc.lft.to/lastmile_qr_scan", "android": "https://dc.lft.to/lastmile_qr_scan"}}, {"name": "4df0b83148b3326edce2cc57ed0d1bf1", "type": "electric_scooter", "lat": 38.9037935, "is_reserved": 0, "lon": -77.04455433333334, "fusion_lon": 0.0, "is_disabled": 0, "fusion_lat": 0.0, "bike_id": "4df0b83148b3326edce2cc57ed0d1bf1", "rental_uris": {"ios": "https://dc.lft.to/lastmile_qr_scan", "android": "https://dc.lft.to/lastmile_qr_scan"}}, {"name": "df31f12a45cb2004af6a2faec583ff95", "type": "electric_scooter", "lat": 38.90863866666667, "is_reserved": 0, "lon": -77.02499833333333, "fusion_lon": 0.0, "is_disabled": 0, "fusion_lat": 0.0, "bike_id": "df31f12a45cb2004af6a2faec583ff95", "rental_uris": {"ios": "https://dc.lft.to/lastmile_qr_scan", "android": "https://dc.lft.to/lastmile_qr_scan"}}, {"name": "d470cc4b5b22cc3aa7c15133b4cc81d0", "type": "electric_scooter", "lat": 38.9269115, "is_reserved": 0, "lon": -77.06647033333333, "fusion_lon": 0.0, "is_disabled": 0, "fusion_lat": 0.0, "bike_id": "d470cc4b5b22cc3aa7c15133b4cc81d0", "rental_uris": {"ios": "https://dc.lft.to/lastmile_qr_scan", "android": "https://dc.lft.to/lastmile_qr_scan"}}, {"name": "efb0cfcc2895d61869b2487b353de014", "type": "electric_scooter", "lat": 38.9156305, "is_reserved": 0, "lon": -77.04640216666667, "fusion_lon": 0.0, "is_disabled": 0, "fusion_lat": 0.0, "bike_id": "efb0cfcc2895d61869b2487b353de014", "rental_uris": {"ios": "https://dc.lft.to/lastmile_qr_scan", "android": "https://dc.lft.to/lastmile_qr_scan"}}, {"name": "02d54ef6f20fdf41c87ff4e812a92840", "type": "electric_scooter", "lat": 38.917033833333335, "is_reserved": 0, "lon": -77.03123516666666, "fusion_lon": 0.0, "is_disabled": 0, "fusion_lat": 0.0, "bike_id": "02d54ef6f20fdf41c87ff4e812a92840", "rental_uris": {"ios": "https://dc.lft.to/lastmile_qr_scan", "android": "https://dc.lft.to/lastmile_qr_scan"}}, {"name": "87d5a3e1d562b7d921b60f01bc23ccec", "type": "electric_scooter", "lat": 38.8851165, "is_reserved": 0, "lon": -77.00571983333333, "fusion_lon": 0.0, "is_disabled": 0, "fusion_lat": 0.0, "bike_id": "87d5a3e1d562b7d921b60f01bc23ccec", "rental_uris": {"ios": "https://dc.lft.to/lastmile_qr_scan", "android": "https://dc.lft.to/lastmile_qr_scan"}}, {"name": "d04270f552c0965f74d8afa81dc71e44", "type": "electric_scooter", "lat": 38.92241833333333, "is_reserved": 0, "lon": -77.03089616666666, "fusion_lon": 0.0, "is_disabled": 0, "fusion_lat": 0.0, "bike_id": "d04270f552c0965f74d8afa81dc71e44", "rental_uris": {"ios": "https://dc.lft.to/lastmile_qr_scan", "android": "https://dc.lft.to/lastmile_qr_scan"}}, {"name": "79acffc51346f75c12d816c0ee1a9c41", "type": "electric_scooter", "lat": 38.914057, "is_reserved": 0, "lon": -77.00836833333334, "fusion_lon": 0.0, "is_disabled": 0, "fusion_lat": 0.0, "bike_id": "79acffc51346f75c12d816c0ee1a9c41", "rental_uris": {"ios": "https://dc.lft.to/lastmile_qr_scan", "android": "https://dc.lft.to/lastmile_qr_scan"}}, {"name": "b98825c681189a9a4c340758fd4d4b2e", "type": "electric_scooter", "lat": 38.89828466666667, "is_reserved": 0, "lon": -77.03124383333333, "fusion_lon": 0.0, "is_disabled": 0, "fusion_lat": 0.0, "bike_id": "b98825c681189a9a4c340758fd4d4b2e", "rental_uris": {"ios": "https://dc.lft.to/lastmile_qr_scan", "android": "https://dc.lft.to/lastmile_qr_scan"}}, {"name": "dd04dec2dcc9f9930731535dc5e4a859", "type": "electric_scooter", "lat": 38.92062683333333, "is_reserved": 0, "lon": -77.034593, "fusion_lon": 0.0, "is_disabled": 0, "fusion_lat": 0.0, "bike_id": "dd04dec2dcc9f9930731535dc5e4a859", "rental_uris": {"ios": "https://dc.lft.to/lastmile_qr_scan", "android": "https://dc.lft.to/lastmile_qr_scan"}}, {"name": "63c6514aae41be98451ca9d8ac5ba9c8", "type": "electric_bike", "lat": 38.858520666666664, "is_reserved": 0, "lon": -77.09757266666666, "fusion_lon": 0.0, "is_disabled": 0, "fusion_lat": 0.0, "bike_id": "63c6514aae41be98451ca9d8ac5ba9c8", "rental_uris": {"ios": "https://dc.lft.to/lastmile_qr_scan", "android": "https://dc.lft.to/lastmile_qr_scan"}}, {"name": "7f19f2fc3cdef9eca6f38665d40ec39c", "type": "electric_scooter", "lat": 38.866975333333336, "is_reserved": 0, "lon": -76.98713716666667, "fusion_lon": 0.0, "is_disabled": 0, "fusion_lat": 0.0, "bike_id": "7f19f2fc3cdef9eca6f38665d40ec39c", "rental_uris": {"ios": "https://dc.lft.to/lastmile_qr_scan", "android": "https://dc.lft.to/lastmile_qr_scan"}}, {"name": "100be4a9d7d82d0eb88a68bb7639f484", "type": "electric_scooter", "lat": 38.900067, "is_reserved": 0, "lon": -76.99157083333333, "fusion_lon": 0.0, "is_disabled": 0, "fusion_lat": 0.0, "bike_id": "100be4a9d7d82d0eb88a68bb7639f484", "rental_uris": {"ios": "https://dc.lft.to/lastmile_qr_scan", "android": "https://dc.lft.to/lastmile_qr_scan"}}, {"name": "7daf9dcf19825459091effaa0765555c", "type": "electric_scooter", "lat": 38.9338905, "is_reserved": 0, "lon": -77.02962883333333, "fusion_lon": 0.0, "is_disabled": 0, "fusion_lat": 0.0, "bike_id": "7daf9dcf19825459091effaa0765555c", "rental_uris": {"ios": "https://dc.lft.to/lastmile_qr_scan", "android": "https://dc.lft.to/lastmile_qr_scan"}}, {"name": "7e9e0718ea959448bce52748176aa602", "type": "electric_scooter", "lat": 38.939786, "is_reserved": 0, "lon": -77.02896066666666, "fusion_lon": 0.0, "is_disabled": 0, "fusion_lat": 0.0, "bike_id": "7e9e0718ea959448bce52748176aa602", "rental_uris": {"ios": "https://dc.lft.to/lastmile_qr_scan", "android": "https://dc.lft.to/lastmile_qr_scan"}}, {"name": "d2acf3a418520a935068c18698dbd8ed", "type": "electric_bike", "lat": 38.96625933333333, "is_reserved": 0, "lon": -76.97670366666667, "fusion_lon": 0.0, "is_disabled": 0, "fusion_lat": 0.0, "bike_id": "d2acf3a418520a935068c18698dbd8ed", "rental_uris": {"ios": "https://dc.lft.to/lastmile_qr_scan", "android": "https://dc.lft.to/lastmile_qr_scan"}}, {"name": "14fd663500a1aff37e3a36b5b4cd17c4", "type": "electric_scooter", "lat": 38.92360166666667, "is_reserved": 0, "lon": -77.04150216666666, "fusion_lon": 0.0, "is_disabled": 0, "fusion_lat": 0.0, "bike_id": "14fd663500a1aff37e3a36b5b4cd17c4", "rental_uris": {"ios": "https://dc.lft.to/lastmile_qr_scan", "android": "https://dc.lft.to/lastmile_qr_scan"}}, {"name": "6bd82e99818381ccdbeb0eea9e9d730c", "type": "electric_bike", "lat": 38.9993995, "is_reserved": 0, "lon": -77.01767366666667, "fusion_lon": 0.0, "is_disabled": 0, "fusion_lat": 0.0, "bike_id": "6bd82e99818381ccdbeb0eea9e9d730c", "rental_uris": {"ios": "https://dc.lft.to/lastmile_qr_scan", "android": "https://dc.lft.to/lastmile_qr_scan"}}, {"name": "73abeed3f0423ede8918d41bdc4f6a8c", "type": "electric_scooter", "lat": 38.92182666666667, "is_reserved": 0, "lon": -77.02663383333334, "fusion_lon": 0.0, "is_disabled": 0, "fusion_lat": 0.0, "bike_id": "73abeed3f0423ede8918d41bdc4f6a8c", "rental_uris": {"ios": "https://dc.lft.to/lastmile_qr_scan", "android": "https://dc.lft.to/lastmile_qr_scan"}}, {"name": "bd3b56ec97caf476e0176d075942adff", "type": "electric_scooter", "lat": 38.92051383333333, "is_reserved": 0, "lon": -77.03343333333333, "fusion_lon": 0.0, "is_disabled": 0, "fusion_lat": 0.0, "bike_id": "bd3b56ec97caf476e0176d075942adff", "rental_uris": {"ios": "https://dc.lft.to/lastmile_qr_scan", "android": "https://dc.lft.to/lastmile_qr_scan"}}, {"name": "25b9e1473a8426874b8e81d42fc9a907", "type": "electric_scooter", "lat": 38.9564525, "is_reserved": 0, "lon": -77.03283116666667, "fusion_lon": 0.0, "is_disabled": 0, "fusion_lat": 0.0, "bike_id": "25b9e1473a8426874b8e81d42fc9a907", "rental_uris": {"ios": "https://dc.lft.to/lastmile_qr_scan", "android": "https://dc.lft.to/lastmile_qr_scan"}}, {"name": "187d26c0094fddca0fd6355342245615", "type": "electric_scooter", "lat": 38.9345715, "is_reserved": 0, "lon": -77.07302466666667, "fusion_lon": 0.0, "is_disabled": 0, "fusion_lat": 0.0, "bike_id": "187d26c0094fddca0fd6355342245615", "rental_uris": {"ios": "https://dc.lft.to/lastmile_qr_scan", "android": "https://dc.lft.to/lastmile_qr_scan"}}, {"name": "44d4fafa86be38c8097fb007a708e212", "type": "electric_scooter", "lat": 38.900341, "is_reserved": 0, "lon": -76.98836116666666, "fusion_lon": 0.0, "is_disabled": 0, "fusion_lat": 0.0, "bike_id": "44d4fafa86be38c8097fb007a708e212", "rental_uris": {"ios": "https://dc.lft.to/lastmile_qr_scan", "android": "https://dc.lft.to/lastmile_qr_scan"}}, {"name": "753ee3b2680abe0667292bd75e3f54be", "type": "electric_scooter", "lat": 38.90274566666667, "is_reserved": 0, "lon": -77.0384125, "fusion_lon": 0.0, "is_disabled": 0, "fusion_lat": 0.0, "bike_id": "753ee3b2680abe0667292bd75e3f54be", "rental_uris": {"ios": "https://dc.lft.to/lastmile_qr_scan", "android": "https://dc.lft.to/lastmile_qr_scan"}}, {"name": "2a3e95720537d60d9d0a8c9d7d80c8b9", "type": "electric_bike", "lat": 39.0038145, "is_reserved": 0, "lon": -77.01283433333333, "fusion_lon": 0.0, "is_disabled": 0, "fusion_lat": 0.0, "bike_id": "2a3e95720537d60d9d0a8c9d7d80c8b9", "rental_uris": {"ios": "https://dc.lft.to/lastmile_qr_scan", "android": "https://dc.lft.to/lastmile_qr_scan"}}, {"name": "dfdf9df47bd15b79abaca5ec3206d387", "type": "electric_bike", "lat": 38.8278595, "is_reserved": 0, "lon": -77.0091795, "fusion_lon": 0.0, "is_disabled": 0, "fusion_lat": 0.0, "bike_id": "dfdf9df47bd15b79abaca5ec3206d387", "rental_uris": {"ios": "https://dc.lft.to/lastmile_qr_scan", "android": "https://dc.lft.to/lastmile_qr_scan"}}, {"name": "3c3989866da9dd83b52054bb5b85337f", "type": "electric_bike", "lat": 38.80782, "is_reserved": 0, "lon": -77.1295415, "fusion_lon": 0.0, "is_disabled": 0, "fusion_lat": 0.0, "bike_id": "3c3989866da9dd83b52054bb5b85337f", "rental_uris": {"ios": "https://dc.lft.to/lastmile_qr_scan", "android": "https://dc.lft.to/lastmile_qr_scan"}}, {"name": "f2d05ffc8b50976e20bbf2422cecac06", "type": "electric_scooter", "lat": 38.91683583333333, "is_reserved": 0, "lon": -77.02316916666666, "fusion_lon": 0.0, "is_disabled": 0, "fusion_lat": 0.0, "bike_id": "f2d05ffc8b50976e20bbf2422cecac06", "rental_uris": {"ios": "https://dc.lft.to/lastmile_qr_scan", "android": "https://dc.lft.to/lastmile_qr_scan"}}, {"name": "621c3bce2971460e7ef357b0bee2f2f2", "type": "electric_bike", "lat": 38.91359516666667, "is_reserved": 0, "lon": -77.02878666666666, "fusion_lon": 0.0, "is_disabled": 0, "fusion_lat": 0.0, "bike_id": "621c3bce2971460e7ef357b0bee2f2f2", "rental_uris": {"ios": "https://dc.lft.to/lastmile_qr_scan", "android": "https://dc.lft.to/lastmile_qr_scan"}}, {"name": "5e0a4c2d44d4e7e5e7e25076fed83fbd", "type": "electric_bike", "lat": 39.030502, "is_reserved": 0, "lon": -77.094805, "fusion_lon": 0.0, "is_disabled": 0, "fusion_lat": 0.0, "bike_id": "5e0a4c2d44d4e7e5e7e25076fed83fbd", "rental_uris": {"ios": "https://dc.lft.to/lastmile_qr_scan", "android": "https://dc.lft.to/lastmile_qr_scan"}}, {"name": "5aaf4e10032a4679bd276078efbbb017", "type": "electric_scooter", "lat": 38.918373, "is_reserved": 0, "lon": -77.061442, "fusion_lon": 0.0, "is_disabled": 0, "fusion_lat": 0.0, "bike_id": "5aaf4e10032a4679bd276078efbbb017", "rental_uris": {"ios": "https://dc.lft.to/lastmile_qr_scan", "android": "https://dc.lft.to/lastmile_qr_scan"}}, {"name": "93c0ac3e4f2af9f0e54ced7a4aee304b", "type": "electric_bike", "lat": 38.970561833333335, "is_reserved": 0, "lon": -76.9361695, "fusion_lon": 0.0, "is_disabled": 0, "fusion_lat": 0.0, "bike_id": "93c0ac3e4f2af9f0e54ced7a4aee304b", "rental_uris": {"ios": "https://dc.lft.to/lastmile_qr_scan", "android": "https://dc.lft.to/lastmile_qr_scan"}}, {"name": "fd10086d71830f339713a93dcba3bafb", "type": "electric_scooter", "lat": 38.9054, "is_reserved": 0, "lon": -77.05195633333334, "fusion_lon": 0.0, "is_disabled": 0, "fusion_lat": 0.0, "bike_id": "fd10086d71830f339713a93dcba3bafb", "rental_uris": {"ios": "https://dc.lft.to/lastmile_qr_scan", "android": "https://dc.lft.to/lastmile_qr_scan"}}, {"name": "76a2a348c0ece257219295545bacc24a", "type": "electric_bike", "lat": 38.90892266666667, "is_reserved": 0, "lon": -77.03204816666667, "fusion_lon": 0.0, "is_disabled": 0, "fusion_lat": 0.0, "bike_id": "76a2a348c0ece257219295545bacc24a", "rental_uris": {"ios": "https://dc.lft.to/lastmile_qr_scan", "android": "https://dc.lft.to/lastmile_qr_scan"}}, {"name": "9c7983a57f8127a36c0a48d44b5f4364", "type": "electric_scooter", "lat": 38.91545833333333, "is_reserved": 0, "lon": -77.03857516666666, "fusion_lon": 0.0, "is_disabled": 0, "fusion_lat": 0.0, "bike_id": "9c7983a57f8127a36c0a48d44b5f4364", "rental_uris": {"ios": "https://dc.lft.to/lastmile_qr_scan", "android": "https://dc.lft.to/lastmile_qr_scan"}}, {"name": "e7b9f07e99e3db586ba45cdb5e2d036f", "type": "electric_scooter", "lat": 38.93112516666667, "is_reserved": 0, "lon": -77.038409, "fusion_lon": 0.0, "is_disabled": 0, "fusion_lat": 0.0, "bike_id": "e7b9f07e99e3db586ba45cdb5e2d036f", "rental_uris": {"ios": "https://dc.lft.to/lastmile_qr_scan", "android": "https://dc.lft.to/lastmile_qr_scan"}}, {"name": "864a8723557898bffed19b74d3e49b48", "type": "electric_scooter", "lat": 38.90430166666667, "is_reserved": 0, "lon": -77.02843266666666, "fusion_lon": 0.0, "is_disabled": 0, "fusion_lat": 0.0, "bike_id": "864a8723557898bffed19b74d3e49b48", "rental_uris": {"ios": "https://dc.lft.to/lastmile_qr_scan", "android": "https://dc.lft.to/lastmile_qr_scan"}}, {"name": "21d4dfc59b6f5dc065e6da8544f16a18", "type": "electric_scooter", "lat": 38.92361483333333, "is_reserved": 0, "lon": -77.050484, "fusion_lon": 0.0, "is_disabled": 0, "fusion_lat": 0.0, "bike_id": "21d4dfc59b6f5dc065e6da8544f16a18", "rental_uris": {"ios": "https://dc.lft.to/lastmile_qr_scan", "android": "https://dc.lft.to/lastmile_qr_scan"}}, {"name": "5a69e2bf531d0604a08ba579df496aaa", "type": "electric_scooter", "lat": 38.905692333333334, "is_reserved": 0, "lon": -77.00577783333334, "fusion_lon": 0.0, "is_disabled": 0, "fusion_lat": 0.0, "bike_id": "5a69e2bf531d0604a08ba579df496aaa", "rental_uris": {"ios": "https://dc.lft.to/lastmile_qr_scan", "android": "https://dc.lft.to/lastmile_qr_scan"}}, {"name": "89fbbe2d2a35a58381d4cac97e9d5c7e", "type": "electric_scooter", "lat": 38.90717316666667, "is_reserved": 0, "lon": -77.042179, "fusion_lon": 0.0, "is_disabled": 0, "fusion_lat": 0.0, "bike_id": "89fbbe2d2a35a58381d4cac97e9d5c7e", "rental_uris": {"ios": "https://dc.lft.to/lastmile_qr_scan", "android": "https://dc.lft.to/lastmile_qr_scan"}}, {"name": "4ef3f6c1597d7d30ae41d0f22ddfd026", "type": "electric_scooter", "lat": 38.924529666666665, "is_reserved": 0, "lon": -77.03278866666666, "fusion_lon": 0.0, "is_disabled": 0, "fusion_lat": 0.0, "bike_id": "4ef3f6c1597d7d30ae41d0f22ddfd026", "rental_uris": {"ios": "https://dc.lft.to/lastmile_qr_scan", "android": "https://dc.lft.to/lastmile_qr_scan"}}, {"name": "fada081032f08d025287baf3e4192f59", "type": "electric_scooter", "lat": 38.87674, "is_reserved": 0, "lon": -77.01781783333334, "fusion_lon": 0.0, "is_disabled": 0, "fusion_lat": 0.0, "bike_id": "fada081032f08d025287baf3e4192f59", "rental_uris": {"ios": "https://dc.lft.to/lastmile_qr_scan", "android": "https://dc.lft.to/lastmile_qr_scan"}}, {"name": "113656e9a4867325d5bef3664658ecd9", "type": "electric_scooter", "lat": 38.899824, "is_reserved": 0, "lon": -77.0215775, "fusion_lon": 0.0, "is_disabled": 0, "fusion_lat": 0.0, "bike_id": "113656e9a4867325d5bef3664658ecd9", "rental_uris": {"ios": "https://dc.lft.to/lastmile_qr_scan", "android": "https://dc.lft.to/lastmile_qr_scan"}}, {"name": "5d41163dba7c116af3cde19564ff8996", "type": "electric_bike", "lat": 38.8130865, "is_reserved": 0, "lon": -77.05094716666666, "fusion_lon": 0.0, "is_disabled": 0, "fusion_lat": 0.0, "bike_id": "5d41163dba7c116af3cde19564ff8996", "rental_uris": {"ios": "https://dc.lft.to/lastmile_qr_scan", "android": "https://dc.lft.to/lastmile_qr_scan"}}, {"name": "6201e0250963e8ebcc9396afbf23780d", "type": "electric_scooter", "lat": 38.9099335, "is_reserved": 0, "lon": -77.04009616666667, "fusion_lon": 0.0, "is_disabled": 0, "fusion_lat": 0.0, "bike_id": "6201e0250963e8ebcc9396afbf23780d", "rental_uris": {"ios": "https://dc.lft.to/lastmile_qr_scan", "android": "https://dc.lft.to/lastmile_qr_scan"}}, {"name": "32931fda837bb9ef946f53354b93de0c", "type": "electric_scooter", "lat": 38.9324755, "is_reserved": 0, "lon": -77.03285183333334, "fusion_lon": 0.0, "is_disabled": 0, "fusion_lat": 0.0, "bike_id": "32931fda837bb9ef946f53354b93de0c", "rental_uris": {"ios": "https://dc.lft.to/lastmile_qr_scan", "android": "https://dc.lft.to/lastmile_qr_scan"}}, {"name": "9346a2bc3b4830ba2f9f7162ea8e3626", "type": "electric_scooter", "lat": 38.895549333333335, "is_reserved": 0, "lon": -76.95026133333333, "fusion_lon": 0.0, "is_disabled": 0, "fusion_lat": 0.0, "bike_id": "9346a2bc3b4830ba2f9f7162ea8e3626", "rental_uris": {"ios": "https://dc.lft.to/lastmile_qr_scan", "android": "https://dc.lft.to/lastmile_qr_scan"}}, {"name": "e6156e93d9b4a93e822d9091cf395e97", "type": "electric_scooter", "lat": 38.9215675, "is_reserved": 0, "lon": -77.033559, "fusion_lon": 0.0, "is_disabled": 0, "fusion_lat": 0.0, "bike_id": "e6156e93d9b4a93e822d9091cf395e97", "rental_uris": {"ios": "https://dc.lft.to/lastmile_qr_scan", "android": "https://dc.lft.to/lastmile_qr_scan"}}, {"name": "cd7aeabe97502caa603612329c75f334", "type": "electric_scooter", "lat": 38.902721, "is_reserved": 0, "lon": -77.017665, "fusion_lon": 0.0, "is_disabled": 0, "fusion_lat": 0.0, "bike_id": "cd7aeabe97502caa603612329c75f334", "rental_uris": {"ios": "https://dc.lft.to/lastmile_qr_scan", "android": "https://dc.lft.to/lastmile_qr_scan"}}, {"name": "3d9253e942e7e499c7f835893cdc98f8", "type": "electric_scooter", "lat": 38.90689666666667, "is_reserved": 0, "lon": -77.03225233333333, "fusion_lon": 0.0, "is_disabled": 0, "fusion_lat": 0.0, "bike_id": "3d9253e942e7e499c7f835893cdc98f8", "rental_uris": {"ios": "https://dc.lft.to/lastmile_qr_scan", "android": "https://dc.lft.to/lastmile_qr_scan"}}, {"name": "9f45ec9a7043efcd638fb36b037d4e05", "type": "electric_scooter", "lat": 38.92164916666667, "is_reserved": 0, "lon": -77.03856816666666, "fusion_lon": 0.0, "is_disabled": 0, "fusion_lat": 0.0, "bike_id": "9f45ec9a7043efcd638fb36b037d4e05", "rental_uris": {"ios": "https://dc.lft.to/lastmile_qr_scan", "android": "https://dc.lft.to/lastmile_qr_scan"}}, {"name": "5161231bf0fd8d2b29d947d76da27724", "type": "electric_scooter", "lat": 38.931736, "is_reserved": 0, "lon": -77.03636883333333, "fusion_lon": 0.0, "is_disabled": 0, "fusion_lat": 0.0, "bike_id": "5161231bf0fd8d2b29d947d76da27724", "rental_uris": {"ios": "https://dc.lft.to/lastmile_qr_scan", "android": "https://dc.lft.to/lastmile_qr_scan"}}, {"name": "3ffd2db74c3270aa4765cc16b1e1cb47", "type": "electric_scooter", "lat": 38.862108666666664, "is_reserved": 0, "lon": -76.9946655, "fusion_lon": 0.0, "is_disabled": 0, "fusion_lat": 0.0, "bike_id": "3ffd2db74c3270aa4765cc16b1e1cb47", "rental_uris": {"ios": "https://dc.lft.to/lastmile_qr_scan", "android": "https://dc.lft.to/lastmile_qr_scan"}}, {"name": "77401e288dad4c9ef5f7e83a68eb4df3", "type": "electric_scooter", "lat": 38.90042183333333, "is_reserved": 0, "lon": -77.02602716666667, "fusion_lon": 0.0, "is_disabled": 0, "fusion_lat": 0.0, "bike_id": "77401e288dad4c9ef5f7e83a68eb4df3", "rental_uris": {"ios": "https://dc.lft.to/lastmile_qr_scan", "android": "https://dc.lft.to/lastmile_qr_scan"}}, {"name": "1fe784259e48a0b6a2e87168a125e7ee", "type": "electric_scooter", "lat": 38.90281866666667, "is_reserved": 0, "lon": -77.06100916666666, "fusion_lon": 0.0, "is_disabled": 0, "fusion_lat": 0.0, "bike_id": "1fe784259e48a0b6a2e87168a125e7ee", "rental_uris": {"ios": "https://dc.lft.to/lastmile_qr_scan", "android": "https://dc.lft.to/lastmile_qr_scan"}}, {"name": "4eb4ae7429f560d4d1c6853ace4c887c", "type": "electric_scooter", "lat": 38.91596916666667, "is_reserved": 0, "lon": -77.03211366666666, "fusion_lon": 0.0, "is_disabled": 0, "fusion_lat": 0.0, "bike_id": "4eb4ae7429f560d4d1c6853ace4c887c", "rental_uris": {"ios": "https://dc.lft.to/lastmile_qr_scan", "android": "https://dc.lft.to/lastmile_qr_scan"}}, {"name": "a896db14d9e2f5b7fb6632d794f70f2c", "type": "electric_scooter", "lat": 38.90127866666667, "is_reserved": 0, "lon": -77.01194883333334, "fusion_lon": 0.0, "is_disabled": 0, "fusion_lat": 0.0, "bike_id": "a896db14d9e2f5b7fb6632d794f70f2c", "rental_uris": {"ios": "https://dc.lft.to/lastmile_qr_scan", "android": "https://dc.lft.to/lastmile_qr_scan"}}, {"name": "e53ee173d8cdca4e1f0982e13b267842", "type": "electric_bike", "lat": 38.992277, "is_reserved": 0, "lon": -76.8781865, "fusion_lon": 0.0, "is_disabled": 0, "fusion_lat": 0.0, "bike_id": "e53ee173d8cdca4e1f0982e13b267842", "rental_uris": {"ios": "https://dc.lft.to/lastmile_qr_scan", "android": "https://dc.lft.to/lastmile_qr_scan"}}, {"name": "19bd691a7e0729088c801b9468a255f3", "type": "electric_bike", "lat": 38.9221345, "is_reserved": 0, "lon": -76.988343, "fusion_lon": 0.0, "is_disabled": 0, "fusion_lat": 0.0, "bike_id": "19bd691a7e0729088c801b9468a255f3", "rental_uris": {"ios": "https://dc.lft.to/lastmile_qr_scan", "android": "https://dc.lft.to/lastmile_qr_scan"}}, {"name": "d3a2cf64617183abf03f99097ffc316a", "type": "electric_bike", "lat": 38.9695495, "is_reserved": 0, "lon": -76.9565705, "fusion_lon": 0.0, "is_disabled": 0, "fusion_lat": 0.0, "bike_id": "d3a2cf64617183abf03f99097ffc316a", "rental_uris": {"ios": "https://dc.lft.to/lastmile_qr_scan", "android": "https://dc.lft.to/lastmile_qr_scan"}}, {"name": "75a8f257c9d02f27946e791626221d27", "type": "electric_scooter", "lat": 38.8429345, "is_reserved": 0, "lon": -76.99950533333333, "fusion_lon": 0.0, "is_disabled": 0, "fusion_lat": 0.0, "bike_id": "75a8f257c9d02f27946e791626221d27", "rental_uris": {"ios": "https://dc.lft.to/lastmile_qr_scan", "android": "https://dc.lft.to/lastmile_qr_scan"}}, {"name": "deb66f178393774933945e6d4dc21f66", "type": "electric_scooter", "lat": 38.84428166666667, "is_reserved": 0, "lon": -76.99774766666667, "fusion_lon": 0.0, "is_disabled": 0, "fusion_lat": 0.0, "bike_id": "deb66f178393774933945e6d4dc21f66", "rental_uris": {"ios": "https://dc.lft.to/lastmile_qr_scan", "android": "https://dc.lft.to/lastmile_qr_scan"}}, {"name": "840aed46271a3df2876d2285b61f47ab", "type": "electric_scooter", "lat": 38.925725, "is_reserved": 0, "lon": -77.02720766666667, "fusion_lon": 0.0, "is_disabled": 0, "fusion_lat": 0.0, "bike_id": "840aed46271a3df2876d2285b61f47ab", "rental_uris": {"ios": "https://dc.lft.to/lastmile_qr_scan", "android": "https://dc.lft.to/lastmile_qr_scan"}}, {"name": "727d95d4f1582990a8296fc0a97a77d3", "type": "electric_bike", "lat": 38.97328616666667, "is_reserved": 0, "lon": -77.021482, "fusion_lon": 0.0, "is_disabled": 0, "fusion_lat": 0.0, "bike_id": "727d95d4f1582990a8296fc0a97a77d3", "rental_uris": {"ios": "https://dc.lft.to/lastmile_qr_scan", "android": "https://dc.lft.to/lastmile_qr_scan"}}, {"name": "9f7112894ee93d9cd8a0613e125e3d66", "type": "electric_scooter", "lat": 38.932523833333335, "is_reserved": 0, "lon": -77.04005316666667, "fusion_lon": 0.0, "is_disabled": 0, "fusion_lat": 0.0, "bike_id": "9f7112894ee93d9cd8a0613e125e3d66", "rental_uris": {"ios": "https://dc.lft.to/lastmile_qr_scan", "android": "https://dc.lft.to/lastmile_qr_scan"}}, {"name": "e130633519e77087723a7182767455d4", "type": "electric_scooter", "lat": 38.883982833333334, "is_reserved": 0, "lon": -76.930381, "fusion_lon": 0.0, "is_disabled": 0, "fusion_lat": 0.0, "bike_id": "e130633519e77087723a7182767455d4", "rental_uris": {"ios": "https://dc.lft.to/lastmile_qr_scan", "android": "https://dc.lft.to/lastmile_qr_scan"}}, {"name": "dabf06d5f153def75355ec202750147a", "type": "electric_scooter", "lat": 38.912736333333335, "is_reserved": 0, "lon": -77.02695933333334, "fusion_lon": 0.0, "is_disabled": 0, "fusion_lat": 0.0, "bike_id": "dabf06d5f153def75355ec202750147a", "rental_uris": {"ios": "https://dc.lft.to/lastmile_qr_scan", "android": "https://dc.lft.to/lastmile_qr_scan"}}, {"name": "60175525ef31150721a856df6204f3f7", "type": "electric_scooter", "lat": 38.91698933333333, "is_reserved": 0, "lon": -77.02247283333334, "fusion_lon": 0.0, "is_disabled": 0, "fusion_lat": 0.0, "bike_id": "60175525ef31150721a856df6204f3f7", "rental_uris": {"ios": "https://dc.lft.to/lastmile_qr_scan", "android": "https://dc.lft.to/lastmile_qr_scan"}}, {"name": "18c52a34fa5ed0ce428acf76a4112467", "type": "electric_scooter", "lat": 38.93235766666667, "is_reserved": 0, "lon": -77.03091966666666, "fusion_lon": 0.0, "is_disabled": 0, "fusion_lat": 0.0, "bike_id": "18c52a34fa5ed0ce428acf76a4112467", "rental_uris": {"ios": "https://dc.lft.to/lastmile_qr_scan", "android": "https://dc.lft.to/lastmile_qr_scan"}}, {"name": "331a4b85fcab65205d389cc9e4fa7680", "type": "electric_bike", "lat": 38.94547216666667, "is_reserved": 0, "lon": -76.8952655, "fusion_lon": 0.0, "is_disabled": 0, "fusion_lat": 0.0, "bike_id": "331a4b85fcab65205d389cc9e4fa7680", "rental_uris": {"ios": "https://dc.lft.to/lastmile_qr_scan", "android": "https://dc.lft.to/lastmile_qr_scan"}}, {"name": "45c8be6c2730e1106bf20327592a841f", "type": "electric_scooter", "lat": 38.92709116666666, "is_reserved": 0, "lon": -77.02095516666667, "fusion_lon": 0.0, "is_disabled": 0, "fusion_lat": 0.0, "bike_id": "45c8be6c2730e1106bf20327592a841f", "rental_uris": {"ios": "https://dc.lft.to/lastmile_qr_scan", "android": "https://dc.lft.to/lastmile_qr_scan"}}, {"name": "bc360604c0c889bdea91776c267033cc", "type": "electric_scooter", "lat": 38.9225025, "is_reserved": 0, "lon": -77.03071833333334, "fusion_lon": 0.0, "is_disabled": 0, "fusion_lat": 0.0, "bike_id": "bc360604c0c889bdea91776c267033cc", "rental_uris": {"ios": "https://dc.lft.to/lastmile_qr_scan", "android": "https://dc.lft.to/lastmile_qr_scan"}}, {"name": "3fb27627ebc17af01c012a91b9315c24", "type": "electric_scooter", "lat": 38.89510283333333, "is_reserved": 0, "lon": -77.01608683333333, "fusion_lon": 0.0, "is_disabled": 0, "fusion_lat": 0.0, "bike_id": "3fb27627ebc17af01c012a91b9315c24", "rental_uris": {"ios": "https://dc.lft.to/lastmile_qr_scan", "android": "https://dc.lft.to/lastmile_qr_scan"}}, {"name": "04f9d9d5c1f684dd4fc1c1cd6c4ffb59", "type": "electric_scooter", "lat": 38.920535666666666, "is_reserved": 0, "lon": -76.99883883333334, "fusion_lon": 0.0, "is_disabled": 0, "fusion_lat": 0.0, "bike_id": "04f9d9d5c1f684dd4fc1c1cd6c4ffb59", "rental_uris": {"ios": "https://dc.lft.to/lastmile_qr_scan", "android": "https://dc.lft.to/lastmile_qr_scan"}}, {"name": "706f10c3ea2c3fdf0db0beded3a65796", "type": "electric_scooter", "lat": 38.89368983333333, "is_reserved": 0, "lon": -76.94997883333333, "fusion_lon": 0.0, "is_disabled": 0, "fusion_lat": 0.0, "bike_id": "706f10c3ea2c3fdf0db0beded3a65796", "rental_uris": {"ios": "https://dc.lft.to/lastmile_qr_scan", "android": "https://dc.lft.to/lastmile_qr_scan"}}, {"name": "1d8b66704cf7ed3766490dd8969269a4", "type": "electric_scooter", "lat": 38.936257499999996, "is_reserved": 0, "lon": -77.03654733333333, "fusion_lon": 0.0, "is_disabled": 0, "fusion_lat": 0.0, "bike_id": "1d8b66704cf7ed3766490dd8969269a4", "rental_uris": {"ios": "https://dc.lft.to/lastmile_qr_scan", "android": "https://dc.lft.to/lastmile_qr_scan"}}, {"name": "40ebc55427fa1158f13bfef0f86046a7", "type": "electric_scooter", "lat": 38.89832, "is_reserved": 0, "lon": -76.94633683333333, "fusion_lon": 0.0, "is_disabled": 0, "fusion_lat": 0.0, "bike_id": "40ebc55427fa1158f13bfef0f86046a7", "rental_uris": {"ios": "https://dc.lft.to/lastmile_qr_scan", "android": "https://dc.lft.to/lastmile_qr_scan"}}, {"name": "d8b39027ae0677b093f2284890ecc25b", "type": "electric_scooter", "lat": 38.9292285, "is_reserved": 0, "lon": -77.0330215, "fusion_lon": 0.0, "is_disabled": 0, "fusion_lat": 0.0, "bike_id": "d8b39027ae0677b093f2284890ecc25b", "rental_uris": {"ios": "https://dc.lft.to/lastmile_qr_scan", "android": "https://dc.lft.to/lastmile_qr_scan"}}, {"name": "c770c6d8b472a054353316c21e5790f8", "type": "electric_scooter", "lat": 38.892337, "is_reserved": 0, "lon": -77.03178633333333, "fusion_lon": 0.0, "is_disabled": 0, "fusion_lat": 0.0, "bike_id": "c770c6d8b472a054353316c21e5790f8", "rental_uris": {"ios": "https://dc.lft.to/lastmile_qr_scan", "android": "https://dc.lft.to/lastmile_qr_scan"}}, {"name": "75e92fd9a66bca559166900977089f59", "type": "electric_scooter", "lat": 38.90284533333333, "is_reserved": 0, "lon": -77.03644383333334, "fusion_lon": 0.0, "is_disabled": 0, "fusion_lat": 0.0, "bike_id": "75e92fd9a66bca559166900977089f59", "rental_uris": {"ios": "https://dc.lft.to/lastmile_qr_scan", "android": "https://dc.lft.to/lastmile_qr_scan"}}, {"name": "55c96add83d26e18898deb8a66416f5e", "type": "electric_scooter", "lat": 38.93117633333333, "is_reserved": 0, "lon": -77.03598016666666, "fusion_lon": 0.0, "is_disabled": 0, "fusion_lat": 0.0, "bike_id": "55c96add83d26e18898deb8a66416f5e", "rental_uris": {"ios": "https://dc.lft.to/lastmile_qr_scan", "android": "https://dc.lft.to/lastmile_qr_scan"}}, {"name": "5ce58cfd3582e228f44243a81efa898d", "type": "electric_scooter", "lat": 38.867001, "is_reserved": 0, "lon": -76.98715283333334, "fusion_lon": 0.0, "is_disabled": 0, "fusion_lat": 0.0, "bike_id": "5ce58cfd3582e228f44243a81efa898d", "rental_uris": {"ios": "https://dc.lft.to/lastmile_qr_scan", "android": "https://dc.lft.to/lastmile_qr_scan"}}, {"name": "1aedfdebaa55b461a3e455fffec091a3", "type": "electric_bike", "lat": 39.0885475, "is_reserved": 0, "lon": -77.178424, "fusion_lon": 0.0, "is_disabled": 0, "fusion_lat": 0.0, "bike_id": "1aedfdebaa55b461a3e455fffec091a3", "rental_uris": {"ios": "https://dc.lft.to/lastmile_qr_scan", "android": "https://dc.lft.to/lastmile_qr_scan"}}, {"name": "7d4dc98c5d6904716b4fe4dfc5ff8781", "type": "electric_bike", "lat": 38.95085516666666, "is_reserved": 0, "lon": -77.01227733333333, "fusion_lon": 0.0, "is_disabled": 0, "fusion_lat": 0.0, "bike_id": "7d4dc98c5d6904716b4fe4dfc5ff8781", "rental_uris": {"ios": "https://dc.lft.to/lastmile_qr_scan", "android": "https://dc.lft.to/lastmile_qr_scan"}}, {"name": "7d541df15b16ad4713b0e70c4d0e3d93", "type": "electric_scooter", "lat": 38.915522833333334, "is_reserved": 0, "lon": -77.0226345, "fusion_lon": 0.0, "is_disabled": 0, "fusion_lat": 0.0, "bike_id": "7d541df15b16ad4713b0e70c4d0e3d93", "rental_uris": {"ios": "https://dc.lft.to/lastmile_qr_scan", "android": "https://dc.lft.to/lastmile_qr_scan"}}, {"name": "7991a84a3a6cedad9b16be4798662412", "type": "electric_bike", "lat": 38.928565, "is_reserved": 0, "lon": -77.22225183333333, "fusion_lon": 0.0, "is_disabled": 0, "fusion_lat": 0.0, "bike_id": "7991a84a3a6cedad9b16be4798662412", "rental_uris": {"ios": "https://dc.lft.to/lastmile_qr_scan", "android": "https://dc.lft.to/lastmile_qr_scan"}}, {"name": "4b87acc05ea8f4c6903434b29f43933b", "type": "electric_scooter", "lat": 38.930477, "is_reserved": 0, "lon": -77.0278495, "fusion_lon": 0.0, "is_disabled": 0, "fusion_lat": 0.0, "bike_id": "4b87acc05ea8f4c6903434b29f43933b", "rental_uris": {"ios": "https://dc.lft.to/lastmile_qr_scan", "android": "https://dc.lft.to/lastmile_qr_scan"}}, {"name": "c8b8c1cfe949931d2e479554c9c49948", "type": "electric_scooter", "lat": 38.90403116666667, "is_reserved": 0, "lon": -77.01838233333334, "fusion_lon": 0.0, "is_disabled": 0, "fusion_lat": 0.0, "bike_id": "c8b8c1cfe949931d2e479554c9c49948", "rental_uris": {"ios": "https://dc.lft.to/lastmile_qr_scan", "android": "https://dc.lft.to/lastmile_qr_scan"}}, {"name": "f0d4bf4547f9351185dcba6750cd5898", "type": "electric_scooter", "lat": 38.93543116666667, "is_reserved": 0, "lon": -77.03413583333334, "fusion_lon": 0.0, "is_disabled": 0, "fusion_lat": 0.0, "bike_id": "f0d4bf4547f9351185dcba6750cd5898", "rental_uris": {"ios": "https://dc.lft.to/lastmile_qr_scan", "android": "https://dc.lft.to/lastmile_qr_scan"}}, {"name": "1307c4909c0a5e456c493baea935926b", "type": "electric_scooter", "lat": 38.910333666666666, "is_reserved": 0, "lon": -77.04384466666667, "fusion_lon": 0.0, "is_disabled": 0, "fusion_lat": 0.0, "bike_id": "1307c4909c0a5e456c493baea935926b", "rental_uris": {"ios": "https://dc.lft.to/lastmile_qr_scan", "android": "https://dc.lft.to/lastmile_qr_scan"}}, {"name": "5b9195f87267f70893aee07465530a2a", "type": "electric_scooter", "lat": 38.9574965, "is_reserved": 0, "lon": -77.02415716666667, "fusion_lon": 0.0, "is_disabled": 0, "fusion_lat": 0.0, "bike_id": "5b9195f87267f70893aee07465530a2a", "rental_uris": {"ios": "https://dc.lft.to/lastmile_qr_scan", "android": "https://dc.lft.to/lastmile_qr_scan"}}, {"name": "db5a63e2db6774b8a3a1974fa21cc1d6", "type": "electric_scooter", "lat": 38.956475166666664, "is_reserved": 0, "lon": -77.03287816666666, "fusion_lon": 0.0, "is_disabled": 0, "fusion_lat": 0.0, "bike_id": "db5a63e2db6774b8a3a1974fa21cc1d6", "rental_uris": {"ios": "https://dc.lft.to/lastmile_qr_scan", "android": "https://dc.lft.to/lastmile_qr_scan"}}, {"name": "1e078331dc6dc79ef7b842083059c3c4", "type": "electric_bike", "lat": 38.938831, "is_reserved": 0, "lon": -76.954148, "fusion_lon": 0.0, "is_disabled": 0, "fusion_lat": 0.0, "bike_id": "1e078331dc6dc79ef7b842083059c3c4", "rental_uris": {"ios": "https://dc.lft.to/lastmile_qr_scan", "android": "https://dc.lft.to/lastmile_qr_scan"}}, {"name": "579c357021616e0e0bc066b354acae91", "type": "electric_bike", "lat": 38.924923166666666, "is_reserved": 0, "lon": -77.07328816666667, "fusion_lon": 0.0, "is_disabled": 0, "fusion_lat": 0.0, "bike_id": "579c357021616e0e0bc066b354acae91", "rental_uris": {"ios": "https://dc.lft.to/lastmile_qr_scan", "android": "https://dc.lft.to/lastmile_qr_scan"}}, {"name": "80f50b68644a6216e7a11b229c414c31", "type": "electric_scooter", "lat": 38.86535633333333, "is_reserved": 0, "lon": -76.9870645, "fusion_lon": 0.0, "is_disabled": 0, "fusion_lat": 0.0, "bike_id": "80f50b68644a6216e7a11b229c414c31", "rental_uris": {"ios": "https://dc.lft.to/lastmile_qr_scan", "android": "https://dc.lft.to/lastmile_qr_scan"}}, {"name": "99898e5d8793c43b577129eafac67818", "type": "electric_scooter", "lat": 38.91605116666667, "is_reserved": 0, "lon": -77.046034, "fusion_lon": 0.0, "is_disabled": 0, "fusion_lat": 0.0, "bike_id": "99898e5d8793c43b577129eafac67818", "rental_uris": {"ios": "https://dc.lft.to/lastmile_qr_scan", "android": "https://dc.lft.to/lastmile_qr_scan"}}, {"name": "e0b4787ea54729c5ae5d9cb21fd9fa39", "type": "electric_scooter", "lat": 38.912944833333334, "is_reserved": 0, "lon": -77.06114916666667, "fusion_lon": 0.0, "is_disabled": 0, "fusion_lat": 0.0, "bike_id": "e0b4787ea54729c5ae5d9cb21fd9fa39", "rental_uris": {"ios": "https://dc.lft.to/lastmile_qr_scan", "android": "https://dc.lft.to/lastmile_qr_scan"}}, {"name": "f21f42e45ec394679d819e62977dc545", "type": "electric_scooter", "lat": 38.86433783333333, "is_reserved": 0, "lon": -76.98004733333333, "fusion_lon": 0.0, "is_disabled": 0, "fusion_lat": 0.0, "bike_id": "f21f42e45ec394679d819e62977dc545", "rental_uris": {"ios": "https://dc.lft.to/lastmile_qr_scan", "android": "https://dc.lft.to/lastmile_qr_scan"}}, {"name": "13e98d31568358c8911d1d6d9a6a4491", "type": "electric_scooter", "lat": 38.920911833333335, "is_reserved": 0, "lon": -77.02592766666666, "fusion_lon": 0.0, "is_disabled": 0, "fusion_lat": 0.0, "bike_id": "13e98d31568358c8911d1d6d9a6a4491", "rental_uris": {"ios": "https://dc.lft.to/lastmile_qr_scan", "android": "https://dc.lft.to/lastmile_qr_scan"}}, {"name": "ad1b72e71e129864f1afed8d3b918f01", "type": "electric_scooter", "lat": 38.919119, "is_reserved": 0, "lon": -77.03420633333333, "fusion_lon": 0.0, "is_disabled": 0, "fusion_lat": 0.0, "bike_id": "ad1b72e71e129864f1afed8d3b918f01", "rental_uris": {"ios": "https://dc.lft.to/lastmile_qr_scan", "android": "https://dc.lft.to/lastmile_qr_scan"}}, {"name": "c685b49e83e03edf52c32bcbcb0b8e5b", "type": "electric_scooter", "lat": 38.936167166666664, "is_reserved": 0, "lon": -77.03218666666666, "fusion_lon": 0.0, "is_disabled": 0, "fusion_lat": 0.0, "bike_id": "c685b49e83e03edf52c32bcbcb0b8e5b", "rental_uris": {"ios": "https://dc.lft.to/lastmile_qr_scan", "android": "https://dc.lft.to/lastmile_qr_scan"}}, {"name": "04377027070e8f1ca0cd2873471097b7", "type": "electric_scooter", "lat": 38.90285683333333, "is_reserved": 0, "lon": -77.03992516666666, "fusion_lon": 0.0, "is_disabled": 0, "fusion_lat": 0.0, "bike_id": "04377027070e8f1ca0cd2873471097b7", "rental_uris": {"ios": "https://dc.lft.to/lastmile_qr_scan", "android": "https://dc.lft.to/lastmile_qr_scan"}}, {"name": "18c66ab9c2172c28c81f6a947f0b2882", "type": "electric_scooter", "lat": 38.933501166666666, "is_reserved": 0, "lon": -77.05862266666666, "fusion_lon": 0.0, "is_disabled": 0, "fusion_lat": 0.0, "bike_id": "18c66ab9c2172c28c81f6a947f0b2882", "rental_uris": {"ios": "https://dc.lft.to/lastmile_qr_scan", "android": "https://dc.lft.to/lastmile_qr_scan"}}, {"name": "c7cbe0d836d311f6dd6564742074477e", "type": "electric_scooter", "lat": 38.918983, "is_reserved": 0, "lon": -77.0418015, "fusion_lon": 0.0, "is_disabled": 0, "fusion_lat": 0.0, "bike_id": "c7cbe0d836d311f6dd6564742074477e", "rental_uris": {"ios": "https://dc.lft.to/lastmile_qr_scan", "android": "https://dc.lft.to/lastmile_qr_scan"}}, {"name": "f727b98b12930eca3421ce081fb2b284", "type": "electric_scooter", "lat": 38.9275165, "is_reserved": 0, "lon": -77.0241825, "fusion_lon": 0.0, "is_disabled": 0, "fusion_lat": 0.0, "bike_id": "f727b98b12930eca3421ce081fb2b284", "rental_uris": {"ios": "https://dc.lft.to/lastmile_qr_scan", "android": "https://dc.lft.to/lastmile_qr_scan"}}, {"name": "949cf833ea5e6d425e0cb4ada89851ae", "type": "electric_scooter", "lat": 38.91732066666667, "is_reserved": 0, "lon": -77.01020566666666, "fusion_lon": 0.0, "is_disabled": 0, "fusion_lat": 0.0, "bike_id": "949cf833ea5e6d425e0cb4ada89851ae", "rental_uris": {"ios": "https://dc.lft.to/lastmile_qr_scan", "android": "https://dc.lft.to/lastmile_qr_scan"}}, {"name": "5c512b0b3eca7c74635f68cc3191be1a", "type": "electric_scooter", "lat": 38.905641833333334, "is_reserved": 0, "lon": -77.0281765, "fusion_lon": 0.0, "is_disabled": 0, "fusion_lat": 0.0, "bike_id": "5c512b0b3eca7c74635f68cc3191be1a", "rental_uris": {"ios": "https://dc.lft.to/lastmile_qr_scan", "android": "https://dc.lft.to/lastmile_qr_scan"}}, {"name": "9c40e1177d704a94b04b4db8d9125fa4", "type": "electric_scooter", "lat": 38.924433666666665, "is_reserved": 0, "lon": -76.99332, "fusion_lon": 0.0, "is_disabled": 0, "fusion_lat": 0.0, "bike_id": "9c40e1177d704a94b04b4db8d9125fa4", "rental_uris": {"ios": "https://dc.lft.to/lastmile_qr_scan", "android": "https://dc.lft.to/lastmile_qr_scan"}}, {"name": "1ef56623a503d75b4e5d4834decb7819", "type": "electric_scooter", "lat": 38.91547533333333, "is_reserved": 0, "lon": -77.04611633333333, "fusion_lon": 0.0, "is_disabled": 0, "fusion_lat": 0.0, "bike_id": "1ef56623a503d75b4e5d4834decb7819", "rental_uris": {"ios": "https://dc.lft.to/lastmile_qr_scan", "android": "https://dc.lft.to/lastmile_qr_scan"}}, {"name": "503de47ce8d83dd704cfe07f0941ea15", "type": "electric_scooter", "lat": 38.908904666666665, "is_reserved": 0, "lon": -77.00570983333333, "fusion_lon": 0.0, "is_disabled": 0, "fusion_lat": 0.0, "bike_id": "503de47ce8d83dd704cfe07f0941ea15", "rental_uris": {"ios": "https://dc.lft.to/lastmile_qr_scan", "android": "https://dc.lft.to/lastmile_qr_scan"}}, {"name": "f266e76e0a457fb3b09f18e49f6e8108", "type": "electric_bike", "lat": 38.96126133333333, "is_reserved": 0, "lon": -77.03270516666667, "fusion_lon": 0.0, "is_disabled": 0, "fusion_lat": 0.0, "bike_id": "f266e76e0a457fb3b09f18e49f6e8108", "rental_uris": {"ios": "https://dc.lft.to/lastmile_qr_scan", "android": "https://dc.lft.to/lastmile_qr_scan"}}, {"name": "f99ef997c8a6f21282ce16796a38aeed", "type": "electric_scooter", "lat": 38.912629833333334, "is_reserved": 0, "lon": -77.03321133333333, "fusion_lon": 0.0, "is_disabled": 0, "fusion_lat": 0.0, "bike_id": "f99ef997c8a6f21282ce16796a38aeed", "rental_uris": {"ios": "https://dc.lft.to/lastmile_qr_scan", "android": "https://dc.lft.to/lastmile_qr_scan"}}, {"name": "2ad0d18a3eb09dfa656ccf4cb53a46f1", "type": "electric_scooter", "lat": 38.8950215, "is_reserved": 0, "lon": -77.0229495, "fusion_lon": 0.0, "is_disabled": 0, "fusion_lat": 0.0, "bike_id": "2ad0d18a3eb09dfa656ccf4cb53a46f1", "rental_uris": {"ios": "https://dc.lft.to/lastmile_qr_scan", "android": "https://dc.lft.to/lastmile_qr_scan"}}, {"name": "239e8e1962542f35ec64ba16f5ae2c6d", "type": "electric_scooter", "lat": 38.89874283333333, "is_reserved": 0, "lon": -76.931578, "fusion_lon": 0.0, "is_disabled": 0, "fusion_lat": 0.0, "bike_id": "239e8e1962542f35ec64ba16f5ae2c6d", "rental_uris": {"ios": "https://dc.lft.to/lastmile_qr_scan", "android": "https://dc.lft.to/lastmile_qr_scan"}}, {"name": "e761111bdc88b8e24320f1cfa2e73095", "type": "electric_scooter", "lat": 38.943950666666666, "is_reserved": 0, "lon": -77.03895333333334, "fusion_lon": 0.0, "is_disabled": 0, "fusion_lat": 0.0, "bike_id": "e761111bdc88b8e24320f1cfa2e73095", "rental_uris": {"ios": "https://dc.lft.to/lastmile_qr_scan", "android": "https://dc.lft.to/lastmile_qr_scan"}}, {"name": "41dde6e5f907a64bba3d9d6b55c7a059", "type": "electric_bike", "lat": 38.896846833333335, "is_reserved": 0, "lon": -76.94065083333334, "fusion_lon": 0.0, "is_disabled": 0, "fusion_lat": 0.0, "bike_id": "41dde6e5f907a64bba3d9d6b55c7a059", "rental_uris": {"ios": "https://dc.lft.to/lastmile_qr_scan", "android": "https://dc.lft.to/lastmile_qr_scan"}}, {"name": "815cce43f66c2f4f23ddff7ff62610d3", "type": "electric_scooter", "lat": 38.86422833333334, "is_reserved": 0, "lon": -76.98577316666666, "fusion_lon": 0.0, "is_disabled": 0, "fusion_lat": 0.0, "bike_id": "815cce43f66c2f4f23ddff7ff62610d3", "rental_uris": {"ios": "https://dc.lft.to/lastmile_qr_scan", "android": "https://dc.lft.to/lastmile_qr_scan"}}, {"name": "0cfd34d6ece0a4789cae01db8db2e55b", "type": "electric_bike", "lat": 38.886415, "is_reserved": 0, "lon": -76.95474533333334, "fusion_lon": 0.0, "is_disabled": 0, "fusion_lat": 0.0, "bike_id": "0cfd34d6ece0a4789cae01db8db2e55b", "rental_uris": {"ios": "https://dc.lft.to/lastmile_qr_scan", "android": "https://dc.lft.to/lastmile_qr_scan"}}, {"name": "a8932ef2f77377228172cd2926b43240", "type": "electric_scooter", "lat": 38.93352083333333, "is_reserved": 0, "lon": -77.0342955, "fusion_lon": 0.0, "is_disabled": 0, "fusion_lat": 0.0, "bike_id": "a8932ef2f77377228172cd2926b43240", "rental_uris": {"ios": "https://dc.lft.to/lastmile_qr_scan", "android": "https://dc.lft.to/lastmile_qr_scan"}}, {"name": "d6fb2fa4e9667eb8824cfdc311a221c3", "type": "electric_scooter", "lat": 38.93372216666667, "is_reserved": 0, "lon": -77.05722416666667, "fusion_lon": 0.0, "is_disabled": 0, "fusion_lat": 0.0, "bike_id": "d6fb2fa4e9667eb8824cfdc311a221c3", "rental_uris": {"ios": "https://dc.lft.to/lastmile_qr_scan", "android": "https://dc.lft.to/lastmile_qr_scan"}}, {"name": "ff57e8dfb2062c14c11bf808a8dd18ca", "type": "electric_scooter", "lat": 38.90719, "is_reserved": 0, "lon": -77.0250365, "fusion_lon": 0.0, "is_disabled": 0, "fusion_lat": 0.0, "bike_id": "ff57e8dfb2062c14c11bf808a8dd18ca", "rental_uris": {"ios": "https://dc.lft.to/lastmile_qr_scan", "android": "https://dc.lft.to/lastmile_qr_scan"}}, {"name": "17bee0c6cb6d6c6b5fd6329e5ea09fd2", "type": "electric_scooter", "lat": 38.925995, "is_reserved": 0, "lon": -77.02119016666667, "fusion_lon": 0.0, "is_disabled": 0, "fusion_lat": 0.0, "bike_id": "17bee0c6cb6d6c6b5fd6329e5ea09fd2", "rental_uris": {"ios": "https://dc.lft.to/lastmile_qr_scan", "android": "https://dc.lft.to/lastmile_qr_scan"}}, {"name": "0cba23f599eccc5ee436f5f2b4295c44", "type": "electric_scooter", "lat": 38.90561433333333, "is_reserved": 0, "lon": -77.0466205, "fusion_lon": 0.0, "is_disabled": 0, "fusion_lat": 0.0, "bike_id": "0cba23f599eccc5ee436f5f2b4295c44", "rental_uris": {"ios": "https://dc.lft.to/lastmile_qr_scan", "android": "https://dc.lft.to/lastmile_qr_scan"}}, {"name": "cf05dd1e62d39a5b8d5bc2b7b6f4a570", "type": "electric_scooter", "lat": 38.917661, "is_reserved": 0, "lon": -77.02709816666666, "fusion_lon": 0.0, "is_disabled": 0, "fusion_lat": 0.0, "bike_id": "cf05dd1e62d39a5b8d5bc2b7b6f4a570", "rental_uris": {"ios": "https://dc.lft.to/lastmile_qr_scan", "android": "https://dc.lft.to/lastmile_qr_scan"}}, {"name": "ae373afe218301dd9592c9277258fb15", "type": "electric_scooter", "lat": 38.8922975, "is_reserved": 0, "lon": -77.05000233333334, "fusion_lon": 0.0, "is_disabled": 0, "fusion_lat": 0.0, "bike_id": "ae373afe218301dd9592c9277258fb15", "rental_uris": {"ios": "https://dc.lft.to/lastmile_qr_scan", "android": "https://dc.lft.to/lastmile_qr_scan"}}, {"name": "b4fb3981aa3f63c2989705e916a825c4", "type": "electric_scooter", "lat": 38.937617333333336, "is_reserved": 0, "lon": -77.024878, "fusion_lon": 0.0, "is_disabled": 0, "fusion_lat": 0.0, "bike_id": "b4fb3981aa3f63c2989705e916a825c4", "rental_uris": {"ios": "https://dc.lft.to/lastmile_qr_scan", "android": "https://dc.lft.to/lastmile_qr_scan"}}, {"name": "dfa1c31fe2b17fcf5632459c6adcfa7f", "type": "electric_bike", "lat": 38.894552833333336, "is_reserved": 0, "lon": -76.97032066666667, "fusion_lon": 0.0, "is_disabled": 0, "fusion_lat": 0.0, "bike_id": "dfa1c31fe2b17fcf5632459c6adcfa7f", "rental_uris": {"ios": "https://dc.lft.to/lastmile_qr_scan", "android": "https://dc.lft.to/lastmile_qr_scan"}}, {"name": "177d6222d7e2641ec19899434408f941", "type": "electric_scooter", "lat": 38.9104245, "is_reserved": 0, "lon": -77.02817266666666, "fusion_lon": 0.0, "is_disabled": 0, "fusion_lat": 0.0, "bike_id": "177d6222d7e2641ec19899434408f941", "rental_uris": {"ios": "https://dc.lft.to/lastmile_qr_scan", "android": "https://dc.lft.to/lastmile_qr_scan"}}, {"name": "d24eaad0f697c879fc59b09a89d05cf6", "type": "electric_scooter", "lat": 38.95632616666666, "is_reserved": 0, "lon": -77.0254425, "fusion_lon": 0.0, "is_disabled": 0, "fusion_lat": 0.0, "bike_id": "d24eaad0f697c879fc59b09a89d05cf6", "rental_uris": {"ios": "https://dc.lft.to/lastmile_qr_scan", "android": "https://dc.lft.to/lastmile_qr_scan"}}, {"name": "6591ed3adc2ea76dc6575076a1965966", "type": "electric_scooter", "lat": 38.908358, "is_reserved": 0, "lon": -76.99977316666667, "fusion_lon": 0.0, "is_disabled": 0, "fusion_lat": 0.0, "bike_id": "6591ed3adc2ea76dc6575076a1965966", "rental_uris": {"ios": "https://dc.lft.to/lastmile_qr_scan", "android": "https://dc.lft.to/lastmile_qr_scan"}}, {"name": "c9caa11d81fa69be794e3d7b9bd7c82c", "type": "electric_scooter", "lat": 38.883244, "is_reserved": 0, "lon": -77.01764266666666, "fusion_lon": 0.0, "is_disabled": 0, "fusion_lat": 0.0, "bike_id": "c9caa11d81fa69be794e3d7b9bd7c82c", "rental_uris": {"ios": "https://dc.lft.to/lastmile_qr_scan", "android": "https://dc.lft.to/lastmile_qr_scan"}}, {"name": "b44997ecee960fadb841ad067f856370", "type": "electric_scooter", "lat": 38.856148833333336, "is_reserved": 0, "lon": -76.98018283333333, "fusion_lon": 0.0, "is_disabled": 0, "fusion_lat": 0.0, "bike_id": "b44997ecee960fadb841ad067f856370", "rental_uris": {"ios": "https://dc.lft.to/lastmile_qr_scan", "android": "https://dc.lft.to/lastmile_qr_scan"}}, {"name": "594fc9b2604cb0aebf69f891be9e4268", "type": "electric_scooter", "lat": 38.8429755, "is_reserved": 0, "lon": -76.99944466666666, "fusion_lon": 0.0, "is_disabled": 0, "fusion_lat": 0.0, "bike_id": "594fc9b2604cb0aebf69f891be9e4268", "rental_uris": {"ios": "https://dc.lft.to/lastmile_qr_scan", "android": "https://dc.lft.to/lastmile_qr_scan"}}, {"name": "548758624df3664e2aba330e059f8079", "type": "electric_scooter", "lat": 38.90450583333333, "is_reserved": 0, "lon": -76.99620883333333, "fusion_lon": 0.0, "is_disabled": 0, "fusion_lat": 0.0, "bike_id": "548758624df3664e2aba330e059f8079", "rental_uris": {"ios": "https://dc.lft.to/lastmile_qr_scan", "android": "https://dc.lft.to/lastmile_qr_scan"}}, {"name": "8e115b1bbd7850712432ed3403673647", "type": "electric_scooter", "lat": 38.878386, "is_reserved": 0, "lon": -76.9903885, "fusion_lon": 0.0, "is_disabled": 0, "fusion_lat": 0.0, "bike_id": "8e115b1bbd7850712432ed3403673647", "rental_uris": {"ios": "https://dc.lft.to/lastmile_qr_scan", "android": "https://dc.lft.to/lastmile_qr_scan"}}, {"name": "fb3aa6714ed2baf13f61ae27ba3aa8ec", "type": "electric_scooter", "lat": 38.91912816666667, "is_reserved": 0, "lon": -77.01343616666666, "fusion_lon": 0.0, "is_disabled": 0, "fusion_lat": 0.0, "bike_id": "fb3aa6714ed2baf13f61ae27ba3aa8ec", "rental_uris": {"ios": "https://dc.lft.to/lastmile_qr_scan", "android": "https://dc.lft.to/lastmile_qr_scan"}}, {"name": "6f6ef736092e2d29ee2695923f479b39", "type": "electric_scooter", "lat": 38.93483233333333, "is_reserved": 0, "lon": -77.03289416666667, "fusion_lon": 0.0, "is_disabled": 0, "fusion_lat": 0.0, "bike_id": "6f6ef736092e2d29ee2695923f479b39", "rental_uris": {"ios": "https://dc.lft.to/lastmile_qr_scan", "android": "https://dc.lft.to/lastmile_qr_scan"}}, {"name": "a5910493bf9e16c2c7ae777aa6d5e466", "type": "electric_scooter", "lat": 38.902949166666666, "is_reserved": 0, "lon": -76.998625, "fusion_lon": 0.0, "is_disabled": 0, "fusion_lat": 0.0, "bike_id": "a5910493bf9e16c2c7ae777aa6d5e466", "rental_uris": {"ios": "https://dc.lft.to/lastmile_qr_scan", "android": "https://dc.lft.to/lastmile_qr_scan"}}, {"name": "cd2be6e572e1c24d5a4369048c85aef8", "type": "electric_scooter", "lat": 38.91737783333333, "is_reserved": 0, "lon": -77.0684895, "fusion_lon": 0.0, "is_disabled": 0, "fusion_lat": 0.0, "bike_id": "cd2be6e572e1c24d5a4369048c85aef8", "rental_uris": {"ios": "https://dc.lft.to/lastmile_qr_scan", "android": "https://dc.lft.to/lastmile_qr_scan"}}, {"name": "949e60eeb5e99d4449dc3be18fe133cf", "type": "electric_scooter", "lat": 38.876312166666665, "is_reserved": 0, "lon": -76.96525233333334, "fusion_lon": 0.0, "is_disabled": 0, "fusion_lat": 0.0, "bike_id": "949e60eeb5e99d4449dc3be18fe133cf", "rental_uris": {"ios": "https://dc.lft.to/lastmile_qr_scan", "android": "https://dc.lft.to/lastmile_qr_scan"}}, {"name": "560ac43aa660cfc2d727b81bb76f93b6", "type": "electric_scooter", "lat": 38.90569283333333, "is_reserved": 0, "lon": -77.00591733333333, "fusion_lon": 0.0, "is_disabled": 0, "fusion_lat": 0.0, "bike_id": "560ac43aa660cfc2d727b81bb76f93b6", "rental_uris": {"ios": "https://dc.lft.to/lastmile_qr_scan", "android": "https://dc.lft.to/lastmile_qr_scan"}}, {"name": "b8b851ab56b2798b53136b461129e648", "type": "electric_scooter", "lat": 38.895841833333336, "is_reserved": 0, "lon": -76.93717583333333, "fusion_lon": 0.0, "is_disabled": 0, "fusion_lat": 0.0, "bike_id": "b8b851ab56b2798b53136b461129e648", "rental_uris": {"ios": "https://dc.lft.to/lastmile_qr_scan", "android": "https://dc.lft.to/lastmile_qr_scan"}}, {"name": "f44e634dbe7624091f4dd72d37cdc545", "type": "electric_scooter", "lat": 38.9268755, "is_reserved": 0, "lon": -77.06645733333333, "fusion_lon": 0.0, "is_disabled": 0, "fusion_lat": 0.0, "bike_id": "f44e634dbe7624091f4dd72d37cdc545", "rental_uris": {"ios": "https://dc.lft.to/lastmile_qr_scan", "android": "https://dc.lft.to/lastmile_qr_scan"}}, {"name": "32587b081d616fc6108bb734af673593", "type": "electric_scooter", "lat": 38.92090983333333, "is_reserved": 0, "lon": -77.03747133333333, "fusion_lon": 0.0, "is_disabled": 0, "fusion_lat": 0.0, "bike_id": "32587b081d616fc6108bb734af673593", "rental_uris": {"ios": "https://dc.lft.to/lastmile_qr_scan", "android": "https://dc.lft.to/lastmile_qr_scan"}}, {"name": "8488806fbee1409129d6d4ee233cd62a", "type": "electric_scooter", "lat": 38.9055435, "is_reserved": 0, "lon": -77.04658666666667, "fusion_lon": 0.0, "is_disabled": 0, "fusion_lat": 0.0, "bike_id": "8488806fbee1409129d6d4ee233cd62a", "rental_uris": {"ios": "https://dc.lft.to/lastmile_qr_scan", "android": "https://dc.lft.to/lastmile_qr_scan"}}, {"name": "f236219845f3b744c87cdddd7e465e84", "type": "electric_scooter", "lat": 38.89358333333333, "is_reserved": 0, "lon": -77.01988983333334, "fusion_lon": 0.0, "is_disabled": 0, "fusion_lat": 0.0, "bike_id": "f236219845f3b744c87cdddd7e465e84", "rental_uris": {"ios": "https://dc.lft.to/lastmile_qr_scan", "android": "https://dc.lft.to/lastmile_qr_scan"}}, {"name": "37c9a91ca54d39a0a42e6640dbf60e88", "type": "electric_bike", "lat": 38.89226983333333, "is_reserved": 0, "lon": -76.97029883333333, "fusion_lon": 0.0, "is_disabled": 0, "fusion_lat": 0.0, "bike_id": "37c9a91ca54d39a0a42e6640dbf60e88", "rental_uris": {"ios": "https://dc.lft.to/lastmile_qr_scan", "android": "https://dc.lft.to/lastmile_qr_scan"}}, {"name": "92620d26265e8fba7d7e336b1b790f99", "type": "electric_scooter", "lat": 38.940486166666666, "is_reserved": 0, "lon": -77.03284933333333, "fusion_lon": 0.0, "is_disabled": 0, "fusion_lat": 0.0, "bike_id": "92620d26265e8fba7d7e336b1b790f99", "rental_uris": {"ios": "https://dc.lft.to/lastmile_qr_scan", "android": "https://dc.lft.to/lastmile_qr_scan"}}, {"name": "4a8d9b0c7e73665a0d1d3a83e685ff22", "type": "electric_scooter", "lat": 38.8977465, "is_reserved": 0, "lon": -76.97729466666667, "fusion_lon": 0.0, "is_disabled": 0, "fusion_lat": 0.0, "bike_id": "4a8d9b0c7e73665a0d1d3a83e685ff22", "rental_uris": {"ios": "https://dc.lft.to/lastmile_qr_scan", "android": "https://dc.lft.to/lastmile_qr_scan"}}, {"name": "da756283ae48039049a173cde72d72ba", "type": "electric_scooter", "lat": 38.927742, "is_reserved": 0, "lon": -77.0277715, "fusion_lon": 0.0, "is_disabled": 0, "fusion_lat": 0.0, "bike_id": "da756283ae48039049a173cde72d72ba", "rental_uris": {"ios": "https://dc.lft.to/lastmile_qr_scan", "android": "https://dc.lft.to/lastmile_qr_scan"}}, {"name": "9c079825cac122c7905a06efd3f2e346", "type": "electric_scooter", "lat": 38.8637495, "is_reserved": 0, "lon": -76.990612, "fusion_lon": 0.0, "is_disabled": 0, "fusion_lat": 0.0, "bike_id": "9c079825cac122c7905a06efd3f2e346", "rental_uris": {"ios": "https://dc.lft.to/lastmile_qr_scan", "android": "https://dc.lft.to/lastmile_qr_scan"}}, {"name": "decb65678fe6e503d7e2b3c2f97e7e7d", "type": "electric_scooter", "lat": 38.941676666666666, "is_reserved": 0, "lon": -77.041374, "fusion_lon": 0.0, "is_disabled": 0, "fusion_lat": 0.0, "bike_id": "decb65678fe6e503d7e2b3c2f97e7e7d", "rental_uris": {"ios": "https://dc.lft.to/lastmile_qr_scan", "android": "https://dc.lft.to/lastmile_qr_scan"}}, {"name": "5dce4be1ec88af630b60be3635dab833", "type": "electric_scooter", "lat": 38.911023666666665, "is_reserved": 0, "lon": -77.0022015, "fusion_lon": 0.0, "is_disabled": 0, "fusion_lat": 0.0, "bike_id": "5dce4be1ec88af630b60be3635dab833", "rental_uris": {"ios": "https://dc.lft.to/lastmile_qr_scan", "android": "https://dc.lft.to/lastmile_qr_scan"}}, {"name": "9119ed0bafb34db2853c00225002d490", "type": "electric_scooter", "lat": 38.903787, "is_reserved": 0, "lon": -77.01105816666667, "fusion_lon": 0.0, "is_disabled": 0, "fusion_lat": 0.0, "bike_id": "9119ed0bafb34db2853c00225002d490", "rental_uris": {"ios": "https://dc.lft.to/lastmile_qr_scan", "android": "https://dc.lft.to/lastmile_qr_scan"}}, {"name": "5eb0d410b729310d7396b1ea17157518", "type": "electric_scooter", "lat": 38.928988333333336, "is_reserved": 0, "lon": -77.05454383333333, "fusion_lon": 0.0, "is_disabled": 0, "fusion_lat": 0.0, "bike_id": "5eb0d410b729310d7396b1ea17157518", "rental_uris": {"ios": "https://dc.lft.to/lastmile_qr_scan", "android": "https://dc.lft.to/lastmile_qr_scan"}}, {"name": "b58f929e5abf63535fa837b66552b86b", "type": "electric_scooter", "lat": 38.92000216666667, "is_reserved": 0, "lon": -77.039675, "fusion_lon": 0.0, "is_disabled": 0, "fusion_lat": 0.0, "bike_id": "b58f929e5abf63535fa837b66552b86b", "rental_uris": {"ios": "https://dc.lft.to/lastmile_qr_scan", "android": "https://dc.lft.to/lastmile_qr_scan"}}, {"name": "ca8ba230a62eea849dc6a2a3dfe65850", "type": "electric_scooter", "lat": 38.90341383333333, "is_reserved": 0, "lon": -77.06651983333333, "fusion_lon": 0.0, "is_disabled": 0, "fusion_lat": 0.0, "bike_id": "ca8ba230a62eea849dc6a2a3dfe65850", "rental_uris": {"ios": "https://dc.lft.to/lastmile_qr_scan", "android": "https://dc.lft.to/lastmile_qr_scan"}}, {"name": "4c7ca962c1f57742ac88703d883907eb", "type": "electric_scooter", "lat": 38.910268, "is_reserved": 0, "lon": -77.047957, "fusion_lon": 0.0, "is_disabled": 0, "fusion_lat": 0.0, "bike_id": "4c7ca962c1f57742ac88703d883907eb", "rental_uris": {"ios": "https://dc.lft.to/lastmile_qr_scan", "android": "https://dc.lft.to/lastmile_qr_scan"}}, {"name": "f0c77e932e32061e75856ab9e8d1d929", "type": "electric_bike", "lat": 38.94893066666667, "is_reserved": 0, "lon": -76.96373933333334, "fusion_lon": 0.0, "is_disabled": 0, "fusion_lat": 0.0, "bike_id": "f0c77e932e32061e75856ab9e8d1d929", "rental_uris": {"ios": "https://dc.lft.to/lastmile_qr_scan", "android": "https://dc.lft.to/lastmile_qr_scan"}}, {"name": "a388ea024aa44f08e3ec5aaa15c01245", "type": "electric_scooter", "lat": 38.92637166666667, "is_reserved": 0, "lon": -77.03401066666666, "fusion_lon": 0.0, "is_disabled": 0, "fusion_lat": 0.0, "bike_id": "a388ea024aa44f08e3ec5aaa15c01245", "rental_uris": {"ios": "https://dc.lft.to/lastmile_qr_scan", "android": "https://dc.lft.to/lastmile_qr_scan"}}, {"name": "8667fffe86e6ef6b98f59bbab47bf79b", "type": "electric_scooter", "lat": 38.856325, "is_reserved": 0, "lon": -76.974533, "fusion_lon": 0.0, "is_disabled": 0, "fusion_lat": 0.0, "bike_id": "8667fffe86e6ef6b98f59bbab47bf79b", "rental_uris": {"ios": "https://dc.lft.to/lastmile_qr_scan", "android": "https://dc.lft.to/lastmile_qr_scan"}}, {"name": "84f2df3a9dbe574cdf45ec5c05b2feb5", "type": "electric_scooter", "lat": 38.89875933333333, "is_reserved": 0, "lon": -76.93162183333334, "fusion_lon": 0.0, "is_disabled": 0, "fusion_lat": 0.0, "bike_id": "84f2df3a9dbe574cdf45ec5c05b2feb5", "rental_uris": {"ios": "https://dc.lft.to/lastmile_qr_scan", "android": "https://dc.lft.to/lastmile_qr_scan"}}, {"name": "31813ed5849bf87cfcceec504cdabc41", "type": "electric_scooter", "lat": 38.90382316666667, "is_reserved": 0, "lon": -77.03954183333333, "fusion_lon": 0.0, "is_disabled": 0, "fusion_lat": 0.0, "bike_id": "31813ed5849bf87cfcceec504cdabc41", "rental_uris": {"ios": "https://dc.lft.to/lastmile_qr_scan", "android": "https://dc.lft.to/lastmile_qr_scan"}}, {"name": "ea5d14ad7057925fb9be1ac35e82030d", "type": "electric_scooter", "lat": 38.903287166666665, "is_reserved": 0, "lon": -77.03833, "fusion_lon": 0.0, "is_disabled": 0, "fusion_lat": 0.0, "bike_id": "ea5d14ad7057925fb9be1ac35e82030d", "rental_uris": {"ios": "https://dc.lft.to/lastmile_qr_scan", "android": "https://dc.lft.to/lastmile_qr_scan"}}, {"name": "ae62305ae4a8ecf0c10052c7eb1c68aa", "type": "electric_bike", "lat": 38.838577666666666, "is_reserved": 0, "lon": -77.088672, "fusion_lon": 0.0, "is_disabled": 0, "fusion_lat": 0.0, "bike_id": "ae62305ae4a8ecf0c10052c7eb1c68aa", "rental_uris": {"ios": "https://dc.lft.to/lastmile_qr_scan", "android": "https://dc.lft.to/lastmile_qr_scan"}}, {"name": "75fb54cd0c92ffc85b050f0f71cd42ae", "type": "electric_bike", "lat": 38.901598666666665, "is_reserved": 0, "lon": -76.98014933333333, "fusion_lon": 0.0, "is_disabled": 0, "fusion_lat": 0.0, "bike_id": "75fb54cd0c92ffc85b050f0f71cd42ae", "rental_uris": {"ios": "https://dc.lft.to/lastmile_qr_scan", "android": "https://dc.lft.to/lastmile_qr_scan"}}, {"name": "199da1c519f9412b33dd8810342e938f", "type": "electric_scooter", "lat": 38.932205333333336, "is_reserved": 0, "lon": -77.035396, "fusion_lon": 0.0, "is_disabled": 0, "fusion_lat": 0.0, "bike_id": "199da1c519f9412b33dd8810342e938f", "rental_uris": {"ios": "https://dc.lft.to/lastmile_qr_scan", "android": "https://dc.lft.to/lastmile_qr_scan"}}, {"name": "601b5fe12ea93880ecbdfaaed7a139dc", "type": "electric_bike", "lat": 38.973279, "is_reserved": 0, "lon": -77.02144116666666, "fusion_lon": 0.0, "is_disabled": 0, "fusion_lat": 0.0, "bike_id": "601b5fe12ea93880ecbdfaaed7a139dc", "rental_uris": {"ios": "https://dc.lft.to/lastmile_qr_scan", "android": "https://dc.lft.to/lastmile_qr_scan"}}, {"name": "035b6cbbead8985eb14f87f8c38d2b7b", "type": "electric_scooter", "lat": 38.90018383333334, "is_reserved": 0, "lon": -77.00218233333334, "fusion_lon": 0.0, "is_disabled": 0, "fusion_lat": 0.0, "bike_id": "035b6cbbead8985eb14f87f8c38d2b7b", "rental_uris": {"ios": "https://dc.lft.to/lastmile_qr_scan", "android": "https://dc.lft.to/lastmile_qr_scan"}}, {"name": "96cb803fca259bd725821597cd412f25", "type": "electric_scooter", "lat": 38.88940383333333, "is_reserved": 0, "lon": -76.948149, "fusion_lon": 0.0, "is_disabled": 0, "fusion_lat": 0.0, "bike_id": "96cb803fca259bd725821597cd412f25", "rental_uris": {"ios": "https://dc.lft.to/lastmile_qr_scan", "android": "https://dc.lft.to/lastmile_qr_scan"}}, {"name": "ac79a65e3dd5f8407abe36c3345f563c", "type": "electric_scooter", "lat": 38.92915216666667, "is_reserved": 0, "lon": -77.02190833333333, "fusion_lon": 0.0, "is_disabled": 0, "fusion_lat": 0.0, "bike_id": "ac79a65e3dd5f8407abe36c3345f563c", "rental_uris": {"ios": "https://dc.lft.to/lastmile_qr_scan", "android": "https://dc.lft.to/lastmile_qr_scan"}}, {"name": "f71225895e8e57f9aa39fcc4439a832b", "type": "electric_scooter", "lat": 38.900291333333335, "is_reserved": 0, "lon": -76.99450633333333, "fusion_lon": 0.0, "is_disabled": 0, "fusion_lat": 0.0, "bike_id": "f71225895e8e57f9aa39fcc4439a832b", "rental_uris": {"ios": "https://dc.lft.to/lastmile_qr_scan", "android": "https://dc.lft.to/lastmile_qr_scan"}},