{"data": {"bikes": [{"bike_id": "70d29051dc2d373660c24d9c736efd79", "type": "electric_scooter", "is_disabled": 0, "lat": 38.90196183333333, "rental_uris": {"ios": "https://dc.lft.to/lastmile_qr_scan", "android": "https://dc.lft.to/lastmile_qr_scan"}, "is_reserved": 0, "fusion_lon": 0.0, "fusion_lat": 0.0, "lon": -77.02317766666667, "name": "70d29051dc2d373660c24d9c736efd79"}, {"bike_id": "3ed9fd6d355f4b15cb09c5dc0255f424", "type": "electric_scooter", "is_disabled": 0, "lat": 38.91121033333334, "rental_uris": {"ios": "https://dc.lft.to/lastmile_qr_scan", "android": "https://dc.lft.to/lastmile_qr_scan"}, "is_reserved": 0, "fusion_lon": 0.0, "fusion_lat": 0.0, "lon": -77.02238833333334, "name": "3ed9fd6d355f4b15cb09c5dc0255f424"}, {"bike_id": "d400d6562b9f559e03031c8e25125639", "type": "electric_scooter", "is_disabled": 0, "lat": 38.9195895, "rental_uris": {"ios": "https://dc.lft.to/lastmile_qr_scan", "android": "https://dc.lft.to/lastmile_qr_scan"}, "is_reserved": 0, "fusion_lon": 0.0, "fusion_lat": 0.0, "lon": -77.0144205, "name": "d400d6562b9f559e03031c8e25125639"}, {"bike_id": "5251349d061163d1664b1d7dc067b100", "type": "electric_bike", "is_disabled": 0, "lat": 39.014785333333336, "rental_uris": {"ios": "https://dc.lft.to/lastmile_qr_scan", "android": "https://dc.lft.to/lastmile_qr_scan"}, "is_reserved": 0, "fusion_lon": 0.0, "fusion_lat": 0.0, "lon": -77.054972, "name": "5251349d061163d1664b1d7dc067b100"}, {"bike_id": "524c845d9e3ac843db69bd28320de8ef", "type": "electric_scooter", "is_disabled": 0, "lat": 38.91707483333333, "rental_uris": {"ios": "https://dc.lft.to/lastmile_qr_scan", "android": "https://dc.lft.to/lastmile_qr_scan"}, "is_reserved": 0, "fusion_lon": 0.0, "fusion_lat": 0.0, "lon": -77.02887983333333, "name": "524c845d9e3ac843db69bd28320de8ef"}, {"bike_id": "9a2b71d6fae06d1d7d9a6b7e63375663", "type": "electric_scooter", "is_disabled": 0, "lat": 38.894742666666666, "rental_uris": {"ios": "https://dc.lft.to/lastmile_qr_scan", "android": "https://dc.lft.to/lastmile_qr_scan"}, "is_reserved": 0, "fusion_lon": 0.0, "fusion_lat": 0.0, "lon": -76.99486066666667, "name": "9a2b71d6fae06d1d7d9a6b7e63375663"}, {"bike_id": "c3080ff0f32068245a047a7c1ff0eb8e", "type": "electric_scooter", "is_disabled": 0, "lat": 38.89836016666667, "rental_uris": {"ios": "https://dc.lft.to/lastmile_qr_scan", "android": "https://dc.lft.to/lastmile_qr_scan"}, "is_reserved": 0, "fusion_lon": 0.0, "fusion_lat": 0.0, "lon": -76.9463925, "name": "c3080ff0f32068245a047a7c1ff0eb8e"}, {"bike_id": "0ddbbef69783b0eea32ee55e1a24a95e", "type": "electric_scooter", "is_disabled": 0, "lat": 38.9058875, "rental_uris": {"ios": "https://dc.lft.to/lastmile_qr_scan", "android": "https://dc.lft.to/lastmile_qr_scan"}, "is_reserved": 0, "fusion_lon": 0.0, "fusion_lat": 0.0, "lon": -77.00304216666666, "name": "0ddbbef69783b0eea32ee55e1a24a95e"}, {"bike_id": "b2f1eac944951579cee33b06c8b247c6", "type": "electric_bike", "is_disabled": 0, "lat": 38.908661333333335, "rental_uris": {"ios": "https://dc.lft.to/lastmile_qr_scan", "android": "https://dc.lft.to/lastmile_qr_scan"}, "is_reserved": 0, "fusion_lon": 0.0, "fusion_lat": 0.0, "lon": -77.076462, "name": "b2f1eac944951579cee33b06c8b247c6"}, {"bike_id": "ea443307857032038bb9083508955d2a", "type": "electric_scooter", "is_disabled": 0, "lat": 38.889620666666666, "rental_uris": {"ios": "https://dc.lft.to/lastmile_qr_scan", "android": "https://dc.lft.to/lastmile_qr_scan"}, "is_reserved": 0, "fusion_lon": 0.0, "fusion_lat": 0.0, "lon": -77.02823133333334, "name": "ea443307857032038bb9083508955d2a"}, {"bike_id": "81d670dd7b81e020b0cc010aa4d978d9", "type": "electric_scooter", "is_disabled": 0, "lat": 38.91669, "rental_uris": {"ios": "https://dc.lft.to/lastmile_qr_scan", "android": "https://dc.lft.to/lastmile_qr_scan"}, "is_reserved": 0, "fusion_lon": 0.0, "fusion_lat": 0.0, "lon": -77.023056, "name": "81d670dd7b81e020b0cc010aa4d978d9"}, {"bike_id": "b94a8539e0d1c1a346781c6dcbc5a5ee", "type": "electric_scooter", "is_disabled": 0, "lat": 38.91662866666667, "rental_uris": {"ios": "https://dc.lft.to/lastmile_qr_scan", "android": "https://dc.lft.to/lastmile_qr_scan"}, "is_reserved": 0, "fusion_lon": 0.0, "fusion_lat": 0.0, "lon": -77.0438315, "name": "b94a8539e0d1c1a346781c6dcbc5a5ee"}, {"bike_id": "1affde278bea907b6f6e7fb1df2381ab", "type": "electric_scooter", "is_disabled": 0, "lat": 38.90239233333333, "rental_uris": {"ios": "https://dc.lft.to/lastmile_qr_scan", "android": "https://dc.lft.to/lastmile_qr_scan"}, "is_reserved": 0, "fusion_lon": 0.0, "fusion_lat": 0.0, "lon": -77.00200183333334, "name": "1affde278bea907b6f6e7fb1df2381ab"}, {"bike_id": "815818cd59234ca541898cf7d6a61e4e", "type": "electric_scooter", "is_disabled": 0, "lat": 38.93142533333334, "rental_uris": {"ios": "https://dc.lft.to/lastmile_qr_scan", "android": "https://dc.lft.to/lastmile_qr_scan"}, "is_reserved": 0, "fusion_lon": 0.0, "fusion_lat": 0.0, "lon": -77.0335945, "name": "815818cd59234ca541898cf7d6a61e4e"}, {"bike_id": "d14150ee04f92706ff32c0066e28e21d", "type": "electric_bike", "is_disabled": 0, "lat": 38.8824495, "rental_uris": {"ios": "https://dc.lft.to/lastmile_qr_scan", "android": "https://dc.lft.to/lastmile_qr_scan"}, "is_reserved": 0, "fusion_lon": 0.0, "fusion_lat": 0.0, "lon": -76.96257766666666, "name": "d14150ee04f92706ff32c0066e28e21d"}, {"bike_id": "f45c5f78e145b1e7d28f15bb4f4a5ec6", "type": "electric_scooter", "is_disabled": 0, "lat": 38.92970033333334, "rental_uris": {"ios": "https://dc.lft.to/lastmile_qr_scan", "android": "https://dc.lft.to/lastmile_qr_scan"}, "is_reserved": 0, "fusion_lon": 0.0, "fusion_lat": 0.0, "lon": -77.0437615, "name": "f45c5f78e145b1e7d28f15bb4f4a5ec6"}, {"bike_id": "876c7719fa6bbe32937bdf90bfa6b463", "type": "electric_bike", "is_disabled": 0, "lat": 38.932270333333335, "rental_uris": {"ios": "https://dc.lft.to/lastmile_qr_scan", "android": "https://dc.lft.to/lastmile_qr_scan"}, "is_reserved": 0, "fusion_lon": 0.0, "fusion_lat": 0.0, "lon": -77.18123516666667, "name": "876c7719fa6bbe32937bdf90bfa6b463"}, {"bike_id": "8bdff85f50710b6e31a4fd50f3e9b53a", "type": "electric_scooter", "is_disabled": 0, "lat": 38.91614033333333, "rental_uris": {"ios": "https://dc.lft.to/lastmile_qr_scan", "android": "https://dc.lft.to/lastmile_qr_scan"}, "is_reserved": 0, "fusion_lon": 0.0, "fusion_lat": 0.0, "lon": -77.048838, "name": "8bdff85f50710b6e31a4fd50f3e9b53a"}, {"bike_id": "25112ec6d47ac302854c0d41ac0f00a9", "type": "electric_scooter", "is_disabled": 0, "lat": 38.910756666666664, "rental_uris": {"ios": "https://dc.lft.to/lastmile_qr_scan", "android": "https://dc.lft.to/lastmile_qr_scan"}, "is_reserved": 0, "fusion_lon": 0.0, "fusion_lat": 0.0, "lon": -77.03725416666667, "name": "25112ec6d47ac302854c0d41ac0f00a9"}, {"bike_id": "219f4cd8a4698716d110071f751b8bc7", "type": "electric_scooter", "is_disabled": 0, "lat": 38.916835666666664, "rental_uris": {"ios": "https://dc.lft.to/lastmile_qr_scan", "android": "https://dc.lft.to/lastmile_qr_scan"}, "is_reserved": 0, "fusion_lon": 0.0, "fusion_lat": 0.0, "lon": -77.03745333333333, "name": "219f4cd8a4698716d110071f751b8bc7"}, {"bike_id": "f63ce8bffd1d4c9d2197ebb4b1344b2b", "type": "electric_scooter", "is_disabled": 0, "lat": 38.934560833333336, "rental_uris": {"ios": "https://dc.lft.to/lastmile_qr_scan", "android": "https://dc.lft.to/lastmile_qr_scan"}, "is_reserved": 0, "fusion_lon": 0.0, "fusion_lat": 0.0, "lon": -77.02796566666666, "name": "f63ce8bffd1d4c9d2197ebb4b1344b2b"}, {"bike_id": "fa2477c9346a16bc5f9afd558b70cfee", "type": "electric_scooter", "is_disabled": 0, "lat": 38.904674666666665, "rental_uris": {"ios": "https://dc.lft.to/lastmile_qr_scan", "android": "https://dc.lft.to/lastmile_qr_scan"}, "is_reserved": 0, "fusion_lon": 0.0, "fusion_lat": 0.0, "lon": -76.9761375, "name": "fa2477c9346a16bc5f9afd558b70cfee"}, {"bike_id": "25588859a9dd42d923c24eff27986a26", "type": "electric_scooter", "is_disabled": 0, "lat": 38.906782166666666, "rental_uris": {"ios": "https://dc.lft.to/lastmile_qr_scan", "android": "https://dc.lft.to/lastmile_qr_scan"}, "is_reserved": 0, "fusion_lon": 0.0, "fusion_lat": 0.0, "lon": -76.97998233333334, "name": "25588859a9dd42d923c24eff27986a26"}, {"bike_id": "6106c6c8d1681eedc91fcc3c25474b20", "type": "electric_scooter", "is_disabled": 0, "lat": 38.9215425, "rental_uris": {"ios": "https://dc.lft.to/lastmile_qr_scan", "android": "https://dc.lft.to/lastmile_qr_scan"}, "is_reserved": 0, "fusion_lon": 0.0, "fusion_lat": 0.0, "lon": -77.03519266666666, "name": "6106c6c8d1681eedc91fcc3c25474b20"}, {"bike_id": "452aa66bbf2bd96d04745982b0e012c9", "type": "electric_scooter", "is_disabled": 0, "lat": 38.948533166666664, "rental_uris": {"ios": "https://dc.lft.to/lastmile_qr_scan", "android": "https://dc.lft.to/lastmile_qr_scan"}, "is_reserved": 0, "fusion_lon": 0.0, "fusion_lat": 0.0, "lon": -77.08022116666666, "name": "452aa66bbf2bd96d04745982b0e012c9"}, {"bike_id": "2e7370d3bbd69325dc7b7c07797e85b6", "type": "electric_scooter", "is_disabled": 0, "lat": 38.91333983333333, "rental_uris": {"ios": "https://dc.lft.to/lastmile_qr_scan", "android": "https://dc.lft.to/lastmile_qr_scan"}, "is_reserved": 0, "fusion_lon": 0.0, "fusion_lat": 0.0, "lon": -77.03180183333333, "name": "2e7370d3bbd69325dc7b7c07797e85b6"}, {"bike_id": "a3b105f02711c0b76dec0d4ea735cfb9", "type": "electric_scooter", "is_disabled": 0, "lat": 38.894758833333334, "rental_uris": {"ios": "https://dc.lft.to/lastmile_qr_scan", "android": "https://dc.lft.to/lastmile_qr_scan"}, "is_reserved": 0, "fusion_lon": 0.0, "fusion_lat": 0.0, "lon": -76.9486355, "name": "a3b105f02711c0b76dec0d4ea735cfb9"}, {"bike_id": "d0479f192494b023ccedf358aca54d87", "type": "electric_scooter", "is_disabled": 0, "lat": 38.911820666666664, "rental_uris": {"ios": "https://dc.lft.to/lastmile_qr_scan", "android": "https://dc.lft.to/lastmile_qr_scan"}, "is_reserved": 0, "fusion_lon": 0.0, "fusion_lat": 0.0, "lon": -77.04035283333333, "name": "d0479f192494b023ccedf358aca54d87"}, {"bike_id": "18ded0c462a4c534da98edd5c31f23b7", "type": "electric_scooter", "is_disabled": 0, "lat": 38.9012415, "rental_uris": {"ios": "https://dc.lft.to/lastmile_qr_scan", "android": "https://dc.lft.to/lastmile_qr_scan"}, "is_reserved": 0, "fusion_lon": 0.0, "fusion_lat": 0.0, "lon": -77.00323166666666, "name": "18ded0c462a4c534da98edd5c31f23b7"}, {"bike_id": "fbc32b24f58e2cd8e8bcb72ad2f67fff", "type": "electric_scooter", "is_disabled": 0, "lat": 38.914891, "rental_uris": {"ios": "https://dc.lft.to/lastmile_qr_scan", "android": "https://dc.lft.to/lastmile_qr_scan"}, "is_reserved": 0, "fusion_lon": 0.0, "fusion_lat": 0.0, "lon": -77.03766466666667, "name": "fbc32b24f58e2cd8e8bcb72ad2f67fff"}, {"bike_id": "d3c668a3126f6c0db5aa5f0ab0617249", "type": "electric_scooter", "is_disabled": 0, "lat": 38.90760816666667, "rental_uris": {"ios": "https://dc.lft.to/lastmile_qr_scan", "android": "https://dc.lft.to/lastmile_qr_scan"}, "is_reserved": 0, "fusion_lon": 0.0, "fusion_lat": 0.0, "lon": -77.01697133333333, "name": "d3c668a3126f6c0db5aa5f0ab0617249"}, {"bike_id": "5a0f3666779785019335b8a15b959cc0", "type": "electric_scooter", "is_disabled": 0, "lat": 38.916932, "rental_uris": {"ios": "https://dc.lft.to/lastmile_qr_scan", "android": "https://dc.lft.to/lastmile_qr_scan"}, "is_reserved": 0, "fusion_lon": 0.0, "fusion_lat": 0.0, "lon": -77.037659, "name": "5a0f3666779785019335b8a15b959cc0"}, {"bike_id": "d1fb4862ea2c448df760a1d154330879", "type": "electric_scooter", "is_disabled": 0, "lat": 38.89704033333334, "rental_uris": {"ios": "https://dc.lft.to/lastmile_qr_scan", "android": "https://dc.lft.to/lastmile_qr_scan"}, "is_reserved": 0, "fusion_lon": 0.0, "fusion_lat": 0.0, "lon": -77.0083065, "name": "d1fb4862ea2c448df760a1d154330879"}, {"bike_id": "7eb95f593ff7515cbf32a7692308aa0d", "type": "electric_scooter", "is_disabled": 0, "lat": 38.905262, "rental_uris": {"ios": "https://dc.lft.to/lastmile_qr_scan", "android": "https://dc.lft.to/lastmile_qr_scan"}, "is_reserved": 0, "fusion_lon": 0.0, "fusion_lat": 0.0, "lon": -77.01721116666667, "name": "7eb95f593ff7515cbf32a7692308aa0d"}, {"bike_id": "1c707d9a921f549c28ec20e15950a677", "type": "electric_scooter", "is_disabled": 0, "lat": 38.898417333333335, "rental_uris": {"ios": "https://dc.lft.to/lastmile_qr_scan", "android": "https://dc.lft.to/lastmile_qr_scan"}, "is_reserved": 0, "fusion_lon": 0.0, "fusion_lat": 0.0, "lon": -76.9463065, "name": "1c707d9a921f549c28ec20e15950a677"}, {"bike_id": "8aeb77a30f238774381fade8dfe4cf70", "type": "electric_scooter", "is_disabled": 0, "lat": 38.91916766666667, "rental_uris": {"ios": "https://dc.lft.to/lastmile_qr_scan", "android": "https://dc.lft.to/lastmile_qr_scan"}, "is_reserved": 0, "fusion_lon": 0.0, "fusion_lat": 0.0, "lon": -77.04505883333333, "name": "8aeb77a30f238774381fade8dfe4cf70"}, {"bike_id": "4e99fe74ab97548f85775dd3d1c7b937", "type": "electric_scooter", "is_disabled": 0, "lat": 38.92534033333333, "rental_uris": {"ios": "https://dc.lft.to/lastmile_qr_scan", "android": "https://dc.lft.to/lastmile_qr_scan"}, "is_reserved": 0, "fusion_lon": 0.0, "fusion_lat": 0.0, "lon": -77.04271383333334, "name": "4e99fe74ab97548f85775dd3d1c7b937"}, {"bike_id": "13fff543683ee7e5370091aa798dfae0", "type": "electric_scooter", "is_disabled": 0, "lat": 38.90272266666667, "rental_uris": {"ios": "https://dc.lft.to/lastmile_qr_scan", "android": "https://dc.lft.to/lastmile_qr_scan"}, "is_reserved": 0, "fusion_lon": 0.0, "fusion_lat": 0.0, "lon": -77.05480983333334, "name": "13fff543683ee7e5370091aa798dfae0"}, {"bike_id": "1a7375338126a52ca8084e4e977b0ea7", "type": "electric_scooter", "is_disabled": 0, "lat": 38.896159, "rental_uris": {"ios": "https://dc.lft.to/lastmile_qr_scan", "android": "https://dc.lft.to/lastmile_qr_scan"}, "is_reserved": 0, "fusion_lon": 0.0, "fusion_lat": 0.0, "lon": -76.98571183333334, "name": "1a7375338126a52ca8084e4e977b0ea7"}, {"bike_id": "c1a1fac59e459ccb45284fa46ca5f56e", "type": "electric_scooter", "is_disabled": 0, "lat": 38.9215245, "rental_uris": {"ios": "https://dc.lft.to/lastmile_qr_scan", "android": "https://dc.lft.to/lastmile_qr_scan"}, "is_reserved": 0, "fusion_lon": 0.0, "fusion_lat": 0.0, "lon": -77.03517866666667, "name": "c1a1fac59e459ccb45284fa46ca5f56e"}, {"bike_id": "52f5635454fae96e868627064efb93fa", "type": "electric_scooter", "is_disabled": 0, "lat": 38.908444333333335, "rental_uris": {"ios": "https://dc.lft.to/lastmile_qr_scan", "android": "https://dc.lft.to/lastmile_qr_scan"}, "is_reserved": 0, "fusion_lon": 0.0, "fusion_lat": 0.0, "lon": -77.03191183333334, "name": "52f5635454fae96e868627064efb93fa"}, {"bike_id": "ac4bf99bcd537789ebbb96cfc7e2f67c", "type": "electric_scooter", "is_disabled": 0, "lat": 38.887715, "rental_uris": {"ios": "https://dc.lft.to/lastmile_qr_scan", "android": "https://dc.lft.to/lastmile_qr_scan"}, "is_reserved": 0, "fusion_lon": 0.0, "fusion_lat": 0.0, "lon": -77.017252, "name": "ac4bf99bcd537789ebbb96cfc7e2f67c"}, {"bike_id": "8afc908d4b8c354871dc7b53e7c75d23", "type": "electric_scooter", "is_disabled": 0, "lat": 38.892339, "rental_uris": {"ios": "https://dc.lft.to/lastmile_qr_scan", "android": "https://dc.lft.to/lastmile_qr_scan"}, "is_reserved": 0, "fusion_lon": 0.0, "fusion_lat": 0.0, "lon": -77.04674683333333, "name": "8afc908d4b8c354871dc7b53e7c75d23"}, {"bike_id": "f3515189a6f061393015274084740084", "type": "electric_scooter", "is_disabled": 0, "lat": 38.907151, "rental_uris": {"ios": "https://dc.lft.to/lastmile_qr_scan", "android": "https://dc.lft.to/lastmile_qr_scan"}, "is_reserved": 0, "fusion_lon": 0.0, "fusion_lat": 0.0, "lon": -77.043249, "name": "f3515189a6f061393015274084740084"}, {"bike_id": "3b2290182b36dc5ac28bbf8641e8fdd9", "type": "electric_scooter", "is_disabled": 0, "lat": 38.89876966666667, "rental_uris": {"ios": "https://dc.lft.to/lastmile_qr_scan", "android": "https://dc.lft.to/lastmile_qr_scan"}, "is_reserved": 0, "fusion_lon": 0.0, "fusion_lat": 0.0, "lon": -76.93188083333334, "name": "3b2290182b36dc5ac28bbf8641e8fdd9"}, {"bike_id": "3da87a42559a0acdcf31edd9b48e0b3c", "type": "electric_scooter", "is_disabled": 0, "lat": 38.930666333333335, "rental_uris": {"ios": "https://dc.lft.to/lastmile_qr_scan", "android": "https://dc.lft.to/lastmile_qr_scan"}, "is_reserved": 0, "fusion_lon": 0.0, "fusion_lat": 0.0, "lon": -77.04136883333334, "name": "3da87a42559a0acdcf31edd9b48e0b3c"}, {"bike_id": "0de2eb74f7b91d09d58c0d1954279fb7", "type": "electric_bike", "is_disabled": 0, "lat": 38.9397055, "rental_uris": {"ios": "https://dc.lft.to/lastmile_qr_scan", "android": "https://dc.lft.to/lastmile_qr_scan"}, "is_reserved": 0, "fusion_lon": 0.0, "fusion_lat": 0.0, "lon": -77.05258733333334, "name": "0de2eb74f7b91d09d58c0d1954279fb7"}, {"bike_id": "c82e8bd8a6a4204f3aa7a22d9f4ecb62", "type": "electric_scooter", "is_disabled": 0, "lat": 38.902880333333336, "rental_uris": {"ios": "https://dc.lft.to/lastmile_qr_scan", "android": "https://dc.lft.to/lastmile_qr_scan"}, "is_reserved": 0, "fusion_lon": 0.0, "fusion_lat": 0.0, "lon": -77.03669483333333, "name": "c82e8bd8a6a4204f3aa7a22d9f4ecb62"}, {"bike_id": "a4bac7d3352d13c0575ea47ab98c48ee", "type": "electric_scooter", "is_disabled": 0, "lat": 38.91119366666667, "rental_uris": {"ios": "https://dc.lft.to/lastmile_qr_scan", "android": "https://dc.lft.to/lastmile_qr_scan"}, "is_reserved": 0, "fusion_lon": 0.0, "fusion_lat": 0.0, "lon": -77.03736166666667, "name": "a4bac7d3352d13c0575ea47ab98c48ee"}, {"bike_id": "c483fbb73eebbcaf090b928c3244b50e", "type": "electric_scooter", "is_disabled": 0, "lat": 38.898271, "rental_uris": {"ios": "https://dc.lft.to/lastmile_qr_scan", "android": "https://dc.lft.to/lastmile_qr_scan"}, "is_reserved": 0, "fusion_lon": 0.0, "fusion_lat": 0.0, "lon": -77.03203666666667, "name": "c483fbb73eebbcaf090b928c3244b50e"}, {"bike_id": "52e620e7eefb1aea4fd3369d25eae8f7", "type": "electric_scooter", "is_disabled": 0, "lat": 38.92125883333333, "rental_uris": {"ios": "https://dc.lft.to/lastmile_qr_scan", "android": "https://dc.lft.to/lastmile_qr_scan"}, "is_reserved": 0, "fusion_lon": 0.0, "fusion_lat": 0.0, "lon": -77.02713083333333, "name": "52e620e7eefb1aea4fd3369d25eae8f7"}, {"bike_id": "1033a6ac99fbf65282f387d79cfd50f2", "type": "electric_scooter", "is_disabled": 0, "lat": 38.9224625, "rental_uris": {"ios": "https://dc.lft.to/lastmile_qr_scan", "android": "https://dc.lft.to/lastmile_qr_scan"}, "is_reserved": 0, "fusion_lon": 0.0, "fusion_lat": 0.0, "lon": -77.042728, "name": "1033a6ac99fbf65282f387d79cfd50f2"}, {"bike_id": "3c9604d13feaacb6921aa0f31aed2a4c", "type": "electric_scooter", "is_disabled": 0, "lat": 38.9310245, "rental_uris": {"ios": "https://dc.lft.to/lastmile_qr_scan", "android": "https://dc.lft.to/lastmile_qr_scan"}, "is_reserved": 0, "fusion_lon": 0.0, "fusion_lat": 0.0, "lon": -77.041238, "name": "3c9604d13feaacb6921aa0f31aed2a4c"}, {"bike_id": "7ad67f6c3dc782eeffaf96f38c7cb68c", "type": "electric_scooter", "is_disabled": 0, "lat": 38.900202, "rental_uris": {"ios": "https://dc.lft.to/lastmile_qr_scan", "android": "https://dc.lft.to/lastmile_qr_scan"}, "is_reserved": 0, "fusion_lon": 0.0, "fusion_lat": 0.0, "lon": -76.99809433333333, "name": "7ad67f6c3dc782eeffaf96f38c7cb68c"}, {"bike_id": "6f803cd86d77d84240ee7d841de6bc88", "type": "electric_scooter", "is_disabled": 0, "lat": 38.923337, "rental_uris": {"ios": "https://dc.lft.to/lastmile_qr_scan", "android": "https://dc.lft.to/lastmile_qr_scan"}, "is_reserved": 0, "fusion_lon": 0.0, "fusion_lat": 0.0, "lon": -77.02697166666667, "name": "6f803cd86d77d84240ee7d841de6bc88"}, {"bike_id": "0a7953e235e0ca72cfabf3dc793e2d64", "type": "electric_scooter", "is_disabled": 0, "lat": 38.924706, "rental_uris": {"ios": "https://dc.lft.to/lastmile_qr_scan", "android": "https://dc.lft.to/lastmile_qr_scan"}, "is_reserved": 0, "fusion_lon": 0.0, "fusion_lat": 0.0, "lon": -77.02831516666667, "name": "0a7953e235e0ca72cfabf3dc793e2d64"}, {"bike_id": "4a67cca00d5a8525f12e19bf07526929", "type": "electric_scooter", "is_disabled": 0, "lat": 38.883926333333335, "rental_uris": {"ios": "https://dc.lft.to/lastmile_qr_scan", "android": "https://dc.lft.to/lastmile_qr_scan"}, "is_reserved": 0, "fusion_lon": 0.0, "fusion_lat": 0.0, "lon": -77.019907, "name": "4a67cca00d5a8525f12e19bf07526929"}, {"bike_id": "de05adf59926ed10cd540896abcd53dc", "type": "electric_scooter", "is_disabled": 0, "lat": 38.921123, "rental_uris": {"ios": "https://dc.lft.to/lastmile_qr_scan", "android": "https://dc.lft.to/lastmile_qr_scan"}, "is_reserved": 0, "fusion_lon": 0.0, "fusion_lat": 0.0, "lon": -77.0468945, "name": "de05adf59926ed10cd540896abcd53dc"}, {"bike_id": "cc9f4af8e9f1869d56eefa4786607685", "type": "electric_scooter", "is_disabled": 0, "lat": 38.89723083333333, "rental_uris": {"ios": "https://dc.lft.to/lastmile_qr_scan", "android": "https://dc.lft.to/lastmile_qr_scan"}, "is_reserved": 0, "fusion_lon": 0.0, "fusion_lat": 0.0, "lon": -77.024575, "name": "cc9f4af8e9f1869d56eefa4786607685"}, {"bike_id": "ab7a8b8970b0e39806b77756fcd75e4f", "type": "electric_bike", "is_disabled": 0, "lat": 38.85935116666667, "rental_uris": {"ios": "https://dc.lft.to/lastmile_qr_scan", "android": "https://dc.lft.to/lastmile_qr_scan"}, "is_reserved": 0, "fusion_lon": 0.0, "fusion_lat": 0.0, "lon": -77.11834816666666, "name": "ab7a8b8970b0e39806b77756fcd75e4f"}, {"bike_id": "18f88c0a414c5e5fa8e3cbd9d03349cc", "type": "electric_bike", "is_disabled": 0, "lat": 38.82365716666666, "rental_uris": {"ios": "https://dc.lft.to/lastmile_qr_scan", "android": "https://dc.lft.to/lastmile_qr_scan"}, "is_reserved": 0, "fusion_lon": 0.0, "fusion_lat": 0.0, "lon": -77.00219733333333, "name": "18f88c0a414c5e5fa8e3cbd9d03349cc"}, {"bike_id": "cb78e1dec2852a0e23ddf65cf708fc59", "type": "electric_scooter", "is_disabled": 0, "lat": 38.866552166666665, "rental_uris": {"ios": "https://dc.lft.to/lastmile_qr_scan", "android": "https://dc.lft.to/lastmile_qr_scan"}, "is_reserved": 0, "fusion_lon": 0.0, "fusion_lat": 0.0, "lon": -76.98895133333333, "name": "cb78e1dec2852a0e23ddf65cf708fc59"}, {"bike_id": "0ffec31c679899e254144d3f2aa7896c", "type": "electric_scooter", "is_disabled": 0, "lat": 38.934011, "rental_uris": {"ios": "https://dc.lft.to/lastmile_qr_scan", "android": "https://dc.lft.to/lastmile_qr_scan"}, "is_reserved": 0, "fusion_lon": 0.0, "fusion_lat": 0.0, "lon": -77.02210466666666, "name": "0ffec31c679899e254144d3f2aa7896c"}, {"bike_id": "d40b02bb5d4d4962b9d7c4c2f029b65b", "type": "electric_scooter", "is_disabled": 0, "lat": 38.86978783333333, "rental_uris": {"ios": "https://dc.lft.to/lastmile_qr_scan", "android": "https://dc.lft.to/lastmile_qr_scan"}, "is_reserved": 0, "fusion_lon": 0.0, "fusion_lat": 0.0, "lon": -76.9817535, "name": "d40b02bb5d4d4962b9d7c4c2f029b65b"}, {"bike_id": "e04d73475d9da4ba570489cf48fb0222", "type": "electric_scooter", "is_disabled": 0, "lat": 38.9141745, "rental_uris": {"ios": "https://dc.lft.to/lastmile_qr_scan", "android": "https://dc.lft.to/lastmile_qr_scan"}, "is_reserved": 0, "fusion_lon": 0.0, "fusion_lat": 0.0, "lon": -77.04813933333334, "name": "e04d73475d9da4ba570489cf48fb0222"}, {"bike_id": "eb7db1064cbe50bd4d6378097a9f5d8e", "type": "electric_bike", "is_disabled": 0, "lat": 38.910171, "rental_uris": {"ios": "https://dc.lft.to/lastmile_qr_scan", "android": "https://dc.lft.to/lastmile_qr_scan"}, "is_reserved": 0, "fusion_lon": 0.0, "fusion_lat": 0.0, "lon": -77.22799733333333, "name": "eb7db1064cbe50bd4d6378097a9f5d8e"}, {"bike_id": "28f932abddc5f5ec3666191b498de26e", "type": "electric_scooter", "is_disabled": 0, "lat": 38.922837666666666, "rental_uris": {"ios": "https://dc.lft.to/lastmile_qr_scan", "android": "https://dc.lft.to/lastmile_qr_scan"}, "is_reserved": 0, "fusion_lon": 0.0, "fusion_lat": 0.0, "lon": -77.02244033333334, "name": "28f932abddc5f5ec3666191b498de26e"}, {"bike_id": "39b0416be42894849a598130933f3a3d", "type": "electric_scooter", "is_disabled": 0, "lat": 38.9243815, "rental_uris": {"ios": "https://dc.lft.to/lastmile_qr_scan", "android": "https://dc.lft.to/lastmile_qr_scan"}, "is_reserved": 0, "fusion_lon": 0.0, "fusion_lat": 0.0, "lon": -77.04010783333334, "name": "39b0416be42894849a598130933f3a3d"}, {"bike_id": "b3107aaa49fdbbfdd714ea9d7d6b16da", "type": "electric_bike", "is_disabled": 0, "lat": 38.88056866666667, "rental_uris": {"ios": "https://dc.lft.to/lastmile_qr_scan", "android": "https://dc.lft.to/lastmile_qr_scan"}, "is_reserved": 0, "fusion_lon": 0.0, "fusion_lat": 0.0, "lon": -76.96242416666666, "name": "b3107aaa49fdbbfdd714ea9d7d6b16da"}, {"bike_id": "d2cc07633119feab75d4ffa3378c08fe", "type": "electric_scooter", "is_disabled": 0, "lat": 38.90205733333333, "rental_uris": {"ios": "https://dc.lft.to/lastmile_qr_scan", "android": "https://dc.lft.to/lastmile_qr_scan"}, "is_reserved": 0, "fusion_lon": 0.0, "fusion_lat": 0.0, "lon": -77.04041833333333, "name": "d2cc07633119feab75d4ffa3378c08fe"}, {"bike_id": "8d1b06c117bb20088b50bb6361655200", "type": "electric_bike", "is_disabled": 0, "lat": 38.872708833333334, "rental_uris": {"ios": "https://dc.lft.to/lastmile_qr_scan", "android": "https://dc.lft.to/lastmile_qr_scan"}, "is_reserved": 0, "fusion_lon": 0.0, "fusion_lat": 0.0, "lon": -77.23250483333334, "name": "8d1b06c117bb20088b50bb6361655200"}, {"bike_id": "a64627395922c492aa34cece9b454ccf", "type": "electric_scooter", "is_disabled": 0, "lat": 38.9478785, "rental_uris": {"ios": "https://dc.lft.to/lastmile_qr_scan", "android": "https://dc.lft.to/lastmile_qr_scan"}, "is_reserved": 0, "fusion_lon": 0.0, "fusion_lat": 0.0, "lon": -77.02132933333333, "name": "a64627395922c492aa34cece9b454ccf"}, {"bike_id": "0514d177b1bd346020e431bde0bb9def", "type": "electric_scooter", "is_disabled": 0, "lat": 38.912093666666664, "rental_uris": {"ios": "https://dc.lft.to/lastmile_qr_scan", "android": "https://dc.lft.to/lastmile_qr_scan"}, "is_reserved": 0, "fusion_lon": 0.0, "fusion_lat": 0.0, "lon": -77.03838933333333, "name": "0514d177b1bd346020e431bde0bb9def"}, {"bike_id": "40249821f7ad43d32a4f9e3265a6bac0", "type": "electric_scooter", "is_disabled": 0, "lat": 38.93307933333333, "rental_uris": {"ios": "https://dc.lft.to/lastmile_qr_scan", "android": "https://dc.lft.to/lastmile_qr_scan"}, "is_reserved": 0, "fusion_lon": 0.0, "fusion_lat": 0.0, "lon": -77.03261966666666, "name": "40249821f7ad43d32a4f9e3265a6bac0"}, {"bike_id": "97617559a3d62bdb847e03c7bd1252a9", "type": "electric_scooter", "is_disabled": 0, "lat": 38.9131255, "rental_uris": {"ios": "https://dc.lft.to/lastmile_qr_scan", "android": "https://dc.lft.to/lastmile_qr_scan"}, "is_reserved": 0, "fusion_lon": 0.0, "fusion_lat": 0.0, "lon": -77.04528683333334, "name": "97617559a3d62bdb847e03c7bd1252a9"}, {"bike_id": "46a16b43926bd39c8c1e030c022f6250", "type": "electric_bike", "is_disabled": 0, "lat": 38.99594716666667, "rental_uris": {"ios": "https://dc.lft.to/lastmile_qr_scan", "android": "https://dc.lft.to/lastmile_qr_scan"}, "is_reserved": 0, "fusion_lon": 0.0, "fusion_lat": 0.0, "lon": -77.02675966666666, "name": "46a16b43926bd39c8c1e030c022f6250"}, {"bike_id": "e8768b23bb26d02d3f50fe5e2b67344b", "type": "electric_scooter", "is_disabled": 0, "lat": 38.892399166666664, "rental_uris": {"ios": "https://dc.lft.to/lastmile_qr_scan", "android": "https://dc.lft.to/lastmile_qr_scan"}, "is_reserved": 0, "fusion_lon": 0.0, "fusion_lat": 0.0, "lon": -77.02199683333333, "name": "e8768b23bb26d02d3f50fe5e2b67344b"}, {"bike_id": "47ebc7e2bf0ded387fc9af020abe1d21", "type": "electric_scooter", "is_disabled": 0, "lat": 38.90142566666667, "rental_uris": {"ios": "https://dc.lft.to/lastmile_qr_scan", "android": "https://dc.lft.to/lastmile_qr_scan"}, "is_reserved": 0, "fusion_lon": 0.0, "fusion_lat": 0.0, "lon": -77.00075033333333, "name": "47ebc7e2bf0ded387fc9af020abe1d21"}, {"bike_id": "31450dcea341f752ea86f572dd1062b5", "type": "electric_scooter", "is_disabled": 0, "lat": 38.87706583333333, "rental_uris": {"ios": "https://dc.lft.to/lastmile_qr_scan", "android": "https://dc.lft.to/lastmile_qr_scan"}, "is_reserved": 0, "fusion_lon": 0.0, "fusion_lat": 0.0, "lon": -77.01891866666666, "name": "31450dcea341f752ea86f572dd1062b5"}, {"bike_id": "bb53ddd96631de2b3a0e557051815cd1", "type": "electric_scooter", "is_disabled": 0, "lat": 38.93129966666667, "rental_uris": {"ios": "https://dc.lft.to/lastmile_qr_scan", "android": "https://dc.lft.to/lastmile_qr_scan"}, "is_reserved": 0, "fusion_lon": 0.0, "fusion_lat": 0.0, "lon": -76.99573716666667, "name": "bb53ddd96631de2b3a0e557051815cd1"}, {"bike_id": "20d8f4c040df399349b4734be6c56e06", "type": "electric_scooter", "is_disabled": 0, "lat": 38.933302166666664, "rental_uris": {"ios": "https://dc.lft.to/lastmile_qr_scan", "android": "https://dc.lft.to/lastmile_qr_scan"}, "is_reserved": 0, "fusion_lon": 0.0, "fusion_lat": 0.0, "lon": -77.02069133333333, "name": "20d8f4c040df399349b4734be6c56e06"}, {"bike_id": "13a999da8cbad424fea74c5db6b2b9af", "type": "electric_scooter", "is_disabled": 0, "lat": 38.9168885, "rental_uris": {"ios": "https://dc.lft.to/lastmile_qr_scan", "android": "https://dc.lft.to/lastmile_qr_scan"}, "is_reserved": 0, "fusion_lon": 0.0, "fusion_lat": 0.0, "lon": -77.0295155, "name": "13a999da8cbad424fea74c5db6b2b9af"}, {"bike_id": "b2c987ab4bd46eff734384334f09b441", "type": "electric_scooter", "is_disabled": 0, "lat": 38.90706133333333, "rental_uris": {"ios": "https://dc.lft.to/lastmile_qr_scan", "android": "https://dc.lft.to/lastmile_qr_scan"}, "is_reserved": 0, "fusion_lon": 0.0, "fusion_lat": 0.0, "lon": -77.02398316666667, "name": "b2c987ab4bd46eff734384334f09b441"}, {"bike_id": "8af1c8b5c586c83d020f414726a5591e", "type": "electric_scooter", "is_disabled": 0, "lat": 38.908458333333336, "rental_uris": {"ios": "https://dc.lft.to/lastmile_qr_scan", "android": "https://dc.lft.to/lastmile_qr_scan"}, "is_reserved": 0, "fusion_lon": 0.0, "fusion_lat": 0.0, "lon": -77.023292, "name": "8af1c8b5c586c83d020f414726a5591e"}, {"bike_id": "a6690e3893059aaff9bdc394de2e0a83", "type": "electric_scooter", "is_disabled": 0, "lat": 38.89960883333333, "rental_uris": {"ios": "https://dc.lft.to/lastmile_qr_scan", "android": "https://dc.lft.to/lastmile_qr_scan"}, "is_reserved": 0, "fusion_lon": 0.0, "fusion_lat": 0.0, "lon": -77.00346683333333, "name": "a6690e3893059aaff9bdc394de2e0a83"}, {"bike_id": "e50b212aa59697c24e5fb851d5b0d47f", "type": "electric_scooter", "is_disabled": 0, "lat": 38.947404, "rental_uris": {"ios": "https://dc.lft.to/lastmile_qr_scan", "android": "https://dc.lft.to/lastmile_qr_scan"}, "is_reserved": 0, "fusion_lon": 0.0, "fusion_lat": 0.0, "lon": -77.075925, "name": "e50b212aa59697c24e5fb851d5b0d47f"}, {"bike_id": "fa5b2a302f79c7aac2769e5e88aa6bca", "type": "electric_scooter", "is_disabled": 0, "lat": 38.9096695, "rental_uris": {"ios": "https://dc.lft.to/lastmile_qr_scan", "android": "https://dc.lft.to/lastmile_qr_scan"}, "is_reserved": 0, "fusion_lon": 0.0, "fusion_lat": 0.0, "lon": -77.04661616666667, "name": "fa5b2a302f79c7aac2769e5e88aa6bca"}, {"bike_id": "98ad6dfdad37acd80bcd8e73e929ac40", "type": "electric_scooter", "is_disabled": 0, "lat": 38.9182045, "rental_uris": {"ios": "https://dc.lft.to/lastmile_qr_scan", "android": "https://dc.lft.to/lastmile_qr_scan"}, "is_reserved": 0, "fusion_lon": 0.0, "fusion_lat": 0.0, "lon": -77.049459, "name": "98ad6dfdad37acd80bcd8e73e929ac40"}, {"bike_id": "f5896111be5952b4adcba58536d7c44f", "type": "electric_scooter", "is_disabled": 0, "lat": 38.8669795, "rental_uris": {"ios": "https://dc.lft.to/lastmile_qr_scan", "android": "https://dc.lft.to/lastmile_qr_scan"}, "is_reserved": 0, "fusion_lon": 0.0, "fusion_lat": 0.0, "lon": -76.987158, "name": "f5896111be5952b4adcba58536d7c44f"}, {"bike_id": "038d3e333e13c67142330802d6028289", "type": "electric_scooter", "is_disabled": 0, "lat": 38.9169965, "rental_uris": {"ios": "https://dc.lft.to/lastmile_qr_scan", "android": "https://dc.lft.to/lastmile_qr_scan"}, "is_reserved": 0, "fusion_lon": 0.0, "fusion_lat": 0.0, "lon": -77.00659716666667, "name": "038d3e333e13c67142330802d6028289"}, {"bike_id": "4adc6b6ba4772180c415ce63db56ecd1", "type": "electric_bike", "is_disabled": 0, "lat": 39.0528075, "rental_uris": {"ios": "https://dc.lft.to/lastmile_qr_scan", "android": "https://dc.lft.to/lastmile_qr_scan"}, "is_reserved": 0, "fusion_lon": 0.0, "fusion_lat": 0.0, "lon": -77.0806705, "name": "4adc6b6ba4772180c415ce63db56ecd1"}, {"bike_id": "aa2d41e2219b269a04f034225e9ff9be", "type": "electric_scooter", "is_disabled": 0, "lat": 38.91555666666667, "rental_uris": {"ios": "https://dc.lft.to/lastmile_qr_scan", "android": "https://dc.lft.to/lastmile_qr_scan"}, "is_reserved": 0, "fusion_lon": 0.0, "fusion_lat": 0.0, "lon": -77.02045583333333, "name": "aa2d41e2219b269a04f034225e9ff9be"}, {"bike_id": "ac7b139ee75bfef215c9cc602c53f044", "type": "electric_scooter", "is_disabled": 0, "lat": 38.897806, "rental_uris": {"ios": "https://dc.lft.to/lastmile_qr_scan", "android": "https://dc.lft.to/lastmile_qr_scan"}, "is_reserved": 0, "fusion_lon": 0.0, "fusion_lat": 0.0, "lon": -76.94736183333333, "name": "ac7b139ee75bfef215c9cc602c53f044"}, {"bike_id": "2c8a3c30e4e1e8f18ac3ab6bf77bd6cf", "type": "electric_scooter", "is_disabled": 0, "lat": 38.91535533333333, "rental_uris": {"ios": "https://dc.lft.to/lastmile_qr_scan", "android": "https://dc.lft.to/lastmile_qr_scan"}, "is_reserved": 0, "fusion_lon": 0.0, "fusion_lat": 0.0, "lon": -77.02193316666667, "name": "2c8a3c30e4e1e8f18ac3ab6bf77bd6cf"}, {"bike_id": "7ed9b862237abaa882bb394d69d20188", "type": "electric_scooter", "is_disabled": 0, "lat": 38.92468483333333, "rental_uris": {"ios": "https://dc.lft.to/lastmile_qr_scan", "android": "https://dc.lft.to/lastmile_qr_scan"}, "is_reserved": 0, "fusion_lon": 0.0, "fusion_lat": 0.0, "lon": -77.02826833333333, "name": "7ed9b862237abaa882bb394d69d20188"}, {"bike_id": "6c1126fe1e73cb065bc18b220170b3d6", "type": "electric_scooter", "is_disabled": 0, "lat": 38.86697133333333, "rental_uris": {"ios": "https://dc.lft.to/lastmile_qr_scan", "android": "https://dc.lft.to/lastmile_qr_scan"}, "is_reserved": 0, "fusion_lon": 0.0, "fusion_lat": 0.0, "lon": -76.98530966666667, "name": "6c1126fe1e73cb065bc18b220170b3d6"}, {"bike_id": "3d032aa0ef1f3e70c13abc0b8c6ca666", "type": "electric_scooter", "is_disabled": 0, "lat": 38.90737766666667, "rental_uris": {"ios": "https://dc.lft.to/lastmile_qr_scan", "android": "https://dc.lft.to/lastmile_qr_scan"}, "is_reserved": 0, "fusion_lon": 0.0, "fusion_lat": 0.0, "lon": -77.0423365, "name": "3d032aa0ef1f3e70c13abc0b8c6ca666"}, {"bike_id": "32bce8a4957fe8b88bdaad7dd64cd1fc", "type": "electric_scooter", "is_disabled": 0, "lat": 38.91263933333333, "rental_uris": {"ios": "https://dc.lft.to/lastmile_qr_scan", "android": "https://dc.lft.to/lastmile_qr_scan"}, "is_reserved": 0, "fusion_lon": 0.0, "fusion_lat": 0.0, "lon": -77.0114955, "name": "32bce8a4957fe8b88bdaad7dd64cd1fc"}, {"bike_id": "b31bf47c4edd75a58262889461f1b396", "type": "electric_scooter", "is_disabled": 0, "lat": 38.9140815, "rental_uris": {"ios": "https://dc.lft.to/lastmile_qr_scan", "android": "https://dc.lft.to/lastmile_qr_scan"}, "is_reserved": 0, "fusion_lon": 0.0, "fusion_lat": 0.0, "lon": -77.02429333333333, "name": "b31bf47c4edd75a58262889461f1b396"}, {"bike_id": "0205cd8f8f134a19b8453c223969cc8e", "type": "electric_scooter", "is_disabled": 0, "lat": 38.94211683333333, "rental_uris": {"ios": "https://dc.lft.to/lastmile_qr_scan", "android": "https://dc.lft.to/lastmile_qr_scan"}, "is_reserved": 0, "fusion_lon": 0.0, "fusion_lat": 0.0, "lon": -77.02584483333334, "name": "0205cd8f8f134a19b8453c223969cc8e"}, {"bike_id": "a11c815e0ab704b4882192a669863ff4", "type": "electric_scooter", "is_disabled": 0, "lat": 38.9161925, "rental_uris": {"ios": "https://dc.lft.to/lastmile_qr_scan", "android": "https://dc.lft.to/lastmile_qr_scan"}, "is_reserved": 0, "fusion_lon": 0.0, "fusion_lat": 0.0, "lon": -77.030415, "name": "a11c815e0ab704b4882192a669863ff4"}, {"bike_id": "0ac440e726689fd72f1cac478d1bc3ab", "type": "electric_scooter", "is_disabled": 0, "lat": 38.90969783333333, "rental_uris": {"ios": "https://dc.lft.to/lastmile_qr_scan", "android": "https://dc.lft.to/lastmile_qr_scan"}, "is_reserved": 0, "fusion_lon": 0.0, "fusion_lat": 0.0, "lon": -77.03228783333333, "name": "0ac440e726689fd72f1cac478d1bc3ab"}, {"bike_id": "948f42f581091f4ad34ff37a71d82c61", "type": "electric_scooter", "is_disabled": 0, "lat": 38.89731483333333, "rental_uris": {"ios": "https://dc.lft.to/lastmile_qr_scan", "android": "https://dc.lft.to/lastmile_qr_scan"}, "is_reserved": 0, "fusion_lon": 0.0, "fusion_lat": 0.0, "lon": -77.04578733333334, "name": "948f42f581091f4ad34ff37a71d82c61"}, {"bike_id": "e941b96a4cb3ab585a424b2223830951", "type": "electric_scooter", "is_disabled": 0, "lat": 38.9067985, "rental_uris": {"ios": "https://dc.lft.to/lastmile_qr_scan", "android": "https://dc.lft.to/lastmile_qr_scan"}, "is_reserved": 0, "fusion_lon": 0.0, "fusion_lat": 0.0, "lon": -77.026948, "name": "e941b96a4cb3ab585a424b2223830951"}, {"bike_id": "733bc6a054cdeffaa6ce9becd2abd1a5", "type": "electric_scooter", "is_disabled": 0, "lat": 38.91987266666667, "rental_uris": {"ios": "https://dc.lft.to/lastmile_qr_scan", "android": "https://dc.lft.to/lastmile_qr_scan"}, "is_reserved": 0, "fusion_lon": 0.0, "fusion_lat": 0.0, "lon": -77.02466716666666, "name": "733bc6a054cdeffaa6ce9becd2abd1a5"}, {"bike_id": "092f7cba57cbfb99c35346aacc08f24b", "type": "electric_scooter", "is_disabled": 0, "lat": 38.92021033333333, "rental_uris": {"ios": "https://dc.lft.to/lastmile_qr_scan", "android": "https://dc.lft.to/lastmile_qr_scan"}, "is_reserved": 0, "fusion_lon": 0.0, "fusion_lat": 0.0, "lon": -77.01316783333333, "name": "092f7cba57cbfb99c35346aacc08f24b"}, {"bike_id": "c0a11281c52fac57fd4f4ab230847b10", "type": "electric_scooter", "is_disabled": 0, "lat": 38.913304333333336, "rental_uris": {"ios": "https://dc.lft.to/lastmile_qr_scan", "android": "https://dc.lft.to/lastmile_qr_scan"}, "is_reserved": 0, "fusion_lon": 0.0, "fusion_lat": 0.0, "lon": -77.02687666666667, "name": "c0a11281c52fac57fd4f4ab230847b10"}, {"bike_id": "352232e0b276950f51457c3501e2ee66", "type": "electric_scooter", "is_disabled": 0, "lat": 38.93251166666667, "rental_uris": {"ios": "https://dc.lft.to/lastmile_qr_scan", "android": "https://dc.lft.to/lastmile_qr_scan"}, "is_reserved": 0, "fusion_lon": 0.0, "fusion_lat": 0.0, "lon": -77.02719483333334, "name": "352232e0b276950f51457c3501e2ee66"}, {"bike_id": "1f630e098dc4f14ae11ced0727a143ed", "type": "electric_scooter", "is_disabled": 0, "lat": 38.901735, "rental_uris": {"ios": "https://dc.lft.to/lastmile_qr_scan", "android": "https://dc.lft.to/lastmile_qr_scan"}, "is_reserved": 0, "fusion_lon": 0.0, "fusion_lat": 0.0, "lon": -77.03142366666667, "name": "1f630e098dc4f14ae11ced0727a143ed"}, {"bike_id": "01126053618e0fa2f1eeaf18b30b5a14", "type": "electric_scooter", "is_disabled": 0, "lat": 38.8995685, "rental_uris": {"ios": "https://dc.lft.to/lastmile_qr_scan", "android": "https://dc.lft.to/lastmile_qr_scan"}, "is_reserved": 0, "fusion_lon": 0.0, "fusion_lat": 0.0, "lon": -77.015108, "name": "01126053618e0fa2f1eeaf18b30b5a14"}, {"bike_id": "3b6c38ddb87d0bd9abdd9cd157872c0d", "type": "electric_scooter", "is_disabled": 0, "lat": 38.930355666666664, "rental_uris": {"ios": "https://dc.lft.to/lastmile_qr_scan", "android": "https://dc.lft.to/lastmile_qr_scan"}, "is_reserved": 0, "fusion_lon": 0.0, "fusion_lat": 0.0, "lon": -77.01822816666666, "name": "3b6c38ddb87d0bd9abdd9cd157872c0d"}, {"bike_id": "ba82fcf9fab117feef274097cfe96458", "type": "electric_scooter", "is_disabled": 0, "lat": 38.882094333333335, "rental_uris": {"ios": "https://dc.lft.to/lastmile_qr_scan", "android": "https://dc.lft.to/lastmile_qr_scan"}, "is_reserved": 0, "fusion_lon": 0.0, "fusion_lat": 0.0, "lon": -77.02908966666666, "name": "ba82fcf9fab117feef274097cfe96458"}, {"bike_id": "aa0c7eab3616d0bfe57c88c338441499", "type": "electric_scooter", "is_disabled": 0, "lat": 38.901951333333336, "rental_uris": {"ios": "https://dc.lft.to/lastmile_qr_scan", "android": "https://dc.lft.to/lastmile_qr_scan"}, "is_reserved": 0, "fusion_lon": 0.0, "fusion_lat": 0.0, "lon": -76.9968645, "name": "aa0c7eab3616d0bfe57c88c338441499"}, {"bike_id": "6c1725a216ffa07d86f0358e09476446", "type": "electric_scooter", "is_disabled": 0, "lat": 38.91851, "rental_uris": {"ios": "https://dc.lft.to/lastmile_qr_scan", "android": "https://dc.lft.to/lastmile_qr_scan"}, "is_reserved": 0, "fusion_lon": 0.0, "fusion_lat": 0.0, "lon": -76.965579, "name": "6c1725a216ffa07d86f0358e09476446"}, {"bike_id": "47f8264fe1cf6a6d622fd179c1691cd3", "type": "electric_scooter", "is_disabled": 0, "lat": 38.88430533333333, "rental_uris": {"ios": "https://dc.lft.to/lastmile_qr_scan", "android": "https://dc.lft.to/lastmile_qr_scan"}, "is_reserved": 0, "fusion_lon": 0.0, "fusion_lat": 0.0, "lon": -76.9575635, "name": "47f8264fe1cf6a6d622fd179c1691cd3"}, {"bike_id": "8b3ae9c5322f01eaf3cbcaa8937d8076", "type": "electric_scooter", "is_disabled": 0, "lat": 38.9080855, "rental_uris": {"ios": "https://dc.lft.to/lastmile_qr_scan", "android": "https://dc.lft.to/lastmile_qr_scan"}, "is_reserved": 0, "fusion_lon": 0.0, "fusion_lat": 0.0, "lon": -77.02607883333333, "name": "8b3ae9c5322f01eaf3cbcaa8937d8076"}, {"bike_id": "3d9f7062946d3b1198033bbfb97d2f34", "type": "electric_scooter", "is_disabled": 0, "lat": 38.9004685, "rental_uris": {"ios": "https://dc.lft.to/lastmile_qr_scan", "android": "https://dc.lft.to/lastmile_qr_scan"}, "is_reserved": 0, "fusion_lon": 0.0, "fusion_lat": 0.0, "lon": -77.0337975, "name": "3d9f7062946d3b1198033bbfb97d2f34"}, {"bike_id": "3b3439246c28c5aecee39336e67025ed", "type": "electric_bike", "is_disabled": 0, "lat": 38.86514866666667, "rental_uris": {"ios": "https://dc.lft.to/lastmile_qr_scan", "android": "https://dc.lft.to/lastmile_qr_scan"}, "is_reserved": 0, "fusion_lon": 0.0, "fusion_lat": 0.0, "lon": -77.129394, "name": "3b3439246c28c5aecee39336e67025ed"}, {"bike_id": "3ef00905dd8ff832b7bc64b074b2084b", "type": "electric_bike", "is_disabled": 0, "lat": 38.803922666666665, "rental_uris": {"ios": "https://dc.lft.to/lastmile_qr_scan", "android": "https://dc.lft.to/lastmile_qr_scan"}, "is_reserved": 0, "fusion_lon": 0.0, "fusion_lat": 0.0, "lon": -77.055659, "name": "3ef00905dd8ff832b7bc64b074b2084b"}, {"bike_id": "e79e05f870dff5680481dcfb7001f28c", "type": "electric_scooter", "is_disabled": 0, "lat": 38.90065233333333, "rental_uris": {"ios": "https://dc.lft.to/lastmile_qr_scan", "android": "https://dc.lft.to/lastmile_qr_scan"}, "is_reserved": 0, "fusion_lon": 0.0, "fusion_lat": 0.0, "lon": -77.05067933333333, "name": "e79e05f870dff5680481dcfb7001f28c"}, {"bike_id": "faa85ba33561c8fefa556d1668f9cfd4", "type": "electric_scooter", "is_disabled": 0, "lat": 38.8970085, "rental_uris": {"ios": "https://dc.lft.to/lastmile_qr_scan", "android": "https://dc.lft.to/lastmile_qr_scan"}, "is_reserved": 0, "fusion_lon": 0.0, "fusion_lat": 0.0, "lon": -76.92998483333334, "name": "faa85ba33561c8fefa556d1668f9cfd4"}, {"bike_id": "711a8c47c263605657da960818f15632", "type": "electric_scooter", "is_disabled": 0, "lat": 38.876297, "rental_uris": {"ios": "https://dc.lft.to/lastmile_qr_scan", "android": "https://dc.lft.to/lastmile_qr_scan"}, "is_reserved": 0, "fusion_lon": 0.0, "fusion_lat": 0.0, "lon": -77.0095955, "name": "711a8c47c263605657da960818f15632"}, {"bike_id": "ca9135d7eaa6b38ab746ae5097fef7c6", "type": "electric_scooter", "is_disabled": 0, "lat": 38.90011916666667, "rental_uris": {"ios": "https://dc.lft.to/lastmile_qr_scan", "android": "https://dc.lft.to/lastmile_qr_scan"}, "is_reserved": 0, "fusion_lon": 0.0, "fusion_lat": 0.0, "lon": -77.04157633333334, "name": "ca9135d7eaa6b38ab746ae5097fef7c6"}, {"bike_id": "aac33c786da4b67d1a06d2b29038789d", "type": "electric_scooter", "is_disabled": 0, "lat": 38.94202966666667, "rental_uris": {"ios": "https://dc.lft.to/lastmile_qr_scan", "android": "https://dc.lft.to/lastmile_qr_scan"}, "is_reserved": 0, "fusion_lon": 0.0, "fusion_lat": 0.0, "lon": -77.0259285, "name": "aac33c786da4b67d1a06d2b29038789d"}, {"bike_id": "c00d4fb650f9f4c15b62220e0a87ce0a", "type": "electric_scooter", "is_disabled": 0, "lat": 38.915544833333335, "rental_uris": {"ios": "https://dc.lft.to/lastmile_qr_scan", "android": "https://dc.lft.to/lastmile_qr_scan"}, "is_reserved": 0, "fusion_lon": 0.0, "fusion_lat": 0.0, "lon": -77.02133716666667, "name": "c00d4fb650f9f4c15b62220e0a87ce0a"}, {"bike_id": "fa18a1d3081d59c5b615aa1b5cc9cc2b", "type": "electric_scooter", "is_disabled": 0, "lat": 38.908399833333334, "rental_uris": {"ios": "https://dc.lft.to/lastmile_qr_scan", "android": "https://dc.lft.to/lastmile_qr_scan"}, "is_reserved": 0, "fusion_lon": 0.0, "fusion_lat": 0.0, "lon": -77.02058866666667, "name": "fa18a1d3081d59c5b615aa1b5cc9cc2b"}, {"bike_id": "ca80a67124dfaf9fa17cc3c9df00f9cd", "type": "electric_scooter", "is_disabled": 0, "lat": 38.91502066666666, "rental_uris": {"ios": "https://dc.lft.to/lastmile_qr_scan", "android": "https://dc.lft.to/lastmile_qr_scan"}, "is_reserved": 0, "fusion_lon": 0.0, "fusion_lat": 0.0, "lon": -77.03185516666667, "name": "ca80a67124dfaf9fa17cc3c9df00f9cd"}, {"bike_id": "a8b75de1654c6f144550f6c62bc1f2d7", "type": "electric_scooter", "is_disabled": 0, "lat": 38.94017933333333, "rental_uris": {"ios": "https://dc.lft.to/lastmile_qr_scan", "android": "https://dc.lft.to/lastmile_qr_scan"}, "is_reserved": 0, "fusion_lon": 0.0, "fusion_lat": 0.0, "lon": -76.97610866666666, "name": "a8b75de1654c6f144550f6c62bc1f2d7"}, {"bike_id": "30749058bc19463abbcc030ad242cfd7", "type": "electric_scooter", "is_disabled": 0, "lat": 38.91848183333333, "rental_uris": {"ios": "https://dc.lft.to/lastmile_qr_scan", "android": "https://dc.lft.to/lastmile_qr_scan"}, "is_reserved": 0, "fusion_lon": 0.0, "fusion_lat": 0.0, "lon": -76.96554016666667, "name": "30749058bc19463abbcc030ad242cfd7"}, {"bike_id": "f94c58a24d90d417d0a8253f01dd252a", "type": "electric_scooter", "is_disabled": 0, "lat": 38.89474883333333, "rental_uris": {"ios": "https://dc.lft.to/lastmile_qr_scan", "android": "https://dc.lft.to/lastmile_qr_scan"}, "is_reserved": 0, "fusion_lon": 0.0, "fusion_lat": 0.0, "lon": -76.9486125, "name": "f94c58a24d90d417d0a8253f01dd252a"}, {"bike_id": "660aff8861131b65f5e84992f78c1fa7", "type": "electric_scooter", "is_disabled": 0, "lat": 38.87674066666666, "rental_uris": {"ios": "https://dc.lft.to/lastmile_qr_scan", "android": "https://dc.lft.to/lastmile_qr_scan"}, "is_reserved": 0, "fusion_lon": 0.0, "fusion_lat": 0.0, "lon": -77.0041305, "name": "660aff8861131b65f5e84992f78c1fa7"}, {"bike_id": "020f643ef686de19d11446434bb12dec", "type": "electric_bike", "is_disabled": 0, "lat": 38.9787575, "rental_uris": {"ios": "https://dc.lft.to/lastmile_qr_scan", "android": "https://dc.lft.to/lastmile_qr_scan"}, "is_reserved": 0, "fusion_lon": 0.0, "fusion_lat": 0.0, "lon": -77.06024233333333, "name": "020f643ef686de19d11446434bb12dec"}, {"bike_id": "63216719ed7b84a8921553ed71a65d67", "type": "electric_scooter", "is_disabled": 0, "lat": 38.89429166666667, "rental_uris": {"ios": "https://dc.lft.to/lastmile_qr_scan", "android": "https://dc.lft.to/lastmile_qr_scan"}, "is_reserved": 0, "fusion_lon": 0.0, "fusion_lat": 0.0, "lon": -77.01049533333334, "name": "63216719ed7b84a8921553ed71a65d67"}, {"bike_id": "a1756dcfde5033bf8a949bee26664276", "type": "electric_scooter", "is_disabled": 0, "lat": 38.931444166666665, "rental_uris": {"ios": "https://dc.lft.to/lastmile_qr_scan", "android": "https://dc.lft.to/lastmile_qr_scan"}, "is_reserved": 0, "fusion_lon": 0.0, "fusion_lat": 0.0, "lon": -77.03354866666666, "name": "a1756dcfde5033bf8a949bee26664276"}, {"bike_id": "2d1681bb763be23a114da3422c34de76", "type": "electric_scooter", "is_disabled": 0, "lat": 38.906865833333335, "rental_uris": {"ios": "https://dc.lft.to/lastmile_qr_scan", "android": "https://dc.lft.to/lastmile_qr_scan"}, "is_reserved": 0, "fusion_lon": 0.0, "fusion_lat": 0.0, "lon": -77.02381683333333, "name": "2d1681bb763be23a114da3422c34de76"}, {"bike_id": "2d3ce9ed5fe3b2b38faa9a7a6ef6831f", "type": "electric_scooter", "is_disabled": 0, "lat": 38.903524, "rental_uris": {"ios": "https://dc.lft.to/lastmile_qr_scan", "android": "https://dc.lft.to/lastmile_qr_scan"}, "is_reserved": 0, "fusion_lon": 0.0, "fusion_lat": 0.0, "lon": -77.02951433333334, "name": "2d3ce9ed5fe3b2b38faa9a7a6ef6831f"}, {"bike_id": "d30d6d5143077e304c639e81d1d9bfc4", "type": "electric_bike", "is_disabled": 0, "lat": 38.9367245, "rental_uris": {"ios": "https://dc.lft.to/lastmile_qr_scan", "android": "https://dc.lft.to/lastmile_qr_scan"}, "is_reserved": 0, "fusion_lon": 0.0, "fusion_lat": 0.0, "lon": -76.95208533333333, "name": "d30d6d5143077e304c639e81d1d9bfc4"}, {"bike_id": "d237be435668ea83f7f76618013f752d", "type": "electric_scooter", "is_disabled": 0, "lat": 38.914587, "rental_uris": {"ios": "https://dc.lft.to/lastmile_qr_scan", "android": "https://dc.lft.to/lastmile_qr_scan"}, "is_reserved": 0, "fusion_lon": 0.0, "fusion_lat": 0.0, "lon": -77.02286933333333, "name": "d237be435668ea83f7f76618013f752d"}, {"bike_id": "cfbc30f024655ce8dbbffb843fedb7e8", "type": "electric_scooter", "is_disabled": 0, "lat": 38.91693383333333, "rental_uris": {"ios": "https://dc.lft.to/lastmile_qr_scan", "android": "https://dc.lft.to/lastmile_qr_scan"}, "is_reserved": 0, "fusion_lon": 0.0, "fusion_lat": 0.0, "lon": -77.02957916666666, "name": "cfbc30f024655ce8dbbffb843fedb7e8"}, {"bike_id": "2329da84eca2c8c628237bdf673e5c94", "type": "electric_scooter", "is_disabled": 0, "lat": 38.89837833333333, "rental_uris": {"ios": "https://dc.lft.to/lastmile_qr_scan", "android": "https://dc.lft.to/lastmile_qr_scan"}, "is_reserved": 0, "fusion_lon": 0.0, "fusion_lat": 0.0, "lon": -76.94637433333334, "name": "2329da84eca2c8c628237bdf673e5c94"}, {"bike_id": "a2ce7b66e9648a1ad894a157bf82842a", "type": "electric_bike", "is_disabled": 0, "lat": 38.92641666666667, "rental_uris": {"ios": "https://dc.lft.to/lastmile_qr_scan", "android": "https://dc.lft.to/lastmile_qr_scan"}, "is_reserved": 0, "fusion_lon": 0.0, "fusion_lat": 0.0, "lon": -76.984269, "name": "a2ce7b66e9648a1ad894a157bf82842a"}, {"bike_id": "2b8da3030733a25ae6066e392df3e765", "type": "electric_scooter", "is_disabled": 0, "lat": 38.9062855, "rental_uris": {"ios": "https://dc.lft.to/lastmile_qr_scan", "android": "https://dc.lft.to/lastmile_qr_scan"}, "is_reserved": 0, "fusion_lon": 0.0, "fusion_lat": 0.0, "lon": -77.01007333333334, "name": "2b8da3030733a25ae6066e392df3e765"}, {"bike_id": "35a8ee355cfebfa711daf9b522bce62e", "type": "electric_bike", "is_disabled": 0, "lat": 38.924525333333335, "rental_uris": {"ios": "https://dc.lft.to/lastmile_qr_scan", "android": "https://dc.lft.to/lastmile_qr_scan"}, "is_reserved": 0, "fusion_lon": 0.0, "fusion_lat": 0.0, "lon": -77.22564083333333, "name": "35a8ee355cfebfa711daf9b522bce62e"}, {"bike_id": "3b22a8b7fb2eb000e602ca56c29c0290", "type": "electric_scooter", "is_disabled": 0, "lat": 38.942005333333334, "rental_uris": {"ios": "https://dc.lft.to/lastmile_qr_scan", "android": "https://dc.lft.to/lastmile_qr_scan"}, "is_reserved": 0, "fusion_lon": 0.0, "fusion_lat": 0.0, "lon": -77.02433616666667, "name": "3b22a8b7fb2eb000e602ca56c29c0290"}, {"bike_id": "8dd4fea53f83c7e4e109a4c46382ceb8", "type": "electric_scooter", "is_disabled": 0, "lat": 38.91421966666667, "rental_uris": {"ios": "https://dc.lft.to/lastmile_qr_scan", "android": "https://dc.lft.to/lastmile_qr_scan"}, "is_reserved": 0, "fusion_lon": 0.0, "fusion_lat": 0.0, "lon": -77.032793, "name": "8dd4fea53f83c7e4e109a4c46382ceb8"}, {"bike_id": "01a411645b757a93335bc9c85f4eb595", "type": "electric_scooter", "is_disabled": 0, "lat": 38.89993533333333, "rental_uris": {"ios": "https://dc.lft.to/lastmile_qr_scan", "android": "https://dc.lft.to/lastmile_qr_scan"}, "is_reserved": 0, "fusion_lon": 0.0, "fusion_lat": 0.0, "lon": -77.04596733333334, "name": "01a411645b757a93335bc9c85f4eb595"}, {"bike_id": "ea4e2d8bf67a9f4b72626b13fdef38d6", "type": "electric_scooter", "is_disabled": 0, "lat": 38.911396, "rental_uris": {"ios": "https://dc.lft.to/lastmile_qr_scan", "android": "https://dc.lft.to/lastmile_qr_scan"}, "is_reserved": 0, "fusion_lon": 0.0, "fusion_lat": 0.0, "lon": -77.0218975, "name": "ea4e2d8bf67a9f4b72626b13fdef38d6"}, {"bike_id": "fab3d2a87bce8fce84556a07325fd55d", "type": "electric_scooter", "is_disabled": 0, "lat": 38.900217166666664, "rental_uris": {"ios": "https://dc.lft.to/lastmile_qr_scan", "android": "https://dc.lft.to/lastmile_qr_scan"}, "is_reserved": 0, "fusion_lon": 0.0, "fusion_lat": 0.0, "lon": -77.01129116666667, "name": "fab3d2a87bce8fce84556a07325fd55d"}, {"bike_id": "236aeb854ee58b99b165f485c627820a", "type": "electric_scooter", "is_disabled": 0, "lat": 38.921962, "rental_uris": {"ios": "https://dc.lft.to/lastmile_qr_scan", "android": "https://dc.lft.to/lastmile_qr_scan"}, "is_reserved": 0, "fusion_lon": 0.0, "fusion_lat": 0.0, "lon": -77.0211815, "name": "236aeb854ee58b99b165f485c627820a"}, {"bike_id": "4fa9e387463ac97bffe06daf10ef4a38", "type": "electric_bike", "is_disabled": 0, "lat": 38.96499466666667, "rental_uris": {"ios": "https://dc.lft.to/lastmile_qr_scan", "android": "https://dc.lft.to/lastmile_qr_scan"}, "is_reserved": 0, "fusion_lon": 0.0, "fusion_lat": 0.0, "lon": -77.02099733333333, "name": "4fa9e387463ac97bffe06daf10ef4a38"}, {"bike_id": "ef91afba3fb055c12b407980cd2d51a9", "type": "electric_scooter", "is_disabled": 0, "lat": 38.9246375, "rental_uris": {"ios": "https://dc.lft.to/lastmile_qr_scan", "android": "https://dc.lft.to/lastmile_qr_scan"}, "is_reserved": 0, "fusion_lon": 0.0, "fusion_lat": 0.0, "lon": -77.0520635, "name": "ef91afba3fb055c12b407980cd2d51a9"}, {"bike_id": "95c0fe0b83e5d16533c354acd3a88be3", "type": "electric_scooter", "is_disabled": 0, "lat": 38.91424466666667, "rental_uris": {"ios": "https://dc.lft.to/lastmile_qr_scan", "android": "https://dc.lft.to/lastmile_qr_scan"}, "is_reserved": 0, "fusion_lon": 0.0, "fusion_lat": 0.0, "lon": -77.04605733333334, "name": "95c0fe0b83e5d16533c354acd3a88be3"}, {"bike_id": "d60d6214f60256efc15f30bf0da288dd", "type": "electric_scooter", "is_disabled": 0, "lat": 38.88479383333333, "rental_uris": {"ios": "https://dc.lft.to/lastmile_qr_scan", "android": "https://dc.lft.to/lastmile_qr_scan"}, "is_reserved": 0, "fusion_lon": 0.0, "fusion_lat": 0.0, "lon": -77.02541016666666, "name": "d60d6214f60256efc15f30bf0da288dd"}, {"bike_id": "0b2b0ddee55d5995972f524fb0565293", "type": "electric_scooter", "is_disabled": 0, "lat": 38.92754383333333, "rental_uris": {"ios": "https://dc.lft.to/lastmile_qr_scan", "android": "https://dc.lft.to/lastmile_qr_scan"}, "is_reserved": 0, "fusion_lon": 0.0, "fusion_lat": 0.0, "lon": -77.02380866666667, "name": "0b2b0ddee55d5995972f524fb0565293"}, {"bike_id": "6763db1949dbfcd2495cacc246320d0b", "type": "electric_scooter", "is_disabled": 0, "lat": 38.90390683333333, "rental_uris": {"ios": "https://dc.lft.to/lastmile_qr_scan", "android": "https://dc.lft.to/lastmile_qr_scan"}, "is_reserved": 0, "fusion_lon": 0.0, "fusion_lat": 0.0, "lon": -77.00881183333334, "name": "6763db1949dbfcd2495cacc246320d0b"}, {"bike_id": "7fc460c1093f6f02c85b4734243540d5", "type": "electric_scooter", "is_disabled": 0, "lat": 38.91915383333333, "rental_uris": {"ios": "https://dc.lft.to/lastmile_qr_scan", "android": "https://dc.lft.to/lastmile_qr_scan"}, "is_reserved": 0, "fusion_lon": 0.0, "fusion_lat": 0.0, "lon": -77.00246733333333, "name": "7fc460c1093f6f02c85b4734243540d5"}, {"bike_id": "d2e7f293e5fe82ecebe197d3f3dd5a23", "type": "electric_scooter", "is_disabled": 0, "lat": 38.909253666666665, "rental_uris": {"ios": "https://dc.lft.to/lastmile_qr_scan", "android": "https://dc.lft.to/lastmile_qr_scan"}, "is_reserved": 0, "fusion_lon": 0.0, "fusion_lat": 0.0, "lon": -77.04938483333333, "name": "d2e7f293e5fe82ecebe197d3f3dd5a23"}, {"bike_id": "7fde9adc25ce8484f84bd89ed9c423c9", "type": "electric_scooter", "is_disabled": 0, "lat": 38.9191245, "rental_uris": {"ios": "https://dc.lft.to/lastmile_qr_scan", "android": "https://dc.lft.to/lastmile_qr_scan"}, "is_reserved": 0, "fusion_lon": 0.0, "fusion_lat": 0.0, "lon": -77.04462083333334, "name": "7fde9adc25ce8484f84bd89ed9c423c9"}, {"bike_id": "abd27e2e0742d3eb1376b9af03eef986", "type": "electric_scooter", "is_disabled": 0, "lat": 38.9028405, "rental_uris": {"ios": "https://dc.lft.to/lastmile_qr_scan", "android": "https://dc.lft.to/lastmile_qr_scan"}, "is_reserved": 0, "fusion_lon": 0.0, "fusion_lat": 0.0, "lon": -77.03658833333333, "name": "abd27e2e0742d3eb1376b9af03eef986"}, {"bike_id": "2c46f5389d27f946a9af2e3afbd4f8bf", "type": "electric_scooter", "is_disabled": 0, "lat": 38.91694366666667, "rental_uris": {"ios": "https://dc.lft.to/lastmile_qr_scan", "android": "https://dc.lft.to/lastmile_qr_scan"}, "is_reserved": 0, "fusion_lon": 0.0, "fusion_lat": 0.0, "lon": -77.04110633333333, "name": "2c46f5389d27f946a9af2e3afbd4f8bf"}, {"bike_id": "93448ebcd23290365f03e86ac293ad9e", "type": "electric_scooter", "is_disabled": 0, "lat": 38.8984945, "rental_uris": {"ios": "https://dc.lft.to/lastmile_qr_scan", "android": "https://dc.lft.to/lastmile_qr_scan"}, "is_reserved": 0, "fusion_lon": 0.0, "fusion_lat": 0.0, "lon": -77.022371, "name": "93448ebcd23290365f03e86ac293ad9e"}, {"bike_id": "e54401db9bfde515822921438ec53f06", "type": "electric_scooter", "is_disabled": 0, "lat": 38.901169833333334, "rental_uris": {"ios": "https://dc.lft.to/lastmile_qr_scan", "android": "https://dc.lft.to/lastmile_qr_scan"}, "is_reserved": 0, "fusion_lon": 0.0, "fusion_lat": 0.0, "lon": -77.03853916666667, "name": "e54401db9bfde515822921438ec53f06"}, {"bike_id": "c662eae2692e894ac0fde9a0d9bf4ee6", "type": "electric_scooter", "is_disabled": 0, "lat": 38.86469833333334, "rental_uris": {"ios": "https://dc.lft.to/lastmile_qr_scan", "android": "https://dc.lft.to/lastmile_qr_scan"}, "is_reserved": 0, "fusion_lon": 0.0, "fusion_lat": 0.0, "lon": -77.000089, "name": "c662eae2692e894ac0fde9a0d9bf4ee6"}, {"bike_id": "4e3e6fa2e76da0ea3bf5a3745f38062b", "type": "electric_scooter", "is_disabled": 0, "lat": 38.923656333333334, "rental_uris": {"ios": "https://dc.lft.to/lastmile_qr_scan", "android": "https://dc.lft.to/lastmile_qr_scan"}, "is_reserved": 0, "fusion_lon": 0.0, "fusion_lat": 0.0, "lon": -77.051323, "name": "4e3e6fa2e76da0ea3bf5a3745f38062b"}, {"bike_id": "3e44d135d0cffa71140b7181209255e5", "type": "electric_scooter", "is_disabled": 0, "lat": 38.93951583333333, "rental_uris": {"ios": "https://dc.lft.to/lastmile_qr_scan", "android": "https://dc.lft.to/lastmile_qr_scan"}, "is_reserved": 0, "fusion_lon": 0.0, "fusion_lat": 0.0, "lon": -77.07240816666666, "name": "3e44d135d0cffa71140b7181209255e5"}, {"bike_id": "8bea99b46d27b02443cc7b342a4747f3", "type": "electric_bike", "is_disabled": 0, "lat": 38.8866955, "rental_uris": {"ios": "https://dc.lft.to/lastmile_qr_scan", "android": "https://dc.lft.to/lastmile_qr_scan"}, "is_reserved": 0, "fusion_lon": 0.0, "fusion_lat": 0.0, "lon": -77.1626075, "name": "8bea99b46d27b02443cc7b342a4747f3"}, {"bike_id": "9bce8b64c70b0d9481fc15b713002970", "type": "electric_scooter", "is_disabled": 0, "lat": 38.92338616666667, "rental_uris": {"ios": "https://dc.lft.to/lastmile_qr_scan", "android": "https://dc.lft.to/lastmile_qr_scan"}, "is_reserved": 0, "fusion_lon": 0.0, "fusion_lat": 0.0, "lon": -77.02695716666666, "name": "9bce8b64c70b0d9481fc15b713002970"}, {"bike_id": "c6bdc92f2605c32198fc9d9888fd3cf7", "type": "electric_scooter", "is_disabled": 0, "lat": 38.90194666666667, "rental_uris": {"ios": "https://dc.lft.to/lastmile_qr_scan", "android": "https://dc.lft.to/lastmile_qr_scan"}, "is_reserved": 0, "fusion_lon": 0.0, "fusion_lat": 0.0, "lon": -77.021751, "name": "c6bdc92f2605c32198fc9d9888fd3cf7"}, {"bike_id": "2c8919c4de435f140d7de7ab3c80b575", "type": "electric_scooter", "is_disabled": 0, "lat": 38.91478933333333, "rental_uris": {"ios": "https://dc.lft.to/lastmile_qr_scan", "android": "https://dc.lft.to/lastmile_qr_scan"}, "is_reserved": 0, "fusion_lon": 0.0, "fusion_lat": 0.0, "lon": -77.03215116666667, "name": "2c8919c4de435f140d7de7ab3c80b575"}, {"bike_id": "1423d731431790e6d226a4400d5cd520", "type": "electric_scooter", "is_disabled": 0, "lat": 38.9029065, "rental_uris": {"ios": "https://dc.lft.to/lastmile_qr_scan", "android": "https://dc.lft.to/lastmile_qr_scan"}, "is_reserved": 0, "fusion_lon": 0.0, "fusion_lat": 0.0, "lon": -77.02146166666667, "name": "1423d731431790e6d226a4400d5cd520"}, {"bike_id": "e34305849de685cc642e8042623cdf8c", "type": "electric_scooter", "is_disabled": 0, "lat": 38.912617833333336, "rental_uris": {"ios": "https://dc.lft.to/lastmile_qr_scan", "android": "https://dc.lft.to/lastmile_qr_scan"}, "is_reserved": 0, "fusion_lon": 0.0, "fusion_lat": 0.0, "lon": -77.03832433333334, "name": "e34305849de685cc642e8042623cdf8c"}, {"bike_id": "c8fd49e7244a81cfa31d1c76858cd766", "type": "electric_scooter", "is_disabled": 0, "lat": 38.9293435, "rental_uris": {"ios": "https://dc.lft.to/lastmile_qr_scan", "android": "https://dc.lft.to/lastmile_qr_scan"}, "is_reserved": 0, "fusion_lon": 0.0, "fusion_lat": 0.0, "lon": -77.03283783333333, "name": "c8fd49e7244a81cfa31d1c76858cd766"}, {"bike_id": "c77c630ed5f77aec70cdd44581d729b8", "type": "electric_scooter", "is_disabled": 0, "lat": 38.913393, "rental_uris": {"ios": "https://dc.lft.to/lastmile_qr_scan", "android": "https://dc.lft.to/lastmile_qr_scan"}, "is_reserved": 0, "fusion_lon": 0.0, "fusion_lat": 0.0, "lon": -77.031872, "name": "c77c630ed5f77aec70cdd44581d729b8"}, {"bike_id": "0454f32e74c5c5f4589b69503122648e", "type": "electric_scooter", "is_disabled": 0, "lat": 38.9171505, "rental_uris": {"ios": "https://dc.lft.to/lastmile_qr_scan", "android": "https://dc.lft.to/lastmile_qr_scan"}, "is_reserved": 0, "fusion_lon": 0.0, "fusion_lat": 0.0, "lon": -77.04600233333333, "name": "0454f32e74c5c5f4589b69503122648e"}, {"bike_id": "70ac5e88e765ca506da6a5855c35970f", "type": "electric_scooter", "is_disabled": 0, "lat": 38.914250333333335, "rental_uris": {"ios": "https://dc.lft.to/lastmile_qr_scan", "android": "https://dc.lft.to/lastmile_qr_scan"}, "is_reserved": 0, "fusion_lon": 0.0, "fusion_lat": 0.0, "lon": -77.06925333333334, "name": "70ac5e88e765ca506da6a5855c35970f"}, {"bike_id": "aff343d2281ef876222b82778de6af92", "type": "electric_scooter", "is_disabled": 0, "lat": 38.966025333333334, "rental_uris": {"ios": "https://dc.lft.to/lastmile_qr_scan", "android": "https://dc.lft.to/lastmile_qr_scan"}, "is_reserved": 0, "fusion_lon": 0.0, "fusion_lat": 0.0, "lon": -77.019801, "name": "aff343d2281ef876222b82778de6af92"}, {"bike_id": "c6758abf5f05c2fcaf261ac5d03909d1", "type": "electric_scooter", "is_disabled": 0, "lat": 38.91908983333333, "rental_uris": {"ios": "https://dc.lft.to/lastmile_qr_scan", "android": "https://dc.lft.to/lastmile_qr_scan"}, "is_reserved": 0, "fusion_lon": 0.0, "fusion_lat": 0.0, "lon": -77.04465083333334, "name": "c6758abf5f05c2fcaf261ac5d03909d1"}, {"bike_id": "a2fb09a701c15a2f288738be46b80892", "type": "electric_scooter", "is_disabled": 0, "lat": 38.92482533333333, "rental_uris": {"ios": "https://dc.lft.to/lastmile_qr_scan", "android": "https://dc.lft.to/lastmile_qr_scan"}, "is_reserved": 0, "fusion_lon": 0.0, "fusion_lat": 0.0, "lon": -77.03105583333334, "name": "a2fb09a701c15a2f288738be46b80892"}, {"bike_id": "d211196f50501c0e725fd827caa4610c", "type": "electric_scooter", "is_disabled": 0, "lat": 38.928422, "rental_uris": {"ios": "https://dc.lft.to/lastmile_qr_scan", "android": "https://dc.lft.to/lastmile_qr_scan"}, "is_reserved": 0, "fusion_lon": 0.0, "fusion_lat": 0.0, "lon": -77.03294783333334, "name": "d211196f50501c0e725fd827caa4610c"}, {"bike_id": "ce9212b5861884c76155ff0cf3252868", "type": "electric_scooter", "is_disabled": 0, "lat": 38.89851616666667, "rental_uris": {"ios": "https://dc.lft.to/lastmile_qr_scan", "android": "https://dc.lft.to/lastmile_qr_scan"}, "is_reserved": 0, "fusion_lon": 0.0, "fusion_lat": 0.0, "lon": -77.0261885, "name": "ce9212b5861884c76155ff0cf3252868"}, {"bike_id": "a2126b872059bd8db3292bcf112ddabb", "type": "electric_scooter", "is_disabled": 0, "lat": 38.90675433333333, "rental_uris": {"ios": "https://dc.lft.to/lastmile_qr_scan", "android": "https://dc.lft.to/lastmile_qr_scan"}, "is_reserved": 0, "fusion_lon": 0.0, "fusion_lat": 0.0, "lon": -77.02695116666666, "name": "a2126b872059bd8db3292bcf112ddabb"}, {"bike_id": "ce42e053ecc3b79f5012bf017995f291", "type": "electric_scooter", "is_disabled": 0, "lat": 38.915911333333334, "rental_uris": {"ios": "https://dc.lft.to/lastmile_qr_scan", "android": "https://dc.lft.to/lastmile_qr_scan"}, "is_reserved": 0, "fusion_lon": 0.0, "fusion_lat": 0.0, "lon": -77.06810866666666, "name": "ce42e053ecc3b79f5012bf017995f291"}, {"bike_id": "9a99b55a6d8b8899a5524816be93af27", "type": "electric_scooter", "is_disabled": 0, "lat": 38.88281383333333, "rental_uris": {"ios": "https://dc.lft.to/lastmile_qr_scan", "android": "https://dc.lft.to/lastmile_qr_scan"}, "is_reserved": 0, "fusion_lon": 0.0, "fusion_lat": 0.0, "lon": -76.92928166666667, "name": "9a99b55a6d8b8899a5524816be93af27"}, {"bike_id": "e1bf245bfcfb6cb1d02011439dd109e8", "type": "electric_scooter", "is_disabled": 0, "lat": 38.922598666666666, "rental_uris": {"ios": "https://dc.lft.to/lastmile_qr_scan", "android": "https://dc.lft.to/lastmile_qr_scan"}, "is_reserved": 0, "fusion_lon": 0.0, "fusion_lat": 0.0, "lon": -77.04299633333333, "name": "e1bf245bfcfb6cb1d02011439dd109e8"}, {"bike_id": "7f162abea52eba548bae8a83bca28dc5", "type": "electric_scooter", "is_disabled": 0, "lat": 38.870949, "rental_uris": {"ios": "https://dc.lft.to/lastmile_qr_scan", "android": "https://dc.lft.to/lastmile_qr_scan"}, "is_reserved": 0, "fusion_lon": 0.0, "fusion_lat": 0.0, "lon": -77.01205783333333, "name": "7f162abea52eba548bae8a83bca28dc5"}, {"bike_id": "6c9c47e990502a78a402b633960115a0", "type": "electric_scooter", "is_disabled": 0, "lat": 38.905715666666666, "rental_uris": {"ios": "https://dc.lft.to/lastmile_qr_scan", "android": "https://dc.lft.to/lastmile_qr_scan"}, "is_reserved": 0, "fusion_lon": 0.0, "fusion_lat": 0.0, "lon": -76.97627383333334, "name": "6c9c47e990502a78a402b633960115a0"}, {"bike_id": "727a22196daad17f9b9d78d4c3f09753", "type": "electric_scooter", "is_disabled": 0, "lat": 38.91819666666667, "rental_uris": {"ios": "https://dc.lft.to/lastmile_qr_scan", "android": "https://dc.lft.to/lastmile_qr_scan"}, "is_reserved": 0, "fusion_lon": 0.0, "fusion_lat": 0.0, "lon": -77.03188033333333, "name": "727a22196daad17f9b9d78d4c3f09753"}, {"bike_id": "0041a8ef1896f0055ddf001b2c9e5cfc", "type": "electric_scooter", "is_disabled": 0, "lat": 38.89923683333333, "rental_uris": {"ios": "https://dc.lft.to/lastmile_qr_scan", "android": "https://dc.lft.to/lastmile_qr_scan"}, "is_reserved": 0, "fusion_lon": 0.0, "fusion_lat": 0.0, "lon": -76.93366783333333, "name": "0041a8ef1896f0055ddf001b2c9e5cfc"}, {"bike_id": "de61f7bf9ff83550412836f49e35299a", "type": "electric_scooter", "is_disabled": 0, "lat": 38.93531816666667, "rental_uris": {"ios": "https://dc.lft.to/lastmile_qr_scan", "android": "https://dc.lft.to/lastmile_qr_scan"}, "is_reserved": 0, "fusion_lon": 0.0, "fusion_lat": 0.0, "lon": -77.02352716666667, "name": "de61f7bf9ff83550412836f49e35299a"}, {"bike_id": "526f6eabfe1252497de60b7baca7527c", "type": "electric_scooter", "is_disabled": 0, "lat": 38.91572216666667, "rental_uris": {"ios": "https://dc.lft.to/lastmile_qr_scan", "android": "https://dc.lft.to/lastmile_qr_scan"}, "is_reserved": 0, "fusion_lon": 0.0, "fusion_lat": 0.0, "lon": -77.04658216666667, "name": "526f6eabfe1252497de60b7baca7527c"}, {"bike_id": "12eaf78cc6e385197a8c1b8bd2e40173", "type": "electric_scooter", "is_disabled": 0, "lat": 38.917512333333335, "rental_uris": {"ios": "https://dc.lft.to/lastmile_qr_scan", "android": "https://dc.lft.to/lastmile_qr_scan"}, "is_reserved": 0, "fusion_lon": 0.0, "fusion_lat": 0.0, "lon": -77.03857683333334, "name": "12eaf78cc6e385197a8c1b8bd2e40173"}, {"bike_id": "279ccd7679a363eedc0d37a3b8054e97", "type": "electric_scooter", "is_disabled": 0, "lat": 38.91756933333333, "rental_uris": {"ios": "https://dc.lft.to/lastmile_qr_scan", "android": "https://dc.lft.to/lastmile_qr_scan"}, "is_reserved": 0, "fusion_lon": 0.0, "fusion_lat": 0.0, "lon": -77.0399125, "name": "279ccd7679a363eedc0d37a3b8054e97"}, {"bike_id": "6be5e13b77d50d6a45e5420e5e4f1280", "type": "electric_scooter", "is_disabled": 0, "lat": 38.90144983333333, "rental_uris": {"ios": "https://dc.lft.to/lastmile_qr_scan", "android": "https://dc.lft.to/lastmile_qr_scan"}, "is_reserved": 0, "fusion_lon": 0.0, "fusion_lat": 0.0, "lon": -76.930869, "name": "6be5e13b77d50d6a45e5420e5e4f1280"}, {"bike_id": "c4698a4986589cb03e9ca6cd700c0778", "type": "electric_scooter", "is_disabled": 0, "lat": 38.919565, "rental_uris": {"ios": "https://dc.lft.to/lastmile_qr_scan", "android": "https://dc.lft.to/lastmile_qr_scan"}, "is_reserved": 0, "fusion_lon": 0.0, "fusion_lat": 0.0, "lon": -77.07104583333333, "name": "c4698a4986589cb03e9ca6cd700c0778"}, {"bike_id": "0cc7a26db60ffb747af6a41f71fac350", "type": "electric_scooter", "is_disabled": 0, "lat": 38.892235666666664, "rental_uris": {"ios": "https://dc.lft.to/lastmile_qr_scan", "android": "https://dc.lft.to/lastmile_qr_scan"}, "is_reserved": 0, "fusion_lon": 0.0, "fusion_lat": 0.0, "lon": -77.04652066666667, "name": "0cc7a26db60ffb747af6a41f71fac350"}, {"bike_id": "235014dc942d3d508e1f3f01e8f33ebd", "type": "electric_scooter", "is_disabled": 0, "lat": 38.921671333333336, "rental_uris": {"ios": "https://dc.lft.to/lastmile_qr_scan", "android": "https://dc.lft.to/lastmile_qr_scan"}, "is_reserved": 0, "fusion_lon": 0.0, "fusion_lat": 0.0, "lon": -77.03849483333333, "name": "235014dc942d3d508e1f3f01e8f33ebd"}, {"bike_id": "488767831e55be2e579dca8080af2ad9", "type": "electric_scooter", "is_disabled": 0, "lat": 38.8865365, "rental_uris": {"ios": "https://dc.lft.to/lastmile_qr_scan", "android": "https://dc.lft.to/lastmile_qr_scan"}, "is_reserved": 0, "fusion_lon": 0.0, "fusion_lat": 0.0, "lon": -77.03389766666666, "name": "488767831e55be2e579dca8080af2ad9"}, {"bike_id": "a2f9a4cd83f35c34e5e90bf91db55616", "type": "electric_scooter", "is_disabled": 0, "lat": 38.8968925, "rental_uris": {"ios": "https://dc.lft.to/lastmile_qr_scan", "android": "https://dc.lft.to/lastmile_qr_scan"}, "is_reserved": 0, "fusion_lon": 0.0, "fusion_lat": 0.0, "lon": -76.99965366666666, "name": "a2f9a4cd83f35c34e5e90bf91db55616"}, {"bike_id": "635e7e51cb2e344f4e5f6f2bb566dcb8", "type": "electric_scooter", "is_disabled": 0, "lat": 38.9182285, "rental_uris": {"ios": "https://dc.lft.to/lastmile_qr_scan", "android": "https://dc.lft.to/lastmile_qr_scan"}, "is_reserved": 0, "fusion_lon": 0.0, "fusion_lat": 0.0, "lon": -77.0270405, "name": "635e7e51cb2e344f4e5f6f2bb566dcb8"}, {"bike_id": "7e37b244c12cc43800c8981fe2e96de5", "type": "electric_scooter", "is_disabled": 0, "lat": 38.88716983333333, "rental_uris": {"ios": "https://dc.lft.to/lastmile_qr_scan", "android": "https://dc.lft.to/lastmile_qr_scan"}, "is_reserved": 0, "fusion_lon": 0.0, "fusion_lat": 0.0, "lon": -77.02198416666667, "name": "7e37b244c12cc43800c8981fe2e96de5"}, {"bike_id": "22a82dbdb3231df94d50102950550906", "type": "electric_scooter", "is_disabled": 0, "lat": 38.887237666666664, "rental_uris": {"ios": "https://dc.lft.to/lastmile_qr_scan", "android": "https://dc.lft.to/lastmile_qr_scan"}, "is_reserved": 0, "fusion_lon": 0.0, "fusion_lat": 0.0, "lon": -76.98358183333333, "name": "22a82dbdb3231df94d50102950550906"}, {"bike_id": "038b41e20505924a7e08732035d11a19", "type": "electric_scooter", "is_disabled": 0, "lat": 38.9058675, "rental_uris": {"ios": "https://dc.lft.to/lastmile_qr_scan", "android": "https://dc.lft.to/lastmile_qr_scan"}, "is_reserved": 0, "fusion_lon": 0.0, "fusion_lat": 0.0, "lon": -77.063, "name": "038b41e20505924a7e08732035d11a19"}, {"bike_id": "9ff90cb499acfaedbf307fff7a3ffa72", "type": "electric_scooter", "is_disabled": 0, "lat": 38.88737883333334, "rental_uris": {"ios": "https://dc.lft.to/lastmile_qr_scan", "android": "https://dc.lft.to/lastmile_qr_scan"}, "is_reserved": 0, "fusion_lon": 0.0, "fusion_lat": 0.0, "lon": -77.03184366666666, "name": "9ff90cb499acfaedbf307fff7a3ffa72"}, {"bike_id": "d61f060abe69396e5f4c25fc08be8ce1", "type": "electric_scooter", "is_disabled": 0, "lat": 38.88424833333333, "rental_uris": {"ios": "https://dc.lft.to/lastmile_qr_scan", "android": "https://dc.lft.to/lastmile_qr_scan"}, "is_reserved": 0, "fusion_lon": 0.0, "fusion_lat": 0.0, "lon": -76.957541, "name": "d61f060abe69396e5f4c25fc08be8ce1"}, {"bike_id": "35beb80bd6166d5476b6d88ccb1c9e30", "type": "electric_bike", "is_disabled": 0, "lat": 38.936962333333334, "rental_uris": {"ios": "https://dc.lft.to/lastmile_qr_scan", "android": "https://dc.lft.to/lastmile_qr_scan"}, "is_reserved": 0, "fusion_lon": 0.0, "fusion_lat": 0.0, "lon": -77.02119983333333, "name": "35beb80bd6166d5476b6d88ccb1c9e30"}, {"bike_id": "47234b25be04e8dac04c9aa5f043a997", "type": "electric_scooter", "is_disabled": 0, "lat": 38.922626666666666, "rental_uris": {"ios": "https://dc.lft.to/lastmile_qr_scan", "android": "https://dc.lft.to/lastmile_qr_scan"}, "is_reserved": 0, "fusion_lon": 0.0, "fusion_lat": 0.0, "lon": -76.99454883333334, "name": "47234b25be04e8dac04c9aa5f043a997"}, {"bike_id": "ca2428ad7d78b2f64f9a2e337d9ac545", "type": "electric_scooter", "is_disabled": 0, "lat": 38.929173, "rental_uris": {"ios": "https://dc.lft.to/lastmile_qr_scan", "android": "https://dc.lft.to/lastmile_qr_scan"}, "is_reserved": 0, "fusion_lon": 0.0, "fusion_lat": 0.0, "lon": -77.03294216666667, "name": "ca2428ad7d78b2f64f9a2e337d9ac545"}, {"bike_id": "3253be888fe92bba4e71d268916c2355", "type": "electric_scooter", "is_disabled": 0, "lat": 38.894682, "rental_uris": {"ios": "https://dc.lft.to/lastmile_qr_scan", "android": "https://dc.lft.to/lastmile_qr_scan"}, "is_reserved": 0, "fusion_lon": 0.0, "fusion_lat": 0.0, "lon": -77.02798683333333, "name": "3253be888fe92bba4e71d268916c2355"}, {"bike_id": "28a1234051e8181c66174f7a4d62ad48", "type": "electric_scooter", "is_disabled": 0, "lat": 38.905754, "rental_uris": {"ios": "https://dc.lft.to/lastmile_qr_scan", "android": "https://dc.lft.to/lastmile_qr_scan"}, "is_reserved": 0, "fusion_lon": 0.0, "fusion_lat": 0.0, "lon": -77.0057515, "name": "28a1234051e8181c66174f7a4d62ad48"}, {"bike_id": "e4a0496acf24ddc6e8ee20d4f5511d1e", "type": "electric_bike", "is_disabled": 0, "lat": 38.9000505, "rental_uris": {"ios": "https://dc.lft.to/lastmile_qr_scan", "android": "https://dc.lft.to/lastmile_qr_scan"}, "is_reserved": 0, "fusion_lon": 0.0, "fusion_lat": 0.0, "lon": -77.07538133333334, "name": "e4a0496acf24ddc6e8ee20d4f5511d1e"}, {"bike_id": "982ebbc0ec434db4e472c7371aadcef5", "type": "electric_bike", "is_disabled": 0, "lat": 38.80414716666667, "rental_uris": {"ios": "https://dc.lft.to/lastmile_qr_scan", "android": "https://dc.lft.to/lastmile_qr_scan"}, "is_reserved": 0, "fusion_lon": 0.0, "fusion_lat": 0.0, "lon": -77.05551683333333, "name": "982ebbc0ec434db4e472c7371aadcef5"}, {"bike_id": "1db38e7dc155b3873cd0ba6cfac8d76b", "type": "electric_scooter", "is_disabled": 0, "lat": 38.9170415, "rental_uris": {"ios": "https://dc.lft.to/lastmile_qr_scan", "android": "https://dc.lft.to/lastmile_qr_scan"}, "is_reserved": 0, "fusion_lon": 0.0, "fusion_lat": 0.0, "lon": -77.03489933333333, "name": "1db38e7dc155b3873cd0ba6cfac8d76b"}, {"bike_id": "a6a4932dce74fde04ba0d71bf5edd3eb", "type": "electric_scooter", "is_disabled": 0, "lat": 38.933902333333336, "rental_uris": {"ios": "https://dc.lft.to/lastmile_qr_scan", "android": "https://dc.lft.to/lastmile_qr_scan"}, "is_reserved": 0, "fusion_lon": 0.0, "fusion_lat": 0.0, "lon": -77.032247, "name": "a6a4932dce74fde04ba0d71bf5edd3eb"}, {"bike_id": "041ccdda14b905befed63e548f23d480", "type": "electric_scooter", "is_disabled": 0, "lat": 38.9198315, "rental_uris": {"ios": "https://dc.lft.to/lastmile_qr_scan", "android": "https://dc.lft.to/lastmile_qr_scan"}, "is_reserved": 0, "fusion_lon": 0.0, "fusion_lat": 0.0, "lon": -77.0122155, "name": "041ccdda14b905befed63e548f23d480"}, {"bike_id": "893e0684f4e18f09e7d2519c0d02f61d", "type": "electric_scooter", "is_disabled": 0, "lat": 38.91965116666667, "rental_uris": {"ios": "https://dc.lft.to/lastmile_qr_scan", "android": "https://dc.lft.to/lastmile_qr_scan"}, "is_reserved": 0, "fusion_lon": 0.0, "fusion_lat": 0.0, "lon": -77.04217916666667, "name": "893e0684f4e18f09e7d2519c0d02f61d"}, {"bike_id": "e07a330fc87f6d3ed64396ee922230fd", "type": "electric_bike", "is_disabled": 0, "lat": 38.9553035, "rental_uris": {"ios": "https://dc.lft.to/lastmile_qr_scan", "android": "https://dc.lft.to/lastmile_qr_scan"}, "is_reserved": 0, "fusion_lon": 0.0, "fusion_lat": 0.0, "lon": -76.96825366666667, "name": "e07a330fc87f6d3ed64396ee922230fd"}, {"bike_id": "0ab3dbed88312456586c7c41f5287a62", "type": "electric_scooter", "is_disabled": 0, "lat": 38.9052415, "rental_uris": {"ios": "https://dc.lft.to/lastmile_qr_scan", "android": "https://dc.lft.to/lastmile_qr_scan"}, "is_reserved": 0, "fusion_lon": 0.0, "fusion_lat": 0.0, "lon": -77.05007066666667, "name": "0ab3dbed88312456586c7c41f5287a62"}, {"bike_id": "2c56d7a8b96b840684d70fc2d6acd755", "type": "electric_scooter", "is_disabled": 0, "lat": 38.905500333333336, "rental_uris": {"ios": "https://dc.lft.to/lastmile_qr_scan", "android": "https://dc.lft.to/lastmile_qr_scan"}, "is_reserved": 0, "fusion_lon": 0.0, "fusion_lat": 0.0, "lon": -76.996176, "name": "2c56d7a8b96b840684d70fc2d6acd755"}, {"bike_id": "c989283b13b1cdd0ec0d1e1f9427322d", "type": "electric_bike", "is_disabled": 0, "lat": 38.811642, "rental_uris": {"ios": "https://dc.lft.to/lastmile_qr_scan", "android": "https://dc.lft.to/lastmile_qr_scan"}, "is_reserved": 0, "fusion_lon": 0.0, "fusion_lat": 0.0, "lon": -77.06959066666667, "name": "c989283b13b1cdd0ec0d1e1f9427322d"}, {"bike_id": "cc0ae7bcb7254d769376eacafdf37fbf", "type": "electric_scooter", "is_disabled": 0, "lat": 38.92119433333333, "rental_uris": {"ios": "https://dc.lft.to/lastmile_qr_scan", "android": "https://dc.lft.to/lastmile_qr_scan"}, "is_reserved": 0, "fusion_lon": 0.0, "fusion_lat": 0.0, "lon": -77.01209483333334, "name": "cc0ae7bcb7254d769376eacafdf37fbf"}, {"bike_id": "16d9dbe945e2e3bfe957a801d91bb36c", "type": "electric_scooter", "is_disabled": 0, "lat": 38.8749075, "rental_uris": {"ios": "https://dc.lft.to/lastmile_qr_scan", "android": "https://dc.lft.to/lastmile_qr_scan"}, "is_reserved": 0, "fusion_lon": 0.0, "fusion_lat": 0.0, "lon": -77.001044, "name": "16d9dbe945e2e3bfe957a801d91bb36c"}, {"bike_id": "3cb6060b263659feacab9d7aaab409fc", "type": "electric_bike", "is_disabled": 0, "lat": 38.85358266666667, "rental_uris": {"ios": "https://dc.lft.to/lastmile_qr_scan", "android": "https://dc.lft.to/lastmile_qr_scan"}, "is_reserved": 0, "fusion_lon": 0.0, "fusion_lat": 0.0, "lon": -77.08688366666667, "name": "3cb6060b263659feacab9d7aaab409fc"}, {"bike_id": "fb49f0fe2d3922867750ca3233ccc492", "type": "electric_scooter", "is_disabled": 0, "lat": 38.921509666666665, "rental_uris": {"ios": "https://dc.lft.to/lastmile_qr_scan", "android": "https://dc.lft.to/lastmile_qr_scan"}, "is_reserved": 0, "fusion_lon": 0.0, "fusion_lat": 0.0, "lon": -77.0351695, "name": "fb49f0fe2d3922867750ca3233ccc492"}, {"bike_id": "dc4dbf2c007a4c470d736af9d0159789", "type": "electric_scooter", "is_disabled": 0, "lat": 38.957360666666666, "rental_uris": {"ios": "https://dc.lft.to/lastmile_qr_scan", "android": "https://dc.lft.to/lastmile_qr_scan"}, "is_reserved": 0, "fusion_lon": 0.0, "fusion_lat": 0.0, "lon": -77.0280385, "name": "dc4dbf2c007a4c470d736af9d0159789"}, {"bike_id": "8e7dc4766a60d5b8adcb5a794bde655d", "type": "electric_scooter", "is_disabled": 0, "lat": 38.9148135, "rental_uris": {"ios": "https://dc.lft.to/lastmile_qr_scan", "android": "https://dc.lft.to/lastmile_qr_scan"}, "is_reserved": 0, "fusion_lon": 0.0, "fusion_lat": 0.0, "lon": -77.00279566666667, "name": "8e7dc4766a60d5b8adcb5a794bde655d"}, {"bike_id": "68b0258835cf7e609a1bf82fce72eea3", "type": "electric_scooter", "is_disabled": 0, "lat": 38.865036, "rental_uris": {"ios": "https://dc.lft.to/lastmile_qr_scan", "android": "https://dc.lft.to/lastmile_qr_scan"}, "is_reserved": 0, "fusion_lon": 0.0, "fusion_lat": 0.0, "lon": -76.99002966666667, "name": "68b0258835cf7e609a1bf82fce72eea3"}, {"bike_id": "499b8dfe5d3b9854432c3fb6900de3bf", "type": "electric_scooter", "is_disabled": 0, "lat": 38.84434916666667, "rental_uris": {"ios": "https://dc.lft.to/lastmile_qr_scan", "android": "https://dc.lft.to/lastmile_qr_scan"}, "is_reserved": 0, "fusion_lon": 0.0, "fusion_lat": 0.0, "lon": -76.9986925, "name": "499b8dfe5d3b9854432c3fb6900de3bf"}, {"bike_id": "5201acf0c714af064bf6c28a14a0e1a7", "type": "electric_scooter", "is_disabled": 0, "lat": 38.956254, "rental_uris": {"ios": "https://dc.lft.to/lastmile_qr_scan", "android": "https://dc.lft.to/lastmile_qr_scan"}, "is_reserved": 0, "fusion_lon": 0.0, "fusion_lat": 0.0, "lon": -77.02238233333334, "name": "5201acf0c714af064bf6c28a14a0e1a7"}, {"bike_id": "b60e472eb44a223a8d4fa78f3409f18a", "type": "electric_scooter", "is_disabled": 0, "lat": 38.91816, "rental_uris": {"ios": "https://dc.lft.to/lastmile_qr_scan", "android": "https://dc.lft.to/lastmile_qr_scan"}, "is_reserved": 0, "fusion_lon": 0.0, "fusion_lat": 0.0, "lon": -77.03190383333333, "name": "b60e472eb44a223a8d4fa78f3409f18a"}, {"bike_id": "2f5d9ba48ab8352811f31984e8f82066", "type": "electric_scooter", "is_disabled": 0, "lat": 38.9098255, "rental_uris": {"ios": "https://dc.lft.to/lastmile_qr_scan", "android": "https://dc.lft.to/lastmile_qr_scan"}, "is_reserved": 0, "fusion_lon": 0.0, "fusion_lat": 0.0, "lon": -77.03371866666667, "name": "2f5d9ba48ab8352811f31984e8f82066"}, {"bike_id": "4de19853ef6edef5a9fa22987872fe10", "type": "electric_scooter", "is_disabled": 0, "lat": 38.91555916666667, "rental_uris": {"ios": "https://dc.lft.to/lastmile_qr_scan", "android": "https://dc.lft.to/lastmile_qr_scan"}, "is_reserved": 0, "fusion_lon": 0.0, "fusion_lat": 0.0, "lon": -77.02640483333333, "name": "4de19853ef6edef5a9fa22987872fe10"}, {"bike_id": "149aabf68c85e0fb27c1b78f2f634ce3", "type": "electric_scooter", "is_disabled": 0, "lat": 38.916925, "rental_uris": {"ios": "https://dc.lft.to/lastmile_qr_scan", "android": "https://dc.lft.to/lastmile_qr_scan"}, "is_reserved": 0, "fusion_lon": 0.0, "fusion_lat": 0.0, "lon": -77.0313025, "name": "149aabf68c85e0fb27c1b78f2f634ce3"}, {"bike_id": "455b0c72c1ecef516ec717733199872f", "type": "electric_scooter", "is_disabled": 0, "lat": 38.88064766666667, "rental_uris": {"ios": "https://dc.lft.to/lastmile_qr_scan", "android": "https://dc.lft.to/lastmile_qr_scan"}, "is_reserved": 0, "fusion_lon": 0.0, "fusion_lat": 0.0, "lon": -77.02551433333333, "name": "455b0c72c1ecef516ec717733199872f"}, {"bike_id": "cb12150e20a126f3c7a28f4bf1d4a34d", "type": "electric_scooter", "is_disabled": 0, "lat": 38.93453266666667, "rental_uris": {"ios": "https://dc.lft.to/lastmile_qr_scan", "android": "https://dc.lft.to/lastmile_qr_scan"}, "is_reserved": 0, "fusion_lon": 0.0, "fusion_lat": 0.0, "lon": -77.04533233333333, "name": "cb12150e20a126f3c7a28f4bf1d4a34d"}, {"bike_id": "5ea39bb2d21f3d1a720eee6e8ba270f0", "type": "electric_scooter", "is_disabled": 0, "lat": 38.91334483333333, "rental_uris": {"ios": "https://dc.lft.to/lastmile_qr_scan", "android": "https://dc.lft.to/lastmile_qr_scan"}, "is_reserved": 0, "fusion_lon": 0.0, "fusion_lat": 0.0, "lon": -77.03189116666667, "name": "5ea39bb2d21f3d1a720eee6e8ba270f0"}, {"bike_id": "4d01dd0518df10331f4043d5cf2a1ba5", "type": "electric_scooter", "is_disabled": 0, "lat": 38.92250683333333, "rental_uris": {"ios": "https://dc.lft.to/lastmile_qr_scan", "android": "https://dc.lft.to/lastmile_qr_scan"}, "is_reserved": 0, "fusion_lon": 0.0, "fusion_lat": 0.0, "lon": -77.04201933333333, "name": "4d01dd0518df10331f4043d5cf2a1ba5"}, {"bike_id": "b89068698aa2fb04236bc8e463ff3ecb", "type": "electric_bike", "is_disabled": 0, "lat": 38.857292, "rental_uris": {"ios": "https://dc.lft.to/lastmile_qr_scan", "android": "https://dc.lft.to/lastmile_qr_scan"}, "is_reserved": 0, "fusion_lon": 0.0, "fusion_lat": 0.0, "lon": -77.07967, "name": "b89068698aa2fb04236bc8e463ff3ecb"}, {"bike_id": "dc0b754b6dd5bc0c80ffe5b0e2f3e400", "type": "electric_scooter", "is_disabled": 0, "lat": 38.89915033333333, "rental_uris": {"ios": "https://dc.lft.to/lastmile_qr_scan", "android": "https://dc.lft.to/lastmile_qr_scan"}, "is_reserved": 0, "fusion_lon": 0.0, "fusion_lat": 0.0, "lon": -76.933708, "name": "dc0b754b6dd5bc0c80ffe5b0e2f3e400"}, {"bike_id": "8e4d57daaf092c23fa8980208d9c21b2", "type": "electric_scooter", "is_disabled": 0, "lat": 38.90716966666667, "rental_uris": {"ios": "https://dc.lft.to/lastmile_qr_scan", "android": "https://dc.lft.to/lastmile_qr_scan"}, "is_reserved": 0, "fusion_lon": 0.0, "fusion_lat": 0.0, "lon": -77.04816966666667, "name": "8e4d57daaf092c23fa8980208d9c21b2"}, {"bike_id": "0d4c0b00cde1385143d6e2a719e115f2", "type": "electric_scooter", "is_disabled": 0, "lat": 38.89220516666666, "rental_uris": {"ios": "https://dc.lft.to/lastmile_qr_scan", "android": "https://dc.lft.to/lastmile_qr_scan"}, "is_reserved": 0, "fusion_lon": 0.0, "fusion_lat": 0.0, "lon": -77.04654916666667, "name": "0d4c0b00cde1385143d6e2a719e115f2"}, {"bike_id": "72634796cefadddf41a525c5b305a33c", "type": "electric_scooter", "is_disabled": 0, "lat": 38.911785333333334, "rental_uris": {"ios": "https://dc.lft.to/lastmile_qr_scan", "android": "https://dc.lft.to/lastmile_qr_scan"}, "is_reserved": 0, "fusion_lon": 0.0, "fusion_lat": 0.0, "lon": -77.03869466666667, "name": "72634796cefadddf41a525c5b305a33c"}, {"bike_id": "cc3ae96d7134025860949e681444da9b", "type": "electric_scooter", "is_disabled": 0, "lat": 38.91616333333333, "rental_uris": {"ios": "https://dc.lft.to/lastmile_qr_scan", "android": "https://dc.lft.to/lastmile_qr_scan"}, "is_reserved": 0, "fusion_lon": 0.0, "fusion_lat": 0.0, "lon": -77.02303833333333, "name": "cc3ae96d7134025860949e681444da9b"}, {"bike_id": "b7a1802e4048af2ab474715f3aa5540b", "type": "electric_scooter", "is_disabled": 0, "lat": 38.90126566666667, "rental_uris": {"ios": "https://dc.lft.to/lastmile_qr_scan", "android": "https://dc.lft.to/lastmile_qr_scan"}, "is_reserved": 0, "fusion_lon": 0.0, "fusion_lat": 0.0, "lon": -77.036628, "name": "b7a1802e4048af2ab474715f3aa5540b"}, {"bike_id": "cfe054419b76642a64bba4e5f8fc9530", "type": "electric_scooter", "is_disabled": 0, "lat": 38.95299283333333, "rental_uris": {"ios": "https://dc.lft.to/lastmile_qr_scan", "android": "https://dc.lft.to/lastmile_qr_scan"}, "is_reserved": 0, "fusion_lon": 0.0, "fusion_lat": 0.0, "lon": -77.02648116666667, "name": "cfe054419b76642a64bba4e5f8fc9530"}, {"bike_id": "47ca830a2b08357b1c3231dd4f6f0e30", "type": "electric_scooter", "is_disabled": 0, "lat": 38.8900715, "rental_uris": {"ios": "https://dc.lft.to/lastmile_qr_scan", "android": "https://dc.lft.to/lastmile_qr_scan"}, "is_reserved": 0, "fusion_lon": 0.0, "fusion_lat": 0.0, "lon": -76.93744783333334, "name": "47ca830a2b08357b1c3231dd4f6f0e30"}, {"bike_id": "2b6a813adef636c6c97c557fa5ae9bbe", "type": "electric_scooter", "is_disabled": 0, "lat": 38.904596, "rental_uris": {"ios": "https://dc.lft.to/lastmile_qr_scan", "android": "https://dc.lft.to/lastmile_qr_scan"}, "is_reserved": 0, "fusion_lon": 0.0, "fusion_lat": 0.0, "lon": -77.05342883333333, "name": "2b6a813adef636c6c97c557fa5ae9bbe"}, {"bike_id": "a35c07cfc93e23e8ff10e0a070a87697", "type": "electric_scooter", "is_disabled": 0, "lat": 38.892323, "rental_uris": {"ios": "https://dc.lft.to/lastmile_qr_scan", "android": "https://dc.lft.to/lastmile_qr_scan"}, "is_reserved": 0, "fusion_lon": 0.0, "fusion_lat": 0.0, "lon": -77.04675366666666, "name": "a35c07cfc93e23e8ff10e0a070a87697"}, {"bike_id": "6b28f20614e81dd0fe2d36892e1e7baa", "type": "electric_scooter", "is_disabled": 0, "lat": 38.907193166666666, "rental_uris": {"ios": "https://dc.lft.to/lastmile_qr_scan", "android": "https://dc.lft.to/lastmile_qr_scan"}, "is_reserved": 0, "fusion_lon": 0.0, "fusion_lat": 0.0, "lon": -77.0465005, "name": "6b28f20614e81dd0fe2d36892e1e7baa"}, {"bike_id": "f951805d74467273add5476677c2b9ae", "type": "electric_scooter", "is_disabled": 0, "lat": 38.91929783333333, "rental_uris": {"ios": "https://dc.lft.to/lastmile_qr_scan", "android": "https://dc.lft.to/lastmile_qr_scan"}, "is_reserved": 0, "fusion_lon": 0.0, "fusion_lat": 0.0, "lon": -77.02577283333333, "name": "f951805d74467273add5476677c2b9ae"}, {"bike_id": "1d20472318e2a9efbe856458acd43224", "type": "electric_scooter", "is_disabled": 0, "lat": 38.906828, "rental_uris": {"ios": "https://dc.lft.to/lastmile_qr_scan", "android": "https://dc.lft.to/lastmile_qr_scan"}, "is_reserved": 0, "fusion_lon": 0.0, "fusion_lat": 0.0, "lon": -77.02692533333334, "name": "1d20472318e2a9efbe856458acd43224"}, {"bike_id": "67ea8170c5b3a7ca424b68fa684e89d0", "type": "electric_scooter", "is_disabled": 0, "lat": 38.872843833333334, "rental_uris": {"ios": "https://dc.lft.to/lastmile_qr_scan", "android": "https://dc.lft.to/lastmile_qr_scan"}, "is_reserved": 0, "fusion_lon": 0.0, "fusion_lat": 0.0, "lon": -77.009859, "name": "67ea8170c5b3a7ca424b68fa684e89d0"}, {"bike_id": "ee0c42980c54593966ed3dfafa22dc76", "type": "electric_scooter", "is_disabled": 0, "lat": 38.90714466666667, "rental_uris": {"ios": "https://dc.lft.to/lastmile_qr_scan", "android": "https://dc.lft.to/lastmile_qr_scan"}, "is_reserved": 0, "fusion_lon": 0.0, "fusion_lat": 0.0, "lon": -77.050201, "name": "ee0c42980c54593966ed3dfafa22dc76"}, {"bike_id": "4fd2e3322295fbf5860bb3f3338e7b42", "type": "electric_scooter", "is_disabled": 0, "lat": 38.9184855, "rental_uris": {"ios": "https://dc.lft.to/lastmile_qr_scan", "android": "https://dc.lft.to/lastmile_qr_scan"}, "is_reserved": 0, "fusion_lon": 0.0, "fusion_lat": 0.0, "lon": -76.96548733333333, "name": "4fd2e3322295fbf5860bb3f3338e7b42"}, {"bike_id": "c7c2aad8bcc2ae0edeca1b660f149aba", "type": "electric_scooter", "is_disabled": 0, "lat": 38.886547166666666, "rental_uris": {"ios": "https://dc.lft.to/lastmile_qr_scan", "android": "https://dc.lft.to/lastmile_qr_scan"}, "is_reserved": 0, "fusion_lon": 0.0, "fusion_lat": 0.0, "lon": -77.0011735, "name": "c7c2aad8bcc2ae0edeca1b660f149aba"}, {"bike_id": "c1c39d7f42fe019ec708aa4f4a08c3d1", "type": "electric_scooter", "is_disabled": 0, "lat": 38.90722, "rental_uris": {"ios": "https://dc.lft.to/lastmile_qr_scan", "android": "https://dc.lft.to/lastmile_qr_scan"}, "is_reserved": 0, "fusion_lon": 0.0, "fusion_lat": 0.0, "lon": -77.0394345, "name": "c1c39d7f42fe019ec708aa4f4a08c3d1"}, {"bike_id": "6622ec3b7785f1034422ba86b3a5ceb7", "type": "electric_scooter", "is_disabled": 0, "lat": 38.915505833333334, "rental_uris": {"ios": "https://dc.lft.to/lastmile_qr_scan", "android": "https://dc.lft.to/lastmile_qr_scan"}, "is_reserved": 0, "fusion_lon": 0.0, "fusion_lat": 0.0, "lon": -77.04010066666666, "name": "6622ec3b7785f1034422ba86b3a5ceb7"}, {"bike_id": "170e435523ac1bf0613ab2b6ca3dc0dc", "type": "electric_scooter", "is_disabled": 0, "lat": 38.90167183333333, "rental_uris": {"ios": "https://dc.lft.to/lastmile_qr_scan", "android": "https://dc.lft.to/lastmile_qr_scan"}, "is_reserved": 0, "fusion_lon": 0.0, "fusion_lat": 0.0, "lon": -76.9302265, "name": "170e435523ac1bf0613ab2b6ca3dc0dc"}, {"bike_id": "d2f366b6150b8b24c7661a2b77264622", "type": "electric_bike", "is_disabled": 0, "lat": 38.7985435, "rental_uris": {"ios": "https://dc.lft.to/lastmile_qr_scan", "android": "https://dc.lft.to/lastmile_qr_scan"}, "is_reserved": 0, "fusion_lon": 0.0, "fusion_lat": 0.0, "lon": -77.06308316666667, "name": "d2f366b6150b8b24c7661a2b77264622"}, {"bike_id": "88620ca15c2835ab787f1df050b943d4", "type": "electric_scooter", "is_disabled": 0, "lat": 38.956565833333336, "rental_uris": {"ios": "https://dc.lft.to/lastmile_qr_scan", "android": "https://dc.lft.to/lastmile_qr_scan"}, "is_reserved": 0, "fusion_lon": 0.0, "fusion_lat": 0.0, "lon": -77.01004333333333, "name": "88620ca15c2835ab787f1df050b943d4"}, {"bike_id": "9cd55d9535fdca2ddebcb00afe00e615", "type": "electric_scooter", "is_disabled": 0, "lat": 38.886981666666664, "rental_uris": {"ios": "https://dc.lft.to/lastmile_qr_scan", "android": "https://dc.lft.to/lastmile_qr_scan"}, "is_reserved": 0, "fusion_lon": 0.0, "fusion_lat": 0.0, "lon": -76.99612733333333, "name": "9cd55d9535fdca2ddebcb00afe00e615"}, {"bike_id": "3b2af9b55f58fa4da4f46fb0fd023857", "type": "electric_scooter", "is_disabled": 0, "lat": 38.956363333333336, "rental_uris": {"ios": "https://dc.lft.to/lastmile_qr_scan", "android": "https://dc.lft.to/lastmile_qr_scan"}, "is_reserved": 0, "fusion_lon": 0.0, "fusion_lat": 0.0, "lon": -77.011524, "name": "3b2af9b55f58fa4da4f46fb0fd023857"}, {"bike_id": "761c4c424b81863ea52a7204ba7fd100", "type": "electric_bike", "is_disabled": 0, "lat": 38.874781, "rental_uris": {"ios": "https://dc.lft.to/lastmile_qr_scan", "android": "https://dc.lft.to/lastmile_qr_scan"}, "is_reserved": 0, "fusion_lon": 0.0, "fusion_lat": 0.0, "lon": -76.965263, "name": "761c4c424b81863ea52a7204ba7fd100"}, {"bike_id": "820e9d50ed889549c27fc39c9d8f7315", "type": "electric_scooter", "is_disabled": 0, "lat": 38.90520816666667, "rental_uris": {"ios": "https://dc.lft.to/lastmile_qr_scan", "android": "https://dc.lft.to/lastmile_qr_scan"}, "is_reserved": 0, "fusion_lon": 0.0, "fusion_lat": 0.0, "lon": -77.06384366666667, "name": "820e9d50ed889549c27fc39c9d8f7315"}, {"bike_id": "3432ba01c35e9313c3e37a5105537a90", "type": "electric_scooter", "is_disabled": 0, "lat": 38.900661166666666, "rental_uris": {"ios": "https://dc.lft.to/lastmile_qr_scan", "android": "https://dc.lft.to/lastmile_qr_scan"}, "is_reserved": 0, "fusion_lon": 0.0, "fusion_lat": 0.0, "lon": -77.0122085, "name": "3432ba01c35e9313c3e37a5105537a90"}, {"bike_id": "06b7eb6339b416a3fc46b0ba9fcaf5b1", "type": "electric_scooter", "is_disabled": 0, "lat": 38.918144833333336, "rental_uris": {"ios": "https://dc.lft.to/lastmile_qr_scan", "android": "https://dc.lft.to/lastmile_qr_scan"}, "is_reserved": 0, "fusion_lon": 0.0, "fusion_lat": 0.0, "lon": -77.0247325, "name": "06b7eb6339b416a3fc46b0ba9fcaf5b1"}, {"bike_id": "f96e59cecebc155521717897d2d70556", "type": "electric_scooter", "is_disabled": 0, "lat": 38.91504416666667, "rental_uris": {"ios": "https://dc.lft.to/lastmile_qr_scan", "android": "https://dc.lft.to/lastmile_qr_scan"}, "is_reserved": 0, "fusion_lon": 0.0, "fusion_lat": 0.0, "lon": -77.01773233333333, "name": "f96e59cecebc155521717897d2d70556"}, {"bike_id": "3814c7f235e6ee8b19d5a0c13cd81d94", "type": "electric_scooter", "is_disabled": 0, "lat": 38.924533, "rental_uris": {"ios": "https://dc.lft.to/lastmile_qr_scan", "android": "https://dc.lft.to/lastmile_qr_scan"}, "is_reserved": 0, "fusion_lon": 0.0, "fusion_lat": 0.0, "lon": -77.044029, "name": "3814c7f235e6ee8b19d5a0c13cd81d94"}, {"bike_id": "eb1a80aab49adf64660123c1ccde7127", "type": "electric_scooter", "is_disabled": 0, "lat": 38.9275015, "rental_uris": {"ios": "https://dc.lft.to/lastmile_qr_scan", "android": "https://dc.lft.to/lastmile_qr_scan"}, "is_reserved": 0, "fusion_lon": 0.0, "fusion_lat": 0.0, "lon": -77.05641966666667, "name": "eb1a80aab49adf64660123c1ccde7127"}, {"bike_id": "9eaeb03b777f50dea1ee42003d006b17", "type": "electric_scooter", "is_disabled": 0, "lat": 38.911448666666665, "rental_uris": {"ios": "https://dc.lft.to/lastmile_qr_scan", "android": "https://dc.lft.to/lastmile_qr_scan"}, "is_reserved": 0, "fusion_lon": 0.0, "fusion_lat": 0.0, "lon": -77.00469083333333, "name": "9eaeb03b777f50dea1ee42003d006b17"}, {"bike_id": "81ef043c65a193ea8941c395d2426d96", "type": "electric_scooter", "is_disabled": 0, "lat": 38.91859016666667, "rental_uris": {"ios": "https://dc.lft.to/lastmile_qr_scan", "android": "https://dc.lft.to/lastmile_qr_scan"}, "is_reserved": 0, "fusion_lon": 0.0, "fusion_lat": 0.0, "lon": -77.04168966666667, "name": "81ef043c65a193ea8941c395d2426d96"}, {"bike_id": "de6b8b3d9a36a3624b5996d9a1ee9235", "type": "electric_scooter", "is_disabled": 0, "lat": 38.928611833333335, "rental_uris": {"ios": "https://dc.lft.to/lastmile_qr_scan", "android": "https://dc.lft.to/lastmile_qr_scan"}, "is_reserved": 0, "fusion_lon": 0.0, "fusion_lat": 0.0, "lon": -77.0231015, "name": "de6b8b3d9a36a3624b5996d9a1ee9235"}, {"bike_id": "11772e652fe2086669133d53cc5f952d", "type": "electric_scooter", "is_disabled": 0, "lat": 38.90538883333333, "rental_uris": {"ios": "https://dc.lft.to/lastmile_qr_scan", "android": "https://dc.lft.to/lastmile_qr_scan"}, "is_reserved": 0, "fusion_lon": 0.0, "fusion_lat": 0.0, "lon": -77.02999616666666, "name": "11772e652fe2086669133d53cc5f952d"}, {"bike_id": "127e6d224ca5f01705f008e7905531cd", "type": "electric_scooter", "is_disabled": 0, "lat": 38.91415933333333, "rental_uris": {"ios": "https://dc.lft.to/lastmile_qr_scan", "android": "https://dc.lft.to/lastmile_qr_scan"}, "is_reserved": 0, "fusion_lon": 0.0, "fusion_lat": 0.0, "lon": -77.02814583333334, "name": "127e6d224ca5f01705f008e7905531cd"}, {"bike_id": "4c4f8d0684c66a80692de8ca10758e0e", "type": "electric_scooter", "is_disabled": 0, "lat": 38.918198333333336, "rental_uris": {"ios": "https://dc.lft.to/lastmile_qr_scan", "android": "https://dc.lft.to/lastmile_qr_scan"}, "is_reserved": 0, "fusion_lon": 0.0, "fusion_lat": 0.0, "lon": -77.03166816666666, "name": "4c4f8d0684c66a80692de8ca10758e0e"}, {"bike_id": "e1c6b16c083feda6faf205a2abf30102", "type": "electric_scooter", "is_disabled": 0, "lat": 38.8842415, "rental_uris": {"ios": "https://dc.lft.to/lastmile_qr_scan", "android": "https://dc.lft.to/lastmile_qr_scan"}, "is_reserved": 0, "fusion_lon": 0.0, "fusion_lat": 0.0, "lon": -76.95747633333333, "name": "e1c6b16c083feda6faf205a2abf30102"}, {"bike_id": "df0e6de8d6828450a1e6839f1a0d2c4e", "type": "electric_scooter", "is_disabled": 0, "lat": 38.91522466666667, "rental_uris": {"ios": "https://dc.lft.to/lastmile_qr_scan", "android": "https://dc.lft.to/lastmile_qr_scan"}, "is_reserved": 0, "fusion_lon": 0.0, "fusion_lat": 0.0, "lon": -77.01988, "name": "df0e6de8d6828450a1e6839f1a0d2c4e"}, {"bike_id": "cf4eadd0722d47302a4b2ee63471fb6d", "type": "electric_scooter", "is_disabled": 0, "lat": 38.911023166666666, "rental_uris": {"ios": "https://dc.lft.to/lastmile_qr_scan", "android": "https://dc.lft.to/lastmile_qr_scan"}, "is_reserved": 0, "fusion_lon": 0.0, "fusion_lat": 0.0, "lon": -77.00216166666667, "name": "cf4eadd0722d47302a4b2ee63471fb6d"}, {"bike_id": "eedd018633e14d9235fd44e96333a02b", "type": "electric_scooter", "is_disabled": 0, "lat": 38.887359000000004, "rental_uris": {"ios": "https://dc.lft.to/lastmile_qr_scan", "android": "https://dc.lft.to/lastmile_qr_scan"}, "is_reserved": 0, "fusion_lon": 0.0, "fusion_lat": 0.0, "lon": -77.01533316666666, "name": "eedd018633e14d9235fd44e96333a02b"}, {"bike_id": "78fec9143d6e8a772c645a17b6f13fb2", "type": "electric_scooter", "is_disabled": 0, "lat": 38.912465833333336, "rental_uris": {"ios": "https://dc.lft.to/lastmile_qr_scan", "android": "https://dc.lft.to/lastmile_qr_scan"}, "is_reserved": 0, "fusion_lon": 0.0, "fusion_lat": 0.0, "lon": -77.0221905, "name": "78fec9143d6e8a772c645a17b6f13fb2"}, {"bike_id": "228dc56eb3104f09ad53c77516bbb70f", "type": "electric_bike", "is_disabled": 0, "lat": 38.838518, "rental_uris": {"ios": "https://dc.lft.to/lastmile_qr_scan", "android": "https://dc.lft.to/lastmile_qr_scan"}, "is_reserved": 0, "fusion_lon": 0.0, "fusion_lat": 0.0, "lon": -77.0503205, "name": "228dc56eb3104f09ad53c77516bbb70f"}, {"bike_id": "00c6fc2ac04a34368af73fa2fcb1c6af", "type": "electric_scooter", "is_disabled": 0, "lat": 38.903852, "rental_uris": {"ios": "https://dc.lft.to/lastmile_qr_scan", "android": "https://dc.lft.to/lastmile_qr_scan"}, "is_reserved": 0, "fusion_lon": 0.0, "fusion_lat": 0.0, "lon": -76.98200983333334, "name": "00c6fc2ac04a34368af73fa2fcb1c6af"}, {"bike_id": "3dbb46e6197d09dd086cb21d73ed7bff", "type": "electric_scooter", "is_disabled": 0, "lat": 38.92020133333333, "rental_uris": {"ios": "https://dc.lft.to/lastmile_qr_scan", "android": "https://dc.lft.to/lastmile_qr_scan"}, "is_reserved": 0, "fusion_lon": 0.0, "fusion_lat": 0.0, "lon": -77.00191066666666, "name": "3dbb46e6197d09dd086cb21d73ed7bff"},