{"data": {"bikes": [{"bike_id": "03a17ef0a5a675604759d86b0d3cb962", "fusion_lon": 0.0, "lon": -77.03652033333333, "name": "03a17ef0a5a675604759d86b0d3cb962", "is_disabled": 0, "rental_uris": {"android": "https://dc.lft.to/lastmile_qr_scan", "ios": "https://dc.lft.to/lastmile_qr_scan"}, "type": "electric_scooter", "lat": 38.90276816666667, "is_reserved": 0, "fusion_lat": 0.0}, {"bike_id": "fca9e5b776c99602108b62597bb27e7e", "fusion_lon": 0.0, "lon": -77.036948, "name": "fca9e5b776c99602108b62597bb27e7e", "is_disabled": 0, "rental_uris": {"android": "https://dc.lft.to/lastmile_qr_scan", "ios": "https://dc.lft.to/lastmile_qr_scan"}, "type": "electric_bike", "lat": 38.9396895, "is_reserved": 0, "fusion_lat": 0.0}, {"bike_id": "edc306a3a94bed3013586541d5e26e86", "fusion_lon": 0.0, "lon": -76.93733916666666, "name": "edc306a3a94bed3013586541d5e26e86", "is_disabled": 0, "rental_uris": {"android": "https://dc.lft.to/lastmile_qr_scan", "ios": "https://dc.lft.to/lastmile_qr_scan"}, "type": "electric_scooter", "lat": 38.89015216666667, "is_reserved": 0, "fusion_lat": 0.0}, {"bike_id": "9baf3aae8104bbe44b25d0ec9bc61f6e", "fusion_lon": 0.0, "lon": -77.04151316666666, "name": "9baf3aae8104bbe44b25d0ec9bc61f6e", "is_disabled": 0, "rental_uris": {"android": "https://dc.lft.to/lastmile_qr_scan", "ios": "https://dc.lft.to/lastmile_qr_scan"}, "type": "electric_scooter", "lat": 38.923004166666665, "is_reserved": 0, "fusion_lat": 0.0}, {"bike_id": "24c9bd02cdbae477c54003746ecccc03", "fusion_lon": 0.0, "lon": -77.04773033333333, "name": "24c9bd02cdbae477c54003746ecccc03", "is_disabled": 0, "rental_uris": {"android": "https://dc.lft.to/lastmile_qr_scan", "ios": "https://dc.lft.to/lastmile_qr_scan"}, "type": "electric_scooter", "lat": 38.907214333333336, "is_reserved": 0, "fusion_lat": 0.0}, {"bike_id": "11eaaa15b39dbfdc42297da19fff54a8", "fusion_lon": 0.0, "lon": -77.0128805, "name": "11eaaa15b39dbfdc42297da19fff54a8", "is_disabled": 0, "rental_uris": {"android": "https://dc.lft.to/lastmile_qr_scan", "ios": "https://dc.lft.to/lastmile_qr_scan"}, "type": "electric_bike", "lat": 39.00384416666667, "is_reserved": 0, "fusion_lat": 0.0}, {"bike_id": "31813f02bf88b7cba42aa7edf9037403", "fusion_lon": 0.0, "lon": -77.02159183333333, "name": "31813f02bf88b7cba42aa7edf9037403", "is_disabled": 0, "rental_uris": {"android": "https://dc.lft.to/lastmile_qr_scan", "ios": "https://dc.lft.to/lastmile_qr_scan"}, "type": "electric_scooter", "lat": 38.92499133333333, "is_reserved": 0, "fusion_lat": 0.0}, {"bike_id": "b7b5bace6c4d6358d38ff141f60e25c1", "fusion_lon": 0.0, "lon": -77.21650133333333, "name": "b7b5bace6c4d6358d38ff141f60e25c1", "is_disabled": 0, "rental_uris": {"android": "https://dc.lft.to/lastmile_qr_scan", "ios": "https://dc.lft.to/lastmile_qr_scan"}, "type": "electric_bike", "lat": 38.930142333333336, "is_reserved": 0, "fusion_lat": 0.0}, {"bike_id": "517787ddc930905433ce0cd8aabf955f", "fusion_lon": 0.0, "lon": -77.02860483333333, "name": "517787ddc930905433ce0cd8aabf955f", "is_disabled": 0, "rental_uris": {"android": "https://dc.lft.to/lastmile_qr_scan", "ios": "https://dc.lft.to/lastmile_qr_scan"}, "type": "electric_bike", "lat": 38.998327833333335, "is_reserved": 0, "fusion_lat": 0.0}, {"bike_id": "7dcb8c716aa7079eeb14ed871036e57f", "fusion_lon": 0.0, "lon": -77.05882233333334, "name": "7dcb8c716aa7079eeb14ed871036e57f", "is_disabled": 0, "rental_uris": {"android": "https://dc.lft.to/lastmile_qr_scan", "ios": "https://dc.lft.to/lastmile_qr_scan"}, "type": "electric_bike", "lat": 38.95896183333333, "is_reserved": 0, "fusion_lat": 0.0}, {"bike_id": "00ccab0a419ee1b95afe1cd64dd36518", "fusion_lon": 0.0, "lon": -77.03363483333334, "name": "00ccab0a419ee1b95afe1cd64dd36518", "is_disabled": 0, "rental_uris": {"android": "https://dc.lft.to/lastmile_qr_scan", "ios": "https://dc.lft.to/lastmile_qr_scan"}, "type": "electric_scooter", "lat": 38.92159316666667, "is_reserved": 0, "fusion_lat": 0.0}, {"bike_id": "2e71fdd03c5b773475d830fe84bb1fd5", "fusion_lon": 0.0, "lon": -77.01697583333333, "name": "2e71fdd03c5b773475d830fe84bb1fd5", "is_disabled": 0, "rental_uris": {"android": "https://dc.lft.to/lastmile_qr_scan", "ios": "https://dc.lft.to/lastmile_qr_scan"}, "type": "electric_scooter", "lat": 38.911764, "is_reserved": 0, "fusion_lat": 0.0}, {"bike_id": "2edf4e50f4968a666764879947b03c7d", "fusion_lon": 0.0, "lon": -77.02379566666667, "name": "2edf4e50f4968a666764879947b03c7d", "is_disabled": 0, "rental_uris": {"android": "https://dc.lft.to/lastmile_qr_scan", "ios": "https://dc.lft.to/lastmile_qr_scan"}, "type": "electric_scooter", "lat": 38.90195633333333, "is_reserved": 0, "fusion_lat": 0.0}, {"bike_id": "4a6edb49cf3e140a9b482c125ac7c389", "fusion_lon": 0.0, "lon": -77.04644483333334, "name": "4a6edb49cf3e140a9b482c125ac7c389", "is_disabled": 0, "rental_uris": {"android": "https://dc.lft.to/lastmile_qr_scan", "ios": "https://dc.lft.to/lastmile_qr_scan"}, "type": "electric_bike", "lat": 39.05508066666667, "is_reserved": 0, "fusion_lat": 0.0}, {"bike_id": "8a1c12fc176ea2d7714b806d7002c114", "fusion_lon": 0.0, "lon": -76.97259266666667, "name": "8a1c12fc176ea2d7714b806d7002c114", "is_disabled": 0, "rental_uris": {"android": "https://dc.lft.to/lastmile_qr_scan", "ios": "https://dc.lft.to/lastmile_qr_scan"}, "type": "electric_bike", "lat": 38.91967666666667, "is_reserved": 0, "fusion_lat": 0.0}, {"bike_id": "1453ee8de13aa75fbda44bcff0f4b785", "fusion_lon": 0.0, "lon": -77.03204733333334, "name": "1453ee8de13aa75fbda44bcff0f4b785", "is_disabled": 0, "rental_uris": {"android": "https://dc.lft.to/lastmile_qr_scan", "ios": "https://dc.lft.to/lastmile_qr_scan"}, "type": "electric_scooter", "lat": 38.895739, "is_reserved": 0, "fusion_lat": 0.0}, {"bike_id": "4a2d2411444b87bb662da0405cb02e01", "fusion_lon": 0.0, "lon": -77.05290466666666, "name": "4a2d2411444b87bb662da0405cb02e01", "is_disabled": 0, "rental_uris": {"android": "https://dc.lft.to/lastmile_qr_scan", "ios": "https://dc.lft.to/lastmile_qr_scan"}, "type": "electric_scooter", "lat": 38.927159333333336, "is_reserved": 0, "fusion_lat": 0.0}, {"bike_id": "626e20d235f8898dfea62b0ba83ad8d1", "fusion_lon": 0.0, "lon": -77.00318033333333, "name": "626e20d235f8898dfea62b0ba83ad8d1", "is_disabled": 0, "rental_uris": {"android": "https://dc.lft.to/lastmile_qr_scan", "ios": "https://dc.lft.to/lastmile_qr_scan"}, "type": "electric_scooter", "lat": 38.908983666666664, "is_reserved": 0, "fusion_lat": 0.0}, {"bike_id": "11ba3d2f13efab86068a2c07d5429d13", "fusion_lon": 0.0, "lon": -77.05426416666667, "name": "11ba3d2f13efab86068a2c07d5429d13", "is_disabled": 0, "rental_uris": {"android": "https://dc.lft.to/lastmile_qr_scan", "ios": "https://dc.lft.to/lastmile_qr_scan"}, "type": "electric_scooter", "lat": 38.9236885, "is_reserved": 0, "fusion_lat": 0.0}, {"bike_id": "76990f31c52a4e699e97191021e7c2e4", "fusion_lon": 0.0, "lon": -77.0229055, "name": "76990f31c52a4e699e97191021e7c2e4", "is_disabled": 0, "rental_uris": {"android": "https://dc.lft.to/lastmile_qr_scan", "ios": "https://dc.lft.to/lastmile_qr_scan"}, "type": "electric_scooter", "lat": 38.915681, "is_reserved": 0, "fusion_lat": 0.0}, {"bike_id": "b92134ef54a7107ed69cfaefd131c7ad", "fusion_lon": 0.0, "lon": -77.03808333333333, "name": "b92134ef54a7107ed69cfaefd131c7ad", "is_disabled": 0, "rental_uris": {"android": "https://dc.lft.to/lastmile_qr_scan", "ios": "https://dc.lft.to/lastmile_qr_scan"}, "type": "electric_scooter", "lat": 38.92193866666667, "is_reserved": 0, "fusion_lat": 0.0}, {"bike_id": "e12ed614a73c1881464339cdbd80a6da", "fusion_lon": 0.0, "lon": -77.00975933333334, "name": "e12ed614a73c1881464339cdbd80a6da", "is_disabled": 0, "rental_uris": {"android": "https://dc.lft.to/lastmile_qr_scan", "ios": "https://dc.lft.to/lastmile_qr_scan"}, "type": "electric_scooter", "lat": 38.91559783333334, "is_reserved": 0, "fusion_lat": 0.0}, {"bike_id": "70d510a6cb20353ca56c6dd25d224ee7", "fusion_lon": 0.0, "lon": -77.05313366666667, "name": "70d510a6cb20353ca56c6dd25d224ee7", "is_disabled": 0, "rental_uris": {"android": "https://dc.lft.to/lastmile_qr_scan", "ios": "https://dc.lft.to/lastmile_qr_scan"}, "type": "electric_scooter", "lat": 38.90426766666667, "is_reserved": 0, "fusion_lat": 0.0}, {"bike_id": "04467e524f7222bcc735b5ad9b0f0963", "fusion_lon": 0.0, "lon": -77.052693, "name": "04467e524f7222bcc735b5ad9b0f0963", "is_disabled": 0, "rental_uris": {"android": "https://dc.lft.to/lastmile_qr_scan", "ios": "https://dc.lft.to/lastmile_qr_scan"}, "type": "electric_scooter", "lat": 38.899716833333336, "is_reserved": 0, "fusion_lat": 0.0}, {"bike_id": "ac4456183b163b5b6843d1c144a89dae", "fusion_lon": 0.0, "lon": -77.00560716666666, "name": "ac4456183b163b5b6843d1c144a89dae", "is_disabled": 0, "rental_uris": {"android": "https://dc.lft.to/lastmile_qr_scan", "ios": "https://dc.lft.to/lastmile_qr_scan"}, "type": "electric_scooter", "lat": 38.90560583333333, "is_reserved": 0, "fusion_lat": 0.0}, {"bike_id": "fa7797aec084fe25f39ef1c74f02aef2", "fusion_lon": 0.0, "lon": -77.0384455, "name": "fa7797aec084fe25f39ef1c74f02aef2", "is_disabled": 0, "rental_uris": {"android": "https://dc.lft.to/lastmile_qr_scan", "ios": "https://dc.lft.to/lastmile_qr_scan"}, "type": "electric_scooter", "lat": 38.90968383333333, "is_reserved": 0, "fusion_lat": 0.0}, {"bike_id": "2758f07c04705fbc363bbca83baae6d1", "fusion_lon": 0.0, "lon": -76.9352265, "name": "2758f07c04705fbc363bbca83baae6d1", "is_disabled": 0, "rental_uris": {"android": "https://dc.lft.to/lastmile_qr_scan", "ios": "https://dc.lft.to/lastmile_qr_scan"}, "type": "electric_scooter", "lat": 38.878996, "is_reserved": 0, "fusion_lat": 0.0}, {"bike_id": "87ed690fa17ddd1f87fb30539a8050ed", "fusion_lon": 0.0, "lon": -77.03659033333334, "name": "87ed690fa17ddd1f87fb30539a8050ed", "is_disabled": 0, "rental_uris": {"android": "https://dc.lft.to/lastmile_qr_scan", "ios": "https://dc.lft.to/lastmile_qr_scan"}, "type": "electric_scooter", "lat": 38.920851166666665, "is_reserved": 0, "fusion_lat": 0.0}, {"bike_id": "c1e5fd2dae7c66c0d0b45713fe40fa24", "fusion_lon": 0.0, "lon": -77.034965, "name": "c1e5fd2dae7c66c0d0b45713fe40fa24", "is_disabled": 0, "rental_uris": {"android": "https://dc.lft.to/lastmile_qr_scan", "ios": "https://dc.lft.to/lastmile_qr_scan"}, "type": "electric_scooter", "lat": 38.932654, "is_reserved": 0, "fusion_lat": 0.0}, {"bike_id": "43cea7837ad2d4ba6e88a1a05ffe68c8", "fusion_lon": 0.0, "lon": -77.03265783333333, "name": "43cea7837ad2d4ba6e88a1a05ffe68c8", "is_disabled": 0, "rental_uris": {"android": "https://dc.lft.to/lastmile_qr_scan", "ios": "https://dc.lft.to/lastmile_qr_scan"}, "type": "electric_scooter", "lat": 38.93307266666667, "is_reserved": 0, "fusion_lat": 0.0}, {"bike_id": "7e812241afaf511794c213fa84d74850", "fusion_lon": 0.0, "lon": -77.02727816666666, "name": "7e812241afaf511794c213fa84d74850", "is_disabled": 0, "rental_uris": {"android": "https://dc.lft.to/lastmile_qr_scan", "ios": "https://dc.lft.to/lastmile_qr_scan"}, "type": "electric_scooter", "lat": 38.91697933333333, "is_reserved": 0, "fusion_lat": 0.0}, {"bike_id": "27231bb0bbc721cc38504d543273ed14", "fusion_lon": 0.0, "lon": -77.03460966666667, "name": "27231bb0bbc721cc38504d543273ed14", "is_disabled": 0, "rental_uris": {"android": "https://dc.lft.to/lastmile_qr_scan", "ios": "https://dc.lft.to/lastmile_qr_scan"}, "type": "electric_scooter", "lat": 38.917410333333336, "is_reserved": 0, "fusion_lat": 0.0}, {"bike_id": "019209d65b16a786966c42b16478bf4f", "fusion_lon": 0.0, "lon": -76.99125616666667, "name": "019209d65b16a786966c42b16478bf4f", "is_disabled": 0, "rental_uris": {"android": "https://dc.lft.to/lastmile_qr_scan", "ios": "https://dc.lft.to/lastmile_qr_scan"}, "type": "electric_scooter", "lat": 38.86206033333333, "is_reserved": 0, "fusion_lat": 0.0}, {"bike_id": "29bf6ab5a8f51d5b8620af0f5a45aad8", "fusion_lon": 0.0, "lon": -77.00574933333333, "name": "29bf6ab5a8f51d5b8620af0f5a45aad8", "is_disabled": 0, "rental_uris": {"android": "https://dc.lft.to/lastmile_qr_scan", "ios": "https://dc.lft.to/lastmile_qr_scan"}, "type": "electric_scooter", "lat": 38.873184, "is_reserved": 0, "fusion_lat": 0.0}, {"bike_id": "ab04bea6b703e9c9fde8a85ca3c9bdc5", "fusion_lon": 0.0, "lon": -77.06508366666667, "name": "ab04bea6b703e9c9fde8a85ca3c9bdc5", "is_disabled": 0, "rental_uris": {"android": "https://dc.lft.to/lastmile_qr_scan", "ios": "https://dc.lft.to/lastmile_qr_scan"}, "type": "electric_scooter", "lat": 38.90307983333334, "is_reserved": 0, "fusion_lat": 0.0}, {"bike_id": "8eb43d8c7175dc76cd73a6e244e54a6a", "fusion_lon": 0.0, "lon": -77.03905916666666, "name": "8eb43d8c7175dc76cd73a6e244e54a6a", "is_disabled": 0, "rental_uris": {"android": "https://dc.lft.to/lastmile_qr_scan", "ios": "https://dc.lft.to/lastmile_qr_scan"}, "type": "electric_scooter", "lat": 38.9141935, "is_reserved": 0, "fusion_lat": 0.0}, {"bike_id": "0d2c805226509d34e052a8783a33b3f8", "fusion_lon": 0.0, "lon": -77.0401615, "name": "0d2c805226509d34e052a8783a33b3f8", "is_disabled": 0, "rental_uris": {"android": "https://dc.lft.to/lastmile_qr_scan", "ios": "https://dc.lft.to/lastmile_qr_scan"}, "type": "electric_scooter", "lat": 38.91822916666667, "is_reserved": 0, "fusion_lat": 0.0}, {"bike_id": "1142f951018fa87446b59b2681e3bba4", "fusion_lon": 0.0, "lon": -77.03445183333334, "name": "1142f951018fa87446b59b2681e3bba4", "is_disabled": 0, "rental_uris": {"android": "https://dc.lft.to/lastmile_qr_scan", "ios": "https://dc.lft.to/lastmile_qr_scan"}, "type": "electric_scooter", "lat": 38.90730466666667, "is_reserved": 0, "fusion_lat": 0.0}, {"bike_id": "88f6d83368b49ecd158323386aec3836", "fusion_lon": 0.0, "lon": -77.03394733333333, "name": "88f6d83368b49ecd158323386aec3836", "is_disabled": 0, "rental_uris": {"android": "https://dc.lft.to/lastmile_qr_scan", "ios": "https://dc.lft.to/lastmile_qr_scan"}, "type": "electric_scooter", "lat": 38.919683666666664, "is_reserved": 0, "fusion_lat": 0.0}, {"bike_id": "66616e322e7c45438c6c3540da5009e4", "fusion_lon": 0.0, "lon": -77.02493483333333, "name": "66616e322e7c45438c6c3540da5009e4", "is_disabled": 0, "rental_uris": {"android": "https://dc.lft.to/lastmile_qr_scan", "ios": "https://dc.lft.to/lastmile_qr_scan"}, "type": "electric_scooter", "lat": 38.941865, "is_reserved": 0, "fusion_lat": 0.0}, {"bike_id": "1a0c73120475f393ba30f9593a1c1da9", "fusion_lon": 0.0, "lon": -77.03294233333334, "name": "1a0c73120475f393ba30f9593a1c1da9", "is_disabled": 0, "rental_uris": {"android": "https://dc.lft.to/lastmile_qr_scan", "ios": "https://dc.lft.to/lastmile_qr_scan"}, "type": "electric_scooter", "lat": 38.94715266666667, "is_reserved": 0, "fusion_lat": 0.0}, {"bike_id": "8f28859fa382edbbb0f48fafee31e232", "fusion_lon": 0.0, "lon": -77.0418665, "name": "8f28859fa382edbbb0f48fafee31e232", "is_disabled": 0, "rental_uris": {"android": "https://dc.lft.to/lastmile_qr_scan", "ios": "https://dc.lft.to/lastmile_qr_scan"}, "type": "electric_scooter", "lat": 38.89290866666666, "is_reserved": 0, "fusion_lat": 0.0}, {"bike_id": "29fbc1e837ee5de0fc5a798e77cf8650", "fusion_lon": 0.0, "lon": -77.01026766666666, "name": "29fbc1e837ee5de0fc5a798e77cf8650", "is_disabled": 0, "rental_uris": {"android": "https://dc.lft.to/lastmile_qr_scan", "ios": "https://dc.lft.to/lastmile_qr_scan"}, "type": "electric_scooter", "lat": 38.91709266666667, "is_reserved": 0, "fusion_lat": 0.0}, {"bike_id": "78cb03e8fa606e7dddba520b7352c871", "fusion_lon": 0.0, "lon": -77.0332985, "name": "78cb03e8fa606e7dddba520b7352c871", "is_disabled": 0, "rental_uris": {"android": "https://dc.lft.to/lastmile_qr_scan", "ios": "https://dc.lft.to/lastmile_qr_scan"}, "type": "electric_scooter", "lat": 38.91363716666667, "is_reserved": 0, "fusion_lat": 0.0}, {"bike_id": "92af3eda8537d70c6a8da3fa179037ae", "fusion_lon": 0.0, "lon": -77.02307516666667, "name": "92af3eda8537d70c6a8da3fa179037ae", "is_disabled": 0, "rental_uris": {"android": "https://dc.lft.to/lastmile_qr_scan", "ios": "https://dc.lft.to/lastmile_qr_scan"}, "type": "electric_scooter", "lat": 38.909614833333336, "is_reserved": 0, "fusion_lat": 0.0}, {"bike_id": "480b4fd2518a8ac1e6b2e5053489df10", "fusion_lon": 0.0, "lon": -76.93185483333333, "name": "480b4fd2518a8ac1e6b2e5053489df10", "is_disabled": 0, "rental_uris": {"android": "https://dc.lft.to/lastmile_qr_scan", "ios": "https://dc.lft.to/lastmile_qr_scan"}, "type": "electric_scooter", "lat": 38.898775, "is_reserved": 0, "fusion_lat": 0.0}, {"bike_id": "a777876fe8634f84300764ced2bb81ba", "fusion_lon": 0.0, "lon": -77.02416616666666, "name": "a777876fe8634f84300764ced2bb81ba", "is_disabled": 0, "rental_uris": {"android": "https://dc.lft.to/lastmile_qr_scan", "ios": "https://dc.lft.to/lastmile_qr_scan"}, "type": "electric_scooter", "lat": 38.92193866666667, "is_reserved": 0, "fusion_lat": 0.0}, {"bike_id": "49b90b28bff7e995d65501ce5f7ab52d", "fusion_lon": 0.0, "lon": -77.02176116666666, "name": "49b90b28bff7e995d65501ce5f7ab52d", "is_disabled": 0, "rental_uris": {"android": "https://dc.lft.to/lastmile_qr_scan", "ios": "https://dc.lft.to/lastmile_qr_scan"}, "type": "electric_scooter", "lat": 38.9141865, "is_reserved": 0, "fusion_lat": 0.0}, {"bike_id": "d507b5208626812f2f34fd65717864f3", "fusion_lon": 0.0, "lon": -77.03444766666667, "name": "d507b5208626812f2f34fd65717864f3", "is_disabled": 0, "rental_uris": {"android": "https://dc.lft.to/lastmile_qr_scan", "ios": "https://dc.lft.to/lastmile_qr_scan"}, "type": "electric_scooter", "lat": 38.90869516666667, "is_reserved": 0, "fusion_lat": 0.0}, {"bike_id": "1d25c371ea9024c97d6a24f262d6a175", "fusion_lon": 0.0, "lon": -76.9654575, "name": "1d25c371ea9024c97d6a24f262d6a175", "is_disabled": 0, "rental_uris": {"android": "https://dc.lft.to/lastmile_qr_scan", "ios": "https://dc.lft.to/lastmile_qr_scan"}, "type": "electric_scooter", "lat": 38.918467666666665, "is_reserved": 0, "fusion_lat": 0.0}, {"bike_id": "8c458981b0e9c166bcdbc2af8474f234", "fusion_lon": 0.0, "lon": -77.0290675, "name": "8c458981b0e9c166bcdbc2af8474f234", "is_disabled": 0, "rental_uris": {"android": "https://dc.lft.to/lastmile_qr_scan", "ios": "https://dc.lft.to/lastmile_qr_scan"}, "type": "electric_scooter", "lat": 38.92566166666667, "is_reserved": 0, "fusion_lat": 0.0}, {"bike_id": "8fa12cb931c2209626893300f3245e56", "fusion_lon": 0.0, "lon": -77.0236635, "name": "8fa12cb931c2209626893300f3245e56", "is_disabled": 0, "rental_uris": {"android": "https://dc.lft.to/lastmile_qr_scan", "ios": "https://dc.lft.to/lastmile_qr_scan"}, "type": "electric_scooter", "lat": 38.8922115, "is_reserved": 0, "fusion_lat": 0.0}, {"bike_id": "7a2f9de127785a328e7c3146ad16bc38", "fusion_lon": 0.0, "lon": -77.00722616666667, "name": "7a2f9de127785a328e7c3146ad16bc38", "is_disabled": 0, "rental_uris": {"android": "https://dc.lft.to/lastmile_qr_scan", "ios": "https://dc.lft.to/lastmile_qr_scan"}, "type": "electric_scooter", "lat": 38.898371833333336, "is_reserved": 0, "fusion_lat": 0.0}, {"bike_id": "aba5fd84739a3aa1f7147158def58e14", "fusion_lon": 0.0, "lon": -77.04100216666667, "name": "aba5fd84739a3aa1f7147158def58e14", "is_disabled": 0, "rental_uris": {"android": "https://dc.lft.to/lastmile_qr_scan", "ios": "https://dc.lft.to/lastmile_qr_scan"}, "type": "electric_scooter", "lat": 38.90514183333333, "is_reserved": 0, "fusion_lat": 0.0}, {"bike_id": "4588f5f57f4a5c20ac974d2ec278b02b", "fusion_lon": 0.0, "lon": -77.000699, "name": "4588f5f57f4a5c20ac974d2ec278b02b", "is_disabled": 0, "rental_uris": {"android": "https://dc.lft.to/lastmile_qr_scan", "ios": "https://dc.lft.to/lastmile_qr_scan"}, "type": "electric_scooter", "lat": 38.925523, "is_reserved": 0, "fusion_lat": 0.0}, {"bike_id": "6d656639d8d43b5b2226d19908356b53", "fusion_lon": 0.0, "lon": -77.10131466666667, "name": "6d656639d8d43b5b2226d19908356b53", "is_disabled": 0, "rental_uris": {"android": "https://dc.lft.to/lastmile_qr_scan", "ios": "https://dc.lft.to/lastmile_qr_scan"}, "type": "electric_bike", "lat": 38.852091, "is_reserved": 0, "fusion_lat": 0.0}, {"bike_id": "6cb29512738fb8c5038cce0a90609399", "fusion_lon": 0.0, "lon": -77.03217833333333, "name": "6cb29512738fb8c5038cce0a90609399", "is_disabled": 0, "rental_uris": {"android": "https://dc.lft.to/lastmile_qr_scan", "ios": "https://dc.lft.to/lastmile_qr_scan"}, "type": "electric_scooter", "lat": 38.91556, "is_reserved": 0, "fusion_lat": 0.0}, {"bike_id": "3ee61947ba629e39f448dda9453aee70", "fusion_lon": 0.0, "lon": -77.0093395, "name": "3ee61947ba629e39f448dda9453aee70", "is_disabled": 0, "rental_uris": {"android": "https://dc.lft.to/lastmile_qr_scan", "ios": "https://dc.lft.to/lastmile_qr_scan"}, "type": "electric_scooter", "lat": 38.91820366666666, "is_reserved": 0, "fusion_lat": 0.0}, {"bike_id": "590630b79d278981907381781af98523", "fusion_lon": 0.0, "lon": -77.04121916666666, "name": "590630b79d278981907381781af98523", "is_disabled": 0, "rental_uris": {"android": "https://dc.lft.to/lastmile_qr_scan", "ios": "https://dc.lft.to/lastmile_qr_scan"}, "type": "electric_scooter", "lat": 38.9214035, "is_reserved": 0, "fusion_lat": 0.0}, {"bike_id": "7a65d08a2938d7c5dd1671a86174922e", "fusion_lon": 0.0, "lon": -76.9733175, "name": "7a65d08a2938d7c5dd1671a86174922e", "is_disabled": 0, "rental_uris": {"android": "https://dc.lft.to/lastmile_qr_scan", "ios": "https://dc.lft.to/lastmile_qr_scan"}, "type": "electric_scooter", "lat": 38.86513266666667, "is_reserved": 0, "fusion_lat": 0.0}, {"bike_id": "9d76deb03ac8c4cba873b287134bea28", "fusion_lon": 0.0, "lon": -77.11801633333333, "name": "9d76deb03ac8c4cba873b287134bea28", "is_disabled": 0, "rental_uris": {"android": "https://dc.lft.to/lastmile_qr_scan", "ios": "https://dc.lft.to/lastmile_qr_scan"}, "type": "electric_bike", "lat": 38.8737655, "is_reserved": 0, "fusion_lat": 0.0}, {"bike_id": "25f2e3934f8826eb8b807853456f468c", "fusion_lon": 0.0, "lon": -77.02821433333334, "name": "25f2e3934f8826eb8b807853456f468c", "is_disabled": 0, "rental_uris": {"android": "https://dc.lft.to/lastmile_qr_scan", "ios": "https://dc.lft.to/lastmile_qr_scan"}, "type": "electric_scooter", "lat": 38.9207035, "is_reserved": 0, "fusion_lat": 0.0}, {"bike_id": "f7276e5af6c3575563902bec67558535", "fusion_lon": 0.0, "lon": -77.023847, "name": "f7276e5af6c3575563902bec67558535", "is_disabled": 0, "rental_uris": {"android": "https://dc.lft.to/lastmile_qr_scan", "ios": "https://dc.lft.to/lastmile_qr_scan"}, "type": "electric_bike", "lat": 38.9291295, "is_reserved": 0, "fusion_lat": 0.0}, {"bike_id": "deb92573dd688a7d7797ae098bfc52ac", "fusion_lon": 0.0, "lon": -77.034244, "name": "deb92573dd688a7d7797ae098bfc52ac", "is_disabled": 0, "rental_uris": {"android": "https://dc.lft.to/lastmile_qr_scan", "ios": "https://dc.lft.to/lastmile_qr_scan"}, "type": "electric_scooter", "lat": 38.919198333333334, "is_reserved": 0, "fusion_lat": 0.0}, {"bike_id": "4aa0d812bad6fd9a16183dd8f7d7c6b9", "fusion_lon": 0.0, "lon": -77.02621433333333, "name": "4aa0d812bad6fd9a16183dd8f7d7c6b9", "is_disabled": 0, "rental_uris": {"android": "https://dc.lft.to/lastmile_qr_scan", "ios": "https://dc.lft.to/lastmile_qr_scan"}, "type": "electric_bike", "lat": 38.96932566666667, "is_reserved": 0, "fusion_lat": 0.0}, {"bike_id": "c8cbd7d8938d609666227b789cd8f712", "fusion_lon": 0.0, "lon": -77.01989466666667, "name": "c8cbd7d8938d609666227b789cd8f712", "is_disabled": 0, "rental_uris": {"android": "https://dc.lft.to/lastmile_qr_scan", "ios": "https://dc.lft.to/lastmile_qr_scan"}, "type": "electric_scooter", "lat": 38.93124233333333, "is_reserved": 0, "fusion_lat": 0.0}, {"bike_id": "0008f806dafa483255431c87165f390a", "fusion_lon": 0.0, "lon": -76.96525516666667, "name": "0008f806dafa483255431c87165f390a", "is_disabled": 0, "rental_uris": {"android": "https://dc.lft.to/lastmile_qr_scan", "ios": "https://dc.lft.to/lastmile_qr_scan"}, "type": "electric_scooter", "lat": 38.8762925, "is_reserved": 0, "fusion_lat": 0.0}, {"bike_id": "fd095a797bf0bc1e5f1e19726f432f0b", "fusion_lon": 0.0, "lon": -77.04255833333333, "name": "fd095a797bf0bc1e5f1e19726f432f0b", "is_disabled": 0, "rental_uris": {"android": "https://dc.lft.to/lastmile_qr_scan", "ios": "https://dc.lft.to/lastmile_qr_scan"}, "type": "electric_scooter", "lat": 38.908465, "is_reserved": 0, "fusion_lat": 0.0}, {"bike_id": "661186a25bb55f39a4e435cf62ee9c71", "fusion_lon": 0.0, "lon": -77.043361, "name": "661186a25bb55f39a4e435cf62ee9c71", "is_disabled": 0, "rental_uris": {"android": "https://dc.lft.to/lastmile_qr_scan", "ios": "https://dc.lft.to/lastmile_qr_scan"}, "type": "electric_scooter", "lat": 38.90731866666667, "is_reserved": 0, "fusion_lat": 0.0}, {"bike_id": "823110d82e7030328a9930182b79767a", "fusion_lon": 0.0, "lon": -76.9652775, "name": "823110d82e7030328a9930182b79767a", "is_disabled": 0, "rental_uris": {"android": "https://dc.lft.to/lastmile_qr_scan", "ios": "https://dc.lft.to/lastmile_qr_scan"}, "type": "electric_scooter", "lat": 38.876306166666666, "is_reserved": 0, "fusion_lat": 0.0}, {"bike_id": "714d1b7fd857bac4671906d31f345291", "fusion_lon": 0.0, "lon": -77.0384055, "name": "714d1b7fd857bac4671906d31f345291", "is_disabled": 0, "rental_uris": {"android": "https://dc.lft.to/lastmile_qr_scan", "ios": "https://dc.lft.to/lastmile_qr_scan"}, "type": "electric_scooter", "lat": 38.91094966666667, "is_reserved": 0, "fusion_lat": 0.0}, {"bike_id": "5c7e0dc36474f10ba0be1f08d2195da5", "fusion_lon": 0.0, "lon": -77.0352915, "name": "5c7e0dc36474f10ba0be1f08d2195da5", "is_disabled": 0, "rental_uris": {"android": "https://dc.lft.to/lastmile_qr_scan", "ios": "https://dc.lft.to/lastmile_qr_scan"}, "type": "electric_scooter", "lat": 38.91690716666667, "is_reserved": 0, "fusion_lat": 0.0}, {"bike_id": "a6166f5d981a4af58bbc92c3e4b395f1", "fusion_lon": 0.0, "lon": -77.03064283333333, "name": "a6166f5d981a4af58bbc92c3e4b395f1", "is_disabled": 0, "rental_uris": {"android": "https://dc.lft.to/lastmile_qr_scan", "ios": "https://dc.lft.to/lastmile_qr_scan"}, "type": "electric_bike", "lat": 38.959541333333334, "is_reserved": 0, "fusion_lat": 0.0}, {"bike_id": "b379e737a51ac855f6ac8ae1d6647900", "fusion_lon": 0.0, "lon": -77.03426766666666, "name": "b379e737a51ac855f6ac8ae1d6647900", "is_disabled": 0, "rental_uris": {"android": "https://dc.lft.to/lastmile_qr_scan", "ios": "https://dc.lft.to/lastmile_qr_scan"}, "type": "electric_bike", "lat": 38.96625, "is_reserved": 0, "fusion_lat": 0.0}, {"bike_id": "11224e4fbc018a0c3d3af5cc39640368", "fusion_lon": 0.0, "lon": -77.02201116666667, "name": "11224e4fbc018a0c3d3af5cc39640368", "is_disabled": 0, "rental_uris": {"android": "https://dc.lft.to/lastmile_qr_scan", "ios": "https://dc.lft.to/lastmile_qr_scan"}, "type": "electric_scooter", "lat": 38.91098816666667, "is_reserved": 0, "fusion_lat": 0.0}, {"bike_id": "66e04a780e66518562e42127a7bbc5f0", "fusion_lon": 0.0, "lon": -77.03091266666667, "name": "66e04a780e66518562e42127a7bbc5f0", "is_disabled": 0, "rental_uris": {"android": "https://dc.lft.to/lastmile_qr_scan", "ios": "https://dc.lft.to/lastmile_qr_scan"}, "type": "electric_scooter", "lat": 38.907278166666664, "is_reserved": 0, "fusion_lat": 0.0}, {"bike_id": "b0f19cdfdd80c2b3f94af9c436da296d", "fusion_lon": 0.0, "lon": -76.983636, "name": "b0f19cdfdd80c2b3f94af9c436da296d", "is_disabled": 0, "rental_uris": {"android": "https://dc.lft.to/lastmile_qr_scan", "ios": "https://dc.lft.to/lastmile_qr_scan"}, "type": "electric_scooter", "lat": 38.90635416666667, "is_reserved": 0, "fusion_lat": 0.0}, {"bike_id": "5b53da41c7dff11d3bda7bd8d964c503", "fusion_lon": 0.0, "lon": -76.93733466666667, "name": "5b53da41c7dff11d3bda7bd8d964c503", "is_disabled": 0, "rental_uris": {"android": "https://dc.lft.to/lastmile_qr_scan", "ios": "https://dc.lft.to/lastmile_qr_scan"}, "type": "electric_scooter", "lat": 38.89017366666667, "is_reserved": 0, "fusion_lat": 0.0}, {"bike_id": "a7509469f55b679b9e1beee92206b4d5", "fusion_lon": 0.0, "lon": -77.017706, "name": "a7509469f55b679b9e1beee92206b4d5", "is_disabled": 0, "rental_uris": {"android": "https://dc.lft.to/lastmile_qr_scan", "ios": "https://dc.lft.to/lastmile_qr_scan"}, "type": "electric_scooter", "lat": 38.90375566666667, "is_reserved": 0, "fusion_lat": 0.0}, {"bike_id": "6a4cc10a05a2b44e51f61d2d2768af3d", "fusion_lon": 0.0, "lon": -77.02411, "name": "6a4cc10a05a2b44e51f61d2d2768af3d", "is_disabled": 0, "rental_uris": {"android": "https://dc.lft.to/lastmile_qr_scan", "ios": "https://dc.lft.to/lastmile_qr_scan"}, "type": "electric_bike", "lat": 38.934628000000004, "is_reserved": 0, "fusion_lat": 0.0}, {"bike_id": "7b5fbe9928d2fd06b479f753f55dd4f1", "fusion_lon": 0.0, "lon": -76.99815233333334, "name": "7b5fbe9928d2fd06b479f753f55dd4f1", "is_disabled": 0, "rental_uris": {"android": "https://dc.lft.to/lastmile_qr_scan", "ios": "https://dc.lft.to/lastmile_qr_scan"}, "type": "electric_scooter", "lat": 38.844331333333336, "is_reserved": 0, "fusion_lat": 0.0}, {"bike_id": "eaa61d1307bb1205f4e896531077d53b", "fusion_lon": 0.0, "lon": -77.052329, "name": "eaa61d1307bb1205f4e896531077d53b", "is_disabled": 0, "rental_uris": {"android": "https://dc.lft.to/lastmile_qr_scan", "ios": "https://dc.lft.to/lastmile_qr_scan"}, "type": "electric_scooter", "lat": 38.92702333333333, "is_reserved": 0, "fusion_lat": 0.0}, {"bike_id": "2e1bf5be97d367b63b5c5680a295a5b4", "fusion_lon": 0.0, "lon": -77.02599316666667, "name": "2e1bf5be97d367b63b5c5680a295a5b4", "is_disabled": 0, "rental_uris": {"android": "https://dc.lft.to/lastmile_qr_scan", "ios": "https://dc.lft.to/lastmile_qr_scan"}, "type": "electric_scooter", "lat": 38.916961, "is_reserved": 0, "fusion_lat": 0.0}, {"bike_id": "53aeab11125bd63f4e428c39974e94a9", "fusion_lon": 0.0, "lon": -77.03471233333333, "name": "53aeab11125bd63f4e428c39974e94a9", "is_disabled": 0, "rental_uris": {"android": "https://dc.lft.to/lastmile_qr_scan", "ios": "https://dc.lft.to/lastmile_qr_scan"}, "type": "electric_scooter", "lat": 38.908064833333334, "is_reserved": 0, "fusion_lat": 0.0}, {"bike_id": "e6cc63f2f3ca4dd82d28ab805fc60c0b", "fusion_lon": 0.0, "lon": -77.03123333333333, "name": "e6cc63f2f3ca4dd82d28ab805fc60c0b", "is_disabled": 0, "rental_uris": {"android": "https://dc.lft.to/lastmile_qr_scan", "ios": "https://dc.lft.to/lastmile_qr_scan"}, "type": "electric_bike", "lat": 38.9593285, "is_reserved": 0, "fusion_lat": 0.0}, {"bike_id": "031cdda3442673bd703052a35d11c198", "fusion_lon": 0.0, "lon": -77.0097135, "name": "031cdda3442673bd703052a35d11c198", "is_disabled": 0, "rental_uris": {"android": "https://dc.lft.to/lastmile_qr_scan", "ios": "https://dc.lft.to/lastmile_qr_scan"}, "type": "electric_scooter", "lat": 38.907912, "is_reserved": 0, "fusion_lat": 0.0}, {"bike_id": "883f5e133839e2f8746566e6afedcb0f", "fusion_lon": 0.0, "lon": -76.98926516666667, "name": "883f5e133839e2f8746566e6afedcb0f", "is_disabled": 0, "rental_uris": {"android": "https://dc.lft.to/lastmile_qr_scan", "ios": "https://dc.lft.to/lastmile_qr_scan"}, "type": "electric_scooter", "lat": 38.8581375, "is_reserved": 0, "fusion_lat": 0.0}, {"bike_id": "c117f16d8d7be554255f66c6db9b6efc", "fusion_lon": 0.0, "lon": -76.98654966666666, "name": "c117f16d8d7be554255f66c6db9b6efc", "is_disabled": 0, "rental_uris": {"android": "https://dc.lft.to/lastmile_qr_scan", "ios": "https://dc.lft.to/lastmile_qr_scan"}, "type": "electric_scooter", "lat": 38.858107, "is_reserved": 0, "fusion_lat": 0.0}, {"bike_id": "bfbd427e822b3398829450dfa94fb103", "fusion_lon": 0.0, "lon": -77.01639733333333, "name": "bfbd427e822b3398829450dfa94fb103", "is_disabled": 0, "rental_uris": {"android": "https://dc.lft.to/lastmile_qr_scan", "ios": "https://dc.lft.to/lastmile_qr_scan"}, "type": "electric_scooter", "lat": 38.8811465, "is_reserved": 0, "fusion_lat": 0.0}, {"bike_id": "a4742ea98652554d47ac9232717ca7a7", "fusion_lon": 0.0, "lon": -77.03836833333334, "name": "a4742ea98652554d47ac9232717ca7a7", "is_disabled": 0, "rental_uris": {"android": "https://dc.lft.to/lastmile_qr_scan", "ios": "https://dc.lft.to/lastmile_qr_scan"}, "type": "electric_scooter", "lat": 38.90959333333333, "is_reserved": 0, "fusion_lat": 0.0}, {"bike_id": "49e018b5c98d4e16f7d468becf5ec0a0", "fusion_lon": 0.0, "lon": -77.02816566666667, "name": "49e018b5c98d4e16f7d468becf5ec0a0", "is_disabled": 0, "rental_uris": {"android": "https://dc.lft.to/lastmile_qr_scan", "ios": "https://dc.lft.to/lastmile_qr_scan"}, "type": "electric_scooter", "lat": 38.914363333333334, "is_reserved": 0, "fusion_lat": 0.0}, {"bike_id": "a75f333f1aeebf07391e74ff33d36bfc", "fusion_lon": 0.0, "lon": -77.0269505, "name": "a75f333f1aeebf07391e74ff33d36bfc", "is_disabled": 0, "rental_uris": {"android": "https://dc.lft.to/lastmile_qr_scan", "ios": "https://dc.lft.to/lastmile_qr_scan"}, "type": "electric_scooter", "lat": 38.91134666666667, "is_reserved": 0, "fusion_lat": 0.0}, {"bike_id": "42fff281fcac2531956418ab3e64ac56", "fusion_lon": 0.0, "lon": -77.050516, "name": "42fff281fcac2531956418ab3e64ac56", "is_disabled": 0, "rental_uris": {"android": "https://dc.lft.to/lastmile_qr_scan", "ios": "https://dc.lft.to/lastmile_qr_scan"}, "type": "electric_scooter", "lat": 38.92348716666667, "is_reserved": 0, "fusion_lat": 0.0}, {"bike_id": "8b1e18be40aa58bf1b9a80a75782e560", "fusion_lon": 0.0, "lon": -77.0176475, "name": "8b1e18be40aa58bf1b9a80a75782e560", "is_disabled": 0, "rental_uris": {"android": "https://dc.lft.to/lastmile_qr_scan", "ios": "https://dc.lft.to/lastmile_qr_scan"}, "type": "electric_scooter", "lat": 38.91738133333333, "is_reserved": 0, "fusion_lat": 0.0}, {"bike_id": "2230f91c9da983e9cc9057c8695c17ab", "fusion_lon": 0.0, "lon": -77.03570416666666, "name": "2230f91c9da983e9cc9057c8695c17ab", "is_disabled": 0, "rental_uris": {"android": "https://dc.lft.to/lastmile_qr_scan", "ios": "https://dc.lft.to/lastmile_qr_scan"}, "type": "electric_scooter", "lat": 38.92336616666667, "is_reserved": 0, "fusion_lat": 0.0}, {"bike_id": "db42d06755913b0045a10530830cf93a", "fusion_lon": 0.0, "lon": -77.02713616666666, "name": "db42d06755913b0045a10530830cf93a", "is_disabled": 0, "rental_uris": {"android": "https://dc.lft.to/lastmile_qr_scan", "ios": "https://dc.lft.to/lastmile_qr_scan"}, "type": "electric_scooter", "lat": 38.909599, "is_reserved": 0, "fusion_lat": 0.0}, {"bike_id": "fd5ac8026c79a10967b05b103d6b71bd", "fusion_lon": 0.0, "lon": -77.02977283333334, "name": "fd5ac8026c79a10967b05b103d6b71bd", "is_disabled": 0, "rental_uris": {"android": "https://dc.lft.to/lastmile_qr_scan", "ios": "https://dc.lft.to/lastmile_qr_scan"}, "type": "electric_scooter", "lat": 38.951954, "is_reserved": 0, "fusion_lat": 0.0}, {"bike_id": "027f2d736480183b22ab1b226652c90b", "fusion_lon": 0.0, "lon": -77.038647, "name": "027f2d736480183b22ab1b226652c90b", "is_disabled": 0, "rental_uris": {"android": "https://dc.lft.to/lastmile_qr_scan", "ios": "https://dc.lft.to/lastmile_qr_scan"}, "type": "electric_scooter", "lat": 38.907851666666666, "is_reserved": 0, "fusion_lat": 0.0}, {"bike_id": "9ef98987581e9db8ec28cfdd22a4390d", "fusion_lon": 0.0, "lon": -76.97740733333333, "name": "9ef98987581e9db8ec28cfdd22a4390d", "is_disabled": 0, "rental_uris": {"android": "https://dc.lft.to/lastmile_qr_scan", "ios": "https://dc.lft.to/lastmile_qr_scan"}, "type": "electric_scooter", "lat": 38.868356666666664, "is_reserved": 0, "fusion_lat": 0.0}, {"bike_id": "6bf072a9da5292aceb341df167104a86", "fusion_lon": 0.0, "lon": -77.04172416666667, "name": "6bf072a9da5292aceb341df167104a86", "is_disabled": 0, "rental_uris": {"android": "https://dc.lft.to/lastmile_qr_scan", "ios": "https://dc.lft.to/lastmile_qr_scan"}, "type": "electric_scooter", "lat": 38.919400833333334, "is_reserved": 0, "fusion_lat": 0.0}, {"bike_id": "628e899b6f98f60a39483a55b8974c7c", "fusion_lon": 0.0, "lon": -77.02190333333333, "name": "628e899b6f98f60a39483a55b8974c7c", "is_disabled": 0, "rental_uris": {"android": "https://dc.lft.to/lastmile_qr_scan", "ios": "https://dc.lft.to/lastmile_qr_scan"}, "type": "electric_scooter", "lat": 38.8953475, "is_reserved": 0, "fusion_lat": 0.0}, {"bike_id": "8e91c99a42efe333aded2a4bddf5a417", "fusion_lon": 0.0, "lon": -76.96504383333334, "name": "8e91c99a42efe333aded2a4bddf5a417", "is_disabled": 0, "rental_uris": {"android": "https://dc.lft.to/lastmile_qr_scan", "ios": "https://dc.lft.to/lastmile_qr_scan"}, "type": "electric_bike", "lat": 38.8755815, "is_reserved": 0, "fusion_lat": 0.0}, {"bike_id": "ea765516fa7ccd842df1d5f5aa927307", "fusion_lon": 0.0, "lon": -77.01757966666666, "name": "ea765516fa7ccd842df1d5f5aa927307", "is_disabled": 0, "rental_uris": {"android": "https://dc.lft.to/lastmile_qr_scan", "ios": "https://dc.lft.to/lastmile_qr_scan"}, "type": "electric_scooter", "lat": 38.878627, "is_reserved": 0, "fusion_lat": 0.0}, {"bike_id": "c1c37f89fead86d5dc0d166d21dcb0a9", "fusion_lon": 0.0, "lon": -77.0424205, "name": "c1c37f89fead86d5dc0d166d21dcb0a9", "is_disabled": 0, "rental_uris": {"android": "https://dc.lft.to/lastmile_qr_scan", "ios": "https://dc.lft.to/lastmile_qr_scan"}, "type": "electric_scooter", "lat": 38.922274333333334, "is_reserved": 0, "fusion_lat": 0.0}, {"bike_id": "f26139f850f2613e088d959d1c326b8c", "fusion_lon": 0.0, "lon": -77.0344605, "name": "f26139f850f2613e088d959d1c326b8c", "is_disabled": 0, "rental_uris": {"android": "https://dc.lft.to/lastmile_qr_scan", "ios": "https://dc.lft.to/lastmile_qr_scan"}, "type": "electric_scooter", "lat": 38.90720866666667, "is_reserved": 0, "fusion_lat": 0.0}, {"bike_id": "913d8a5ca55c053942ab0609550e3c45", "fusion_lon": 0.0, "lon": -77.03062766666666, "name": "913d8a5ca55c053942ab0609550e3c45", "is_disabled": 0, "rental_uris": {"android": "https://dc.lft.to/lastmile_qr_scan", "ios": "https://dc.lft.to/lastmile_qr_scan"}, "type": "electric_scooter", "lat": 38.922554166666664, "is_reserved": 0, "fusion_lat": 0.0}, {"bike_id": "075b2a3ab233da454fd010247789e88c", "fusion_lon": 0.0, "lon": -77.01547433333333, "name": "075b2a3ab233da454fd010247789e88c", "is_disabled": 0, "rental_uris": {"android": "https://dc.lft.to/lastmile_qr_scan", "ios": "https://dc.lft.to/lastmile_qr_scan"}, "type": "electric_scooter", "lat": 38.89136466666667, "is_reserved": 0, "fusion_lat": 0.0}, {"bike_id": "8e37940180c02f224866d6ddbe801c49", "fusion_lon": 0.0, "lon": -77.04931216666667, "name": "8e37940180c02f224866d6ddbe801c49", "is_disabled": 0, "rental_uris": {"android": "https://dc.lft.to/lastmile_qr_scan", "ios": "https://dc.lft.to/lastmile_qr_scan"}, "type": "electric_bike", "lat": 38.81347816666667, "is_reserved": 0, "fusion_lat": 0.0}, {"bike_id": "39c627e57ecee1eca52938014248f408", "fusion_lon": 0.0, "lon": -77.05095516666667, "name": "39c627e57ecee1eca52938014248f408", "is_disabled": 0, "rental_uris": {"android": "https://dc.lft.to/lastmile_qr_scan", "ios": "https://dc.lft.to/lastmile_qr_scan"}, "type": "electric_scooter", "lat": 38.92350166666667, "is_reserved": 0, "fusion_lat": 0.0}, {"bike_id": "e23e3ad6c2cf5183fdd5cda1711c1f20", "fusion_lon": 0.0, "lon": -76.996794, "name": "e23e3ad6c2cf5183fdd5cda1711c1f20", "is_disabled": 0, "rental_uris": {"android": "https://dc.lft.to/lastmile_qr_scan", "ios": "https://dc.lft.to/lastmile_qr_scan"}, "type": "electric_bike", "lat": 38.92489233333333, "is_reserved": 0, "fusion_lat": 0.0}, {"bike_id": "f3a3df46ad036ab54d0daaf5da1cd5b9", "fusion_lon": 0.0, "lon": -77.02398633333334, "name": "f3a3df46ad036ab54d0daaf5da1cd5b9", "is_disabled": 0, "rental_uris": {"android": "https://dc.lft.to/lastmile_qr_scan", "ios": "https://dc.lft.to/lastmile_qr_scan"}, "type": "electric_scooter", "lat": 38.91755033333333, "is_reserved": 0, "fusion_lat": 0.0}, {"bike_id": "6f6b869eb683b119cba9c14b201345f9", "fusion_lon": 0.0, "lon": -77.028101, "name": "6f6b869eb683b119cba9c14b201345f9", "is_disabled": 0, "rental_uris": {"android": "https://dc.lft.to/lastmile_qr_scan", "ios": "https://dc.lft.to/lastmile_qr_scan"}, "type": "electric_scooter", "lat": 38.930843, "is_reserved": 0, "fusion_lat": 0.0}, {"bike_id": "c18a03a79e5c02d023caf286f8a1a754", "fusion_lon": 0.0, "lon": -77.028214, "name": "c18a03a79e5c02d023caf286f8a1a754", "is_disabled": 0, "rental_uris": {"android": "https://dc.lft.to/lastmile_qr_scan", "ios": "https://dc.lft.to/lastmile_qr_scan"}, "type": "electric_scooter", "lat": 38.91693633333333, "is_reserved": 0, "fusion_lat": 0.0}, {"bike_id": "4ded6895fa9e0d87599b54a8cee45c72", "fusion_lon": 0.0, "lon": -77.03517066666667, "name": "4ded6895fa9e0d87599b54a8cee45c72", "is_disabled": 0, "rental_uris": {"android": "https://dc.lft.to/lastmile_qr_scan", "ios": "https://dc.lft.to/lastmile_qr_scan"}, "type": "electric_bike", "lat": 38.96204133333333, "is_reserved": 0, "fusion_lat": 0.0}, {"bike_id": "c50950236506af61a269a9b3bf94b74c", "fusion_lon": 0.0, "lon": -77.01202533333333, "name": "c50950236506af61a269a9b3bf94b74c", "is_disabled": 0, "rental_uris": {"android": "https://dc.lft.to/lastmile_qr_scan", "ios": "https://dc.lft.to/lastmile_qr_scan"}, "type": "electric_scooter", "lat": 38.90016383333333, "is_reserved": 0, "fusion_lat": 0.0}, {"bike_id": "1922d8333435eda0bd6fbd70716835be", "fusion_lon": 0.0, "lon": -77.04183516666667, "name": "1922d8333435eda0bd6fbd70716835be", "is_disabled": 0, "rental_uris": {"android": "https://dc.lft.to/lastmile_qr_scan", "ios": "https://dc.lft.to/lastmile_qr_scan"}, "type": "electric_scooter", "lat": 38.905788, "is_reserved": 0, "fusion_lat": 0.0}, {"bike_id": "a56d3781c20ad5b52e3e94469365b69a", "fusion_lon": 0.0, "lon": -77.03497666666667, "name": "a56d3781c20ad5b52e3e94469365b69a", "is_disabled": 0, "rental_uris": {"android": "https://dc.lft.to/lastmile_qr_scan", "ios": "https://dc.lft.to/lastmile_qr_scan"}, "type": "electric_scooter", "lat": 38.90032633333333, "is_reserved": 0, "fusion_lat": 0.0}, {"bike_id": "37db0c7a829a10b0aae3efdbe9c562d3", "fusion_lon": 0.0, "lon": -77.04555633333334, "name": "37db0c7a829a10b0aae3efdbe9c562d3", "is_disabled": 0, "rental_uris": {"android": "https://dc.lft.to/lastmile_qr_scan", "ios": "https://dc.lft.to/lastmile_qr_scan"}, "type": "electric_scooter", "lat": 38.934115166666665, "is_reserved": 0, "fusion_lat": 0.0}, {"bike_id": "5074b5156beec14025fdeeb1a2b11489", "fusion_lon": 0.0, "lon": -77.0586395, "name": "5074b5156beec14025fdeeb1a2b11489", "is_disabled": 0, "rental_uris": {"android": "https://dc.lft.to/lastmile_qr_scan", "ios": "https://dc.lft.to/lastmile_qr_scan"}, "type": "electric_scooter", "lat": 38.9360785, "is_reserved": 0, "fusion_lat": 0.0}, {"bike_id": "06297e9bcba58e3ae4df9eec431745bd", "fusion_lon": 0.0, "lon": -77.00682033333334, "name": "06297e9bcba58e3ae4df9eec431745bd", "is_disabled": 0, "rental_uris": {"android": "https://dc.lft.to/lastmile_qr_scan", "ios": "https://dc.lft.to/lastmile_qr_scan"}, "type": "electric_scooter", "lat": 38.9001495, "is_reserved": 0, "fusion_lat": 0.0}, {"bike_id": "230f3cf0c76cf3fa133b419b27f9afe0", "fusion_lon": 0.0, "lon": -77.0254315, "name": "230f3cf0c76cf3fa133b419b27f9afe0", "is_disabled": 0, "rental_uris": {"android": "https://dc.lft.to/lastmile_qr_scan", "ios": "https://dc.lft.to/lastmile_qr_scan"}, "type": "electric_scooter", "lat": 38.941177, "is_reserved": 0, "fusion_lat": 0.0}, {"bike_id": "d9296fdbc42eb90bf240efe1ca3214ca", "fusion_lon": 0.0, "lon": -77.03868516666667, "name": "d9296fdbc42eb90bf240efe1ca3214ca", "is_disabled": 0, "rental_uris": {"android": "https://dc.lft.to/lastmile_qr_scan", "ios": "https://dc.lft.to/lastmile_qr_scan"}, "type": "electric_scooter", "lat": 38.91822416666667, "is_reserved": 0, "fusion_lat": 0.0}, {"bike_id": "6cb757f990ac6703c8f80e7ff26016fa", "fusion_lon": 0.0, "lon": -77.00595283333334, "name": "6cb757f990ac6703c8f80e7ff26016fa", "is_disabled": 0, "rental_uris": {"android": "https://dc.lft.to/lastmile_qr_scan", "ios": "https://dc.lft.to/lastmile_qr_scan"}, "type": "electric_scooter", "lat": 38.905529666666666, "is_reserved": 0, "fusion_lat": 0.0}, {"bike_id": "67f8641ecba9f8a7f76b1307f2cc5c5d", "fusion_lon": 0.0, "lon": -77.025161, "name": "67f8641ecba9f8a7f76b1307f2cc5c5d", "is_disabled": 0, "rental_uris": {"android": "https://dc.lft.to/lastmile_qr_scan", "ios": "https://dc.lft.to/lastmile_qr_scan"}, "type": "electric_scooter", "lat": 38.92076266666667, "is_reserved": 0, "fusion_lat": 0.0}, {"bike_id": "ef4a16533a0d3da560d17919ebbdb9de", "fusion_lon": 0.0, "lon": -77.02106966666666, "name": "ef4a16533a0d3da560d17919ebbdb9de", "is_disabled": 0, "rental_uris": {"android": "https://dc.lft.to/lastmile_qr_scan", "ios": "https://dc.lft.to/lastmile_qr_scan"}, "type": "electric_scooter", "lat": 38.924142333333336, "is_reserved": 0, "fusion_lat": 0.0}, {"bike_id": "f48cdbbc5d1a06f28d8fcf2e801bf6d6", "fusion_lon": 0.0, "lon": -77.0198045, "name": "f48cdbbc5d1a06f28d8fcf2e801bf6d6", "is_disabled": 0, "rental_uris": {"android": "https://dc.lft.to/lastmile_qr_scan", "ios": "https://dc.lft.to/lastmile_qr_scan"}, "type": "electric_scooter", "lat": 38.89747283333333, "is_reserved": 0, "fusion_lat": 0.0}, {"bike_id": "80157fbe18e9a8ed358932bc23bcd9b0", "fusion_lon": 0.0, "lon": -77.02980716666667, "name": "80157fbe18e9a8ed358932bc23bcd9b0", "is_disabled": 0, "rental_uris": {"android": "https://dc.lft.to/lastmile_qr_scan", "ios": "https://dc.lft.to/lastmile_qr_scan"}, "type": "electric_scooter", "lat": 38.8956095, "is_reserved": 0, "fusion_lat": 0.0}, {"bike_id": "fccb36b8fed44d263e9afe16ca720837", "fusion_lon": 0.0, "lon": -77.08606666666667, "name": "fccb36b8fed44d263e9afe16ca720837", "is_disabled": 0, "rental_uris": {"android": "https://dc.lft.to/lastmile_qr_scan", "ios": "https://dc.lft.to/lastmile_qr_scan"}, "type": "electric_bike", "lat": 38.891223, "is_reserved": 0, "fusion_lat": 0.0}, {"bike_id": "34061776b0211e32879b42d3430b1e83", "fusion_lon": 0.0, "lon": -77.02388516666667, "name": "34061776b0211e32879b42d3430b1e83", "is_disabled": 0, "rental_uris": {"android": "https://dc.lft.to/lastmile_qr_scan", "ios": "https://dc.lft.to/lastmile_qr_scan"}, "type": "electric_scooter", "lat": 38.91961516666667, "is_reserved": 0, "fusion_lat": 0.0}, {"bike_id": "881a6f729a26dec59fa58ffb683a2419", "fusion_lon": 0.0, "lon": -77.0434975, "name": "881a6f729a26dec59fa58ffb683a2419", "is_disabled": 0, "rental_uris": {"android": "https://dc.lft.to/lastmile_qr_scan", "ios": "https://dc.lft.to/lastmile_qr_scan"}, "type": "electric_scooter", "lat": 38.907219833333336, "is_reserved": 0, "fusion_lat": 0.0}, {"bike_id": "43bf61253219228c9a53cf43872a1b9d", "fusion_lon": 0.0, "lon": -77.0397875, "name": "43bf61253219228c9a53cf43872a1b9d", "is_disabled": 0, "rental_uris": {"android": "https://dc.lft.to/lastmile_qr_scan", "ios": "https://dc.lft.to/lastmile_qr_scan"}, "type": "electric_scooter", "lat": 38.9119, "is_reserved": 0, "fusion_lat": 0.0}, {"bike_id": "ba3a1f153708280c1f09a820f4133d94", "fusion_lon": 0.0, "lon": -77.0262675, "name": "ba3a1f153708280c1f09a820f4133d94", "is_disabled": 0, "rental_uris": {"android": "https://dc.lft.to/lastmile_qr_scan", "ios": "https://dc.lft.to/lastmile_qr_scan"}, "type": "electric_bike", "lat": 38.962251333333334, "is_reserved": 0, "fusion_lat": 0.0}, {"bike_id": "e1f457a6092f3ae7c6f8ee7fc119cecc", "fusion_lon": 0.0, "lon": -77.0282925, "name": "e1f457a6092f3ae7c6f8ee7fc119cecc", "is_disabled": 0, "rental_uris": {"android": "https://dc.lft.to/lastmile_qr_scan", "ios": "https://dc.lft.to/lastmile_qr_scan"}, "type": "electric_bike", "lat": 38.965069166666666, "is_reserved": 0, "fusion_lat": 0.0}, {"bike_id": "5d81c0eb232f8ed82888f3a4efc0758e", "fusion_lon": 0.0, "lon": -77.02406816666667, "name": "5d81c0eb232f8ed82888f3a4efc0758e", "is_disabled": 0, "rental_uris": {"android": "https://dc.lft.to/lastmile_qr_scan", "ios": "https://dc.lft.to/lastmile_qr_scan"}, "type": "electric_scooter", "lat": 38.916045833333335, "is_reserved": 0, "fusion_lat": 0.0}, {"bike_id": "5d0be0dc8291638f3b3d69842d87ea78", "fusion_lon": 0.0, "lon": -77.03496433333333, "name": "5d0be0dc8291638f3b3d69842d87ea78", "is_disabled": 0, "rental_uris": {"android": "https://dc.lft.to/lastmile_qr_scan", "ios": "https://dc.lft.to/lastmile_qr_scan"}, "type": "electric_scooter", "lat": 38.9186735, "is_reserved": 0, "fusion_lat": 0.0}, {"bike_id": "3c772313a523293063a743535c77e0d7", "fusion_lon": 0.0, "lon": -76.97709233333333, "name": "3c772313a523293063a743535c77e0d7", "is_disabled": 0, "rental_uris": {"android": "https://dc.lft.to/lastmile_qr_scan", "ios": "https://dc.lft.to/lastmile_qr_scan"}, "type": "electric_bike", "lat": 38.94917266666667, "is_reserved": 0, "fusion_lat": 0.0}, {"bike_id": "8a1ad31b0d8402a334ce8372db7564ee", "fusion_lon": 0.0, "lon": -76.88383066666667, "name": "8a1ad31b0d8402a334ce8372db7564ee", "is_disabled": 0, "rental_uris": {"android": "https://dc.lft.to/lastmile_qr_scan", "ios": "https://dc.lft.to/lastmile_qr_scan"}, "type": "electric_bike", "lat": 38.99824533333334, "is_reserved": 0, "fusion_lat": 0.0}, {"bike_id": "2e89c998ac0698f2c538524902de26a3", "fusion_lon": 0.0, "lon": -77.03659566666667, "name": "2e89c998ac0698f2c538524902de26a3", "is_disabled": 0, "rental_uris": {"android": "https://dc.lft.to/lastmile_qr_scan", "ios": "https://dc.lft.to/lastmile_qr_scan"}, "type": "electric_scooter", "lat": 38.92286283333333, "is_reserved": 0, "fusion_lat": 0.0}, {"bike_id": "89d5b74d840ec61c9c577c41fb5b6d03", "fusion_lon": 0.0, "lon": -77.36094233333333, "name": "89d5b74d840ec61c9c577c41fb5b6d03", "is_disabled": 0, "rental_uris": {"android": "https://dc.lft.to/lastmile_qr_scan", "ios": "https://dc.lft.to/lastmile_qr_scan"}, "type": "electric_bike", "lat": 38.939618333333335, "is_reserved": 0, "fusion_lat": 0.0}, {"bike_id": "54308e9ec5d22df7a5315b048ee57d6c", "fusion_lon": 0.0, "lon": -77.03267216666667, "name": "54308e9ec5d22df7a5315b048ee57d6c", "is_disabled": 0, "rental_uris": {"android": "https://dc.lft.to/lastmile_qr_scan", "ios": "https://dc.lft.to/lastmile_qr_scan"}, "type": "electric_scooter", "lat": 38.90011533333333, "is_reserved": 0, "fusion_lat": 0.0}, {"bike_id": "2da3e57f2620c533e74ab5a1c248bf3e", "fusion_lon": 0.0, "lon": -76.95141216666667, "name": "2da3e57f2620c533e74ab5a1c248bf3e", "is_disabled": 0, "rental_uris": {"android": "https://dc.lft.to/lastmile_qr_scan", "ios": "https://dc.lft.to/lastmile_qr_scan"}, "type": "electric_scooter", "lat": 38.89040266666667, "is_reserved": 0, "fusion_lat": 0.0}, {"bike_id": "c7d0b446cb7db65b17e555e789cb23c5", "fusion_lon": 0.0, "lon": -77.0526035, "name": "c7d0b446cb7db65b17e555e789cb23c5", "is_disabled": 0, "rental_uris": {"android": "https://dc.lft.to/lastmile_qr_scan", "ios": "https://dc.lft.to/lastmile_qr_scan"}, "type": "electric_scooter", "lat": 38.925692166666664, "is_reserved": 0, "fusion_lat": 0.0}, {"bike_id": "57ceff38f94114c096ee33f56d2ff50a", "fusion_lon": 0.0, "lon": -77.00151533333333, "name": "57ceff38f94114c096ee33f56d2ff50a", "is_disabled": 0, "rental_uris": {"android": "https://dc.lft.to/lastmile_qr_scan", "ios": "https://dc.lft.to/lastmile_qr_scan"}, "type": "electric_scooter", "lat": 38.92342, "is_reserved": 0, "fusion_lat": 0.0}, {"bike_id": "f94b888abfdd10d11c46017c09715953", "fusion_lon": 0.0, "lon": -76.94971383333333, "name": "f94b888abfdd10d11c46017c09715953", "is_disabled": 0, "rental_uris": {"android": "https://dc.lft.to/lastmile_qr_scan", "ios": "https://dc.lft.to/lastmile_qr_scan"}, "type": "electric_scooter", "lat": 38.8935975, "is_reserved": 0, "fusion_lat": 0.0}, {"bike_id": "a3923ff1b3d6d45200423bd84f0fcb5c", "fusion_lon": 0.0, "lon": -77.0347145, "name": "a3923ff1b3d6d45200423bd84f0fcb5c", "is_disabled": 0, "rental_uris": {"android": "https://dc.lft.to/lastmile_qr_scan", "ios": "https://dc.lft.to/lastmile_qr_scan"}, "type": "electric_scooter", "lat": 38.905681, "is_reserved": 0, "fusion_lat": 0.0}, {"bike_id": "737bb32e37a3f7bf72acc0e3a94c90ca", "fusion_lon": 0.0, "lon": -77.048687, "name": "737bb32e37a3f7bf72acc0e3a94c90ca", "is_disabled": 0, "rental_uris": {"android": "https://dc.lft.to/lastmile_qr_scan", "ios": "https://dc.lft.to/lastmile_qr_scan"}, "type": "electric_scooter", "lat": 38.91527683333333, "is_reserved": 0, "fusion_lat": 0.0}, {"bike_id": "44a0e3831f0812990694c6b407aab817", "fusion_lon": 0.0, "lon": -77.00091466666667, "name": "44a0e3831f0812990694c6b407aab817", "is_disabled": 0, "rental_uris": {"android": "https://dc.lft.to/lastmile_qr_scan", "ios": "https://dc.lft.to/lastmile_qr_scan"}, "type": "electric_scooter", "lat": 38.87631433333333, "is_reserved": 0, "fusion_lat": 0.0}, {"bike_id": "c807ecf1d63c7001301bfa352df7a4aa", "fusion_lon": 0.0, "lon": -76.9807935, "name": "c807ecf1d63c7001301bfa352df7a4aa", "is_disabled": 0, "rental_uris": {"android": "https://dc.lft.to/lastmile_qr_scan", "ios": "https://dc.lft.to/lastmile_qr_scan"}, "type": "electric_scooter", "lat": 38.9016885, "is_reserved": 0, "fusion_lat": 0.0}, {"bike_id": "f21fe27cb4c6d72c8e2aadcc9d5c78cb", "fusion_lon": 0.0, "lon": -77.02124166666667, "name": "f21fe27cb4c6d72c8e2aadcc9d5c78cb", "is_disabled": 0, "rental_uris": {"android": "https://dc.lft.to/lastmile_qr_scan", "ios": "https://dc.lft.to/lastmile_qr_scan"}, "type": "electric_scooter", "lat": 38.88752866666667, "is_reserved": 0, "fusion_lat": 0.0}, {"bike_id": "27f466828af226027bf58f62b76288e7", "fusion_lon": 0.0, "lon": -76.95757716666667, "name": "27f466828af226027bf58f62b76288e7", "is_disabled": 0, "rental_uris": {"android": "https://dc.lft.to/lastmile_qr_scan", "ios": "https://dc.lft.to/lastmile_qr_scan"}, "type": "electric_scooter", "lat": 38.884322833333336, "is_reserved": 0, "fusion_lat": 0.0}, {"bike_id": "191a4f72c1990c03de3875bec4dee3d0", "fusion_lon": 0.0, "lon": -77.01578016666667, "name": "191a4f72c1990c03de3875bec4dee3d0", "is_disabled": 0, "rental_uris": {"android": "https://dc.lft.to/lastmile_qr_scan", "ios": "https://dc.lft.to/lastmile_qr_scan"}, "type": "electric_scooter", "lat": 38.91682383333333, "is_reserved": 0, "fusion_lat": 0.0}, {"bike_id": "b91598f3fb026f6060165ca60db02496", "fusion_lon": 0.0, "lon": -77.04483466666667, "name": "b91598f3fb026f6060165ca60db02496", "is_disabled": 0, "rental_uris": {"android": "https://dc.lft.to/lastmile_qr_scan", "ios": "https://dc.lft.to/lastmile_qr_scan"}, "type": "electric_scooter", "lat": 38.911647, "is_reserved": 0, "fusion_lat": 0.0}, {"bike_id": "60a2e34b2bb28e2e889c131c3bb20fbc", "fusion_lon": 0.0, "lon": -77.10602233333333, "name": "60a2e34b2bb28e2e889c131c3bb20fbc", "is_disabled": 0, "rental_uris": {"android": "https://dc.lft.to/lastmile_qr_scan", "ios": "https://dc.lft.to/lastmile_qr_scan"}, "type": "electric_bike", "lat": 38.9289855, "is_reserved": 0, "fusion_lat": 0.0}, {"bike_id": "ae3612dc3d532a6037a62b9c8ac3a2a1", "fusion_lon": 0.0, "lon": -76.99776833333334, "name": "ae3612dc3d532a6037a62b9c8ac3a2a1", "is_disabled": 0, "rental_uris": {"android": "https://dc.lft.to/lastmile_qr_scan", "ios": "https://dc.lft.to/lastmile_qr_scan"}, "type": "electric_scooter", "lat": 38.84425933333333, "is_reserved": 0, "fusion_lat": 0.0}, {"bike_id": "12e1e30c819fab16e240b5d76880eff4", "fusion_lon": 0.0, "lon": -77.04588983333333, "name": "12e1e30c819fab16e240b5d76880eff4", "is_disabled": 0, "rental_uris": {"android": "https://dc.lft.to/lastmile_qr_scan", "ios": "https://dc.lft.to/lastmile_qr_scan"}, "type": "electric_scooter", "lat": 38.91867883333333, "is_reserved": 0, "fusion_lat": 0.0}, {"bike_id": "34f35479d9e95f87143db263cfcb3ed5", "fusion_lon": 0.0, "lon": -77.00280683333334, "name": "34f35479d9e95f87143db263cfcb3ed5", "is_disabled": 0, "rental_uris": {"android": "https://dc.lft.to/lastmile_qr_scan", "ios": "https://dc.lft.to/lastmile_qr_scan"}, "type": "electric_scooter", "lat": 38.906007833333334, "is_reserved": 0, "fusion_lat": 0.0}, {"bike_id": "6e0ae7bfc4b76bfab14df45ed74ed186", "fusion_lon": 0.0, "lon": -77.02596466666667, "name": "6e0ae7bfc4b76bfab14df45ed74ed186", "is_disabled": 0, "rental_uris": {"android": "https://dc.lft.to/lastmile_qr_scan", "ios": "https://dc.lft.to/lastmile_qr_scan"}, "type": "electric_scooter", "lat": 38.905599, "is_reserved": 0, "fusion_lat": 0.0}, {"bike_id": "7f7c963afe8402e6a01717455b6148dc", "fusion_lon": 0.0, "lon": -77.02285366666666, "name": "7f7c963afe8402e6a01717455b6148dc", "is_disabled": 0, "rental_uris": {"android": "https://dc.lft.to/lastmile_qr_scan", "ios": "https://dc.lft.to/lastmile_qr_scan"}, "type": "electric_scooter", "lat": 38.9275315, "is_reserved": 0, "fusion_lat": 0.0}, {"bike_id": "e98d1caaba1c308ee5bd30f522659c64", "fusion_lon": 0.0, "lon": -77.05133466666666, "name": "e98d1caaba1c308ee5bd30f522659c64", "is_disabled": 0, "rental_uris": {"android": "https://dc.lft.to/lastmile_qr_scan", "ios": "https://dc.lft.to/lastmile_qr_scan"}, "type": "electric_scooter", "lat": 38.9054115, "is_reserved": 0, "fusion_lat": 0.0}, {"bike_id": "ee082269aa277041c02a58c9d940687f", "fusion_lon": 0.0, "lon": -77.023227, "name": "ee082269aa277041c02a58c9d940687f", "is_disabled": 0, "rental_uris": {"android": "https://dc.lft.to/lastmile_qr_scan", "ios": "https://dc.lft.to/lastmile_qr_scan"}, "type": "electric_scooter", "lat": 38.92938933333333, "is_reserved": 0, "fusion_lat": 0.0}, {"bike_id": "e02f491c14227ec558ec4f59ca737770", "fusion_lon": 0.0, "lon": -77.0500265, "name": "e02f491c14227ec558ec4f59ca737770", "is_disabled": 0, "rental_uris": {"android": "https://dc.lft.to/lastmile_qr_scan", "ios": "https://dc.lft.to/lastmile_qr_scan"}, "type": "electric_scooter", "lat": 38.90613033333333, "is_reserved": 0, "fusion_lat": 0.0}, {"bike_id": "2dcadf92c94bb605488e43c536b7849b", "fusion_lon": 0.0, "lon": -77.03110766666667, "name": "2dcadf92c94bb605488e43c536b7849b", "is_disabled": 0, "rental_uris": {"android": "https://dc.lft.to/lastmile_qr_scan", "ios": "https://dc.lft.to/lastmile_qr_scan"}, "type": "electric_scooter", "lat": 38.9465075, "is_reserved": 0, "fusion_lat": 0.0}, {"bike_id": "bc79f4312f0c4bab6adc91ae81d7f51a", "fusion_lon": 0.0, "lon": -77.02621116666667, "name": "bc79f4312f0c4bab6adc91ae81d7f51a", "is_disabled": 0, "rental_uris": {"android": "https://dc.lft.to/lastmile_qr_scan", "ios": "https://dc.lft.to/lastmile_qr_scan"}, "type": "electric_scooter", "lat": 38.9281285, "is_reserved": 0, "fusion_lat": 0.0}, {"bike_id": "21ac9ff054174d7b844c975ee4535cd2", "fusion_lon": 0.0, "lon": -77.03090616666667, "name": "21ac9ff054174d7b844c975ee4535cd2", "is_disabled": 0, "rental_uris": {"android": "https://dc.lft.to/lastmile_qr_scan", "ios": "https://dc.lft.to/lastmile_qr_scan"}, "type": "electric_bike", "lat": 38.9331565, "is_reserved": 0, "fusion_lat": 0.0}, {"bike_id": "cd48aa50f5f76edf030c8caa8c4ac8d7", "fusion_lon": 0.0, "lon": -76.995184, "name": "cd48aa50f5f76edf030c8caa8c4ac8d7", "is_disabled": 0, "rental_uris": {"android": "https://dc.lft.to/lastmile_qr_scan", "ios": "https://dc.lft.to/lastmile_qr_scan"}, "type": "electric_scooter", "lat": 38.9098255, "is_reserved": 0, "fusion_lat": 0.0}, {"bike_id": "8af4e3698cc84ab037dd260098f89346", "fusion_lon": 0.0, "lon": -77.03164916666667, "name": "8af4e3698cc84ab037dd260098f89346", "is_disabled": 0, "rental_uris": {"android": "https://dc.lft.to/lastmile_qr_scan", "ios": "https://dc.lft.to/lastmile_qr_scan"}, "type": "electric_scooter", "lat": 38.892287333333336, "is_reserved": 0, "fusion_lat": 0.0}, {"bike_id": "e7aea91d51712021e3e6990db250cf8a", "fusion_lon": 0.0, "lon": -77.03866166666667, "name": "e7aea91d51712021e3e6990db250cf8a", "is_disabled": 0, "rental_uris": {"android": "https://dc.lft.to/lastmile_qr_scan", "ios": "https://dc.lft.to/lastmile_qr_scan"}, "type": "electric_scooter", "lat": 38.90788516666667, "is_reserved": 0, "fusion_lat": 0.0}, {"bike_id": "97eaa5fbb0596af397e02e03d1099469", "fusion_lon": 0.0, "lon": -77.03202033333334, "name": "97eaa5fbb0596af397e02e03d1099469", "is_disabled": 0, "rental_uris": {"android": "https://dc.lft.to/lastmile_qr_scan", "ios": "https://dc.lft.to/lastmile_qr_scan"}, "type": "electric_scooter", "lat": 38.909457333333336, "is_reserved": 0, "fusion_lat": 0.0}, {"bike_id": "b85bc27ccb72a4d176d8f6e6f20bda14", "fusion_lon": 0.0, "lon": -77.0066, "name": "b85bc27ccb72a4d176d8f6e6f20bda14", "is_disabled": 0, "rental_uris": {"android": "https://dc.lft.to/lastmile_qr_scan", "ios": "https://dc.lft.to/lastmile_qr_scan"}, "type": "electric_scooter", "lat": 38.9446995, "is_reserved": 0, "fusion_lat": 0.0}, {"bike_id": "ff8ddb70f398cbf8f1cbd3b8fbb227c9", "fusion_lon": 0.0, "lon": -77.003721, "name": "ff8ddb70f398cbf8f1cbd3b8fbb227c9", "is_disabled": 0, "rental_uris": {"android": "https://dc.lft.to/lastmile_qr_scan", "ios": "https://dc.lft.to/lastmile_qr_scan"}, "type": "electric_scooter", "lat": 38.88264933333333, "is_reserved": 0, "fusion_lat": 0.0}, {"bike_id": "d31d3b32a659697713a07e935e53df7a", "fusion_lon": 0.0, "lon": -77.11710133333334, "name": "d31d3b32a659697713a07e935e53df7a", "is_disabled": 0, "rental_uris": {"android": "https://dc.lft.to/lastmile_qr_scan", "ios": "https://dc.lft.to/lastmile_qr_scan"}, "type": "electric_bike", "lat": 38.86746383333333, "is_reserved": 0, "fusion_lat": 0.0}, {"bike_id": "395556b5204bb14bdc7e5715b53bfdc9", "fusion_lon": 0.0, "lon": -76.98843833333333, "name": "395556b5204bb14bdc7e5715b53bfdc9", "is_disabled": 0, "rental_uris": {"android": "https://dc.lft.to/lastmile_qr_scan", "ios": "https://dc.lft.to/lastmile_qr_scan"}, "type": "electric_bike", "lat": 38.842780166666664, "is_reserved": 0, "fusion_lat": 0.0}, {"bike_id": "fa655456f370792013370b3efa86ee25", "fusion_lon": 0.0, "lon": -77.03674433333333, "name": "fa655456f370792013370b3efa86ee25", "is_disabled": 0, "rental_uris": {"android": "https://dc.lft.to/lastmile_qr_scan", "ios": "https://dc.lft.to/lastmile_qr_scan"}, "type": "electric_scooter", "lat": 38.91709083333333, "is_reserved": 0, "fusion_lat": 0.0}, {"bike_id": "2e71995ff21ed02d1dc36ebe05eab760", "fusion_lon": 0.0, "lon": -77.02721933333333, "name": "2e71995ff21ed02d1dc36ebe05eab760", "is_disabled": 0, "rental_uris": {"android": "https://dc.lft.to/lastmile_qr_scan", "ios": "https://dc.lft.to/lastmile_qr_scan"}, "type": "electric_scooter", "lat": 38.94961983333334, "is_reserved": 0, "fusion_lat": 0.0}, {"bike_id": "9a10c9c2b2adc897fd7c2c55d62ed187", "fusion_lon": 0.0, "lon": -77.0129135, "name": "9a10c9c2b2adc897fd7c2c55d62ed187", "is_disabled": 0, "rental_uris": {"android": "https://dc.lft.to/lastmile_qr_scan", "ios": "https://dc.lft.to/lastmile_qr_scan"}, "type": "electric_scooter", "lat": 38.900602666666664, "is_reserved": 0, "fusion_lat": 0.0}, {"bike_id": "0fd2fc0431e4af1706e8540bce379746", "fusion_lon": 0.0, "lon": -77.05739216666667, "name": "0fd2fc0431e4af1706e8540bce379746", "is_disabled": 0, "rental_uris": {"android": "https://dc.lft.to/lastmile_qr_scan", "ios": "https://dc.lft.to/lastmile_qr_scan"}, "type": "electric_scooter", "lat": 38.925775333333334, "is_reserved": 0, "fusion_lat": 0.0}, {"bike_id": "43e5f6cb0cd53e679992e9b672bd0175", "fusion_lon": 0.0, "lon": -77.00207116666667, "name": "43e5f6cb0cd53e679992e9b672bd0175", "is_disabled": 0, "rental_uris": {"android": "https://dc.lft.to/lastmile_qr_scan", "ios": "https://dc.lft.to/lastmile_qr_scan"}, "type": "electric_scooter", "lat": 38.90022533333333, "is_reserved": 0, "fusion_lat": 0.0}, {"bike_id": "4f79df5b553c7222aaaf2b4a9092bb69", "fusion_lon": 0.0, "lon": -77.03235916666667, "name": "4f79df5b553c7222aaaf2b4a9092bb69", "is_disabled": 0, "rental_uris": {"android": "https://dc.lft.to/lastmile_qr_scan", "ios": "https://dc.lft.to/lastmile_qr_scan"}, "type": "electric_scooter", "lat": 38.927633166666666, "is_reserved": 0, "fusion_lat": 0.0}, {"bike_id": "cdae82a3e86398d6776eb9b98c99d251", "fusion_lon": 0.0, "lon": -77.01207433333333, "name": "cdae82a3e86398d6776eb9b98c99d251", "is_disabled": 0, "rental_uris": {"android": "https://dc.lft.to/lastmile_qr_scan", "ios": "https://dc.lft.to/lastmile_qr_scan"}, "type": "electric_scooter", "lat": 38.917186666666666, "is_reserved": 0, "fusion_lat": 0.0}, {"bike_id": "f7b7def2474a08f7e9ed41fa77d4af3b", "fusion_lon": 0.0, "lon": -77.0733775, "name": "f7b7def2474a08f7e9ed41fa77d4af3b", "is_disabled": 0, "rental_uris": {"android": "https://dc.lft.to/lastmile_qr_scan", "ios": "https://dc.lft.to/lastmile_qr_scan"}, "type": "electric_scooter", "lat": 38.92567966666667, "is_reserved": 0, "fusion_lat": 0.0}, {"bike_id": "a2a633ba4cc02bf9555e8604023d84f4", "fusion_lon": 0.0, "lon": -76.974793, "name": "a2a633ba4cc02bf9555e8604023d84f4", "is_disabled": 0, "rental_uris": {"android": "https://dc.lft.to/lastmile_qr_scan", "ios": "https://dc.lft.to/lastmile_qr_scan"}, "type": "electric_scooter", "lat": 38.903549, "is_reserved": 0, "fusion_lat": 0.0}, {"bike_id": "90fd26c01966ca3f0c6b7f45efa7fd82", "fusion_lon": 0.0, "lon": -77.01408366666666, "name": "90fd26c01966ca3f0c6b7f45efa7fd82", "is_disabled": 0, "rental_uris": {"android": "https://dc.lft.to/lastmile_qr_scan", "ios": "https://dc.lft.to/lastmile_qr_scan"}, "type": "electric_scooter", "lat": 38.881241833333334, "is_reserved": 0, "fusion_lat": 0.0}, {"bike_id": "9abe9812adf556690160f071ee73c627", "fusion_lon": 0.0, "lon": -77.02097683333334, "name": "9abe9812adf556690160f071ee73c627", "is_disabled": 0, "rental_uris": {"android": "https://dc.lft.to/lastmile_qr_scan", "ios": "https://dc.lft.to/lastmile_qr_scan"}, "type": "electric_scooter", "lat": 38.92201416666666, "is_reserved": 0, "fusion_lat": 0.0}, {"bike_id": "75591bdd3f2784fdbc4850ea8dbb4068", "fusion_lon": 0.0, "lon": -77.02224833333334, "name": "75591bdd3f2784fdbc4850ea8dbb4068", "is_disabled": 0, "rental_uris": {"android": "https://dc.lft.to/lastmile_qr_scan", "ios": "https://dc.lft.to/lastmile_qr_scan"}, "type": "electric_scooter", "lat": 38.8922145, "is_reserved": 0, "fusion_lat": 0.0}, {"bike_id": "af3951b940cc3bedb2bdecb086d70805", "fusion_lon": 0.0, "lon": -77.02889233333333, "name": "af3951b940cc3bedb2bdecb086d70805", "is_disabled": 0, "rental_uris": {"android": "https://dc.lft.to/lastmile_qr_scan", "ios": "https://dc.lft.to/lastmile_qr_scan"}, "type": "electric_scooter", "lat": 38.939809, "is_reserved": 0, "fusion_lat": 0.0}, {"bike_id": "306b614751041b15d02f82300c9163b0", "fusion_lon": 0.0, "lon": -77.014445, "name": "306b614751041b15d02f82300c9163b0", "is_disabled": 0, "rental_uris": {"android": "https://dc.lft.to/lastmile_qr_scan", "ios": "https://dc.lft.to/lastmile_qr_scan"}, "type": "electric_scooter", "lat": 38.919681, "is_reserved": 0, "fusion_lat": 0.0}, {"bike_id": "2cf02b0d8dd32a7a2eeaa576a37cb8ca", "fusion_lon": 0.0, "lon": -77.04122533333333, "name": "2cf02b0d8dd32a7a2eeaa576a37cb8ca", "is_disabled": 0, "rental_uris": {"android": "https://dc.lft.to/lastmile_qr_scan", "ios": "https://dc.lft.to/lastmile_qr_scan"}, "type": "electric_scooter", "lat": 38.90964316666667, "is_reserved": 0, "fusion_lat": 0.0}, {"bike_id": "c038f27684fee645de0647cd73b9dc66", "fusion_lon": 0.0, "lon": -77.00874833333333, "name": "c038f27684fee645de0647cd73b9dc66", "is_disabled": 0, "rental_uris": {"android": "https://dc.lft.to/lastmile_qr_scan", "ios": "https://dc.lft.to/lastmile_qr_scan"}, "type": "electric_scooter", "lat": 38.88181316666667, "is_reserved": 0, "fusion_lat": 0.0}, {"bike_id": "9a1f8bdda6c014296657d90bee9880e5", "fusion_lon": 0.0, "lon": -77.04398866666666, "name": "9a1f8bdda6c014296657d90bee9880e5", "is_disabled": 0, "rental_uris": {"android": "https://dc.lft.to/lastmile_qr_scan", "ios": "https://dc.lft.to/lastmile_qr_scan"}, "type": "electric_scooter", "lat": 38.9014355, "is_reserved": 0, "fusion_lat": 0.0}, {"bike_id": "3f95d98c21ada1f2b74bbe2bf73611e6", "fusion_lon": 0.0, "lon": -76.9817845, "name": "3f95d98c21ada1f2b74bbe2bf73611e6", "is_disabled": 0, "rental_uris": {"android": "https://dc.lft.to/lastmile_qr_scan", "ios": "https://dc.lft.to/lastmile_qr_scan"}, "type": "electric_bike", "lat": 38.8462915, "is_reserved": 0, "fusion_lat": 0.0}, {"bike_id": "b1848e18c2a7c25d0b7a76bec54a7141", "fusion_lon": 0.0, "lon": -77.018004, "name": "b1848e18c2a7c25d0b7a76bec54a7141", "is_disabled": 0, "rental_uris": {"android": "https://dc.lft.to/lastmile_qr_scan", "ios": "https://dc.lft.to/lastmile_qr_scan"}, "type": "electric_scooter", "lat": 38.9082795, "is_reserved": 0, "fusion_lat": 0.0}, {"bike_id": "e2db22721fb3bc97265215df2697a38a", "fusion_lon": 0.0, "lon": -77.0344465, "name": "e2db22721fb3bc97265215df2697a38a", "is_disabled": 0, "rental_uris": {"android": "https://dc.lft.to/lastmile_qr_scan", "ios": "https://dc.lft.to/lastmile_qr_scan"}, "type": "electric_scooter", "lat": 38.907651333333334, "is_reserved": 0, "fusion_lat": 0.0}, {"bike_id": "ea113618dd3609c47f43745df3719d3d", "fusion_lon": 0.0, "lon": -77.03342333333333, "name": "ea113618dd3609c47f43745df3719d3d", "is_disabled": 0, "rental_uris": {"android": "https://dc.lft.to/lastmile_qr_scan", "ios": "https://dc.lft.to/lastmile_qr_scan"}, "type": "electric_scooter", "lat": 38.898422833333335, "is_reserved": 0, "fusion_lat": 0.0}, {"bike_id": "648d1b06b8b5452c66ce2b56b546367d", "fusion_lon": 0.0, "lon": -77.02333116666667, "name": "648d1b06b8b5452c66ce2b56b546367d", "is_disabled": 0, "rental_uris": {"android": "https://dc.lft.to/lastmile_qr_scan", "ios": "https://dc.lft.to/lastmile_qr_scan"}, "type": "electric_scooter", "lat": 38.92710616666667, "is_reserved": 0, "fusion_lat": 0.0}, {"bike_id": "79e88fe9dd86b50367a94b76b1da411a", "fusion_lon": 0.0, "lon": -76.99089616666667, "name": "79e88fe9dd86b50367a94b76b1da411a", "is_disabled": 0, "rental_uris": {"android": "https://dc.lft.to/lastmile_qr_scan", "ios": "https://dc.lft.to/lastmile_qr_scan"}, "type": "electric_scooter", "lat": 38.92955083333333, "is_reserved": 0, "fusion_lat": 0.0}, {"bike_id": "5406ca29ff06d74b56b143734329e882", "fusion_lon": 0.0, "lon": -77.016506, "name": "5406ca29ff06d74b56b143734329e882", "is_disabled": 0, "rental_uris": {"android": "https://dc.lft.to/lastmile_qr_scan", "ios": "https://dc.lft.to/lastmile_qr_scan"}, "type": "electric_scooter", "lat": 38.9159595, "is_reserved": 0, "fusion_lat": 0.0}, {"bike_id": "8d7c4b4a2ab9d606566a2d6bbfbbb4d9", "fusion_lon": 0.0, "lon": -77.03506583333333, "name": "8d7c4b4a2ab9d606566a2d6bbfbbb4d9", "is_disabled": 0, "rental_uris": {"android": "https://dc.lft.to/lastmile_qr_scan", "ios": "https://dc.lft.to/lastmile_qr_scan"}, "type": "electric_scooter", "lat": 38.9264225, "is_reserved": 0, "fusion_lat": 0.0}, {"bike_id": "b110e5848697193a988b23875f1d0aac", "fusion_lon": 0.0, "lon": -77.009268, "name": "b110e5848697193a988b23875f1d0aac", "is_disabled": 0, "rental_uris": {"android": "https://dc.lft.to/lastmile_qr_scan", "ios": "https://dc.lft.to/lastmile_qr_scan"}, "type": "electric_scooter", "lat": 38.912675, "is_reserved": 0, "fusion_lat": 0.0}, {"bike_id": "59a8f805534acf3fb577fa602d930fc5", "fusion_lon": 0.0, "lon": -77.04187216666666, "name": "59a8f805534acf3fb577fa602d930fc5", "is_disabled": 0, "rental_uris": {"android": "https://dc.lft.to/lastmile_qr_scan", "ios": "https://dc.lft.to/lastmile_qr_scan"}, "type": "electric_scooter", "lat": 38.92061233333333, "is_reserved": 0, "fusion_lat": 0.0}, {"bike_id": "36bee418f066b36825f26062d3bce222", "fusion_lon": 0.0, "lon": -76.93549816666666, "name": "36bee418f066b36825f26062d3bce222", "is_disabled": 0, "rental_uris": {"android": "https://dc.lft.to/lastmile_qr_scan", "ios": "https://dc.lft.to/lastmile_qr_scan"}, "type": "electric_bike", "lat": 38.951834833333336, "is_reserved": 0, "fusion_lat": 0.0}, {"bike_id": "91c23de0c9afaba5069ca1cd864380d4", "fusion_lon": 0.0, "lon": -77.022041, "name": "91c23de0c9afaba5069ca1cd864380d4", "is_disabled": 0, "rental_uris": {"android": "https://dc.lft.to/lastmile_qr_scan", "ios": "https://dc.lft.to/lastmile_qr_scan"}, "type": "electric_scooter", "lat": 38.87889366666667, "is_reserved": 0, "fusion_lat": 0.0}, {"bike_id": "8a731bcdd1c0b30d4e49e4cc69777b60", "fusion_lon": 0.0, "lon": -77.02763316666666, "name": "8a731bcdd1c0b30d4e49e4cc69777b60", "is_disabled": 0, "rental_uris": {"android": "https://dc.lft.to/lastmile_qr_scan", "ios": "https://dc.lft.to/lastmile_qr_scan"}, "type": "electric_scooter", "lat": 38.90731516666666, "is_reserved": 0, "fusion_lat": 0.0}, {"bike_id": "879b56d8abe2eb004312cec5334d0fdc", "fusion_lon": 0.0, "lon": -77.03396883333333, "name": "879b56d8abe2eb004312cec5334d0fdc", "is_disabled": 0, "rental_uris": {"android": "https://dc.lft.to/lastmile_qr_scan", "ios": "https://dc.lft.to/lastmile_qr_scan"}, "type": "electric_scooter", "lat": 38.93092383333333, "is_reserved": 0, "fusion_lat": 0.0}, {"bike_id": "3d11a7be06e66d30552ca378a4e3d051", "fusion_lon": 0.0, "lon": -76.9976325, "name": "3d11a7be06e66d30552ca378a4e3d051", "is_disabled": 0, "rental_uris": {"android": "https://dc.lft.to/lastmile_qr_scan", "ios": "https://dc.lft.to/lastmile_qr_scan"}, "type": "electric_scooter", "lat": 38.88771533333333, "is_reserved": 0, "fusion_lat": 0.0}, {"bike_id": "d223abb72800c8ef8441eada01e49b4c", "fusion_lon": 0.0, "lon": -77.00610033333334, "name": "d223abb72800c8ef8441eada01e49b4c", "is_disabled": 0, "rental_uris": {"android": "https://dc.lft.to/lastmile_qr_scan", "ios": "https://dc.lft.to/lastmile_qr_scan"}, "type": "electric_scooter", "lat": 38.9053995, "is_reserved": 0, "fusion_lat": 0.0}, {"bike_id": "1d9a064fe4a2a22f92e4a1192bb5429c", "fusion_lon": 0.0, "lon": -77.11853666666667, "name": "1d9a064fe4a2a22f92e4a1192bb5429c", "is_disabled": 0, "rental_uris": {"android": "https://dc.lft.to/lastmile_qr_scan", "ios": "https://dc.lft.to/lastmile_qr_scan"}, "type": "electric_bike", "lat": 38.87736866666667, "is_reserved": 0, "fusion_lat": 0.0}, {"bike_id": "7e6e033536d2ea3ed0ac6fd1e0fbbc09", "fusion_lon": 0.0, "lon": -77.03720883333334, "name": "7e6e033536d2ea3ed0ac6fd1e0fbbc09", "is_disabled": 0, "rental_uris": {"android": "https://dc.lft.to/lastmile_qr_scan", "ios": "https://dc.lft.to/lastmile_qr_scan"}, "type": "electric_scooter", "lat": 38.91809666666666, "is_reserved": 0, "fusion_lat": 0.0}, {"bike_id": "51bd3914d4e93a2a47929ca565a172e0", "fusion_lon": 0.0, "lon": -77.027634, "name": "51bd3914d4e93a2a47929ca565a172e0", "is_disabled": 0, "rental_uris": {"android": "https://dc.lft.to/lastmile_qr_scan", "ios": "https://dc.lft.to/lastmile_qr_scan"}, "type": "electric_scooter", "lat": 38.907355, "is_reserved": 0, "fusion_lat": 0.0}, {"bike_id": "fa3aad5c501a37c5d4dec98e3005a8e3", "fusion_lon": 0.0, "lon": -76.98712116666667, "name": "fa3aad5c501a37c5d4dec98e3005a8e3", "is_disabled": 0, "rental_uris": {"android": "https://dc.lft.to/lastmile_qr_scan", "ios": "https://dc.lft.to/lastmile_qr_scan"}, "type": "electric_scooter", "lat": 38.8670045, "is_reserved": 0, "fusion_lat": 0.0}, {"bike_id": "f702dfdfe7a6795b72ec1855b42fae19", "fusion_lon": 0.0, "lon": -76.99863933333333, "name": "f702dfdfe7a6795b72ec1855b42fae19", "is_disabled": 0, "rental_uris": {"android": "https://dc.lft.to/lastmile_qr_scan", "ios": "https://dc.lft.to/lastmile_qr_scan"}, "type": "electric_scooter", "lat": 38.900248166666664, "is_reserved": 0, "fusion_lat": 0.0}, {"bike_id": "4755eb3a3ab0bfdd32eaca68f52c7a12", "fusion_lon": 0.0, "lon": -77.0072615, "name": "4755eb3a3ab0bfdd32eaca68f52c7a12", "is_disabled": 0, "rental_uris": {"android": "https://dc.lft.to/lastmile_qr_scan", "ios": "https://dc.lft.to/lastmile_qr_scan"}, "type": "electric_scooter", "lat": 38.884945, "is_reserved": 0, "fusion_lat": 0.0}, {"bike_id": "c97503f507b5876c9a5c3475fac4f1c9", "fusion_lon": 0.0, "lon": -77.02709766666666, "name": "c97503f507b5876c9a5c3475fac4f1c9", "is_disabled": 0, "rental_uris": {"android": "https://dc.lft.to/lastmile_qr_scan", "ios": "https://dc.lft.to/lastmile_qr_scan"}, "type": "electric_scooter", "lat": 38.90671183333333, "is_reserved": 0, "fusion_lat": 0.0}, {"bike_id": "50b0d1d5ed26aea39a96f0600ce9ac83", "fusion_lon": 0.0, "lon": -76.99356133333333, "name": "50b0d1d5ed26aea39a96f0600ce9ac83", "is_disabled": 0, "rental_uris": {"android": "https://dc.lft.to/lastmile_qr_scan", "ios": "https://dc.lft.to/lastmile_qr_scan"}, "type": "electric_bike", "lat": 38.84506483333333, "is_reserved": 0, "fusion_lat": 0.0}, {"bike_id": "fc4da650efc895d8e5fb8492561179a9", "fusion_lon": 0.0, "lon": -77.05268716666667, "name": "fc4da650efc895d8e5fb8492561179a9", "is_disabled": 0, "rental_uris": {"android": "https://dc.lft.to/lastmile_qr_scan", "ios": "https://dc.lft.to/lastmile_qr_scan"}, "type": "electric_scooter", "lat": 38.925375333333335, "is_reserved": 0, "fusion_lat": 0.0}, {"bike_id": "a602a44c8c5518c1f13434abf022a5bb", "fusion_lon": 0.0, "lon": -77.01768833333334, "name": "a602a44c8c5518c1f13434abf022a5bb", "is_disabled": 0, "rental_uris": {"android": "https://dc.lft.to/lastmile_qr_scan", "ios": "https://dc.lft.to/lastmile_qr_scan"}, "type": "electric_scooter", "lat": 38.8771015, "is_reserved": 0, "fusion_lat": 0.0}, {"bike_id": "8836c725a8de06a5dffd1f19cbd584fe", "fusion_lon": 0.0, "lon": -76.9982105, "name": "8836c725a8de06a5dffd1f19cbd584fe", "is_disabled": 0, "rental_uris": {"android": "https://dc.lft.to/lastmile_qr_scan", "ios": "https://dc.lft.to/lastmile_qr_scan"}, "type": "electric_scooter", "lat": 38.9082245, "is_reserved": 0, "fusion_lat": 0.0}, {"bike_id": "3f4fcc008d65ca222b7aac8465eab541", "fusion_lon": 0.0, "lon": -77.03134516666667, "name": "3f4fcc008d65ca222b7aac8465eab541", "is_disabled": 0, "rental_uris": {"android": "https://dc.lft.to/lastmile_qr_scan", "ios": "https://dc.lft.to/lastmile_qr_scan"}, "type": "electric_scooter", "lat": 38.91805216666667, "is_reserved": 0, "fusion_lat": 0.0}, {"bike_id": "64d67630a0dc4a56adce049560d0ec7e", "fusion_lon": 0.0, "lon": -77.01790316666667, "name": "64d67630a0dc4a56adce049560d0ec7e", "is_disabled": 0, "rental_uris": {"android": "https://dc.lft.to/lastmile_qr_scan", "ios": "https://dc.lft.to/lastmile_qr_scan"}, "type": "electric_scooter", "lat": 38.88300866666667, "is_reserved": 0, "fusion_lat": 0.0}, {"bike_id": "e087db38b1c8e0c3ce92b3b2536b61f7", "fusion_lon": 0.0, "lon": -77.03568216666666, "name": "e087db38b1c8e0c3ce92b3b2536b61f7", "is_disabled": 0, "rental_uris": {"android": "https://dc.lft.to/lastmile_qr_scan", "ios": "https://dc.lft.to/lastmile_qr_scan"}, "type": "electric_scooter", "lat": 38.923281333333335, "is_reserved": 0, "fusion_lat": 0.0}, {"bike_id": "724358a6481f85a003f03b6df664b99a", "fusion_lon": 0.0, "lon": -77.027109, "name": "724358a6481f85a003f03b6df664b99a", "is_disabled": 0, "rental_uris": {"android": "https://dc.lft.to/lastmile_qr_scan", "ios": "https://dc.lft.to/lastmile_qr_scan"}, "type": "electric_scooter", "lat": 38.90690766666667, "is_reserved": 0, "fusion_lat": 0.0}, {"bike_id": "4e9d8cc82b8d473180b6571461e31cdc", "fusion_lon": 0.0, "lon": -76.9837945, "name": "4e9d8cc82b8d473180b6571461e31cdc", "is_disabled": 0, "rental_uris": {"android": "https://dc.lft.to/lastmile_qr_scan", "ios": "https://dc.lft.to/lastmile_qr_scan"}, "type": "electric_scooter", "lat": 38.885881499999996, "is_reserved": 0, "fusion_lat": 0.0}, {"bike_id": "358f09ce41f01969fc6adb775b97ef9f", "fusion_lon": 0.0, "lon": -77.03551566666667, "name": "358f09ce41f01969fc6adb775b97ef9f", "is_disabled": 0, "rental_uris": {"android": "https://dc.lft.to/lastmile_qr_scan", "ios": "https://dc.lft.to/lastmile_qr_scan"}, "type": "electric_scooter", "lat": 38.92867716666667, "is_reserved": 0, "fusion_lat": 0.0}, {"bike_id": "f2c5fb86b83f3efe40fb7e2d92358353", "fusion_lon": 0.0, "lon": -77.04143866666666, "name": "f2c5fb86b83f3efe40fb7e2d92358353", "is_disabled": 0, "rental_uris": {"android": "https://dc.lft.to/lastmile_qr_scan", "ios": "https://dc.lft.to/lastmile_qr_scan"}, "type": "electric_scooter", "lat": 38.89353633333333, "is_reserved": 0, "fusion_lat": 0.0}, {"bike_id": "f1ad00a909e8dd20cdb47984ba89ef83", "fusion_lon": 0.0, "lon": -77.044597, "name": "f1ad00a909e8dd20cdb47984ba89ef83", "is_disabled": 0, "rental_uris": {"android": "https://dc.lft.to/lastmile_qr_scan", "ios": "https://dc.lft.to/lastmile_qr_scan"}, "type": "electric_scooter", "lat": 38.91854933333333, "is_reserved": 0, "fusion_lat": 0.0}, {"bike_id": "b1d7fdcf69388224625c0373fc2e8ac9", "fusion_lon": 0.0, "lon": -77.03291583333333, "name": "b1d7fdcf69388224625c0373fc2e8ac9", "is_disabled": 0, "rental_uris": {"android": "https://dc.lft.to/lastmile_qr_scan", "ios": "https://dc.lft.to/lastmile_qr_scan"}, "type": "electric_scooter", "lat": 38.9204335, "is_reserved": 0, "fusion_lat": 0.0}, {"bike_id": "8705eda358d23c8a0cf52169a774c832", "fusion_lon": 0.0, "lon": -77.03796066666666, "name": "8705eda358d23c8a0cf52169a774c832", "is_disabled": 0, "rental_uris": {"android": "https://dc.lft.to/lastmile_qr_scan", "ios": "https://dc.lft.to/lastmile_qr_scan"}, "type": "electric_scooter", "lat": 38.9255305, "is_reserved": 0, "fusion_lat": 0.0}, {"bike_id": "adb219b64dec9ca8da2b08b098de5ba0", "fusion_lon": 0.0, "lon": -77.00194533333334, "name": "adb219b64dec9ca8da2b08b098de5ba0", "is_disabled": 0, "rental_uris": {"android": "https://dc.lft.to/lastmile_qr_scan", "ios": "https://dc.lft.to/lastmile_qr_scan"}, "type": "electric_scooter", "lat": 38.902403166666666, "is_reserved": 0, "fusion_lat": 0.0}, {"bike_id": "23a64c24d41bde3c4385e76d07bbd462", "fusion_lon": 0.0, "lon": -77.03931433333334, "name": "23a64c24d41bde3c4385e76d07bbd462", "is_disabled": 0, "rental_uris": {"android": "https://dc.lft.to/lastmile_qr_scan", "ios": "https://dc.lft.to/lastmile_qr_scan"}, "type": "electric_scooter", "lat": 38.924934666666665, "is_reserved": 0, "fusion_lat": 0.0}, {"bike_id": "baf578d422a8785006c9e5484fa79e08", "fusion_lon": 0.0, "lon": -77.0315555, "name": "baf578d422a8785006c9e5484fa79e08", "is_disabled": 0, "rental_uris": {"android": "https://dc.lft.to/lastmile_qr_scan", "ios": "https://dc.lft.to/lastmile_qr_scan"}, "type": "electric_bike", "lat": 38.99949083333333, "is_reserved": 0, "fusion_lat": 0.0}, {"bike_id": "dbff6250a617175f18d02252b4e5426c", "fusion_lon": 0.0, "lon": -77.034217, "name": "dbff6250a617175f18d02252b4e5426c", "is_disabled": 0, "rental_uris": {"android": "https://dc.lft.to/lastmile_qr_scan", "ios": "https://dc.lft.to/lastmile_qr_scan"}, "type": "electric_scooter", "lat": 38.92242, "is_reserved": 0, "fusion_lat": 0.0}, {"bike_id": "354531d0c874d63fde527fd15c7ae2bb", "fusion_lon": 0.0, "lon": -77.02293316666666, "name": "354531d0c874d63fde527fd15c7ae2bb", "is_disabled": 0, "rental_uris": {"android": "https://dc.lft.to/lastmile_qr_scan", "ios": "https://dc.lft.to/lastmile_qr_scan"}, "type": "electric_bike", "lat": 38.92329133333333, "is_reserved": 0, "fusion_lat": 0.0}, {"bike_id": "6f351dcbe92fd2dfcae0ba55dca51b65", "fusion_lon": 0.0, "lon": -76.9973625, "name": "6f351dcbe92fd2dfcae0ba55dca51b65", "is_disabled": 0, "rental_uris": {"android": "https://dc.lft.to/lastmile_qr_scan", "ios": "https://dc.lft.to/lastmile_qr_scan"}, "type": "electric_scooter", "lat": 38.9012955, "is_reserved": 0, "fusion_lat": 0.0}, {"bike_id": "b6329786bbcc81415d1eeee7e0a0baf9", "fusion_lon": 0.0, "lon": -76.941842, "name": "b6329786bbcc81415d1eeee7e0a0baf9", "is_disabled": 0, "rental_uris": {"android": "https://dc.lft.to/lastmile_qr_scan", "ios": "https://dc.lft.to/lastmile_qr_scan"}, "type": "electric_scooter", "lat": 38.89756283333333, "is_reserved": 0, "fusion_lat": 0.0}, {"bike_id": "d09c823c96268291fb7c6f8e1dd62c2c", "fusion_lon": 0.0, "lon": -77.04189333333333, "name": "d09c823c96268291fb7c6f8e1dd62c2c", "is_disabled": 0, "rental_uris": {"android": "https://dc.lft.to/lastmile_qr_scan", "ios": "https://dc.lft.to/lastmile_qr_scan"}, "type": "electric_scooter", "lat": 38.893598, "is_reserved": 0, "fusion_lat": 0.0}, {"bike_id": "498b66b25844a179afeb70960563901f", "fusion_lon": 0.0, "lon": -77.12018433333333, "name": "498b66b25844a179afeb70960563901f", "is_disabled": 0, "rental_uris": {"android": "https://dc.lft.to/lastmile_qr_scan", "ios": "https://dc.lft.to/lastmile_qr_scan"}, "type": "electric_bike", "lat": 38.855209, "is_reserved": 0, "fusion_lat": 0.0}, {"bike_id": "5aa7271b806b826fed7d00911321061d", "fusion_lon": 0.0, "lon": -77.03142333333334, "name": "5aa7271b806b826fed7d00911321061d", "is_disabled": 0, "rental_uris": {"android": "https://dc.lft.to/lastmile_qr_scan", "ios": "https://dc.lft.to/lastmile_qr_scan"}, "type": "electric_scooter", "lat": 38.901599833333336, "is_reserved": 0, "fusion_lat": 0.0}, {"bike_id": "9a7c03e5a161f1d1c3f5df2c349062c7", "fusion_lon": 0.0, "lon": -77.03360516666666, "name": "9a7c03e5a161f1d1c3f5df2c349062c7", "is_disabled": 0, "rental_uris": {"android": "https://dc.lft.to/lastmile_qr_scan", "ios": "https://dc.lft.to/lastmile_qr_scan"}, "type": "electric_scooter", "lat": 38.907168166666665, "is_reserved": 0, "fusion_lat": 0.0}, {"bike_id": "adadab1de56947e6d8444dae9d2ccfb1", "fusion_lon": 0.0, "lon": -77.01911633333333, "name": "adadab1de56947e6d8444dae9d2ccfb1", "is_disabled": 0, "rental_uris": {"android": "https://dc.lft.to/lastmile_qr_scan", "ios": "https://dc.lft.to/lastmile_qr_scan"}, "type": "electric_scooter", "lat": 38.923718, "is_reserved": 0, "fusion_lat": 0.0}, {"bike_id": "9ade00672a7c42cff3d68c2849006e1c", "fusion_lon": 0.0, "lon": -77.03512933333333, "name": "9ade00672a7c42cff3d68c2849006e1c", "is_disabled": 0, "rental_uris": {"android": "https://dc.lft.to/lastmile_qr_scan", "ios": "https://dc.lft.to/lastmile_qr_scan"}, "type": "electric_scooter", "lat": 38.92221633333333, "is_reserved": 0, "fusion_lat": 0.0}, {"bike_id": "4399cd9d461b8df651077a7fcc3e2efe", "fusion_lon": 0.0, "lon": -77.0494415, "name": "4399cd9d461b8df651077a7fcc3e2efe", "is_disabled": 0, "rental_uris": {"android": "https://dc.lft.to/lastmile_qr_scan", "ios": "https://dc.lft.to/lastmile_qr_scan"}, "type": "electric_bike", "lat": 38.888321833333336, "is_reserved": 0, "fusion_lat": 0.0}, {"bike_id": "967ebe67722c5f64101b9395456ee19b", "fusion_lon": 0.0, "lon": -77.00733116666666, "name": "967ebe67722c5f64101b9395456ee19b", "is_disabled": 0, "rental_uris": {"android": "https://dc.lft.to/lastmile_qr_scan", "ios": "https://dc.lft.to/lastmile_qr_scan"}, "type": "electric_scooter", "lat": 38.910292, "is_reserved": 0, "fusion_lat": 0.0}, {"bike_id": "0a4fde32bed4511ae5aab81b7ee1a375", "fusion_lon": 0.0, "lon": -77.00205033333333, "name": "0a4fde32bed4511ae5aab81b7ee1a375", "is_disabled": 0, "rental_uris": {"android": "https://dc.lft.to/lastmile_qr_scan", "ios": "https://dc.lft.to/lastmile_qr_scan"}, "type": "electric_scooter", "lat": 38.90952, "is_reserved": 0, "fusion_lat": 0.0}, {"bike_id": "7cb4b6b5325db1bd0e088d426ad81518", "fusion_lon": 0.0, "lon": -77.05006416666667, "name": "7cb4b6b5325db1bd0e088d426ad81518", "is_disabled": 0, "rental_uris": {"android": "https://dc.lft.to/lastmile_qr_scan", "ios": "https://dc.lft.to/lastmile_qr_scan"}, "type": "electric_scooter", "lat": 38.8923115, "is_reserved": 0, "fusion_lat": 0.0}, {"bike_id": "7a95dfff597c0e8ec8234960f53e31d7", "fusion_lon": 0.0, "lon": -77.02387633333333, "name": "7a95dfff597c0e8ec8234960f53e31d7", "is_disabled": 0, "rental_uris": {"android": "https://dc.lft.to/lastmile_qr_scan", "ios": "https://dc.lft.to/lastmile_qr_scan"}, "type": "electric_scooter", "lat": 38.901961166666666, "is_reserved": 0, "fusion_lat": 0.0}, {"bike_id": "dae0eef0e36c803c25ead7986633df10", "fusion_lon": 0.0, "lon": -76.98515033333334, "name": "dae0eef0e36c803c25ead7986633df10", "is_disabled": 0, "rental_uris": {"android": "https://dc.lft.to/lastmile_qr_scan", "ios": "https://dc.lft.to/lastmile_qr_scan"}, "type": "electric_scooter", "lat": 38.866573833333334, "is_reserved": 0, "fusion_lat": 0.0}, {"bike_id": "f1e49fbe6cb1755c09b2a82fc334277a", "fusion_lon": 0.0, "lon": -77.034582, "name": "f1e49fbe6cb1755c09b2a82fc334277a", "is_disabled": 0, "rental_uris": {"android": "https://dc.lft.to/lastmile_qr_scan", "ios": "https://dc.lft.to/lastmile_qr_scan"}, "type": "electric_scooter", "lat": 38.90733483333333, "is_reserved": 0, "fusion_lat": 0.0}, {"bike_id": "f18a2cb87d5c50d8740d75b8474b5b61", "fusion_lon": 0.0, "lon": -77.03697583333333, "name": "f18a2cb87d5c50d8740d75b8474b5b61", "is_disabled": 0, "rental_uris": {"android": "https://dc.lft.to/lastmile_qr_scan", "ios": "https://dc.lft.to/lastmile_qr_scan"}, "type": "electric_scooter", "lat": 38.916511, "is_reserved": 0, "fusion_lat": 0.0}, {"bike_id": "c64cac1873dd205a08e7b80ac19252fc", "fusion_lon": 0.0, "lon": -77.03025666666667, "name": "c64cac1873dd205a08e7b80ac19252fc", "is_disabled": 0, "rental_uris": {"android": "https://dc.lft.to/lastmile_qr_scan", "ios": "https://dc.lft.to/lastmile_qr_scan"}, "type": "electric_scooter", "lat": 38.896184833333336, "is_reserved": 0, "fusion_lat": 0.0}, {"bike_id": "4435666c1040c2e96cc15300cff4d425", "fusion_lon": 0.0, "lon": -77.02943283333333, "name": "4435666c1040c2e96cc15300cff4d425", "is_disabled": 0, "rental_uris": {"android": "https://dc.lft.to/lastmile_qr_scan", "ios": "https://dc.lft.to/lastmile_qr_scan"}, "type": "electric_scooter", "lat": 38.90503066666667, "is_reserved": 0, "fusion_lat": 0.0}, {"bike_id": "f93506043268e7728e288ebc1346372d", "fusion_lon": 0.0, "lon": -77.01881933333334, "name": "f93506043268e7728e288ebc1346372d", "is_disabled": 0, "rental_uris": {"android": "https://dc.lft.to/lastmile_qr_scan", "ios": "https://dc.lft.to/lastmile_qr_scan"}, "type": "electric_scooter", "lat": 38.900385, "is_reserved": 0, "fusion_lat": 0.0}, {"bike_id": "3ad8e00e618a2187e7c75cbedc1cc751", "fusion_lon": 0.0, "lon": -77.05318233333334, "name": "3ad8e00e618a2187e7c75cbedc1cc751", "is_disabled": 0, "rental_uris": {"android": "https://dc.lft.to/lastmile_qr_scan", "ios": "https://dc.lft.to/lastmile_qr_scan"}, "type": "electric_scooter", "lat": 38.92799466666666, "is_reserved": 0, "fusion_lat": 0.0}, {"bike_id": "29f586c8c9aec50189c31a287ed5a30a", "fusion_lon": 0.0, "lon": -77.02184783333334, "name": "29f586c8c9aec50189c31a287ed5a30a", "is_disabled": 0, "rental_uris": {"android": "https://dc.lft.to/lastmile_qr_scan", "ios": "https://dc.lft.to/lastmile_qr_scan"}, "type": "electric_scooter", "lat": 38.91509466666667, "is_reserved": 0, "fusion_lat": 0.0}, {"bike_id": "97794198488ff5d5bc45f2c34eb3fee3", "fusion_lon": 0.0, "lon": -76.99778533333334, "name": "97794198488ff5d5bc45f2c34eb3fee3", "is_disabled": 0, "rental_uris": {"android": "https://dc.lft.to/lastmile_qr_scan", "ios": "https://dc.lft.to/lastmile_qr_scan"}, "type": "electric_bike", "lat": 38.8621575, "is_reserved": 0, "fusion_lat": 0.0}, {"bike_id": "1ee3bc23beff11493072ec60a13ee0ed", "fusion_lon": 0.0, "lon": -76.977333, "name": "1ee3bc23beff11493072ec60a13ee0ed", "is_disabled": 0, "rental_uris": {"android": "https://dc.lft.to/lastmile_qr_scan", "ios": "https://dc.lft.to/lastmile_qr_scan"}, "type": "electric_scooter", "lat": 38.895172, "is_reserved": 0, "fusion_lat": 0.0}, {"bike_id": "1ec938e90ee8e9b19a3ea39fbaf7272e", "fusion_lon": 0.0, "lon": -77.01636316666666, "name": "1ec938e90ee8e9b19a3ea39fbaf7272e", "is_disabled": 0, "rental_uris": {"android": "https://dc.lft.to/lastmile_qr_scan", "ios": "https://dc.lft.to/lastmile_qr_scan"}, "type": "electric_scooter", "lat": 38.895454666666666, "is_reserved": 0, "fusion_lat": 0.0}, {"bike_id": "5556a33fcd97af4090e977dac567b583", "fusion_lon": 0.0, "lon": -77.06862566666666, "name": "5556a33fcd97af4090e977dac567b583", "is_disabled": 0, "rental_uris": {"android": "https://dc.lft.to/lastmile_qr_scan", "ios": "https://dc.lft.to/lastmile_qr_scan"}, "type": "electric_scooter", "lat": 38.952873833333335, "is_reserved": 0, "fusion_lat": 0.0}, {"bike_id": "ef8822daa909df98e136b71eedaca0b6", "fusion_lon": 0.0, "lon": -76.9916525, "name": "ef8822daa909df98e136b71eedaca0b6", "is_disabled": 0, "rental_uris": {"android": "https://dc.lft.to/lastmile_qr_scan", "ios": "https://dc.lft.to/lastmile_qr_scan"}, "type": "electric_scooter", "lat": 38.86318, "is_reserved": 0, "fusion_lat": 0.0}, {"bike_id": "da5a9162cdfb9c8d74c75bc15e235102", "fusion_lon": 0.0, "lon": -76.93991333333334, "name": "da5a9162cdfb9c8d74c75bc15e235102", "is_disabled": 0, "rental_uris": {"android": "https://dc.lft.to/lastmile_qr_scan", "ios": "https://dc.lft.to/lastmile_qr_scan"}, "type": "electric_scooter", "lat": 38.89980466666667, "is_reserved": 0, "fusion_lat": 0.0}, {"bike_id": "4c090ccfd0fbd86e9839ecc0920d26ba", "fusion_lon": 0.0, "lon": -77.023715, "name": "4c090ccfd0fbd86e9839ecc0920d26ba", "is_disabled": 0, "rental_uris": {"android": "https://dc.lft.to/lastmile_qr_scan", "ios": "https://dc.lft.to/lastmile_qr_scan"}, "type": "electric_scooter", "lat": 38.90206666666667, "is_reserved": 0, "fusion_lat": 0.0}, {"bike_id": "75045641ca2f03c03e81ec63a5a44f1b", "fusion_lon": 0.0, "lon": -77.027623, "name": "75045641ca2f03c03e81ec63a5a44f1b", "is_disabled": 0, "rental_uris": {"android": "https://dc.lft.to/lastmile_qr_scan", "ios": "https://dc.lft.to/lastmile_qr_scan"}, "type": "electric_scooter", "lat": 38.954307166666666, "is_reserved": 0, "fusion_lat": 0.0}, {"bike_id": "423dc4451c5e812a4800d6e24ae3039c", "fusion_lon": 0.0, "lon": -77.02953516666666, "name": "423dc4451c5e812a4800d6e24ae3039c", "is_disabled": 0, "rental_uris": {"android": "https://dc.lft.to/lastmile_qr_scan", "ios": "https://dc.lft.to/lastmile_qr_scan"}, "type": "electric_scooter", "lat": 38.904846666666664, "is_reserved": 0, "fusion_lat": 0.0}, {"bike_id": "e38837b7dc15749fe6245227c2325a98", "fusion_lon": 0.0, "lon": -77.04459633333333, "name": "e38837b7dc15749fe6245227c2325a98", "is_disabled": 0, "rental_uris": {"android": "https://dc.lft.to/lastmile_qr_scan", "ios": "https://dc.lft.to/lastmile_qr_scan"}, "type": "electric_scooter", "lat": 38.930188666666666, "is_reserved": 0, "fusion_lat": 0.0}, {"bike_id": "a4c6e2971a942f19a93472906a05e702", "fusion_lon": 0.0, "lon": -76.93291116666667, "name": "a4c6e2971a942f19a93472906a05e702", "is_disabled": 0, "rental_uris": {"android": "https://dc.lft.to/lastmile_qr_scan", "ios": "https://dc.lft.to/lastmile_qr_scan"}, "type": "electric_scooter", "lat": 38.881371, "is_reserved": 0, "fusion_lat": 0.0}, {"bike_id": "c86f5d2cbbe67612f72b136326982e83", "fusion_lon": 0.0, "lon": -76.9969985, "name": "c86f5d2cbbe67612f72b136326982e83", "is_disabled": 0, "rental_uris": {"android": "https://dc.lft.to/lastmile_qr_scan", "ios": "https://dc.lft.to/lastmile_qr_scan"}, "type": "electric_scooter", "lat": 38.908418166666664, "is_reserved": 0, "fusion_lat": 0.0}, {"bike_id": "8ea31f9c45053ef31654e2991f00ab44", "fusion_lon": 0.0, "lon": -77.01865983333333, "name": "8ea31f9c45053ef31654e2991f00ab44", "is_disabled": 0, "rental_uris": {"android": "https://dc.lft.to/lastmile_qr_scan", "ios": "https://dc.lft.to/lastmile_qr_scan"}, "type": "electric_scooter", "lat": 38.931498166666664, "is_reserved": 0, "fusion_lat": 0.0}, {"bike_id": "bf710657a9ed2220f17fc40461fe2791", "fusion_lon": 0.0, "lon": -77.03666016666666, "name": "bf710657a9ed2220f17fc40461fe2791", "is_disabled": 0, "rental_uris": {"android": "https://dc.lft.to/lastmile_qr_scan", "ios": "https://dc.lft.to/lastmile_qr_scan"}, "type": "electric_scooter", "lat": 38.93640166666667, "is_reserved": 0, "fusion_lat": 0.0}, {"bike_id": "ee49b6135413878e54de511b0b0f94cd", "fusion_lon": 0.0, "lon": -77.01781333333334, "name": "ee49b6135413878e54de511b0b0f94cd", "is_disabled": 0, "rental_uris": {"android": "https://dc.lft.to/lastmile_qr_scan", "ios": "https://dc.lft.to/lastmile_qr_scan"}, "type": "electric_scooter", "lat": 38.90398316666667, "is_reserved": 0, "fusion_lat": 0.0}, {"bike_id": "0a3bd745b7e164661ec76596e0afba4f", "fusion_lon": 0.0, "lon": -77.02211183333333, "name": "0a3bd745b7e164661ec76596e0afba4f", "is_disabled": 0, "rental_uris": {"android": "https://dc.lft.to/lastmile_qr_scan", "ios": "https://dc.lft.to/lastmile_qr_scan"}, "type": "electric_scooter", "lat": 38.902123833333334, "is_reserved": 0, "fusion_lat": 0.0}, {"bike_id": "5180e6be37534843abe6609c685f703e", "fusion_lon": 0.0, "lon": -77.0326095, "name": "5180e6be37534843abe6609c685f703e", "is_disabled": 0, "rental_uris": {"android": "https://dc.lft.to/lastmile_qr_scan", "ios": "https://dc.lft.to/lastmile_qr_scan"}, "type": "electric_scooter", "lat": 38.93972766666667, "is_reserved": 0, "fusion_lat": 0.0}, {"bike_id": "7387f3d6dab83310cd72cf1e9960b434", "fusion_lon": 0.0, "lon": -77.0731125, "name": "7387f3d6dab83310cd72cf1e9960b434", "is_disabled": 0, "rental_uris": {"android": "https://dc.lft.to/lastmile_qr_scan", "ios": "https://dc.lft.to/lastmile_qr_scan"}, "type": "electric_scooter", "lat": 38.922391833333336, "is_reserved": 0, "fusion_lat": 0.0}, {"bike_id": "af0efb5ac8aa546694f85ee7c85c3777", "fusion_lon": 0.0, "lon": -77.02196516666666, "name": "af0efb5ac8aa546694f85ee7c85c3777", "is_disabled": 0, "rental_uris": {"android": "https://dc.lft.to/lastmile_qr_scan", "ios": "https://dc.lft.to/lastmile_qr_scan"}, "type": "electric_scooter", "lat": 38.918449333333335, "is_reserved": 0, "fusion_lat": 0.0}, {"bike_id": "c5b198517f22f149d746afe140f6bc96", "fusion_lon": 0.0, "lon": -77.001383, "name": "c5b198517f22f149d746afe140f6bc96", "is_disabled": 0, "rental_uris": {"android": "https://dc.lft.to/lastmile_qr_scan", "ios": "https://dc.lft.to/lastmile_qr_scan"}, "type": "electric_bike", "lat": 38.925564666666666, "is_reserved": 0, "fusion_lat": 0.0}, {"bike_id": "fd4d7e2f773fc3a3eec752076fa105d4", "fusion_lon": 0.0, "lon": -76.98074733333333, "name": "fd4d7e2f773fc3a3eec752076fa105d4", "is_disabled": 0, "rental_uris": {"android": "https://dc.lft.to/lastmile_qr_scan", "ios": "https://dc.lft.to/lastmile_qr_scan"}, "type": "electric_scooter", "lat": 38.901731, "is_reserved": 0, "fusion_lat": 0.0}, {"bike_id": "77755553fd715a402eebd107a9c9a74c", "fusion_lon": 0.0, "lon": -76.9960915, "name": "77755553fd715a402eebd107a9c9a74c", "is_disabled": 0, "rental_uris": {"android": "https://dc.lft.to/lastmile_qr_scan", "ios": "https://dc.lft.to/lastmile_qr_scan"}, "type": "electric_scooter", "lat": 38.899192166666666, "is_reserved": 0, "fusion_lat": 0.0}, {"bike_id": "e78896413c930e81e4a2c316bea05e50", "fusion_lon": 0.0, "lon": -76.9933385, "name": "e78896413c930e81e4a2c316bea05e50", "is_disabled": 0, "rental_uris": {"android": "https://dc.lft.to/lastmile_qr_scan", "ios": "https://dc.lft.to/lastmile_qr_scan"}, "type": "electric_bike", "lat": 38.97238983333333, "is_reserved": 0, "fusion_lat": 0.0}, {"bike_id": "f7b5a592ff5b7f664d5d403d958090b8", "fusion_lon": 0.0, "lon": -76.9716325, "name": "f7b5a592ff5b7f664d5d403d958090b8", "is_disabled": 0, "rental_uris": {"android": "https://dc.lft.to/lastmile_qr_scan", "ios": "https://dc.lft.to/lastmile_qr_scan"}, "type": "electric_scooter", "lat": 38.854363, "is_reserved": 0, "fusion_lat": 0.0}, {"bike_id": "ad944785ede4be792f177ea9fd133240", "fusion_lon": 0.0, "lon": -77.01691166666667, "name": "ad944785ede4be792f177ea9fd133240", "is_disabled": 0, "rental_uris": {"android": "https://dc.lft.to/lastmile_qr_scan", "ios": "https://dc.lft.to/lastmile_qr_scan"}, "type": "electric_scooter", "lat": 38.906500333333334, "is_reserved": 0, "fusion_lat": 0.0}, {"bike_id": "6b78d93766dd000ba87a076b2c3abc76", "fusion_lon": 0.0, "lon": -77.01776383333333, "name": "6b78d93766dd000ba87a076b2c3abc76", "is_disabled": 0, "rental_uris": {"android": "https://dc.lft.to/lastmile_qr_scan", "ios": "https://dc.lft.to/lastmile_qr_scan"}, "type": "electric_bike", "lat": 38.9827565, "is_reserved": 0, "fusion_lat": 0.0}, {"bike_id": "27a96e4a68efb9d5757bf4255cb72610", "fusion_lon": 0.0, "lon": -77.032588, "name": "27a96e4a68efb9d5757bf4255cb72610", "is_disabled": 0, "rental_uris": {"android": "https://dc.lft.to/lastmile_qr_scan", "ios": "https://dc.lft.to/lastmile_qr_scan"}, "type": "electric_bike", "lat": 38.962806666666665, "is_reserved": 0, "fusion_lat": 0.0}, {"bike_id": "4d313d70f710906a4c7a484b2ff8f046", "fusion_lon": 0.0, "lon": -77.05000233333334, "name": "4d313d70f710906a4c7a484b2ff8f046", "is_disabled": 0, "rental_uris": {"android": "https://dc.lft.to/lastmile_qr_scan", "ios": "https://dc.lft.to/lastmile_qr_scan"}, "type": "electric_scooter", "lat": 38.892323166666664, "is_reserved": 0, "fusion_lat": 0.0}, {"bike_id": "776ce6dee73781a2e5b6eadd67965032", "fusion_lon": 0.0, "lon": -77.03169266666667, "name": "776ce6dee73781a2e5b6eadd67965032", "is_disabled": 0, "rental_uris": {"android": "https://dc.lft.to/lastmile_qr_scan", "ios": "https://dc.lft.to/lastmile_qr_scan"}, "type": "electric_scooter", "lat": 38.91404966666666, "is_reserved": 0, "fusion_lat": 0.0}, {"bike_id": "c94e7af3d1890704f3d3c47be68f8c37", "fusion_lon": 0.0, "lon": -77.035007, "name": "c94e7af3d1890704f3d3c47be68f8c37", "is_disabled": 0, "rental_uris": {"android": "https://dc.lft.to/lastmile_qr_scan", "ios": "https://dc.lft.to/lastmile_qr_scan"}, "type": "electric_scooter", "lat": 38.963890666666664, "is_reserved": 0, "fusion_lat": 0.0},