{"data": {"bikes": [{"fusion_lat": 0.0, "bike_id": "882042f6e9d21507a09a8c6f7ea24c3d", "fusion_lon": 0.0, "lon": -77.03006933333333, "lat": 39.041987666666664, "is_reserved": 0, "is_disabled": 0, "rental_uris": {"android": "https://dc.lft.to/lastmile_qr_scan", "ios": "https://dc.lft.to/lastmile_qr_scan"}, "name": "882042f6e9d21507a09a8c6f7ea24c3d", "type": "electric_bike"}, {"fusion_lat": 0.0, "bike_id": "e3f0c5430010e5e8135dd9ae65eb7759", "fusion_lon": 0.0, "lon": -77.0613795, "lat": 38.94364566666667, "is_reserved": 0, "is_disabled": 0, "rental_uris": {"android": "https://dc.lft.to/lastmile_qr_scan", "ios": "https://dc.lft.to/lastmile_qr_scan"}, "name": "e3f0c5430010e5e8135dd9ae65eb7759", "type": "electric_scooter"}, {"fusion_lat": 0.0, "bike_id": "8cb48b4b5a619bebb2b553d09558bb4e", "fusion_lon": 0.0, "lon": -77.04220483333333, "lat": 38.92131466666667, "is_reserved": 0, "is_disabled": 0, "rental_uris": {"android": "https://dc.lft.to/lastmile_qr_scan", "ios": "https://dc.lft.to/lastmile_qr_scan"}, "name": "8cb48b4b5a619bebb2b553d09558bb4e", "type": "electric_scooter"}, {"fusion_lat": 0.0, "bike_id": "ccd5c1a11285c85cc8bf4eb818958365", "fusion_lon": 0.0, "lon": -77.04327116666667, "lat": 38.90663, "is_reserved": 0, "is_disabled": 0, "rental_uris": {"android": "https://dc.lft.to/lastmile_qr_scan", "ios": "https://dc.lft.to/lastmile_qr_scan"}, "name": "ccd5c1a11285c85cc8bf4eb818958365", "type": "electric_scooter"}, {"fusion_lat": 0.0, "bike_id": "a0215b89ca6a43a998168b5a4dad32da", "fusion_lon": 0.0, "lon": -77.00194816666666, "lat": 38.89101866666667, "is_reserved": 0, "is_disabled": 0, "rental_uris": {"android": "https://dc.lft.to/lastmile_qr_scan", "ios": "https://dc.lft.to/lastmile_qr_scan"}, "name": "a0215b89ca6a43a998168b5a4dad32da", "type": "electric_scooter"}, {"fusion_lat": 0.0, "bike_id": "2a71ca189f6187ef5a63499739bf1d84", "fusion_lon": 0.0, "lon": -77.02702266666667, "lat": 38.918668, "is_reserved": 0, "is_disabled": 0, "rental_uris": {"android": "https://dc.lft.to/lastmile_qr_scan", "ios": "https://dc.lft.to/lastmile_qr_scan"}, "name": "2a71ca189f6187ef5a63499739bf1d84", "type": "electric_scooter"}, {"fusion_lat": 0.0, "bike_id": "dc6bf9ef9cedb2cb046599976b5167b1", "fusion_lon": 0.0, "lon": -77.07794666666666, "lat": 38.9960645, "is_reserved": 0, "is_disabled": 0, "rental_uris": {"android": "https://dc.lft.to/lastmile_qr_scan", "ios": "https://dc.lft.to/lastmile_qr_scan"}, "name": "dc6bf9ef9cedb2cb046599976b5167b1", "type": "electric_bike"}, {"fusion_lat": 0.0, "bike_id": "6926de9523739659e3b4b13945a03123", "fusion_lon": 0.0, "lon": -77.019718, "lat": 38.88602483333333, "is_reserved": 0, "is_disabled": 0, "rental_uris": {"android": "https://dc.lft.to/lastmile_qr_scan", "ios": "https://dc.lft.to/lastmile_qr_scan"}, "name": "6926de9523739659e3b4b13945a03123", "type": "electric_scooter"}, {"fusion_lat": 0.0, "bike_id": "5ed7b71a6176227171b9f05e193c3a68", "fusion_lon": 0.0, "lon": -76.9764915, "lat": 38.898785, "is_reserved": 0, "is_disabled": 0, "rental_uris": {"android": "https://dc.lft.to/lastmile_qr_scan", "ios": "https://dc.lft.to/lastmile_qr_scan"}, "name": "5ed7b71a6176227171b9f05e193c3a68", "type": "electric_bike"}, {"fusion_lat": 0.0, "bike_id": "e689c3feae57867b2e29378db93b4e97", "fusion_lon": 0.0, "lon": -77.03587616666667, "lat": 38.909749833333336, "is_reserved": 0, "is_disabled": 0, "rental_uris": {"android": "https://dc.lft.to/lastmile_qr_scan", "ios": "https://dc.lft.to/lastmile_qr_scan"}, "name": "e689c3feae57867b2e29378db93b4e97", "type": "electric_scooter"}, {"fusion_lat": 0.0, "bike_id": "587efef049db19c0557ac1a9841791bc", "fusion_lon": 0.0, "lon": -77.01378866666667, "lat": 38.898213, "is_reserved": 0, "is_disabled": 0, "rental_uris": {"android": "https://dc.lft.to/lastmile_qr_scan", "ios": "https://dc.lft.to/lastmile_qr_scan"}, "name": "587efef049db19c0557ac1a9841791bc", "type": "electric_scooter"}, {"fusion_lat": 0.0, "bike_id": "bca195189d5a52de02928ef161613b05", "fusion_lon": 0.0, "lon": -77.04990316666667, "lat": 38.900729166666665, "is_reserved": 0, "is_disabled": 0, "rental_uris": {"android": "https://dc.lft.to/lastmile_qr_scan", "ios": "https://dc.lft.to/lastmile_qr_scan"}, "name": "bca195189d5a52de02928ef161613b05", "type": "electric_scooter"}, {"fusion_lat": 0.0, "bike_id": "e064a00823fc582fc71d2ae76835909e", "fusion_lon": 0.0, "lon": -76.99603316666666, "lat": 38.88430783333333, "is_reserved": 0, "is_disabled": 0, "rental_uris": {"android": "https://dc.lft.to/lastmile_qr_scan", "ios": "https://dc.lft.to/lastmile_qr_scan"}, "name": "e064a00823fc582fc71d2ae76835909e", "type": "electric_scooter"}, {"fusion_lat": 0.0, "bike_id": "20887157d8bdf980fb7d8b732f3ea2e2", "fusion_lon": 0.0, "lon": -77.0279565, "lat": 38.901661833333335, "is_reserved": 0, "is_disabled": 0, "rental_uris": {"android": "https://dc.lft.to/lastmile_qr_scan", "ios": "https://dc.lft.to/lastmile_qr_scan"}, "name": "20887157d8bdf980fb7d8b732f3ea2e2", "type": "electric_scooter"}, {"fusion_lat": 0.0, "bike_id": "927060df464eb2301a40c8581aca6c70", "fusion_lon": 0.0, "lon": -77.03341416666666, "lat": 38.899098333333335, "is_reserved": 0, "is_disabled": 0, "rental_uris": {"android": "https://dc.lft.to/lastmile_qr_scan", "ios": "https://dc.lft.to/lastmile_qr_scan"}, "name": "927060df464eb2301a40c8581aca6c70", "type": "electric_scooter"}, {"fusion_lat": 0.0, "bike_id": "7c772d6df1a1c627748030caf661f908", "fusion_lon": 0.0, "lon": -77.03854183333333, "lat": 38.910187666666666, "is_reserved": 0, "is_disabled": 0, "rental_uris": {"android": "https://dc.lft.to/lastmile_qr_scan", "ios": "https://dc.lft.to/lastmile_qr_scan"}, "name": "7c772d6df1a1c627748030caf661f908", "type": "electric_scooter"}, {"fusion_lat": 0.0, "bike_id": "628c461a6a5ee3b652c196607b78ceb4", "fusion_lon": 0.0, "lon": -76.9733885, "lat": 38.8652525, "is_reserved": 0, "is_disabled": 0, "rental_uris": {"android": "https://dc.lft.to/lastmile_qr_scan", "ios": "https://dc.lft.to/lastmile_qr_scan"}, "name": "628c461a6a5ee3b652c196607b78ceb4", "type": "electric_bike"}, {"fusion_lat": 0.0, "bike_id": "0b42d09ca0da4a6edd0618deb5713d33", "fusion_lon": 0.0, "lon": -76.98501916666666, "lat": 38.866740666666665, "is_reserved": 0, "is_disabled": 0, "rental_uris": {"android": "https://dc.lft.to/lastmile_qr_scan", "ios": "https://dc.lft.to/lastmile_qr_scan"}, "name": "0b42d09ca0da4a6edd0618deb5713d33", "type": "electric_scooter"}, {"fusion_lat": 0.0, "bike_id": "18c36a4bb1dd0b4ac9146cbc46bf5b74", "fusion_lon": 0.0, "lon": -76.98563333333334, "lat": 38.9092005, "is_reserved": 0, "is_disabled": 0, "rental_uris": {"android": "https://dc.lft.to/lastmile_qr_scan", "ios": "https://dc.lft.to/lastmile_qr_scan"}, "name": "18c36a4bb1dd0b4ac9146cbc46bf5b74", "type": "electric_scooter"}, {"fusion_lat": 0.0, "bike_id": "beca2bfeb30b33cd5c7934b7247e8d37", "fusion_lon": 0.0, "lon": -77.028727, "lat": 38.91722766666667, "is_reserved": 0, "is_disabled": 0, "rental_uris": {"android": "https://dc.lft.to/lastmile_qr_scan", "ios": "https://dc.lft.to/lastmile_qr_scan"}, "name": "beca2bfeb30b33cd5c7934b7247e8d37", "type": "electric_scooter"}, {"fusion_lat": 0.0, "bike_id": "32dca3e4c78e70098dffbfaefc3ae1cd", "fusion_lon": 0.0, "lon": -77.04240433333334, "lat": 38.92202183333333, "is_reserved": 0, "is_disabled": 0, "rental_uris": {"android": "https://dc.lft.to/lastmile_qr_scan", "ios": "https://dc.lft.to/lastmile_qr_scan"}, "name": "32dca3e4c78e70098dffbfaefc3ae1cd", "type": "electric_scooter"}, {"fusion_lat": 0.0, "bike_id": "07259afb467594f37eb8925918bd51cc", "fusion_lon": 0.0, "lon": -77.03277416666667, "lat": 38.932535333333334, "is_reserved": 0, "is_disabled": 0, "rental_uris": {"android": "https://dc.lft.to/lastmile_qr_scan", "ios": "https://dc.lft.to/lastmile_qr_scan"}, "name": "07259afb467594f37eb8925918bd51cc", "type": "electric_scooter"}, {"fusion_lat": 0.0, "bike_id": "27ce63aaed97e38e6703ff2f9ce6535d", "fusion_lon": 0.0, "lon": -77.030712, "lat": 38.91694366666667, "is_reserved": 0, "is_disabled": 0, "rental_uris": {"android": "https://dc.lft.to/lastmile_qr_scan", "ios": "https://dc.lft.to/lastmile_qr_scan"}, "name": "27ce63aaed97e38e6703ff2f9ce6535d", "type": "electric_scooter"}, {"fusion_lat": 0.0, "bike_id": "27911e5d0aa8c4f7a18e23e9b19bc9bd", "fusion_lon": 0.0, "lon": -76.97862683333334, "lat": 38.871988, "is_reserved": 0, "is_disabled": 0, "rental_uris": {"android": "https://dc.lft.to/lastmile_qr_scan", "ios": "https://dc.lft.to/lastmile_qr_scan"}, "name": "27911e5d0aa8c4f7a18e23e9b19bc9bd", "type": "electric_scooter"}, {"fusion_lat": 0.0, "bike_id": "5f423aa8dfa25de058fd087a47ac86eb", "fusion_lon": 0.0, "lon": -77.03674383333333, "lat": 38.9037825, "is_reserved": 0, "is_disabled": 0, "rental_uris": {"android": "https://dc.lft.to/lastmile_qr_scan", "ios": "https://dc.lft.to/lastmile_qr_scan"}, "name": "5f423aa8dfa25de058fd087a47ac86eb", "type": "electric_scooter"}, {"fusion_lat": 0.0, "bike_id": "fd40cf3a7365db7458d56b341b450aca", "fusion_lon": 0.0, "lon": -77.0444705, "lat": 38.921714333333334, "is_reserved": 0, "is_disabled": 0, "rental_uris": {"android": "https://dc.lft.to/lastmile_qr_scan", "ios": "https://dc.lft.to/lastmile_qr_scan"}, "name": "fd40cf3a7365db7458d56b341b450aca", "type": "electric_scooter"}, {"fusion_lat": 0.0, "bike_id": "83d482bbfecac9158d112ec83f5ce55d", "fusion_lon": 0.0, "lon": -77.051458, "lat": 38.905293666666665, "is_reserved": 0, "is_disabled": 0, "rental_uris": {"android": "https://dc.lft.to/lastmile_qr_scan", "ios": "https://dc.lft.to/lastmile_qr_scan"}, "name": "83d482bbfecac9158d112ec83f5ce55d", "type": "electric_scooter"}, {"fusion_lat": 0.0, "bike_id": "8c9cb136f41ff700ecca7364afab0bac", "fusion_lon": 0.0, "lon": -77.03450383333333, "lat": 38.90816233333334, "is_reserved": 0, "is_disabled": 0, "rental_uris": {"android": "https://dc.lft.to/lastmile_qr_scan", "ios": "https://dc.lft.to/lastmile_qr_scan"}, "name": "8c9cb136f41ff700ecca7364afab0bac", "type": "electric_scooter"}, {"fusion_lat": 0.0, "bike_id": "abc18186915ae7a71e4c7f32c273d2ab", "fusion_lon": 0.0, "lon": -76.99145466666667, "lat": 38.900376333333334, "is_reserved": 0, "is_disabled": 0, "rental_uris": {"android": "https://dc.lft.to/lastmile_qr_scan", "ios": "https://dc.lft.to/lastmile_qr_scan"}, "name": "abc18186915ae7a71e4c7f32c273d2ab", "type": "electric_scooter"}, {"fusion_lat": 0.0, "bike_id": "3e2c053f8a0b5f1e48111dc11dc803d1", "fusion_lon": 0.0, "lon": -77.04883016666666, "lat": 38.9008325, "is_reserved": 0, "is_disabled": 0, "rental_uris": {"android": "https://dc.lft.to/lastmile_qr_scan", "ios": "https://dc.lft.to/lastmile_qr_scan"}, "name": "3e2c053f8a0b5f1e48111dc11dc803d1", "type": "electric_scooter"}, {"fusion_lat": 0.0, "bike_id": "4d299addc5c89a69038d2c0f90520caf", "fusion_lon": 0.0, "lon": -77.03273016666667, "lat": 38.90145366666667, "is_reserved": 0, "is_disabled": 0, "rental_uris": {"android": "https://dc.lft.to/lastmile_qr_scan", "ios": "https://dc.lft.to/lastmile_qr_scan"}, "name": "4d299addc5c89a69038d2c0f90520caf", "type": "electric_scooter"}, {"fusion_lat": 0.0, "bike_id": "02327bc794b670b820e058a8d8449617", "fusion_lon": 0.0, "lon": -77.04224616666667, "lat": 38.92315133333334, "is_reserved": 0, "is_disabled": 0, "rental_uris": {"android": "https://dc.lft.to/lastmile_qr_scan", "ios": "https://dc.lft.to/lastmile_qr_scan"}, "name": "02327bc794b670b820e058a8d8449617", "type": "electric_scooter"}, {"fusion_lat": 0.0, "bike_id": "cd725d56f6978a61733c04306d707696", "fusion_lon": 0.0, "lon": -77.02570366666667, "lat": 38.91490666666667, "is_reserved": 0, "is_disabled": 0, "rental_uris": {"android": "https://dc.lft.to/lastmile_qr_scan", "ios": "https://dc.lft.to/lastmile_qr_scan"}, "name": "cd725d56f6978a61733c04306d707696", "type": "electric_scooter"}, {"fusion_lat": 0.0, "bike_id": "7ff894f986f828cdbe9e67616b0a18b9", "fusion_lon": 0.0, "lon": -76.978112, "lat": 38.906688, "is_reserved": 0, "is_disabled": 0, "rental_uris": {"android": "https://dc.lft.to/lastmile_qr_scan", "ios": "https://dc.lft.to/lastmile_qr_scan"}, "name": "7ff894f986f828cdbe9e67616b0a18b9", "type": "electric_scooter"}, {"fusion_lat": 0.0, "bike_id": "bcf5da4b82817bcb4ecf34294cc3e6d1", "fusion_lon": 0.0, "lon": -77.0426685, "lat": 38.922939166666666, "is_reserved": 0, "is_disabled": 0, "rental_uris": {"android": "https://dc.lft.to/lastmile_qr_scan", "ios": "https://dc.lft.to/lastmile_qr_scan"}, "name": "bcf5da4b82817bcb4ecf34294cc3e6d1", "type": "electric_scooter"}, {"fusion_lat": 0.0, "bike_id": "1ec49e7317cdc634cb0ced8c8139e716", "fusion_lon": 0.0, "lon": -77.03222966666667, "lat": 38.908688833333336, "is_reserved": 0, "is_disabled": 0, "rental_uris": {"android": "https://dc.lft.to/lastmile_qr_scan", "ios": "https://dc.lft.to/lastmile_qr_scan"}, "name": "1ec49e7317cdc634cb0ced8c8139e716", "type": "electric_scooter"}, {"fusion_lat": 0.0, "bike_id": "fb2ad335cacc2c60cf1ccabd17380bc7", "fusion_lon": 0.0, "lon": -77.05241016666666, "lat": 38.92548933333333, "is_reserved": 0, "is_disabled": 0, "rental_uris": {"android": "https://dc.lft.to/lastmile_qr_scan", "ios": "https://dc.lft.to/lastmile_qr_scan"}, "name": "fb2ad335cacc2c60cf1ccabd17380bc7", "type": "electric_scooter"}, {"fusion_lat": 0.0, "bike_id": "72ab5d9f7aa7b99e0817dec6af3efdae", "fusion_lon": 0.0, "lon": -77.0316775, "lat": 38.918339333333336, "is_reserved": 0, "is_disabled": 0, "rental_uris": {"android": "https://dc.lft.to/lastmile_qr_scan", "ios": "https://dc.lft.to/lastmile_qr_scan"}, "name": "72ab5d9f7aa7b99e0817dec6af3efdae", "type": "electric_scooter"}, {"fusion_lat": 0.0, "bike_id": "711186cb1f16da2ac21fcfed2c706917", "fusion_lon": 0.0, "lon": -77.07122816666667, "lat": 38.919757833333335, "is_reserved": 0, "is_disabled": 0, "rental_uris": {"android": "https://dc.lft.to/lastmile_qr_scan", "ios": "https://dc.lft.to/lastmile_qr_scan"}, "name": "711186cb1f16da2ac21fcfed2c706917", "type": "electric_scooter"}, {"fusion_lat": 0.0, "bike_id": "b803f3acb8fb13c3dfe4e3daad4f6a3b", "fusion_lon": 0.0, "lon": -76.998997, "lat": 38.907333333333334, "is_reserved": 0, "is_disabled": 0, "rental_uris": {"android": "https://dc.lft.to/lastmile_qr_scan", "ios": "https://dc.lft.to/lastmile_qr_scan"}, "name": "b803f3acb8fb13c3dfe4e3daad4f6a3b", "type": "electric_scooter"}, {"fusion_lat": 0.0, "bike_id": "6732e5a5a3bd362636b0e0d2774e4ac0", "fusion_lon": 0.0, "lon": -77.04677816666667, "lat": 38.89236266666666, "is_reserved": 0, "is_disabled": 0, "rental_uris": {"android": "https://dc.lft.to/lastmile_qr_scan", "ios": "https://dc.lft.to/lastmile_qr_scan"}, "name": "6732e5a5a3bd362636b0e0d2774e4ac0", "type": "electric_scooter"}, {"fusion_lat": 0.0, "bike_id": "418aef9085f79ce845079b547600f012", "fusion_lon": 0.0, "lon": -77.02560983333333, "lat": 38.941744166666666, "is_reserved": 0, "is_disabled": 0, "rental_uris": {"android": "https://dc.lft.to/lastmile_qr_scan", "ios": "https://dc.lft.to/lastmile_qr_scan"}, "name": "418aef9085f79ce845079b547600f012", "type": "electric_scooter"}, {"fusion_lat": 0.0, "bike_id": "a36bc684c77ba18803653fe571458b66", "fusion_lon": 0.0, "lon": -77.00681266666666, "lat": 38.94497916666667, "is_reserved": 0, "is_disabled": 0, "rental_uris": {"android": "https://dc.lft.to/lastmile_qr_scan", "ios": "https://dc.lft.to/lastmile_qr_scan"}, "name": "a36bc684c77ba18803653fe571458b66", "type": "electric_bike"}, {"fusion_lat": 0.0, "bike_id": "6af0786c4c666e3be5e84cb200fe87e9", "fusion_lon": 0.0, "lon": -77.04387466666667, "lat": 38.921194, "is_reserved": 0, "is_disabled": 0, "rental_uris": {"android": "https://dc.lft.to/lastmile_qr_scan", "ios": "https://dc.lft.to/lastmile_qr_scan"}, "name": "6af0786c4c666e3be5e84cb200fe87e9", "type": "electric_scooter"}, {"fusion_lat": 0.0, "bike_id": "796be42bd9b4b79e1b3853103b55269e", "fusion_lon": 0.0, "lon": -77.03218083333333, "lat": 38.9174655, "is_reserved": 0, "is_disabled": 0, "rental_uris": {"android": "https://dc.lft.to/lastmile_qr_scan", "ios": "https://dc.lft.to/lastmile_qr_scan"}, "name": "796be42bd9b4b79e1b3853103b55269e", "type": "electric_scooter"}, {"fusion_lat": 0.0, "bike_id": "e3757c3bb75bb1cc43ff431e630dc62a", "fusion_lon": 0.0, "lon": -77.02511566666666, "lat": 38.92638083333333, "is_reserved": 0, "is_disabled": 0, "rental_uris": {"android": "https://dc.lft.to/lastmile_qr_scan", "ios": "https://dc.lft.to/lastmile_qr_scan"}, "name": "e3757c3bb75bb1cc43ff431e630dc62a", "type": "electric_scooter"}, {"fusion_lat": 0.0, "bike_id": "753c21d03ef0cbad4202cdae4067d6d6", "fusion_lon": 0.0, "lon": -77.02716883333333, "lat": 38.90670183333334, "is_reserved": 0, "is_disabled": 0, "rental_uris": {"android": "https://dc.lft.to/lastmile_qr_scan", "ios": "https://dc.lft.to/lastmile_qr_scan"}, "name": "753c21d03ef0cbad4202cdae4067d6d6", "type": "electric_scooter"}, {"fusion_lat": 0.0, "bike_id": "bb6b64d80d94be0141cbacea0395ed24", "fusion_lon": 0.0, "lon": -77.0059585, "lat": 38.87186283333333, "is_reserved": 0, "is_disabled": 0, "rental_uris": {"android": "https://dc.lft.to/lastmile_qr_scan", "ios": "https://dc.lft.to/lastmile_qr_scan"}, "name": "bb6b64d80d94be0141cbacea0395ed24", "type": "electric_scooter"}, {"fusion_lat": 0.0, "bike_id": "d90d5daa5cc76965276ae743a12a8beb", "fusion_lon": 0.0, "lon": -77.03993866666667, "lat": 38.90596683333333, "is_reserved": 0, "is_disabled": 0, "rental_uris": {"android": "https://dc.lft.to/lastmile_qr_scan", "ios": "https://dc.lft.to/lastmile_qr_scan"}, "name": "d90d5daa5cc76965276ae743a12a8beb", "type": "electric_scooter"}, {"fusion_lat": 0.0, "bike_id": "55158336f418517e2ca65db4d2d70cfa", "fusion_lon": 0.0, "lon": -76.89542866666666, "lat": 38.945574, "is_reserved": 0, "is_disabled": 0, "rental_uris": {"android": "https://dc.lft.to/lastmile_qr_scan", "ios": "https://dc.lft.to/lastmile_qr_scan"}, "name": "55158336f418517e2ca65db4d2d70cfa", "type": "electric_bike"}, {"fusion_lat": 0.0, "bike_id": "ae9f4290545cb669b826a491582d1a95", "fusion_lon": 0.0, "lon": -76.97919616666667, "lat": 38.863653166666666, "is_reserved": 0, "is_disabled": 0, "rental_uris": {"android": "https://dc.lft.to/lastmile_qr_scan", "ios": "https://dc.lft.to/lastmile_qr_scan"}, "name": "ae9f4290545cb669b826a491582d1a95", "type": "electric_scooter"}, {"fusion_lat": 0.0, "bike_id": "a7de2d481de6fcb9ec69a35816109137", "fusion_lon": 0.0, "lon": -77.0306325, "lat": 38.8875125, "is_reserved": 0, "is_disabled": 0, "rental_uris": {"android": "https://dc.lft.to/lastmile_qr_scan", "ios": "https://dc.lft.to/lastmile_qr_scan"}, "name": "a7de2d481de6fcb9ec69a35816109137", "type": "electric_scooter"}, {"fusion_lat": 0.0, "bike_id": "c1923ebf7ba5579d7045c92771874414", "fusion_lon": 0.0, "lon": -76.98711383333334, "lat": 38.867033166666666, "is_reserved": 0, "is_disabled": 0, "rental_uris": {"android": "https://dc.lft.to/lastmile_qr_scan", "ios": "https://dc.lft.to/lastmile_qr_scan"}, "name": "c1923ebf7ba5579d7045c92771874414", "type": "electric_scooter"}, {"fusion_lat": 0.0, "bike_id": "54cb98f27dc10190ef5431b5e7456bb5", "fusion_lon": 0.0, "lon": -77.03522266666667, "lat": 38.92732816666667, "is_reserved": 0, "is_disabled": 0, "rental_uris": {"android": "https://dc.lft.to/lastmile_qr_scan", "ios": "https://dc.lft.to/lastmile_qr_scan"}, "name": "54cb98f27dc10190ef5431b5e7456bb5", "type": "electric_scooter"}, {"fusion_lat": 0.0, "bike_id": "d120b66717c0b97b5338361efbc4bd4f", "fusion_lon": 0.0, "lon": -77.02514383333333, "lat": 38.898386, "is_reserved": 0, "is_disabled": 0, "rental_uris": {"android": "https://dc.lft.to/lastmile_qr_scan", "ios": "https://dc.lft.to/lastmile_qr_scan"}, "name": "d120b66717c0b97b5338361efbc4bd4f", "type": "electric_bike"}, {"fusion_lat": 0.0, "bike_id": "d33a85d145e8158c9d9441084a8bb1fb", "fusion_lon": 0.0, "lon": -77.02484716666666, "lat": 38.91704516666667, "is_reserved": 0, "is_disabled": 0, "rental_uris": {"android": "https://dc.lft.to/lastmile_qr_scan", "ios": "https://dc.lft.to/lastmile_qr_scan"}, "name": "d33a85d145e8158c9d9441084a8bb1fb", "type": "electric_scooter"}, {"fusion_lat": 0.0, "bike_id": "89eb99b2064ee4321519209060045ee1", "fusion_lon": 0.0, "lon": -77.0461815, "lat": 38.915144166666664, "is_reserved": 0, "is_disabled": 0, "rental_uris": {"android": "https://dc.lft.to/lastmile_qr_scan", "ios": "https://dc.lft.to/lastmile_qr_scan"}, "name": "89eb99b2064ee4321519209060045ee1", "type": "electric_scooter"}, {"fusion_lat": 0.0, "bike_id": "df615cc3b8f2c20d77fb0faa677e96d6", "fusion_lon": 0.0, "lon": -77.01466683333334, "lat": 38.926808666666666, "is_reserved": 0, "is_disabled": 0, "rental_uris": {"android": "https://dc.lft.to/lastmile_qr_scan", "ios": "https://dc.lft.to/lastmile_qr_scan"}, "name": "df615cc3b8f2c20d77fb0faa677e96d6", "type": "electric_scooter"}, {"fusion_lat": 0.0, "bike_id": "660999ac6e23a6459213b7c5d7418909", "fusion_lon": 0.0, "lon": -76.927689, "lat": 38.90089833333333, "is_reserved": 0, "is_disabled": 0, "rental_uris": {"android": "https://dc.lft.to/lastmile_qr_scan", "ios": "https://dc.lft.to/lastmile_qr_scan"}, "name": "660999ac6e23a6459213b7c5d7418909", "type": "electric_scooter"}, {"fusion_lat": 0.0, "bike_id": "2b30c59e832800296d2b80532327fb41", "fusion_lon": 0.0, "lon": -76.92773583333333, "lat": 38.96928366666667, "is_reserved": 0, "is_disabled": 0, "rental_uris": {"android": "https://dc.lft.to/lastmile_qr_scan", "ios": "https://dc.lft.to/lastmile_qr_scan"}, "name": "2b30c59e832800296d2b80532327fb41", "type": "electric_bike"}, {"fusion_lat": 0.0, "bike_id": "59c0394e43c6d234d5f7e5f060b42b48", "fusion_lon": 0.0, "lon": -76.98886316666666, "lat": 38.866585, "is_reserved": 0, "is_disabled": 0, "rental_uris": {"android": "https://dc.lft.to/lastmile_qr_scan", "ios": "https://dc.lft.to/lastmile_qr_scan"}, "name": "59c0394e43c6d234d5f7e5f060b42b48", "type": "electric_scooter"}, {"fusion_lat": 0.0, "bike_id": "b0c71e6414cfddde1ecf5bdc7c0695b2", "fusion_lon": 0.0, "lon": -77.0021025, "lat": 38.900478666666665, "is_reserved": 0, "is_disabled": 0, "rental_uris": {"android": "https://dc.lft.to/lastmile_qr_scan", "ios": "https://dc.lft.to/lastmile_qr_scan"}, "name": "b0c71e6414cfddde1ecf5bdc7c0695b2", "type": "electric_scooter"}, {"fusion_lat": 0.0, "bike_id": "10a91ef7c2e44641eb3495f0ee02beec", "fusion_lon": 0.0, "lon": -77.03016683333334, "lat": 38.90393733333333, "is_reserved": 0, "is_disabled": 0, "rental_uris": {"android": "https://dc.lft.to/lastmile_qr_scan", "ios": "https://dc.lft.to/lastmile_qr_scan"}, "name": "10a91ef7c2e44641eb3495f0ee02beec", "type": "electric_scooter"}, {"fusion_lat": 0.0, "bike_id": "a683e0f7af692c1bc08bb4fef5ed7748", "fusion_lon": 0.0, "lon": -77.02843433333334, "lat": 38.929697, "is_reserved": 0, "is_disabled": 0, "rental_uris": {"android": "https://dc.lft.to/lastmile_qr_scan", "ios": "https://dc.lft.to/lastmile_qr_scan"}, "name": "a683e0f7af692c1bc08bb4fef5ed7748", "type": "electric_scooter"}, {"fusion_lat": 0.0, "bike_id": "0df7a3e22bf1f80b7e58f65602de3682", "fusion_lon": 0.0, "lon": -77.002183, "lat": 38.900398833333334, "is_reserved": 0, "is_disabled": 0, "rental_uris": {"android": "https://dc.lft.to/lastmile_qr_scan", "ios": "https://dc.lft.to/lastmile_qr_scan"}, "name": "0df7a3e22bf1f80b7e58f65602de3682", "type": "electric_scooter"}, {"fusion_lat": 0.0, "bike_id": "dfb279c75158b457b35d3dfa9cfdc7c9", "fusion_lon": 0.0, "lon": -77.078528, "lat": 38.919543166666664, "is_reserved": 0, "is_disabled": 0, "rental_uris": {"android": "https://dc.lft.to/lastmile_qr_scan", "ios": "https://dc.lft.to/lastmile_qr_scan"}, "name": "dfb279c75158b457b35d3dfa9cfdc7c9", "type": "electric_bike"}, {"fusion_lat": 0.0, "bike_id": "8728dfefc4173251f6ab224cebced5a3", "fusion_lon": 0.0, "lon": -77.04464466666667, "lat": 38.89615633333333, "is_reserved": 0, "is_disabled": 0, "rental_uris": {"android": "https://dc.lft.to/lastmile_qr_scan", "ios": "https://dc.lft.to/lastmile_qr_scan"}, "name": "8728dfefc4173251f6ab224cebced5a3", "type": "electric_scooter"}, {"fusion_lat": 0.0, "bike_id": "0d56bed1920594a251dca8672b0d521f", "fusion_lon": 0.0, "lon": -77.03857, "lat": 38.915512666666665, "is_reserved": 0, "is_disabled": 0, "rental_uris": {"android": "https://dc.lft.to/lastmile_qr_scan", "ios": "https://dc.lft.to/lastmile_qr_scan"}, "name": "0d56bed1920594a251dca8672b0d521f", "type": "electric_scooter"}, {"fusion_lat": 0.0, "bike_id": "64d79d9494907794c19423782b4eaf31", "fusion_lon": 0.0, "lon": -77.01048966666667, "lat": 38.9634495, "is_reserved": 0, "is_disabled": 0, "rental_uris": {"android": "https://dc.lft.to/lastmile_qr_scan", "ios": "https://dc.lft.to/lastmile_qr_scan"}, "name": "64d79d9494907794c19423782b4eaf31", "type": "electric_scooter"}, {"fusion_lat": 0.0, "bike_id": "4e3e940935aec25464f48d0f6043f2e6", "fusion_lon": 0.0, "lon": -77.039655, "lat": 38.9001485, "is_reserved": 0, "is_disabled": 0, "rental_uris": {"android": "https://dc.lft.to/lastmile_qr_scan", "ios": "https://dc.lft.to/lastmile_qr_scan"}, "name": "4e3e940935aec25464f48d0f6043f2e6", "type": "electric_scooter"}, {"fusion_lat": 0.0, "bike_id": "2e770dd503e68d27f205e84cd0ed134a", "fusion_lon": 0.0, "lon": -77.1033805, "lat": 38.88552383333333, "is_reserved": 0, "is_disabled": 0, "rental_uris": {"android": "https://dc.lft.to/lastmile_qr_scan", "ios": "https://dc.lft.to/lastmile_qr_scan"}, "name": "2e770dd503e68d27f205e84cd0ed134a", "type": "electric_bike"}, {"fusion_lat": 0.0, "bike_id": "89785ea2f46d1b568bcf11fec2d7903f", "fusion_lon": 0.0, "lon": -77.01238983333333, "lat": 38.8983175, "is_reserved": 0, "is_disabled": 0, "rental_uris": {"android": "https://dc.lft.to/lastmile_qr_scan", "ios": "https://dc.lft.to/lastmile_qr_scan"}, "name": "89785ea2f46d1b568bcf11fec2d7903f", "type": "electric_scooter"}, {"fusion_lat": 0.0, "bike_id": "ef237fb82045abf24825532c949e5e61", "fusion_lon": 0.0, "lon": -77.06983, "lat": 38.918429333333336, "is_reserved": 0, "is_disabled": 0, "rental_uris": {"android": "https://dc.lft.to/lastmile_qr_scan", "ios": "https://dc.lft.to/lastmile_qr_scan"}, "name": "ef237fb82045abf24825532c949e5e61", "type": "electric_bike"}, {"fusion_lat": 0.0, "bike_id": "aa6452aed82ca7c65d228c93d06357ff", "fusion_lon": 0.0, "lon": -77.02406683333334, "lat": 38.891953666666666, "is_reserved": 0, "is_disabled": 0, "rental_uris": {"android": "https://dc.lft.to/lastmile_qr_scan", "ios": "https://dc.lft.to/lastmile_qr_scan"}, "name": "aa6452aed82ca7c65d228c93d06357ff", "type": "electric_scooter"}, {"fusion_lat": 0.0, "bike_id": "b2a243307e8979f6fd6ec86e683ef22d", "fusion_lon": 0.0, "lon": -77.03292116666667, "lat": 38.910495166666664, "is_reserved": 0, "is_disabled": 0, "rental_uris": {"android": "https://dc.lft.to/lastmile_qr_scan", "ios": "https://dc.lft.to/lastmile_qr_scan"}, "name": "b2a243307e8979f6fd6ec86e683ef22d", "type": "electric_scooter"}, {"fusion_lat": 0.0, "bike_id": "449eccbc22985c87c03c85f486fd2c79", "fusion_lon": 0.0, "lon": -77.00798266666666, "lat": 38.8972465, "is_reserved": 0, "is_disabled": 0, "rental_uris": {"android": "https://dc.lft.to/lastmile_qr_scan", "ios": "https://dc.lft.to/lastmile_qr_scan"}, "name": "449eccbc22985c87c03c85f486fd2c79", "type": "electric_scooter"}, {"fusion_lat": 0.0, "bike_id": "5a2116003922aefc597c7798f5a90f3b", "fusion_lon": 0.0, "lon": -77.03939333333334, "lat": 38.89896133333333, "is_reserved": 0, "is_disabled": 0, "rental_uris": {"android": "https://dc.lft.to/lastmile_qr_scan", "ios": "https://dc.lft.to/lastmile_qr_scan"}, "name": "5a2116003922aefc597c7798f5a90f3b", "type": "electric_scooter"}, {"fusion_lat": 0.0, "bike_id": "b10ae2949953a00cec74b7b76f110f71", "fusion_lon": 0.0, "lon": -77.044955, "lat": 38.90532983333333, "is_reserved": 0, "is_disabled": 0, "rental_uris": {"android": "https://dc.lft.to/lastmile_qr_scan", "ios": "https://dc.lft.to/lastmile_qr_scan"}, "name": "b10ae2949953a00cec74b7b76f110f71", "type": "electric_scooter"}, {"fusion_lat": 0.0, "bike_id": "d2d1cea637bc07dde30f94abb8251595", "fusion_lon": 0.0, "lon": -77.03557116666667, "lat": 38.933846833333334, "is_reserved": 0, "is_disabled": 0, "rental_uris": {"android": "https://dc.lft.to/lastmile_qr_scan", "ios": "https://dc.lft.to/lastmile_qr_scan"}, "name": "d2d1cea637bc07dde30f94abb8251595", "type": "electric_scooter"}, {"fusion_lat": 0.0, "bike_id": "a574ebe080555df960ba623b63f1138d", "fusion_lon": 0.0, "lon": -77.02098066666667, "lat": 38.929140333333336, "is_reserved": 0, "is_disabled": 0, "rental_uris": {"android": "https://dc.lft.to/lastmile_qr_scan", "ios": "https://dc.lft.to/lastmile_qr_scan"}, "name": "a574ebe080555df960ba623b63f1138d", "type": "electric_scooter"}, {"fusion_lat": 0.0, "bike_id": "bcb6ec7b60864be85277733bd625a912", "fusion_lon": 0.0, "lon": -76.97857116666667, "lat": 38.9072625, "is_reserved": 0, "is_disabled": 0, "rental_uris": {"android": "https://dc.lft.to/lastmile_qr_scan", "ios": "https://dc.lft.to/lastmile_qr_scan"}, "name": "bcb6ec7b60864be85277733bd625a912", "type": "electric_scooter"}, {"fusion_lat": 0.0, "bike_id": "4a099eeee015d3a35d459939f8b984f6", "fusion_lon": 0.0, "lon": -77.03452633333333, "lat": 38.9098185, "is_reserved": 0, "is_disabled": 0, "rental_uris": {"android": "https://dc.lft.to/lastmile_qr_scan", "ios": "https://dc.lft.to/lastmile_qr_scan"}, "name": "4a099eeee015d3a35d459939f8b984f6", "type": "electric_scooter"}, {"fusion_lat": 0.0, "bike_id": "609f4f7fa20928fb3a091dc06e8036e9", "fusion_lon": 0.0, "lon": -77.03719583333333, "lat": 38.92651816666667, "is_reserved": 0, "is_disabled": 0, "rental_uris": {"android": "https://dc.lft.to/lastmile_qr_scan", "ios": "https://dc.lft.to/lastmile_qr_scan"}, "name": "609f4f7fa20928fb3a091dc06e8036e9", "type": "electric_scooter"}, {"fusion_lat": 0.0, "bike_id": "894c6597f0c5c5d2d53242671f7f9c07", "fusion_lon": 0.0, "lon": -77.03274583333334, "lat": 38.937796166666665, "is_reserved": 0, "is_disabled": 0, "rental_uris": {"android": "https://dc.lft.to/lastmile_qr_scan", "ios": "https://dc.lft.to/lastmile_qr_scan"}, "name": "894c6597f0c5c5d2d53242671f7f9c07", "type": "electric_scooter"}, {"fusion_lat": 0.0, "bike_id": "adae7adf1c3cde70b0237cf50f201a06", "fusion_lon": 0.0, "lon": -77.04675516666667, "lat": 38.89234783333333, "is_reserved": 0, "is_disabled": 0, "rental_uris": {"android": "https://dc.lft.to/lastmile_qr_scan", "ios": "https://dc.lft.to/lastmile_qr_scan"}, "name": "adae7adf1c3cde70b0237cf50f201a06", "type": "electric_scooter"}, {"fusion_lat": 0.0, "bike_id": "59f1acc98c8ddf0b6119e994f7276aca", "fusion_lon": 0.0, "lon": -77.01782483333334, "lat": 38.88607733333333, "is_reserved": 0, "is_disabled": 0, "rental_uris": {"android": "https://dc.lft.to/lastmile_qr_scan", "ios": "https://dc.lft.to/lastmile_qr_scan"}, "name": "59f1acc98c8ddf0b6119e994f7276aca", "type": "electric_scooter"}, {"fusion_lat": 0.0, "bike_id": "108ae3edbb2b0349c992c1c45770ec53", "fusion_lon": 0.0, "lon": -77.0540265, "lat": 38.9276275, "is_reserved": 0, "is_disabled": 0, "rental_uris": {"android": "https://dc.lft.to/lastmile_qr_scan", "ios": "https://dc.lft.to/lastmile_qr_scan"}, "name": "108ae3edbb2b0349c992c1c45770ec53", "type": "electric_scooter"}, {"fusion_lat": 0.0, "bike_id": "e1b73dac1a4e82b14e86918cd117b4e4", "fusion_lon": 0.0, "lon": -76.99600516666666, "lat": 38.9507775, "is_reserved": 0, "is_disabled": 0, "rental_uris": {"android": "https://dc.lft.to/lastmile_qr_scan", "ios": "https://dc.lft.to/lastmile_qr_scan"}, "name": "e1b73dac1a4e82b14e86918cd117b4e4", "type": "electric_bike"}, {"fusion_lat": 0.0, "bike_id": "0a030c8890f94a1328f2f8e83bc765c3", "fusion_lon": 0.0, "lon": -77.05047516666667, "lat": 38.923673666666666, "is_reserved": 0, "is_disabled": 0, "rental_uris": {"android": "https://dc.lft.to/lastmile_qr_scan", "ios": "https://dc.lft.to/lastmile_qr_scan"}, "name": "0a030c8890f94a1328f2f8e83bc765c3", "type": "electric_scooter"}, {"fusion_lat": 0.0, "bike_id": "de82dcee993df8d9decf862ddc2d2b62", "fusion_lon": 0.0, "lon": -76.9499095, "lat": 38.89387766666667, "is_reserved": 0, "is_disabled": 0, "rental_uris": {"android": "https://dc.lft.to/lastmile_qr_scan", "ios": "https://dc.lft.to/lastmile_qr_scan"}, "name": "de82dcee993df8d9decf862ddc2d2b62", "type": "electric_scooter"}, {"fusion_lat": 0.0, "bike_id": "abd555d71c778b6bf8caf925b7e3e4c6", "fusion_lon": 0.0, "lon": -77.03259116666666, "lat": 38.92989083333333, "is_reserved": 0, "is_disabled": 0, "rental_uris": {"android": "https://dc.lft.to/lastmile_qr_scan", "ios": "https://dc.lft.to/lastmile_qr_scan"}, "name": "abd555d71c778b6bf8caf925b7e3e4c6", "type": "electric_scooter"}, {"fusion_lat": 0.0, "bike_id": "77e1ecc9982942cf1293962f4eab0976", "fusion_lon": 0.0, "lon": -77.00310966666666, "lat": 38.92360266666667, "is_reserved": 0, "is_disabled": 0, "rental_uris": {"android": "https://dc.lft.to/lastmile_qr_scan", "ios": "https://dc.lft.to/lastmile_qr_scan"}, "name": "77e1ecc9982942cf1293962f4eab0976", "type": "electric_scooter"}, {"fusion_lat": 0.0, "bike_id": "2dc7c5ec844d87cc3953e3abfc3f3b20", "fusion_lon": 0.0, "lon": -77.02512466666667, "lat": 38.89239583333333, "is_reserved": 0, "is_disabled": 0, "rental_uris": {"android": "https://dc.lft.to/lastmile_qr_scan", "ios": "https://dc.lft.to/lastmile_qr_scan"}, "name": "2dc7c5ec844d87cc3953e3abfc3f3b20", "type": "electric_scooter"}, {"fusion_lat": 0.0, "bike_id": "b5e3dffa31f3906e595030a558616598", "fusion_lon": 0.0, "lon": -76.94636316666667, "lat": 38.89837883333333, "is_reserved": 0, "is_disabled": 0, "rental_uris": {"android": "https://dc.lft.to/lastmile_qr_scan", "ios": "https://dc.lft.to/lastmile_qr_scan"}, "name": "b5e3dffa31f3906e595030a558616598", "type": "electric_scooter"}, {"fusion_lat": 0.0, "bike_id": "fbcfb556ed38019f89c3abeacf91dc16", "fusion_lon": 0.0, "lon": -77.016546, "lat": 38.881331833333334, "is_reserved": 0, "is_disabled": 0, "rental_uris": {"android": "https://dc.lft.to/lastmile_qr_scan", "ios": "https://dc.lft.to/lastmile_qr_scan"}, "name": "fbcfb556ed38019f89c3abeacf91dc16", "type": "electric_scooter"}, {"fusion_lat": 0.0, "bike_id": "9d2944784199b1e252ff98b6b6b261c6", "fusion_lon": 0.0, "lon": -77.03100066666667, "lat": 38.910006333333335, "is_reserved": 0, "is_disabled": 0, "rental_uris": {"android": "https://dc.lft.to/lastmile_qr_scan", "ios": "https://dc.lft.to/lastmile_qr_scan"}, "name": "9d2944784199b1e252ff98b6b6b261c6", "type": "electric_scooter"}, {"fusion_lat": 0.0, "bike_id": "44cdd614f42a07c1542290837bc01903", "fusion_lon": 0.0, "lon": -77.04474383333333, "lat": 38.89224333333333, "is_reserved": 0, "is_disabled": 0, "rental_uris": {"android": "https://dc.lft.to/lastmile_qr_scan", "ios": "https://dc.lft.to/lastmile_qr_scan"}, "name": "44cdd614f42a07c1542290837bc01903", "type": "electric_scooter"}, {"fusion_lat": 0.0, "bike_id": "0d0f1c8bacdbefc2d120e001bfd207d3", "fusion_lon": 0.0, "lon": -77.0392115, "lat": 38.921889, "is_reserved": 0, "is_disabled": 0, "rental_uris": {"android": "https://dc.lft.to/lastmile_qr_scan", "ios": "https://dc.lft.to/lastmile_qr_scan"}, "name": "0d0f1c8bacdbefc2d120e001bfd207d3", "type": "electric_scooter"}, {"fusion_lat": 0.0, "bike_id": "67efd7177658bc242be6d1fb2545d83d", "fusion_lon": 0.0, "lon": -77.06892566666667, "lat": 38.905208333333334, "is_reserved": 0, "is_disabled": 0, "rental_uris": {"android": "https://dc.lft.to/lastmile_qr_scan", "ios": "https://dc.lft.to/lastmile_qr_scan"}, "name": "67efd7177658bc242be6d1fb2545d83d", "type": "electric_scooter"}, {"fusion_lat": 0.0, "bike_id": "408c0052f924f91062e76fe4443527eb", "fusion_lon": 0.0, "lon": -77.000563, "lat": 38.907029666666666, "is_reserved": 0, "is_disabled": 0, "rental_uris": {"android": "https://dc.lft.to/lastmile_qr_scan", "ios": "https://dc.lft.to/lastmile_qr_scan"}, "name": "408c0052f924f91062e76fe4443527eb", "type": "electric_scooter"}, {"fusion_lat": 0.0, "bike_id": "0021f8ffdf92fbcfc7e34f25af24aaf0", "fusion_lon": 0.0, "lon": -77.03756566666667, "lat": 38.9125675, "is_reserved": 0, "is_disabled": 0, "rental_uris": {"android": "https://dc.lft.to/lastmile_qr_scan", "ios": "https://dc.lft.to/lastmile_qr_scan"}, "name": "0021f8ffdf92fbcfc7e34f25af24aaf0", "type": "electric_scooter"}, {"fusion_lat": 0.0, "bike_id": "ffa7abfc03c5a0e60f26edca229e496f", "fusion_lon": 0.0, "lon": -76.99581366666666, "lat": 38.85181566666667, "is_reserved": 0, "is_disabled": 0, "rental_uris": {"android": "https://dc.lft.to/lastmile_qr_scan", "ios": "https://dc.lft.to/lastmile_qr_scan"}, "name": "ffa7abfc03c5a0e60f26edca229e496f", "type": "electric_scooter"}, {"fusion_lat": 0.0, "bike_id": "7d7a3ef23381724fb30e969bcf6ed7be", "fusion_lon": 0.0, "lon": -77.0397415, "lat": 38.90274316666667, "is_reserved": 0, "is_disabled": 0, "rental_uris": {"android": "https://dc.lft.to/lastmile_qr_scan", "ios": "https://dc.lft.to/lastmile_qr_scan"}, "name": "7d7a3ef23381724fb30e969bcf6ed7be", "type": "electric_scooter"}, {"fusion_lat": 0.0, "bike_id": "10c512fbc305ea5fc60b951715dccacc", "fusion_lon": 0.0, "lon": -76.99866616666667, "lat": 38.900263833333334, "is_reserved": 0, "is_disabled": 0, "rental_uris": {"android": "https://dc.lft.to/lastmile_qr_scan", "ios": "https://dc.lft.to/lastmile_qr_scan"}, "name": "10c512fbc305ea5fc60b951715dccacc", "type": "electric_scooter"}, {"fusion_lat": 0.0, "bike_id": "f00237a7b77693aaadbade6cb5d2a738", "fusion_lon": 0.0, "lon": -77.00657916666667, "lat": 38.90109733333333, "is_reserved": 0, "is_disabled": 0, "rental_uris": {"android": "https://dc.lft.to/lastmile_qr_scan", "ios": "https://dc.lft.to/lastmile_qr_scan"}, "name": "f00237a7b77693aaadbade6cb5d2a738", "type": "electric_scooter"}, {"fusion_lat": 0.0, "bike_id": "b56e078d792c571a72370a1446fee309", "fusion_lon": 0.0, "lon": -77.02653366666667, "lat": 38.93866366666666, "is_reserved": 0, "is_disabled": 0, "rental_uris": {"android": "https://dc.lft.to/lastmile_qr_scan", "ios": "https://dc.lft.to/lastmile_qr_scan"}, "name": "b56e078d792c571a72370a1446fee309", "type": "electric_scooter"}, {"fusion_lat": 0.0, "bike_id": "a6a2a40ce5d3aff03a09c94bbc4bc2f0", "fusion_lon": 0.0, "lon": -76.97837516666667, "lat": 38.8991535, "is_reserved": 0, "is_disabled": 0, "rental_uris": {"android": "https://dc.lft.to/lastmile_qr_scan", "ios": "https://dc.lft.to/lastmile_qr_scan"}, "name": "a6a2a40ce5d3aff03a09c94bbc4bc2f0", "type": "electric_scooter"}, {"fusion_lat": 0.0, "bike_id": "0865a904765786feb7061c6472308c47", "fusion_lon": 0.0, "lon": -77.0481575, "lat": 38.905015666666664, "is_reserved": 0, "is_disabled": 0, "rental_uris": {"android": "https://dc.lft.to/lastmile_qr_scan", "ios": "https://dc.lft.to/lastmile_qr_scan"}, "name": "0865a904765786feb7061c6472308c47", "type": "electric_scooter"}, {"fusion_lat": 0.0, "bike_id": "dfd24b1998a61bb3fd67a09f6b844309", "fusion_lon": 0.0, "lon": -77.01221233333334, "lat": 38.91442083333333, "is_reserved": 0, "is_disabled": 0, "rental_uris": {"android": "https://dc.lft.to/lastmile_qr_scan", "ios": "https://dc.lft.to/lastmile_qr_scan"}, "name": "dfd24b1998a61bb3fd67a09f6b844309", "type": "electric_scooter"}, {"fusion_lat": 0.0, "bike_id": "dd404db139a0cacdd4f75608f47ef13a", "fusion_lon": 0.0, "lon": -77.04484366666667, "lat": 38.89228033333333, "is_reserved": 0, "is_disabled": 0, "rental_uris": {"android": "https://dc.lft.to/lastmile_qr_scan", "ios": "https://dc.lft.to/lastmile_qr_scan"}, "name": "dd404db139a0cacdd4f75608f47ef13a", "type": "electric_scooter"}, {"fusion_lat": 0.0, "bike_id": "7ab63796c57d542b6a4f26c44cc86f28", "fusion_lon": 0.0, "lon": -77.0332705, "lat": 38.9471665, "is_reserved": 0, "is_disabled": 0, "rental_uris": {"android": "https://dc.lft.to/lastmile_qr_scan", "ios": "https://dc.lft.to/lastmile_qr_scan"}, "name": "7ab63796c57d542b6a4f26c44cc86f28", "type": "electric_scooter"}, {"fusion_lat": 0.0, "bike_id": "96a557b12e3acc9da5b8fe959a3078c7", "fusion_lon": 0.0, "lon": -77.04284333333334, "lat": 38.91118183333333, "is_reserved": 0, "is_disabled": 0, "rental_uris": {"android": "https://dc.lft.to/lastmile_qr_scan", "ios": "https://dc.lft.to/lastmile_qr_scan"}, "name": "96a557b12e3acc9da5b8fe959a3078c7", "type": "electric_scooter"}, {"fusion_lat": 0.0, "bike_id": "c43396e71629e313b59e5d793ac8909f", "fusion_lon": 0.0, "lon": -77.03444683333333, "lat": 38.90955183333333, "is_reserved": 0, "is_disabled": 0, "rental_uris": {"android": "https://dc.lft.to/lastmile_qr_scan", "ios": "https://dc.lft.to/lastmile_qr_scan"}, "name": "c43396e71629e313b59e5d793ac8909f", "type": "electric_scooter"}, {"fusion_lat": 0.0, "bike_id": "889ddc5355212ca17eadaa9411cfeb02", "fusion_lon": 0.0, "lon": -76.999559, "lat": 38.904082, "is_reserved": 0, "is_disabled": 0, "rental_uris": {"android": "https://dc.lft.to/lastmile_qr_scan", "ios": "https://dc.lft.to/lastmile_qr_scan"}, "name": "889ddc5355212ca17eadaa9411cfeb02", "type": "electric_scooter"}, {"fusion_lat": 0.0, "bike_id": "5c96a55cd51846c3471b45f82082694b", "fusion_lon": 0.0, "lon": -76.980829, "lat": 38.9068625, "is_reserved": 0, "is_disabled": 0, "rental_uris": {"android": "https://dc.lft.to/lastmile_qr_scan", "ios": "https://dc.lft.to/lastmile_qr_scan"}, "name": "5c96a55cd51846c3471b45f82082694b", "type": "electric_scooter"}, {"fusion_lat": 0.0, "bike_id": "e67324f8c63b28aba88d868c1b366243", "fusion_lon": 0.0, "lon": -77.02206883333334, "lat": 38.894944, "is_reserved": 0, "is_disabled": 0, "rental_uris": {"android": "https://dc.lft.to/lastmile_qr_scan", "ios": "https://dc.lft.to/lastmile_qr_scan"}, "name": "e67324f8c63b28aba88d868c1b366243", "type": "electric_scooter"}, {"fusion_lat": 0.0, "bike_id": "a6d041ff094cf5d432c10c23f06f6a33", "fusion_lon": 0.0, "lon": -76.97739883333334, "lat": 38.864755333333335, "is_reserved": 0, "is_disabled": 0, "rental_uris": {"android": "https://dc.lft.to/lastmile_qr_scan", "ios": "https://dc.lft.to/lastmile_qr_scan"}, "name": "a6d041ff094cf5d432c10c23f06f6a33", "type": "electric_scooter"}, {"fusion_lat": 0.0, "bike_id": "2a5460ec08da2d27ae96bab4fdf0ddb8", "fusion_lon": 0.0, "lon": -77.04504483333334, "lat": 38.911147166666666, "is_reserved": 0, "is_disabled": 0, "rental_uris": {"android": "https://dc.lft.to/lastmile_qr_scan", "ios": "https://dc.lft.to/lastmile_qr_scan"}, "name": "2a5460ec08da2d27ae96bab4fdf0ddb8", "type": "electric_scooter"}, {"fusion_lat": 0.0, "bike_id": "9991b649c006591a915dba26032282eb", "fusion_lon": 0.0, "lon": -77.04737133333333, "lat": 38.897453166666665, "is_reserved": 0, "is_disabled": 0, "rental_uris": {"android": "https://dc.lft.to/lastmile_qr_scan", "ios": "https://dc.lft.to/lastmile_qr_scan"}, "name": "9991b649c006591a915dba26032282eb", "type": "electric_scooter"}, {"fusion_lat": 0.0, "bike_id": "e6ce24c38f35bd45c28f6d8e4ac84c4f", "fusion_lon": 0.0, "lon": -77.027251, "lat": 38.924864, "is_reserved": 0, "is_disabled": 0, "rental_uris": {"android": "https://dc.lft.to/lastmile_qr_scan", "ios": "https://dc.lft.to/lastmile_qr_scan"}, "name": "e6ce24c38f35bd45c28f6d8e4ac84c4f", "type": "electric_scooter"}, {"fusion_lat": 0.0, "bike_id": "8faa03bd21d7d9a6bd7e13108d29d9d7", "fusion_lon": 0.0, "lon": -77.07612283333333, "lat": 38.920585333333335, "is_reserved": 0, "is_disabled": 0, "rental_uris": {"android": "https://dc.lft.to/lastmile_qr_scan", "ios": "https://dc.lft.to/lastmile_qr_scan"}, "name": "8faa03bd21d7d9a6bd7e13108d29d9d7", "type": "electric_scooter"}, {"fusion_lat": 0.0, "bike_id": "82b4be6bbe300d71e484ad1ab7a4be18", "fusion_lon": 0.0, "lon": -77.02524166666667, "lat": 38.9205575, "is_reserved": 0, "is_disabled": 0, "rental_uris": {"android": "https://dc.lft.to/lastmile_qr_scan", "ios": "https://dc.lft.to/lastmile_qr_scan"}, "name": "82b4be6bbe300d71e484ad1ab7a4be18", "type": "electric_scooter"}, {"fusion_lat": 0.0, "bike_id": "0fa6ebf1e3fe70ae2e73602d26061126", "fusion_lon": 0.0, "lon": -77.0418335, "lat": 38.89257466666667, "is_reserved": 0, "is_disabled": 0, "rental_uris": {"android": "https://dc.lft.to/lastmile_qr_scan", "ios": "https://dc.lft.to/lastmile_qr_scan"}, "name": "0fa6ebf1e3fe70ae2e73602d26061126", "type": "electric_scooter"}, {"fusion_lat": 0.0, "bike_id": "3a5bb3424fe87b5d13d01ed5456d0b87", "fusion_lon": 0.0, "lon": -77.021734, "lat": 38.9097815, "is_reserved": 0, "is_disabled": 0, "rental_uris": {"android": "https://dc.lft.to/lastmile_qr_scan", "ios": "https://dc.lft.to/lastmile_qr_scan"}, "name": "3a5bb3424fe87b5d13d01ed5456d0b87", "type": "electric_scooter"}, {"fusion_lat": 0.0, "bike_id": "592cf2e058dcda1a4827a477a9814c65", "fusion_lon": 0.0, "lon": -77.01784, "lat": 38.88601883333333, "is_reserved": 0, "is_disabled": 0, "rental_uris": {"android": "https://dc.lft.to/lastmile_qr_scan", "ios": "https://dc.lft.to/lastmile_qr_scan"}, "name": "592cf2e058dcda1a4827a477a9814c65", "type": "electric_scooter"}, {"fusion_lat": 0.0, "bike_id": "4ff1ff92521de7a6c449936317676a65", "fusion_lon": 0.0, "lon": -77.02844533333334, "lat": 38.887462666666664, "is_reserved": 0, "is_disabled": 0, "rental_uris": {"android": "https://dc.lft.to/lastmile_qr_scan", "ios": "https://dc.lft.to/lastmile_qr_scan"}, "name": "4ff1ff92521de7a6c449936317676a65", "type": "electric_scooter"}, {"fusion_lat": 0.0, "bike_id": "cd61dfc6e7c3ac4b1248d160e7c62655", "fusion_lon": 0.0, "lon": -77.031806, "lat": 38.89634783333333, "is_reserved": 0, "is_disabled": 0, "rental_uris": {"android": "https://dc.lft.to/lastmile_qr_scan", "ios": "https://dc.lft.to/lastmile_qr_scan"}, "name": "cd61dfc6e7c3ac4b1248d160e7c62655", "type": "electric_scooter"}, {"fusion_lat": 0.0, "bike_id": "c0a64fe8268b1b426d14889aafbcf597", "fusion_lon": 0.0, "lon": -77.03597283333333, "lat": 38.9081905, "is_reserved": 0, "is_disabled": 0, "rental_uris": {"android": "https://dc.lft.to/lastmile_qr_scan", "ios": "https://dc.lft.to/lastmile_qr_scan"}, "name": "c0a64fe8268b1b426d14889aafbcf597", "type": "electric_scooter"}, {"fusion_lat": 0.0, "bike_id": "1e1909fa8aa1d5b2ae582a291f630ef8", "fusion_lon": 0.0, "lon": -77.04872616666667, "lat": 38.907300166666666, "is_reserved": 0, "is_disabled": 0, "rental_uris": {"android": "https://dc.lft.to/lastmile_qr_scan", "ios": "https://dc.lft.to/lastmile_qr_scan"}, "name": "1e1909fa8aa1d5b2ae582a291f630ef8", "type": "electric_scooter"}, {"fusion_lat": 0.0, "bike_id": "5dbf691980852e24d945840172939dde", "fusion_lon": 0.0, "lon": -77.02523816666667, "lat": 38.920529333333334, "is_reserved": 0, "is_disabled": 0, "rental_uris": {"android": "https://dc.lft.to/lastmile_qr_scan", "ios": "https://dc.lft.to/lastmile_qr_scan"}, "name": "5dbf691980852e24d945840172939dde", "type": "electric_scooter"}, {"fusion_lat": 0.0, "bike_id": "f2270350c97c65a16ce45ff9fd67e0a2", "fusion_lon": 0.0, "lon": -77.01960633333333, "lat": 38.923350166666665, "is_reserved": 0, "is_disabled": 0, "rental_uris": {"android": "https://dc.lft.to/lastmile_qr_scan", "ios": "https://dc.lft.to/lastmile_qr_scan"}, "name": "f2270350c97c65a16ce45ff9fd67e0a2", "type": "electric_scooter"}, {"fusion_lat": 0.0, "bike_id": "357b7339e6f6dffbae0ff0ef240ea413", "fusion_lon": 0.0, "lon": -76.98144, "lat": 38.905686, "is_reserved": 0, "is_disabled": 0, "rental_uris": {"android": "https://dc.lft.to/lastmile_qr_scan", "ios": "https://dc.lft.to/lastmile_qr_scan"}, "name": "357b7339e6f6dffbae0ff0ef240ea413", "type": "electric_scooter"}, {"fusion_lat": 0.0, "bike_id": "0aeb8539be0f611d7d5dd2d6489c2438", "fusion_lon": 0.0, "lon": -77.0344685, "lat": 38.90815116666667, "is_reserved": 0, "is_disabled": 0, "rental_uris": {"android": "https://dc.lft.to/lastmile_qr_scan", "ios": "https://dc.lft.to/lastmile_qr_scan"}, "name": "0aeb8539be0f611d7d5dd2d6489c2438", "type": "electric_scooter"}, {"fusion_lat": 0.0, "bike_id": "5c6b00d00341e1e639b569886795d85b", "fusion_lon": 0.0, "lon": -77.04869983333333, "lat": 38.91334, "is_reserved": 0, "is_disabled": 0, "rental_uris": {"android": "https://dc.lft.to/lastmile_qr_scan", "ios": "https://dc.lft.to/lastmile_qr_scan"}, "name": "5c6b00d00341e1e639b569886795d85b", "type": "electric_scooter"}, {"fusion_lat": 0.0, "bike_id": "55fc118cd92314d7db5bcf675dc208f3", "fusion_lon": 0.0, "lon": -77.04262533333333, "lat": 38.900351, "is_reserved": 0, "is_disabled": 0, "rental_uris": {"android": "https://dc.lft.to/lastmile_qr_scan", "ios": "https://dc.lft.to/lastmile_qr_scan"}, "name": "55fc118cd92314d7db5bcf675dc208f3", "type": "electric_scooter"}, {"fusion_lat": 0.0, "bike_id": "2d934b67f898b676fc5584ec3649e321", "fusion_lon": 0.0, "lon": -77.0803025, "lat": 38.950623, "is_reserved": 0, "is_disabled": 0, "rental_uris": {"android": "https://dc.lft.to/lastmile_qr_scan", "ios": "https://dc.lft.to/lastmile_qr_scan"}, "name": "2d934b67f898b676fc5584ec3649e321", "type": "electric_scooter"}, {"fusion_lat": 0.0, "bike_id": "7a2cfc41dd40241035ea0b68f19247b9", "fusion_lon": 0.0, "lon": -77.03279183333333, "lat": 38.898855833333336, "is_reserved": 0, "is_disabled": 0, "rental_uris": {"android": "https://dc.lft.to/lastmile_qr_scan", "ios": "https://dc.lft.to/lastmile_qr_scan"}, "name": "7a2cfc41dd40241035ea0b68f19247b9", "type": "electric_scooter"}, {"fusion_lat": 0.0, "bike_id": "f29732e53a9105d3c8ad9ca5227db4d5", "fusion_lon": 0.0, "lon": -77.01075333333333, "lat": 38.896248, "is_reserved": 0, "is_disabled": 0, "rental_uris": {"android": "https://dc.lft.to/lastmile_qr_scan", "ios": "https://dc.lft.to/lastmile_qr_scan"}, "name": "f29732e53a9105d3c8ad9ca5227db4d5", "type": "electric_scooter"}, {"fusion_lat": 0.0, "bike_id": "6978f6efe2ff9beee0d49997162e1bb7", "fusion_lon": 0.0, "lon": -77.03977183333333, "lat": 38.899099666666665, "is_reserved": 0, "is_disabled": 0, "rental_uris": {"android": "https://dc.lft.to/lastmile_qr_scan", "ios": "https://dc.lft.to/lastmile_qr_scan"}, "name": "6978f6efe2ff9beee0d49997162e1bb7", "type": "electric_scooter"}, {"fusion_lat": 0.0, "bike_id": "7d8e235d56de0344655359987ca10490", "fusion_lon": 0.0, "lon": -77.017507, "lat": 38.88748266666666, "is_reserved": 0, "is_disabled": 0, "rental_uris": {"android": "https://dc.lft.to/lastmile_qr_scan", "ios": "https://dc.lft.to/lastmile_qr_scan"}, "name": "7d8e235d56de0344655359987ca10490", "type": "electric_scooter"}, {"fusion_lat": 0.0, "bike_id": "b42b4cf1b9812d8f957a40e6c5656474", "fusion_lon": 0.0, "lon": -77.03240166666667, "lat": 38.92992533333334, "is_reserved": 0, "is_disabled": 0, "rental_uris": {"android": "https://dc.lft.to/lastmile_qr_scan", "ios": "https://dc.lft.to/lastmile_qr_scan"}, "name": "b42b4cf1b9812d8f957a40e6c5656474", "type": "electric_scooter"}, {"fusion_lat": 0.0, "bike_id": "b15b06975e7fb14d3a4e3c79e01cecd2", "fusion_lon": 0.0, "lon": -77.0947045, "lat": 38.86944966666667, "is_reserved": 0, "is_disabled": 0, "rental_uris": {"android": "https://dc.lft.to/lastmile_qr_scan", "ios": "https://dc.lft.to/lastmile_qr_scan"}, "name": "b15b06975e7fb14d3a4e3c79e01cecd2", "type": "electric_bike"}, {"fusion_lat": 0.0, "bike_id": "1ed32a29b9a289a8308e56fd86d4650e", "fusion_lon": 0.0, "lon": -77.03337833333333, "lat": 38.903198333333336, "is_reserved": 0, "is_disabled": 0, "rental_uris": {"android": "https://dc.lft.to/lastmile_qr_scan", "ios": "https://dc.lft.to/lastmile_qr_scan"}, "name": "1ed32a29b9a289a8308e56fd86d4650e", "type": "electric_scooter"}, {"fusion_lat": 0.0, "bike_id": "3c14749a0f5133199d91e6a659aea953", "fusion_lon": 0.0, "lon": -77.032025, "lat": 38.913079, "is_reserved": 0, "is_disabled": 0, "rental_uris": {"android": "https://dc.lft.to/lastmile_qr_scan", "ios": "https://dc.lft.to/lastmile_qr_scan"}, "name": "3c14749a0f5133199d91e6a659aea953", "type": "electric_scooter"}, {"fusion_lat": 0.0, "bike_id": "27604a97584a79710e4128c0a9afe384", "fusion_lon": 0.0, "lon": -76.98800316666667, "lat": 38.89245183333333, "is_reserved": 0, "is_disabled": 0, "rental_uris": {"android": "https://dc.lft.to/lastmile_qr_scan", "ios": "https://dc.lft.to/lastmile_qr_scan"}, "name": "27604a97584a79710e4128c0a9afe384", "type": "electric_scooter"}, {"fusion_lat": 0.0, "bike_id": "dc27ac5aa3d812436b6d20448886ea04", "fusion_lon": 0.0, "lon": -77.0411015, "lat": 38.91555433333333, "is_reserved": 0, "is_disabled": 0, "rental_uris": {"android": "https://dc.lft.to/lastmile_qr_scan", "ios": "https://dc.lft.to/lastmile_qr_scan"}, "name": "dc27ac5aa3d812436b6d20448886ea04", "type": "electric_scooter"}, {"fusion_lat": 0.0, "bike_id": "33edfbf35116240a1e79aca49a90d8b7", "fusion_lon": 0.0, "lon": -77.03971766666666, "lat": 38.905963, "is_reserved": 0, "is_disabled": 0, "rental_uris": {"android": "https://dc.lft.to/lastmile_qr_scan", "ios": "https://dc.lft.to/lastmile_qr_scan"}, "name": "33edfbf35116240a1e79aca49a90d8b7", "type": "electric_scooter"}, {"fusion_lat": 0.0, "bike_id": "5a01c4d85716161e26510252d1553124", "fusion_lon": 0.0, "lon": -77.0828925, "lat": 38.935825333333334, "is_reserved": 0, "is_disabled": 0, "rental_uris": {"android": "https://dc.lft.to/lastmile_qr_scan", "ios": "https://dc.lft.to/lastmile_qr_scan"}, "name": "5a01c4d85716161e26510252d1553124", "type": "electric_scooter"}, {"fusion_lat": 0.0, "bike_id": "63cca959b06b71a1d35eec761dba93e4", "fusion_lon": 0.0, "lon": -77.01191733333333, "lat": 38.930047333333334, "is_reserved": 0, "is_disabled": 0, "rental_uris": {"android": "https://dc.lft.to/lastmile_qr_scan", "ios": "https://dc.lft.to/lastmile_qr_scan"}, "name": "63cca959b06b71a1d35eec761dba93e4", "type": "electric_bike"}, {"fusion_lat": 0.0, "bike_id": "b3014bea2a6d89604572c1f44cf28a7d", "fusion_lon": 0.0, "lon": -76.99681666666666, "lat": 38.860233, "is_reserved": 0, "is_disabled": 0, "rental_uris": {"android": "https://dc.lft.to/lastmile_qr_scan", "ios": "https://dc.lft.to/lastmile_qr_scan"}, "name": "b3014bea2a6d89604572c1f44cf28a7d", "type": "electric_scooter"}, {"fusion_lat": 0.0, "bike_id": "89a5c2d3e56601fead43b1ea7d9a845b", "fusion_lon": 0.0, "lon": -76.99648683333334, "lat": 38.98830866666667, "is_reserved": 0, "is_disabled": 0, "rental_uris": {"android": "https://dc.lft.to/lastmile_qr_scan", "ios": "https://dc.lft.to/lastmile_qr_scan"}, "name": "89a5c2d3e56601fead43b1ea7d9a845b", "type": "electric_bike"}, {"fusion_lat": 0.0, "bike_id": "a02b84ebb1f3b56252b58bb72398ee67", "fusion_lon": 0.0, "lon": -77.0209365, "lat": 38.95745983333333, "is_reserved": 0, "is_disabled": 0, "rental_uris": {"android": "https://dc.lft.to/lastmile_qr_scan", "ios": "https://dc.lft.to/lastmile_qr_scan"}, "name": "a02b84ebb1f3b56252b58bb72398ee67", "type": "electric_scooter"}, {"fusion_lat": 0.0, "bike_id": "0f94ec38c5cca4f23cc691b57ac1f176", "fusion_lon": 0.0, "lon": -77.03311266666667, "lat": 38.89837933333333, "is_reserved": 0, "is_disabled": 0, "rental_uris": {"android": "https://dc.lft.to/lastmile_qr_scan", "ios": "https://dc.lft.to/lastmile_qr_scan"}, "name": "0f94ec38c5cca4f23cc691b57ac1f176", "type": "electric_scooter"}, {"fusion_lat": 0.0, "bike_id": "be7799d3010418481bf2587665ec0345", "fusion_lon": 0.0, "lon": -76.97522716666667, "lat": 38.9670315, "is_reserved": 0, "is_disabled": 0, "rental_uris": {"android": "https://dc.lft.to/lastmile_qr_scan", "ios": "https://dc.lft.to/lastmile_qr_scan"}, "name": "be7799d3010418481bf2587665ec0345", "type": "electric_bike"}, {"fusion_lat": 0.0, "bike_id": "555e951ff2d32c919ee21803d839856f", "fusion_lon": 0.0, "lon": -77.023847, "lat": 38.89215433333333, "is_reserved": 0, "is_disabled": 0, "rental_uris": {"android": "https://dc.lft.to/lastmile_qr_scan", "ios": "https://dc.lft.to/lastmile_qr_scan"}, "name": "555e951ff2d32c919ee21803d839856f", "type": "electric_scooter"}, {"fusion_lat": 0.0, "bike_id": "b3cdd4afac391fe8dec5d568e9093a01", "fusion_lon": 0.0, "lon": -77.04492066666667, "lat": 38.9037755, "is_reserved": 0, "is_disabled": 0, "rental_uris": {"android": "https://dc.lft.to/lastmile_qr_scan", "ios": "https://dc.lft.to/lastmile_qr_scan"}, "name": "b3cdd4afac391fe8dec5d568e9093a01", "type": "electric_scooter"}, {"fusion_lat": 0.0, "bike_id": "c3d66fc226ecfaf1dd7658353bb8919f", "fusion_lon": 0.0, "lon": -77.03208566666666, "lat": 38.915001333333336, "is_reserved": 0, "is_disabled": 0, "rental_uris": {"android": "https://dc.lft.to/lastmile_qr_scan", "ios": "https://dc.lft.to/lastmile_qr_scan"}, "name": "c3d66fc226ecfaf1dd7658353bb8919f", "type": "electric_scooter"}, {"fusion_lat": 0.0, "bike_id": "2e1863343d00f3b402d3fd1d6889b647", "fusion_lon": 0.0, "lon": -77.032218, "lat": 38.89777866666667, "is_reserved": 0, "is_disabled": 0, "rental_uris": {"android": "https://dc.lft.to/lastmile_qr_scan", "ios": "https://dc.lft.to/lastmile_qr_scan"}, "name": "2e1863343d00f3b402d3fd1d6889b647", "type": "electric_scooter"}, {"fusion_lat": 0.0, "bike_id": "4a0ae97cfa58a1511f5620620ee98202", "fusion_lon": 0.0, "lon": -77.03854083333333, "lat": 38.911972, "is_reserved": 0, "is_disabled": 0, "rental_uris": {"android": "https://dc.lft.to/lastmile_qr_scan", "ios": "https://dc.lft.to/lastmile_qr_scan"}, "name": "4a0ae97cfa58a1511f5620620ee98202", "type": "electric_scooter"}, {"fusion_lat": 0.0, "bike_id": "abb239c8a04985152cee8f6d9e18b0e1", "fusion_lon": 0.0, "lon": -77.04894033333333, "lat": 38.901043666666666, "is_reserved": 0, "is_disabled": 0, "rental_uris": {"android": "https://dc.lft.to/lastmile_qr_scan", "ios": "https://dc.lft.to/lastmile_qr_scan"}, "name": "abb239c8a04985152cee8f6d9e18b0e1", "type": "electric_scooter"}, {"fusion_lat": 0.0, "bike_id": "1e09c29fff8a907fee7179bc63a74c9e", "fusion_lon": 0.0, "lon": -77.02408433333333, "lat": 38.919734166666665, "is_reserved": 0, "is_disabled": 0, "rental_uris": {"android": "https://dc.lft.to/lastmile_qr_scan", "ios": "https://dc.lft.to/lastmile_qr_scan"}, "name": "1e09c29fff8a907fee7179bc63a74c9e", "type": "electric_scooter"}, {"fusion_lat": 0.0, "bike_id": "65c764e894d698d01094f98136da55d9", "fusion_lon": 0.0, "lon": -77.046712, "lat": 38.8995525, "is_reserved": 0, "is_disabled": 0, "rental_uris": {"android": "https://dc.lft.to/lastmile_qr_scan", "ios": "https://dc.lft.to/lastmile_qr_scan"}, "name": "65c764e894d698d01094f98136da55d9", "type": "electric_scooter"}, {"fusion_lat": 0.0, "bike_id": "c5b2ff27a3fc4110e4607cdd0b3375aa", "fusion_lon": 0.0, "lon": -77.05952866666667, "lat": 38.918409, "is_reserved": 0, "is_disabled": 0, "rental_uris": {"android": "https://dc.lft.to/lastmile_qr_scan", "ios": "https://dc.lft.to/lastmile_qr_scan"}, "name": "c5b2ff27a3fc4110e4607cdd0b3375aa", "type": "electric_scooter"}, {"fusion_lat": 0.0, "bike_id": "c5a830f6aa07c184b92122794e6c42ca", "fusion_lon": 0.0, "lon": -76.94637533333334, "lat": 38.89839033333333, "is_reserved": 0, "is_disabled": 0, "rental_uris": {"android": "https://dc.lft.to/lastmile_qr_scan", "ios": "https://dc.lft.to/lastmile_qr_scan"}, "name": "c5a830f6aa07c184b92122794e6c42ca", "type": "electric_scooter"}, {"fusion_lat": 0.0, "bike_id": "354c91b5f090a015f49661e39ba1f875", "fusion_lon": 0.0, "lon": -77.039519, "lat": 38.89973466666667, "is_reserved": 0, "is_disabled": 0, "rental_uris": {"android": "https://dc.lft.to/lastmile_qr_scan", "ios": "https://dc.lft.to/lastmile_qr_scan"}, "name": "354c91b5f090a015f49661e39ba1f875", "type": "electric_scooter"}, {"fusion_lat": 0.0, "bike_id": "bbcdee9b2bad643032b294ef53e65926", "fusion_lon": 0.0, "lon": -77.02563266666667, "lat": 38.933547833333336, "is_reserved": 0, "is_disabled": 0, "rental_uris": {"android": "https://dc.lft.to/lastmile_qr_scan", "ios": "https://dc.lft.to/lastmile_qr_scan"}, "name": "bbcdee9b2bad643032b294ef53e65926", "type": "electric_scooter"}, {"fusion_lat": 0.0, "bike_id": "127d21008330d4d299df9bfb9446d105", "fusion_lon": 0.0, "lon": -77.0352045, "lat": 38.92265183333333, "is_reserved": 0, "is_disabled": 0, "rental_uris": {"android": "https://dc.lft.to/lastmile_qr_scan", "ios": "https://dc.lft.to/lastmile_qr_scan"}, "name": "127d21008330d4d299df9bfb9446d105", "type": "electric_scooter"}, {"fusion_lat": 0.0, "bike_id": "165c204130097a544e5c87cbee9abcd0", "fusion_lon": 0.0, "lon": -77.029063, "lat": 38.917072, "is_reserved": 0, "is_disabled": 0, "rental_uris": {"android": "https://dc.lft.to/lastmile_qr_scan", "ios": "https://dc.lft.to/lastmile_qr_scan"}, "name": "165c204130097a544e5c87cbee9abcd0", "type": "electric_scooter"}, {"fusion_lat": 0.0, "bike_id": "61034d356a11f4174692fe4e8cd1681e", "fusion_lon": 0.0, "lon": -77.02144, "lat": 38.894981, "is_reserved": 0, "is_disabled": 0, "rental_uris": {"android": "https://dc.lft.to/lastmile_qr_scan", "ios": "https://dc.lft.to/lastmile_qr_scan"}, "name": "61034d356a11f4174692fe4e8cd1681e", "type": "electric_scooter"}, {"fusion_lat": 0.0, "bike_id": "c07a7beffb38e163beb4674079042213", "fusion_lon": 0.0, "lon": -77.0034615, "lat": 38.88705516666667, "is_reserved": 0, "is_disabled": 0, "rental_uris": {"android": "https://dc.lft.to/lastmile_qr_scan", "ios": "https://dc.lft.to/lastmile_qr_scan"}, "name": "c07a7beffb38e163beb4674079042213", "type": "electric_bike"}, {"fusion_lat": 0.0, "bike_id": "b076fc3666909b3df45e199bf86a937e", "fusion_lon": 0.0, "lon": -77.02383283333333, "lat": 38.91708716666667, "is_reserved": 0, "is_disabled": 0, "rental_uris": {"android": "https://dc.lft.to/lastmile_qr_scan", "ios": "https://dc.lft.to/lastmile_qr_scan"}, "name": "b076fc3666909b3df45e199bf86a937e", "type": "electric_scooter"}, {"fusion_lat": 0.0, "bike_id": "5e3f7b9daf2b740fdbf2c6579558fea7", "fusion_lon": 0.0, "lon": -76.9653255, "lat": 38.8747945, "is_reserved": 0, "is_disabled": 0, "rental_uris": {"android": "https://dc.lft.to/lastmile_qr_scan", "ios": "https://dc.lft.to/lastmile_qr_scan"}, "name": "5e3f7b9daf2b740fdbf2c6579558fea7", "type": "electric_scooter"}, {"fusion_lat": 0.0, "bike_id": "95f6c1735d8415ba0cfa47048c9b2fd3", "fusion_lon": 0.0, "lon": -76.9682545, "lat": 38.84726233333333, "is_reserved": 0, "is_disabled": 0, "rental_uris": {"android": "https://dc.lft.to/lastmile_qr_scan", "ios": "https://dc.lft.to/lastmile_qr_scan"}, "name": "95f6c1735d8415ba0cfa47048c9b2fd3", "type": "electric_scooter"}, {"fusion_lat": 0.0, "bike_id": "0975758be78ca42493f1e9388ebd0800", "fusion_lon": 0.0, "lon": -77.01826916666667, "lat": 38.9224805, "is_reserved": 0, "is_disabled": 0, "rental_uris": {"android": "https://dc.lft.to/lastmile_qr_scan", "ios": "https://dc.lft.to/lastmile_qr_scan"}, "name": "0975758be78ca42493f1e9388ebd0800", "type": "electric_scooter"}, {"fusion_lat": 0.0, "bike_id": "9e1b495aa2e2194ff4f9be9e57bbcb23", "fusion_lon": 0.0, "lon": -77.0218845, "lat": 38.89476483333333, "is_reserved": 0, "is_disabled": 0, "rental_uris": {"android": "https://dc.lft.to/lastmile_qr_scan", "ios": "https://dc.lft.to/lastmile_qr_scan"}, "name": "9e1b495aa2e2194ff4f9be9e57bbcb23", "type": "electric_scooter"}, {"fusion_lat": 0.0, "bike_id": "b5144d5242db5bbc787969a30f5c1986", "fusion_lon": 0.0, "lon": -77.03271133333334, "lat": 38.941565833333335, "is_reserved": 0, "is_disabled": 0, "rental_uris": {"android": "https://dc.lft.to/lastmile_qr_scan", "ios": "https://dc.lft.to/lastmile_qr_scan"}, "name": "b5144d5242db5bbc787969a30f5c1986", "type": "electric_scooter"}, {"fusion_lat": 0.0, "bike_id": "3796acaa2c5712381d727568026fad57", "fusion_lon": 0.0, "lon": -77.04165966666666, "lat": 38.91989133333333, "is_reserved": 0, "is_disabled": 0, "rental_uris": {"android": "https://dc.lft.to/lastmile_qr_scan", "ios": "https://dc.lft.to/lastmile_qr_scan"}, "name": "3796acaa2c5712381d727568026fad57", "type": "electric_scooter"}, {"fusion_lat": 0.0, "bike_id": "0965778631a217548ba641682ffc8f4c", "fusion_lon": 0.0, "lon": -77.04267483333334, "lat": 38.922397333333336, "is_reserved": 0, "is_disabled": 0, "rental_uris": {"android": "https://dc.lft.to/lastmile_qr_scan", "ios": "https://dc.lft.to/lastmile_qr_scan"}, "name": "0965778631a217548ba641682ffc8f4c", "type": "electric_scooter"}, {"fusion_lat": 0.0, "bike_id": "c2776329f7cea78b893a0b58db5f5175", "fusion_lon": 0.0, "lon": -77.11782166666667, "lat": 39.054956833333335, "is_reserved": 0, "is_disabled": 0, "rental_uris": {"android": "https://dc.lft.to/lastmile_qr_scan", "ios": "https://dc.lft.to/lastmile_qr_scan"}, "name": "c2776329f7cea78b893a0b58db5f5175", "type": "electric_bike"}, {"fusion_lat": 0.0, "bike_id": "8c7844079881cb5982506352bdc32549", "fusion_lon": 0.0, "lon": -76.97535283333333, "lat": 38.9033105, "is_reserved": 0, "is_disabled": 0, "rental_uris": {"android": "https://dc.lft.to/lastmile_qr_scan", "ios": "https://dc.lft.to/lastmile_qr_scan"}, "name": "8c7844079881cb5982506352bdc32549", "type": "electric_bike"}, {"fusion_lat": 0.0, "bike_id": "92a5751a1289d5fbd4e66502906df12b", "fusion_lon": 0.0, "lon": -77.0164885, "lat": 38.877182, "is_reserved": 0, "is_disabled": 0, "rental_uris": {"android": "https://dc.lft.to/lastmile_qr_scan", "ios": "https://dc.lft.to/lastmile_qr_scan"}, "name": "92a5751a1289d5fbd4e66502906df12b", "type": "electric_scooter"}, {"fusion_lat": 0.0, "bike_id": "a0e6b32ec685a473e463c99f72118e76", "fusion_lon": 0.0, "lon": -77.072798, "lat": 38.90927466666667, "is_reserved": 0, "is_disabled": 0, "rental_uris": {"android": "https://dc.lft.to/lastmile_qr_scan", "ios": "https://dc.lft.to/lastmile_qr_scan"}, "name": "a0e6b32ec685a473e463c99f72118e76", "type": "electric_scooter"}, {"fusion_lat": 0.0, "bike_id": "6fcab056d128c1ece84196848b99b717", "fusion_lon": 0.0, "lon": -77.04483033333334, "lat": 38.89228683333333, "is_reserved": 0, "is_disabled": 0, "rental_uris": {"android": "https://dc.lft.to/lastmile_qr_scan", "ios": "https://dc.lft.to/lastmile_qr_scan"}, "name": "6fcab056d128c1ece84196848b99b717", "type": "electric_scooter"}, {"fusion_lat": 0.0, "bike_id": "ebde030fb37f4d4c76c275170fafe3d0", "fusion_lon": 0.0, "lon": -76.9691085, "lat": 38.8461795, "is_reserved": 0, "is_disabled": 0, "rental_uris": {"android": "https://dc.lft.to/lastmile_qr_scan", "ios": "https://dc.lft.to/lastmile_qr_scan"}, "name": "ebde030fb37f4d4c76c275170fafe3d0", "type": "electric_bike"}, {"fusion_lat": 0.0, "bike_id": "a6aad01bbd3786521f5b63cf6c021048", "fusion_lon": 0.0, "lon": -77.02722966666667, "lat": 38.9248395, "is_reserved": 0, "is_disabled": 0, "rental_uris": {"android": "https://dc.lft.to/lastmile_qr_scan", "ios": "https://dc.lft.to/lastmile_qr_scan"}, "name": "a6aad01bbd3786521f5b63cf6c021048", "type": "electric_scooter"}, {"fusion_lat": 0.0, "bike_id": "a5ac4b7780d9a8d9931167e37b6b87c6", "fusion_lon": 0.0, "lon": -77.04665966666667, "lat": 38.896555, "is_reserved": 0, "is_disabled": 0, "rental_uris": {"android": "https://dc.lft.to/lastmile_qr_scan", "ios": "https://dc.lft.to/lastmile_qr_scan"}, "name": "a5ac4b7780d9a8d9931167e37b6b87c6", "type": "electric_scooter"}, {"fusion_lat": 0.0, "bike_id": "27af6fc8bcd36ec619158bd3f6ba5626", "fusion_lon": 0.0, "lon": -77.032686, "lat": 38.937810166666665, "is_reserved": 0, "is_disabled": 0, "rental_uris": {"android": "https://dc.lft.to/lastmile_qr_scan", "ios": "https://dc.lft.to/lastmile_qr_scan"}, "name": "27af6fc8bcd36ec619158bd3f6ba5626", "type": "electric_scooter"}, {"fusion_lat": 0.0, "bike_id": "ef31ee4bf1d1e3ba7685cc27ff2ae855", "fusion_lon": 0.0, "lon": -77.0364925, "lat": 38.913492, "is_reserved": 0, "is_disabled": 0, "rental_uris": {"android": "https://dc.lft.to/lastmile_qr_scan", "ios": "https://dc.lft.to/lastmile_qr_scan"}, "name": "ef31ee4bf1d1e3ba7685cc27ff2ae855", "type": "electric_scooter"}, {"fusion_lat": 0.0, "bike_id": "8c375464dbdb349699d07be8e0093d34", "fusion_lon": 0.0, "lon": -76.98340783333333, "lat": 38.8954585, "is_reserved": 0, "is_disabled": 0, "rental_uris": {"android": "https://dc.lft.to/lastmile_qr_scan", "ios": "https://dc.lft.to/lastmile_qr_scan"}, "name": "8c375464dbdb349699d07be8e0093d34", "type": "electric_scooter"}, {"fusion_lat": 0.0, "bike_id": "81272bc7a81ab9759a07ad75bbfadab3", "fusion_lon": 0.0, "lon": -76.96156466666666, "lat": 38.88361416666667, "is_reserved": 0, "is_disabled": 0, "rental_uris": {"android": "https://dc.lft.to/lastmile_qr_scan", "ios": "https://dc.lft.to/lastmile_qr_scan"}, "name": "81272bc7a81ab9759a07ad75bbfadab3", "type": "electric_scooter"}, {"fusion_lat": 0.0, "bike_id": "8f2f291a8af72f9c105239a20c9d2e52", "fusion_lon": 0.0, "lon": -77.033516, "lat": 38.8990675, "is_reserved": 0, "is_disabled": 0, "rental_uris": {"android": "https://dc.lft.to/lastmile_qr_scan", "ios": "https://dc.lft.to/lastmile_qr_scan"}, "name": "8f2f291a8af72f9c105239a20c9d2e52", "type": "electric_scooter"}, {"fusion_lat": 0.0, "bike_id": "d3b7dd244c47583d1ea1e3ae1aa0a24b", "fusion_lon": 0.0, "lon": -77.04461183333333, "lat": 38.897365, "is_reserved": 0, "is_disabled": 0, "rental_uris": {"android": "https://dc.lft.to/lastmile_qr_scan", "ios": "https://dc.lft.to/lastmile_qr_scan"}, "name": "d3b7dd244c47583d1ea1e3ae1aa0a24b", "type": "electric_scooter"}, {"fusion_lat": 0.0, "bike_id": "761808a978e2cd241369d3a805c61c45", "fusion_lon": 0.0, "lon": -77.06780983333333, "lat": 38.9036625, "is_reserved": 0, "is_disabled": 0, "rental_uris": {"android": "https://dc.lft.to/lastmile_qr_scan", "ios": "https://dc.lft.to/lastmile_qr_scan"}, "name": "761808a978e2cd241369d3a805c61c45", "type": "electric_scooter"}, {"fusion_lat": 0.0, "bike_id": "192b515e539333d87521fda6ed9de3d0", "fusion_lon": 0.0, "lon": -77.02472183333333, "lat": 38.91826183333333, "is_reserved": 0, "is_disabled": 0, "rental_uris": {"android": "https://dc.lft.to/lastmile_qr_scan", "ios": "https://dc.lft.to/lastmile_qr_scan"}, "name": "192b515e539333d87521fda6ed9de3d0", "type": "electric_scooter"}, {"fusion_lat": 0.0, "bike_id": "3b812d9084559147c3838f696b54d370", "fusion_lon": 0.0, "lon": -76.99835266666666, "lat": 38.95375, "is_reserved": 0, "is_disabled": 0, "rental_uris": {"android": "https://dc.lft.to/lastmile_qr_scan", "ios": "https://dc.lft.to/lastmile_qr_scan"}, "name": "3b812d9084559147c3838f696b54d370", "type": "electric_scooter"}, {"fusion_lat": 0.0, "bike_id": "4ea2616a4e6349f689613ff9a0d5a0b5", "fusion_lon": 0.0, "lon": -77.03204516666666, "lat": 38.91677116666666, "is_reserved": 0, "is_disabled": 0, "rental_uris": {"android": "https://dc.lft.to/lastmile_qr_scan", "ios": "https://dc.lft.to/lastmile_qr_scan"}, "name": "4ea2616a4e6349f689613ff9a0d5a0b5", "type": "electric_scooter"}, {"fusion_lat": 0.0, "bike_id": "50414ab5b5f6bde8b3bc9e324008024c", "fusion_lon": 0.0, "lon": -76.990352, "lat": 38.898808333333335, "is_reserved": 0, "is_disabled": 0, "rental_uris": {"android": "https://dc.lft.to/lastmile_qr_scan", "ios": "https://dc.lft.to/lastmile_qr_scan"}, "name": "50414ab5b5f6bde8b3bc9e324008024c", "type": "electric_scooter"}, {"fusion_lat": 0.0, "bike_id": "8e498bedd523c9eb3a84e4f14ef8a415", "fusion_lon": 0.0, "lon": -77.05041883333334, "lat": 38.925167333333334, "is_reserved": 0, "is_disabled": 0, "rental_uris": {"android": "https://dc.lft.to/lastmile_qr_scan", "ios": "https://dc.lft.to/lastmile_qr_scan"}, "name": "8e498bedd523c9eb3a84e4f14ef8a415", "type": "electric_scooter"}, {"fusion_lat": 0.0, "bike_id": "2d0d0e94a13195d8b9a549ac5a0c15da", "fusion_lon": 0.0, "lon": -77.05182366666666, "lat": 38.923854, "is_reserved": 0, "is_disabled": 0, "rental_uris": {"android": "https://dc.lft.to/lastmile_qr_scan", "ios": "https://dc.lft.to/lastmile_qr_scan"}, "name": "2d0d0e94a13195d8b9a549ac5a0c15da", "type": "electric_scooter"}, {"fusion_lat": 0.0, "bike_id": "7359d028ea341d0b71df75ae8e4fdc12", "fusion_lon": 0.0, "lon": -76.98411616666667, "lat": 38.9063355, "is_reserved": 0, "is_disabled": 0, "rental_uris": {"android": "https://dc.lft.to/lastmile_qr_scan", "ios": "https://dc.lft.to/lastmile_qr_scan"}, "name": "7359d028ea341d0b71df75ae8e4fdc12", "type": "electric_scooter"}, {"fusion_lat": 0.0, "bike_id": "1fbc9251da8744c3a89d03b65d21c7d6", "fusion_lon": 0.0, "lon": -77.02528433333333, "lat": 38.94103666666667, "is_reserved": 0, "is_disabled": 0, "rental_uris": {"android": "https://dc.lft.to/lastmile_qr_scan", "ios": "https://dc.lft.to/lastmile_qr_scan"}, "name": "1fbc9251da8744c3a89d03b65d21c7d6", "type": "electric_scooter"}, {"fusion_lat": 0.0, "bike_id": "de5c68a8ebcea161dec6519211fdc905", "fusion_lon": 0.0, "lon": -77.03964033333334, "lat": 38.9163135, "is_reserved": 0, "is_disabled": 0, "rental_uris": {"android": "https://dc.lft.to/lastmile_qr_scan", "ios": "https://dc.lft.to/lastmile_qr_scan"}, "name": "de5c68a8ebcea161dec6519211fdc905", "type": "electric_scooter"}, {"fusion_lat": 0.0, "bike_id": "8ac0d0a9641edddb4679ceb34ffcae21", "fusion_lon": 0.0, "lon": -77.04806933333333, "lat": 38.91414, "is_reserved": 0, "is_disabled": 0, "rental_uris": {"android": "https://dc.lft.to/lastmile_qr_scan", "ios": "https://dc.lft.to/lastmile_qr_scan"}, "name": "8ac0d0a9641edddb4679ceb34ffcae21", "type": "electric_scooter"}, {"fusion_lat": 0.0, "bike_id": "d30f388682a85b7c21d32513172de517", "fusion_lon": 0.0, "lon": -76.98238466666666, "lat": 38.88866133333333, "is_reserved": 0, "is_disabled": 0, "rental_uris": {"android": "https://dc.lft.to/lastmile_qr_scan", "ios": "https://dc.lft.to/lastmile_qr_scan"}, "name": "d30f388682a85b7c21d32513172de517", "type": "electric_scooter"}, {"fusion_lat": 0.0, "bike_id": "04f4147f836ac456c4f1cac9ef58f55e", "fusion_lon": 0.0, "lon": -77.040333, "lat": 38.90578033333333, "is_reserved": 0, "is_disabled": 0, "rental_uris": {"android": "https://dc.lft.to/lastmile_qr_scan", "ios": "https://dc.lft.to/lastmile_qr_scan"}, "name": "04f4147f836ac456c4f1cac9ef58f55e", "type": "electric_scooter"}, {"fusion_lat": 0.0, "bike_id": "014018c994852a88a9e747dd3714aead", "fusion_lon": 0.0, "lon": -77.04183916666666, "lat": 38.8922665, "is_reserved": 0, "is_disabled": 0, "rental_uris": {"android": "https://dc.lft.to/lastmile_qr_scan", "ios": "https://dc.lft.to/lastmile_qr_scan"}, "name": "014018c994852a88a9e747dd3714aead", "type": "electric_scooter"}, {"fusion_lat": 0.0, "bike_id": "d7dd2b6fe24e18fdce76514f5cb9b9c3", "fusion_lon": 0.0, "lon": -77.038322, "lat": 38.912738833333336, "is_reserved": 0, "is_disabled": 0, "rental_uris": {"android": "https://dc.lft.to/lastmile_qr_scan", "ios": "https://dc.lft.to/lastmile_qr_scan"}, "name": "d7dd2b6fe24e18fdce76514f5cb9b9c3", "type": "electric_scooter"}, {"fusion_lat": 0.0, "bike_id": "fd74ab8e04f3eae67045570ed0e5b3f3", "fusion_lon": 0.0, "lon": -77.01778833333333, "lat": 38.886103166666665, "is_reserved": 0, "is_disabled": 0, "rental_uris": {"android": "https://dc.lft.to/lastmile_qr_scan", "ios": "https://dc.lft.to/lastmile_qr_scan"}, "name": "fd74ab8e04f3eae67045570ed0e5b3f3", "type": "electric_scooter"}, {"fusion_lat": 0.0, "bike_id": "da20c8eb531a00a58297d36065ec2953", "fusion_lon": 0.0, "lon": -77.041605, "lat": 38.9125345, "is_reserved": 0, "is_disabled": 0, "rental_uris": {"android": "https://dc.lft.to/lastmile_qr_scan", "ios": "https://dc.lft.to/lastmile_qr_scan"}, "name": "da20c8eb531a00a58297d36065ec2953", "type": "electric_scooter"}, {"fusion_lat": 0.0, "bike_id": "3c6fbfb4eaea4b28cbe9f5c227442779", "fusion_lon": 0.0, "lon": -77.02219383333333, "lat": 38.88769966666667, "is_reserved": 0, "is_disabled": 0, "rental_uris": {"android": "https://dc.lft.to/lastmile_qr_scan", "ios": "https://dc.lft.to/lastmile_qr_scan"}, "name": "3c6fbfb4eaea4b28cbe9f5c227442779", "type": "electric_scooter"}, {"fusion_lat": 0.0, "bike_id": "340f733a10ddd8d279051460ca14d3cb", "fusion_lon": 0.0, "lon": -77.02443033333333, "lat": 38.884302166666664, "is_reserved": 0, "is_disabled": 0, "rental_uris": {"android": "https://dc.lft.to/lastmile_qr_scan", "ios": "https://dc.lft.to/lastmile_qr_scan"}, "name": "340f733a10ddd8d279051460ca14d3cb", "type": "electric_scooter"}, {"fusion_lat": 0.0, "bike_id": "0f691d39981b52d580e8a32eaa1f6ac7", "fusion_lon": 0.0, "lon": -77.02198566666667, "lat": 38.910063, "is_reserved": 0, "is_disabled": 0, "rental_uris": {"android": "https://dc.lft.to/lastmile_qr_scan", "ios": "https://dc.lft.to/lastmile_qr_scan"}, "name": "0f691d39981b52d580e8a32eaa1f6ac7", "type": "electric_scooter"}, {"fusion_lat": 0.0, "bike_id": "e9bdd71590f67ffa1bffa6ba8d3fc828", "fusion_lon": 0.0, "lon": -77.02209466666666, "lat": 38.892967, "is_reserved": 0, "is_disabled": 0, "rental_uris": {"android": "https://dc.lft.to/lastmile_qr_scan", "ios": "https://dc.lft.to/lastmile_qr_scan"}, "name": "e9bdd71590f67ffa1bffa6ba8d3fc828", "type": "electric_scooter"}, {"fusion_lat": 0.0, "bike_id": "04294ff9882ba81705520ff38dc8dfb7", "fusion_lon": 0.0, "lon": -77.03173283333334, "lat": 38.90111516666666, "is_reserved": 0, "is_disabled": 0, "rental_uris": {"android": "https://dc.lft.to/lastmile_qr_scan", "ios": "https://dc.lft.to/lastmile_qr_scan"}, "name": "04294ff9882ba81705520ff38dc8dfb7", "type": "electric_scooter"}, {"fusion_lat": 0.0, "bike_id": "829e36b3b1818333f0d0eda5bdafa4fb", "fusion_lon": 0.0, "lon": -76.98834916666667, "lat": 38.90102433333333, "is_reserved": 0, "is_disabled": 0, "rental_uris": {"android": "https://dc.lft.to/lastmile_qr_scan", "ios": "https://dc.lft.to/lastmile_qr_scan"}, "name": "829e36b3b1818333f0d0eda5bdafa4fb", "type": "electric_scooter"}, {"fusion_lat": 0.0, "bike_id": "adf01bc87975fc381a941ca8d546f660", "fusion_lon": 0.0, "lon": -77.03184016666667, "lat": 38.896248, "is_reserved": 0, "is_disabled": 0, "rental_uris": {"android": "https://dc.lft.to/lastmile_qr_scan", "ios": "https://dc.lft.to/lastmile_qr_scan"}, "name": "adf01bc87975fc381a941ca8d546f660", "type": "electric_scooter"}, {"fusion_lat": 0.0, "bike_id": "96172b422426c7cd196c68b251a50b06", "fusion_lon": 0.0, "lon": -77.02722516666667, "lat": 38.896534833333334, "is_reserved": 0, "is_disabled": 0, "rental_uris": {"android": "https://dc.lft.to/lastmile_qr_scan", "ios": "https://dc.lft.to/lastmile_qr_scan"}, "name": "96172b422426c7cd196c68b251a50b06", "type": "electric_scooter"}, {"fusion_lat": 0.0, "bike_id": "262697112600c0f31637289540a113d4", "fusion_lon": 0.0, "lon": -77.03387416666666, "lat": 38.90270916666667, "is_reserved": 0, "is_disabled": 0, "rental_uris": {"android": "https://dc.lft.to/lastmile_qr_scan", "ios": "https://dc.lft.to/lastmile_qr_scan"}, "name": "262697112600c0f31637289540a113d4", "type": "electric_scooter"}, {"fusion_lat": 0.0, "bike_id": "9d0cdf6233bc284c6353da149eb6b980", "fusion_lon": 0.0, "lon": -77.034031, "lat": 38.92276966666667, "is_reserved": 0, "is_disabled": 0, "rental_uris": {"android": "https://dc.lft.to/lastmile_qr_scan", "ios": "https://dc.lft.to/lastmile_qr_scan"}, "name": "9d0cdf6233bc284c6353da149eb6b980", "type": "electric_scooter"}, {"fusion_lat": 0.0, "bike_id": "0d30023f72f3c464e5e0e2ca835485a8", "fusion_lon": 0.0, "lon": -77.03219116666666, "lat": 38.90737683333333, "is_reserved": 0, "is_disabled": 0, "rental_uris": {"android": "https://dc.lft.to/lastmile_qr_scan", "ios": "https://dc.lft.to/lastmile_qr_scan"}, "name": "0d30023f72f3c464e5e0e2ca835485a8", "type": "electric_scooter"}, {"fusion_lat": 0.0, "bike_id": "25cfd0f3cae255b837772d3f5369472e", "fusion_lon": 0.0, "lon": -77.045752, "lat": 38.90240516666667, "is_reserved": 0, "is_disabled": 0, "rental_uris": {"android": "https://dc.lft.to/lastmile_qr_scan", "ios": "https://dc.lft.to/lastmile_qr_scan"}, "name": "25cfd0f3cae255b837772d3f5369472e", "type": "electric_scooter"}, {"fusion_lat": 0.0, "bike_id": "82f10d7880aa71b81f08aac477861bc0", "fusion_lon": 0.0, "lon": -76.99951833333333, "lat": 38.919296333333335, "is_reserved": 0, "is_disabled": 0, "rental_uris": {"android": "https://dc.lft.to/lastmile_qr_scan", "ios": "https://dc.lft.to/lastmile_qr_scan"}, "name": "82f10d7880aa71b81f08aac477861bc0", "type": "electric_scooter"}, {"fusion_lat": 0.0, "bike_id": "6fcd6fcf3a62f49a15804f77ae0e56d8", "fusion_lon": 0.0, "lon": -77.04645816666667, "lat": 38.8922175, "is_reserved": 0, "is_disabled": 0, "rental_uris": {"android": "https://dc.lft.to/lastmile_qr_scan", "ios": "https://dc.lft.to/lastmile_qr_scan"}, "name": "6fcd6fcf3a62f49a15804f77ae0e56d8", "type": "electric_scooter"}, {"fusion_lat": 0.0, "bike_id": "600d5146df7cc09bf2461ddf7e2d72d7", "fusion_lon": 0.0, "lon": -77.02167083333333, "lat": 38.89729483333333, "is_reserved": 0, "is_disabled": 0, "rental_uris": {"android": "https://dc.lft.to/lastmile_qr_scan", "ios": "https://dc.lft.to/lastmile_qr_scan"}, "name": "600d5146df7cc09bf2461ddf7e2d72d7", "type": "electric_scooter"}, {"fusion_lat": 0.0, "bike_id": "0a651d38bdd54fdec0fb9287279b8646", "fusion_lon": 0.0, "lon": -77.05937, "lat": 38.905308166666664, "is_reserved": 0, "is_disabled": 0, "rental_uris": {"android": "https://dc.lft.to/lastmile_qr_scan", "ios": "https://dc.lft.to/lastmile_qr_scan"}, "name": "0a651d38bdd54fdec0fb9287279b8646", "type": "electric_bike"}, {"fusion_lat": 0.0, "bike_id": "177e2cc64c9e6220ab8279a5d3c6d8f3", "fusion_lon": 0.0, "lon": -77.00436166666667, "lat": 38.920905, "is_reserved": 0, "is_disabled": 0, "rental_uris": {"android": "https://dc.lft.to/lastmile_qr_scan", "ios": "https://dc.lft.to/lastmile_qr_scan"}, "name": "177e2cc64c9e6220ab8279a5d3c6d8f3", "type": "electric_scooter"}, {"fusion_lat": 0.0, "bike_id": "24377e63384d9df6ea4cc39e9baed339", "fusion_lon": 0.0, "lon": -77.0219875, "lat": 38.910975666666666, "is_reserved": 0, "is_disabled": 0, "rental_uris": {"android": "https://dc.lft.to/lastmile_qr_scan", "ios": "https://dc.lft.to/lastmile_qr_scan"}, "name": "24377e63384d9df6ea4cc39e9baed339", "type": "electric_scooter"}, {"fusion_lat": 0.0, "bike_id": "66075b32316bb44a696ab8c5c342298c", "fusion_lon": 0.0, "lon": -76.949764, "lat": 38.8937135, "is_reserved": 0, "is_disabled": 0, "rental_uris": {"android": "https://dc.lft.to/lastmile_qr_scan", "ios": "https://dc.lft.to/lastmile_qr_scan"}, "name": "66075b32316bb44a696ab8c5c342298c", "type": "electric_scooter"}, {"fusion_lat": 0.0, "bike_id": "b56cf056561548972f715ceaf132c0bb", "fusion_lon": 0.0, "lon": -77.04662583333334, "lat": 38.905057166666666, "is_reserved": 0, "is_disabled": 0, "rental_uris": {"android": "https://dc.lft.to/lastmile_qr_scan", "ios": "https://dc.lft.to/lastmile_qr_scan"}, "name": "b56cf056561548972f715ceaf132c0bb", "type": "electric_scooter"}, {"fusion_lat": 0.0, "bike_id": "dac3afdb5511d4fab3b97bd872aef42c", "fusion_lon": 0.0, "lon": -77.01962733333333, "lat": 38.9220905, "is_reserved": 0, "is_disabled": 0, "rental_uris": {"android": "https://dc.lft.to/lastmile_qr_scan", "ios": "https://dc.lft.to/lastmile_qr_scan"}, "name": "dac3afdb5511d4fab3b97bd872aef42c", "type": "electric_scooter"}, {"fusion_lat": 0.0, "bike_id": "dda1619c8ea5226c95e557fac1a9c58e", "fusion_lon": 0.0, "lon": -77.02825833333333, "lat": 38.931442833333335, "is_reserved": 0, "is_disabled": 0, "rental_uris": {"android": "https://dc.lft.to/lastmile_qr_scan", "ios": "https://dc.lft.to/lastmile_qr_scan"}, "name": "dda1619c8ea5226c95e557fac1a9c58e", "type": "electric_scooter"}, {"fusion_lat": 0.0, "bike_id": "c04f07cffa6210009b14fe2b846b455f", "fusion_lon": 0.0, "lon": -77.08578366666667, "lat": 38.8443515, "is_reserved": 0, "is_disabled": 0, "rental_uris": {"android": "https://dc.lft.to/lastmile_qr_scan", "ios": "https://dc.lft.to/lastmile_qr_scan"}, "name": "c04f07cffa6210009b14fe2b846b455f", "type": "electric_bike"}, {"fusion_lat": 0.0, "bike_id": "fe1f723a7554441895e4294c8b3480d9", "fusion_lon": 0.0, "lon": -77.026247, "lat": 38.892226, "is_reserved": 0, "is_disabled": 0, "rental_uris": {"android": "https://dc.lft.to/lastmile_qr_scan", "ios": "https://dc.lft.to/lastmile_qr_scan"}, "name": "fe1f723a7554441895e4294c8b3480d9", "type": "electric_scooter"}, {"fusion_lat": 0.0, "bike_id": "8c5f1525e42cffc3552db6cb94fbe17a", "fusion_lon": 0.0, "lon": -76.98199266666667, "lat": 38.8995255, "is_reserved": 0, "is_disabled": 0, "rental_uris": {"android": "https://dc.lft.to/lastmile_qr_scan", "ios": "https://dc.lft.to/lastmile_qr_scan"}, "name": "8c5f1525e42cffc3552db6cb94fbe17a", "type": "electric_scooter"}, {"fusion_lat": 0.0, "bike_id": "3841adf39dcd47704f36658c6ea477f4", "fusion_lon": 0.0, "lon": -77.0269545, "lat": 38.911740333333334, "is_reserved": 0, "is_disabled": 0, "rental_uris": {"android": "https://dc.lft.to/lastmile_qr_scan", "ios": "https://dc.lft.to/lastmile_qr_scan"}, "name": "3841adf39dcd47704f36658c6ea477f4", "type": "electric_scooter"}, {"fusion_lat": 0.0, "bike_id": "65d81e8ee8b7227213b2af9c9d43ecc9", "fusion_lon": 0.0, "lon": -77.03276166666667, "lat": 38.928585166666664, "is_reserved": 0, "is_disabled": 0, "rental_uris": {"android": "https://dc.lft.to/lastmile_qr_scan", "ios": "https://dc.lft.to/lastmile_qr_scan"}, "name": "65d81e8ee8b7227213b2af9c9d43ecc9", "type": "electric_scooter"}, {"fusion_lat": 0.0, "bike_id": "b27f642ec6b7547a06aa6a68b64627eb", "fusion_lon": 0.0, "lon": -77.048792, "lat": 38.89234783333333, "is_reserved": 0, "is_disabled": 0, "rental_uris": {"android": "https://dc.lft.to/lastmile_qr_scan", "ios": "https://dc.lft.to/lastmile_qr_scan"}, "name": "b27f642ec6b7547a06aa6a68b64627eb", "type": "electric_scooter"}, {"fusion_lat": 0.0, "bike_id": "15403723a626553c7b389737543efb75", "fusion_lon": 0.0, "lon": -77.03231466666666, "lat": 38.91412733333333, "is_reserved": 0, "is_disabled": 0, "rental_uris": {"android": "https://dc.lft.to/lastmile_qr_scan", "ios": "https://dc.lft.to/lastmile_qr_scan"}, "name": "15403723a626553c7b389737543efb75", "type": "electric_scooter"}, {"fusion_lat": 0.0, "bike_id": "23fb749922d9339e871fe879fb07e620", "fusion_lon": 0.0, "lon": -77.00285566666666, "lat": 38.911828, "is_reserved": 0, "is_disabled": 0, "rental_uris": {"android": "https://dc.lft.to/lastmile_qr_scan", "ios": "https://dc.lft.to/lastmile_qr_scan"}, "name": "23fb749922d9339e871fe879fb07e620", "type": "electric_bike"}, {"fusion_lat": 0.0, "bike_id": "d492d6d1531fb086b9e6fa99b65b00df", "fusion_lon": 0.0, "lon": -77.05668166666666, "lat": 38.8954895, "is_reserved": 0, "is_disabled": 0, "rental_uris": {"android": "https://dc.lft.to/lastmile_qr_scan", "ios": "https://dc.lft.to/lastmile_qr_scan"}, "name": "d492d6d1531fb086b9e6fa99b65b00df", "type": "electric_scooter"}, {"fusion_lat": 0.0, "bike_id": "470e05897fc27d5711f045b21535a889", "fusion_lon": 0.0, "lon": -77.2258535, "lat": 38.929655333333336, "is_reserved": 0, "is_disabled": 0, "rental_uris": {"android": "https://dc.lft.to/lastmile_qr_scan", "ios": "https://dc.lft.to/lastmile_qr_scan"}, "name": "470e05897fc27d5711f045b21535a889", "type": "electric_bike"}, {"fusion_lat": 0.0, "bike_id": "a9566bfe46b1a024b0ad5aca868c4fb7", "fusion_lon": 0.0, "lon": -77.0206975, "lat": 38.927071833333336, "is_reserved": 0, "is_disabled": 0, "rental_uris": {"android": "https://dc.lft.to/lastmile_qr_scan", "ios": "https://dc.lft.to/lastmile_qr_scan"}, "name": "a9566bfe46b1a024b0ad5aca868c4fb7", "type": "electric_scooter"}, {"fusion_lat": 0.0, "bike_id": "bfab9d38791971d2972f33167c5482e5", "fusion_lon": 0.0, "lon": -77.02583883333334, "lat": 38.887407333333336, "is_reserved": 0, "is_disabled": 0, "rental_uris": {"android": "https://dc.lft.to/lastmile_qr_scan", "ios": "https://dc.lft.to/lastmile_qr_scan"}, "name": "bfab9d38791971d2972f33167c5482e5", "type": "electric_scooter"}, {"fusion_lat": 0.0, "bike_id": "2c576a666151fc748b34e6e716af3852", "fusion_lon": 0.0, "lon": -76.99484166666667, "lat": 38.8861635, "is_reserved": 0, "is_disabled": 0, "rental_uris": {"android": "https://dc.lft.to/lastmile_qr_scan", "ios": "https://dc.lft.to/lastmile_qr_scan"}, "name": "2c576a666151fc748b34e6e716af3852", "type": "electric_scooter"}, {"fusion_lat": 0.0, "bike_id": "f0ad68f324fbd48e1fea7b9169b0ad73", "fusion_lon": 0.0, "lon": -77.02379133333334, "lat": 38.9095705, "is_reserved": 0, "is_disabled": 0, "rental_uris": {"android": "https://dc.lft.to/lastmile_qr_scan", "ios": "https://dc.lft.to/lastmile_qr_scan"}, "name": "f0ad68f324fbd48e1fea7b9169b0ad73", "type": "electric_scooter"}, {"fusion_lat": 0.0, "bike_id": "a3131f17d1e4b0c6bbf592623be8db49", "fusion_lon": 0.0, "lon": -77.06103633333333, "lat": 38.905246166666664, "is_reserved": 0, "is_disabled": 0, "rental_uris": {"android": "https://dc.lft.to/lastmile_qr_scan", "ios": "https://dc.lft.to/lastmile_qr_scan"}, "name": "a3131f17d1e4b0c6bbf592623be8db49", "type": "electric_scooter"}, {"fusion_lat": 0.0, "bike_id": "cfbc59ad8bdcbe4ec583583018a1e19e", "fusion_lon": 0.0, "lon": -77.01778583333333, "lat": 38.88405483333333, "is_reserved": 0, "is_disabled": 0, "rental_uris": {"android": "https://dc.lft.to/lastmile_qr_scan", "ios": "https://dc.lft.to/lastmile_qr_scan"}, "name": "cfbc59ad8bdcbe4ec583583018a1e19e", "type": "electric_scooter"}, {"fusion_lat": 0.0, "bike_id": "35d138ebf20091326451d4a8dd3770ab", "fusion_lon": 0.0, "lon": -77.02192433333333, "lat": 38.88730533333333, "is_reserved": 0, "is_disabled": 0, "rental_uris": {"android": "https://dc.lft.to/lastmile_qr_scan", "ios": "https://dc.lft.to/lastmile_qr_scan"}, "name": "35d138ebf20091326451d4a8dd3770ab", "type": "electric_scooter"}, {"fusion_lat": 0.0, "bike_id": "febe557c80d697b94069318aeffdaf87", "fusion_lon": 0.0, "lon": -77.0258995, "lat": 38.903518, "is_reserved": 0, "is_disabled": 0, "rental_uris": {"android": "https://dc.lft.to/lastmile_qr_scan", "ios": "https://dc.lft.to/lastmile_qr_scan"}, "name": "febe557c80d697b94069318aeffdaf87", "type": "electric_scooter"}, {"fusion_lat": 0.0, "bike_id": "65691147f2d84a62edc3fec83d255b8a", "fusion_lon": 0.0, "lon": -77.03214683333333, "lat": 38.892426, "is_reserved": 0, "is_disabled": 0, "rental_uris": {"android": "https://dc.lft.to/lastmile_qr_scan", "ios": "https://dc.lft.to/lastmile_qr_scan"}, "name": "65691147f2d84a62edc3fec83d255b8a", "type": "electric_scooter"}, {"fusion_lat": 0.0, "bike_id": "4cbd8a1ba00f76684429401dec37e18b", "fusion_lon": 0.0, "lon": -77.041848, "lat": 38.9053825, "is_reserved": 0, "is_disabled": 0, "rental_uris": {"android": "https://dc.lft.to/lastmile_qr_scan", "ios": "https://dc.lft.to/lastmile_qr_scan"}, "name": "4cbd8a1ba00f76684429401dec37e18b", "type": "electric_scooter"}, {"fusion_lat": 0.0, "bike_id": "870f2bb373019c566b27e24be397fa57", "fusion_lon": 0.0, "lon": -77.11593866666666, "lat": 39.07497166666667, "is_reserved": 0, "is_disabled": 0, "rental_uris": {"android": "https://dc.lft.to/lastmile_qr_scan", "ios": "https://dc.lft.to/lastmile_qr_scan"}, "name": "870f2bb373019c566b27e24be397fa57", "type": "electric_bike"}, {"fusion_lat": 0.0, "bike_id": "8bd4f077b2c391373b87c4528740b849", "fusion_lon": 0.0, "lon": -76.969092, "lat": 38.846141833333334, "is_reserved": 0, "is_disabled": 0, "rental_uris": {"android": "https://dc.lft.to/lastmile_qr_scan", "ios": "https://dc.lft.to/lastmile_qr_scan"}, "name": "8bd4f077b2c391373b87c4528740b849", "type": "electric_bike"}, {"fusion_lat": 0.0, "bike_id": "53279961cd23ae69bdc0469edfa1471e", "fusion_lon": 0.0, "lon": -77.00069433333333, "lat": 38.901535333333335, "is_reserved": 0, "is_disabled": 0, "rental_uris": {"android": "https://dc.lft.to/lastmile_qr_scan", "ios": "https://dc.lft.to/lastmile_qr_scan"}, "name": "53279961cd23ae69bdc0469edfa1471e", "type": "electric_bike"}, {"fusion_lat": 0.0, "bike_id": "2427a52b609e93d22cf43721f20940ef", "fusion_lon": 0.0, "lon": -77.0312065, "lat": 38.912715666666664, "is_reserved": 0, "is_disabled": 0, "rental_uris": {"android": "https://dc.lft.to/lastmile_qr_scan", "ios": "https://dc.lft.to/lastmile_qr_scan"}, "name": "2427a52b609e93d22cf43721f20940ef", "type": "electric_scooter"}, {"fusion_lat": 0.0, "bike_id": "9104760330ac46d15a7412f7d61ca6dc", "fusion_lon": 0.0, "lon": -77.017632, "lat": 38.87673133333333, "is_reserved": 0, "is_disabled": 0, "rental_uris": {"android": "https://dc.lft.to/lastmile_qr_scan", "ios": "https://dc.lft.to/lastmile_qr_scan"}, "name": "9104760330ac46d15a7412f7d61ca6dc", "type": "electric_scooter"}, {"fusion_lat": 0.0, "bike_id": "a941e2f18889896b9edf717b97b3a83c", "fusion_lon": 0.0, "lon": -76.99546016666666, "lat": 38.92669583333333, "is_reserved": 0, "is_disabled": 0, "rental_uris": {"android": "https://dc.lft.to/lastmile_qr_scan", "ios": "https://dc.lft.to/lastmile_qr_scan"}, "name": "a941e2f18889896b9edf717b97b3a83c", "type": "electric_scooter"}, {"fusion_lat": 0.0, "bike_id": "4cc908fbf929c0e3e4730eabc14300ea", "fusion_lon": 0.0, "lon": -77.04691316666667, "lat": 38.892232, "is_reserved": 0, "is_disabled": 0, "rental_uris": {"android": "https://dc.lft.to/lastmile_qr_scan", "ios": "https://dc.lft.to/lastmile_qr_scan"}, "name": "4cc908fbf929c0e3e4730eabc14300ea", "type": "electric_scooter"}, {"fusion_lat": 0.0, "bike_id": "8e816834cf7f3bcc44cb7611a35ec2d2", "fusion_lon": 0.0, "lon": -77.0298325, "lat": 38.916383833333335, "is_reserved": 0, "is_disabled": 0, "rental_uris": {"android": "https://dc.lft.to/lastmile_qr_scan", "ios": "https://dc.lft.to/lastmile_qr_scan"}, "name": "8e816834cf7f3bcc44cb7611a35ec2d2", "type": "electric_scooter"}, {"fusion_lat": 0.0, "bike_id": "31ad15ef620c092986f788f362f28980", "fusion_lon": 0.0, "lon": -77.02707, "lat": 38.9204005, "is_reserved": 0, "is_disabled": 0, "rental_uris": {"android": "https://dc.lft.to/lastmile_qr_scan", "ios": "https://dc.lft.to/lastmile_qr_scan"}, "name": "31ad15ef620c092986f788f362f28980", "type": "electric_scooter"}, {"fusion_lat": 0.0, "bike_id": "78bbc2bde1d5baff1911606640342d33", "fusion_lon": 0.0, "lon": -76.99031716666667, "lat": 38.8640335, "is_reserved": 0, "is_disabled": 0, "rental_uris": {"android": "https://dc.lft.to/lastmile_qr_scan", "ios": "https://dc.lft.to/lastmile_qr_scan"}, "name": "78bbc2bde1d5baff1911606640342d33", "type": "electric_scooter"}, {"fusion_lat": 0.0, "bike_id": "7dbb428df53300829df1c875675cc115", "fusion_lon": 0.0, "lon": -76.99881833333333, "lat": 38.920616833333334, "is_reserved": 0, "is_disabled": 0, "rental_uris": {"android": "https://dc.lft.to/lastmile_qr_scan", "ios": "https://dc.lft.to/lastmile_qr_scan"}, "name": "7dbb428df53300829df1c875675cc115", "type": "electric_scooter"}, {"fusion_lat": 0.0, "bike_id": "4bdd2667932a01e831fcec08329bb403", "fusion_lon": 0.0, "lon": -77.02654866666667, "lat": 38.938675833333335, "is_reserved": 0, "is_disabled": 0, "rental_uris": {"android": "https://dc.lft.to/lastmile_qr_scan", "ios": "https://dc.lft.to/lastmile_qr_scan"}, "name": "4bdd2667932a01e831fcec08329bb403", "type": "electric_scooter"}, {"fusion_lat": 0.0, "bike_id": "012b42637f2f321b483d16ce304c4d9c", "fusion_lon": 0.0, "lon": -77.04378316666667, "lat": 38.92069683333333, "is_reserved": 0, "is_disabled": 0, "rental_uris": {"android": "https://dc.lft.to/lastmile_qr_scan", "ios": "https://dc.lft.to/lastmile_qr_scan"}, "name": "012b42637f2f321b483d16ce304c4d9c", "type": "electric_scooter"}, {"fusion_lat": 0.0, "bike_id": "ce6232229844fef2e8ee238b17ac4ee6", "fusion_lon": 0.0, "lon": -76.99354333333333, "lat": 38.8450845, "is_reserved": 0, "is_disabled": 0, "rental_uris": {"android": "https://dc.lft.to/lastmile_qr_scan", "ios": "https://dc.lft.to/lastmile_qr_scan"}, "name": "ce6232229844fef2e8ee238b17ac4ee6", "type": "electric_bike"}, {"fusion_lat": 0.0, "bike_id": "e10090391796f64145e71cadd48c44ec", "fusion_lon": 0.0, "lon": -77.02152533333333, "lat": 38.916234333333335, "is_reserved": 0, "is_disabled": 0, "rental_uris": {"android": "https://dc.lft.to/lastmile_qr_scan", "ios": "https://dc.lft.to/lastmile_qr_scan"}, "name": "e10090391796f64145e71cadd48c44ec", "type": "electric_scooter"}, {"fusion_lat": 0.0, "bike_id": "42c40a68d2de555716488a9eea24e62b", "fusion_lon": 0.0, "lon": -77.03208316666667, "lat": 38.915000666666664, "is_reserved": 0, "is_disabled": 0, "rental_uris": {"android": "https://dc.lft.to/lastmile_qr_scan", "ios": "https://dc.lft.to/lastmile_qr_scan"}, "name": "42c40a68d2de555716488a9eea24e62b", "type": "electric_scooter"}, {"fusion_lat": 0.0, "bike_id": "3ad1b9276a6ec19c03c900bc8c7c9934", "fusion_lon": 0.0, "lon": -76.98363883333333, "lat": 38.915653166666665, "is_reserved": 0, "is_disabled": 0, "rental_uris": {"android": "https://dc.lft.to/lastmile_qr_scan", "ios": "https://dc.lft.to/lastmile_qr_scan"}, "name": "3ad1b9276a6ec19c03c900bc8c7c9934", "type": "electric_scooter"}, {"fusion_lat": 0.0, "bike_id": "150c3e5ee0dca447e498bf9771d8710f", "fusion_lon": 0.0, "lon": -77.03112933333334, "lat": 38.9156315, "is_reserved": 0, "is_disabled": 0, "rental_uris": {"android": "https://dc.lft.to/lastmile_qr_scan", "ios": "https://dc.lft.to/lastmile_qr_scan"}, "name": "150c3e5ee0dca447e498bf9771d8710f", "type": "electric_scooter"}, {"fusion_lat": 0.0, "bike_id": "2d31cdebc4ba1109e23ab6fa01720295", "fusion_lon": 0.0, "lon": -77.04484933333333, "lat": 38.913631333333335, "is_reserved": 0, "is_disabled": 0, "rental_uris": {"android": "https://dc.lft.to/lastmile_qr_scan", "ios": "https://dc.lft.to/lastmile_qr_scan"}, "name": "2d31cdebc4ba1109e23ab6fa01720295", "type": "electric_bike"}, {"fusion_lat": 0.0, "bike_id": "0cb45773e914a352d9d0662f3e7c9211", "fusion_lon": 0.0, "lon": -77.05898483333333, "lat": 38.90305766666667, "is_reserved": 0, "is_disabled": 0, "rental_uris": {"android": "https://dc.lft.to/lastmile_qr_scan", "ios": "https://dc.lft.to/lastmile_qr_scan"}, "name": "0cb45773e914a352d9d0662f3e7c9211", "type": "electric_scooter"}, {"fusion_lat": 0.0, "bike_id": "d34659f1e2e98673181824b8d593f638", "fusion_lon": 0.0, "lon": -77.03215883333333, "lat": 38.9184725, "is_reserved": 0, "is_disabled": 0, "rental_uris": {"android": "https://dc.lft.to/lastmile_qr_scan", "ios": "https://dc.lft.to/lastmile_qr_scan"}, "name": "d34659f1e2e98673181824b8d593f638", "type": "electric_scooter"}, {"fusion_lat": 0.0, "bike_id": "f823e6fdfcaeca0895f53a41cafe6abd", "fusion_lon": 0.0, "lon": -77.011051, "lat": 38.89481033333333, "is_reserved": 0, "is_disabled": 0, "rental_uris": {"android": "https://dc.lft.to/lastmile_qr_scan", "ios": "https://dc.lft.to/lastmile_qr_scan"}, "name": "f823e6fdfcaeca0895f53a41cafe6abd", "type": "electric_scooter"}, {"fusion_lat": 0.0, "bike_id": "3707b8d6a7bc76c94b98806ff95a69f0", "fusion_lon": 0.0, "lon": -77.038441, "lat": 38.903983833333335, "is_reserved": 0, "is_disabled": 0, "rental_uris": {"android": "https://dc.lft.to/lastmile_qr_scan", "ios": "https://dc.lft.to/lastmile_qr_scan"}, "name": "3707b8d6a7bc76c94b98806ff95a69f0", "type": "electric_scooter"}, {"fusion_lat": 0.0, "bike_id": "b2ee3ef6de3b275de9d416783ca80115", "fusion_lon": 0.0, "lon": -76.9782365, "lat": 38.84366833333333, "is_reserved": 0, "is_disabled": 0, "rental_uris": {"android": "https://dc.lft.to/lastmile_qr_scan", "ios": "https://dc.lft.to/lastmile_qr_scan"}, "name": "b2ee3ef6de3b275de9d416783ca80115", "type": "electric_bike"}, {"fusion_lat": 0.0, "bike_id": "931d0caf311b746c1a2b1b8b6a673f29", "fusion_lon": 0.0, "lon": -77.08334366666666, "lat": 38.854434499999996, "is_reserved": 0, "is_disabled": 0, "rental_uris": {"android": "https://dc.lft.to/lastmile_qr_scan", "ios": "https://dc.lft.to/lastmile_qr_scan"}, "name": "931d0caf311b746c1a2b1b8b6a673f29", "type": "electric_bike"}, {"fusion_lat": 0.0, "bike_id": "ebb1d8a80978dbd6f9cf71a68855f700", "fusion_lon": 0.0, "lon": -77.04558916666667, "lat": 38.896141166666666, "is_reserved": 0, "is_disabled": 0, "rental_uris": {"android": "https://dc.lft.to/lastmile_qr_scan", "ios": "https://dc.lft.to/lastmile_qr_scan"}, "name": "ebb1d8a80978dbd6f9cf71a68855f700", "type": "electric_scooter"}, {"fusion_lat": 0.0, "bike_id": "f39bb36ce0965e31dbbb7457c7a1c2e4", "fusion_lon": 0.0, "lon": -77.032484, "lat": 38.9199595, "is_reserved": 0, "is_disabled": 0, "rental_uris": {"android": "https://dc.lft.to/lastmile_qr_scan", "ios": "https://dc.lft.to/lastmile_qr_scan"}, "name": "f39bb36ce0965e31dbbb7457c7a1c2e4", "type": "electric_scooter"}, {"fusion_lat": 0.0, "bike_id": "9f49bc2e024fccebfefbc319922be0b5", "fusion_lon": 0.0, "lon": -77.03587633333333, "lat": 38.9922485, "is_reserved": 0, "is_disabled": 0, "rental_uris": {"android": "https://dc.lft.to/lastmile_qr_scan", "ios": "https://dc.lft.to/lastmile_qr_scan"}, "name": "9f49bc2e024fccebfefbc319922be0b5", "type": "electric_scooter"}, {"fusion_lat": 0.0, "bike_id": "96402876b2ee2408ad24e273f3b789ad", "fusion_lon": 0.0, "lon": -77.03211983333334, "lat": 38.917516666666664, "is_reserved": 0, "is_disabled": 0, "rental_uris": {"android": "https://dc.lft.to/lastmile_qr_scan", "ios": "https://dc.lft.to/lastmile_qr_scan"}, "name": "96402876b2ee2408ad24e273f3b789ad", "type": "electric_scooter"}, {"fusion_lat": 0.0, "bike_id": "dfccf907d979197444e75bf2c0244115", "fusion_lon": 0.0, "lon": -77.00615033333334, "lat": 38.8948075, "is_reserved": 0, "is_disabled": 0, "rental_uris": {"android": "https://dc.lft.to/lastmile_qr_scan", "ios": "https://dc.lft.to/lastmile_qr_scan"}, "name": "dfccf907d979197444e75bf2c0244115", "type": "electric_scooter"}, {"fusion_lat": 0.0, "bike_id": "5daaa40c2703e424abe0280b31bdda6c", "fusion_lon": 0.0, "lon": -77.03142266666667, "lat": 38.92038483333333, "is_reserved": 0, "is_disabled": 0, "rental_uris": {"android": "https://dc.lft.to/lastmile_qr_scan", "ios": "https://dc.lft.to/lastmile_qr_scan"}, "name": "5daaa40c2703e424abe0280b31bdda6c", "type": "electric_scooter"},