{"data": {"bikes": [{"is_reserved": 0, "type": "electric_scooter", "bike_id": "d5c97170123d4ad44c8eed842ff819dd", "lat": 38.911213333333336, "lon": -77.04503033333333, "rental_uris": {"android": "https://dc.lft.to/lastmile_qr_scan", "ios": "https://dc.lft.to/lastmile_qr_scan"}, "is_disabled": 0, "fusion_lat": 0.0, "name": "d5c97170123d4ad44c8eed842ff819dd", "fusion_lon": 0.0}, {"is_reserved": 0, "type": "electric_scooter", "bike_id": "49455a84bad3076261ae8cbf00590cd2", "lat": 38.946975333333334, "lon": -77.07453016666666, "rental_uris": {"android": "https://dc.lft.to/lastmile_qr_scan", "ios": "https://dc.lft.to/lastmile_qr_scan"}, "is_disabled": 0, "fusion_lat": 0.0, "name": "49455a84bad3076261ae8cbf00590cd2", "fusion_lon": 0.0}, {"is_reserved": 0, "type": "electric_scooter", "bike_id": "141e305a4c5c5e4fdae36cdcbb484ce3", "lat": 38.896100833333335, "lon": -77.0467845, "rental_uris": {"android": "https://dc.lft.to/lastmile_qr_scan", "ios": "https://dc.lft.to/lastmile_qr_scan"}, "is_disabled": 0, "fusion_lat": 0.0, "name": "141e305a4c5c5e4fdae36cdcbb484ce3", "fusion_lon": 0.0}, {"is_reserved": 0, "type": "electric_scooter", "bike_id": "7dd4835337ace177edfaaae25d4fa938", "lat": 38.925773666666664, "lon": -76.99491066666667, "rental_uris": {"android": "https://dc.lft.to/lastmile_qr_scan", "ios": "https://dc.lft.to/lastmile_qr_scan"}, "is_disabled": 0, "fusion_lat": 0.0, "name": "7dd4835337ace177edfaaae25d4fa938", "fusion_lon": 0.0}, {"is_reserved": 0, "type": "electric_scooter", "bike_id": "80abc03ed370807fa0fdd24e30de0798", "lat": 38.91131333333333, "lon": -77.04416266666667, "rental_uris": {"android": "https://dc.lft.to/lastmile_qr_scan", "ios": "https://dc.lft.to/lastmile_qr_scan"}, "is_disabled": 0, "fusion_lat": 0.0, "name": "80abc03ed370807fa0fdd24e30de0798", "fusion_lon": 0.0}, {"is_reserved": 0, "type": "electric_scooter", "bike_id": "bde48500c52965d2b4e608f80c010eab", "lat": 38.8975515, "lon": -77.00193933333334, "rental_uris": {"android": "https://dc.lft.to/lastmile_qr_scan", "ios": "https://dc.lft.to/lastmile_qr_scan"}, "is_disabled": 0, "fusion_lat": 0.0, "name": "bde48500c52965d2b4e608f80c010eab", "fusion_lon": 0.0}, {"is_reserved": 0, "type": "electric_scooter", "bike_id": "34eea41f1ee18e35262a90626e38ca5d", "lat": 38.89923983333333, "lon": -76.97833483333334, "rental_uris": {"android": "https://dc.lft.to/lastmile_qr_scan", "ios": "https://dc.lft.to/lastmile_qr_scan"}, "is_disabled": 0, "fusion_lat": 0.0, "name": "34eea41f1ee18e35262a90626e38ca5d", "fusion_lon": 0.0}, {"is_reserved": 0, "type": "electric_scooter", "bike_id": "2782fd9c24d15d0911edccfba60f01e9", "lat": 38.8922295, "lon": -77.02221433333334, "rental_uris": {"android": "https://dc.lft.to/lastmile_qr_scan", "ios": "https://dc.lft.to/lastmile_qr_scan"}, "is_disabled": 0, "fusion_lat": 0.0, "name": "2782fd9c24d15d0911edccfba60f01e9", "fusion_lon": 0.0}, {"is_reserved": 0, "type": "electric_scooter", "bike_id": "5d3e1185028f25b2ca54fa0a20a0ec4a", "lat": 38.89848633333333, "lon": -77.0286275, "rental_uris": {"android": "https://dc.lft.to/lastmile_qr_scan", "ios": "https://dc.lft.to/lastmile_qr_scan"}, "is_disabled": 0, "fusion_lat": 0.0, "name": "5d3e1185028f25b2ca54fa0a20a0ec4a", "fusion_lon": 0.0}, {"is_reserved": 0, "type": "electric_scooter", "bike_id": "dc38c42a3651a0e0a13ca74f2e6882de", "lat": 38.91710783333333, "lon": -77.038691, "rental_uris": {"android": "https://dc.lft.to/lastmile_qr_scan", "ios": "https://dc.lft.to/lastmile_qr_scan"}, "is_disabled": 0, "fusion_lat": 0.0, "name": "dc38c42a3651a0e0a13ca74f2e6882de", "fusion_lon": 0.0}, {"is_reserved": 0, "type": "electric_scooter", "bike_id": "04c56623e4087b9133c539a7041c1244", "lat": 38.92227033333333, "lon": -77.01826383333334, "rental_uris": {"android": "https://dc.lft.to/lastmile_qr_scan", "ios": "https://dc.lft.to/lastmile_qr_scan"}, "is_disabled": 0, "fusion_lat": 0.0, "name": "04c56623e4087b9133c539a7041c1244", "fusion_lon": 0.0}, {"is_reserved": 0, "type": "electric_scooter", "bike_id": "e837d515b1505aa8f6fff7951fc2b32f", "lat": 38.87943416666667, "lon": -77.016658, "rental_uris": {"android": "https://dc.lft.to/lastmile_qr_scan", "ios": "https://dc.lft.to/lastmile_qr_scan"}, "is_disabled": 0, "fusion_lat": 0.0, "name": "e837d515b1505aa8f6fff7951fc2b32f", "fusion_lon": 0.0}, {"is_reserved": 0, "type": "electric_scooter", "bike_id": "6053155664bd028521227a80c58d42ec", "lat": 38.928044, "lon": -77.0406495, "rental_uris": {"android": "https://dc.lft.to/lastmile_qr_scan", "ios": "https://dc.lft.to/lastmile_qr_scan"}, "is_disabled": 0, "fusion_lat": 0.0, "name": "6053155664bd028521227a80c58d42ec", "fusion_lon": 0.0}, {"is_reserved": 0, "type": "electric_scooter", "bike_id": "5cc016ee79dbfe149c2d762c79d087da", "lat": 38.907817, "lon": -77.0354165, "rental_uris": {"android": "https://dc.lft.to/lastmile_qr_scan", "ios": "https://dc.lft.to/lastmile_qr_scan"}, "is_disabled": 0, "fusion_lat": 0.0, "name": "5cc016ee79dbfe149c2d762c79d087da", "fusion_lon": 0.0}, {"is_reserved": 0, "type": "electric_scooter", "bike_id": "3c33b0e31c14996bdc78b3b300b46ce9", "lat": 38.956308, "lon": -77.03560683333333, "rental_uris": {"android": "https://dc.lft.to/lastmile_qr_scan", "ios": "https://dc.lft.to/lastmile_qr_scan"}, "is_disabled": 0, "fusion_lat": 0.0, "name": "3c33b0e31c14996bdc78b3b300b46ce9", "fusion_lon": 0.0}, {"is_reserved": 0, "type": "electric_scooter", "bike_id": "b28b0d7cc76fc53d99a2a0afaf292738", "lat": 38.9075815, "lon": -76.99873533333333, "rental_uris": {"android": "https://dc.lft.to/lastmile_qr_scan", "ios": "https://dc.lft.to/lastmile_qr_scan"}, "is_disabled": 0, "fusion_lat": 0.0, "name": "b28b0d7cc76fc53d99a2a0afaf292738", "fusion_lon": 0.0}, {"is_reserved": 0, "type": "electric_bike", "bike_id": "845f58d2bc033bbf78ff04ffed3987d8", "lat": 38.99035683333334, "lon": -77.02545783333333, "rental_uris": {"android": "https://dc.lft.to/lastmile_qr_scan", "ios": "https://dc.lft.to/lastmile_qr_scan"}, "is_disabled": 0, "fusion_lat": 0.0, "name": "845f58d2bc033bbf78ff04ffed3987d8", "fusion_lon": 0.0}, {"is_reserved": 0, "type": "electric_scooter", "bike_id": "db3610585c459bd540a135c9fcdccfb4", "lat": 38.918208666666665, "lon": -77.039626, "rental_uris": {"android": "https://dc.lft.to/lastmile_qr_scan", "ios": "https://dc.lft.to/lastmile_qr_scan"}, "is_disabled": 0, "fusion_lat": 0.0, "name": "db3610585c459bd540a135c9fcdccfb4", "fusion_lon": 0.0}, {"is_reserved": 0, "type": "electric_scooter", "bike_id": "1962b52d402e5869280b1665d8b9c4a8", "lat": 38.90753133333333, "lon": -77.0076065, "rental_uris": {"android": "https://dc.lft.to/lastmile_qr_scan", "ios": "https://dc.lft.to/lastmile_qr_scan"}, "is_disabled": 0, "fusion_lat": 0.0, "name": "1962b52d402e5869280b1665d8b9c4a8", "fusion_lon": 0.0}, {"is_reserved": 0, "type": "electric_scooter", "bike_id": "1e24fb1d8e1bfd8dd2e552579c630e42", "lat": 38.899247333333335, "lon": -77.03374516666666, "rental_uris": {"android": "https://dc.lft.to/lastmile_qr_scan", "ios": "https://dc.lft.to/lastmile_qr_scan"}, "is_disabled": 0, "fusion_lat": 0.0, "name": "1e24fb1d8e1bfd8dd2e552579c630e42", "fusion_lon": 0.0}, {"is_reserved": 0, "type": "electric_scooter", "bike_id": "e926b040963c656d9862cbce384d72b9", "lat": 38.93527916666667, "lon": -77.0285045, "rental_uris": {"android": "https://dc.lft.to/lastmile_qr_scan", "ios": "https://dc.lft.to/lastmile_qr_scan"}, "is_disabled": 0, "fusion_lat": 0.0, "name": "e926b040963c656d9862cbce384d72b9", "fusion_lon": 0.0}, {"is_reserved": 0, "type": "electric_scooter", "bike_id": "f48af32963b439f11a1308d0b88a2ec0", "lat": 38.9234365, "lon": -77.03493616666667, "rental_uris": {"android": "https://dc.lft.to/lastmile_qr_scan", "ios": "https://dc.lft.to/lastmile_qr_scan"}, "is_disabled": 0, "fusion_lat": 0.0, "name": "f48af32963b439f11a1308d0b88a2ec0", "fusion_lon": 0.0}, {"is_reserved": 0, "type": "electric_scooter", "bike_id": "d900e343239db929749783832b24bf94", "lat": 38.92151333333333, "lon": -77.038664, "rental_uris": {"android": "https://dc.lft.to/lastmile_qr_scan", "ios": "https://dc.lft.to/lastmile_qr_scan"}, "is_disabled": 0, "fusion_lat": 0.0, "name": "d900e343239db929749783832b24bf94", "fusion_lon": 0.0}, {"is_reserved": 0, "type": "electric_scooter", "bike_id": "8b01ff77df6be0c19bbf422ea4bb3d21", "lat": 38.905653666666666, "lon": -77.00589416666666, "rental_uris": {"android": "https://dc.lft.to/lastmile_qr_scan", "ios": "https://dc.lft.to/lastmile_qr_scan"}, "is_disabled": 0, "fusion_lat": 0.0, "name": "8b01ff77df6be0c19bbf422ea4bb3d21", "fusion_lon": 0.0}, {"is_reserved": 0, "type": "electric_scooter", "bike_id": "db0a1daed0d44e6542b951ec902706db", "lat": 38.900525333333334, "lon": -76.99854166666667, "rental_uris": {"android": "https://dc.lft.to/lastmile_qr_scan", "ios": "https://dc.lft.to/lastmile_qr_scan"}, "is_disabled": 0, "fusion_lat": 0.0, "name": "db0a1daed0d44e6542b951ec902706db", "fusion_lon": 0.0}, {"is_reserved": 0, "type": "electric_scooter", "bike_id": "7f252c7a231be75e0179a63036e925b5", "lat": 38.89995283333333, "lon": -77.0229445, "rental_uris": {"android": "https://dc.lft.to/lastmile_qr_scan", "ios": "https://dc.lft.to/lastmile_qr_scan"}, "is_disabled": 0, "fusion_lat": 0.0, "name": "7f252c7a231be75e0179a63036e925b5", "fusion_lon": 0.0}, {"is_reserved": 0, "type": "electric_scooter", "bike_id": "013de117ec4182532f08fe7736e3fd51", "lat": 38.885251333333336, "lon": -77.02168016666667, "rental_uris": {"android": "https://dc.lft.to/lastmile_qr_scan", "ios": "https://dc.lft.to/lastmile_qr_scan"}, "is_disabled": 0, "fusion_lat": 0.0, "name": "013de117ec4182532f08fe7736e3fd51", "fusion_lon": 0.0}, {"is_reserved": 0, "type": "electric_scooter", "bike_id": "fa4ee00dfab70662183028485c772d66", "lat": 38.894857, "lon": -77.05000066666666, "rental_uris": {"android": "https://dc.lft.to/lastmile_qr_scan", "ios": "https://dc.lft.to/lastmile_qr_scan"}, "is_disabled": 0, "fusion_lat": 0.0, "name": "fa4ee00dfab70662183028485c772d66", "fusion_lon": 0.0}, {"is_reserved": 0, "type": "electric_scooter", "bike_id": "9214f52cdb790f5c3e8a34f22fde40cb", "lat": 38.925831, "lon": -77.0294205, "rental_uris": {"android": "https://dc.lft.to/lastmile_qr_scan", "ios": "https://dc.lft.to/lastmile_qr_scan"}, "is_disabled": 0, "fusion_lat": 0.0, "name": "9214f52cdb790f5c3e8a34f22fde40cb", "fusion_lon": 0.0}, {"is_reserved": 0, "type": "electric_scooter", "bike_id": "fec7897511ff9166fcc1ac0fe2c9de58", "lat": 38.89234483333333, "lon": -77.03203616666667, "rental_uris": {"android": "https://dc.lft.to/lastmile_qr_scan", "ios": "https://dc.lft.to/lastmile_qr_scan"}, "is_disabled": 0, "fusion_lat": 0.0, "name": "fec7897511ff9166fcc1ac0fe2c9de58", "fusion_lon": 0.0}, {"is_reserved": 0, "type": "electric_scooter", "bike_id": "0565f73f045cec64343a3a4bc1dfa451", "lat": 38.91629416666667, "lon": -77.00760266666667, "rental_uris": {"android": "https://dc.lft.to/lastmile_qr_scan", "ios": "https://dc.lft.to/lastmile_qr_scan"}, "is_disabled": 0, "fusion_lat": 0.0, "name": "0565f73f045cec64343a3a4bc1dfa451", "fusion_lon": 0.0}, {"is_reserved": 0, "type": "electric_scooter", "bike_id": "b7a1cf302ca216a3442f7d6b51256b7e", "lat": 38.91661883333333, "lon": -77.038569, "rental_uris": {"android": "https://dc.lft.to/lastmile_qr_scan", "ios": "https://dc.lft.to/lastmile_qr_scan"}, "is_disabled": 0, "fusion_lat": 0.0, "name": "b7a1cf302ca216a3442f7d6b51256b7e", "fusion_lon": 0.0}, {"is_reserved": 0, "type": "electric_bike", "bike_id": "9044c64eaa057b2205d65a937b05f243", "lat": 38.902379, "lon": -77.05907183333333, "rental_uris": {"android": "https://dc.lft.to/lastmile_qr_scan", "ios": "https://dc.lft.to/lastmile_qr_scan"}, "is_disabled": 0, "fusion_lat": 0.0, "name": "9044c64eaa057b2205d65a937b05f243", "fusion_lon": 0.0}, {"is_reserved": 0, "type": "electric_scooter", "bike_id": "0be9a6d28eee3844fb9811f97483f5c4", "lat": 38.900295, "lon": -76.98857866666667, "rental_uris": {"android": "https://dc.lft.to/lastmile_qr_scan", "ios": "https://dc.lft.to/lastmile_qr_scan"}, "is_disabled": 0, "fusion_lat": 0.0, "name": "0be9a6d28eee3844fb9811f97483f5c4", "fusion_lon": 0.0}, {"is_reserved": 0, "type": "electric_scooter", "bike_id": "364011a9bbbe2ba8d774812b65ca4fee", "lat": 38.901433833333336, "lon": -77.05120866666667, "rental_uris": {"android": "https://dc.lft.to/lastmile_qr_scan", "ios": "https://dc.lft.to/lastmile_qr_scan"}, "is_disabled": 0, "fusion_lat": 0.0, "name": "364011a9bbbe2ba8d774812b65ca4fee", "fusion_lon": 0.0}, {"is_reserved": 0, "type": "electric_scooter", "bike_id": "f6bf9e15be22577631d6ce6326a244e7", "lat": 38.907265333333335, "lon": -77.0254495, "rental_uris": {"android": "https://dc.lft.to/lastmile_qr_scan", "ios": "https://dc.lft.to/lastmile_qr_scan"}, "is_disabled": 0, "fusion_lat": 0.0, "name": "f6bf9e15be22577631d6ce6326a244e7", "fusion_lon": 0.0}, {"is_reserved": 0, "type": "electric_scooter", "bike_id": "7d836df2e365b5cfbc1bd757c9ab0228", "lat": 38.9039845, "lon": -77.02735933333334, "rental_uris": {"android": "https://dc.lft.to/lastmile_qr_scan", "ios": "https://dc.lft.to/lastmile_qr_scan"}, "is_disabled": 0, "fusion_lat": 0.0, "name": "7d836df2e365b5cfbc1bd757c9ab0228", "fusion_lon": 0.0}, {"is_reserved": 0, "type": "electric_bike", "bike_id": "b88805bc4bc488395ecfc377312c3e75", "lat": 38.889336666666665, "lon": -76.91325283333333, "rental_uris": {"android": "https://dc.lft.to/lastmile_qr_scan", "ios": "https://dc.lft.to/lastmile_qr_scan"}, "is_disabled": 0, "fusion_lat": 0.0, "name": "b88805bc4bc488395ecfc377312c3e75", "fusion_lon": 0.0}, {"is_reserved": 0, "type": "electric_scooter", "bike_id": "07e9d0350cc880d4f2621321f0d9b1a0", "lat": 38.92156283333333, "lon": -77.03383883333333, "rental_uris": {"android": "https://dc.lft.to/lastmile_qr_scan", "ios": "https://dc.lft.to/lastmile_qr_scan"}, "is_disabled": 0, "fusion_lat": 0.0, "name": "07e9d0350cc880d4f2621321f0d9b1a0", "fusion_lon": 0.0}, {"is_reserved": 0, "type": "electric_scooter", "bike_id": "819d9f12031300c9f6155d6f61c79cc2", "lat": 38.854604, "lon": -76.97243233333333, "rental_uris": {"android": "https://dc.lft.to/lastmile_qr_scan", "ios": "https://dc.lft.to/lastmile_qr_scan"}, "is_disabled": 0, "fusion_lat": 0.0, "name": "819d9f12031300c9f6155d6f61c79cc2", "fusion_lon": 0.0}, {"is_reserved": 0, "type": "electric_scooter", "bike_id": "18c1e5e50590e026e44d53880590de1c", "lat": 38.927473, "lon": -77.022916, "rental_uris": {"android": "https://dc.lft.to/lastmile_qr_scan", "ios": "https://dc.lft.to/lastmile_qr_scan"}, "is_disabled": 0, "fusion_lat": 0.0, "name": "18c1e5e50590e026e44d53880590de1c", "fusion_lon": 0.0}, {"is_reserved": 0, "type": "electric_scooter", "bike_id": "202486469c9cee79211cd64cf2979152", "lat": 38.907213666666664, "lon": -77.0461285, "rental_uris": {"android": "https://dc.lft.to/lastmile_qr_scan", "ios": "https://dc.lft.to/lastmile_qr_scan"}, "is_disabled": 0, "fusion_lat": 0.0, "name": "202486469c9cee79211cd64cf2979152", "fusion_lon": 0.0}, {"is_reserved": 0, "type": "electric_scooter", "bike_id": "62cf15704b918fedec8716b6a12b9f83", "lat": 38.907860666666664, "lon": -76.99978566666667, "rental_uris": {"android": "https://dc.lft.to/lastmile_qr_scan", "ios": "https://dc.lft.to/lastmile_qr_scan"}, "is_disabled": 0, "fusion_lat": 0.0, "name": "62cf15704b918fedec8716b6a12b9f83", "fusion_lon": 0.0}, {"is_reserved": 0, "type": "electric_scooter", "bike_id": "bb137bc9a7810b98a5bc2a1eee8e0976", "lat": 38.8961795, "lon": -76.97683533333333, "rental_uris": {"android": "https://dc.lft.to/lastmile_qr_scan", "ios": "https://dc.lft.to/lastmile_qr_scan"}, "is_disabled": 0, "fusion_lat": 0.0, "name": "bb137bc9a7810b98a5bc2a1eee8e0976", "fusion_lon": 0.0}, {"is_reserved": 0, "type": "electric_scooter", "bike_id": "1fb1a418b882c35ef36af87cf4821f76", "lat": 38.92859833333333, "lon": -77.0330175, "rental_uris": {"android": "https://dc.lft.to/lastmile_qr_scan", "ios": "https://dc.lft.to/lastmile_qr_scan"}, "is_disabled": 0, "fusion_lat": 0.0, "name": "1fb1a418b882c35ef36af87cf4821f76", "fusion_lon": 0.0}, {"is_reserved": 0, "type": "electric_scooter", "bike_id": "3c16a14f4f580be80530e225faa96085", "lat": 38.88740583333333, "lon": -77.01528466666667, "rental_uris": {"android": "https://dc.lft.to/lastmile_qr_scan", "ios": "https://dc.lft.to/lastmile_qr_scan"}, "is_disabled": 0, "fusion_lat": 0.0, "name": "3c16a14f4f580be80530e225faa96085", "fusion_lon": 0.0}, {"is_reserved": 0, "type": "electric_scooter", "bike_id": "ab222220329cf964c9fa2aac03d2ea53", "lat": 38.92666416666667, "lon": -77.01467516666666, "rental_uris": {"android": "https://dc.lft.to/lastmile_qr_scan", "ios": "https://dc.lft.to/lastmile_qr_scan"}, "is_disabled": 0, "fusion_lat": 0.0, "name": "ab222220329cf964c9fa2aac03d2ea53", "fusion_lon": 0.0}, {"is_reserved": 0, "type": "electric_scooter", "bike_id": "33dfa90291103e03ee3db2a876ac443b", "lat": 38.913321, "lon": -77.02444666666666, "rental_uris": {"android": "https://dc.lft.to/lastmile_qr_scan", "ios": "https://dc.lft.to/lastmile_qr_scan"}, "is_disabled": 0, "fusion_lat": 0.0, "name": "33dfa90291103e03ee3db2a876ac443b", "fusion_lon": 0.0}, {"is_reserved": 0, "type": "electric_scooter", "bike_id": "abd41c7450d8df7ece15c444cf322422", "lat": 38.9034645, "lon": -77.02576066666667, "rental_uris": {"android": "https://dc.lft.to/lastmile_qr_scan", "ios": "https://dc.lft.to/lastmile_qr_scan"}, "is_disabled": 0, "fusion_lat": 0.0, "name": "abd41c7450d8df7ece15c444cf322422", "fusion_lon": 0.0}, {"is_reserved": 0, "type": "electric_scooter", "bike_id": "135986e5766526cba5101388f83ce695", "lat": 38.892698333333335, "lon": -76.93001133333334, "rental_uris": {"android": "https://dc.lft.to/lastmile_qr_scan", "ios": "https://dc.lft.to/lastmile_qr_scan"}, "is_disabled": 0, "fusion_lat": 0.0, "name": "135986e5766526cba5101388f83ce695", "fusion_lon": 0.0}, {"is_reserved": 0, "type": "electric_scooter", "bike_id": "de172e564852097d1e766038294de871", "lat": 38.90091566666667, "lon": -77.0573485, "rental_uris": {"android": "https://dc.lft.to/lastmile_qr_scan", "ios": "https://dc.lft.to/lastmile_qr_scan"}, "is_disabled": 0, "fusion_lat": 0.0, "name": "de172e564852097d1e766038294de871", "fusion_lon": 0.0}, {"is_reserved": 0, "type": "electric_scooter", "bike_id": "ca214ebdd188fb8d333ca99cd96625ab", "lat": 38.88397416666667, "lon": -76.9304635, "rental_uris": {"android": "https://dc.lft.to/lastmile_qr_scan", "ios": "https://dc.lft.to/lastmile_qr_scan"}, "is_disabled": 0, "fusion_lat": 0.0, "name": "ca214ebdd188fb8d333ca99cd96625ab", "fusion_lon": 0.0}, {"is_reserved": 0, "type": "electric_scooter", "bike_id": "b9fc8b047c9abfe61457592055d7a943", "lat": 38.90886716666667, "lon": -76.991171, "rental_uris": {"android": "https://dc.lft.to/lastmile_qr_scan", "ios": "https://dc.lft.to/lastmile_qr_scan"}, "is_disabled": 0, "fusion_lat": 0.0, "name": "b9fc8b047c9abfe61457592055d7a943", "fusion_lon": 0.0}, {"is_reserved": 0, "type": "electric_scooter", "bike_id": "0bc709a615bef180d5cbbc4cc66c02ca", "lat": 38.89827916666667, "lon": -77.0334315, "rental_uris": {"android": "https://dc.lft.to/lastmile_qr_scan", "ios": "https://dc.lft.to/lastmile_qr_scan"}, "is_disabled": 0, "fusion_lat": 0.0, "name": "0bc709a615bef180d5cbbc4cc66c02ca", "fusion_lon": 0.0}, {"is_reserved": 0, "type": "electric_scooter", "bike_id": "45e7c9928bba3cc07e0949d7389d183a", "lat": 38.89682716666667, "lon": -76.93530666666666, "rental_uris": {"android": "https://dc.lft.to/lastmile_qr_scan", "ios": "https://dc.lft.to/lastmile_qr_scan"}, "is_disabled": 0, "fusion_lat": 0.0, "name": "45e7c9928bba3cc07e0949d7389d183a", "fusion_lon": 0.0}, {"is_reserved": 0, "type": "electric_scooter", "bike_id": "15a9c6488e0ae315bc0033d96b877f2f", "lat": 38.900346666666664, "lon": -77.00204583333333, "rental_uris": {"android": "https://dc.lft.to/lastmile_qr_scan", "ios": "https://dc.lft.to/lastmile_qr_scan"}, "is_disabled": 0, "fusion_lat": 0.0, "name": "15a9c6488e0ae315bc0033d96b877f2f", "fusion_lon": 0.0}, {"is_reserved": 0, "type": "electric_bike", "bike_id": "ffcee7551cafabb756e68107c85a689f", "lat": 39.00443533333333, "lon": -76.90129816666666, "rental_uris": {"android": "https://dc.lft.to/lastmile_qr_scan", "ios": "https://dc.lft.to/lastmile_qr_scan"}, "is_disabled": 0, "fusion_lat": 0.0, "name": "ffcee7551cafabb756e68107c85a689f", "fusion_lon": 0.0}, {"is_reserved": 0, "type": "electric_bike", "bike_id": "91efae728f3f488dbc5853c21ec6ce1e", "lat": 38.8542125, "lon": -77.08367433333333, "rental_uris": {"android": "https://dc.lft.to/lastmile_qr_scan", "ios": "https://dc.lft.to/lastmile_qr_scan"}, "is_disabled": 0, "fusion_lat": 0.0, "name": "91efae728f3f488dbc5853c21ec6ce1e", "fusion_lon": 0.0}, {"is_reserved": 0, "type": "electric_scooter", "bike_id": "02f15d6bcde864a1853c069df87ba015", "lat": 38.89347, "lon": -77.0429685, "rental_uris": {"android": "https://dc.lft.to/lastmile_qr_scan", "ios": "https://dc.lft.to/lastmile_qr_scan"}, "is_disabled": 0, "fusion_lat": 0.0, "name": "02f15d6bcde864a1853c069df87ba015", "fusion_lon": 0.0}, {"is_reserved": 0, "type": "electric_bike", "bike_id": "dbb35fd7aeba6d3764f96277b0398ae6", "lat": 38.87040016666667, "lon": -77.22906383333333, "rental_uris": {"android": "https://dc.lft.to/lastmile_qr_scan", "ios": "https://dc.lft.to/lastmile_qr_scan"}, "is_disabled": 0, "fusion_lat": 0.0, "name": "dbb35fd7aeba6d3764f96277b0398ae6", "fusion_lon": 0.0}, {"is_reserved": 0, "type": "electric_scooter", "bike_id": "f305eacc0dd414718858279371f3f85d", "lat": 38.9002, "lon": -77.0396185, "rental_uris": {"android": "https://dc.lft.to/lastmile_qr_scan", "ios": "https://dc.lft.to/lastmile_qr_scan"}, "is_disabled": 0, "fusion_lat": 0.0, "name": "f305eacc0dd414718858279371f3f85d", "fusion_lon": 0.0}, {"is_reserved": 0, "type": "electric_scooter", "bike_id": "9d304b614e62f3ddfa5a64c2c18bc525", "lat": 38.928562, "lon": -77.03618883333333, "rental_uris": {"android": "https://dc.lft.to/lastmile_qr_scan", "ios": "https://dc.lft.to/lastmile_qr_scan"}, "is_disabled": 0, "fusion_lat": 0.0, "name": "9d304b614e62f3ddfa5a64c2c18bc525", "fusion_lon": 0.0}, {"is_reserved": 0, "type": "electric_scooter", "bike_id": "39682d083f2b08a5f8ca01bb2c34a9b8", "lat": 38.8904085, "lon": -76.93758266666667, "rental_uris": {"android": "https://dc.lft.to/lastmile_qr_scan", "ios": "https://dc.lft.to/lastmile_qr_scan"}, "is_disabled": 0, "fusion_lat": 0.0, "name": "39682d083f2b08a5f8ca01bb2c34a9b8", "fusion_lon": 0.0}, {"is_reserved": 0, "type": "electric_scooter", "bike_id": "5ebb65499fc8bc133c5731083d0b07d8", "lat": 38.924494833333334, "lon": -77.02033966666667, "rental_uris": {"android": "https://dc.lft.to/lastmile_qr_scan", "ios": "https://dc.lft.to/lastmile_qr_scan"}, "is_disabled": 0, "fusion_lat": 0.0, "name": "5ebb65499fc8bc133c5731083d0b07d8", "fusion_lon": 0.0}, {"is_reserved": 0, "type": "electric_bike", "bike_id": "37ce7b08f68ea1290704a635a6a1ea10", "lat": 38.92136266666667, "lon": -77.00401616666667, "rental_uris": {"android": "https://dc.lft.to/lastmile_qr_scan", "ios": "https://dc.lft.to/lastmile_qr_scan"}, "is_disabled": 0, "fusion_lat": 0.0, "name": "37ce7b08f68ea1290704a635a6a1ea10", "fusion_lon": 0.0}, {"is_reserved": 0, "type": "electric_scooter", "bike_id": "bb9bfcf81bc52d7aaeef4a94e1f179d7", "lat": 38.886191, "lon": -77.01969166666667, "rental_uris": {"android": "https://dc.lft.to/lastmile_qr_scan", "ios": "https://dc.lft.to/lastmile_qr_scan"}, "is_disabled": 0, "fusion_lat": 0.0, "name": "bb9bfcf81bc52d7aaeef4a94e1f179d7", "fusion_lon": 0.0}, {"is_reserved": 0, "type": "electric_scooter", "bike_id": "1174a67e8fcaf966e99e129043070b62", "lat": 38.9405535, "lon": -77.02499183333333, "rental_uris": {"android": "https://dc.lft.to/lastmile_qr_scan", "ios": "https://dc.lft.to/lastmile_qr_scan"}, "is_disabled": 0, "fusion_lat": 0.0, "name": "1174a67e8fcaf966e99e129043070b62", "fusion_lon": 0.0}, {"is_reserved": 0, "type": "electric_scooter", "bike_id": "1a7c3c8cce941b84715ff23ff6523a58", "lat": 38.913691, "lon": -77.0273755, "rental_uris": {"android": "https://dc.lft.to/lastmile_qr_scan", "ios": "https://dc.lft.to/lastmile_qr_scan"}, "is_disabled": 0, "fusion_lat": 0.0, "name": "1a7c3c8cce941b84715ff23ff6523a58", "fusion_lon": 0.0}, {"is_reserved": 0, "type": "electric_bike", "bike_id": "aeaf9a5c53e49b264feb9add0ac80e68", "lat": 38.870044166666666, "lon": -77.22998133333333, "rental_uris": {"android": "https://dc.lft.to/lastmile_qr_scan", "ios": "https://dc.lft.to/lastmile_qr_scan"}, "is_disabled": 0, "fusion_lat": 0.0, "name": "aeaf9a5c53e49b264feb9add0ac80e68", "fusion_lon": 0.0}, {"is_reserved": 0, "type": "electric_scooter", "bike_id": "f28e1fcd80cc5c326c297722f2ae3fd2", "lat": 38.918183166666665, "lon": -77.0416855, "rental_uris": {"android": "https://dc.lft.to/lastmile_qr_scan", "ios": "https://dc.lft.to/lastmile_qr_scan"}, "is_disabled": 0, "fusion_lat": 0.0, "name": "f28e1fcd80cc5c326c297722f2ae3fd2", "fusion_lon": 0.0}, {"is_reserved": 0, "type": "electric_scooter", "bike_id": "22d79db6a0f6e2f09b436d55c4ff8938", "lat": 38.924171666666666, "lon": -77.02011366666666, "rental_uris": {"android": "https://dc.lft.to/lastmile_qr_scan", "ios": "https://dc.lft.to/lastmile_qr_scan"}, "is_disabled": 0, "fusion_lat": 0.0, "name": "22d79db6a0f6e2f09b436d55c4ff8938", "fusion_lon": 0.0}, {"is_reserved": 0, "type": "electric_bike", "bike_id": "78eafeba97fbb1fcf988dc92717a0cc1", "lat": 38.854214, "lon": -77.08366533333333, "rental_uris": {"android": "https://dc.lft.to/lastmile_qr_scan", "ios": "https://dc.lft.to/lastmile_qr_scan"}, "is_disabled": 0, "fusion_lat": 0.0, "name": "78eafeba97fbb1fcf988dc92717a0cc1", "fusion_lon": 0.0}, {"is_reserved": 0, "type": "electric_bike", "bike_id": "3135ae6016d5808ec4f84bd91358725f", "lat": 38.86334633333333, "lon": -76.98722133333334, "rental_uris": {"android": "https://dc.lft.to/lastmile_qr_scan", "ios": "https://dc.lft.to/lastmile_qr_scan"}, "is_disabled": 0, "fusion_lat": 0.0, "name": "3135ae6016d5808ec4f84bd91358725f", "fusion_lon": 0.0}, {"is_reserved": 0, "type": "electric_scooter", "bike_id": "ef642a3a9a03baa2f0188b7477809e65", "lat": 38.922463666666665, "lon": -77.030883, "rental_uris": {"android": "https://dc.lft.to/lastmile_qr_scan", "ios": "https://dc.lft.to/lastmile_qr_scan"}, "is_disabled": 0, "fusion_lat": 0.0, "name": "ef642a3a9a03baa2f0188b7477809e65", "fusion_lon": 0.0}, {"is_reserved": 0, "type": "electric_scooter", "bike_id": "dbe23875fd2169fa3edd20d9fb6e1695", "lat": 38.90255533333333, "lon": -77.02791566666667, "rental_uris": {"android": "https://dc.lft.to/lastmile_qr_scan", "ios": "https://dc.lft.to/lastmile_qr_scan"}, "is_disabled": 0, "fusion_lat": 0.0, "name": "dbe23875fd2169fa3edd20d9fb6e1695", "fusion_lon": 0.0}, {"is_reserved": 0, "type": "electric_scooter", "bike_id": "810a6e8aac0550975a2d693071a73d22", "lat": 38.91833183333333, "lon": -77.03191516666666, "rental_uris": {"android": "https://dc.lft.to/lastmile_qr_scan", "ios": "https://dc.lft.to/lastmile_qr_scan"}, "is_disabled": 0, "fusion_lat": 0.0, "name": "810a6e8aac0550975a2d693071a73d22", "fusion_lon": 0.0}, {"is_reserved": 0, "type": "electric_scooter", "bike_id": "14b6ccce3d8829e895d9153bef834f94", "lat": 38.90201183333333, "lon": -77.02153983333334, "rental_uris": {"android": "https://dc.lft.to/lastmile_qr_scan", "ios": "https://dc.lft.to/lastmile_qr_scan"}, "is_disabled": 0, "fusion_lat": 0.0, "name": "14b6ccce3d8829e895d9153bef834f94", "fusion_lon": 0.0}, {"is_reserved": 0, "type": "electric_scooter", "bike_id": "9ead34f2dd4e7eadd480d4f732936767", "lat": 38.92522816666666, "lon": -77.05059333333334, "rental_uris": {"android": "https://dc.lft.to/lastmile_qr_scan", "ios": "https://dc.lft.to/lastmile_qr_scan"}, "is_disabled": 0, "fusion_lat": 0.0, "name": "9ead34f2dd4e7eadd480d4f732936767", "fusion_lon": 0.0}, {"is_reserved": 0, "type": "electric_scooter", "bike_id": "9be1524e6f21a1057b107a6e70cae1d4", "lat": 38.91877233333334, "lon": -77.0350715, "rental_uris": {"android": "https://dc.lft.to/lastmile_qr_scan", "ios": "https://dc.lft.to/lastmile_qr_scan"}, "is_disabled": 0, "fusion_lat": 0.0, "name": "9be1524e6f21a1057b107a6e70cae1d4", "fusion_lon": 0.0}, {"is_reserved": 0, "type": "electric_bike", "bike_id": "6eb16b892f378d9d44e6119e2256af19", "lat": 38.9726615, "lon": -77.149668, "rental_uris": {"android": "https://dc.lft.to/lastmile_qr_scan", "ios": "https://dc.lft.to/lastmile_qr_scan"}, "is_disabled": 0, "fusion_lat": 0.0, "name": "6eb16b892f378d9d44e6119e2256af19", "fusion_lon": 0.0}, {"is_reserved": 0, "type": "electric_scooter", "bike_id": "306ab93d2a3121df79c30b8044ba53c8", "lat": 38.924954166666666, "lon": -77.03231533333333, "rental_uris": {"android": "https://dc.lft.to/lastmile_qr_scan", "ios": "https://dc.lft.to/lastmile_qr_scan"}, "is_disabled": 0, "fusion_lat": 0.0, "name": "306ab93d2a3121df79c30b8044ba53c8", "fusion_lon": 0.0}, {"is_reserved": 0, "type": "electric_scooter", "bike_id": "b66854213894b205401f980c2a64581f", "lat": 38.900429833333334, "lon": -76.99152033333333, "rental_uris": {"android": "https://dc.lft.to/lastmile_qr_scan", "ios": "https://dc.lft.to/lastmile_qr_scan"}, "is_disabled": 0, "fusion_lat": 0.0, "name": "b66854213894b205401f980c2a64581f", "fusion_lon": 0.0}, {"is_reserved": 0, "type": "electric_scooter", "bike_id": "75cdf77d674066f344ba22684b3b556f", "lat": 38.9055605, "lon": -77.0569925, "rental_uris": {"android": "https://dc.lft.to/lastmile_qr_scan", "ios": "https://dc.lft.to/lastmile_qr_scan"}, "is_disabled": 0, "fusion_lat": 0.0, "name": "75cdf77d674066f344ba22684b3b556f", "fusion_lon": 0.0}, {"is_reserved": 0, "type": "electric_scooter", "bike_id": "a4fa928b422019ba5215f51a9ece39ec", "lat": 38.89350916666667, "lon": -77.02794966666667, "rental_uris": {"android": "https://dc.lft.to/lastmile_qr_scan", "ios": "https://dc.lft.to/lastmile_qr_scan"}, "is_disabled": 0, "fusion_lat": 0.0, "name": "a4fa928b422019ba5215f51a9ece39ec", "fusion_lon": 0.0}, {"is_reserved": 0, "type": "electric_scooter", "bike_id": "dfb7292b831d062b837f2766cfd03f37", "lat": 38.923406, "lon": -77.01901883333333, "rental_uris": {"android": "https://dc.lft.to/lastmile_qr_scan", "ios": "https://dc.lft.to/lastmile_qr_scan"}, "is_disabled": 0, "fusion_lat": 0.0, "name": "dfb7292b831d062b837f2766cfd03f37", "fusion_lon": 0.0}, {"is_reserved": 0, "type": "electric_scooter", "bike_id": "8736534992ab71fd194fee42652e5b83", "lat": 38.874754, "lon": -77.00332716666666, "rental_uris": {"android": "https://dc.lft.to/lastmile_qr_scan", "ios": "https://dc.lft.to/lastmile_qr_scan"}, "is_disabled": 0, "fusion_lat": 0.0, "name": "8736534992ab71fd194fee42652e5b83", "fusion_lon": 0.0}, {"is_reserved": 0, "type": "electric_scooter", "bike_id": "14a7409e1ffddaf697fed914bb314922", "lat": 38.91254133333333, "lon": -77.07513533333334, "rental_uris": {"android": "https://dc.lft.to/lastmile_qr_scan", "ios": "https://dc.lft.to/lastmile_qr_scan"}, "is_disabled": 0, "fusion_lat": 0.0, "name": "14a7409e1ffddaf697fed914bb314922", "fusion_lon": 0.0}, {"is_reserved": 0, "type": "electric_scooter", "bike_id": "53045d69a9407529d5df96615c4ef41f", "lat": 38.898359666666664, "lon": -77.0129735, "rental_uris": {"android": "https://dc.lft.to/lastmile_qr_scan", "ios": "https://dc.lft.to/lastmile_qr_scan"}, "is_disabled": 0, "fusion_lat": 0.0, "name": "53045d69a9407529d5df96615c4ef41f", "fusion_lon": 0.0}, {"is_reserved": 0, "type": "electric_scooter", "bike_id": "1dbe56bc7380456f6710bec7f8fee8e8", "lat": 38.89225583333333, "lon": -77.04362583333334, "rental_uris": {"android": "https://dc.lft.to/lastmile_qr_scan", "ios": "https://dc.lft.to/lastmile_qr_scan"}, "is_disabled": 0, "fusion_lat": 0.0, "name": "1dbe56bc7380456f6710bec7f8fee8e8", "fusion_lon": 0.0}, {"is_reserved": 0, "type": "electric_bike", "bike_id": "f16e288ed0f9cf4cc024d25130e6955b", "lat": 38.99937033333333, "lon": -77.0513435, "rental_uris": {"android": "https://dc.lft.to/lastmile_qr_scan", "ios": "https://dc.lft.to/lastmile_qr_scan"}, "is_disabled": 0, "fusion_lat": 0.0, "name": "f16e288ed0f9cf4cc024d25130e6955b", "fusion_lon": 0.0}, {"is_reserved": 0, "type": "electric_scooter", "bike_id": "ffad425757dde0857555d59bd34b62dc", "lat": 38.907207166666666, "lon": -77.02168433333334, "rental_uris": {"android": "https://dc.lft.to/lastmile_qr_scan", "ios": "https://dc.lft.to/lastmile_qr_scan"}, "is_disabled": 0, "fusion_lat": 0.0, "name": "ffad425757dde0857555d59bd34b62dc", "fusion_lon": 0.0}, {"is_reserved": 0, "type": "electric_scooter", "bike_id": "420006b7b4ec84c8f9986bc7372b3610", "lat": 38.89741516666667, "lon": -77.04419733333333, "rental_uris": {"android": "https://dc.lft.to/lastmile_qr_scan", "ios": "https://dc.lft.to/lastmile_qr_scan"}, "is_disabled": 0, "fusion_lat": 0.0, "name": "420006b7b4ec84c8f9986bc7372b3610", "fusion_lon": 0.0}, {"is_reserved": 0, "type": "electric_scooter", "bike_id": "42a0ac23c61e3a0d01f160acaa2c62fe", "lat": 38.928628333333336, "lon": -77.03710866666667, "rental_uris": {"android": "https://dc.lft.to/lastmile_qr_scan", "ios": "https://dc.lft.to/lastmile_qr_scan"}, "is_disabled": 0, "fusion_lat": 0.0, "name": "42a0ac23c61e3a0d01f160acaa2c62fe", "fusion_lon": 0.0}, {"is_reserved": 0, "type": "electric_scooter", "bike_id": "fd03348f5bc2ec491ce874dc2f4ab257", "lat": 38.900315666666664, "lon": -76.98769216666666, "rental_uris": {"android": "https://dc.lft.to/lastmile_qr_scan", "ios": "https://dc.lft.to/lastmile_qr_scan"}, "is_disabled": 0, "fusion_lat": 0.0, "name": "fd03348f5bc2ec491ce874dc2f4ab257", "fusion_lon": 0.0}, {"is_reserved": 0, "type": "electric_bike", "bike_id": "98fff6870e46b99d108b9e1993bb548d", "lat": 38.94798, "lon": -76.94252966666667, "rental_uris": {"android": "https://dc.lft.to/lastmile_qr_scan", "ios": "https://dc.lft.to/lastmile_qr_scan"}, "is_disabled": 0, "fusion_lat": 0.0, "name": "98fff6870e46b99d108b9e1993bb548d", "fusion_lon": 0.0}, {"is_reserved": 0, "type": "electric_scooter", "bike_id": "9c909fd4b82d160ff8d4ac0e4a7edbf8", "lat": 38.903628833333336, "lon": -77.02195933333333, "rental_uris": {"android": "https://dc.lft.to/lastmile_qr_scan", "ios": "https://dc.lft.to/lastmile_qr_scan"}, "is_disabled": 0, "fusion_lat": 0.0, "name": "9c909fd4b82d160ff8d4ac0e4a7edbf8", "fusion_lon": 0.0}, {"is_reserved": 0, "type": "electric_bike", "bike_id": "683418ad9ad6ad2346ef2b8e32092e6e", "lat": 38.805643333333336, "lon": -77.13222833333333, "rental_uris": {"android": "https://dc.lft.to/lastmile_qr_scan", "ios": "https://dc.lft.to/lastmile_qr_scan"}, "is_disabled": 0, "fusion_lat": 0.0, "name": "683418ad9ad6ad2346ef2b8e32092e6e", "fusion_lon": 0.0}, {"is_reserved": 0, "type": "electric_scooter", "bike_id": "693cf0ea3e57610907cceeff16d42915", "lat": 38.93605566666667, "lon": -77.082112, "rental_uris": {"android": "https://dc.lft.to/lastmile_qr_scan", "ios": "https://dc.lft.to/lastmile_qr_scan"}, "is_disabled": 0, "fusion_lat": 0.0, "name": "693cf0ea3e57610907cceeff16d42915", "fusion_lon": 0.0}, {"is_reserved": 0, "type": "electric_scooter", "bike_id": "eff19f06255fc419cf67d86d1c090927", "lat": 38.88650633333334, "lon": -76.99608666666667, "rental_uris": {"android": "https://dc.lft.to/lastmile_qr_scan", "ios": "https://dc.lft.to/lastmile_qr_scan"}, "is_disabled": 0, "fusion_lat": 0.0, "name": "eff19f06255fc419cf67d86d1c090927", "fusion_lon": 0.0}, {"is_reserved": 0, "type": "electric_scooter", "bike_id": "8a4ef79809c40571fe82491063f94fa3", "lat": 38.899278833333334, "lon": -77.00363016666667, "rental_uris": {"android": "https://dc.lft.to/lastmile_qr_scan", "ios": "https://dc.lft.to/lastmile_qr_scan"}, "is_disabled": 0, "fusion_lat": 0.0, "name": "8a4ef79809c40571fe82491063f94fa3", "fusion_lon": 0.0}, {"is_reserved": 0, "type": "electric_scooter", "bike_id": "a1264d9b5ea3da915e6aa20f34b6cf26", "lat": 38.91123233333333, "lon": -77.03827016666666, "rental_uris": {"android": "https://dc.lft.to/lastmile_qr_scan", "ios": "https://dc.lft.to/lastmile_qr_scan"}, "is_disabled": 0, "fusion_lat": 0.0, "name": "a1264d9b5ea3da915e6aa20f34b6cf26", "fusion_lon": 0.0}, {"is_reserved": 0, "type": "electric_bike", "bike_id": "63b451858cf31e8960637662b38d775d", "lat": 38.987161, "lon": -76.94585333333333, "rental_uris": {"android": "https://dc.lft.to/lastmile_qr_scan", "ios": "https://dc.lft.to/lastmile_qr_scan"}, "is_disabled": 0, "fusion_lat": 0.0, "name": "63b451858cf31e8960637662b38d775d", "fusion_lon": 0.0}, {"is_reserved": 0, "type": "electric_scooter", "bike_id": "abc460983acf88dedc64e4fbf7b25c53", "lat": 38.88327233333333, "lon": -77.0154935, "rental_uris": {"android": "https://dc.lft.to/lastmile_qr_scan", "ios": "https://dc.lft.to/lastmile_qr_scan"}, "is_disabled": 0, "fusion_lat": 0.0, "name": "abc460983acf88dedc64e4fbf7b25c53", "fusion_lon": 0.0}, {"is_reserved": 0, "type": "electric_scooter", "bike_id": "7670b12188124b1fbeb7994a0252c417", "lat": 38.91666633333333, "lon": -77.03857166666667, "rental_uris": {"android": "https://dc.lft.to/lastmile_qr_scan", "ios": "https://dc.lft.to/lastmile_qr_scan"}, "is_disabled": 0, "fusion_lat": 0.0, "name": "7670b12188124b1fbeb7994a0252c417", "fusion_lon": 0.0}, {"is_reserved": 0, "type": "electric_scooter", "bike_id": "46ae8108a39cac82df8b3ceaa3792f75", "lat": 38.916113833333334, "lon": -77.046204, "rental_uris": {"android": "https://dc.lft.to/lastmile_qr_scan", "ios": "https://dc.lft.to/lastmile_qr_scan"}, "is_disabled": 0, "fusion_lat": 0.0, "name": "46ae8108a39cac82df8b3ceaa3792f75", "fusion_lon": 0.0}, {"is_reserved": 0, "type": "electric_scooter", "bike_id": "e9c8353d3c957ea4f17d5d4d56ee88af", "lat": 38.91777883333334, "lon": -77.04148733333334, "rental_uris": {"android": "https://dc.lft.to/lastmile_qr_scan", "ios": "https://dc.lft.to/lastmile_qr_scan"}, "is_disabled": 0, "fusion_lat": 0.0, "name": "e9c8353d3c957ea4f17d5d4d56ee88af", "fusion_lon": 0.0}, {"is_reserved": 0, "type": "electric_scooter", "bike_id": "91c419732cc34b20a523973352a8d123", "lat": 38.93669083333333, "lon": -77.0363295, "rental_uris": {"android": "https://dc.lft.to/lastmile_qr_scan", "ios": "https://dc.lft.to/lastmile_qr_scan"}, "is_disabled": 0, "fusion_lat": 0.0, "name": "91c419732cc34b20a523973352a8d123", "fusion_lon": 0.0}, {"is_reserved": 0, "type": "electric_scooter", "bike_id": "51f89c1de2db7c5336e4cdb86f2bbc79", "lat": 38.90966866666667, "lon": -77.03395716666667, "rental_uris": {"android": "https://dc.lft.to/lastmile_qr_scan", "ios": "https://dc.lft.to/lastmile_qr_scan"}, "is_disabled": 0, "fusion_lat": 0.0, "name": "51f89c1de2db7c5336e4cdb86f2bbc79", "fusion_lon": 0.0}, {"is_reserved": 0, "type": "electric_bike", "bike_id": "79e9a418907786200fa4bda5d7c2a119", "lat": 38.97335233333333, "lon": -76.9959675, "rental_uris": {"android": "https://dc.lft.to/lastmile_qr_scan", "ios": "https://dc.lft.to/lastmile_qr_scan"}, "is_disabled": 0, "fusion_lat": 0.0, "name": "79e9a418907786200fa4bda5d7c2a119", "fusion_lon": 0.0}, {"is_reserved": 0, "type": "electric_scooter", "bike_id": "d479c8dac9229d586bbb88d0ee0f06a1", "lat": 38.91135766666667, "lon": -76.98469266666666, "rental_uris": {"android": "https://dc.lft.to/lastmile_qr_scan", "ios": "https://dc.lft.to/lastmile_qr_scan"}, "is_disabled": 0, "fusion_lat": 0.0, "name": "d479c8dac9229d586bbb88d0ee0f06a1", "fusion_lon": 0.0}, {"is_reserved": 0, "type": "electric_scooter", "bike_id": "21927e1e830751cc2b8f1b21cc8ebdb4", "lat": 38.900821, "lon": -76.9800655, "rental_uris": {"android": "https://dc.lft.to/lastmile_qr_scan", "ios": "https://dc.lft.to/lastmile_qr_scan"}, "is_disabled": 0, "fusion_lat": 0.0, "name": "21927e1e830751cc2b8f1b21cc8ebdb4", "fusion_lon": 0.0}, {"is_reserved": 0, "type": "electric_scooter", "bike_id": "196a597e54a3b436f891d7360a5acfe3", "lat": 38.92374616666667, "lon": -77.0289315, "rental_uris": {"android": "https://dc.lft.to/lastmile_qr_scan", "ios": "https://dc.lft.to/lastmile_qr_scan"}, "is_disabled": 0, "fusion_lat": 0.0, "name": "196a597e54a3b436f891d7360a5acfe3", "fusion_lon": 0.0}, {"is_reserved": 0, "type": "electric_bike", "bike_id": "4f21c8edd353e175f0a259405c2604ac", "lat": 39.042388333333335, "lon": -76.997365, "rental_uris": {"android": "https://dc.lft.to/lastmile_qr_scan", "ios": "https://dc.lft.to/lastmile_qr_scan"}, "is_disabled": 0, "fusion_lat": 0.0, "name": "4f21c8edd353e175f0a259405c2604ac", "fusion_lon": 0.0}, {"is_reserved": 0, "type": "electric_scooter", "bike_id": "2c61c7bc7e7130f31fa9c9aa884acd77", "lat": 38.89654633333333, "lon": -77.0261365, "rental_uris": {"android": "https://dc.lft.to/lastmile_qr_scan", "ios": "https://dc.lft.to/lastmile_qr_scan"}, "is_disabled": 0, "fusion_lat": 0.0, "name": "2c61c7bc7e7130f31fa9c9aa884acd77", "fusion_lon": 0.0}, {"is_reserved": 0, "type": "electric_scooter", "bike_id": "3351d77e29e7c57484bd3759567605b9", "lat": 38.89505833333333, "lon": -76.93471883333333, "rental_uris": {"android": "https://dc.lft.to/lastmile_qr_scan", "ios": "https://dc.lft.to/lastmile_qr_scan"}, "is_disabled": 0, "fusion_lat": 0.0, "name": "3351d77e29e7c57484bd3759567605b9", "fusion_lon": 0.0}, {"is_reserved": 0, "type": "electric_bike", "bike_id": "cc51ace2e29d86a9ce8c6a9506bb829f", "lat": 38.9017375, "lon": -77.06009933333333, "rental_uris": {"android": "https://dc.lft.to/lastmile_qr_scan", "ios": "https://dc.lft.to/lastmile_qr_scan"}, "is_disabled": 0, "fusion_lat": 0.0, "name": "cc51ace2e29d86a9ce8c6a9506bb829f", "fusion_lon": 0.0}, {"is_reserved": 0, "type": "electric_scooter", "bike_id": "b5434bb33ee4ef7b60e82c4df0081657", "lat": 38.917292, "lon": -77.032113, "rental_uris": {"android": "https://dc.lft.to/lastmile_qr_scan", "ios": "https://dc.lft.to/lastmile_qr_scan"}, "is_disabled": 0, "fusion_lat": 0.0, "name": "b5434bb33ee4ef7b60e82c4df0081657", "fusion_lon": 0.0}, {"is_reserved": 0, "type": "electric_scooter", "bike_id": "ad39f0fe28173202120ba13aae7eb55e", "lat": 38.91596166666667, "lon": -77.02196766666667, "rental_uris": {"android": "https://dc.lft.to/lastmile_qr_scan", "ios": "https://dc.lft.to/lastmile_qr_scan"}, "is_disabled": 0, "fusion_lat": 0.0, "name": "ad39f0fe28173202120ba13aae7eb55e", "fusion_lon": 0.0}, {"is_reserved": 0, "type": "electric_scooter", "bike_id": "8e871e77717608f821b9e5bc60f434d7", "lat": 38.9276335, "lon": -77.06886933333334, "rental_uris": {"android": "https://dc.lft.to/lastmile_qr_scan", "ios": "https://dc.lft.to/lastmile_qr_scan"}, "is_disabled": 0, "fusion_lat": 0.0, "name": "8e871e77717608f821b9e5bc60f434d7", "fusion_lon": 0.0}, {"is_reserved": 0, "type": "electric_scooter", "bike_id": "f2d21076b21903fc24442e0b223d2d76", "lat": 38.89908333333333, "lon": -76.93366133333333, "rental_uris": {"android": "https://dc.lft.to/lastmile_qr_scan", "ios": "https://dc.lft.to/lastmile_qr_scan"}, "is_disabled": 0, "fusion_lat": 0.0, "name": "f2d21076b21903fc24442e0b223d2d76", "fusion_lon": 0.0}, {"is_reserved": 0, "type": "electric_scooter", "bike_id": "0a67ef98c52942c77857a6e70415ad2d", "lat": 38.946616666666664, "lon": -77.0328045, "rental_uris": {"android": "https://dc.lft.to/lastmile_qr_scan", "ios": "https://dc.lft.to/lastmile_qr_scan"}, "is_disabled": 0, "fusion_lat": 0.0, "name": "0a67ef98c52942c77857a6e70415ad2d", "fusion_lon": 0.0}, {"is_reserved": 0, "type": "electric_scooter", "bike_id": "55b47537540fd23388333c9268749ac5", "lat": 38.900431166666664, "lon": -76.99155933333333, "rental_uris": {"android": "https://dc.lft.to/lastmile_qr_scan", "ios": "https://dc.lft.to/lastmile_qr_scan"}, "is_disabled": 0, "fusion_lat": 0.0, "name": "55b47537540fd23388333c9268749ac5", "fusion_lon": 0.0}, {"is_reserved": 0, "type": "electric_scooter", "bike_id": "0b2f536d6eab1919c0e3ad67a45820b5", "lat": 38.912245, "lon": -77.04588433333333, "rental_uris": {"android": "https://dc.lft.to/lastmile_qr_scan", "ios": "https://dc.lft.to/lastmile_qr_scan"}, "is_disabled": 0, "fusion_lat": 0.0, "name": "0b2f536d6eab1919c0e3ad67a45820b5", "fusion_lon": 0.0}, {"is_reserved": 0, "type": "electric_scooter", "bike_id": "af301b7520be541a933d1055b1fc22b2", "lat": 38.93899, "lon": -77.03338616666667, "rental_uris": {"android": "https://dc.lft.to/lastmile_qr_scan", "ios": "https://dc.lft.to/lastmile_qr_scan"}, "is_disabled": 0, "fusion_lat": 0.0, "name": "af301b7520be541a933d1055b1fc22b2", "fusion_lon": 0.0}, {"is_reserved": 0, "type": "electric_scooter", "bike_id": "5c3000d1bdd0a9811e01de5b69c2f4ef", "lat": 38.903004333333335, "lon": -77.002191, "rental_uris": {"android": "https://dc.lft.to/lastmile_qr_scan", "ios": "https://dc.lft.to/lastmile_qr_scan"}, "is_disabled": 0, "fusion_lat": 0.0, "name": "5c3000d1bdd0a9811e01de5b69c2f4ef", "fusion_lon": 0.0}, {"is_reserved": 0, "type": "electric_scooter", "bike_id": "c1197ffc00795c89907ceb6ab37eccec", "lat": 38.93071333333333, "lon": -77.02961316666666, "rental_uris": {"android": "https://dc.lft.to/lastmile_qr_scan", "ios": "https://dc.lft.to/lastmile_qr_scan"}, "is_disabled": 0, "fusion_lat": 0.0, "name": "c1197ffc00795c89907ceb6ab37eccec", "fusion_lon": 0.0}, {"is_reserved": 0, "type": "electric_scooter", "bike_id": "fcc7c7f5e10fc4d924829d93e6e26980", "lat": 38.892331666666664, "lon": -77.048989, "rental_uris": {"android": "https://dc.lft.to/lastmile_qr_scan", "ios": "https://dc.lft.to/lastmile_qr_scan"}, "is_disabled": 0, "fusion_lat": 0.0, "name": "fcc7c7f5e10fc4d924829d93e6e26980", "fusion_lon": 0.0}, {"is_reserved": 0, "type": "electric_scooter", "bike_id": "7ecfd215e5fb9705fb3ee1e4751cd2dc", "lat": 38.92735666666667, "lon": -77.05248366666666, "rental_uris": {"android": "https://dc.lft.to/lastmile_qr_scan", "ios": "https://dc.lft.to/lastmile_qr_scan"}, "is_disabled": 0, "fusion_lat": 0.0, "name": "7ecfd215e5fb9705fb3ee1e4751cd2dc", "fusion_lon": 0.0}, {"is_reserved": 0, "type": "electric_scooter", "bike_id": "1b7c353f3672e7e14d2077d5a90e281b", "lat": 38.92198466666667, "lon": -77.04244733333333, "rental_uris": {"android": "https://dc.lft.to/lastmile_qr_scan", "ios": "https://dc.lft.to/lastmile_qr_scan"}, "is_disabled": 0, "fusion_lat": 0.0, "name": "1b7c353f3672e7e14d2077d5a90e281b", "fusion_lon": 0.0}, {"is_reserved": 0, "type": "electric_scooter", "bike_id": "677ccf0c16be017982655fefb752dfe9", "lat": 38.9077835, "lon": -76.99997766666667, "rental_uris": {"android": "https://dc.lft.to/lastmile_qr_scan", "ios": "https://dc.lft.to/lastmile_qr_scan"}, "is_disabled": 0, "fusion_lat": 0.0, "name": "677ccf0c16be017982655fefb752dfe9", "fusion_lon": 0.0}, {"is_reserved": 0, "type": "electric_scooter", "bike_id": "f17803550d1fa2e398427173d49819a3", "lat": 38.92027383333333, "lon": -77.0187465, "rental_uris": {"android": "https://dc.lft.to/lastmile_qr_scan", "ios": "https://dc.lft.to/lastmile_qr_scan"}, "is_disabled": 0, "fusion_lat": 0.0, "name": "f17803550d1fa2e398427173d49819a3", "fusion_lon": 0.0}, {"is_reserved": 0, "type": "electric_scooter", "bike_id": "d802debd65f650343cd6aba5b1337f2f", "lat": 38.94979766666667, "lon": -77.0201685, "rental_uris": {"android": "https://dc.lft.to/lastmile_qr_scan", "ios": "https://dc.lft.to/lastmile_qr_scan"}, "is_disabled": 0, "fusion_lat": 0.0, "name": "d802debd65f650343cd6aba5b1337f2f", "fusion_lon": 0.0}, {"is_reserved": 0, "type": "electric_scooter", "bike_id": "00612a52c906228e07d5a51937c23546", "lat": 38.92168433333333, "lon": -77.03849266666667, "rental_uris": {"android": "https://dc.lft.to/lastmile_qr_scan", "ios": "https://dc.lft.to/lastmile_qr_scan"}, "is_disabled": 0, "fusion_lat": 0.0, "name": "00612a52c906228e07d5a51937c23546", "fusion_lon": 0.0}, {"is_reserved": 0, "type": "electric_scooter", "bike_id": "e71881306c40cc30b189dcd3b855760b", "lat": 38.911831166666666, "lon": -77.00496133333333, "rental_uris": {"android": "https://dc.lft.to/lastmile_qr_scan", "ios": "https://dc.lft.to/lastmile_qr_scan"}, "is_disabled": 0, "fusion_lat": 0.0, "name": "e71881306c40cc30b189dcd3b855760b", "fusion_lon": 0.0}, {"is_reserved": 0, "type": "electric_scooter", "bike_id": "44cc2caa2e7828c59f6c4a32d27424c8", "lat": 38.92288116666667, "lon": -76.99777283333333, "rental_uris": {"android": "https://dc.lft.to/lastmile_qr_scan", "ios": "https://dc.lft.to/lastmile_qr_scan"}, "is_disabled": 0, "fusion_lat": 0.0, "name": "44cc2caa2e7828c59f6c4a32d27424c8", "fusion_lon": 0.0}, {"is_reserved": 0, "type": "electric_scooter", "bike_id": "719f2fa9b6ba775685fbc7e4363202b6", "lat": 38.899414166666666, "lon": -77.0317875, "rental_uris": {"android": "https://dc.lft.to/lastmile_qr_scan", "ios": "https://dc.lft.to/lastmile_qr_scan"}, "is_disabled": 0, "fusion_lat": 0.0, "name": "719f2fa9b6ba775685fbc7e4363202b6", "fusion_lon": 0.0}, {"is_reserved": 0, "type": "electric_scooter", "bike_id": "ac37bc45f6f0d6c3fa48724ab089ea18", "lat": 38.92967483333334, "lon": -77.023436, "rental_uris": {"android": "https://dc.lft.to/lastmile_qr_scan", "ios": "https://dc.lft.to/lastmile_qr_scan"}, "is_disabled": 0, "fusion_lat": 0.0, "name": "ac37bc45f6f0d6c3fa48724ab089ea18", "fusion_lon": 0.0}, {"is_reserved": 0, "type": "electric_scooter", "bike_id": "ab73d5f6af3301bcfe0b1bfa870f85a6", "lat": 38.947343000000004, "lon": -77.02461683333334, "rental_uris": {"android": "https://dc.lft.to/lastmile_qr_scan", "ios": "https://dc.lft.to/lastmile_qr_scan"}, "is_disabled": 0, "fusion_lat": 0.0, "name": "ab73d5f6af3301bcfe0b1bfa870f85a6", "fusion_lon": 0.0}, {"is_reserved": 0, "type": "electric_bike", "bike_id": "7bf4a14b752def89a787a27d930e03a6", "lat": 38.9513635, "lon": -76.96591366666667, "rental_uris": {"android": "https://dc.lft.to/lastmile_qr_scan", "ios": "https://dc.lft.to/lastmile_qr_scan"}, "is_disabled": 0, "fusion_lat": 0.0, "name": "7bf4a14b752def89a787a27d930e03a6", "fusion_lon": 0.0}, {"is_reserved": 0, "type": "electric_scooter", "bike_id": "2b7b89eb46fcaf2cdbfabd60deb665ca", "lat": 38.89361516666666, "lon": -76.94106083333334, "rental_uris": {"android": "https://dc.lft.to/lastmile_qr_scan", "ios": "https://dc.lft.to/lastmile_qr_scan"}, "is_disabled": 0, "fusion_lat": 0.0, "name": "2b7b89eb46fcaf2cdbfabd60deb665ca", "fusion_lon": 0.0}, {"is_reserved": 0, "type": "electric_scooter", "bike_id": "1bd50ed8a77881d8ffed1a969ae1eb3e", "lat": 38.922391166666664, "lon": -77.02124, "rental_uris": {"android": "https://dc.lft.to/lastmile_qr_scan", "ios": "https://dc.lft.to/lastmile_qr_scan"}, "is_disabled": 0, "fusion_lat": 0.0, "name": "1bd50ed8a77881d8ffed1a969ae1eb3e", "fusion_lon": 0.0}, {"is_reserved": 0, "type": "electric_scooter", "bike_id": "1ff8c05186c7830fc47a2df9c1c62035", "lat": 38.933707166666665, "lon": -77.0572655, "rental_uris": {"android": "https://dc.lft.to/lastmile_qr_scan", "ios": "https://dc.lft.to/lastmile_qr_scan"}, "is_disabled": 0, "fusion_lat": 0.0, "name": "1ff8c05186c7830fc47a2df9c1c62035", "fusion_lon": 0.0}, {"is_reserved": 0, "type": "electric_scooter", "bike_id": "8173c6b2614eec6476d94993d92d57e5", "lat": 38.89526016666667, "lon": -77.02953333333333, "rental_uris": {"android": "https://dc.lft.to/lastmile_qr_scan", "ios": "https://dc.lft.to/lastmile_qr_scan"}, "is_disabled": 0, "fusion_lat": 0.0, "name": "8173c6b2614eec6476d94993d92d57e5", "fusion_lon": 0.0}, {"is_reserved": 0, "type": "electric_scooter", "bike_id": "8ccb0889f36f3811d21f89e5e7342397", "lat": 38.892203333333335, "lon": -77.02311466666667, "rental_uris": {"android": "https://dc.lft.to/lastmile_qr_scan", "ios": "https://dc.lft.to/lastmile_qr_scan"}, "is_disabled": 0, "fusion_lat": 0.0, "name": "8ccb0889f36f3811d21f89e5e7342397", "fusion_lon": 0.0}, {"is_reserved": 0, "type": "electric_scooter", "bike_id": "9f98b604502e018d7121312bdcfb365f", "lat": 38.92566383333333, "lon": -76.9700435, "rental_uris": {"android": "https://dc.lft.to/lastmile_qr_scan", "ios": "https://dc.lft.to/lastmile_qr_scan"}, "is_disabled": 0, "fusion_lat": 0.0, "name": "9f98b604502e018d7121312bdcfb365f", "fusion_lon": 0.0}, {"is_reserved": 0, "type": "electric_scooter", "bike_id": "3b92bf6a1d627e787273fb6a98cb45ee", "lat": 38.900451, "lon": -76.99153416666667, "rental_uris": {"android": "https://dc.lft.to/lastmile_qr_scan", "ios": "https://dc.lft.to/lastmile_qr_scan"}, "is_disabled": 0, "fusion_lat": 0.0, "name": "3b92bf6a1d627e787273fb6a98cb45ee", "fusion_lon": 0.0}, {"is_reserved": 0, "type": "electric_scooter", "bike_id": "0189f215384ca9cae30062fa7bd644cd", "lat": 38.931097666666666, "lon": -77.03483033333333, "rental_uris": {"android": "https://dc.lft.to/lastmile_qr_scan", "ios": "https://dc.lft.to/lastmile_qr_scan"}, "is_disabled": 0, "fusion_lat": 0.0, "name": "0189f215384ca9cae30062fa7bd644cd", "fusion_lon": 0.0}, {"is_reserved": 0, "type": "electric_bike", "bike_id": "14a13318331cebf22e80d48bc9c6ebb4", "lat": 38.8946375, "lon": -77.10361816666666, "rental_uris": {"android": "https://dc.lft.to/lastmile_qr_scan", "ios": "https://dc.lft.to/lastmile_qr_scan"}, "is_disabled": 0, "fusion_lat": 0.0, "name": "14a13318331cebf22e80d48bc9c6ebb4", "fusion_lon": 0.0}, {"is_reserved": 0, "type": "electric_scooter", "bike_id": "78ca3cfcbacecb50844b17a4ad0bbd0f", "lat": 38.907855, "lon": -77.002138, "rental_uris": {"android": "https://dc.lft.to/lastmile_qr_scan", "ios": "https://dc.lft.to/lastmile_qr_scan"}, "is_disabled": 0, "fusion_lat": 0.0, "name": "78ca3cfcbacecb50844b17a4ad0bbd0f", "fusion_lon": 0.0}, {"is_reserved": 0, "type": "electric_scooter", "bike_id": "d6fb82bba18bf0d1b5d8c9be6634d802", "lat": 38.93503066666667, "lon": -77.0428185, "rental_uris": {"android": "https://dc.lft.to/lastmile_qr_scan", "ios": "https://dc.lft.to/lastmile_qr_scan"}, "is_disabled": 0, "fusion_lat": 0.0, "name": "d6fb82bba18bf0d1b5d8c9be6634d802", "fusion_lon": 0.0}, {"is_reserved": 0, "type": "electric_scooter", "bike_id": "86062ee2d86dd8bd9b548bdc4d9d0d2b", "lat": 38.9106995, "lon": -77.01608266666666, "rental_uris": {"android": "https://dc.lft.to/lastmile_qr_scan", "ios": "https://dc.lft.to/lastmile_qr_scan"}, "is_disabled": 0, "fusion_lat": 0.0, "name": "86062ee2d86dd8bd9b548bdc4d9d0d2b", "fusion_lon": 0.0}, {"is_reserved": 0, "type": "electric_scooter", "bike_id": "0498ca00747e6916dda999a7e0a6b9a6", "lat": 38.889869833333336, "lon": -77.003108, "rental_uris": {"android": "https://dc.lft.to/lastmile_qr_scan", "ios": "https://dc.lft.to/lastmile_qr_scan"}, "is_disabled": 0, "fusion_lat": 0.0, "name": "0498ca00747e6916dda999a7e0a6b9a6", "fusion_lon": 0.0}, {"is_reserved": 0, "type": "electric_scooter", "bike_id": "c48e45decd9553ec902b2955e0974ce4", "lat": 38.904522166666666, "lon": -76.99622, "rental_uris": {"android": "https://dc.lft.to/lastmile_qr_scan", "ios": "https://dc.lft.to/lastmile_qr_scan"}, "is_disabled": 0, "fusion_lat": 0.0, "name": "c48e45decd9553ec902b2955e0974ce4", "fusion_lon": 0.0}, {"is_reserved": 0, "type": "electric_scooter", "bike_id": "f27869aafb7c0746df3c9bae8243ebfa", "lat": 38.85654683333333, "lon": -76.996745, "rental_uris": {"android": "https://dc.lft.to/lastmile_qr_scan", "ios": "https://dc.lft.to/lastmile_qr_scan"}, "is_disabled": 0, "fusion_lat": 0.0, "name": "f27869aafb7c0746df3c9bae8243ebfa", "fusion_lon": 0.0}, {"is_reserved": 0, "type": "electric_scooter", "bike_id": "bacebb094ae5582929d5f84361cf0fb6", "lat": 38.91283883333333, "lon": -77.0728065, "rental_uris": {"android": "https://dc.lft.to/lastmile_qr_scan", "ios": "https://dc.lft.to/lastmile_qr_scan"}, "is_disabled": 0, "fusion_lat": 0.0, "name": "bacebb094ae5582929d5f84361cf0fb6", "fusion_lon": 0.0}, {"is_reserved": 0, "type": "electric_scooter", "bike_id": "fb30683e94054aa5133144e4787e2bb3", "lat": 38.9003205, "lon": -76.98818916666667, "rental_uris": {"android": "https://dc.lft.to/lastmile_qr_scan", "ios": "https://dc.lft.to/lastmile_qr_scan"}, "is_disabled": 0, "fusion_lat": 0.0, "name": "fb30683e94054aa5133144e4787e2bb3", "fusion_lon": 0.0}, {"is_reserved": 0, "type": "electric_scooter", "bike_id": "964d384ccb6039d0e0656ab7c5208c35", "lat": 38.874850333333335, "lon": -77.00035083333333, "rental_uris": {"android": "https://dc.lft.to/lastmile_qr_scan", "ios": "https://dc.lft.to/lastmile_qr_scan"}, "is_disabled": 0, "fusion_lat": 0.0, "name": "964d384ccb6039d0e0656ab7c5208c35", "fusion_lon": 0.0}, {"is_reserved": 0, "type": "electric_scooter", "bike_id": "735df2f8ce36e372abef249b798ff72c", "lat": 38.907335833333335, "lon": -77.07025, "rental_uris": {"android": "https://dc.lft.to/lastmile_qr_scan", "ios": "https://dc.lft.to/lastmile_qr_scan"}, "is_disabled": 0, "fusion_lat": 0.0, "name": "735df2f8ce36e372abef249b798ff72c", "fusion_lon": 0.0}, {"is_reserved": 0, "type": "electric_scooter", "bike_id": "2bb38a66fbd03182bd633318914eac3e", "lat": 38.931925666666665, "lon": -77.025587, "rental_uris": {"android": "https://dc.lft.to/lastmile_qr_scan", "ios": "https://dc.lft.to/lastmile_qr_scan"}, "is_disabled": 0, "fusion_lat": 0.0, "name": "2bb38a66fbd03182bd633318914eac3e", "fusion_lon": 0.0}, {"is_reserved": 0, "type": "electric_scooter", "bike_id": "090a22166d8e49f8661daf7a434502b4", "lat": 38.912678166666666, "lon": -77.01555266666666, "rental_uris": {"android": "https://dc.lft.to/lastmile_qr_scan", "ios": "https://dc.lft.to/lastmile_qr_scan"}, "is_disabled": 0, "fusion_lat": 0.0, "name": "090a22166d8e49f8661daf7a434502b4", "fusion_lon": 0.0}, {"is_reserved": 0, "type": "electric_scooter", "bike_id": "69965d835455acd3b3b3c9a4093d7ebd", "lat": 38.914828, "lon": -77.04535416666667, "rental_uris": {"android": "https://dc.lft.to/lastmile_qr_scan", "ios": "https://dc.lft.to/lastmile_qr_scan"}, "is_disabled": 0, "fusion_lat": 0.0, "name": "69965d835455acd3b3b3c9a4093d7ebd", "fusion_lon": 0.0}, {"is_reserved": 0, "type": "electric_bike", "bike_id": "9462c2abbbfa7c8f3a51f7971352d455", "lat": 38.924329, "lon": -77.0578915, "rental_uris": {"android": "https://dc.lft.to/lastmile_qr_scan", "ios": "https://dc.lft.to/lastmile_qr_scan"}, "is_disabled": 0, "fusion_lat": 0.0, "name": "9462c2abbbfa7c8f3a51f7971352d455", "fusion_lon": 0.0}, {"is_reserved": 0, "type": "electric_scooter", "bike_id": "6b5347b7b8a2d3c0be3ac955346f7c9c", "lat": 38.923406, "lon": -77.03500433333333, "rental_uris": {"android": "https://dc.lft.to/lastmile_qr_scan", "ios": "https://dc.lft.to/lastmile_qr_scan"}, "is_disabled": 0, "fusion_lat": 0.0, "name": "6b5347b7b8a2d3c0be3ac955346f7c9c", "fusion_lon": 0.0}, {"is_reserved": 0, "type": "electric_scooter", "bike_id": "e05319a6eee500bf1d3b28db8d5e6dea", "lat": 38.927456166666666, "lon": -77.02532333333333, "rental_uris": {"android": "https://dc.lft.to/lastmile_qr_scan", "ios": "https://dc.lft.to/lastmile_qr_scan"}, "is_disabled": 0, "fusion_lat": 0.0, "name": "e05319a6eee500bf1d3b28db8d5e6dea", "fusion_lon": 0.0}, {"is_reserved": 0, "type": "electric_bike", "bike_id": "1e1fa6f0c1014c2e46018b1606d9a439", "lat": 38.94263566666667, "lon": -76.990709, "rental_uris": {"android": "https://dc.lft.to/lastmile_qr_scan", "ios": "https://dc.lft.to/lastmile_qr_scan"}, "is_disabled": 0, "fusion_lat": 0.0, "name": "1e1fa6f0c1014c2e46018b1606d9a439", "fusion_lon": 0.0}, {"is_reserved": 0, "type": "electric_scooter", "bike_id": "adfc65f41c48886186a11ed46e396db6", "lat": 38.89637466666667, "lon": -76.92801883333334, "rental_uris": {"android": "https://dc.lft.to/lastmile_qr_scan", "ios": "https://dc.lft.to/lastmile_qr_scan"}, "is_disabled": 0, "fusion_lat": 0.0, "name": "adfc65f41c48886186a11ed46e396db6", "fusion_lon": 0.0}, {"is_reserved": 0, "type": "electric_scooter", "bike_id": "1dbc8c243ae85a4a2209afea04523c43", "lat": 38.92119566666667, "lon": -77.022207, "rental_uris": {"android": "https://dc.lft.to/lastmile_qr_scan", "ios": "https://dc.lft.to/lastmile_qr_scan"}, "is_disabled": 0, "fusion_lat": 0.0, "name": "1dbc8c243ae85a4a2209afea04523c43", "fusion_lon": 0.0}, {"is_reserved": 0, "type": "electric_scooter", "bike_id": "1200effd02f73de77ba5537ce354e062", "lat": 38.9126355, "lon": -77.03868866666667, "rental_uris": {"android": "https://dc.lft.to/lastmile_qr_scan", "ios": "https://dc.lft.to/lastmile_qr_scan"}, "is_disabled": 0, "fusion_lat": 0.0, "name": "1200effd02f73de77ba5537ce354e062", "fusion_lon": 0.0}, {"is_reserved": 0, "type": "electric_scooter", "bike_id": "58ea708b21d12ce55a3495e98150f2be", "lat": 38.90509216666667, "lon": -77.06006033333334, "rental_uris": {"android": "https://dc.lft.to/lastmile_qr_scan", "ios": "https://dc.lft.to/lastmile_qr_scan"}, "is_disabled": 0, "fusion_lat": 0.0, "name": "58ea708b21d12ce55a3495e98150f2be", "fusion_lon": 0.0}, {"is_reserved": 0, "type": "electric_scooter", "bike_id": "599dc7ab19533f9eea48f076cd1177a3", "lat": 38.90730633333333, "lon": -77.010934, "rental_uris": {"android": "https://dc.lft.to/lastmile_qr_scan", "ios": "https://dc.lft.to/lastmile_qr_scan"}, "is_disabled": 0, "fusion_lat": 0.0, "name": "599dc7ab19533f9eea48f076cd1177a3", "fusion_lon": 0.0}, {"is_reserved": 0, "type": "electric_scooter", "bike_id": "d97bd9d76306f20cce584ee9d6636cbd", "lat": 38.8730225, "lon": -77.01557266666667, "rental_uris": {"android": "https://dc.lft.to/lastmile_qr_scan", "ios": "https://dc.lft.to/lastmile_qr_scan"}, "is_disabled": 0, "fusion_lat": 0.0, "name": "d97bd9d76306f20cce584ee9d6636cbd", "fusion_lon": 0.0}, {"is_reserved": 0, "type": "electric_scooter", "bike_id": "c53ec8148570515a522b18621bc6054e", "lat": 38.904476, "lon": -77.062874, "rental_uris": {"android": "https://dc.lft.to/lastmile_qr_scan", "ios": "https://dc.lft.to/lastmile_qr_scan"}, "is_disabled": 0, "fusion_lat": 0.0, "name": "c53ec8148570515a522b18621bc6054e", "fusion_lon": 0.0}, {"is_reserved": 0, "type": "electric_scooter", "bike_id": "86b635eec636581f664d39a5e23313da", "lat": 38.88612166666667, "lon": -76.99654983333333, "rental_uris": {"android": "https://dc.lft.to/lastmile_qr_scan", "ios": "https://dc.lft.to/lastmile_qr_scan"}, "is_disabled": 0, "fusion_lat": 0.0, "name": "86b635eec636581f664d39a5e23313da", "fusion_lon": 0.0}, {"is_reserved": 0, "type": "electric_scooter", "bike_id": "c459512e2ac59347e9db391d71927f4d", "lat": 38.924850166666666, "lon": -77.02140083333333, "rental_uris": {"android": "https://dc.lft.to/lastmile_qr_scan", "ios": "https://dc.lft.to/lastmile_qr_scan"}, "is_disabled": 0, "fusion_lat": 0.0, "name": "c459512e2ac59347e9db391d71927f4d", "fusion_lon": 0.0}, {"is_reserved": 0, "type": "electric_scooter", "bike_id": "689650b94e18f69a6038ff3651745bb2", "lat": 38.89279066666667, "lon": -76.9292155, "rental_uris": {"android": "https://dc.lft.to/lastmile_qr_scan", "ios": "https://dc.lft.to/lastmile_qr_scan"}, "is_disabled": 0, "fusion_lat": 0.0, "name": "689650b94e18f69a6038ff3651745bb2", "fusion_lon": 0.0}, {"is_reserved": 0, "type": "electric_scooter", "bike_id": "7e7389286af4dfbb78003862322e2a77", "lat": 38.927925, "lon": -77.03142133333333, "rental_uris": {"android": "https://dc.lft.to/lastmile_qr_scan", "ios": "https://dc.lft.to/lastmile_qr_scan"}, "is_disabled": 0, "fusion_lat": 0.0, "name": "7e7389286af4dfbb78003862322e2a77", "fusion_lon": 0.0}, {"is_reserved": 0, "type": "electric_scooter", "bike_id": "a31f5a22949ce4a304e7fc5e92ab0cfb", "lat": 38.921498, "lon": -77.03507616666667, "rental_uris": {"android": "https://dc.lft.to/lastmile_qr_scan", "ios": "https://dc.lft.to/lastmile_qr_scan"}, "is_disabled": 0, "fusion_lat": 0.0, "name": "a31f5a22949ce4a304e7fc5e92ab0cfb", "fusion_lon": 0.0}, {"is_reserved": 0, "type": "electric_scooter", "bike_id": "aa6bce3acdd5b8c793bab3c8e3e83e9a", "lat": 38.9237245, "lon": -77.02799016666667, "rental_uris": {"android": "https://dc.lft.to/lastmile_qr_scan", "ios": "https://dc.lft.to/lastmile_qr_scan"}, "is_disabled": 0, "fusion_lat": 0.0, "name": "aa6bce3acdd5b8c793bab3c8e3e83e9a", "fusion_lon": 0.0}, {"is_reserved": 0, "type": "electric_scooter", "bike_id": "f13e385b360fbe86f1a216ef3985ed88", "lat": 38.92100816666667, "lon": -77.0319715, "rental_uris": {"android": "https://dc.lft.to/lastmile_qr_scan", "ios": "https://dc.lft.to/lastmile_qr_scan"}, "is_disabled": 0, "fusion_lat": 0.0, "name": "f13e385b360fbe86f1a216ef3985ed88", "fusion_lon": 0.0}, {"is_reserved": 0, "type": "electric_scooter", "bike_id": "44a98b0504b16a689ce2aaffcc6122cf", "lat": 38.922706833333336, "lon": -77.029606, "rental_uris": {"android": "https://dc.lft.to/lastmile_qr_scan", "ios": "https://dc.lft.to/lastmile_qr_scan"}, "is_disabled": 0, "fusion_lat": 0.0, "name": "44a98b0504b16a689ce2aaffcc6122cf", "fusion_lon": 0.0}, {"is_reserved": 0, "type": "electric_scooter", "bike_id": "895b9f8dc0a3e8ba4fb9c1a1b1e5dd68", "lat": 38.89345016666667, "lon": -77.02826616666667, "rental_uris": {"android": "https://dc.lft.to/lastmile_qr_scan", "ios": "https://dc.lft.to/lastmile_qr_scan"}, "is_disabled": 0, "fusion_lat": 0.0, "name": "895b9f8dc0a3e8ba4fb9c1a1b1e5dd68", "fusion_lon": 0.0}, {"is_reserved": 0, "type": "electric_scooter", "bike_id": "559830d8d4915f4acc1b67030dc79edb", "lat": 38.90858, "lon": -77.0432655, "rental_uris": {"android": "https://dc.lft.to/lastmile_qr_scan", "ios": "https://dc.lft.to/lastmile_qr_scan"}, "is_disabled": 0, "fusion_lat": 0.0, "name": "559830d8d4915f4acc1b67030dc79edb", "fusion_lon": 0.0}, {"is_reserved": 0, "type": "electric_scooter", "bike_id": "8084cb4abeb0862cf0604299fa9a36fa", "lat": 38.898272666666664, "lon": -77.048097, "rental_uris": {"android": "https://dc.lft.to/lastmile_qr_scan", "ios": "https://dc.lft.to/lastmile_qr_scan"}, "is_disabled": 0, "fusion_lat": 0.0, "name": "8084cb4abeb0862cf0604299fa9a36fa", "fusion_lon": 0.0}, {"is_reserved": 0, "type": "electric_scooter", "bike_id": "41994b7cef0b149194274ee3395d3bd1", "lat": 38.901335333333336, "lon": -77.01621166666666, "rental_uris": {"android": "https://dc.lft.to/lastmile_qr_scan", "ios": "https://dc.lft.to/lastmile_qr_scan"}, "is_disabled": 0, "fusion_lat": 0.0, "name": "41994b7cef0b149194274ee3395d3bd1", "fusion_lon": 0.0}, {"is_reserved": 0, "type": "electric_scooter", "bike_id": "72d92b527591b030a1e1083ef37233d5", "lat": 38.931410166666666, "lon": -77.07845066666667, "rental_uris": {"android": "https://dc.lft.to/lastmile_qr_scan", "ios": "https://dc.lft.to/lastmile_qr_scan"}, "is_disabled": 0, "fusion_lat": 0.0, "name": "72d92b527591b030a1e1083ef37233d5", "fusion_lon": 0.0}, {"is_reserved": 0, "type": "electric_scooter", "bike_id": "787091eca5dd5829271b654000766885", "lat": 38.89343866666667, "lon": -77.02827483333333, "rental_uris": {"android": "https://dc.lft.to/lastmile_qr_scan", "ios": "https://dc.lft.to/lastmile_qr_scan"}, "is_disabled": 0, "fusion_lat": 0.0, "name": "787091eca5dd5829271b654000766885", "fusion_lon": 0.0}, {"is_reserved": 0, "type": "electric_scooter", "bike_id": "82812da0d5743b2d31a18366ae0272e7", "lat": 38.89965316666667, "lon": -77.02620016666667, "rental_uris": {"android": "https://dc.lft.to/lastmile_qr_scan", "ios": "https://dc.lft.to/lastmile_qr_scan"}, "is_disabled": 0, "fusion_lat": 0.0, "name": "82812da0d5743b2d31a18366ae0272e7", "fusion_lon": 0.0}, {"is_reserved": 0, "type": "electric_scooter", "bike_id": "ad37fb98da0b1c139ba8edb78929c901", "lat": 38.93636983333333, "lon": -77.03658233333333, "rental_uris": {"android": "https://dc.lft.to/lastmile_qr_scan", "ios": "https://dc.lft.to/lastmile_qr_scan"}, "is_disabled": 0, "fusion_lat": 0.0, "name": "ad37fb98da0b1c139ba8edb78929c901", "fusion_lon": 0.0}, {"is_reserved": 0, "type": "electric_scooter", "bike_id": "ea00055786c7065d21c7da4eebb35b73", "lat": 38.88887183333333, "lon": -77.04301983333333, "rental_uris": {"android": "https://dc.lft.to/lastmile_qr_scan", "ios": "https://dc.lft.to/lastmile_qr_scan"}, "is_disabled": 0, "fusion_lat": 0.0, "name": "ea00055786c7065d21c7da4eebb35b73", "fusion_lon": 0.0}, {"is_reserved": 0, "type": "electric_scooter", "bike_id": "507b7d370424e309d1f8be2667fc76b6", "lat": 38.91801, "lon": -77.02709933333334, "rental_uris": {"android": "https://dc.lft.to/lastmile_qr_scan", "ios": "https://dc.lft.to/lastmile_qr_scan"}, "is_disabled": 0, "fusion_lat": 0.0, "name": "507b7d370424e309d1f8be2667fc76b6", "fusion_lon": 0.0}, {"is_reserved": 0, "type": "electric_scooter", "bike_id": "5bcd362ac4a57a421dad0f826a8613bf", "lat": 38.91923583333333, "lon": -77.03095283333333, "rental_uris": {"android": "https://dc.lft.to/lastmile_qr_scan", "ios": "https://dc.lft.to/lastmile_qr_scan"}, "is_disabled": 0, "fusion_lat": 0.0, "name": "5bcd362ac4a57a421dad0f826a8613bf", "fusion_lon": 0.0}, {"is_reserved": 0, "type": "electric_scooter", "bike_id": "4d7c87661fa28100e2be9bba6442fb45", "lat": 38.90115383333333, "lon": -77.033827, "rental_uris": {"android": "https://dc.lft.to/lastmile_qr_scan", "ios": "https://dc.lft.to/lastmile_qr_scan"}, "is_disabled": 0, "fusion_lat": 0.0, "name": "4d7c87661fa28100e2be9bba6442fb45", "fusion_lon": 0.0}, {"is_reserved": 0, "type": "electric_scooter", "bike_id": "153a0186fbb901862eb3e4e95b634f28", "lat": 38.896266, "lon": -76.95688533333333, "rental_uris": {"android": "https://dc.lft.to/lastmile_qr_scan", "ios": "https://dc.lft.to/lastmile_qr_scan"}, "is_disabled": 0, "fusion_lat": 0.0, "name": "153a0186fbb901862eb3e4e95b634f28", "fusion_lon": 0.0}, {"is_reserved": 0, "type": "electric_scooter", "bike_id": "2937050e813f64e0dc36c35b4ed4ad13", "lat": 38.91032633333333, "lon": -77.03714, "rental_uris": {"android": "https://dc.lft.to/lastmile_qr_scan", "ios": "https://dc.lft.to/lastmile_qr_scan"}, "is_disabled": 0, "fusion_lat": 0.0, "name": "2937050e813f64e0dc36c35b4ed4ad13", "fusion_lon": 0.0}, {"is_reserved": 0, "type": "electric_scooter", "bike_id": "2e0aa486bc8bed0f1b2b345c0d77c87b", "lat": 38.871637, "lon": -77.01350883333333, "rental_uris": {"android": "https://dc.lft.to/lastmile_qr_scan", "ios": "https://dc.lft.to/lastmile_qr_scan"}, "is_disabled": 0, "fusion_lat": 0.0, "name": "2e0aa486bc8bed0f1b2b345c0d77c87b", "fusion_lon": 0.0}, {"is_reserved": 0, "type": "electric_scooter", "bike_id": "af7f4e19992ff4d601016a7933e70eac", "lat": 38.9034685, "lon": -77.0320105, "rental_uris": {"android": "https://dc.lft.to/lastmile_qr_scan", "ios": "https://dc.lft.to/lastmile_qr_scan"}, "is_disabled": 0, "fusion_lat": 0.0, "name": "af7f4e19992ff4d601016a7933e70eac", "fusion_lon": 0.0}, {"is_reserved": 0, "type": "electric_bike", "bike_id": "a25479ea20e3589f41ad4b263b608d7d", "lat": 38.98185083333333, "lon": -76.98205633333333, "rental_uris": {"android": "https://dc.lft.to/lastmile_qr_scan", "ios": "https://dc.lft.to/lastmile_qr_scan"}, "is_disabled": 0, "fusion_lat": 0.0, "name": "a25479ea20e3589f41ad4b263b608d7d", "fusion_lon": 0.0}, {"is_reserved": 0, "type": "electric_scooter", "bike_id": "8b6981525214e30a5cf3788e1f1281c6", "lat": 38.92565533333333, "lon": -76.970008, "rental_uris": {"android": "https://dc.lft.to/lastmile_qr_scan", "ios": "https://dc.lft.to/lastmile_qr_scan"}, "is_disabled": 0, "fusion_lat": 0.0, "name": "8b6981525214e30a5cf3788e1f1281c6", "fusion_lon": 0.0}, {"is_reserved": 0, "type": "electric_scooter", "bike_id": "bf986162cee8f91491b4a20f484ac2f1", "lat": 38.929231, "lon": -77.0200545, "rental_uris": {"android": "https://dc.lft.to/lastmile_qr_scan", "ios": "https://dc.lft.to/lastmile_qr_scan"}, "is_disabled": 0, "fusion_lat": 0.0, "name": "bf986162cee8f91491b4a20f484ac2f1", "fusion_lon": 0.0}, {"is_reserved": 0, "type": "electric_scooter", "bike_id": "9b2e26a6ae52575cc746e3474046ca2c", "lat": 38.91998016666667, "lon": -77.0322, "rental_uris": {"android": "https://dc.lft.to/lastmile_qr_scan", "ios": "https://dc.lft.to/lastmile_qr_scan"}, "is_disabled": 0, "fusion_lat": 0.0, "name": "9b2e26a6ae52575cc746e3474046ca2c", "fusion_lon": 0.0}, {"is_reserved": 0, "type": "electric_scooter", "bike_id": "9ea7604b55814c14a98af9258d4db8fe", "lat": 38.914171333333336, "lon": -77.01881833333333, "rental_uris": {"android": "https://dc.lft.to/lastmile_qr_scan", "ios": "https://dc.lft.to/lastmile_qr_scan"}, "is_disabled": 0, "fusion_lat": 0.0, "name": "9ea7604b55814c14a98af9258d4db8fe", "fusion_lon": 0.0}, {"is_reserved": 0, "type": "electric_scooter", "bike_id": "79ee4376eb89bff65401f53e151f5f41", "lat": 38.9111485, "lon": -77.03828683333333, "rental_uris": {"android": "https://dc.lft.to/lastmile_qr_scan", "ios": "https://dc.lft.to/lastmile_qr_scan"}, "is_disabled": 0, "fusion_lat": 0.0, "name": "79ee4376eb89bff65401f53e151f5f41", "fusion_lon": 0.0}, {"is_reserved": 0, "type": "electric_scooter", "bike_id": "59964825b4cb2b7614a5ada1c4c23ab7", "lat": 38.9040085, "lon": -77.01621466666667, "rental_uris": {"android": "https://dc.lft.to/lastmile_qr_scan", "ios": "https://dc.lft.to/lastmile_qr_scan"}, "is_disabled": 0, "fusion_lat": 0.0, "name": "59964825b4cb2b7614a5ada1c4c23ab7", "fusion_lon": 0.0}, {"is_reserved": 0, "type": "electric_scooter", "bike_id": "620ebbe2fde49b747a884fe92ce7bad2", "lat": 38.9312755, "lon": -77.02303366666666, "rental_uris": {"android": "https://dc.lft.to/lastmile_qr_scan", "ios": "https://dc.lft.to/lastmile_qr_scan"}, "is_disabled": 0, "fusion_lat": 0.0, "name": "620ebbe2fde49b747a884fe92ce7bad2", "fusion_lon": 0.0}, {"is_reserved": 0, "type": "electric_scooter", "bike_id": "9525c1ceb5a0f05ce58984857baeb7c5", "lat": 38.8981195, "lon": -77.02369866666666, "rental_uris": {"android": "https://dc.lft.to/lastmile_qr_scan", "ios": "https://dc.lft.to/lastmile_qr_scan"}, "is_disabled": 0, "fusion_lat": 0.0, "name": "9525c1ceb5a0f05ce58984857baeb7c5", "fusion_lon": 0.0}, {"is_reserved": 0, "type": "electric_scooter", "bike_id": "47222fdc14bc8066af54fb5b530a7236", "lat": 38.960205333333334, "lon": -77.071557, "rental_uris": {"android": "https://dc.lft.to/lastmile_qr_scan", "ios": "https://dc.lft.to/lastmile_qr_scan"}, "is_disabled": 0, "fusion_lat": 0.0, "name": "47222fdc14bc8066af54fb5b530a7236", "fusion_lon": 0.0}, {"is_reserved": 0, "type": "electric_bike", "bike_id": "407c299dcbf086e93c7a229083d2a62e", "lat": 38.836325, "lon": -77.00281216666667, "rental_uris": {"android": "https://dc.lft.to/lastmile_qr_scan", "ios": "https://dc.lft.to/lastmile_qr_scan"}, "is_disabled": 0, "fusion_lat": 0.0, "name": "407c299dcbf086e93c7a229083d2a62e", "fusion_lon": 0.0}, {"is_reserved": 0, "type": "electric_scooter", "bike_id": "be08c7fbbf687785ff2cb8e6f8b01366", "lat": 38.93357833333334, "lon": -77.0342225, "rental_uris": {"android": "https://dc.lft.to/lastmile_qr_scan", "ios": "https://dc.lft.to/lastmile_qr_scan"}, "is_disabled": 0, "fusion_lat": 0.0, "name": "be08c7fbbf687785ff2cb8e6f8b01366", "fusion_lon": 0.0}, {"is_reserved": 0, "type": "electric_scooter", "bike_id": "1836085269d07188e28836dccf9ebf1a", "lat": 38.923368333333336, "lon": -77.05672716666666, "rental_uris": {"android": "https://dc.lft.to/lastmile_qr_scan", "ios": "https://dc.lft.to/lastmile_qr_scan"}, "is_disabled": 0, "fusion_lat": 0.0, "name": "1836085269d07188e28836dccf9ebf1a", "fusion_lon": 0.0}, {"is_reserved": 0, "type": "electric_scooter", "bike_id": "defe4560abe682582ed348bea2b58465", "lat": 38.91921216666667, "lon": -77.04807433333333, "rental_uris": {"android": "https://dc.lft.to/lastmile_qr_scan", "ios": "https://dc.lft.to/lastmile_qr_scan"}, "is_disabled": 0, "fusion_lat": 0.0, "name": "defe4560abe682582ed348bea2b58465", "fusion_lon": 0.0}, {"is_reserved": 0, "type": "electric_scooter", "bike_id": "996d23090b1c3aee65ae142a6c23dd1e", "lat": 38.90555966666667, "lon": -77.056975, "rental_uris": {"android": "https://dc.lft.to/lastmile_qr_scan", "ios": "https://dc.lft.to/lastmile_qr_scan"}, "is_disabled": 0, "fusion_lat": 0.0, "name": "996d23090b1c3aee65ae142a6c23dd1e", "fusion_lon": 0.0}, {"is_reserved": 0, "type": "electric_scooter", "bike_id": "662a91391021fdd6f269f82cefd262af", "lat": 38.908615166666664, "lon": -77.0432285, "rental_uris": {"android": "https://dc.lft.to/lastmile_qr_scan", "ios": "https://dc.lft.to/lastmile_qr_scan"}, "is_disabled": 0, "fusion_lat": 0.0, "name": "662a91391021fdd6f269f82cefd262af", "fusion_lon": 0.0}, {"is_reserved": 0, "type": "electric_scooter", "bike_id": "e55afd088050d477647a100785690933", "lat": 38.872156333333336, "lon": -77.0135545, "rental_uris": {"android": "https://dc.lft.to/lastmile_qr_scan", "ios": "https://dc.lft.to/lastmile_qr_scan"}, "is_disabled": 0, "fusion_lat": 0.0, "name": "e55afd088050d477647a100785690933", "fusion_lon": 0.0}, {"is_reserved": 0, "type": "electric_scooter", "bike_id": "4fae25523c5bfddcae10ba9fd8d9c18f", "lat": 38.909337666666666, "lon": -76.99632033333333, "rental_uris": {"android": "https://dc.lft.to/lastmile_qr_scan", "ios": "https://dc.lft.to/lastmile_qr_scan"}, "is_disabled": 0, "fusion_lat": 0.0, "name": "4fae25523c5bfddcae10ba9fd8d9c18f", "fusion_lon": 0.0}, {"is_reserved": 0, "type": "electric_scooter", "bike_id": "fea6a7f9eab84da98c338506630f5c5b", "lat": 38.90911033333333, "lon": -77.039603, "rental_uris": {"android": "https://dc.lft.to/lastmile_qr_scan", "ios": "https://dc.lft.to/lastmile_qr_scan"}, "is_disabled": 0, "fusion_lat": 0.0, "name": "fea6a7f9eab84da98c338506630f5c5b", "fusion_lon": 0.0}, {"is_reserved": 0, "type": "electric_scooter", "bike_id": "530db3ac392eac8bc69bd4d0ebf33fae", "lat": 38.935274166666666, "lon": -77.01942766666667, "rental_uris": {"android": "https://dc.lft.to/lastmile_qr_scan", "ios": "https://dc.lft.to/lastmile_qr_scan"}, "is_disabled": 0, "fusion_lat": 0.0, "name": "530db3ac392eac8bc69bd4d0ebf33fae", "fusion_lon": 0.0}, {"is_reserved": 0, "type": "electric_scooter", "bike_id": "1a469d51824d1452d66ccd7d48bdcd54", "lat": 38.9112165, "lon": -77.038425, "rental_uris": {"android": "https://dc.lft.to/lastmile_qr_scan", "ios": "https://dc.lft.to/lastmile_qr_scan"}, "is_disabled": 0, "fusion_lat": 0.0, "name": "1a469d51824d1452d66ccd7d48bdcd54", "fusion_lon": 0.0}, {"is_reserved": 0, "type": "electric_scooter", "bike_id": "57c879c6e6faa2205c31e2bb7a512de5", "lat": 38.90695633333333, "lon": -76.98353116666667, "rental_uris": {"android": "https://dc.lft.to/lastmile_qr_scan", "ios": "https://dc.lft.to/lastmile_qr_scan"}, "is_disabled": 0, "fusion_lat": 0.0, "name": "57c879c6e6faa2205c31e2bb7a512de5", "fusion_lon": 0.0}, {"is_reserved": 0, "type": "electric_scooter", "bike_id": "88fb2f5e31f01a7326f2f4f319859005", "lat": 38.905599333333335, "lon": -77.015885, "rental_uris": {"android": "https://dc.lft.to/lastmile_qr_scan", "ios": "https://dc.lft.to/lastmile_qr_scan"}, "is_disabled": 0, "fusion_lat": 0.0, "name": "88fb2f5e31f01a7326f2f4f319859005", "fusion_lon": 0.0}, {"is_reserved": 0, "type": "electric_scooter", "bike_id": "6e8c87e0bfc92a37ca1cd450a535ef2d", "lat": 38.899538166666666, "lon": -76.97908266666667, "rental_uris": {"android": "https://dc.lft.to/lastmile_qr_scan", "ios": "https://dc.lft.to/lastmile_qr_scan"}, "is_disabled": 0, "fusion_lat": 0.0, "name": "6e8c87e0bfc92a37ca1cd450a535ef2d", "fusion_lon": 0.0}, {"is_reserved": 0, "type": "electric_scooter", "bike_id": "dd01e5946312ad438f3f6433a75bd5d9", "lat": 38.89183366666666, "lon": -77.01592383333333, "rental_uris": {"android": "https://dc.lft.to/lastmile_qr_scan", "ios": "https://dc.lft.to/lastmile_qr_scan"}, "is_disabled": 0, "fusion_lat": 0.0, "name": "dd01e5946312ad438f3f6433a75bd5d9", "fusion_lon": 0.0}, {"is_reserved": 0, "type": "electric_scooter", "bike_id": "ad605b5baf89cd745940dfcc5c1632d4", "lat": 38.932003333333334, "lon": -77.038549, "rental_uris": {"android": "https://dc.lft.to/lastmile_qr_scan", "ios": "https://dc.lft.to/lastmile_qr_scan"}, "is_disabled": 0, "fusion_lat": 0.0, "name": "ad605b5baf89cd745940dfcc5c1632d4", "fusion_lon": 0.0}, {"is_reserved": 0, "type": "electric_bike", "bike_id": "70dcbadf1de2ddb3a514f7b42dd34e80", "lat": 38.803849, "lon": -76.9881485, "rental_uris": {"android": "https://dc.lft.to/lastmile_qr_scan", "ios": "https://dc.lft.to/lastmile_qr_scan"}, "is_disabled": 0, "fusion_lat": 0.0, "name": "70dcbadf1de2ddb3a514f7b42dd34e80", "fusion_lon": 0.0}, {"is_reserved": 0, "type": "electric_scooter", "bike_id": "f6e2334fd6eac3fea702e3be00cb8858", "lat": 38.84811916666666, "lon": -76.97820266666666, "rental_uris": {"android": "https://dc.lft.to/lastmile_qr_scan", "ios": "https://dc.lft.to/lastmile_qr_scan"}, "is_disabled": 0, "fusion_lat": 0.0, "name": "f6e2334fd6eac3fea702e3be00cb8858", "fusion_lon": 0.0}, {"is_reserved": 0, "type": "electric_scooter", "bike_id": "cc682ad45b2576de26447d56e82a5c79", "lat": 38.92767833333333, "lon": -77.02875733333333, "rental_uris": {"android": "https://dc.lft.to/lastmile_qr_scan", "ios": "https://dc.lft.to/lastmile_qr_scan"}, "is_disabled": 0, "fusion_lat": 0.0, "name": "cc682ad45b2576de26447d56e82a5c79", "fusion_lon": 0.0}, {"is_reserved": 0, "type": "electric_scooter", "bike_id": "038b0468ea60cc0053fb51e4adc155fa", "lat": 38.903657333333335, "lon": -77.0417745, "rental_uris": {"android": "https://dc.lft.to/lastmile_qr_scan", "ios": "https://dc.lft.to/lastmile_qr_scan"}, "is_disabled": 0, "fusion_lat": 0.0, "name": "038b0468ea60cc0053fb51e4adc155fa", "fusion_lon": 0.0}, {"is_reserved": 0, "type": "electric_scooter", "bike_id": "8a696c2c696078cfff1a76c2c5fdf555", "lat": 38.92550966666667, "lon": -76.99954683333333, "rental_uris": {"android": "https://dc.lft.to/lastmile_qr_scan", "ios": "https://dc.lft.to/lastmile_qr_scan"}, "is_disabled": 0, "fusion_lat": 0.0, "name": "8a696c2c696078cfff1a76c2c5fdf555", "fusion_lon": 0.0}, {"is_reserved": 0, "type": "electric_scooter", "bike_id": "d5701f7f5badca9513688cd15e20b81c", "lat": 38.90383333333333, "lon": -77.03136916666666, "rental_uris": {"android": "https://dc.lft.to/lastmile_qr_scan", "ios": "https://dc.lft.to/lastmile_qr_scan"}, "is_disabled": 0, "fusion_lat": 0.0, "name": "d5701f7f5badca9513688cd15e20b81c", "fusion_lon": 0.0}, {"is_reserved": 0, "type": "electric_scooter", "bike_id": "01170af435c535de3315882fbc04f8e9", "lat": 38.89751283333333, "lon": -77.02432183333333, "rental_uris": {"android": "https://dc.lft.to/lastmile_qr_scan", "ios": "https://dc.lft.to/lastmile_qr_scan"}, "is_disabled": 0, "fusion_lat": 0.0, "name": "01170af435c535de3315882fbc04f8e9", "fusion_lon": 0.0}, {"is_reserved": 0, "type": "electric_scooter", "bike_id": "0ec7782a562cbc2b0113e9d64cfc60f7", "lat": 38.91954783333333, "lon": -77.04457466666666, "rental_uris": {"android": "https://dc.lft.to/lastmile_qr_scan", "ios": "https://dc.lft.to/lastmile_qr_scan"}, "is_disabled": 0, "fusion_lat": 0.0, "name": "0ec7782a562cbc2b0113e9d64cfc60f7", "fusion_lon": 0.0}, {"is_reserved": 0, "type": "electric_scooter", "bike_id": "0e7914e1daf72f6c70a7811ae615973c", "lat": 38.891852, "lon": -77.01591183333333, "rental_uris": {"android": "https://dc.lft.to/lastmile_qr_scan", "ios": "https://dc.lft.to/lastmile_qr_scan"}, "is_disabled": 0, "fusion_lat": 0.0, "name": "0e7914e1daf72f6c70a7811ae615973c", "fusion_lon": 0.0}, {"is_reserved": 0, "type": "electric_scooter", "bike_id": "a6b19dcd5a6ea7fb8f238451fd90ad8a", "lat": 38.90842516666667, "lon": -77.03446416666667, "rental_uris": {"android": "https://dc.lft.to/lastmile_qr_scan", "ios": "https://dc.lft.to/lastmile_qr_scan"}, "is_disabled": 0, "fusion_lat": 0.0, "name": "a6b19dcd5a6ea7fb8f238451fd90ad8a", "fusion_lon": 0.0}, {"is_reserved": 0, "type": "electric_scooter", "bike_id": "f45015faeb4fff492da0b26c43632e82", "lat": 38.89683483333334, "lon": -77.01199016666666, "rental_uris": {"android": "https://dc.lft.to/lastmile_qr_scan", "ios": "https://dc.lft.to/lastmile_qr_scan"}, "is_disabled": 0, "fusion_lat": 0.0, "name": "f45015faeb4fff492da0b26c43632e82", "fusion_lon": 0.0}, {"is_reserved": 0, "type": "electric_scooter", "bike_id": "ac0084d44306f22db0622dc6f0a765a8", "lat": 38.917984, "lon": -77.02708283333334, "rental_uris": {"android": "https://dc.lft.to/lastmile_qr_scan", "ios": "https://dc.lft.to/lastmile_qr_scan"}, "is_disabled": 0, "fusion_lat": 0.0, "name": "ac0084d44306f22db0622dc6f0a765a8", "fusion_lon": 0.0}, {"is_reserved": 0, "type": "electric_scooter", "bike_id": "009e0bf3fac78c4676865480d17b8a16", "lat": 38.919916666666666, "lon": -77.0288665, "rental_uris": {"android": "https://dc.lft.to/lastmile_qr_scan", "ios": "https://dc.lft.to/lastmile_qr_scan"}, "is_disabled": 0, "fusion_lat": 0.0, "name": "009e0bf3fac78c4676865480d17b8a16", "fusion_lon": 0.0}, {"is_reserved": 0, "type": "electric_scooter", "bike_id": "223fae2bb2b9b13c48b06ff6fd214ebb", "lat": 38.88402716666667, "lon": -76.98975516666667, "rental_uris": {"android": "https://dc.lft.to/lastmile_qr_scan", "ios": "https://dc.lft.to/lastmile_qr_scan"}, "is_disabled": 0, "fusion_lat": 0.0, "name": "223fae2bb2b9b13c48b06ff6fd214ebb", "fusion_lon": 0.0}, {"is_reserved": 0, "type": "electric_scooter", "bike_id": "7e97559c62e868b01005c675d740dde1", "lat": 38.940786833333334, "lon": -77.033296, "rental_uris": {"android": "https://dc.lft.to/lastmile_qr_scan", "ios": "https://dc.lft.to/lastmile_qr_scan"}, "is_disabled": 0, "fusion_lat": 0.0, "name": "7e97559c62e868b01005c675d740dde1", "fusion_lon": 0.0}, {"is_reserved": 0, "type": "electric_scooter", "bike_id": "3c1b0db07af6ee483d6daf12844fbdea", "lat": 38.914660833333336, "lon": -77.04575616666666, "rental_uris": {"android": "https://dc.lft.to/lastmile_qr_scan", "ios": "https://dc.lft.to/lastmile_qr_scan"}, "is_disabled": 0, "fusion_lat": 0.0, "name": "3c1b0db07af6ee483d6daf12844fbdea", "fusion_lon": 0.0}, {"is_reserved": 0, "type": "electric_scooter", "bike_id": "6a25a5a649890074de1640bcc42ca3ab", "lat": 38.9424635, "lon": -77.0358165, "rental_uris": {"android": "https://dc.lft.to/lastmile_qr_scan", "ios": "https://dc.lft.to/lastmile_qr_scan"}, "is_disabled": 0, "fusion_lat": 0.0, "name": "6a25a5a649890074de1640bcc42ca3ab", "fusion_lon": 0.0}, {"is_reserved": 0, "type": "electric_scooter", "bike_id": "b19fab0abbb3ddbd4b9925cc3eb9d298", "lat": 38.892304, "lon": -77.03352316666667, "rental_uris": {"android": "https://dc.lft.to/lastmile_qr_scan", "ios": "https://dc.lft.to/lastmile_qr_scan"}, "is_disabled": 0, "fusion_lat": 0.0, "name": "b19fab0abbb3ddbd4b9925cc3eb9d298", "fusion_lon": 0.0}, {"is_reserved": 0, "type": "electric_scooter", "bike_id": "8786d2ac19ebffde7179e314bd17d42a", "lat": 38.87763283333334, "lon": -76.99425016666666, "rental_uris": {"android": "https://dc.lft.to/lastmile_qr_scan", "ios": "https://dc.lft.to/lastmile_qr_scan"}, "is_disabled": 0, "fusion_lat": 0.0, "name": "8786d2ac19ebffde7179e314bd17d42a", "fusion_lon": 0.0}, {"is_reserved": 0, "type": "electric_scooter", "bike_id": "cc50fe608728d2464bd3975948cb105e", "lat": 38.89888166666667, "lon": -76.9317545, "rental_uris": {"android": "https://dc.lft.to/lastmile_qr_scan", "ios": "https://dc.lft.to/lastmile_qr_scan"}, "is_disabled": 0, "fusion_lat": 0.0, "name": "cc50fe608728d2464bd3975948cb105e", "fusion_lon": 0.0}, {"is_reserved": 0, "type": "electric_scooter", "bike_id": "52ebe047c6d5a33192788a5541c5bf18", "lat": 38.9158355, "lon": -77.01232133333333, "rental_uris": {"android": "https://dc.lft.to/lastmile_qr_scan", "ios": "https://dc.lft.to/lastmile_qr_scan"}, "is_disabled": 0, "fusion_lat": 0.0, "name": "52ebe047c6d5a33192788a5541c5bf18", "fusion_lon": 0.0}, {"is_reserved": 0, "type": "electric_bike", "bike_id": "4ffd7d6b9092be2a21c631918c324214", "lat": 38.943703666666664, "lon": -77.0774675, "rental_uris": {"android": "https://dc.lft.to/lastmile_qr_scan", "ios": "https://dc.lft.to/lastmile_qr_scan"}, "is_disabled": 0, "fusion_lat": 0.0, "name": "4ffd7d6b9092be2a21c631918c324214", "fusion_lon": 0.0}, {"is_reserved": 0, "type": "electric_scooter", "bike_id": "90bf0d739306f702b7fa1dec81f819c2", "lat": 38.921068, "lon": -77.01764933333334, "rental_uris": {"android": "https://dc.lft.to/lastmile_qr_scan", "ios": "https://dc.lft.to/lastmile_qr_scan"}, "is_disabled": 0, "fusion_lat": 0.0, "name": "90bf0d739306f702b7fa1dec81f819c2", "fusion_lon": 0.0}, {"is_reserved": 0, "type": "electric_scooter", "bike_id": "84fb8589d557b407ad00e97d5bc85c94", "lat": 38.917117, "lon": -77.038715, "rental_uris": {"android": "https://dc.lft.to/lastmile_qr_scan", "ios": "https://dc.lft.to/lastmile_qr_scan"}, "is_disabled": 0, "fusion_lat": 0.0, "name": "84fb8589d557b407ad00e97d5bc85c94", "fusion_lon": 0.0}, {"is_reserved": 0, "type": "electric_scooter", "bike_id": "8c9ae77c4e21fa265e834de8869055ee", "lat": 38.865799833333334, "lon": -76.990237, "rental_uris": {"android": "https://dc.lft.to/lastmile_qr_scan", "ios": "https://dc.lft.to/lastmile_qr_scan"}, "is_disabled": 0, "fusion_lat": 0.0, "name": "8c9ae77c4e21fa265e834de8869055ee", "fusion_lon": 0.0}, {"is_reserved": 0, "type": "electric_scooter", "bike_id": "3b244a88af436e4746983b9f7beb8cf3", "lat": 38.89729116666667, "lon": -77.02170766666667, "rental_uris": {"android": "https://dc.lft.to/lastmile_qr_scan", "ios": "https://dc.lft.to/lastmile_qr_scan"}, "is_disabled": 0, "fusion_lat": 0.0, "name": "3b244a88af436e4746983b9f7beb8cf3", "fusion_lon": 0.0}, {"is_reserved": 0, "type": "electric_bike", "bike_id": "249157f69159b83d32cc1cea52091364", "lat": 38.820463833333335, "lon": -77.05364166666666, "rental_uris": {"android": "https://dc.lft.to/lastmile_qr_scan", "ios": "https://dc.lft.to/lastmile_qr_scan"}, "is_disabled": 0, "fusion_lat": 0.0, "name": "249157f69159b83d32cc1cea52091364", "fusion_lon": 0.0}, {"is_reserved": 0, "type": "electric_scooter", "bike_id": "08344f1273e599666e32c3f38b2052c2", "lat": 38.901363333333336, "lon": -76.997946, "rental_uris": {"android": "https://dc.lft.to/lastmile_qr_scan", "ios": "https://dc.lft.to/lastmile_qr_scan"}, "is_disabled": 0, "fusion_lat": 0.0, "name": "08344f1273e599666e32c3f38b2052c2", "fusion_lon": 0.0}, {"is_reserved": 0, "type": "electric_bike", "bike_id": "4bc70dc6e56ad5c79e5d1a1feff49e08", "lat": 38.92448866666667, "lon": -77.019182, "rental_uris": {"android": "https://dc.lft.to/lastmile_qr_scan", "ios": "https://dc.lft.to/lastmile_qr_scan"}, "is_disabled": 0, "fusion_lat": 0.0, "name": "4bc70dc6e56ad5c79e5d1a1feff49e08", "fusion_lon": 0.0}, {"is_reserved": 0, "type": "electric_scooter", "bike_id": "73eb3c9f1f2a5f5c331368610779fcb1", "lat": 38.915750833333334, "lon": -77.018744, "rental_uris": {"android": "https://dc.lft.to/lastmile_qr_scan", "ios": "https://dc.lft.to/lastmile_qr_scan"}, "is_disabled": 0, "fusion_lat": 0.0, "name": "73eb3c9f1f2a5f5c331368610779fcb1", "fusion_lon": 0.0}, {"is_reserved": 0, "type": "electric_scooter", "bike_id": "98ae625bf4b129bff42665d98942c70a", "lat": 38.93367816666667, "lon": -77.02726583333333, "rental_uris": {"android": "https://dc.lft.to/lastmile_qr_scan", "ios": "https://dc.lft.to/lastmile_qr_scan"}, "is_disabled": 0, "fusion_lat": 0.0, "name": "98ae625bf4b129bff42665d98942c70a", "fusion_lon": 0.0}, {"is_reserved": 0, "type": "electric_scooter", "bike_id": "2c78b8e56540279d6d83b16d2e24165c", "lat": 38.911758, "lon": -77.02693766666667, "rental_uris": {"android": "https://dc.lft.to/lastmile_qr_scan", "ios": "https://dc.lft.to/lastmile_qr_scan"}, "is_disabled": 0, "fusion_lat": 0.0, "name": "2c78b8e56540279d6d83b16d2e24165c", "fusion_lon": 0.0}, {"is_reserved": 0, "type": "electric_scooter", "bike_id": "ad3ba3449cdf2cf2bc7bd8eef044e380", "lat": 38.903886666666665, "lon": -77.0184955, "rental_uris": {"android": "https://dc.lft.to/lastmile_qr_scan", "ios": "https://dc.lft.to/lastmile_qr_scan"}, "is_disabled": 0, "fusion_lat": 0.0, "name": "ad3ba3449cdf2cf2bc7bd8eef044e380", "fusion_lon": 0.0}, {"is_reserved": 0, "type": "electric_scooter", "bike_id": "cc47c7009d4b217130134c9b768cbc5a", "lat": 38.9133645, "lon": -77.02197366666667, "rental_uris": {"android": "https://dc.lft.to/lastmile_qr_scan", "ios": "https://dc.lft.to/lastmile_qr_scan"}, "is_disabled": 0, "fusion_lat": 0.0, "name": "cc47c7009d4b217130134c9b768cbc5a", "fusion_lon": 0.0}, {"is_reserved": 0, "type": "electric_scooter", "bike_id": "b87e1ea14e112ee7f9c847a716a40166", "lat": 38.93240383333333, "lon": -77.03846833333333, "rental_uris": {"android": "https://dc.lft.to/lastmile_qr_scan", "ios": "https://dc.lft.to/lastmile_qr_scan"}, "is_disabled": 0, "fusion_lat": 0.0, "name": "b87e1ea14e112ee7f9c847a716a40166", "fusion_lon": 0.0}, {"is_reserved": 0, "type": "electric_scooter", "bike_id": "240a76fe52039e73432caa06cfa703d2", "lat": 38.923918, "lon": -77.0296295, "rental_uris": {"android": "https://dc.lft.to/lastmile_qr_scan", "ios": "https://dc.lft.to/lastmile_qr_scan"}, "is_disabled": 0, "fusion_lat": 0.0, "name": "240a76fe52039e73432caa06cfa703d2", "fusion_lon": 0.0}, {"is_reserved": 0, "type": "electric_scooter", "bike_id": "0985ebb054c54e916f8ee700db2a40fb", "lat": 38.9110855, "lon": -77.0480145, "rental_uris": {"android": "https://dc.lft.to/lastmile_qr_scan", "ios": "https://dc.lft.to/lastmile_qr_scan"}, "is_disabled": 0, "fusion_lat": 0.0, "name": "0985ebb054c54e916f8ee700db2a40fb", "fusion_lon": 0.0}, {"is_reserved": 0, "type": "electric_scooter", "bike_id": "762a6fe41876c168a315ee68641c2580", "lat": 38.92249116666667, "lon": -77.02884183333333, "rental_uris": {"android": "https://dc.lft.to/lastmile_qr_scan", "ios": "https://dc.lft.to/lastmile_qr_scan"}, "is_disabled": 0, "fusion_lat": 0.0, "name": "762a6fe41876c168a315ee68641c2580", "fusion_lon": 0.0}, {"is_reserved": 0, "type": "electric_scooter", "bike_id": "7e798f734d8375f965316db3ea403af0", "lat": 38.899032166666665, "lon": -77.00370116666667, "rental_uris": {"android": "https://dc.lft.to/lastmile_qr_scan", "ios": "https://dc.lft.to/lastmile_qr_scan"}, "is_disabled": 0, "fusion_lat": 0.0, "name": "7e798f734d8375f965316db3ea403af0", "fusion_lon": 0.0}, {"is_reserved": 0, "type": "electric_scooter", "bike_id": "b631b1fb2759ce513ce8d571a27d7c01", "lat": 38.901512, "lon": -77.02803583333333, "rental_uris": {"android": "https://dc.lft.to/lastmile_qr_scan", "ios": "https://dc.lft.to/lastmile_qr_scan"}, "is_disabled": 0, "fusion_lat": 0.0, "name": "b631b1fb2759ce513ce8d571a27d7c01", "fusion_lon": 0.0}, {"is_reserved": 0, "type": "electric_bike", "bike_id": "82e88c13f5038df2b68e8b9802983399", "lat": 38.80732783333333, "lon": -76.99254133333334, "rental_uris": {"android": "https://dc.lft.to/lastmile_qr_scan", "ios": "https://dc.lft.to/lastmile_qr_scan"}, "is_disabled": 0, "fusion_lat": 0.0, "name": "82e88c13f5038df2b68e8b9802983399", "fusion_lon": 0.0}, {"is_reserved": 0, "type": "electric_scooter", "bike_id": "940635954404f75ab58bb117bdc70b6f", "lat": 38.9018165, "lon": -76.9289195, "rental_uris": {"android": "https://dc.lft.to/lastmile_qr_scan", "ios": "https://dc.lft.to/lastmile_qr_scan"}, "is_disabled": 0, "fusion_lat": 0.0, "name": "940635954404f75ab58bb117bdc70b6f", "fusion_lon": 0.0}, {"is_reserved": 0, "type": "electric_scooter", "bike_id": "99df86228262c0e38930621516ea69cb", "lat": 38.924330499999996, "lon": -77.02242583333333, "rental_uris": {"android": "https://dc.lft.to/lastmile_qr_scan", "ios": "https://dc.lft.to/lastmile_qr_scan"}, "is_disabled": 0, "fusion_lat": 0.0, "name": "99df86228262c0e38930621516ea69cb", "fusion_lon": 0.0}, {"is_reserved": 0, "type": "electric_scooter", "bike_id": "b6101f99043a0c291491027aab766e3b", "lat": 38.872165333333335, "lon": -77.0154515, "rental_uris": {"android": "https://dc.lft.to/lastmile_qr_scan", "ios": "https://dc.lft.to/lastmile_qr_scan"}, "is_disabled": 0, "fusion_lat": 0.0, "name": "b6101f99043a0c291491027aab766e3b", "fusion_lon": 0.0}, {"is_reserved": 0, "type": "electric_scooter", "bike_id": "71eb20e19794fa80524e779e4fae6c35", "lat": 38.8971295, "lon": -77.0536075, "rental_uris": {"android": "https://dc.lft.to/lastmile_qr_scan", "ios": "https://dc.lft.to/lastmile_qr_scan"}, "is_disabled": 0, "fusion_lat": 0.0, "name": "71eb20e19794fa80524e779e4fae6c35", "fusion_lon": 0.0}, {"is_reserved": 0, "type": "electric_bike", "bike_id": "854f3e571ec5138f6a556fa3b40ede3c", "lat": 38.9056915, "lon": -77.029479, "rental_uris": {"android": "https://dc.lft.to/lastmile_qr_scan", "ios": "https://dc.lft.to/lastmile_qr_scan"}, "is_disabled": 0, "fusion_lat": 0.0, "name": "854f3e571ec5138f6a556fa3b40ede3c", "fusion_lon": 0.0}, {"is_reserved": 0, "type": "electric_scooter", "bike_id": "8b4ef5a687e212cf871bec7e9c768724", "lat": 38.91640683333333, "lon": -77.048149, "rental_uris": {"android": "https://dc.lft.to/lastmile_qr_scan", "ios": "https://dc.lft.to/lastmile_qr_scan"}, "is_disabled": 0, "fusion_lat": 0.0, "name": "8b4ef5a687e212cf871bec7e9c768724", "fusion_lon": 0.0}, {"is_reserved": 0, "type": "electric_scooter", "bike_id": "fdea02a7c367e309eb52778b8e2532ff", "lat": 38.905572, "lon": -77.05697633333334, "rental_uris": {"android": "https://dc.lft.to/lastmile_qr_scan", "ios": "https://dc.lft.to/lastmile_qr_scan"}, "is_disabled": 0, "fusion_lat": 0.0, "name": "fdea02a7c367e309eb52778b8e2532ff", "fusion_lon": 0.0}, {"is_reserved": 0, "type": "electric_scooter", "bike_id": "e1becd3cab93dfd6d2958933115bd63b", "lat": 38.892302666666666, "lon": -77.03184666666667, "rental_uris": {"android": "https://dc.lft.to/lastmile_qr_scan", "ios": "https://dc.lft.to/lastmile_qr_scan"}, "is_disabled": 0, "fusion_lat": 0.0, "name": "e1becd3cab93dfd6d2958933115bd63b", "fusion_lon": 0.0}, {"is_reserved": 0, "type": "electric_scooter", "bike_id": "2d5d009338ee3d46c3c95cb3a0f8ba38", "lat": 38.91107816666667, "lon": -77.02077883333334, "rental_uris": {"android": "https://dc.lft.to/lastmile_qr_scan", "ios": "https://dc.lft.to/lastmile_qr_scan"}, "is_disabled": 0, "fusion_lat": 0.0, "name": "2d5d009338ee3d46c3c95cb3a0f8ba38", "fusion_lon": 0.0}, {"is_reserved": 0, "type": "electric_scooter", "bike_id": "60d59a51a44367c2e7117a51e85798ba", "lat": 38.8876735, "lon": -76.98325616666666, "rental_uris": {"android": "https://dc.lft.to/lastmile_qr_scan", "ios": "https://dc.lft.to/lastmile_qr_scan"}, "is_disabled": 0, "fusion_lat": 0.0, "name": "60d59a51a44367c2e7117a51e85798ba", "fusion_lon": 0.0}, {"is_reserved": 0, "type": "electric_scooter", "bike_id": "bd0132fc6ba24211f6c39cf9ae536c6c", "lat": 38.908526333333334, "lon": -77.00372816666666, "rental_uris": {"android": "https://dc.lft.to/lastmile_qr_scan", "ios": "https://dc.lft.to/lastmile_qr_scan"}, "is_disabled": 0, "fusion_lat": 0.0, "name": "bd0132fc6ba24211f6c39cf9ae536c6c", "fusion_lon": 0.0}, {"is_reserved": 0, "type": "electric_scooter", "bike_id": "43f46bf2d060e4b5ce3f9ba9cd377668", "lat": 38.919382, "lon": -77.01878616666667, "rental_uris": {"android": "https://dc.lft.to/lastmile_qr_scan", "ios": "https://dc.lft.to/lastmile_qr_scan"}, "is_disabled": 0, "fusion_lat": 0.0, "name": "43f46bf2d060e4b5ce3f9ba9cd377668", "fusion_lon": 0.0}, {"is_reserved": 0, "type": "electric_scooter", "bike_id": "30a8bedae6c4d97f414cc7218d08a203", "lat": 38.865950833333336, "lon": -76.97453183333333, "rental_uris": {"android": "https://dc.lft.to/lastmile_qr_scan", "ios": "https://dc.lft.to/lastmile_qr_scan"}, "is_disabled": 0, "fusion_lat": 0.0, "name": "30a8bedae6c4d97f414cc7218d08a203", "fusion_lon": 0.0}, {"is_reserved": 0, "type": "electric_scooter", "bike_id": "d12b82d451f79174257777190b703edd", "lat": 38.897718, "lon": -77.02683666666667, "rental_uris": {"android": "https://dc.lft.to/lastmile_qr_scan", "ios": "https://dc.lft.to/lastmile_qr_scan"}, "is_disabled": 0, "fusion_lat": 0.0, "name": "d12b82d451f79174257777190b703edd", "fusion_lon": 0.0}, {"is_reserved": 0, "type": "electric_scooter", "bike_id": "8a3effd9df932bce86a33fdb06851055", "lat": 38.915591666666664, "lon": -77.02342883333333, "rental_uris": {"android": "https://dc.lft.to/lastmile_qr_scan", "ios": "https://dc.lft.to/lastmile_qr_scan"}, "is_disabled": 0, "fusion_lat": 0.0, "name": "8a3effd9df932bce86a33fdb06851055", "fusion_lon": 0.0}, {"is_reserved": 0, "type": "electric_scooter", "bike_id": "371448607b5b0697deb68ce3aa6e7f4f", "lat": 38.906474, "lon": -77.0179455, "rental_uris": {"android": "https://dc.lft.to/lastmile_qr_scan", "ios": "https://dc.lft.to/lastmile_qr_scan"}, "is_disabled": 0, "fusion_lat": 0.0, "name": "371448607b5b0697deb68ce3aa6e7f4f", "fusion_lon": 0.0}, {"is_reserved": 0, "type": "electric_scooter", "bike_id": "b8a0c2bc4298ae36c633c4e57f94723d", "lat": 38.89812883333333, "lon": -76.99688666666667, "rental_uris": {"android": "https://dc.lft.to/lastmile_qr_scan", "ios": "https://dc.lft.to/lastmile_qr_scan"}, "is_disabled": 0, "fusion_lat": 0.0, "name": "b8a0c2bc4298ae36c633c4e57f94723d", "fusion_lon": 0.0}, {"is_reserved": 0, "type": "electric_scooter", "bike_id": "b2b1f2ff5d127243745cc9e6cee6f0f4", "lat": 38.88763983333333, "lon": -76.983233, "rental_uris": {"android": "https://dc.lft.to/lastmile_qr_scan", "ios": "https://dc.lft.to/lastmile_qr_scan"}, "is_disabled": 0, "fusion_lat": 0.0, "name": "b2b1f2ff5d127243745cc9e6cee6f0f4", "fusion_lon": 0.0}, {"is_reserved": 0, "type": "electric_scooter", "bike_id": "e298b00ec9a5fde1c9ff15c1259267b2", "lat": 38.86719083333333, "lon": -76.98070366666667, "rental_uris": {"android": "https://dc.lft.to/lastmile_qr_scan", "ios": "https://dc.lft.to/lastmile_qr_scan"}, "is_disabled": 0, "fusion_lat": 0.0, "name": "e298b00ec9a5fde1c9ff15c1259267b2", "fusion_lon": 0.0},