{"data": {"bikes": [{"is_disabled": 0, "fusion_lon": 0.0, "fusion_lat": 0.0, "lat": 38.92596566666667, "type": "electric_scooter", "lon": -77.02157316666667, "bike_id": "eb178c5489bee9e8f45778b4f77d3a57", "rental_uris": {"android": "https://dc.lft.to/lastmile_qr_scan", "ios": "https://dc.lft.to/lastmile_qr_scan"}, "name": "eb178c5489bee9e8f45778b4f77d3a57", "is_reserved": 0}, {"is_disabled": 0, "fusion_lon": 0.0, "fusion_lat": 0.0, "lat": 38.90211216666667, "type": "electric_scooter", "lon": -77.02437083333334, "bike_id": "53bfd5cc247161f2da7da095df25f440", "rental_uris": {"android": "https://dc.lft.to/lastmile_qr_scan", "ios": "https://dc.lft.to/lastmile_qr_scan"}, "name": "53bfd5cc247161f2da7da095df25f440", "is_reserved": 0}, {"is_disabled": 0, "fusion_lon": 0.0, "fusion_lat": 0.0, "lat": 38.90886916666667, "type": "electric_scooter", "lon": -77.04353083333334, "bike_id": "090568b3ce35d3f05171cba9bb1a10ac", "rental_uris": {"android": "https://dc.lft.to/lastmile_qr_scan", "ios": "https://dc.lft.to/lastmile_qr_scan"}, "name": "090568b3ce35d3f05171cba9bb1a10ac", "is_reserved": 0}, {"is_disabled": 0, "fusion_lon": 0.0, "fusion_lat": 0.0, "lat": 38.920715333333334, "type": "electric_scooter", "lon": -77.03162866666666, "bike_id": "a23bc9213fdc69e982b6ed2816684a0c", "rental_uris": {"android": "https://dc.lft.to/lastmile_qr_scan", "ios": "https://dc.lft.to/lastmile_qr_scan"}, "name": "a23bc9213fdc69e982b6ed2816684a0c", "is_reserved": 0}, {"is_disabled": 0, "fusion_lon": 0.0, "fusion_lat": 0.0, "lat": 38.90742783333334, "type": "electric_scooter", "lon": -77.043409, "bike_id": "bee1eff22ce6b20e3426727ff91b0972", "rental_uris": {"android": "https://dc.lft.to/lastmile_qr_scan", "ios": "https://dc.lft.to/lastmile_qr_scan"}, "name": "bee1eff22ce6b20e3426727ff91b0972", "is_reserved": 0}, {"is_disabled": 0, "fusion_lon": 0.0, "fusion_lat": 0.0, "lat": 38.922231, "type": "electric_scooter", "lon": -77.034549, "bike_id": "2a34159bfd7135b1ca3d6ed30649b751", "rental_uris": {"android": "https://dc.lft.to/lastmile_qr_scan", "ios": "https://dc.lft.to/lastmile_qr_scan"}, "name": "2a34159bfd7135b1ca3d6ed30649b751", "is_reserved": 0}, {"is_disabled": 0, "fusion_lon": 0.0, "fusion_lat": 0.0, "lat": 38.89746183333333, "type": "electric_scooter", "lon": -77.0097725, "bike_id": "efb2f3800b596420a2533991e540499e", "rental_uris": {"android": "https://dc.lft.to/lastmile_qr_scan", "ios": "https://dc.lft.to/lastmile_qr_scan"}, "name": "efb2f3800b596420a2533991e540499e", "is_reserved": 0}, {"is_disabled": 0, "fusion_lon": 0.0, "fusion_lat": 0.0, "lat": 38.887397666666665, "type": "electric_scooter", "lon": -77.02159766666666, "bike_id": "d310f2fe95f20d846eae7468fa1e48f3", "rental_uris": {"android": "https://dc.lft.to/lastmile_qr_scan", "ios": "https://dc.lft.to/lastmile_qr_scan"}, "name": "d310f2fe95f20d846eae7468fa1e48f3", "is_reserved": 0}, {"is_disabled": 0, "fusion_lon": 0.0, "fusion_lat": 0.0, "lat": 38.927551333333334, "type": "electric_scooter", "lon": -77.00590183333334, "bike_id": "4dd5421d7484b8cbc30cfe84d1c3a639", "rental_uris": {"android": "https://dc.lft.to/lastmile_qr_scan", "ios": "https://dc.lft.to/lastmile_qr_scan"}, "name": "4dd5421d7484b8cbc30cfe84d1c3a639", "is_reserved": 0}, {"is_disabled": 0, "fusion_lon": 0.0, "fusion_lat": 0.0, "lat": 38.94215033333333, "type": "electric_scooter", "lon": -77.02497416666667, "bike_id": "d5cf8da9522b44c6b1647ae125aaad7d", "rental_uris": {"android": "https://dc.lft.to/lastmile_qr_scan", "ios": "https://dc.lft.to/lastmile_qr_scan"}, "name": "d5cf8da9522b44c6b1647ae125aaad7d", "is_reserved": 0}, {"is_disabled": 0, "fusion_lon": 0.0, "fusion_lat": 0.0, "lat": 38.90394233333333, "type": "electric_scooter", "lon": -76.990074, "bike_id": "ac8cb96b8fb81cb8e89a85ca8c829f61", "rental_uris": {"android": "https://dc.lft.to/lastmile_qr_scan", "ios": "https://dc.lft.to/lastmile_qr_scan"}, "name": "ac8cb96b8fb81cb8e89a85ca8c829f61", "is_reserved": 0}, {"is_disabled": 0, "fusion_lon": 0.0, "fusion_lat": 0.0, "lat": 38.8766745, "type": "electric_scooter", "lon": -77.00345116666666, "bike_id": "449dc5657c46cc01506b63dec82777dd", "rental_uris": {"android": "https://dc.lft.to/lastmile_qr_scan", "ios": "https://dc.lft.to/lastmile_qr_scan"}, "name": "449dc5657c46cc01506b63dec82777dd", "is_reserved": 0}, {"is_disabled": 0, "fusion_lon": 0.0, "fusion_lat": 0.0, "lat": 38.93960833333333, "type": "electric_scooter", "lon": -77.03281333333334, "bike_id": "d4865a23e27b004faeca29325994f04e", "rental_uris": {"android": "https://dc.lft.to/lastmile_qr_scan", "ios": "https://dc.lft.to/lastmile_qr_scan"}, "name": "d4865a23e27b004faeca29325994f04e", "is_reserved": 0}, {"is_disabled": 0, "fusion_lon": 0.0, "fusion_lat": 0.0, "lat": 38.902133, "type": "electric_scooter", "lon": -77.02445333333333, "bike_id": "72bae37661d8e6f0cfd89259e3fa8c1b", "rental_uris": {"android": "https://dc.lft.to/lastmile_qr_scan", "ios": "https://dc.lft.to/lastmile_qr_scan"}, "name": "72bae37661d8e6f0cfd89259e3fa8c1b", "is_reserved": 0}, {"is_disabled": 0, "fusion_lon": 0.0, "fusion_lat": 0.0, "lat": 38.903169166666665, "type": "electric_scooter", "lon": -77.03848583333334, "bike_id": "5c20907928b2dbb7b520830666cffda5", "rental_uris": {"android": "https://dc.lft.to/lastmile_qr_scan", "ios": "https://dc.lft.to/lastmile_qr_scan"}, "name": "5c20907928b2dbb7b520830666cffda5", "is_reserved": 0}, {"is_disabled": 0, "fusion_lon": 0.0, "fusion_lat": 0.0, "lat": 38.9066885, "type": "electric_scooter", "lon": -77.02375233333333, "bike_id": "65a953e316ed910d3005db7c202f5d52", "rental_uris": {"android": "https://dc.lft.to/lastmile_qr_scan", "ios": "https://dc.lft.to/lastmile_qr_scan"}, "name": "65a953e316ed910d3005db7c202f5d52", "is_reserved": 0}, {"is_disabled": 0, "fusion_lon": 0.0, "fusion_lat": 0.0, "lat": 38.902391333333334, "type": "electric_scooter", "lon": -77.05338966666666, "bike_id": "67d156429bfd525a4b0a227d75c0b64b", "rental_uris": {"android": "https://dc.lft.to/lastmile_qr_scan", "ios": "https://dc.lft.to/lastmile_qr_scan"}, "name": "67d156429bfd525a4b0a227d75c0b64b", "is_reserved": 0}, {"is_disabled": 0, "fusion_lon": 0.0, "fusion_lat": 0.0, "lat": 38.895383, "type": "electric_scooter", "lon": -76.94921433333333, "bike_id": "ecf4b8d153abbed99c7bf1823ebd5a51", "rental_uris": {"android": "https://dc.lft.to/lastmile_qr_scan", "ios": "https://dc.lft.to/lastmile_qr_scan"}, "name": "ecf4b8d153abbed99c7bf1823ebd5a51", "is_reserved": 0}, {"is_disabled": 0, "fusion_lon": 0.0, "fusion_lat": 0.0, "lat": 38.910563333333336, "type": "electric_scooter", "lon": -77.0425085, "bike_id": "cf1cdd9791a10bc4a368bf8ca23411d2", "rental_uris": {"android": "https://dc.lft.to/lastmile_qr_scan", "ios": "https://dc.lft.to/lastmile_qr_scan"}, "name": "cf1cdd9791a10bc4a368bf8ca23411d2", "is_reserved": 0}, {"is_disabled": 0, "fusion_lon": 0.0, "fusion_lat": 0.0, "lat": 38.8924005, "type": "electric_scooter", "lon": -77.0335075, "bike_id": "66d1b7dd551a79cfc1a16ace8d34ab6d", "rental_uris": {"android": "https://dc.lft.to/lastmile_qr_scan", "ios": "https://dc.lft.to/lastmile_qr_scan"}, "name": "66d1b7dd551a79cfc1a16ace8d34ab6d", "is_reserved": 0}, {"is_disabled": 0, "fusion_lon": 0.0, "fusion_lat": 0.0, "lat": 38.8771325, "type": "electric_scooter", "lon": -77.017593, "bike_id": "b9c46f4137bf7ff174a2d26600c1be49", "rental_uris": {"android": "https://dc.lft.to/lastmile_qr_scan", "ios": "https://dc.lft.to/lastmile_qr_scan"}, "name": "b9c46f4137bf7ff174a2d26600c1be49", "is_reserved": 0}, {"is_disabled": 0, "fusion_lon": 0.0, "fusion_lat": 0.0, "lat": 38.909666, "type": "electric_scooter", "lon": -77.03137916666667, "bike_id": "a760fcf379b12568d1e60fdc1fdeb777", "rental_uris": {"android": "https://dc.lft.to/lastmile_qr_scan", "ios": "https://dc.lft.to/lastmile_qr_scan"}, "name": "a760fcf379b12568d1e60fdc1fdeb777", "is_reserved": 0}, {"is_disabled": 0, "fusion_lon": 0.0, "fusion_lat": 0.0, "lat": 38.936384833333335, "type": "electric_scooter", "lon": -77.02699166666666, "bike_id": "7fe9f1500b431afde22e34ec43554d23", "rental_uris": {"android": "https://dc.lft.to/lastmile_qr_scan", "ios": "https://dc.lft.to/lastmile_qr_scan"}, "name": "7fe9f1500b431afde22e34ec43554d23", "is_reserved": 0}, {"is_disabled": 0, "fusion_lon": 0.0, "fusion_lat": 0.0, "lat": 38.90745616666667, "type": "electric_scooter", "lon": -77.0416415, "bike_id": "17050d221f19dff4ec0683d7e88b50a3", "rental_uris": {"android": "https://dc.lft.to/lastmile_qr_scan", "ios": "https://dc.lft.to/lastmile_qr_scan"}, "name": "17050d221f19dff4ec0683d7e88b50a3", "is_reserved": 0}, {"is_disabled": 0, "fusion_lon": 0.0, "fusion_lat": 0.0, "lat": 38.9063815, "type": "electric_scooter", "lon": -77.029446, "bike_id": "6037b1af90be8bbe7697d1fa673fc753", "rental_uris": {"android": "https://dc.lft.to/lastmile_qr_scan", "ios": "https://dc.lft.to/lastmile_qr_scan"}, "name": "6037b1af90be8bbe7697d1fa673fc753", "is_reserved": 0}, {"is_disabled": 0, "fusion_lon": 0.0, "fusion_lat": 0.0, "lat": 38.9017745, "type": "electric_scooter", "lon": -77.05270416666667, "bike_id": "20a4b55f504c0c1a3802ef8b06cfa159", "rental_uris": {"android": "https://dc.lft.to/lastmile_qr_scan", "ios": "https://dc.lft.to/lastmile_qr_scan"}, "name": "20a4b55f504c0c1a3802ef8b06cfa159", "is_reserved": 0}, {"is_disabled": 0, "fusion_lon": 0.0, "fusion_lat": 0.0, "lat": 38.905296, "type": "electric_scooter", "lon": -77.0212925, "bike_id": "5ee35b93f47484e5867f3a42b237255a", "rental_uris": {"android": "https://dc.lft.to/lastmile_qr_scan", "ios": "https://dc.lft.to/lastmile_qr_scan"}, "name": "5ee35b93f47484e5867f3a42b237255a", "is_reserved": 0}, {"is_disabled": 0, "fusion_lon": 0.0, "fusion_lat": 0.0, "lat": 38.89721, "type": "electric_scooter", "lon": -77.02159533333334, "bike_id": "51869e34f247368db7d4cce4811a463a", "rental_uris": {"android": "https://dc.lft.to/lastmile_qr_scan", "ios": "https://dc.lft.to/lastmile_qr_scan"}, "name": "51869e34f247368db7d4cce4811a463a", "is_reserved": 0}, {"is_disabled": 0, "fusion_lon": 0.0, "fusion_lat": 0.0, "lat": 38.92452933333333, "type": "electric_bike", "lon": -76.99949216666667, "bike_id": "1ccc9192f543580295609e427c07e2d1", "rental_uris": {"android": "https://dc.lft.to/lastmile_qr_scan", "ios": "https://dc.lft.to/lastmile_qr_scan"}, "name": "1ccc9192f543580295609e427c07e2d1", "is_reserved": 0}, {"is_disabled": 0, "fusion_lon": 0.0, "fusion_lat": 0.0, "lat": 38.89484083333333, "type": "electric_scooter", "lon": -77.00952, "bike_id": "4c65808a7385aaf97cce600c8628a58c", "rental_uris": {"android": "https://dc.lft.to/lastmile_qr_scan", "ios": "https://dc.lft.to/lastmile_qr_scan"}, "name": "4c65808a7385aaf97cce600c8628a58c", "is_reserved": 0}, {"is_disabled": 0, "fusion_lon": 0.0, "fusion_lat": 0.0, "lat": 38.90549566666667, "type": "electric_scooter", "lon": -76.9813835, "bike_id": "1743405e3a7d36d71cac0f23fd11123e", "rental_uris": {"android": "https://dc.lft.to/lastmile_qr_scan", "ios": "https://dc.lft.to/lastmile_qr_scan"}, "name": "1743405e3a7d36d71cac0f23fd11123e", "is_reserved": 0}, {"is_disabled": 0, "fusion_lon": 0.0, "fusion_lat": 0.0, "lat": 38.945853666666665, "type": "electric_bike", "lon": -77.344073, "bike_id": "1e1641b6a1dbb4d3507202db41de8288", "rental_uris": {"android": "https://dc.lft.to/lastmile_qr_scan", "ios": "https://dc.lft.to/lastmile_qr_scan"}, "name": "1e1641b6a1dbb4d3507202db41de8288", "is_reserved": 0}, {"is_disabled": 0, "fusion_lon": 0.0, "fusion_lat": 0.0, "lat": 38.903272666666666, "type": "electric_scooter", "lon": -76.992362, "bike_id": "027e5d09020da5625120ccd8929eb96b", "rental_uris": {"android": "https://dc.lft.to/lastmile_qr_scan", "ios": "https://dc.lft.to/lastmile_qr_scan"}, "name": "027e5d09020da5625120ccd8929eb96b", "is_reserved": 0}, {"is_disabled": 0, "fusion_lon": 0.0, "fusion_lat": 0.0, "lat": 38.881869333333334, "type": "electric_scooter", "lon": -76.9950265, "bike_id": "116c8f6d725e5c825ca3e754d36bed13", "rental_uris": {"android": "https://dc.lft.to/lastmile_qr_scan", "ios": "https://dc.lft.to/lastmile_qr_scan"}, "name": "116c8f6d725e5c825ca3e754d36bed13", "is_reserved": 0}, {"is_disabled": 0, "fusion_lon": 0.0, "fusion_lat": 0.0, "lat": 38.91711466666667, "type": "electric_scooter", "lon": -77.0323615, "bike_id": "77671542f30b73ba971b497979c5676f", "rental_uris": {"android": "https://dc.lft.to/lastmile_qr_scan", "ios": "https://dc.lft.to/lastmile_qr_scan"}, "name": "77671542f30b73ba971b497979c5676f", "is_reserved": 0}, {"is_disabled": 0, "fusion_lon": 0.0, "fusion_lat": 0.0, "lat": 38.893949666666664, "type": "electric_scooter", "lon": -76.9499965, "bike_id": "9cda4fe4a188d36b606659438389414b", "rental_uris": {"android": "https://dc.lft.to/lastmile_qr_scan", "ios": "https://dc.lft.to/lastmile_qr_scan"}, "name": "9cda4fe4a188d36b606659438389414b", "is_reserved": 0}, {"is_disabled": 0, "fusion_lon": 0.0, "fusion_lat": 0.0, "lat": 38.9346035, "type": "electric_scooter", "lon": -77.0306415, "bike_id": "df6c7fda5544739b7b3d8abef299abc5", "rental_uris": {"android": "https://dc.lft.to/lastmile_qr_scan", "ios": "https://dc.lft.to/lastmile_qr_scan"}, "name": "df6c7fda5544739b7b3d8abef299abc5", "is_reserved": 0}, {"is_disabled": 0, "fusion_lon": 0.0, "fusion_lat": 0.0, "lat": 38.776173666666665, "type": "electric_bike", "lon": -77.08354033333333, "bike_id": "0eed9f5c2818fb25db1987bf2e5f83a3", "rental_uris": {"android": "https://dc.lft.to/lastmile_qr_scan", "ios": "https://dc.lft.to/lastmile_qr_scan"}, "name": "0eed9f5c2818fb25db1987bf2e5f83a3", "is_reserved": 0}, {"is_disabled": 0, "fusion_lon": 0.0, "fusion_lat": 0.0, "lat": 38.905251166666666, "type": "electric_scooter", "lon": -77.01718416666667, "bike_id": "b8bb1420ae95a1af57e8bad33f86cc18", "rental_uris": {"android": "https://dc.lft.to/lastmile_qr_scan", "ios": "https://dc.lft.to/lastmile_qr_scan"}, "name": "b8bb1420ae95a1af57e8bad33f86cc18", "is_reserved": 0}, {"is_disabled": 0, "fusion_lon": 0.0, "fusion_lat": 0.0, "lat": 38.884305, "type": "electric_scooter", "lon": -77.0296365, "bike_id": "3642a047c915f3fcc6816b2a45c06c8f", "rental_uris": {"android": "https://dc.lft.to/lastmile_qr_scan", "ios": "https://dc.lft.to/lastmile_qr_scan"}, "name": "3642a047c915f3fcc6816b2a45c06c8f", "is_reserved": 0}, {"is_disabled": 0, "fusion_lon": 0.0, "fusion_lat": 0.0, "lat": 38.912334333333334, "type": "electric_scooter", "lon": -77.04880383333334, "bike_id": "94ff18e612e477260587dd91a7700cc1", "rental_uris": {"android": "https://dc.lft.to/lastmile_qr_scan", "ios": "https://dc.lft.to/lastmile_qr_scan"}, "name": "94ff18e612e477260587dd91a7700cc1", "is_reserved": 0}, {"is_disabled": 0, "fusion_lon": 0.0, "fusion_lat": 0.0, "lat": 38.896113166666666, "type": "electric_scooter", "lon": -77.02686583333333, "bike_id": "257eca53271f6e5f491607075bb708bc", "rental_uris": {"android": "https://dc.lft.to/lastmile_qr_scan", "ios": "https://dc.lft.to/lastmile_qr_scan"}, "name": "257eca53271f6e5f491607075bb708bc", "is_reserved": 0}, {"is_disabled": 0, "fusion_lon": 0.0, "fusion_lat": 0.0, "lat": 39.05449266666667, "type": "electric_bike", "lon": -77.14318766666666, "bike_id": "402fa15938601ecdd5d64e6cb7ce0c8a", "rental_uris": {"android": "https://dc.lft.to/lastmile_qr_scan", "ios": "https://dc.lft.to/lastmile_qr_scan"}, "name": "402fa15938601ecdd5d64e6cb7ce0c8a", "is_reserved": 0}, {"is_disabled": 0, "fusion_lon": 0.0, "fusion_lat": 0.0, "lat": 38.91575666666667, "type": "electric_scooter", "lon": -77.04675516666667, "bike_id": "a32d36854ddd91fbb2feedf25f11bf42", "rental_uris": {"android": "https://dc.lft.to/lastmile_qr_scan", "ios": "https://dc.lft.to/lastmile_qr_scan"}, "name": "a32d36854ddd91fbb2feedf25f11bf42", "is_reserved": 0}, {"is_disabled": 0, "fusion_lon": 0.0, "fusion_lat": 0.0, "lat": 38.82439516666667, "type": "electric_bike", "lon": -77.07044466666666, "bike_id": "d3e27ff58d30b776bbd22a6f384555f4", "rental_uris": {"android": "https://dc.lft.to/lastmile_qr_scan", "ios": "https://dc.lft.to/lastmile_qr_scan"}, "name": "d3e27ff58d30b776bbd22a6f384555f4", "is_reserved": 0}, {"is_disabled": 0, "fusion_lon": 0.0, "fusion_lat": 0.0, "lat": 38.8277965, "type": "electric_bike", "lon": -77.11081083333333, "bike_id": "51bd99b8a80cc0916a4c993cdc47f309", "rental_uris": {"android": "https://dc.lft.to/lastmile_qr_scan", "ios": "https://dc.lft.to/lastmile_qr_scan"}, "name": "51bd99b8a80cc0916a4c993cdc47f309", "is_reserved": 0}, {"is_disabled": 0, "fusion_lon": 0.0, "fusion_lat": 0.0, "lat": 38.88522566666666, "type": "electric_scooter", "lon": -76.92696783333334, "bike_id": "ad689833c8acad1e1a885e7c571b8b64", "rental_uris": {"android": "https://dc.lft.to/lastmile_qr_scan", "ios": "https://dc.lft.to/lastmile_qr_scan"}, "name": "ad689833c8acad1e1a885e7c571b8b64", "is_reserved": 0}, {"is_disabled": 0, "fusion_lon": 0.0, "fusion_lat": 0.0, "lat": 38.89733016666667, "type": "electric_scooter", "lon": -77.00040133333333, "bike_id": "89a592a448a07f9c86e886ea0249d0ed", "rental_uris": {"android": "https://dc.lft.to/lastmile_qr_scan", "ios": "https://dc.lft.to/lastmile_qr_scan"}, "name": "89a592a448a07f9c86e886ea0249d0ed", "is_reserved": 0}, {"is_disabled": 0, "fusion_lon": 0.0, "fusion_lat": 0.0, "lat": 38.961862333333336, "type": "electric_scooter", "lon": -77.02788466666667, "bike_id": "1449633f91258e1aed9f1bffc8e7581d", "rental_uris": {"android": "https://dc.lft.to/lastmile_qr_scan", "ios": "https://dc.lft.to/lastmile_qr_scan"}, "name": "1449633f91258e1aed9f1bffc8e7581d", "is_reserved": 0}, {"is_disabled": 0, "fusion_lon": 0.0, "fusion_lat": 0.0, "lat": 38.89834316666666, "type": "electric_scooter", "lon": -76.94633133333333, "bike_id": "9a53673f91347388a84ba46f5cbb6c43", "rental_uris": {"android": "https://dc.lft.to/lastmile_qr_scan", "ios": "https://dc.lft.to/lastmile_qr_scan"}, "name": "9a53673f91347388a84ba46f5cbb6c43", "is_reserved": 0}, {"is_disabled": 0, "fusion_lon": 0.0, "fusion_lat": 0.0, "lat": 38.93024066666667, "type": "electric_scooter", "lon": -77.0345495, "bike_id": "8d7aada5487dc0f2fa3fb40a86115e03", "rental_uris": {"android": "https://dc.lft.to/lastmile_qr_scan", "ios": "https://dc.lft.to/lastmile_qr_scan"}, "name": "8d7aada5487dc0f2fa3fb40a86115e03", "is_reserved": 0}, {"is_disabled": 0, "fusion_lon": 0.0, "fusion_lat": 0.0, "lat": 38.939594166666666, "type": "electric_scooter", "lon": -77.03282633333333, "bike_id": "b3b191256625bc19f3df206376eeeaf9", "rental_uris": {"android": "https://dc.lft.to/lastmile_qr_scan", "ios": "https://dc.lft.to/lastmile_qr_scan"}, "name": "b3b191256625bc19f3df206376eeeaf9", "is_reserved": 0}, {"is_disabled": 0, "fusion_lon": 0.0, "fusion_lat": 0.0, "lat": 38.907277, "type": "electric_scooter", "lon": -77.0422715, "bike_id": "64e358a57d337a1ca8bd709d88d9dba8", "rental_uris": {"android": "https://dc.lft.to/lastmile_qr_scan", "ios": "https://dc.lft.to/lastmile_qr_scan"}, "name": "64e358a57d337a1ca8bd709d88d9dba8", "is_reserved": 0}, {"is_disabled": 0, "fusion_lon": 0.0, "fusion_lat": 0.0, "lat": 38.89220233333333, "type": "electric_scooter", "lon": -77.04015466666667, "bike_id": "b3d74c77553b53cfc4670baaab083d29", "rental_uris": {"android": "https://dc.lft.to/lastmile_qr_scan", "ios": "https://dc.lft.to/lastmile_qr_scan"}, "name": "b3d74c77553b53cfc4670baaab083d29", "is_reserved": 0}, {"is_disabled": 0, "fusion_lon": 0.0, "fusion_lat": 0.0, "lat": 38.910324333333335, "type": "electric_scooter", "lon": -77.00757883333333, "bike_id": "8c843867b3c4eb9f5c55cf783c3b5697", "rental_uris": {"android": "https://dc.lft.to/lastmile_qr_scan", "ios": "https://dc.lft.to/lastmile_qr_scan"}, "name": "8c843867b3c4eb9f5c55cf783c3b5697", "is_reserved": 0}, {"is_disabled": 0, "fusion_lon": 0.0, "fusion_lat": 0.0, "lat": 38.89528116666666, "type": "electric_scooter", "lon": -77.0281415, "bike_id": "1a24dbebdf61ef15bbdd0698b69c3bf9", "rental_uris": {"android": "https://dc.lft.to/lastmile_qr_scan", "ios": "https://dc.lft.to/lastmile_qr_scan"}, "name": "1a24dbebdf61ef15bbdd0698b69c3bf9", "is_reserved": 0}, {"is_disabled": 0, "fusion_lon": 0.0, "fusion_lat": 0.0, "lat": 38.88590766666667, "type": "electric_scooter", "lon": -77.01992116666666, "bike_id": "283f6f9c69ddb4381b26c04ef946b6df", "rental_uris": {"android": "https://dc.lft.to/lastmile_qr_scan", "ios": "https://dc.lft.to/lastmile_qr_scan"}, "name": "283f6f9c69ddb4381b26c04ef946b6df", "is_reserved": 0}, {"is_disabled": 0, "fusion_lon": 0.0, "fusion_lat": 0.0, "lat": 38.87618066666667, "type": "electric_scooter", "lon": -76.96539683333333, "bike_id": "76b9e3aff900613172fcaef6bce753b7", "rental_uris": {"android": "https://dc.lft.to/lastmile_qr_scan", "ios": "https://dc.lft.to/lastmile_qr_scan"}, "name": "76b9e3aff900613172fcaef6bce753b7", "is_reserved": 0}, {"is_disabled": 0, "fusion_lon": 0.0, "fusion_lat": 0.0, "lat": 38.89657833333333, "type": "electric_scooter", "lon": -77.05149266666666, "bike_id": "c1a95c28c16884b8ffc75a54c0848c69", "rental_uris": {"android": "https://dc.lft.to/lastmile_qr_scan", "ios": "https://dc.lft.to/lastmile_qr_scan"}, "name": "c1a95c28c16884b8ffc75a54c0848c69", "is_reserved": 0}, {"is_disabled": 0, "fusion_lon": 0.0, "fusion_lat": 0.0, "lat": 38.89911583333333, "type": "electric_scooter", "lon": -77.01379416666667, "bike_id": "3bac8061ffdaba76f622f0900419f45c", "rental_uris": {"android": "https://dc.lft.to/lastmile_qr_scan", "ios": "https://dc.lft.to/lastmile_qr_scan"}, "name": "3bac8061ffdaba76f622f0900419f45c", "is_reserved": 0}, {"is_disabled": 0, "fusion_lon": 0.0, "fusion_lat": 0.0, "lat": 38.909747833333334, "type": "electric_scooter", "lon": -77.06770483333334, "bike_id": "f7b365268c1666adff43490db55a8f0d", "rental_uris": {"android": "https://dc.lft.to/lastmile_qr_scan", "ios": "https://dc.lft.to/lastmile_qr_scan"}, "name": "f7b365268c1666adff43490db55a8f0d", "is_reserved": 0}, {"is_disabled": 0, "fusion_lon": 0.0, "fusion_lat": 0.0, "lat": 38.95649866666667, "type": "electric_scooter", "lon": -77.0329025, "bike_id": "038f78767f41126d9d5a6b556b41e0af", "rental_uris": {"android": "https://dc.lft.to/lastmile_qr_scan", "ios": "https://dc.lft.to/lastmile_qr_scan"}, "name": "038f78767f41126d9d5a6b556b41e0af", "is_reserved": 0}, {"is_disabled": 0, "fusion_lon": 0.0, "fusion_lat": 0.0, "lat": 38.962181666666666, "type": "electric_scooter", "lon": -77.02802083333333, "bike_id": "753d693af1604230ec736a2020e5a6e4", "rental_uris": {"android": "https://dc.lft.to/lastmile_qr_scan", "ios": "https://dc.lft.to/lastmile_qr_scan"}, "name": "753d693af1604230ec736a2020e5a6e4", "is_reserved": 0}, {"is_disabled": 0, "fusion_lon": 0.0, "fusion_lat": 0.0, "lat": 38.9908935, "type": "electric_bike", "lon": -76.87493666666667, "bike_id": "146b49bce337f51cc08a113af5960fc1", "rental_uris": {"android": "https://dc.lft.to/lastmile_qr_scan", "ios": "https://dc.lft.to/lastmile_qr_scan"}, "name": "146b49bce337f51cc08a113af5960fc1", "is_reserved": 0}, {"is_disabled": 0, "fusion_lon": 0.0, "fusion_lat": 0.0, "lat": 38.92647183333333, "type": "electric_scooter", "lon": -77.03719183333334, "bike_id": "6b2da7dbadd1af95973519e178a96201", "rental_uris": {"android": "https://dc.lft.to/lastmile_qr_scan", "ios": "https://dc.lft.to/lastmile_qr_scan"}, "name": "6b2da7dbadd1af95973519e178a96201", "is_reserved": 0}, {"is_disabled": 0, "fusion_lon": 0.0, "fusion_lat": 0.0, "lat": 38.901711166666665, "type": "electric_scooter", "lon": -77.0262915, "bike_id": "3e0bde2289d420edb266c24710ab79a9", "rental_uris": {"android": "https://dc.lft.to/lastmile_qr_scan", "ios": "https://dc.lft.to/lastmile_qr_scan"}, "name": "3e0bde2289d420edb266c24710ab79a9", "is_reserved": 0}, {"is_disabled": 0, "fusion_lon": 0.0, "fusion_lat": 0.0, "lat": 38.892158333333334, "type": "electric_scooter", "lon": -77.02220366666667, "bike_id": "bace576094876de057d62ef1b933730a", "rental_uris": {"android": "https://dc.lft.to/lastmile_qr_scan", "ios": "https://dc.lft.to/lastmile_qr_scan"}, "name": "bace576094876de057d62ef1b933730a", "is_reserved": 0}, {"is_disabled": 0, "fusion_lon": 0.0, "fusion_lat": 0.0, "lat": 38.925636, "type": "electric_scooter", "lon": -77.0377455, "bike_id": "9052a64dfa5721fa67ad8f4588908adb", "rental_uris": {"android": "https://dc.lft.to/lastmile_qr_scan", "ios": "https://dc.lft.to/lastmile_qr_scan"}, "name": "9052a64dfa5721fa67ad8f4588908adb", "is_reserved": 0}, {"is_disabled": 0, "fusion_lon": 0.0, "fusion_lat": 0.0, "lat": 38.894681166666665, "type": "electric_scooter", "lon": -76.93304783333333, "bike_id": "2128415dba99231de55bf63b0a77326e", "rental_uris": {"android": "https://dc.lft.to/lastmile_qr_scan", "ios": "https://dc.lft.to/lastmile_qr_scan"}, "name": "2128415dba99231de55bf63b0a77326e", "is_reserved": 0}, {"is_disabled": 0, "fusion_lon": 0.0, "fusion_lat": 0.0, "lat": 38.8947925, "type": "electric_scooter", "lon": -77.021413, "bike_id": "d26b1f3467a31a0e9119495014ff6cea", "rental_uris": {"android": "https://dc.lft.to/lastmile_qr_scan", "ios": "https://dc.lft.to/lastmile_qr_scan"}, "name": "d26b1f3467a31a0e9119495014ff6cea", "is_reserved": 0}, {"is_disabled": 0, "fusion_lon": 0.0, "fusion_lat": 0.0, "lat": 38.884143, "type": "electric_scooter", "lon": -77.01973666666666, "bike_id": "17bd72ca151c07ce43d1c06ed9f7d2c9", "rental_uris": {"android": "https://dc.lft.to/lastmile_qr_scan", "ios": "https://dc.lft.to/lastmile_qr_scan"}, "name": "17bd72ca151c07ce43d1c06ed9f7d2c9", "is_reserved": 0}, {"is_disabled": 0, "fusion_lon": 0.0, "fusion_lat": 0.0, "lat": 38.89966283333333, "type": "electric_scooter", "lon": -77.02223666666667, "bike_id": "c883b9e3efcecf43d9db9521493c2932", "rental_uris": {"android": "https://dc.lft.to/lastmile_qr_scan", "ios": "https://dc.lft.to/lastmile_qr_scan"}, "name": "c883b9e3efcecf43d9db9521493c2932", "is_reserved": 0}, {"is_disabled": 0, "fusion_lon": 0.0, "fusion_lat": 0.0, "lat": 38.87891166666667, "type": "electric_scooter", "lon": -76.93523483333334, "bike_id": "ecda5752f0693bc587162c4972e9d216", "rental_uris": {"android": "https://dc.lft.to/lastmile_qr_scan", "ios": "https://dc.lft.to/lastmile_qr_scan"}, "name": "ecda5752f0693bc587162c4972e9d216", "is_reserved": 0}, {"is_disabled": 0, "fusion_lon": 0.0, "fusion_lat": 0.0, "lat": 38.897958833333334, "type": "electric_scooter", "lon": -77.01209233333333, "bike_id": "f509b609e91748842f7dd43cec0252b9", "rental_uris": {"android": "https://dc.lft.to/lastmile_qr_scan", "ios": "https://dc.lft.to/lastmile_qr_scan"}, "name": "f509b609e91748842f7dd43cec0252b9", "is_reserved": 0}, {"is_disabled": 0, "fusion_lon": 0.0, "fusion_lat": 0.0, "lat": 38.8057075, "type": "electric_bike", "lon": -77.13237216666667, "bike_id": "402fea87bfe984270db4e9604f75b523", "rental_uris": {"android": "https://dc.lft.to/lastmile_qr_scan", "ios": "https://dc.lft.to/lastmile_qr_scan"}, "name": "402fea87bfe984270db4e9604f75b523", "is_reserved": 0}, {"is_disabled": 0, "fusion_lon": 0.0, "fusion_lat": 0.0, "lat": 38.9429485, "type": "electric_scooter", "lon": -77.02527283333333, "bike_id": "b10529ef9ed5412af808f721c0c631a9", "rental_uris": {"android": "https://dc.lft.to/lastmile_qr_scan", "ios": "https://dc.lft.to/lastmile_qr_scan"}, "name": "b10529ef9ed5412af808f721c0c631a9", "is_reserved": 0}, {"is_disabled": 0, "fusion_lon": 0.0, "fusion_lat": 0.0, "lat": 38.90528916666667, "type": "electric_scooter", "lon": -77.05769616666667, "bike_id": "c1c1d1ba9cbb44c4eb499301791e9f4b", "rental_uris": {"android": "https://dc.lft.to/lastmile_qr_scan", "ios": "https://dc.lft.to/lastmile_qr_scan"}, "name": "c1c1d1ba9cbb44c4eb499301791e9f4b", "is_reserved": 0}, {"is_disabled": 0, "fusion_lon": 0.0, "fusion_lat": 0.0, "lat": 38.92977716666667, "type": "electric_scooter", "lon": -77.03662866666667, "bike_id": "fe5c9635f923787af82400c60feb9d76", "rental_uris": {"android": "https://dc.lft.to/lastmile_qr_scan", "ios": "https://dc.lft.to/lastmile_qr_scan"}, "name": "fe5c9635f923787af82400c60feb9d76", "is_reserved": 0}, {"is_disabled": 0, "fusion_lon": 0.0, "fusion_lat": 0.0, "lat": 38.878450666666666, "type": "electric_scooter", "lon": -77.0028535, "bike_id": "f1fee3ff917327967bbe8e6d926844a4", "rental_uris": {"android": "https://dc.lft.to/lastmile_qr_scan", "ios": "https://dc.lft.to/lastmile_qr_scan"}, "name": "f1fee3ff917327967bbe8e6d926844a4", "is_reserved": 0}, {"is_disabled": 0, "fusion_lon": 0.0, "fusion_lat": 0.0, "lat": 38.88308983333334, "type": "electric_scooter", "lon": -77.04526733333333, "bike_id": "6cb0b7f4b3c015e865ceb3a81d5307e3", "rental_uris": {"android": "https://dc.lft.to/lastmile_qr_scan", "ios": "https://dc.lft.to/lastmile_qr_scan"}, "name": "6cb0b7f4b3c015e865ceb3a81d5307e3", "is_reserved": 0}, {"is_disabled": 0, "fusion_lon": 0.0, "fusion_lat": 0.0, "lat": 38.921721166666664, "type": "electric_scooter", "lon": -77.0422485, "bike_id": "7968e178f38325425995dc48d6debd2d", "rental_uris": {"android": "https://dc.lft.to/lastmile_qr_scan", "ios": "https://dc.lft.to/lastmile_qr_scan"}, "name": "7968e178f38325425995dc48d6debd2d", "is_reserved": 0}, {"is_disabled": 0, "fusion_lon": 0.0, "fusion_lat": 0.0, "lat": 38.88532716666667, "type": "electric_bike", "lon": -76.99832216666667, "bike_id": "c58f1fd4a115391f1ab54eb410869770", "rental_uris": {"android": "https://dc.lft.to/lastmile_qr_scan", "ios": "https://dc.lft.to/lastmile_qr_scan"}, "name": "c58f1fd4a115391f1ab54eb410869770", "is_reserved": 0}, {"is_disabled": 0, "fusion_lon": 0.0, "fusion_lat": 0.0, "lat": 38.9140615, "type": "electric_scooter", "lon": -77.02116733333334, "bike_id": "6a4f299d747e7d168b19dd9eea6547cc", "rental_uris": {"android": "https://dc.lft.to/lastmile_qr_scan", "ios": "https://dc.lft.to/lastmile_qr_scan"}, "name": "6a4f299d747e7d168b19dd9eea6547cc", "is_reserved": 0}, {"is_disabled": 0, "fusion_lon": 0.0, "fusion_lat": 0.0, "lat": 38.88488266666667, "type": "electric_scooter", "lon": -77.00730583333333, "bike_id": "6accfa30c887353c35de2427a42461c4", "rental_uris": {"android": "https://dc.lft.to/lastmile_qr_scan", "ios": "https://dc.lft.to/lastmile_qr_scan"}, "name": "6accfa30c887353c35de2427a42461c4", "is_reserved": 0}, {"is_disabled": 0, "fusion_lon": 0.0, "fusion_lat": 0.0, "lat": 38.88739, "type": "electric_scooter", "lon": -77.01375533333334, "bike_id": "859211c8b7418ae2104122b84b4c8bd7", "rental_uris": {"android": "https://dc.lft.to/lastmile_qr_scan", "ios": "https://dc.lft.to/lastmile_qr_scan"}, "name": "859211c8b7418ae2104122b84b4c8bd7", "is_reserved": 0}, {"is_disabled": 0, "fusion_lon": 0.0, "fusion_lat": 0.0, "lat": 38.85200416666667, "type": "electric_bike", "lon": -77.127625, "bike_id": "76a3a51d30c80bba67ac43ad5c579cca", "rental_uris": {"android": "https://dc.lft.to/lastmile_qr_scan", "ios": "https://dc.lft.to/lastmile_qr_scan"}, "name": "76a3a51d30c80bba67ac43ad5c579cca", "is_reserved": 0}, {"is_disabled": 0, "fusion_lon": 0.0, "fusion_lat": 0.0, "lat": 38.884293166666666, "type": "electric_scooter", "lon": -77.029592, "bike_id": "ba58d7e9344eb5f2ccfd2cff8ebe9a5b", "rental_uris": {"android": "https://dc.lft.to/lastmile_qr_scan", "ios": "https://dc.lft.to/lastmile_qr_scan"}, "name": "ba58d7e9344eb5f2ccfd2cff8ebe9a5b", "is_reserved": 0}, {"is_disabled": 0, "fusion_lon": 0.0, "fusion_lat": 0.0, "lat": 38.892767, "type": "electric_scooter", "lon": -77.05035483333333, "bike_id": "099f5e9a8fe90b0c13a29085eb0f0b6e", "rental_uris": {"android": "https://dc.lft.to/lastmile_qr_scan", "ios": "https://dc.lft.to/lastmile_qr_scan"}, "name": "099f5e9a8fe90b0c13a29085eb0f0b6e", "is_reserved": 0}, {"is_disabled": 0, "fusion_lon": 0.0, "fusion_lat": 0.0, "lat": 38.91205516666667, "type": "electric_scooter", "lon": -77.03848116666667, "bike_id": "06e904699e692fb2ddd5f2fcc130020f", "rental_uris": {"android": "https://dc.lft.to/lastmile_qr_scan", "ios": "https://dc.lft.to/lastmile_qr_scan"}, "name": "06e904699e692fb2ddd5f2fcc130020f", "is_reserved": 0}, {"is_disabled": 0, "fusion_lon": 0.0, "fusion_lat": 0.0, "lat": 38.89724183333333, "type": "electric_scooter", "lon": -77.05134266666667, "bike_id": "c91b81ed81683f04379fa5be08f842d6", "rental_uris": {"android": "https://dc.lft.to/lastmile_qr_scan", "ios": "https://dc.lft.to/lastmile_qr_scan"}, "name": "c91b81ed81683f04379fa5be08f842d6", "is_reserved": 0}, {"is_disabled": 0, "fusion_lon": 0.0, "fusion_lat": 0.0, "lat": 38.938896, "type": "electric_scooter", "lon": -77.03331416666667, "bike_id": "da23a4d72273ad724e19ae1fd18cd2a6", "rental_uris": {"android": "https://dc.lft.to/lastmile_qr_scan", "ios": "https://dc.lft.to/lastmile_qr_scan"}, "name": "da23a4d72273ad724e19ae1fd18cd2a6", "is_reserved": 0}, {"is_disabled": 0, "fusion_lon": 0.0, "fusion_lat": 0.0, "lat": 38.91810133333333, "type": "electric_scooter", "lon": -77.02707916666667, "bike_id": "14fe9c182539fb66504c743b52ec8677", "rental_uris": {"android": "https://dc.lft.to/lastmile_qr_scan", "ios": "https://dc.lft.to/lastmile_qr_scan"}, "name": "14fe9c182539fb66504c743b52ec8677", "is_reserved": 0}, {"is_disabled": 0, "fusion_lon": 0.0, "fusion_lat": 0.0, "lat": 38.944124333333335, "type": "electric_scooter", "lon": -77.02622083333333, "bike_id": "8da11926c307c02aee666f6322279f97", "rental_uris": {"android": "https://dc.lft.to/lastmile_qr_scan", "ios": "https://dc.lft.to/lastmile_qr_scan"}, "name": "8da11926c307c02aee666f6322279f97", "is_reserved": 0}, {"is_disabled": 0, "fusion_lon": 0.0, "fusion_lat": 0.0, "lat": 38.8997195, "type": "electric_scooter", "lon": -77.0293735, "bike_id": "ea3c9ee928e85291a7e2aec155851557", "rental_uris": {"android": "https://dc.lft.to/lastmile_qr_scan", "ios": "https://dc.lft.to/lastmile_qr_scan"}, "name": "ea3c9ee928e85291a7e2aec155851557", "is_reserved": 0}, {"is_disabled": 0, "fusion_lon": 0.0, "fusion_lat": 0.0, "lat": 38.893723333333334, "type": "electric_scooter", "lon": -77.02292533333333, "bike_id": "deadd4a4deef7aa8e4559fdf439bb7f8", "rental_uris": {"android": "https://dc.lft.to/lastmile_qr_scan", "ios": "https://dc.lft.to/lastmile_qr_scan"}, "name": "deadd4a4deef7aa8e4559fdf439bb7f8", "is_reserved": 0}, {"is_disabled": 0, "fusion_lon": 0.0, "fusion_lat": 0.0, "lat": 38.93517333333333, "type": "electric_scooter", "lon": -77.02362866666667, "bike_id": "30d1286ce552c4459c99b6068998d87f", "rental_uris": {"android": "https://dc.lft.to/lastmile_qr_scan", "ios": "https://dc.lft.to/lastmile_qr_scan"}, "name": "30d1286ce552c4459c99b6068998d87f", "is_reserved": 0}, {"is_disabled": 0, "fusion_lon": 0.0, "fusion_lat": 0.0, "lat": 38.899602, "type": "electric_scooter", "lon": -76.98307483333333, "bike_id": "eec022a03ad844d46d3fb492e12d3ff3", "rental_uris": {"android": "https://dc.lft.to/lastmile_qr_scan", "ios": "https://dc.lft.to/lastmile_qr_scan"}, "name": "eec022a03ad844d46d3fb492e12d3ff3", "is_reserved": 0}, {"is_disabled": 0, "fusion_lon": 0.0, "fusion_lat": 0.0, "lat": 38.90715333333333, "type": "electric_scooter", "lon": -77.02438966666666, "bike_id": "28bb6e2a63ae50b98ed12e08304b0e2f", "rental_uris": {"android": "https://dc.lft.to/lastmile_qr_scan", "ios": "https://dc.lft.to/lastmile_qr_scan"}, "name": "28bb6e2a63ae50b98ed12e08304b0e2f", "is_reserved": 0}, {"is_disabled": 0, "fusion_lon": 0.0, "fusion_lat": 0.0, "lat": 38.91476333333333, "type": "electric_scooter", "lon": -76.98357116666666, "bike_id": "1a304256627d9837deadd22bdd77121b", "rental_uris": {"android": "https://dc.lft.to/lastmile_qr_scan", "ios": "https://dc.lft.to/lastmile_qr_scan"}, "name": "1a304256627d9837deadd22bdd77121b", "is_reserved": 0}, {"is_disabled": 0, "fusion_lon": 0.0, "fusion_lat": 0.0, "lat": 38.894977, "type": "electric_scooter", "lon": -76.94876883333333, "bike_id": "c588467292eab70266762e83e2074fa8", "rental_uris": {"android": "https://dc.lft.to/lastmile_qr_scan", "ios": "https://dc.lft.to/lastmile_qr_scan"}, "name": "c588467292eab70266762e83e2074fa8", "is_reserved": 0}, {"is_disabled": 0, "fusion_lon": 0.0, "fusion_lat": 0.0, "lat": 38.82728433333333, "type": "electric_bike", "lon": -77.0086095, "bike_id": "fae7193015f00ef73ac605fc4647d11f", "rental_uris": {"android": "https://dc.lft.to/lastmile_qr_scan", "ios": "https://dc.lft.to/lastmile_qr_scan"}, "name": "fae7193015f00ef73ac605fc4647d11f", "is_reserved": 0}, {"is_disabled": 0, "fusion_lon": 0.0, "fusion_lat": 0.0, "lat": 38.9013995, "type": "electric_scooter", "lon": -76.99353733333334, "bike_id": "bb6f04f54536bd322cab3c22e0c3181e", "rental_uris": {"android": "https://dc.lft.to/lastmile_qr_scan", "ios": "https://dc.lft.to/lastmile_qr_scan"}, "name": "bb6f04f54536bd322cab3c22e0c3181e", "is_reserved": 0}, {"is_disabled": 0, "fusion_lon": 0.0, "fusion_lat": 0.0, "lat": 38.9312875, "type": "electric_scooter", "lon": -77.057107, "bike_id": "2d891931eb1417860d27b87be7592b87", "rental_uris": {"android": "https://dc.lft.to/lastmile_qr_scan", "ios": "https://dc.lft.to/lastmile_qr_scan"}, "name": "2d891931eb1417860d27b87be7592b87", "is_reserved": 0}, {"is_disabled": 0, "fusion_lon": 0.0, "fusion_lat": 0.0, "lat": 38.92123633333333, "type": "electric_scooter", "lon": -77.0176155, "bike_id": "78acb6fc517ef99074a1dcbe916c6194", "rental_uris": {"android": "https://dc.lft.to/lastmile_qr_scan", "ios": "https://dc.lft.to/lastmile_qr_scan"}, "name": "78acb6fc517ef99074a1dcbe916c6194", "is_reserved": 0}, {"is_disabled": 0, "fusion_lon": 0.0, "fusion_lat": 0.0, "lat": 38.88613866666667, "type": "electric_bike", "lon": -77.00605483333334, "bike_id": "8c26e8898847fa4bd20a62efb58905c2", "rental_uris": {"android": "https://dc.lft.to/lastmile_qr_scan", "ios": "https://dc.lft.to/lastmile_qr_scan"}, "name": "8c26e8898847fa4bd20a62efb58905c2", "is_reserved": 0}, {"is_disabled": 0, "fusion_lon": 0.0, "fusion_lat": 0.0, "lat": 38.93532316666667, "type": "electric_scooter", "lon": -77.023623, "bike_id": "a64e75cf0f249afe2ee69eaf478f977b", "rental_uris": {"android": "https://dc.lft.to/lastmile_qr_scan", "ios": "https://dc.lft.to/lastmile_qr_scan"}, "name": "a64e75cf0f249afe2ee69eaf478f977b", "is_reserved": 0}, {"is_disabled": 0, "fusion_lon": 0.0, "fusion_lat": 0.0, "lat": 38.908364666666664, "type": "electric_scooter", "lon": -77.02697033333334, "bike_id": "820f218111c976739bfcbd6aaa399a98", "rental_uris": {"android": "https://dc.lft.to/lastmile_qr_scan", "ios": "https://dc.lft.to/lastmile_qr_scan"}, "name": "820f218111c976739bfcbd6aaa399a98", "is_reserved": 0}, {"is_disabled": 0, "fusion_lon": 0.0, "fusion_lat": 0.0, "lat": 38.92963916666667, "type": "electric_scooter", "lon": -77.03174033333333, "bike_id": "d7e11f4ea4719c315143d0e57edbd573", "rental_uris": {"android": "https://dc.lft.to/lastmile_qr_scan", "ios": "https://dc.lft.to/lastmile_qr_scan"}, "name": "d7e11f4ea4719c315143d0e57edbd573", "is_reserved": 0}, {"is_disabled": 0, "fusion_lon": 0.0, "fusion_lat": 0.0, "lat": 38.9147385, "type": "electric_scooter", "lon": -76.98362516666667, "bike_id": "6e3fe8ceef56f0b397fab3ac9fc17869", "rental_uris": {"android": "https://dc.lft.to/lastmile_qr_scan", "ios": "https://dc.lft.to/lastmile_qr_scan"}, "name": "6e3fe8ceef56f0b397fab3ac9fc17869", "is_reserved": 0}, {"is_disabled": 0, "fusion_lon": 0.0, "fusion_lat": 0.0, "lat": 38.9414905, "type": "electric_bike", "lon": -77.00198466666667, "bike_id": "cf3de7321563962886629cac5f81b0fd", "rental_uris": {"android": "https://dc.lft.to/lastmile_qr_scan", "ios": "https://dc.lft.to/lastmile_qr_scan"}, "name": "cf3de7321563962886629cac5f81b0fd", "is_reserved": 0}, {"is_disabled": 0, "fusion_lon": 0.0, "fusion_lat": 0.0, "lat": 38.93382166666667, "type": "electric_scooter", "lon": -77.02477283333333, "bike_id": "aca30b99608d14e8604b274c0c036d08", "rental_uris": {"android": "https://dc.lft.to/lastmile_qr_scan", "ios": "https://dc.lft.to/lastmile_qr_scan"}, "name": "aca30b99608d14e8604b274c0c036d08", "is_reserved": 0}, {"is_disabled": 0, "fusion_lon": 0.0, "fusion_lat": 0.0, "lat": 38.933942333333334, "type": "electric_scooter", "lon": -77.05771366666667, "bike_id": "baf30a57d602fdc17c9fc6f8a34f23b0", "rental_uris": {"android": "https://dc.lft.to/lastmile_qr_scan", "ios": "https://dc.lft.to/lastmile_qr_scan"}, "name": "baf30a57d602fdc17c9fc6f8a34f23b0", "is_reserved": 0}, {"is_disabled": 0, "fusion_lon": 0.0, "fusion_lat": 0.0, "lat": 38.8591625, "type": "electric_scooter", "lon": -76.987797, "bike_id": "ebcef90e93a2053fce7b88dc39c66c35", "rental_uris": {"android": "https://dc.lft.to/lastmile_qr_scan", "ios": "https://dc.lft.to/lastmile_qr_scan"}, "name": "ebcef90e93a2053fce7b88dc39c66c35", "is_reserved": 0}, {"is_disabled": 0, "fusion_lon": 0.0, "fusion_lat": 0.0, "lat": 38.92461733333333, "type": "electric_scooter", "lon": -77.05089966666667, "bike_id": "f5d31d1b9ad0456bf72c80f128003fb4", "rental_uris": {"android": "https://dc.lft.to/lastmile_qr_scan", "ios": "https://dc.lft.to/lastmile_qr_scan"}, "name": "f5d31d1b9ad0456bf72c80f128003fb4", "is_reserved": 0}, {"is_disabled": 0, "fusion_lon": 0.0, "fusion_lat": 0.0, "lat": 38.876333333333335, "type": "electric_scooter", "lon": -77.016301, "bike_id": "7342bf6e5f3291fc7a3b2a2e3893d843", "rental_uris": {"android": "https://dc.lft.to/lastmile_qr_scan", "ios": "https://dc.lft.to/lastmile_qr_scan"}, "name": "7342bf6e5f3291fc7a3b2a2e3893d843", "is_reserved": 0}, {"is_disabled": 0, "fusion_lon": 0.0, "fusion_lat": 0.0, "lat": 38.95290283333333, "type": "electric_scooter", "lon": -77.035912, "bike_id": "dd8ba33b66b660bc333ddfe60f928cb8", "rental_uris": {"android": "https://dc.lft.to/lastmile_qr_scan", "ios": "https://dc.lft.to/lastmile_qr_scan"}, "name": "dd8ba33b66b660bc333ddfe60f928cb8", "is_reserved": 0}, {"is_disabled": 0, "fusion_lon": 0.0, "fusion_lat": 0.0, "lat": 38.92599883333333, "type": "electric_scooter", "lon": -77.0215315, "bike_id": "5d9887c319dcb003f674668bdfdb9dfd", "rental_uris": {"android": "https://dc.lft.to/lastmile_qr_scan", "ios": "https://dc.lft.to/lastmile_qr_scan"}, "name": "5d9887c319dcb003f674668bdfdb9dfd", "is_reserved": 0}, {"is_disabled": 0, "fusion_lon": 0.0, "fusion_lat": 0.0, "lat": 38.872334, "type": "electric_scooter", "lon": -77.0057015, "bike_id": "ca596f71d957ba26f600aaac189dbd35", "rental_uris": {"android": "https://dc.lft.to/lastmile_qr_scan", "ios": "https://dc.lft.to/lastmile_qr_scan"}, "name": "ca596f71d957ba26f600aaac189dbd35", "is_reserved": 0}, {"is_disabled": 0, "fusion_lon": 0.0, "fusion_lat": 0.0, "lat": 38.914938, "type": "electric_scooter", "lon": -77.01862766666666, "bike_id": "cb0b06a28e16f8a84072c8fe57896b07", "rental_uris": {"android": "https://dc.lft.to/lastmile_qr_scan", "ios": "https://dc.lft.to/lastmile_qr_scan"}, "name": "cb0b06a28e16f8a84072c8fe57896b07", "is_reserved": 0}, {"is_disabled": 0, "fusion_lon": 0.0, "fusion_lat": 0.0, "lat": 38.8935145, "type": "electric_scooter", "lon": -77.02213783333333, "bike_id": "ddeb10aec91395fee4b584025807eca0", "rental_uris": {"android": "https://dc.lft.to/lastmile_qr_scan", "ios": "https://dc.lft.to/lastmile_qr_scan"}, "name": "ddeb10aec91395fee4b584025807eca0", "is_reserved": 0}, {"is_disabled": 0, "fusion_lon": 0.0, "fusion_lat": 0.0, "lat": 38.91115666666666, "type": "electric_scooter", "lon": -77.04718133333333, "bike_id": "f1642ceb6b35bde28ee438f9ad2dbaf0", "rental_uris": {"android": "https://dc.lft.to/lastmile_qr_scan", "ios": "https://dc.lft.to/lastmile_qr_scan"}, "name": "f1642ceb6b35bde28ee438f9ad2dbaf0", "is_reserved": 0}, {"is_disabled": 0, "fusion_lon": 0.0, "fusion_lat": 0.0, "lat": 38.92972966666667, "type": "electric_scooter", "lon": -77.03472766666667, "bike_id": "d4218783240587ac0b6adf45ac6f1033", "rental_uris": {"android": "https://dc.lft.to/lastmile_qr_scan", "ios": "https://dc.lft.to/lastmile_qr_scan"}, "name": "d4218783240587ac0b6adf45ac6f1033", "is_reserved": 0}, {"is_disabled": 0, "fusion_lon": 0.0, "fusion_lat": 0.0, "lat": 38.92775233333333, "type": "electric_scooter", "lon": -77.0142295, "bike_id": "5b30fce4e5270082a85427a1d301a665", "rental_uris": {"android": "https://dc.lft.to/lastmile_qr_scan", "ios": "https://dc.lft.to/lastmile_qr_scan"}, "name": "5b30fce4e5270082a85427a1d301a665", "is_reserved": 0}, {"is_disabled": 0, "fusion_lon": 0.0, "fusion_lat": 0.0, "lat": 38.91571883333334, "type": "electric_scooter", "lon": -76.98109316666667, "bike_id": "4c9f8e99775f80204bedcd583cb3aa87", "rental_uris": {"android": "https://dc.lft.to/lastmile_qr_scan", "ios": "https://dc.lft.to/lastmile_qr_scan"}, "name": "4c9f8e99775f80204bedcd583cb3aa87", "is_reserved": 0}, {"is_disabled": 0, "fusion_lon": 0.0, "fusion_lat": 0.0, "lat": 38.905419, "type": "electric_scooter", "lon": -77.00302, "bike_id": "cd2785b43fd2683e28ce0aff1220db69", "rental_uris": {"android": "https://dc.lft.to/lastmile_qr_scan", "ios": "https://dc.lft.to/lastmile_qr_scan"}, "name": "cd2785b43fd2683e28ce0aff1220db69", "is_reserved": 0}, {"is_disabled": 0, "fusion_lon": 0.0, "fusion_lat": 0.0, "lat": 38.9256025, "type": "electric_scooter", "lon": -77.02286933333333, "bike_id": "85fe5d7d0c323fd242805837b339f75d", "rental_uris": {"android": "https://dc.lft.to/lastmile_qr_scan", "ios": "https://dc.lft.to/lastmile_qr_scan"}, "name": "85fe5d7d0c323fd242805837b339f75d", "is_reserved": 0}, {"is_disabled": 0, "fusion_lon": 0.0, "fusion_lat": 0.0, "lat": 38.85984333333333, "type": "electric_bike", "lon": -76.9705245, "bike_id": "dca5abfdb309e835b8fa528b2a42ea82", "rental_uris": {"android": "https://dc.lft.to/lastmile_qr_scan", "ios": "https://dc.lft.to/lastmile_qr_scan"}, "name": "dca5abfdb309e835b8fa528b2a42ea82", "is_reserved": 0}, {"is_disabled": 0, "fusion_lon": 0.0, "fusion_lat": 0.0, "lat": 38.994514, "type": "electric_bike", "lon": -76.9081765, "bike_id": "247843d093b5bb6e54f091fc07af822f", "rental_uris": {"android": "https://dc.lft.to/lastmile_qr_scan", "ios": "https://dc.lft.to/lastmile_qr_scan"}, "name": "247843d093b5bb6e54f091fc07af822f", "is_reserved": 0}, {"is_disabled": 0, "fusion_lon": 0.0, "fusion_lat": 0.0, "lat": 38.903183166666665, "type": "electric_scooter", "lon": -77.0363285, "bike_id": "85e67652d921fa580cb49d18c10e00b9", "rental_uris": {"android": "https://dc.lft.to/lastmile_qr_scan", "ios": "https://dc.lft.to/lastmile_qr_scan"}, "name": "85e67652d921fa580cb49d18c10e00b9", "is_reserved": 0}, {"is_disabled": 0, "fusion_lon": 0.0, "fusion_lat": 0.0, "lat": 38.92348333333333, "type": "electric_scooter", "lon": -76.99871516666667, "bike_id": "8ff23de142dd0f445b12f3cc103ad220", "rental_uris": {"android": "https://dc.lft.to/lastmile_qr_scan", "ios": "https://dc.lft.to/lastmile_qr_scan"}, "name": "8ff23de142dd0f445b12f3cc103ad220", "is_reserved": 0}, {"is_disabled": 0, "fusion_lon": 0.0, "fusion_lat": 0.0, "lat": 38.9171255, "type": "electric_scooter", "lon": -77.0415625, "bike_id": "81130b9a369bf6b84621ffa93bd477d2", "rental_uris": {"android": "https://dc.lft.to/lastmile_qr_scan", "ios": "https://dc.lft.to/lastmile_qr_scan"}, "name": "81130b9a369bf6b84621ffa93bd477d2", "is_reserved": 0}, {"is_disabled": 0, "fusion_lon": 0.0, "fusion_lat": 0.0, "lat": 38.86662916666667, "type": "electric_scooter", "lon": -76.9889145, "bike_id": "12f33ccc8a46fd6dffb81eb1c1680da5", "rental_uris": {"android": "https://dc.lft.to/lastmile_qr_scan", "ios": "https://dc.lft.to/lastmile_qr_scan"}, "name": "12f33ccc8a46fd6dffb81eb1c1680da5", "is_reserved": 0}, {"is_disabled": 0, "fusion_lon": 0.0, "fusion_lat": 0.0, "lat": 38.9325345, "type": "electric_scooter", "lon": -77.040113, "bike_id": "5e0db75f6ca045f47a98fea03753b958", "rental_uris": {"android": "https://dc.lft.to/lastmile_qr_scan", "ios": "https://dc.lft.to/lastmile_qr_scan"}, "name": "5e0db75f6ca045f47a98fea03753b958", "is_reserved": 0}, {"is_disabled": 0, "fusion_lon": 0.0, "fusion_lat": 0.0, "lat": 38.88008116666666, "type": "electric_bike", "lon": -76.9159635, "bike_id": "3bf2779790e192d7665386d5695876a0", "rental_uris": {"android": "https://dc.lft.to/lastmile_qr_scan", "ios": "https://dc.lft.to/lastmile_qr_scan"}, "name": "3bf2779790e192d7665386d5695876a0", "is_reserved": 0}, {"is_disabled": 0, "fusion_lon": 0.0, "fusion_lat": 0.0, "lat": 38.898256333333336, "type": "electric_scooter", "lon": -77.028229, "bike_id": "0cb7497ef8d9ef8e32056df0a7808cd4", "rental_uris": {"android": "https://dc.lft.to/lastmile_qr_scan", "ios": "https://dc.lft.to/lastmile_qr_scan"}, "name": "0cb7497ef8d9ef8e32056df0a7808cd4", "is_reserved": 0}, {"is_disabled": 0, "fusion_lon": 0.0, "fusion_lat": 0.0, "lat": 38.88657416666667, "type": "electric_scooter", "lon": -77.03387216666667, "bike_id": "9fecc4a34cbf6feb20f3141685c2527c", "rental_uris": {"android": "https://dc.lft.to/lastmile_qr_scan", "ios": "https://dc.lft.to/lastmile_qr_scan"}, "name": "9fecc4a34cbf6feb20f3141685c2527c", "is_reserved": 0}, {"is_disabled": 0, "fusion_lon": 0.0, "fusion_lat": 0.0, "lat": 38.93315916666667, "type": "electric_scooter", "lon": -77.08195483333333, "bike_id": "41fb24d8f1b3cc983dbd26c8628965f2", "rental_uris": {"android": "https://dc.lft.to/lastmile_qr_scan", "ios": "https://dc.lft.to/lastmile_qr_scan"}, "name": "41fb24d8f1b3cc983dbd26c8628965f2", "is_reserved": 0}, {"is_disabled": 0, "fusion_lon": 0.0, "fusion_lat": 0.0, "lat": 38.857976, "type": "electric_bike", "lon": -76.987558, "bike_id": "84376918fd50247ee2f536f3eefd1722", "rental_uris": {"android": "https://dc.lft.to/lastmile_qr_scan", "ios": "https://dc.lft.to/lastmile_qr_scan"}, "name": "84376918fd50247ee2f536f3eefd1722", "is_reserved": 0}, {"is_disabled": 0, "fusion_lon": 0.0, "fusion_lat": 0.0, "lat": 38.921056666666665, "type": "electric_scooter", "lon": -77.04360733333333, "bike_id": "e187a81eea87c0e2ac4ca222823e5c52", "rental_uris": {"android": "https://dc.lft.to/lastmile_qr_scan", "ios": "https://dc.lft.to/lastmile_qr_scan"}, "name": "e187a81eea87c0e2ac4ca222823e5c52", "is_reserved": 0}, {"is_disabled": 0, "fusion_lon": 0.0, "fusion_lat": 0.0, "lat": 38.90444466666667, "type": "electric_scooter", "lon": -77.04341083333334, "bike_id": "219f0f25b36c45c749ab236b2df6c35f", "rental_uris": {"android": "https://dc.lft.to/lastmile_qr_scan", "ios": "https://dc.lft.to/lastmile_qr_scan"}, "name": "219f0f25b36c45c749ab236b2df6c35f", "is_reserved": 0}, {"is_disabled": 0, "fusion_lon": 0.0, "fusion_lat": 0.0, "lat": 38.90265566666667, "type": "electric_scooter", "lon": -77.0344725, "bike_id": "e88a9b21491b943e03ad12052ec523d8", "rental_uris": {"android": "https://dc.lft.to/lastmile_qr_scan", "ios": "https://dc.lft.to/lastmile_qr_scan"}, "name": "e88a9b21491b943e03ad12052ec523d8", "is_reserved": 0}, {"is_disabled": 0, "fusion_lon": 0.0, "fusion_lat": 0.0, "lat": 38.911106, "type": "electric_scooter", "lon": -76.997712, "bike_id": "2b889947f7d15819d62be09c917f75f9", "rental_uris": {"android": "https://dc.lft.to/lastmile_qr_scan", "ios": "https://dc.lft.to/lastmile_qr_scan"}, "name": "2b889947f7d15819d62be09c917f75f9", "is_reserved": 0}, {"is_disabled": 0, "fusion_lon": 0.0, "fusion_lat": 0.0, "lat": 38.907695833333335, "type": "electric_scooter", "lon": -77.03209633333333, "bike_id": "427547d6461158384747dde9a78992da", "rental_uris": {"android": "https://dc.lft.to/lastmile_qr_scan", "ios": "https://dc.lft.to/lastmile_qr_scan"}, "name": "427547d6461158384747dde9a78992da", "is_reserved": 0}, {"is_disabled": 0, "fusion_lon": 0.0, "fusion_lat": 0.0, "lat": 38.92036933333333, "type": "electric_scooter", "lon": -77.0418345, "bike_id": "fec703f27807cb25f9d855bf06e3efa3", "rental_uris": {"android": "https://dc.lft.to/lastmile_qr_scan", "ios": "https://dc.lft.to/lastmile_qr_scan"}, "name": "fec703f27807cb25f9d855bf06e3efa3", "is_reserved": 0}, {"is_disabled": 0, "fusion_lon": 0.0, "fusion_lat": 0.0, "lat": 38.91150483333333, "type": "electric_scooter", "lon": -77.0878905, "bike_id": "2320efa95e2a424e8a1cb45df8f685d3", "rental_uris": {"android": "https://dc.lft.to/lastmile_qr_scan", "ios": "https://dc.lft.to/lastmile_qr_scan"}, "name": "2320efa95e2a424e8a1cb45df8f685d3", "is_reserved": 0}, {"is_disabled": 0, "fusion_lon": 0.0, "fusion_lat": 0.0, "lat": 38.98477166666667, "type": "electric_scooter", "lon": -77.02644266666667, "bike_id": "42f36eb218040d1199c59349120e012e", "rental_uris": {"android": "https://dc.lft.to/lastmile_qr_scan", "ios": "https://dc.lft.to/lastmile_qr_scan"}, "name": "42f36eb218040d1199c59349120e012e", "is_reserved": 0}, {"is_disabled": 0, "fusion_lon": 0.0, "fusion_lat": 0.0, "lat": 38.966429833333336, "type": "electric_bike", "lon": -76.93025783333333, "bike_id": "113a15417e26fe56c5d8cde8c4187539", "rental_uris": {"android": "https://dc.lft.to/lastmile_qr_scan", "ios": "https://dc.lft.to/lastmile_qr_scan"}, "name": "113a15417e26fe56c5d8cde8c4187539", "is_reserved": 0}, {"is_disabled": 0, "fusion_lon": 0.0, "fusion_lat": 0.0, "lat": 38.89164, "type": "electric_scooter", "lon": -77.015443, "bike_id": "46fddee99826e8300ff7a4acc0f1627f", "rental_uris": {"android": "https://dc.lft.to/lastmile_qr_scan", "ios": "https://dc.lft.to/lastmile_qr_scan"}, "name": "46fddee99826e8300ff7a4acc0f1627f", "is_reserved": 0}, {"is_disabled": 0, "fusion_lon": 0.0, "fusion_lat": 0.0, "lat": 38.8992805, "type": "electric_scooter", "lon": -77.04008066666667, "bike_id": "6e0de64cb9caf7b800aa4bb6e526653b", "rental_uris": {"android": "https://dc.lft.to/lastmile_qr_scan", "ios": "https://dc.lft.to/lastmile_qr_scan"}, "name": "6e0de64cb9caf7b800aa4bb6e526653b", "is_reserved": 0}, {"is_disabled": 0, "fusion_lon": 0.0, "fusion_lat": 0.0, "lat": 38.91675683333333, "type": "electric_scooter", "lon": -77.029553, "bike_id": "ea5e81776394f3b529db6edc2feb6ceb", "rental_uris": {"android": "https://dc.lft.to/lastmile_qr_scan", "ios": "https://dc.lft.to/lastmile_qr_scan"}, "name": "ea5e81776394f3b529db6edc2feb6ceb", "is_reserved": 0}, {"is_disabled": 0, "fusion_lon": 0.0, "fusion_lat": 0.0, "lat": 38.87980433333333, "type": "electric_bike", "lon": -76.91598083333334, "bike_id": "c396233c36a1e629ec61bbc3a200025d", "rental_uris": {"android": "https://dc.lft.to/lastmile_qr_scan", "ios": "https://dc.lft.to/lastmile_qr_scan"}, "name": "c396233c36a1e629ec61bbc3a200025d", "is_reserved": 0}, {"is_disabled": 0, "fusion_lon": 0.0, "fusion_lat": 0.0, "lat": 38.892178, "type": "electric_scooter", "lon": -77.0486415, "bike_id": "817e9dc32ff96f47202ea795746bef71", "rental_uris": {"android": "https://dc.lft.to/lastmile_qr_scan", "ios": "https://dc.lft.to/lastmile_qr_scan"}, "name": "817e9dc32ff96f47202ea795746bef71", "is_reserved": 0}, {"is_disabled": 0, "fusion_lon": 0.0, "fusion_lat": 0.0, "lat": 38.902104666666666, "type": "electric_scooter", "lon": -77.024392, "bike_id": "f8044576b8aeb7d9f6f940288d851c68", "rental_uris": {"android": "https://dc.lft.to/lastmile_qr_scan", "ios": "https://dc.lft.to/lastmile_qr_scan"}, "name": "f8044576b8aeb7d9f6f940288d851c68", "is_reserved": 0}, {"is_disabled": 0, "fusion_lon": 0.0, "fusion_lat": 0.0, "lat": 38.910808333333335, "type": "electric_scooter", "lon": -77.02192216666667, "bike_id": "494e9d1db0abbc19cb0741307d71a1a7", "rental_uris": {"android": "https://dc.lft.to/lastmile_qr_scan", "ios": "https://dc.lft.to/lastmile_qr_scan"}, "name": "494e9d1db0abbc19cb0741307d71a1a7", "is_reserved": 0}, {"is_disabled": 0, "fusion_lon": 0.0, "fusion_lat": 0.0, "lat": 38.9203865, "type": "electric_scooter", "lon": -77.02425283333334, "bike_id": "e2078aed6af36809686ff193723a7c8f", "rental_uris": {"android": "https://dc.lft.to/lastmile_qr_scan", "ios": "https://dc.lft.to/lastmile_qr_scan"}, "name": "e2078aed6af36809686ff193723a7c8f", "is_reserved": 0}, {"is_disabled": 0, "fusion_lon": 0.0, "fusion_lat": 0.0, "lat": 38.8951355, "type": "electric_scooter", "lon": -77.02855333333333, "bike_id": "85771ea7bff536d8b748b7180fc13e45", "rental_uris": {"android": "https://dc.lft.to/lastmile_qr_scan", "ios": "https://dc.lft.to/lastmile_qr_scan"}, "name": "85771ea7bff536d8b748b7180fc13e45", "is_reserved": 0}, {"is_disabled": 0, "fusion_lon": 0.0, "fusion_lat": 0.0, "lat": 38.90332433333333, "type": "electric_scooter", "lon": -77.021419, "bike_id": "53b89eae0c7b450e88669f4f2e12e600", "rental_uris": {"android": "https://dc.lft.to/lastmile_qr_scan", "ios": "https://dc.lft.to/lastmile_qr_scan"}, "name": "53b89eae0c7b450e88669f4f2e12e600", "is_reserved": 0}, {"is_disabled": 0, "fusion_lon": 0.0, "fusion_lat": 0.0, "lat": 39.00015616666666, "type": "electric_bike", "lon": -76.872862, "bike_id": "881d3b00de747d20fd088287214442cb", "rental_uris": {"android": "https://dc.lft.to/lastmile_qr_scan", "ios": "https://dc.lft.to/lastmile_qr_scan"}, "name": "881d3b00de747d20fd088287214442cb", "is_reserved": 0}, {"is_disabled": 0, "fusion_lon": 0.0, "fusion_lat": 0.0, "lat": 38.8287255, "type": "electric_bike", "lon": -77.11219033333333, "bike_id": "85aaa8776f6a4e09ff1af117fa6fc878", "rental_uris": {"android": "https://dc.lft.to/lastmile_qr_scan", "ios": "https://dc.lft.to/lastmile_qr_scan"}, "name": "85aaa8776f6a4e09ff1af117fa6fc878", "is_reserved": 0}, {"is_disabled": 0, "fusion_lon": 0.0, "fusion_lat": 0.0, "lat": 38.914156166666665, "type": "electric_scooter", "lon": -77.03196716666666, "bike_id": "0a013d2ee3a2f9c06b66e1cc19b8e390", "rental_uris": {"android": "https://dc.lft.to/lastmile_qr_scan", "ios": "https://dc.lft.to/lastmile_qr_scan"}, "name": "0a013d2ee3a2f9c06b66e1cc19b8e390", "is_reserved": 0}, {"is_disabled": 0, "fusion_lon": 0.0, "fusion_lat": 0.0, "lat": 38.895867333333335, "type": "electric_scooter", "lon": -77.02597083333333, "bike_id": "f6f05f5f932d92eaddcb13830d80e1ba", "rental_uris": {"android": "https://dc.lft.to/lastmile_qr_scan", "ios": "https://dc.lft.to/lastmile_qr_scan"}, "name": "f6f05f5f932d92eaddcb13830d80e1ba", "is_reserved": 0}, {"is_disabled": 0, "fusion_lon": 0.0, "fusion_lat": 0.0, "lat": 38.909664666666664, "type": "electric_scooter", "lon": -77.01107983333333, "bike_id": "7436dfe14fa6342c03656ea2717a51ba", "rental_uris": {"android": "https://dc.lft.to/lastmile_qr_scan", "ios": "https://dc.lft.to/lastmile_qr_scan"}, "name": "7436dfe14fa6342c03656ea2717a51ba", "is_reserved": 0}, {"is_disabled": 0, "fusion_lon": 0.0, "fusion_lat": 0.0, "lat": 38.912485, "type": "electric_scooter", "lon": -77.022353, "bike_id": "925998ac162291221aa9f2d6add319b7", "rental_uris": {"android": "https://dc.lft.to/lastmile_qr_scan", "ios": "https://dc.lft.to/lastmile_qr_scan"}, "name": "925998ac162291221aa9f2d6add319b7", "is_reserved": 0}, {"is_disabled": 0, "fusion_lon": 0.0, "fusion_lat": 0.0, "lat": 38.9103855, "type": "electric_scooter", "lon": -77.04257383333334, "bike_id": "b766bd920977c3410c57f4da59dc7378", "rental_uris": {"android": "https://dc.lft.to/lastmile_qr_scan", "ios": "https://dc.lft.to/lastmile_qr_scan"}, "name": "b766bd920977c3410c57f4da59dc7378", "is_reserved": 0}, {"is_disabled": 0, "fusion_lon": 0.0, "fusion_lat": 0.0, "lat": 38.992540166666664, "type": "electric_bike", "lon": -77.04999416666666, "bike_id": "3b425cfe3e6878bfed36617792165eda", "rental_uris": {"android": "https://dc.lft.to/lastmile_qr_scan", "ios": "https://dc.lft.to/lastmile_qr_scan"}, "name": "3b425cfe3e6878bfed36617792165eda", "is_reserved": 0}, {"is_disabled": 0, "fusion_lon": 0.0, "fusion_lat": 0.0, "lat": 38.83811766666667, "type": "electric_scooter", "lon": -77.00436266666667, "bike_id": "73c25cb9a6016c21e5b4a3ffe4978706", "rental_uris": {"android": "https://dc.lft.to/lastmile_qr_scan", "ios": "https://dc.lft.to/lastmile_qr_scan"}, "name": "73c25cb9a6016c21e5b4a3ffe4978706", "is_reserved": 0}, {"is_disabled": 0, "fusion_lon": 0.0, "fusion_lat": 0.0, "lat": 38.857147833333336, "type": "electric_bike", "lon": -76.98115166666666, "bike_id": "891e3510de4707a8acdb4df9de0ded4c", "rental_uris": {"android": "https://dc.lft.to/lastmile_qr_scan", "ios": "https://dc.lft.to/lastmile_qr_scan"}, "name": "891e3510de4707a8acdb4df9de0ded4c", "is_reserved": 0}, {"is_disabled": 0, "fusion_lon": 0.0, "fusion_lat": 0.0, "lat": 38.94302366666667, "type": "electric_scooter", "lon": -77.02350083333333, "bike_id": "40f475170691738e6d426221c63b15ce", "rental_uris": {"android": "https://dc.lft.to/lastmile_qr_scan", "ios": "https://dc.lft.to/lastmile_qr_scan"}, "name": "40f475170691738e6d426221c63b15ce", "is_reserved": 0}, {"is_disabled": 0, "fusion_lon": 0.0, "fusion_lat": 0.0, "lat": 38.990801, "type": "electric_bike", "lon": -77.0017615, "bike_id": "41c589ebf4a49310a5f86914e3b767ab", "rental_uris": {"android": "https://dc.lft.to/lastmile_qr_scan", "ios": "https://dc.lft.to/lastmile_qr_scan"}, "name": "41c589ebf4a49310a5f86914e3b767ab", "is_reserved": 0}, {"is_disabled": 0, "fusion_lon": 0.0, "fusion_lat": 0.0, "lat": 38.920997, "type": "electric_scooter", "lon": -77.03126066666667, "bike_id": "db4a5ef22bd51527524ce87dbd2ec8cf", "rental_uris": {"android": "https://dc.lft.to/lastmile_qr_scan", "ios": "https://dc.lft.to/lastmile_qr_scan"}, "name": "db4a5ef22bd51527524ce87dbd2ec8cf", "is_reserved": 0}, {"is_disabled": 0, "fusion_lon": 0.0, "fusion_lat": 0.0, "lat": 38.919084833333336, "type": "electric_scooter", "lon": -77.03214983333334, "bike_id": "c66102279764878a905105f09f86bfc4", "rental_uris": {"android": "https://dc.lft.to/lastmile_qr_scan", "ios": "https://dc.lft.to/lastmile_qr_scan"}, "name": "c66102279764878a905105f09f86bfc4", "is_reserved": 0}, {"is_disabled": 0, "fusion_lon": 0.0, "fusion_lat": 0.0, "lat": 38.83116666666667, "type": "electric_bike", "lon": -77.0432705, "bike_id": "39d78ab39f402846aa04cec79d3ee3c4", "rental_uris": {"android": "https://dc.lft.to/lastmile_qr_scan", "ios": "https://dc.lft.to/lastmile_qr_scan"}, "name": "39d78ab39f402846aa04cec79d3ee3c4", "is_reserved": 0}, {"is_disabled": 0, "fusion_lon": 0.0, "fusion_lat": 0.0, "lat": 39.115080166666665, "type": "electric_bike", "lon": -77.19543783333333, "bike_id": "f6d958c0f0821d3abcdfdb15f21d6bad", "rental_uris": {"android": "https://dc.lft.to/lastmile_qr_scan", "ios": "https://dc.lft.to/lastmile_qr_scan"}, "name": "f6d958c0f0821d3abcdfdb15f21d6bad", "is_reserved": 0}, {"is_disabled": 0, "fusion_lon": 0.0, "fusion_lat": 0.0, "lat": 38.930433666666666, "type": "electric_scooter", "lon": -77.00416383333334, "bike_id": "9e5d00b2ab944c803a5fd5319ae20481", "rental_uris": {"android": "https://dc.lft.to/lastmile_qr_scan", "ios": "https://dc.lft.to/lastmile_qr_scan"}, "name": "9e5d00b2ab944c803a5fd5319ae20481", "is_reserved": 0}, {"is_disabled": 0, "fusion_lon": 0.0, "fusion_lat": 0.0, "lat": 38.911090333333334, "type": "electric_scooter", "lon": -77.03832583333333, "bike_id": "3f4a37e6798473b1b13d5fdefc34b08f", "rental_uris": {"android": "https://dc.lft.to/lastmile_qr_scan", "ios": "https://dc.lft.to/lastmile_qr_scan"}, "name": "3f4a37e6798473b1b13d5fdefc34b08f", "is_reserved": 0}, {"is_disabled": 0, "fusion_lon": 0.0, "fusion_lat": 0.0, "lat": 38.918651833333335, "type": "electric_scooter", "lon": -77.04483916666666, "bike_id": "9bd1769c1186ed43ee8de34cdef6542f", "rental_uris": {"android": "https://dc.lft.to/lastmile_qr_scan", "ios": "https://dc.lft.to/lastmile_qr_scan"}, "name": "9bd1769c1186ed43ee8de34cdef6542f", "is_reserved": 0}, {"is_disabled": 0, "fusion_lon": 0.0, "fusion_lat": 0.0, "lat": 38.889893, "type": "electric_scooter", "lon": -77.002528, "bike_id": "0f6c772434eab2a030e47a70ba1bbf81", "rental_uris": {"android": "https://dc.lft.to/lastmile_qr_scan", "ios": "https://dc.lft.to/lastmile_qr_scan"}, "name": "0f6c772434eab2a030e47a70ba1bbf81", "is_reserved": 0}, {"is_disabled": 0, "fusion_lon": 0.0, "fusion_lat": 0.0, "lat": 38.90267, "type": "electric_scooter", "lon": -77.034402, "bike_id": "5b4b70d9bb2912274298c40d75f86a23", "rental_uris": {"android": "https://dc.lft.to/lastmile_qr_scan", "ios": "https://dc.lft.to/lastmile_qr_scan"}, "name": "5b4b70d9bb2912274298c40d75f86a23", "is_reserved": 0}, {"is_disabled": 0, "fusion_lon": 0.0, "fusion_lat": 0.0, "lat": 38.88503, "type": "electric_scooter", "lon": -77.003226, "bike_id": "097c50d3f6a723eec2c1997b6ddf196b", "rental_uris": {"android": "https://dc.lft.to/lastmile_qr_scan", "ios": "https://dc.lft.to/lastmile_qr_scan"}, "name": "097c50d3f6a723eec2c1997b6ddf196b", "is_reserved": 0}, {"is_disabled": 0, "fusion_lon": 0.0, "fusion_lat": 0.0, "lat": 38.91709816666667, "type": "electric_scooter", "lon": -77.09811483333333, "bike_id": "5ec735172c8f3befa44bb9b11bd0ffee", "rental_uris": {"android": "https://dc.lft.to/lastmile_qr_scan", "ios": "https://dc.lft.to/lastmile_qr_scan"}, "name": "5ec735172c8f3befa44bb9b11bd0ffee", "is_reserved": 0}, {"is_disabled": 0, "fusion_lon": 0.0, "fusion_lat": 0.0, "lat": 38.90632216666667, "type": "electric_scooter", "lon": -76.98570666666667, "bike_id": "59712a8215ffba8054dc0c72b5152b95", "rental_uris": {"android": "https://dc.lft.to/lastmile_qr_scan", "ios": "https://dc.lft.to/lastmile_qr_scan"}, "name": "59712a8215ffba8054dc0c72b5152b95", "is_reserved": 0}, {"is_disabled": 0, "fusion_lon": 0.0, "fusion_lat": 0.0, "lat": 38.9178825, "type": "electric_scooter", "lon": -77.03181683333334, "bike_id": "e5c6f48f44312f268c1a06e8f7b4ff49", "rental_uris": {"android": "https://dc.lft.to/lastmile_qr_scan", "ios": "https://dc.lft.to/lastmile_qr_scan"}, "name": "e5c6f48f44312f268c1a06e8f7b4ff49", "is_reserved": 0}, {"is_disabled": 0, "fusion_lon": 0.0, "fusion_lat": 0.0, "lat": 38.94973533333334, "type": "electric_scooter", "lon": -77.03764916666667, "bike_id": "989aa0c1abcf5a5a4afc67bcf3d61d12", "rental_uris": {"android": "https://dc.lft.to/lastmile_qr_scan", "ios": "https://dc.lft.to/lastmile_qr_scan"}, "name": "989aa0c1abcf5a5a4afc67bcf3d61d12", "is_reserved": 0}, {"is_disabled": 0, "fusion_lon": 0.0, "fusion_lat": 0.0, "lat": 38.904041, "type": "electric_scooter", "lon": -77.04017966666666, "bike_id": "a06cfc80dfde63332d4e7fb116ce4806", "rental_uris": {"android": "https://dc.lft.to/lastmile_qr_scan", "ios": "https://dc.lft.to/lastmile_qr_scan"}, "name": "a06cfc80dfde63332d4e7fb116ce4806", "is_reserved": 0}, {"is_disabled": 0, "fusion_lon": 0.0, "fusion_lat": 0.0, "lat": 38.89238183333333, "type": "electric_scooter", "lon": -77.033495, "bike_id": "466fb68f919006352b410349b3adb436", "rental_uris": {"android": "https://dc.lft.to/lastmile_qr_scan", "ios": "https://dc.lft.to/lastmile_qr_scan"}, "name": "466fb68f919006352b410349b3adb436", "is_reserved": 0}, {"is_disabled": 0, "fusion_lon": 0.0, "fusion_lat": 0.0, "lat": 39.02684683333333, "type": "electric_bike", "lon": -77.12598783333334, "bike_id": "2d58e2a347a15b4d58169f08aa2f7b21", "rental_uris": {"android": "https://dc.lft.to/lastmile_qr_scan", "ios": "https://dc.lft.to/lastmile_qr_scan"}, "name": "2d58e2a347a15b4d58169f08aa2f7b21", "is_reserved": 0}, {"is_disabled": 0, "fusion_lon": 0.0, "fusion_lat": 0.0, "lat": 38.850657166666664, "type": "electric_bike", "lon": -76.97334566666666, "bike_id": "5f4977917fbc3e9d67987d75403d4ef9", "rental_uris": {"android": "https://dc.lft.to/lastmile_qr_scan", "ios": "https://dc.lft.to/lastmile_qr_scan"}, "name": "5f4977917fbc3e9d67987d75403d4ef9", "is_reserved": 0}, {"is_disabled": 0, "fusion_lon": 0.0, "fusion_lat": 0.0, "lat": 38.89960633333333, "type": "electric_scooter", "lon": -77.0555, "bike_id": "8db693cb1c808a740e8b72ee27a4af8e", "rental_uris": {"android": "https://dc.lft.to/lastmile_qr_scan", "ios": "https://dc.lft.to/lastmile_qr_scan"}, "name": "8db693cb1c808a740e8b72ee27a4af8e", "is_reserved": 0}, {"is_disabled": 0, "fusion_lon": 0.0, "fusion_lat": 0.0, "lat": 38.917064, "type": "electric_scooter", "lon": -77.03425166666666, "bike_id": "3ec1e23219a6bd7dbff1b11a2e4863d2", "rental_uris": {"android": "https://dc.lft.to/lastmile_qr_scan", "ios": "https://dc.lft.to/lastmile_qr_scan"}, "name": "3ec1e23219a6bd7dbff1b11a2e4863d2", "is_reserved": 0}, {"is_disabled": 0, "fusion_lon": 0.0, "fusion_lat": 0.0, "lat": 38.899953833333335, "type": "electric_scooter", "lon": -77.03378466666666, "bike_id": "174b6ac0089d22b79c6a3dd00f288cc1", "rental_uris": {"android": "https://dc.lft.to/lastmile_qr_scan", "ios": "https://dc.lft.to/lastmile_qr_scan"}, "name": "174b6ac0089d22b79c6a3dd00f288cc1", "is_reserved": 0}, {"is_disabled": 0, "fusion_lon": 0.0, "fusion_lat": 0.0, "lat": 38.952242166666665, "type": "electric_scooter", "lon": -77.02760333333333, "bike_id": "32cc75b64ebe9c959cbac5fd97b6c6d3", "rental_uris": {"android": "https://dc.lft.to/lastmile_qr_scan", "ios": "https://dc.lft.to/lastmile_qr_scan"}, "name": "32cc75b64ebe9c959cbac5fd97b6c6d3", "is_reserved": 0}, {"is_disabled": 0, "fusion_lon": 0.0, "fusion_lat": 0.0, "lat": 38.90849433333333, "type": "electric_scooter", "lon": -77.04174966666666, "bike_id": "0f6149e7146cfa905aa491b98958c6ae", "rental_uris": {"android": "https://dc.lft.to/lastmile_qr_scan", "ios": "https://dc.lft.to/lastmile_qr_scan"}, "name": "0f6149e7146cfa905aa491b98958c6ae", "is_reserved": 0}, {"is_disabled": 0, "fusion_lon": 0.0, "fusion_lat": 0.0, "lat": 38.927348333333335, "type": "electric_bike", "lon": -76.99369216666666, "bike_id": "9ffa0154ab8f0f9a790f2e7582424204", "rental_uris": {"android": "https://dc.lft.to/lastmile_qr_scan", "ios": "https://dc.lft.to/lastmile_qr_scan"}, "name": "9ffa0154ab8f0f9a790f2e7582424204", "is_reserved": 0}, {"is_disabled": 0, "fusion_lon": 0.0, "fusion_lat": 0.0, "lat": 38.920153666666664, "type": "electric_bike", "lon": -76.9729965, "bike_id": "3a5b944b5ec45a12184ddfb77952809f", "rental_uris": {"android": "https://dc.lft.to/lastmile_qr_scan", "ios": "https://dc.lft.to/lastmile_qr_scan"}, "name": "3a5b944b5ec45a12184ddfb77952809f", "is_reserved": 0}, {"is_disabled": 0, "fusion_lon": 0.0, "fusion_lat": 0.0, "lat": 38.902505166666664, "type": "electric_scooter", "lon": -77.03441883333333, "bike_id": "89d77ba64b855fd8306d2bf715b0e4d6", "rental_uris": {"android": "https://dc.lft.to/lastmile_qr_scan", "ios": "https://dc.lft.to/lastmile_qr_scan"}, "name": "89d77ba64b855fd8306d2bf715b0e4d6", "is_reserved": 0}, {"is_disabled": 0, "fusion_lon": 0.0, "fusion_lat": 0.0, "lat": 38.85971283333333, "type": "electric_scooter", "lon": -76.984112, "bike_id": "baa4ec579f3a8c91b4ecf4f6bb64b055", "rental_uris": {"android": "https://dc.lft.to/lastmile_qr_scan", "ios": "https://dc.lft.to/lastmile_qr_scan"}, "name": "baa4ec579f3a8c91b4ecf4f6bb64b055", "is_reserved": 0}, {"is_disabled": 0, "fusion_lon": 0.0, "fusion_lat": 0.0, "lat": 38.9087695, "type": "electric_scooter", "lon": -77.04349666666667, "bike_id": "ccafe2288de47e25a46e38307dc25f59", "rental_uris": {"android": "https://dc.lft.to/lastmile_qr_scan", "ios": "https://dc.lft.to/lastmile_qr_scan"}, "name": "ccafe2288de47e25a46e38307dc25f59", "is_reserved": 0}, {"is_disabled": 0, "fusion_lon": 0.0, "fusion_lat": 0.0, "lat": 38.872908833333334, "type": "electric_scooter", "lon": -77.00986433333334, "bike_id": "6987b089ea0cfa51153a3833fbee430b", "rental_uris": {"android": "https://dc.lft.to/lastmile_qr_scan", "ios": "https://dc.lft.to/lastmile_qr_scan"}, "name": "6987b089ea0cfa51153a3833fbee430b", "is_reserved": 0}, {"is_disabled": 0, "fusion_lon": 0.0, "fusion_lat": 0.0, "lat": 38.943169166666664, "type": "electric_scooter", "lon": -77.08579066666667, "bike_id": "ac6297628fa15790c21cdb055ac87fcd", "rental_uris": {"android": "https://dc.lft.to/lastmile_qr_scan", "ios": "https://dc.lft.to/lastmile_qr_scan"}, "name": "ac6297628fa15790c21cdb055ac87fcd", "is_reserved": 0}, {"is_disabled": 0, "fusion_lon": 0.0, "fusion_lat": 0.0, "lat": 38.892729, "type": "electric_scooter", "lon": -76.93720216666667, "bike_id": "f18f110c75bdb052f13101be9ccd685b", "rental_uris": {"android": "https://dc.lft.to/lastmile_qr_scan", "ios": "https://dc.lft.to/lastmile_qr_scan"}, "name": "f18f110c75bdb052f13101be9ccd685b", "is_reserved": 0}, {"is_disabled": 0, "fusion_lon": 0.0, "fusion_lat": 0.0, "lat": 38.912468, "type": "electric_scooter", "lon": -77.0415915, "bike_id": "6b0d0daa003c4bfb7b29300053fb16f6", "rental_uris": {"android": "https://dc.lft.to/lastmile_qr_scan", "ios": "https://dc.lft.to/lastmile_qr_scan"}, "name": "6b0d0daa003c4bfb7b29300053fb16f6", "is_reserved": 0}, {"is_disabled": 0, "fusion_lon": 0.0, "fusion_lat": 0.0, "lat": 38.9297095, "type": "electric_scooter", "lon": -77.03272083333333, "bike_id": "6fcb598279206d3dcafdd77693d82b0e", "rental_uris": {"android": "https://dc.lft.to/lastmile_qr_scan", "ios": "https://dc.lft.to/lastmile_qr_scan"}, "name": "6fcb598279206d3dcafdd77693d82b0e", "is_reserved": 0}, {"is_disabled": 0, "fusion_lon": 0.0, "fusion_lat": 0.0, "lat": 38.91083483333333, "type": "electric_scooter", "lon": -77.02411066666667, "bike_id": "f5dbcb61735a6c052f9eba2d3fc840c7", "rental_uris": {"android": "https://dc.lft.to/lastmile_qr_scan", "ios": "https://dc.lft.to/lastmile_qr_scan"}, "name": "f5dbcb61735a6c052f9eba2d3fc840c7", "is_reserved": 0}, {"is_disabled": 0, "fusion_lon": 0.0, "fusion_lat": 0.0, "lat": 38.916586, "type": "electric_scooter", "lon": -77.02708316666667, "bike_id": "209c645ad89c6317bf19c50db6286630", "rental_uris": {"android": "https://dc.lft.to/lastmile_qr_scan", "ios": "https://dc.lft.to/lastmile_qr_scan"}, "name": "209c645ad89c6317bf19c50db6286630", "is_reserved": 0}, {"is_disabled": 0, "fusion_lon": 0.0, "fusion_lat": 0.0, "lat": 38.9099, "type": "electric_scooter", "lon": -77.03729083333333, "bike_id": "949d83f6b092f567fe4737237d1fa9cf", "rental_uris": {"android": "https://dc.lft.to/lastmile_qr_scan", "ios": "https://dc.lft.to/lastmile_qr_scan"}, "name": "949d83f6b092f567fe4737237d1fa9cf", "is_reserved": 0}, {"is_disabled": 0, "fusion_lon": 0.0, "fusion_lat": 0.0, "lat": 38.914515333333334, "type": "electric_scooter", "lon": -77.02006283333333, "bike_id": "16d525209301c6ed5514696b4d163192", "rental_uris": {"android": "https://dc.lft.to/lastmile_qr_scan", "ios": "https://dc.lft.to/lastmile_qr_scan"}, "name": "16d525209301c6ed5514696b4d163192", "is_reserved": 0}, {"is_disabled": 0, "fusion_lon": 0.0, "fusion_lat": 0.0, "lat": 39.0519725, "type": "electric_bike", "lon": -77.04411516666667, "bike_id": "c377112d2a21e3f9744c98cafae4b463", "rental_uris": {"android": "https://dc.lft.to/lastmile_qr_scan", "ios": "https://dc.lft.to/lastmile_qr_scan"}, "name": "c377112d2a21e3f9744c98cafae4b463", "is_reserved": 0}, {"is_disabled": 0, "fusion_lon": 0.0, "fusion_lat": 0.0, "lat": 38.90513416666667, "type": "electric_scooter", "lon": -77.051356, "bike_id": "690e0f950a16e348861c7b834d5a4bcc", "rental_uris": {"android": "https://dc.lft.to/lastmile_qr_scan", "ios": "https://dc.lft.to/lastmile_qr_scan"}, "name": "690e0f950a16e348861c7b834d5a4bcc", "is_reserved": 0}, {"is_disabled": 0, "fusion_lon": 0.0, "fusion_lat": 0.0, "lat": 38.90957483333333, "type": "electric_scooter", "lon": -77.03940766666666, "bike_id": "d439733e418f345ff40e2d03a689719b", "rental_uris": {"android": "https://dc.lft.to/lastmile_qr_scan", "ios": "https://dc.lft.to/lastmile_qr_scan"}, "name": "d439733e418f345ff40e2d03a689719b", "is_reserved": 0}, {"is_disabled": 0, "fusion_lon": 0.0, "fusion_lat": 0.0, "lat": 38.920271666666665, "type": "electric_scooter", "lon": -77.02589983333333, "bike_id": "07e4d4017474de2a4c4153a373a09911", "rental_uris": {"android": "https://dc.lft.to/lastmile_qr_scan", "ios": "https://dc.lft.to/lastmile_qr_scan"}, "name": "07e4d4017474de2a4c4153a373a09911", "is_reserved": 0}, {"is_disabled": 0, "fusion_lon": 0.0, "fusion_lat": 0.0, "lat": 38.8994395, "type": "electric_scooter", "lon": -77.05150783333333, "bike_id": "c656f45841e9213816cad3933b988cd6", "rental_uris": {"android": "https://dc.lft.to/lastmile_qr_scan", "ios": "https://dc.lft.to/lastmile_qr_scan"}, "name": "c656f45841e9213816cad3933b988cd6", "is_reserved": 0}, {"is_disabled": 0, "fusion_lon": 0.0, "fusion_lat": 0.0, "lat": 38.886256, "type": "electric_bike", "lon": -77.092398, "bike_id": "a3379669100a3aeb568c12e603063cd8", "rental_uris": {"android": "https://dc.lft.to/lastmile_qr_scan", "ios": "https://dc.lft.to/lastmile_qr_scan"}, "name": "a3379669100a3aeb568c12e603063cd8", "is_reserved": 0}, {"is_disabled": 0, "fusion_lon": 0.0, "fusion_lat": 0.0, "lat": 38.858061166666666, "type": "electric_scooter", "lon": -76.98934366666667, "bike_id": "bc3658e7cbbc5d153f29c4ae4d3a29f7", "rental_uris": {"android": "https://dc.lft.to/lastmile_qr_scan", "ios": "https://dc.lft.to/lastmile_qr_scan"}, "name": "bc3658e7cbbc5d153f29c4ae4d3a29f7", "is_reserved": 0}, {"is_disabled": 0, "fusion_lon": 0.0, "fusion_lat": 0.0, "lat": 38.920344166666666, "type": "electric_scooter", "lon": -77.04183316666666, "bike_id": "4bce12dce73fb9ec09051036d8db62de", "rental_uris": {"android": "https://dc.lft.to/lastmile_qr_scan", "ios": "https://dc.lft.to/lastmile_qr_scan"}, "name": "4bce12dce73fb9ec09051036d8db62de", "is_reserved": 0}, {"is_disabled": 0, "fusion_lon": 0.0, "fusion_lat": 0.0, "lat": 38.88990783333333, "type": "electric_scooter", "lon": -77.00050033333333, "bike_id": "0f2833135925b34a15c56d22c44410df", "rental_uris": {"android": "https://dc.lft.to/lastmile_qr_scan", "ios": "https://dc.lft.to/lastmile_qr_scan"}, "name": "0f2833135925b34a15c56d22c44410df", "is_reserved": 0}, {"is_disabled": 0, "fusion_lon": 0.0, "fusion_lat": 0.0, "lat": 38.94079966666666, "type": "electric_scooter", "lon": -77.077367, "bike_id": "82ebd31de8643755609756e99aeaae12", "rental_uris": {"android": "https://dc.lft.to/lastmile_qr_scan", "ios": "https://dc.lft.to/lastmile_qr_scan"}, "name": "82ebd31de8643755609756e99aeaae12", "is_reserved": 0}, {"is_disabled": 0, "fusion_lon": 0.0, "fusion_lat": 0.0, "lat": 38.89731, "type": "electric_bike", "lon": -76.90544416666667, "bike_id": "ccb2f8ede931f543cd0e3f893cd9c447", "rental_uris": {"android": "https://dc.lft.to/lastmile_qr_scan", "ios": "https://dc.lft.to/lastmile_qr_scan"}, "name": "ccb2f8ede931f543cd0e3f893cd9c447", "is_reserved": 0}, {"is_disabled": 0, "fusion_lon": 0.0, "fusion_lat": 0.0, "lat": 38.914178166666666, "type": "electric_scooter", "lon": -77.045265, "bike_id": "dbad20237fbc3ad1cf1a0be48fe8efd7", "rental_uris": {"android": "https://dc.lft.to/lastmile_qr_scan", "ios": "https://dc.lft.to/lastmile_qr_scan"}, "name": "dbad20237fbc3ad1cf1a0be48fe8efd7", "is_reserved": 0}, {"is_disabled": 0, "fusion_lon": 0.0, "fusion_lat": 0.0, "lat": 38.895524333333334, "type": "electric_scooter", "lon": -77.02929583333334, "bike_id": "9afc90891471845dce5b52484cac453b", "rental_uris": {"android": "https://dc.lft.to/lastmile_qr_scan", "ios": "https://dc.lft.to/lastmile_qr_scan"}, "name": "9afc90891471845dce5b52484cac453b", "is_reserved": 0}, {"is_disabled": 0, "fusion_lon": 0.0, "fusion_lat": 0.0, "lat": 38.968161, "type": "electric_scooter", "lon": -77.008921, "bike_id": "c74d8190f7dfb409ec8562917ee0bdb9", "rental_uris": {"android": "https://dc.lft.to/lastmile_qr_scan", "ios": "https://dc.lft.to/lastmile_qr_scan"}, "name": "c74d8190f7dfb409ec8562917ee0bdb9", "is_reserved": 0}, {"is_disabled": 0, "fusion_lon": 0.0, "fusion_lat": 0.0, "lat": 38.90788083333333, "type": "electric_scooter", "lon": -77.04500066666667, "bike_id": "39c4d1f4ee34bb63ba65bc9b952d984c", "rental_uris": {"android": "https://dc.lft.to/lastmile_qr_scan", "ios": "https://dc.lft.to/lastmile_qr_scan"}, "name": "39c4d1f4ee34bb63ba65bc9b952d984c", "is_reserved": 0}, {"is_disabled": 0, "fusion_lon": 0.0, "fusion_lat": 0.0, "lat": 38.903831833333335, "type": "electric_scooter", "lon": -77.004716, "bike_id": "44418f11e411b1a0e2ab04137c64b018", "rental_uris": {"android": "https://dc.lft.to/lastmile_qr_scan", "ios": "https://dc.lft.to/lastmile_qr_scan"}, "name": "44418f11e411b1a0e2ab04137c64b018", "is_reserved": 0}, {"is_disabled": 0, "fusion_lon": 0.0, "fusion_lat": 0.0, "lat": 38.93859283333333, "type": "electric_scooter", "lon": -77.02795333333333, "bike_id": "576cbd1327d0e1c58142f96f62cf3e27", "rental_uris": {"android": "https://dc.lft.to/lastmile_qr_scan", "ios": "https://dc.lft.to/lastmile_qr_scan"}, "name": "576cbd1327d0e1c58142f96f62cf3e27", "is_reserved": 0}, {"is_disabled": 0, "fusion_lon": 0.0, "fusion_lat": 0.0, "lat": 38.90078533333333, "type": "electric_scooter", "lon": -77.01816066666666, "bike_id": "8df473ba0d4f16f7548268d4dfe33d83", "rental_uris": {"android": "https://dc.lft.to/lastmile_qr_scan", "ios": "https://dc.lft.to/lastmile_qr_scan"}, "name": "8df473ba0d4f16f7548268d4dfe33d83", "is_reserved": 0}, {"is_disabled": 0, "fusion_lon": 0.0, "fusion_lat": 0.0, "lat": 38.879163166666665, "type": "electric_scooter", "lon": -76.94484166666666, "bike_id": "ff98a81187d373e304ed2ab9a1287147", "rental_uris": {"android": "https://dc.lft.to/lastmile_qr_scan", "ios": "https://dc.lft.to/lastmile_qr_scan"}, "name": "ff98a81187d373e304ed2ab9a1287147", "is_reserved": 0}, {"is_disabled": 0, "fusion_lon": 0.0, "fusion_lat": 0.0, "lat": 38.896301333333334, "type": "electric_scooter", "lon": -77.02607883333333, "bike_id": "380e4902d1779e6dc80be782bf1fc909", "rental_uris": {"android": "https://dc.lft.to/lastmile_qr_scan", "ios": "https://dc.lft.to/lastmile_qr_scan"}, "name": "380e4902d1779e6dc80be782bf1fc909", "is_reserved": 0}, {"is_disabled": 0, "fusion_lon": 0.0, "fusion_lat": 0.0, "lat": 38.9716495, "type": "electric_bike", "lon": -76.98023866666666, "bike_id": "a7eda3342398c518d011914280b1d66e", "rental_uris": {"android": "https://dc.lft.to/lastmile_qr_scan", "ios": "https://dc.lft.to/lastmile_qr_scan"}, "name": "a7eda3342398c518d011914280b1d66e", "is_reserved": 0}, {"is_disabled": 0, "fusion_lon": 0.0, "fusion_lat": 0.0, "lat": 38.940850166666664, "type": "electric_scooter", "lon": -77.03817266666667, "bike_id": "50b9714e12603160370a796fa1157205", "rental_uris": {"android": "https://dc.lft.to/lastmile_qr_scan", "ios": "https://dc.lft.to/lastmile_qr_scan"}, "name": "50b9714e12603160370a796fa1157205", "is_reserved": 0}, {"is_disabled": 0, "fusion_lon": 0.0, "fusion_lat": 0.0, "lat": 38.938705166666665, "type": "electric_scooter", "lon": -77.03227083333333, "bike_id": "6a044dbb38490c6caa34a424a67bcf89", "rental_uris": {"android": "https://dc.lft.to/lastmile_qr_scan", "ios": "https://dc.lft.to/lastmile_qr_scan"}, "name": "6a044dbb38490c6caa34a424a67bcf89", "is_reserved": 0}, {"is_disabled": 0, "fusion_lon": 0.0, "fusion_lat": 0.0, "lat": 38.8802775, "type": "electric_scooter", "lon": -76.99502983333333, "bike_id": "26ad94f4272b36aeb39cb892aceb34c6", "rental_uris": {"android": "https://dc.lft.to/lastmile_qr_scan", "ios": "https://dc.lft.to/lastmile_qr_scan"}, "name": "26ad94f4272b36aeb39cb892aceb34c6", "is_reserved": 0}, {"is_disabled": 0, "fusion_lon": 0.0, "fusion_lat": 0.0, "lat": 38.91104816666667, "type": "electric_scooter", "lon": -77.04254366666666, "bike_id": "fa605d68efdc3381fe7acb22075384e2", "rental_uris": {"android": "https://dc.lft.to/lastmile_qr_scan", "ios": "https://dc.lft.to/lastmile_qr_scan"}, "name": "fa605d68efdc3381fe7acb22075384e2", "is_reserved": 0}, {"is_disabled": 0, "fusion_lon": 0.0, "fusion_lat": 0.0, "lat": 38.96802533333333, "type": "electric_scooter", "lon": -77.021201, "bike_id": "294a81bac623c0b04474408ed2aa6129", "rental_uris": {"android": "https://dc.lft.to/lastmile_qr_scan", "ios": "https://dc.lft.to/lastmile_qr_scan"}, "name": "294a81bac623c0b04474408ed2aa6129", "is_reserved": 0}, {"is_disabled": 0, "fusion_lon": 0.0, "fusion_lat": 0.0, "lat": 38.916314166666666, "type": "electric_scooter", "lon": -77.02701466666667, "bike_id": "fec56039f38651ec525348981cd37f8b", "rental_uris": {"android": "https://dc.lft.to/lastmile_qr_scan", "ios": "https://dc.lft.to/lastmile_qr_scan"}, "name": "fec56039f38651ec525348981cd37f8b", "is_reserved": 0}, {"is_disabled": 0, "fusion_lon": 0.0, "fusion_lat": 0.0, "lat": 38.905629, "type": "electric_scooter", "lon": -77.04379466666667, "bike_id": "723fb6b1f5db133e7ffb984d5f494f43", "rental_uris": {"android": "https://dc.lft.to/lastmile_qr_scan", "ios": "https://dc.lft.to/lastmile_qr_scan"}, "name": "723fb6b1f5db133e7ffb984d5f494f43", "is_reserved": 0}, {"is_disabled": 0, "fusion_lon": 0.0, "fusion_lat": 0.0, "lat": 38.954187833333336, "type": "electric_scooter", "lon": -77.02173616666667, "bike_id": "ecaa17f172ad9b048a67cb4d94963e69", "rental_uris": {"android": "https://dc.lft.to/lastmile_qr_scan", "ios": "https://dc.lft.to/lastmile_qr_scan"}, "name": "ecaa17f172ad9b048a67cb4d94963e69", "is_reserved": 0}, {"is_disabled": 0, "fusion_lon": 0.0, "fusion_lat": 0.0, "lat": 38.8801545, "type": "electric_scooter", "lon": -76.982344, "bike_id": "48219b3f71a94a0c7d7e455ed6798e28", "rental_uris": {"android": "https://dc.lft.to/lastmile_qr_scan", "ios": "https://dc.lft.to/lastmile_qr_scan"}, "name": "48219b3f71a94a0c7d7e455ed6798e28", "is_reserved": 0}, {"is_disabled": 0, "fusion_lon": 0.0, "fusion_lat": 0.0, "lat": 38.911848166666665, "type": "electric_scooter", "lon": -77.02971083333334, "bike_id": "a93eec19395e31a93321a3dd0f1f20c7", "rental_uris": {"android": "https://dc.lft.to/lastmile_qr_scan", "ios": "https://dc.lft.to/lastmile_qr_scan"}, "name": "a93eec19395e31a93321a3dd0f1f20c7", "is_reserved": 0}, {"is_disabled": 0, "fusion_lon": 0.0, "fusion_lat": 0.0, "lat": 38.909608166666665, "type": "electric_scooter", "lon": -77.04620966666667, "bike_id": "b99b820b093f92e66f17e5dc2146774a", "rental_uris": {"android": "https://dc.lft.to/lastmile_qr_scan", "ios": "https://dc.lft.to/lastmile_qr_scan"}, "name": "b99b820b093f92e66f17e5dc2146774a", "is_reserved": 0}, {"is_disabled": 0, "fusion_lon": 0.0, "fusion_lat": 0.0, "lat": 38.897916333333335, "type": "electric_scooter", "lon": -76.9305015, "bike_id": "e503e579551d469f42b0d2edb64d000f", "rental_uris": {"android": "https://dc.lft.to/lastmile_qr_scan", "ios": "https://dc.lft.to/lastmile_qr_scan"}, "name": "e503e579551d469f42b0d2edb64d000f", "is_reserved": 0}, {"is_disabled": 0, "fusion_lon": 0.0, "fusion_lat": 0.0, "lat": 38.93540333333333, "type": "electric_scooter", "lon": -77.0577635, "bike_id": "26c56bcdd089d8df9fd19c634f127304", "rental_uris": {"android": "https://dc.lft.to/lastmile_qr_scan", "ios": "https://dc.lft.to/lastmile_qr_scan"}, "name": "26c56bcdd089d8df9fd19c634f127304", "is_reserved": 0}, {"is_disabled": 0, "fusion_lon": 0.0, "fusion_lat": 0.0, "lat": 38.9084455, "type": "electric_scooter", "lon": -77.0270915, "bike_id": "fbe7c13d16f87e3833cc2ee5fc3cb5af", "rental_uris": {"android": "https://dc.lft.to/lastmile_qr_scan", "ios": "https://dc.lft.to/lastmile_qr_scan"}, "name": "fbe7c13d16f87e3833cc2ee5fc3cb5af", "is_reserved": 0}, {"is_disabled": 0, "fusion_lon": 0.0, "fusion_lat": 0.0, "lat": 38.83148816666667, "type": "electric_bike", "lon": -76.9969325, "bike_id": "b01e5666dd7fa5353dd31b19bbb8e232", "rental_uris": {"android": "https://dc.lft.to/lastmile_qr_scan", "ios": "https://dc.lft.to/lastmile_qr_scan"}, "name": "b01e5666dd7fa5353dd31b19bbb8e232", "is_reserved": 0}, {"is_disabled": 0, "fusion_lon": 0.0, "fusion_lat": 0.0, "lat": 38.9211655, "type": "electric_bike", "lon": -77.0121525, "bike_id": "990e1d38a10fff8e2555d4b179a315ee", "rental_uris": {"android": "https://dc.lft.to/lastmile_qr_scan", "ios": "https://dc.lft.to/lastmile_qr_scan"}, "name": "990e1d38a10fff8e2555d4b179a315ee", "is_reserved": 0}, {"is_disabled": 0, "fusion_lon": 0.0, "fusion_lat": 0.0, "lat": 38.867394166666664, "type": "electric_scooter", "lon": -76.98848516666666, "bike_id": "3208277b2f75785d60f3bd9d2b31780e", "rental_uris": {"android": "https://dc.lft.to/lastmile_qr_scan", "ios": "https://dc.lft.to/lastmile_qr_scan"}, "name": "3208277b2f75785d60f3bd9d2b31780e", "is_reserved": 0}, {"is_disabled": 0, "fusion_lon": 0.0, "fusion_lat": 0.0, "lat": 38.94286433333333, "type": "electric_scooter", "lon": -77.02175266666667, "bike_id": "c4b0cd5ad4c21ab07a3829aaf45f08f7", "rental_uris": {"android": "https://dc.lft.to/lastmile_qr_scan", "ios": "https://dc.lft.to/lastmile_qr_scan"}, "name": "c4b0cd5ad4c21ab07a3829aaf45f08f7", "is_reserved": 0}, {"is_disabled": 0, "fusion_lon": 0.0, "fusion_lat": 0.0, "lat": 38.949825, "type": "electric_scooter", "lon": -77.027022, "bike_id": "7c48c0bb51f0361ba6343bbd9419a787", "rental_uris": {"android": "https://dc.lft.to/lastmile_qr_scan", "ios": "https://dc.lft.to/lastmile_qr_scan"}, "name": "7c48c0bb51f0361ba6343bbd9419a787", "is_reserved": 0}, {"is_disabled": 0, "fusion_lon": 0.0, "fusion_lat": 0.0, "lat": 38.87009066666667, "type": "electric_scooter", "lon": -77.0137425, "bike_id": "958f1654a7b0c53dbaa15ec60c1de35f", "rental_uris": {"android": "https://dc.lft.to/lastmile_qr_scan", "ios": "https://dc.lft.to/lastmile_qr_scan"}, "name": "958f1654a7b0c53dbaa15ec60c1de35f", "is_reserved": 0}, {"is_disabled": 0, "fusion_lon": 0.0, "fusion_lat": 0.0, "lat": 38.916858500000004, "type": "electric_scooter", "lon": -77.0306555, "bike_id": "f12f899747e4ab2c39e4c990246a9fbb", "rental_uris": {"android": "https://dc.lft.to/lastmile_qr_scan", "ios": "https://dc.lft.to/lastmile_qr_scan"}, "name": "f12f899747e4ab2c39e4c990246a9fbb", "is_reserved": 0}, {"is_disabled": 0, "fusion_lon": 0.0, "fusion_lat": 0.0, "lat": 38.93954933333333, "type": "electric_bike", "lon": -77.36085466666667, "bike_id": "4b69bedf16071b2e3d8c7ad2beb32e39", "rental_uris": {"android": "https://dc.lft.to/lastmile_qr_scan", "ios": "https://dc.lft.to/lastmile_qr_scan"}, "name": "4b69bedf16071b2e3d8c7ad2beb32e39", "is_reserved": 0}, {"is_disabled": 0, "fusion_lon": 0.0, "fusion_lat": 0.0, "lat": 38.91875666666667, "type": "electric_scooter", "lon": -77.05961916666666, "bike_id": "443748f6fe21a30a05c8681257ce3a12", "rental_uris": {"android": "https://dc.lft.to/lastmile_qr_scan", "ios": "https://dc.lft.to/lastmile_qr_scan"}, "name": "443748f6fe21a30a05c8681257ce3a12", "is_reserved": 0}, {"is_disabled": 0, "fusion_lon": 0.0, "fusion_lat": 0.0, "lat": 38.923342, "type": "electric_scooter", "lon": -77.043821, "bike_id": "ac4c3b8e0745312234694c0c249570e6", "rental_uris": {"android": "https://dc.lft.to/lastmile_qr_scan", "ios": "https://dc.lft.to/lastmile_qr_scan"}, "name": "ac4c3b8e0745312234694c0c249570e6", "is_reserved": 0}, {"is_disabled": 0, "fusion_lon": 0.0, "fusion_lat": 0.0, "lat": 38.911952666666664, "type": "electric_scooter", "lon": -77.04161466666666, "bike_id": "a82765d7e567fa6a79c89fed7540394a", "rental_uris": {"android": "https://dc.lft.to/lastmile_qr_scan", "ios": "https://dc.lft.to/lastmile_qr_scan"}, "name": "a82765d7e567fa6a79c89fed7540394a", "is_reserved": 0}, {"is_disabled": 0, "fusion_lon": 0.0, "fusion_lat": 0.0, "lat": 38.9347145, "type": "electric_scooter", "lon": -77.072649, "bike_id": "9c50de77c3a077d217c80fcc30adb405", "rental_uris": {"android": "https://dc.lft.to/lastmile_qr_scan", "ios": "https://dc.lft.to/lastmile_qr_scan"}, "name": "9c50de77c3a077d217c80fcc30adb405", "is_reserved": 0}, {"is_disabled": 0, "fusion_lon": 0.0, "fusion_lat": 0.0, "lat": 38.92284183333334, "type": "electric_scooter", "lon": -77.04462716666667, "bike_id": "1ccae4ca03289300f5c5ec033c2dff89", "rental_uris": {"android": "https://dc.lft.to/lastmile_qr_scan", "ios": "https://dc.lft.to/lastmile_qr_scan"}, "name": "1ccae4ca03289300f5c5ec033c2dff89", "is_reserved": 0}, {"is_disabled": 0, "fusion_lon": 0.0, "fusion_lat": 0.0, "lat": 38.87584666666667, "type": "electric_scooter", "lon": -77.00418266666667, "bike_id": "17ef4f07bdf0341d7447d09500ffaed5", "rental_uris": {"android": "https://dc.lft.to/lastmile_qr_scan", "ios": "https://dc.lft.to/lastmile_qr_scan"}, "name": "17ef4f07bdf0341d7447d09500ffaed5", "is_reserved": 0}, {"is_disabled": 0, "fusion_lon": 0.0, "fusion_lat": 0.0, "lat": 38.924704166666665, "type": "electric_scooter", "lon": -77.07299383333333, "bike_id": "0aa5eb823e0c49b012936f829660bd22", "rental_uris": {"android": "https://dc.lft.to/lastmile_qr_scan", "ios": "https://dc.lft.to/lastmile_qr_scan"}, "name": "0aa5eb823e0c49b012936f829660bd22", "is_reserved": 0}, {"is_disabled": 0, "fusion_lon": 0.0, "fusion_lat": 0.0, "lat": 38.895297166666666, "type": "electric_scooter", "lon": -77.04853233333333, "bike_id": "1a131ab4d1fdba811f29a85b2652b3f0", "rental_uris": {"android": "https://dc.lft.to/lastmile_qr_scan", "ios": "https://dc.lft.to/lastmile_qr_scan"}, "name": "1a131ab4d1fdba811f29a85b2652b3f0", "is_reserved": 0}, {"is_disabled": 0, "fusion_lon": 0.0, "fusion_lat": 0.0, "lat": 38.92464833333333, "type": "electric_scooter", "lon": -77.05207283333333, "bike_id": "9d3564427fd3f579587d9e90739171d3", "rental_uris": {"android": "https://dc.lft.to/lastmile_qr_scan", "ios": "https://dc.lft.to/lastmile_qr_scan"}, "name": "9d3564427fd3f579587d9e90739171d3", "is_reserved": 0}, {"is_disabled": 0, "fusion_lon": 0.0, "fusion_lat": 0.0, "lat": 38.90854783333333, "type": "electric_scooter", "lon": -77.0417635, "bike_id": "ccc444e53d5e3fbd686d49d9ef6922cd", "rental_uris": {"android": "https://dc.lft.to/lastmile_qr_scan", "ios": "https://dc.lft.to/lastmile_qr_scan"}, "name": "ccc444e53d5e3fbd686d49d9ef6922cd", "is_reserved": 0}, {"is_disabled": 0, "fusion_lon": 0.0, "fusion_lat": 0.0, "lat": 38.926140833333335, "type": "electric_scooter", "lon": -77.02162833333334, "bike_id": "453a71828c303be1da76de6c9a403386", "rental_uris": {"android": "https://dc.lft.to/lastmile_qr_scan", "ios": "https://dc.lft.to/lastmile_qr_scan"}, "name": "453a71828c303be1da76de6c9a403386", "is_reserved": 0}, {"is_disabled": 0, "fusion_lon": 0.0, "fusion_lat": 0.0, "lat": 38.877525166666665, "type": "electric_bike", "lon": -76.97999066666667, "bike_id": "9e17cd6f10477501739e11fac5f5df0e", "rental_uris": {"android": "https://dc.lft.to/lastmile_qr_scan", "ios": "https://dc.lft.to/lastmile_qr_scan"}, "name": "9e17cd6f10477501739e11fac5f5df0e", "is_reserved": 0}, {"is_disabled": 0, "fusion_lon": 0.0, "fusion_lat": 0.0, "lat": 38.90405416666667, "type": "electric_scooter", "lon": -77.01782116666666, "bike_id": "45c127878ef81415b1f9ba190663a4f1", "rental_uris": {"android": "https://dc.lft.to/lastmile_qr_scan", "ios": "https://dc.lft.to/lastmile_qr_scan"}, "name": "45c127878ef81415b1f9ba190663a4f1", "is_reserved": 0}, {"is_disabled": 0, "fusion_lon": 0.0, "fusion_lat": 0.0, "lat": 38.912738, "type": "electric_scooter", "lon": -77.0385755, "bike_id": "3f62043cafb06ee0088173fc6b92792e", "rental_uris": {"android": "https://dc.lft.to/lastmile_qr_scan", "ios": "https://dc.lft.to/lastmile_qr_scan"}, "name": "3f62043cafb06ee0088173fc6b92792e", "is_reserved": 0}, {"is_disabled": 0, "fusion_lon": 0.0, "fusion_lat": 0.0, "lat": 38.840923833333335, "type": "electric_bike", "lon": -77.08939666666667, "bike_id": "eb10a638c548d8c1420bce51788d1a27", "rental_uris": {"android": "https://dc.lft.to/lastmile_qr_scan", "ios": "https://dc.lft.to/lastmile_qr_scan"}, "name": "eb10a638c548d8c1420bce51788d1a27", "is_reserved": 0}, {"is_disabled": 0, "fusion_lon": 0.0, "fusion_lat": 0.0, "lat": 38.92991966666666, "type": "electric_scooter", "lon": -77.01980633333334, "bike_id": "e521449e8f20a5d6f5ea740a90d6760a", "rental_uris": {"android": "https://dc.lft.to/lastmile_qr_scan", "ios": "https://dc.lft.to/lastmile_qr_scan"}, "name": "e521449e8f20a5d6f5ea740a90d6760a", "is_reserved": 0}, {"is_disabled": 0, "fusion_lon": 0.0, "fusion_lat": 0.0, "lat": 38.89675666666667, "type": "electric_bike", "lon": -76.94057816666667, "bike_id": "4189047a449e011c4c50c9d12e019f2d", "rental_uris": {"android": "https://dc.lft.to/lastmile_qr_scan", "ios": "https://dc.lft.to/lastmile_qr_scan"}, "name": "4189047a449e011c4c50c9d12e019f2d", "is_reserved": 0}, {"is_disabled": 0, "fusion_lon": 0.0, "fusion_lat": 0.0, "lat": 38.91006133333333, "type": "electric_scooter", "lon": -77.04395866666667, "bike_id": "e2d1727950663cd40b752d22a3c566f1", "rental_uris": {"android": "https://dc.lft.to/lastmile_qr_scan", "ios": "https://dc.lft.to/lastmile_qr_scan"}, "name": "e2d1727950663cd40b752d22a3c566f1", "is_reserved": 0}, {"is_disabled": 0, "fusion_lon": 0.0, "fusion_lat": 0.0, "lat": 38.927117833333334, "type": "electric_scooter", "lon": -77.040463, "bike_id": "781bd347f301f814b6f99b300ef333d0", "rental_uris": {"android": "https://dc.lft.to/lastmile_qr_scan", "ios": "https://dc.lft.to/lastmile_qr_scan"}, "name": "781bd347f301f814b6f99b300ef333d0", "is_reserved": 0}, {"is_disabled": 0, "fusion_lon": 0.0, "fusion_lat": 0.0, "lat": 38.90784033333333, "type": "electric_scooter", "lon": -77.00971566666666, "bike_id": "cd9b3ca218368bf70df099549e650b48", "rental_uris": {"android": "https://dc.lft.to/lastmile_qr_scan", "ios": "https://dc.lft.to/lastmile_qr_scan"}, "name": "cd9b3ca218368bf70df099549e650b48", "is_reserved": 0}, {"is_disabled": 0, "fusion_lon": 0.0, "fusion_lat": 0.0, "lat": 38.94197033333333, "type": "electric_scooter", "lon": -77.02577466666666, "bike_id": "002daf89ffee0a45cedd504f9b9b273e", "rental_uris": {"android": "https://dc.lft.to/lastmile_qr_scan", "ios": "https://dc.lft.to/lastmile_qr_scan"}, "name": "002daf89ffee0a45cedd504f9b9b273e", "is_reserved": 0}, {"is_disabled": 0, "fusion_lon": 0.0, "fusion_lat": 0.0, "lat": 38.844204500000004, "type": "electric_scooter", "lon": -76.997826, "bike_id": "d154ba71f6569ff9f4dcb81cf42699fc", "rental_uris": {"android": "https://dc.lft.to/lastmile_qr_scan", "ios": "https://dc.lft.to/lastmile_qr_scan"}, "name": "d154ba71f6569ff9f4dcb81cf42699fc", "is_reserved": 0}, {"is_disabled": 0, "fusion_lon": 0.0, "fusion_lat": 0.0, "lat": 38.88491883333333, "type": "electric_scooter", "lon": -77.007303, "bike_id": "1291b7f41271d8e8afb3f1ddc000c6cd", "rental_uris": {"android": "https://dc.lft.to/lastmile_qr_scan", "ios": "https://dc.lft.to/lastmile_qr_scan"}, "name": "1291b7f41271d8e8afb3f1ddc000c6cd", "is_reserved": 0}, {"is_disabled": 0, "fusion_lon": 0.0, "fusion_lat": 0.0, "lat": 38.932409166666666, "type": "electric_scooter", "lon": -77.03279183333333, "bike_id": "be55e0de5a0e0be26ca6b11c2cebf167", "rental_uris": {"android": "https://dc.lft.to/lastmile_qr_scan", "ios": "https://dc.lft.to/lastmile_qr_scan"}, "name": "be55e0de5a0e0be26ca6b11c2cebf167", "is_reserved": 0}, {"is_disabled": 0, "fusion_lon": 0.0, "fusion_lat": 0.0, "lat": 38.88491883333333, "type": "electric_scooter", "lon": -77.00709516666667, "bike_id": "493cfd3e08cf87ee7ef44bc0f24901bc", "rental_uris": {"android": "https://dc.lft.to/lastmile_qr_scan", "ios": "https://dc.lft.to/lastmile_qr_scan"}, "name": "493cfd3e08cf87ee7ef44bc0f24901bc", "is_reserved": 0}, {"is_disabled": 0, "fusion_lon": 0.0, "fusion_lat": 0.0, "lat": 38.894985, "type": "electric_scooter", "lon": -76.94876983333333, "bike_id": "8a9a73da3f503a8f0193dd32a34d53cd", "rental_uris": {"android": "https://dc.lft.to/lastmile_qr_scan", "ios": "https://dc.lft.to/lastmile_qr_scan"}, "name": "8a9a73da3f503a8f0193dd32a34d53cd", "is_reserved": 0}, {"is_disabled": 0, "fusion_lon": 0.0, "fusion_lat": 0.0, "lat": 38.909470166666665, "type": "electric_scooter", "lon": -76.998959, "bike_id": "1b679fc63b6524746f0090509dbb5169", "rental_uris": {"android": "https://dc.lft.to/lastmile_qr_scan", "ios": "https://dc.lft.to/lastmile_qr_scan"}, "name": "1b679fc63b6524746f0090509dbb5169", "is_reserved": 0}, {"is_disabled": 0, "fusion_lon": 0.0, "fusion_lat": 0.0, "lat": 38.961893, "type": "electric_scooter", "lon": -77.02783533333333, "bike_id": "ac5c9461295c44e4e1d3d75ed6f686f2", "rental_uris": {"android": "https://dc.lft.to/lastmile_qr_scan", "ios": "https://dc.lft.to/lastmile_qr_scan"}, "name": "ac5c9461295c44e4e1d3d75ed6f686f2", "is_reserved": 0}, {"is_disabled": 0, "fusion_lon": 0.0, "fusion_lat": 0.0, "lat": 38.865015, "type": "electric_scooter", "lon": -76.9733515, "bike_id": "87458d857bae5066a7100d52c653e3df", "rental_uris": {"android": "https://dc.lft.to/lastmile_qr_scan", "ios": "https://dc.lft.to/lastmile_qr_scan"}, "name": "87458d857bae5066a7100d52c653e3df", "is_reserved": 0}, {"is_disabled": 0, "fusion_lon": 0.0, "fusion_lat": 0.0, "lat": 38.878266833333335, "type": "electric_scooter", "lon": -76.9630565, "bike_id": "a5f06290d4ce637eb242f1c38d622a0a", "rental_uris": {"android": "https://dc.lft.to/lastmile_qr_scan", "ios": "https://dc.lft.to/lastmile_qr_scan"}, "name": "a5f06290d4ce637eb242f1c38d622a0a", "is_reserved": 0}, {"is_disabled": 0, "fusion_lon": 0.0, "fusion_lat": 0.0, "lat": 38.860376, "type": "electric_scooter", "lon": -76.98376816666666, "bike_id": "0f11816d5077d79615d64ebc3ed9ead2", "rental_uris": {"android": "https://dc.lft.to/lastmile_qr_scan", "ios": "https://dc.lft.to/lastmile_qr_scan"}, "name": "0f11816d5077d79615d64ebc3ed9ead2", "is_reserved": 0}, {"is_disabled": 0, "fusion_lon": 0.0, "fusion_lat": 0.0, "lat": 38.93660066666666, "type": "electric_scooter", "lon": -77.032595, "bike_id": "1335c62546fbe14f9984902368cdd3f7", "rental_uris": {"android": "https://dc.lft.to/lastmile_qr_scan", "ios": "https://dc.lft.to/lastmile_qr_scan"}, "name": "1335c62546fbe14f9984902368cdd3f7", "is_reserved": 0}, {"is_disabled": 0, "fusion_lon": 0.0, "fusion_lat": 0.0, "lat": 38.94982383333333, "type": "electric_scooter", "lon": -77.0270195, "bike_id": "1095fd32bc3a733250fef88d9410e280", "rental_uris": {"android": "https://dc.lft.to/lastmile_qr_scan", "ios": "https://dc.lft.to/lastmile_qr_scan"}, "name": "1095fd32bc3a733250fef88d9410e280", "is_reserved": 0},