{"data": {"bikes": [{"fusion_lon": 0.0, "bike_id": "9c66346783ee44b7d7fb58392389c528", "name": "9c66346783ee44b7d7fb58392389c528", "type": "electric_scooter", "lon": -77.06394166666666, "rental_uris": {"android": "https://dc.lft.to/lastmile_qr_scan", "ios": "https://dc.lft.to/lastmile_qr_scan"}, "lat": 38.929095, "is_reserved": 0, "is_disabled": 0, "fusion_lat": 0.0}, {"fusion_lon": 0.0, "bike_id": "829977b70e1b5f4633b1c99a0cce16de", "name": "829977b70e1b5f4633b1c99a0cce16de", "type": "electric_bike", "lon": -77.12983266666667, "rental_uris": {"android": "https://dc.lft.to/lastmile_qr_scan", "ios": "https://dc.lft.to/lastmile_qr_scan"}, "lat": 38.79986616666667, "is_reserved": 0, "is_disabled": 0, "fusion_lat": 0.0}, {"fusion_lon": 0.0, "bike_id": "b75fde7aea3b8bd7736322a7a5e2b07c", "name": "b75fde7aea3b8bd7736322a7a5e2b07c", "type": "electric_scooter", "lon": -77.02314816666667, "rental_uris": {"android": "https://dc.lft.to/lastmile_qr_scan", "ios": "https://dc.lft.to/lastmile_qr_scan"}, "lat": 38.91772016666667, "is_reserved": 0, "is_disabled": 0, "fusion_lat": 0.0}, {"fusion_lon": 0.0, "bike_id": "6b7ea4c7c1ef73f3a055600213fe6aa5", "name": "6b7ea4c7c1ef73f3a055600213fe6aa5", "type": "electric_scooter", "lon": -77.03198466666667, "rental_uris": {"android": "https://dc.lft.to/lastmile_qr_scan", "ios": "https://dc.lft.to/lastmile_qr_scan"}, "lat": 38.900898, "is_reserved": 0, "is_disabled": 0, "fusion_lat": 0.0}, {"fusion_lon": 0.0, "bike_id": "29f65b8a114966ab0c1230984bbb4e48", "name": "29f65b8a114966ab0c1230984bbb4e48", "type": "electric_bike", "lon": -77.1281425, "rental_uris": {"android": "https://dc.lft.to/lastmile_qr_scan", "ios": "https://dc.lft.to/lastmile_qr_scan"}, "lat": 38.865303, "is_reserved": 0, "is_disabled": 0, "fusion_lat": 0.0}, {"fusion_lon": 0.0, "bike_id": "5d3f1efcb3fa6ed2645099f08d8aa8ec", "name": "5d3f1efcb3fa6ed2645099f08d8aa8ec", "type": "electric_scooter", "lon": -76.98706733333333, "rental_uris": {"android": "https://dc.lft.to/lastmile_qr_scan", "ios": "https://dc.lft.to/lastmile_qr_scan"}, "lat": 38.865375666666665, "is_reserved": 0, "is_disabled": 0, "fusion_lat": 0.0}, {"fusion_lon": 0.0, "bike_id": "e25d0436bd2ba7ff7e3b1761cee0b1d5", "name": "e25d0436bd2ba7ff7e3b1761cee0b1d5", "type": "electric_scooter", "lon": -76.99448116666667, "rental_uris": {"android": "https://dc.lft.to/lastmile_qr_scan", "ios": "https://dc.lft.to/lastmile_qr_scan"}, "lat": 38.9050675, "is_reserved": 0, "is_disabled": 0, "fusion_lat": 0.0}, {"fusion_lon": 0.0, "bike_id": "cea5315729e6b914d8f5bb5cde2953e1", "name": "cea5315729e6b914d8f5bb5cde2953e1", "type": "electric_scooter", "lon": -77.04221283333334, "rental_uris": {"android": "https://dc.lft.to/lastmile_qr_scan", "ios": "https://dc.lft.to/lastmile_qr_scan"}, "lat": 38.92172633333333, "is_reserved": 0, "is_disabled": 0, "fusion_lat": 0.0}, {"fusion_lon": 0.0, "bike_id": "73519dc5df5d79a90f379c39c408c170", "name": "73519dc5df5d79a90f379c39c408c170", "type": "electric_scooter", "lon": -77.03657666666666, "rental_uris": {"android": "https://dc.lft.to/lastmile_qr_scan", "ios": "https://dc.lft.to/lastmile_qr_scan"}, "lat": 38.93632066666667, "is_reserved": 0, "is_disabled": 0, "fusion_lat": 0.0}, {"fusion_lon": 0.0, "bike_id": "ada0c6079be818c9087a1f23bd9551fa", "name": "ada0c6079be818c9087a1f23bd9551fa", "type": "electric_bike", "lon": -77.02717616666666, "rental_uris": {"android": "https://dc.lft.to/lastmile_qr_scan", "ios": "https://dc.lft.to/lastmile_qr_scan"}, "lat": 38.92298433333333, "is_reserved": 0, "is_disabled": 0, "fusion_lat": 0.0}, {"fusion_lon": 0.0, "bike_id": "c1696f2de9c1ceb317d67c7dfa02b2bb", "name": "c1696f2de9c1ceb317d67c7dfa02b2bb", "type": "electric_bike", "lon": -77.0704185, "rental_uris": {"android": "https://dc.lft.to/lastmile_qr_scan", "ios": "https://dc.lft.to/lastmile_qr_scan"}, "lat": 38.824454333333335, "is_reserved": 0, "is_disabled": 0, "fusion_lat": 0.0}, {"fusion_lon": 0.0, "bike_id": "aaa47ee49359c244bd8b5f459708ff43", "name": "aaa47ee49359c244bd8b5f459708ff43", "type": "electric_scooter", "lon": -77.00187083333333, "rental_uris": {"android": "https://dc.lft.to/lastmile_qr_scan", "ios": "https://dc.lft.to/lastmile_qr_scan"}, "lat": 38.9038405, "is_reserved": 0, "is_disabled": 0, "fusion_lat": 0.0}, {"fusion_lon": 0.0, "bike_id": "64aafe050faa6d269bcbbc64f45d0ace", "name": "64aafe050faa6d269bcbbc64f45d0ace", "type": "electric_scooter", "lon": -77.023893, "rental_uris": {"android": "https://dc.lft.to/lastmile_qr_scan", "ios": "https://dc.lft.to/lastmile_qr_scan"}, "lat": 38.917398166666665, "is_reserved": 0, "is_disabled": 0, "fusion_lat": 0.0}, {"fusion_lon": 0.0, "bike_id": "83495e769ae07b59012525d3e6def97e", "name": "83495e769ae07b59012525d3e6def97e", "type": "electric_scooter", "lon": -76.93531216666666, "rental_uris": {"android": "https://dc.lft.to/lastmile_qr_scan", "ios": "https://dc.lft.to/lastmile_qr_scan"}, "lat": 38.89682, "is_reserved": 0, "is_disabled": 0, "fusion_lat": 0.0}, {"fusion_lon": 0.0, "bike_id": "6269099cab126aad8999009da9e6ad2a", "name": "6269099cab126aad8999009da9e6ad2a", "type": "electric_bike", "lon": -76.9833125, "rental_uris": {"android": "https://dc.lft.to/lastmile_qr_scan", "ios": "https://dc.lft.to/lastmile_qr_scan"}, "lat": 38.96604966666666, "is_reserved": 0, "is_disabled": 0, "fusion_lat": 0.0}, {"fusion_lon": 0.0, "bike_id": "2a1914e85f3a904195a138a7264c0a1b", "name": "2a1914e85f3a904195a138a7264c0a1b", "type": "electric_scooter", "lon": -77.021569, "rental_uris": {"android": "https://dc.lft.to/lastmile_qr_scan", "ios": "https://dc.lft.to/lastmile_qr_scan"}, "lat": 38.92602183333333, "is_reserved": 0, "is_disabled": 0, "fusion_lat": 0.0}, {"fusion_lon": 0.0, "bike_id": "c1175adaab8a386b9b73e7bcbf047e61", "name": "c1175adaab8a386b9b73e7bcbf047e61", "type": "electric_bike", "lon": -77.11231133333334, "rental_uris": {"android": "https://dc.lft.to/lastmile_qr_scan", "ios": "https://dc.lft.to/lastmile_qr_scan"}, "lat": 38.812301833333336, "is_reserved": 0, "is_disabled": 0, "fusion_lat": 0.0}, {"fusion_lon": 0.0, "bike_id": "4510b8b7cd7cc5ac901e960aa697c52d", "name": "4510b8b7cd7cc5ac901e960aa697c52d", "type": "electric_scooter", "lon": -77.0327285, "rental_uris": {"android": "https://dc.lft.to/lastmile_qr_scan", "ios": "https://dc.lft.to/lastmile_qr_scan"}, "lat": 38.93330566666667, "is_reserved": 0, "is_disabled": 0, "fusion_lat": 0.0}, {"fusion_lon": 0.0, "bike_id": "24c3816e158d731a006aaa69da68c768", "name": "24c3816e158d731a006aaa69da68c768", "type": "electric_scooter", "lon": -76.99612833333333, "rental_uris": {"android": "https://dc.lft.to/lastmile_qr_scan", "ios": "https://dc.lft.to/lastmile_qr_scan"}, "lat": 38.886154, "is_reserved": 0, "is_disabled": 0, "fusion_lat": 0.0}, {"fusion_lon": 0.0, "bike_id": "c565ab25bb481609287c05af0c50545b", "name": "c565ab25bb481609287c05af0c50545b", "type": "electric_scooter", "lon": -77.07244716666666, "rental_uris": {"android": "https://dc.lft.to/lastmile_qr_scan", "ios": "https://dc.lft.to/lastmile_qr_scan"}, "lat": 38.922628833333334, "is_reserved": 0, "is_disabled": 0, "fusion_lat": 0.0}, {"fusion_lon": 0.0, "bike_id": "b576562309ac292c8f1b115bbc1a7a26", "name": "b576562309ac292c8f1b115bbc1a7a26", "type": "electric_scooter", "lon": -77.00940516666667, "rental_uris": {"android": "https://dc.lft.to/lastmile_qr_scan", "ios": "https://dc.lft.to/lastmile_qr_scan"}, "lat": 38.87661083333333, "is_reserved": 0, "is_disabled": 0, "fusion_lat": 0.0}, {"fusion_lon": 0.0, "bike_id": "4d1fc498bcf28511688a99148c50d3b4", "name": "4d1fc498bcf28511688a99148c50d3b4", "type": "electric_scooter", "lon": -77.0641135, "rental_uris": {"android": "https://dc.lft.to/lastmile_qr_scan", "ios": "https://dc.lft.to/lastmile_qr_scan"}, "lat": 38.94325766666667, "is_reserved": 0, "is_disabled": 0, "fusion_lat": 0.0}, {"fusion_lon": 0.0, "bike_id": "6d61e140cdb726fcbd829e1ddaa14a56", "name": "6d61e140cdb726fcbd829e1ddaa14a56", "type": "electric_scooter", "lon": -76.95014816666666, "rental_uris": {"android": "https://dc.lft.to/lastmile_qr_scan", "ios": "https://dc.lft.to/lastmile_qr_scan"}, "lat": 38.88395033333333, "is_reserved": 0, "is_disabled": 0, "fusion_lat": 0.0}, {"fusion_lon": 0.0, "bike_id": "84ac8f48dde724311d29984d9473bbb7", "name": "84ac8f48dde724311d29984d9473bbb7", "type": "electric_scooter", "lon": -76.98845133333333, "rental_uris": {"android": "https://dc.lft.to/lastmile_qr_scan", "ios": "https://dc.lft.to/lastmile_qr_scan"}, "lat": 38.90028816666667, "is_reserved": 0, "is_disabled": 0, "fusion_lat": 0.0}, {"fusion_lon": 0.0, "bike_id": "5970b004a7c566073f5d16ff39baf4ff", "name": "5970b004a7c566073f5d16ff39baf4ff", "type": "electric_scooter", "lon": -77.02591183333334, "rental_uris": {"android": "https://dc.lft.to/lastmile_qr_scan", "ios": "https://dc.lft.to/lastmile_qr_scan"}, "lat": 38.9127825, "is_reserved": 0, "is_disabled": 0, "fusion_lat": 0.0}, {"fusion_lon": 0.0, "bike_id": "77dfc048ddd25126932942e7c8a6a4c2", "name": "77dfc048ddd25126932942e7c8a6a4c2", "type": "electric_bike", "lon": -76.9812145, "rental_uris": {"android": "https://dc.lft.to/lastmile_qr_scan", "ios": "https://dc.lft.to/lastmile_qr_scan"}, "lat": 38.896707166666666, "is_reserved": 0, "is_disabled": 0, "fusion_lat": 0.0}, {"fusion_lon": 0.0, "bike_id": "b8cd304ce6d9389df28f03c5afb732c2", "name": "b8cd304ce6d9389df28f03c5afb732c2", "type": "electric_scooter", "lon": -76.98378666666666, "rental_uris": {"android": "https://dc.lft.to/lastmile_qr_scan", "ios": "https://dc.lft.to/lastmile_qr_scan"}, "lat": 38.90650133333333, "is_reserved": 0, "is_disabled": 0, "fusion_lat": 0.0}, {"fusion_lon": 0.0, "bike_id": "697dc8f9e84073193931aef4f2e17c1d", "name": "697dc8f9e84073193931aef4f2e17c1d", "type": "electric_bike", "lon": -77.10177483333334, "rental_uris": {"android": "https://dc.lft.to/lastmile_qr_scan", "ios": "https://dc.lft.to/lastmile_qr_scan"}, "lat": 38.9181325, "is_reserved": 0, "is_disabled": 0, "fusion_lat": 0.0}, {"fusion_lon": 0.0, "bike_id": "20768f888f5efb84791146121509aa87", "name": "20768f888f5efb84791146121509aa87", "type": "electric_scooter", "lon": -77.0074955, "rental_uris": {"android": "https://dc.lft.to/lastmile_qr_scan", "ios": "https://dc.lft.to/lastmile_qr_scan"}, "lat": 38.87654166666667, "is_reserved": 0, "is_disabled": 0, "fusion_lat": 0.0}, {"fusion_lon": 0.0, "bike_id": "ca65a49eb812861edcd0968c5291752c", "name": "ca65a49eb812861edcd0968c5291752c", "type": "electric_scooter", "lon": -76.93183333333333, "rental_uris": {"android": "https://dc.lft.to/lastmile_qr_scan", "ios": "https://dc.lft.to/lastmile_qr_scan"}, "lat": 38.8987575, "is_reserved": 0, "is_disabled": 0, "fusion_lat": 0.0}, {"fusion_lon": 0.0, "bike_id": "38bf022a9eb1748b448ec4f4caf5d01a", "name": "38bf022a9eb1748b448ec4f4caf5d01a", "type": "electric_scooter", "lon": -77.0335975, "rental_uris": {"android": "https://dc.lft.to/lastmile_qr_scan", "ios": "https://dc.lft.to/lastmile_qr_scan"}, "lat": 38.911902166666664, "is_reserved": 0, "is_disabled": 0, "fusion_lat": 0.0}, {"fusion_lon": 0.0, "bike_id": "15c1b243e6545586bf8f693788452ee5", "name": "15c1b243e6545586bf8f693788452ee5", "type": "electric_scooter", "lon": -76.9807425, "rental_uris": {"android": "https://dc.lft.to/lastmile_qr_scan", "ios": "https://dc.lft.to/lastmile_qr_scan"}, "lat": 38.916751166666664, "is_reserved": 0, "is_disabled": 0, "fusion_lat": 0.0}, {"fusion_lon": 0.0, "bike_id": "efc6223cef00333d7d275ad3b6f058de", "name": "efc6223cef00333d7d275ad3b6f058de", "type": "electric_bike", "lon": -77.0249175, "rental_uris": {"android": "https://dc.lft.to/lastmile_qr_scan", "ios": "https://dc.lft.to/lastmile_qr_scan"}, "lat": 38.97408733333333, "is_reserved": 0, "is_disabled": 0, "fusion_lat": 0.0}, {"fusion_lon": 0.0, "bike_id": "65971bdec4fb2f43075c2337a07d92c5", "name": "65971bdec4fb2f43075c2337a07d92c5", "type": "electric_bike", "lon": -77.0008045, "rental_uris": {"android": "https://dc.lft.to/lastmile_qr_scan", "ios": "https://dc.lft.to/lastmile_qr_scan"}, "lat": 38.88601116666667, "is_reserved": 0, "is_disabled": 0, "fusion_lat": 0.0}, {"fusion_lon": 0.0, "bike_id": "24fd6ca3dfa3db99734a0de96b08b15b", "name": "24fd6ca3dfa3db99734a0de96b08b15b", "type": "electric_scooter", "lon": -77.02316533333334, "rental_uris": {"android": "https://dc.lft.to/lastmile_qr_scan", "ios": "https://dc.lft.to/lastmile_qr_scan"}, "lat": 38.920733, "is_reserved": 0, "is_disabled": 0, "fusion_lat": 0.0}, {"fusion_lon": 0.0, "bike_id": "bff483a6d154b44229ae1e4ee7293288", "name": "bff483a6d154b44229ae1e4ee7293288", "type": "electric_scooter", "lon": -77.021661, "rental_uris": {"android": "https://dc.lft.to/lastmile_qr_scan", "ios": "https://dc.lft.to/lastmile_qr_scan"}, "lat": 38.94297016666667, "is_reserved": 0, "is_disabled": 0, "fusion_lat": 0.0}, {"fusion_lon": 0.0, "bike_id": "35be36eb39cf9856b96c20e3b1400020", "name": "35be36eb39cf9856b96c20e3b1400020", "type": "electric_scooter", "lon": -76.99077383333334, "rental_uris": {"android": "https://dc.lft.to/lastmile_qr_scan", "ios": "https://dc.lft.to/lastmile_qr_scan"}, "lat": 38.90423716666667, "is_reserved": 0, "is_disabled": 0, "fusion_lat": 0.0}, {"fusion_lon": 0.0, "bike_id": "5dfafe9147e6cc5dbe586a2c8b44b7b0", "name": "5dfafe9147e6cc5dbe586a2c8b44b7b0", "type": "electric_scooter", "lon": -77.05437166666667, "rental_uris": {"android": "https://dc.lft.to/lastmile_qr_scan", "ios": "https://dc.lft.to/lastmile_qr_scan"}, "lat": 38.89605266666667, "is_reserved": 0, "is_disabled": 0, "fusion_lat": 0.0}, {"fusion_lon": 0.0, "bike_id": "d68b32599d6fb1e1ba022a174186deac", "name": "d68b32599d6fb1e1ba022a174186deac", "type": "electric_scooter", "lon": -77.01727533333333, "rental_uris": {"android": "https://dc.lft.to/lastmile_qr_scan", "ios": "https://dc.lft.to/lastmile_qr_scan"}, "lat": 38.874824333333336, "is_reserved": 0, "is_disabled": 0, "fusion_lat": 0.0}, {"fusion_lon": 0.0, "bike_id": "67ee0473a6d05a5c6b5c6fc923de1b07", "name": "67ee0473a6d05a5c6b5c6fc923de1b07", "type": "electric_scooter", "lon": -77.0086485, "rental_uris": {"android": "https://dc.lft.to/lastmile_qr_scan", "ios": "https://dc.lft.to/lastmile_qr_scan"}, "lat": 38.90565466666666, "is_reserved": 0, "is_disabled": 0, "fusion_lat": 0.0}, {"fusion_lon": 0.0, "bike_id": "c9395c4d4817ebf3aebe024267a5c858", "name": "c9395c4d4817ebf3aebe024267a5c858", "type": "electric_scooter", "lon": -76.9855255, "rental_uris": {"android": "https://dc.lft.to/lastmile_qr_scan", "ios": "https://dc.lft.to/lastmile_qr_scan"}, "lat": 38.90420733333333, "is_reserved": 0, "is_disabled": 0, "fusion_lat": 0.0}, {"fusion_lon": 0.0, "bike_id": "d381bc4a5409641709198013a743056c", "name": "d381bc4a5409641709198013a743056c", "type": "electric_scooter", "lon": -77.01723066666666, "rental_uris": {"android": "https://dc.lft.to/lastmile_qr_scan", "ios": "https://dc.lft.to/lastmile_qr_scan"}, "lat": 38.904017333333336, "is_reserved": 0, "is_disabled": 0, "fusion_lat": 0.0}, {"fusion_lon": 0.0, "bike_id": "33ccd5c6d6ee46bef11e2b4daffe25be", "name": "33ccd5c6d6ee46bef11e2b4daffe25be", "type": "electric_scooter", "lon": -76.9355545, "rental_uris": {"android": "https://dc.lft.to/lastmile_qr_scan", "ios": "https://dc.lft.to/lastmile_qr_scan"}, "lat": 38.901549, "is_reserved": 0, "is_disabled": 0, "fusion_lat": 0.0}, {"fusion_lon": 0.0, "bike_id": "28540ed72366d73bb3bb844af407ab19", "name": "28540ed72366d73bb3bb844af407ab19", "type": "electric_scooter", "lon": -77.0297785, "rental_uris": {"android": "https://dc.lft.to/lastmile_qr_scan", "ios": "https://dc.lft.to/lastmile_qr_scan"}, "lat": 38.9245955, "is_reserved": 0, "is_disabled": 0, "fusion_lat": 0.0}, {"fusion_lon": 0.0, "bike_id": "419132deb194fa1be9011c42a623fd4d", "name": "419132deb194fa1be9011c42a623fd4d", "type": "electric_scooter", "lon": -77.01898733333333, "rental_uris": {"android": "https://dc.lft.to/lastmile_qr_scan", "ios": "https://dc.lft.to/lastmile_qr_scan"}, "lat": 38.93915333333333, "is_reserved": 0, "is_disabled": 0, "fusion_lat": 0.0}, {"fusion_lon": 0.0, "bike_id": "caa434e3e295326b4c0f117640e48cda", "name": "caa434e3e295326b4c0f117640e48cda", "type": "electric_bike", "lon": -76.94784666666666, "rental_uris": {"android": "https://dc.lft.to/lastmile_qr_scan", "ios": "https://dc.lft.to/lastmile_qr_scan"}, "lat": 38.896463833333335, "is_reserved": 0, "is_disabled": 0, "fusion_lat": 0.0}, {"fusion_lon": 0.0, "bike_id": "f09826edc25fcf359ab296fbc5995500", "name": "f09826edc25fcf359ab296fbc5995500", "type": "electric_scooter", "lon": -77.02743566666666, "rental_uris": {"android": "https://dc.lft.to/lastmile_qr_scan", "ios": "https://dc.lft.to/lastmile_qr_scan"}, "lat": 38.9240995, "is_reserved": 0, "is_disabled": 0, "fusion_lat": 0.0}, {"fusion_lon": 0.0, "bike_id": "7b6614eeadd81d8ede42f8ea62736922", "name": "7b6614eeadd81d8ede42f8ea62736922", "type": "electric_scooter", "lon": -76.99335316666667, "rental_uris": {"android": "https://dc.lft.to/lastmile_qr_scan", "ios": "https://dc.lft.to/lastmile_qr_scan"}, "lat": 38.83877366666667, "is_reserved": 0, "is_disabled": 0, "fusion_lat": 0.0}, {"fusion_lon": 0.0, "bike_id": "472c322182c23d368e2fd00cad05eddc", "name": "472c322182c23d368e2fd00cad05eddc", "type": "electric_scooter", "lon": -77.03967816666666, "rental_uris": {"android": "https://dc.lft.to/lastmile_qr_scan", "ios": "https://dc.lft.to/lastmile_qr_scan"}, "lat": 38.91196633333333, "is_reserved": 0, "is_disabled": 0, "fusion_lat": 0.0}, {"fusion_lon": 0.0, "bike_id": "0779040522b5bdc5af12e17f48661594", "name": "0779040522b5bdc5af12e17f48661594", "type": "electric_scooter", "lon": -77.03734266666666, "rental_uris": {"android": "https://dc.lft.to/lastmile_qr_scan", "ios": "https://dc.lft.to/lastmile_qr_scan"}, "lat": 38.902420666666664, "is_reserved": 0, "is_disabled": 0, "fusion_lat": 0.0}, {"fusion_lon": 0.0, "bike_id": "0536621d6a95e37e6079c1f77c525e49", "name": "0536621d6a95e37e6079c1f77c525e49", "type": "electric_scooter", "lon": -76.98459616666666, "rental_uris": {"android": "https://dc.lft.to/lastmile_qr_scan", "ios": "https://dc.lft.to/lastmile_qr_scan"}, "lat": 38.8936835, "is_reserved": 0, "is_disabled": 0, "fusion_lat": 0.0}, {"fusion_lon": 0.0, "bike_id": "96079520c15ce4d60d61b4a76e4a38ff", "name": "96079520c15ce4d60d61b4a76e4a38ff", "type": "electric_scooter", "lon": -77.02531283333333, "rental_uris": {"android": "https://dc.lft.to/lastmile_qr_scan", "ios": "https://dc.lft.to/lastmile_qr_scan"}, "lat": 38.94842333333333, "is_reserved": 0, "is_disabled": 0, "fusion_lat": 0.0}, {"fusion_lon": 0.0, "bike_id": "c2e9ebb6ad0a5eb321d534a37a3ba098", "name": "c2e9ebb6ad0a5eb321d534a37a3ba098", "type": "electric_scooter", "lon": -77.015585, "rental_uris": {"android": "https://dc.lft.to/lastmile_qr_scan", "ios": "https://dc.lft.to/lastmile_qr_scan"}, "lat": 38.91407683333333, "is_reserved": 0, "is_disabled": 0, "fusion_lat": 0.0}, {"fusion_lon": 0.0, "bike_id": "a9573b915cb859ca0157c1d885f9e923", "name": "a9573b915cb859ca0157c1d885f9e923", "type": "electric_scooter", "lon": -77.01128083333333, "rental_uris": {"android": "https://dc.lft.to/lastmile_qr_scan", "ios": "https://dc.lft.to/lastmile_qr_scan"}, "lat": 38.870854333333334, "is_reserved": 0, "is_disabled": 0, "fusion_lat": 0.0}, {"fusion_lon": 0.0, "bike_id": "864d2d88dbcb384e2a09b80ec94cc48e", "name": "864d2d88dbcb384e2a09b80ec94cc48e", "type": "electric_scooter", "lon": -77.0326985, "rental_uris": {"android": "https://dc.lft.to/lastmile_qr_scan", "ios": "https://dc.lft.to/lastmile_qr_scan"}, "lat": 38.919308666666666, "is_reserved": 0, "is_disabled": 0, "fusion_lat": 0.0}, {"fusion_lon": 0.0, "bike_id": "d8e9b99221e68d4f041a36476b72c78f", "name": "d8e9b99221e68d4f041a36476b72c78f", "type": "electric_scooter", "lon": -77.00107433333334, "rental_uris": {"android": "https://dc.lft.to/lastmile_qr_scan", "ios": "https://dc.lft.to/lastmile_qr_scan"}, "lat": 38.916339666666666, "is_reserved": 0, "is_disabled": 0, "fusion_lat": 0.0}, {"fusion_lon": 0.0, "bike_id": "6c35966e91550763b86d77a0cfdfb051", "name": "6c35966e91550763b86d77a0cfdfb051", "type": "electric_scooter", "lon": -77.023853, "rental_uris": {"android": "https://dc.lft.to/lastmile_qr_scan", "ios": "https://dc.lft.to/lastmile_qr_scan"}, "lat": 38.907470833333335, "is_reserved": 0, "is_disabled": 0, "fusion_lat": 0.0}, {"fusion_lon": 0.0, "bike_id": "01327735e56c59564d08061d573ac83e", "name": "01327735e56c59564d08061d573ac83e", "type": "electric_scooter", "lon": -77.00209866666667, "rental_uris": {"android": "https://dc.lft.to/lastmile_qr_scan", "ios": "https://dc.lft.to/lastmile_qr_scan"}, "lat": 38.90288816666666, "is_reserved": 0, "is_disabled": 0, "fusion_lat": 0.0}, {"fusion_lon": 0.0, "bike_id": "d0f53b5a0ad5965ee6f291b144c9bfe1", "name": "d0f53b5a0ad5965ee6f291b144c9bfe1", "type": "electric_scooter", "lon": -77.05341066666666, "rental_uris": {"android": "https://dc.lft.to/lastmile_qr_scan", "ios": "https://dc.lft.to/lastmile_qr_scan"}, "lat": 38.902324, "is_reserved": 0, "is_disabled": 0, "fusion_lat": 0.0}, {"fusion_lon": 0.0, "bike_id": "57dcc6d0f4abf29757a06f6e0b1e679e", "name": "57dcc6d0f4abf29757a06f6e0b1e679e", "type": "electric_scooter", "lon": -77.04206633333334, "rental_uris": {"android": "https://dc.lft.to/lastmile_qr_scan", "ios": "https://dc.lft.to/lastmile_qr_scan"}, "lat": 38.92322766666667, "is_reserved": 0, "is_disabled": 0, "fusion_lat": 0.0}, {"fusion_lon": 0.0, "bike_id": "25e335d613205fff0777eab8691d71c6", "name": "25e335d613205fff0777eab8691d71c6", "type": "electric_scooter", "lon": -76.999595, "rental_uris": {"android": "https://dc.lft.to/lastmile_qr_scan", "ios": "https://dc.lft.to/lastmile_qr_scan"}, "lat": 38.89322666666666, "is_reserved": 0, "is_disabled": 0, "fusion_lat": 0.0}, {"fusion_lon": 0.0, "bike_id": "35b59be2f1b39ddc06ec94626e712874", "name": "35b59be2f1b39ddc06ec94626e712874", "type": "electric_scooter", "lon": -77.04171383333333, "rental_uris": {"android": "https://dc.lft.to/lastmile_qr_scan", "ios": "https://dc.lft.to/lastmile_qr_scan"}, "lat": 38.915522833333334, "is_reserved": 0, "is_disabled": 0, "fusion_lat": 0.0}, {"fusion_lon": 0.0, "bike_id": "ed917768831e8eac6c8fe3acc7640c3b", "name": "ed917768831e8eac6c8fe3acc7640c3b", "type": "electric_scooter", "lon": -77.0169485, "rental_uris": {"android": "https://dc.lft.to/lastmile_qr_scan", "ios": "https://dc.lft.to/lastmile_qr_scan"}, "lat": 38.9750275, "is_reserved": 0, "is_disabled": 0, "fusion_lat": 0.0}, {"fusion_lon": 0.0, "bike_id": "12b3874189b906ce1fb39fda5af50de8", "name": "12b3874189b906ce1fb39fda5af50de8", "type": "electric_scooter", "lon": -76.9858305, "rental_uris": {"android": "https://dc.lft.to/lastmile_qr_scan", "ios": "https://dc.lft.to/lastmile_qr_scan"}, "lat": 38.884011, "is_reserved": 0, "is_disabled": 0, "fusion_lat": 0.0}, {"fusion_lon": 0.0, "bike_id": "ed045824b3bf6b88bdcccd8fa3a94389", "name": "ed045824b3bf6b88bdcccd8fa3a94389", "type": "electric_scooter", "lon": -77.02168866666666, "rental_uris": {"android": "https://dc.lft.to/lastmile_qr_scan", "ios": "https://dc.lft.to/lastmile_qr_scan"}, "lat": 38.942974666666665, "is_reserved": 0, "is_disabled": 0, "fusion_lat": 0.0}, {"fusion_lon": 0.0, "bike_id": "2f344de1359b64f8e096f7e403295a8d", "name": "2f344de1359b64f8e096f7e403295a8d", "type": "electric_scooter", "lon": -77.032956, "rental_uris": {"android": "https://dc.lft.to/lastmile_qr_scan", "ios": "https://dc.lft.to/lastmile_qr_scan"}, "lat": 38.90018083333333, "is_reserved": 0, "is_disabled": 0, "fusion_lat": 0.0}, {"fusion_lon": 0.0, "bike_id": "96bf26deea9ba4780fd439b2f7bb58a7", "name": "96bf26deea9ba4780fd439b2f7bb58a7", "type": "electric_scooter", "lon": -77.03189383333333, "rental_uris": {"android": "https://dc.lft.to/lastmile_qr_scan", "ios": "https://dc.lft.to/lastmile_qr_scan"}, "lat": 38.91349966666667, "is_reserved": 0, "is_disabled": 0, "fusion_lat": 0.0}, {"fusion_lon": 0.0, "bike_id": "0648d6218e07f6a976a860038dcd992b", "name": "0648d6218e07f6a976a860038dcd992b", "type": "electric_scooter", "lon": -77.02221133333333, "rental_uris": {"android": "https://dc.lft.to/lastmile_qr_scan", "ios": "https://dc.lft.to/lastmile_qr_scan"}, "lat": 38.89219883333333, "is_reserved": 0, "is_disabled": 0, "fusion_lat": 0.0}, {"fusion_lon": 0.0, "bike_id": "cc06af98bbae01fc2759fed428f7f20b", "name": "cc06af98bbae01fc2759fed428f7f20b", "type": "electric_scooter", "lon": -77.0378715, "rental_uris": {"android": "https://dc.lft.to/lastmile_qr_scan", "ios": "https://dc.lft.to/lastmile_qr_scan"}, "lat": 38.926308, "is_reserved": 0, "is_disabled": 0, "fusion_lat": 0.0}, {"fusion_lon": 0.0, "bike_id": "a1fe6e3035a1d7883c72e1fd2db10fa6", "name": "a1fe6e3035a1d7883c72e1fd2db10fa6", "type": "electric_scooter", "lon": -77.03050016666667, "rental_uris": {"android": "https://dc.lft.to/lastmile_qr_scan", "ios": "https://dc.lft.to/lastmile_qr_scan"}, "lat": 38.939773, "is_reserved": 0, "is_disabled": 0, "fusion_lat": 0.0}, {"fusion_lon": 0.0, "bike_id": "17f51bf561fe994acf141cd8feb12435", "name": "17f51bf561fe994acf141cd8feb12435", "type": "electric_scooter", "lon": -77.03057383333334, "rental_uris": {"android": "https://dc.lft.to/lastmile_qr_scan", "ios": "https://dc.lft.to/lastmile_qr_scan"}, "lat": 38.939839166666665, "is_reserved": 0, "is_disabled": 0, "fusion_lat": 0.0}, {"fusion_lon": 0.0, "bike_id": "26bf3fb672d9442d05520292f55542a4", "name": "26bf3fb672d9442d05520292f55542a4", "type": "electric_scooter", "lon": -77.0344585, "rental_uris": {"android": "https://dc.lft.to/lastmile_qr_scan", "ios": "https://dc.lft.to/lastmile_qr_scan"}, "lat": 38.90736, "is_reserved": 0, "is_disabled": 0, "fusion_lat": 0.0}, {"fusion_lon": 0.0, "bike_id": "63b1881190ad1f1a39516760cbbb2c56", "name": "63b1881190ad1f1a39516760cbbb2c56", "type": "electric_scooter", "lon": -77.025432, "rental_uris": {"android": "https://dc.lft.to/lastmile_qr_scan", "ios": "https://dc.lft.to/lastmile_qr_scan"}, "lat": 38.930978333333336, "is_reserved": 0, "is_disabled": 0, "fusion_lat": 0.0}, {"fusion_lon": 0.0, "bike_id": "a3cb0d549934c7ac024da16c84693d62", "name": "a3cb0d549934c7ac024da16c84693d62", "type": "electric_scooter", "lon": -77.014039, "rental_uris": {"android": "https://dc.lft.to/lastmile_qr_scan", "ios": "https://dc.lft.to/lastmile_qr_scan"}, "lat": 38.87906233333333, "is_reserved": 0, "is_disabled": 0, "fusion_lat": 0.0}, {"fusion_lon": 0.0, "bike_id": "89015cff888ef93cf4bdf659049d2e8b", "name": "89015cff888ef93cf4bdf659049d2e8b", "type": "electric_bike", "lon": -77.36087833333333, "rental_uris": {"android": "https://dc.lft.to/lastmile_qr_scan", "ios": "https://dc.lft.to/lastmile_qr_scan"}, "lat": 38.93962766666667, "is_reserved": 0, "is_disabled": 0, "fusion_lat": 0.0}, {"fusion_lon": 0.0, "bike_id": "2a617a34a94d9a2e18b02671de9113fc", "name": "2a617a34a94d9a2e18b02671de9113fc", "type": "electric_scooter", "lon": -77.03617266666667, "rental_uris": {"android": "https://dc.lft.to/lastmile_qr_scan", "ios": "https://dc.lft.to/lastmile_qr_scan"}, "lat": 38.928627666666664, "is_reserved": 0, "is_disabled": 0, "fusion_lat": 0.0}, {"fusion_lon": 0.0, "bike_id": "fe8df049cde8171cacdabe56698b7cde", "name": "fe8df049cde8171cacdabe56698b7cde", "type": "electric_scooter", "lon": -77.02276733333333, "rental_uris": {"android": "https://dc.lft.to/lastmile_qr_scan", "ios": "https://dc.lft.to/lastmile_qr_scan"}, "lat": 38.916540833333336, "is_reserved": 0, "is_disabled": 0, "fusion_lat": 0.0}, {"fusion_lon": 0.0, "bike_id": "dd6e10f8ca9d7dc8091a707b901f9043", "name": "dd6e10f8ca9d7dc8091a707b901f9043", "type": "electric_scooter", "lon": -77.03159183333334, "rental_uris": {"android": "https://dc.lft.to/lastmile_qr_scan", "ios": "https://dc.lft.to/lastmile_qr_scan"}, "lat": 38.92725566666667, "is_reserved": 0, "is_disabled": 0, "fusion_lat": 0.0}, {"fusion_lon": 0.0, "bike_id": "c788b781fcb4d4e930a1e941f697e118", "name": "c788b781fcb4d4e930a1e941f697e118", "type": "electric_bike", "lon": -76.9799375, "rental_uris": {"android": "https://dc.lft.to/lastmile_qr_scan", "ios": "https://dc.lft.to/lastmile_qr_scan"}, "lat": 38.87753883333333, "is_reserved": 0, "is_disabled": 0, "fusion_lat": 0.0}, {"fusion_lon": 0.0, "bike_id": "b405f8f7c093a68071d639f2a04d157c", "name": "b405f8f7c093a68071d639f2a04d157c", "type": "electric_scooter", "lon": -76.99163316666667, "rental_uris": {"android": "https://dc.lft.to/lastmile_qr_scan", "ios": "https://dc.lft.to/lastmile_qr_scan"}, "lat": 38.89774416666667, "is_reserved": 0, "is_disabled": 0, "fusion_lat": 0.0}, {"fusion_lon": 0.0, "bike_id": "7e32f62fffccdd80aca119b93576babc", "name": "7e32f62fffccdd80aca119b93576babc", "type": "electric_scooter", "lon": -76.99448066666666, "rental_uris": {"android": "https://dc.lft.to/lastmile_qr_scan", "ios": "https://dc.lft.to/lastmile_qr_scan"}, "lat": 38.92278566666667, "is_reserved": 0, "is_disabled": 0, "fusion_lat": 0.0}, {"fusion_lon": 0.0, "bike_id": "1b82d92ece47731e3a8eec22cd09c462", "name": "1b82d92ece47731e3a8eec22cd09c462", "type": "electric_scooter", "lon": -77.03665466666666, "rental_uris": {"android": "https://dc.lft.to/lastmile_qr_scan", "ios": "https://dc.lft.to/lastmile_qr_scan"}, "lat": 38.927027333333335, "is_reserved": 0, "is_disabled": 0, "fusion_lat": 0.0}, {"fusion_lon": 0.0, "bike_id": "f4c3c45885ec3f7d3d1f9caf0cbe27e1", "name": "f4c3c45885ec3f7d3d1f9caf0cbe27e1", "type": "electric_scooter", "lon": -77.04675916666666, "rental_uris": {"android": "https://dc.lft.to/lastmile_qr_scan", "ios": "https://dc.lft.to/lastmile_qr_scan"}, "lat": 38.9072075, "is_reserved": 0, "is_disabled": 0, "fusion_lat": 0.0}, {"fusion_lon": 0.0, "bike_id": "0cbc85faf1d9292abd2651bc1ec45f31", "name": "0cbc85faf1d9292abd2651bc1ec45f31", "type": "electric_scooter", "lon": -77.03790666666667, "rental_uris": {"android": "https://dc.lft.to/lastmile_qr_scan", "ios": "https://dc.lft.to/lastmile_qr_scan"}, "lat": 38.93325133333333, "is_reserved": 0, "is_disabled": 0, "fusion_lat": 0.0}, {"fusion_lon": 0.0, "bike_id": "ba2fb69f6783a389a64f2e669544f09d", "name": "ba2fb69f6783a389a64f2e669544f09d", "type": "electric_scooter", "lon": -76.98772783333334, "rental_uris": {"android": "https://dc.lft.to/lastmile_qr_scan", "ios": "https://dc.lft.to/lastmile_qr_scan"}, "lat": 38.88315466666667, "is_reserved": 0, "is_disabled": 0, "fusion_lat": 0.0}, {"fusion_lon": 0.0, "bike_id": "bbf4c402bab185d339db633c30163925", "name": "bbf4c402bab185d339db633c30163925", "type": "electric_bike", "lon": -76.94617583333333, "rental_uris": {"android": "https://dc.lft.to/lastmile_qr_scan", "ios": "https://dc.lft.to/lastmile_qr_scan"}, "lat": 38.83236933333333, "is_reserved": 0, "is_disabled": 0, "fusion_lat": 0.0}, {"fusion_lon": 0.0, "bike_id": "13c01d7bb2b6dbb2bd1dd4fdb0f57155", "name": "13c01d7bb2b6dbb2bd1dd4fdb0f57155", "type": "electric_scooter", "lon": -77.07107266666667, "rental_uris": {"android": "https://dc.lft.to/lastmile_qr_scan", "ios": "https://dc.lft.to/lastmile_qr_scan"}, "lat": 38.919744666666666, "is_reserved": 0, "is_disabled": 0, "fusion_lat": 0.0}, {"fusion_lon": 0.0, "bike_id": "11361de910c6ae362f7be177d47632a0", "name": "11361de910c6ae362f7be177d47632a0", "type": "electric_scooter", "lon": -76.942491, "rental_uris": {"android": "https://dc.lft.to/lastmile_qr_scan", "ios": "https://dc.lft.to/lastmile_qr_scan"}, "lat": 38.89682916666667, "is_reserved": 0, "is_disabled": 0, "fusion_lat": 0.0}, {"fusion_lon": 0.0, "bike_id": "ec831294df13d921e24254862a8d2fe2", "name": "ec831294df13d921e24254862a8d2fe2", "type": "electric_scooter", "lon": -77.00214616666666, "rental_uris": {"android": "https://dc.lft.to/lastmile_qr_scan", "ios": "https://dc.lft.to/lastmile_qr_scan"}, "lat": 38.89091833333333, "is_reserved": 0, "is_disabled": 0, "fusion_lat": 0.0}, {"fusion_lon": 0.0, "bike_id": "d332b65492d7f6aa8c9196e3e93e8c12", "name": "d332b65492d7f6aa8c9196e3e93e8c12", "type": "electric_scooter", "lon": -77.0399445, "rental_uris": {"android": "https://dc.lft.to/lastmile_qr_scan", "ios": "https://dc.lft.to/lastmile_qr_scan"}, "lat": 38.91339133333334, "is_reserved": 0, "is_disabled": 0, "fusion_lat": 0.0}, {"fusion_lon": 0.0, "bike_id": "ebcfda0ff16fa2596e6085cd9f313570", "name": "ebcfda0ff16fa2596e6085cd9f313570", "type": "electric_scooter", "lon": -77.026013, "rental_uris": {"android": "https://dc.lft.to/lastmile_qr_scan", "ios": "https://dc.lft.to/lastmile_qr_scan"}, "lat": 38.89505233333333, "is_reserved": 0, "is_disabled": 0, "fusion_lat": 0.0}, {"fusion_lon": 0.0, "bike_id": "8d2bd83851f49e7c5bf193519cd9b0bf", "name": "8d2bd83851f49e7c5bf193519cd9b0bf", "type": "electric_scooter", "lon": -77.041928, "rental_uris": {"android": "https://dc.lft.to/lastmile_qr_scan", "ios": "https://dc.lft.to/lastmile_qr_scan"}, "lat": 38.92335216666667, "is_reserved": 0, "is_disabled": 0, "fusion_lat": 0.0}, {"fusion_lon": 0.0, "bike_id": "15c629f6bdf4d9c3332fc74a18193c35", "name": "15c629f6bdf4d9c3332fc74a18193c35", "type": "electric_bike", "lon": -77.02299483333333, "rental_uris": {"android": "https://dc.lft.to/lastmile_qr_scan", "ios": "https://dc.lft.to/lastmile_qr_scan"}, "lat": 38.96562516666667, "is_reserved": 0, "is_disabled": 0, "fusion_lat": 0.0}, {"fusion_lon": 0.0, "bike_id": "77026c7e9ba699890cce8e8fca4cd27f", "name": "77026c7e9ba699890cce8e8fca4cd27f", "type": "electric_scooter", "lon": -77.04875566666666, "rental_uris": {"android": "https://dc.lft.to/lastmile_qr_scan", "ios": "https://dc.lft.to/lastmile_qr_scan"}, "lat": 38.903626833333334, "is_reserved": 0, "is_disabled": 0, "fusion_lat": 0.0}, {"fusion_lon": 0.0, "bike_id": "c9532efdea9fe21a7dd5e7246d2b415b", "name": "c9532efdea9fe21a7dd5e7246d2b415b", "type": "electric_scooter", "lon": -77.07123183333333, "rental_uris": {"android": "https://dc.lft.to/lastmile_qr_scan", "ios": "https://dc.lft.to/lastmile_qr_scan"}, "lat": 38.919726833333335, "is_reserved": 0, "is_disabled": 0, "fusion_lat": 0.0}, {"fusion_lon": 0.0, "bike_id": "16390e9cef19eb9c642b7cadd9287623", "name": "16390e9cef19eb9c642b7cadd9287623", "type": "electric_scooter", "lon": -77.03822333333333, "rental_uris": {"android": "https://dc.lft.to/lastmile_qr_scan", "ios": "https://dc.lft.to/lastmile_qr_scan"}, "lat": 38.93137316666667, "is_reserved": 0, "is_disabled": 0, "fusion_lat": 0.0}, {"fusion_lon": 0.0, "bike_id": "d46de772daeb84cafd0013fb15a5dff3", "name": "d46de772daeb84cafd0013fb15a5dff3", "type": "electric_bike", "lon": -77.12264233333333, "rental_uris": {"android": "https://dc.lft.to/lastmile_qr_scan", "ios": "https://dc.lft.to/lastmile_qr_scan"}, "lat": 38.89737233333334, "is_reserved": 0, "is_disabled": 0, "fusion_lat": 0.0}, {"fusion_lon": 0.0, "bike_id": "2a5f27beab27ba16c5ff59fcf34e7e85", "name": "2a5f27beab27ba16c5ff59fcf34e7e85", "type": "electric_scooter", "lon": -77.02402133333334, "rental_uris": {"android": "https://dc.lft.to/lastmile_qr_scan", "ios": "https://dc.lft.to/lastmile_qr_scan"}, "lat": 38.915106, "is_reserved": 0, "is_disabled": 0, "fusion_lat": 0.0}, {"fusion_lon": 0.0, "bike_id": "e8824e26e1b723dcfefedea647c7256f", "name": "e8824e26e1b723dcfefedea647c7256f", "type": "electric_bike", "lon": -76.9165825, "rental_uris": {"android": "https://dc.lft.to/lastmile_qr_scan", "ios": "https://dc.lft.to/lastmile_qr_scan"}, "lat": 38.86859833333333, "is_reserved": 0, "is_disabled": 0, "fusion_lat": 0.0}, {"fusion_lon": 0.0, "bike_id": "13c2b0f809599d9e8268187d2c1176ea", "name": "13c2b0f809599d9e8268187d2c1176ea", "type": "electric_scooter", "lon": -77.0373, "rental_uris": {"android": "https://dc.lft.to/lastmile_qr_scan", "ios": "https://dc.lft.to/lastmile_qr_scan"}, "lat": 38.92657233333333, "is_reserved": 0, "is_disabled": 0, "fusion_lat": 0.0}, {"fusion_lon": 0.0, "bike_id": "c87376edc4356efa4f1c8e847949b69a", "name": "c87376edc4356efa4f1c8e847949b69a", "type": "electric_scooter", "lon": -77.05748716666666, "rental_uris": {"android": "https://dc.lft.to/lastmile_qr_scan", "ios": "https://dc.lft.to/lastmile_qr_scan"}, "lat": 38.924126333333334, "is_reserved": 0, "is_disabled": 0, "fusion_lat": 0.0}, {"fusion_lon": 0.0, "bike_id": "288412d682aef3cc9b295c64f1b20cea", "name": "288412d682aef3cc9b295c64f1b20cea", "type": "electric_scooter", "lon": -76.97728783333334, "rental_uris": {"android": "https://dc.lft.to/lastmile_qr_scan", "ios": "https://dc.lft.to/lastmile_qr_scan"}, "lat": 38.872456666666665, "is_reserved": 0, "is_disabled": 0, "fusion_lat": 0.0}, {"fusion_lon": 0.0, "bike_id": "13f57d01b4fc9846105bd39aca521037", "name": "13f57d01b4fc9846105bd39aca521037", "type": "electric_scooter", "lon": -77.02395416666667, "rental_uris": {"android": "https://dc.lft.to/lastmile_qr_scan", "ios": "https://dc.lft.to/lastmile_qr_scan"}, "lat": 38.919624666666664, "is_reserved": 0, "is_disabled": 0, "fusion_lat": 0.0}, {"fusion_lon": 0.0, "bike_id": "01ee8a2ad51e2be2a471ebcf27c47f18", "name": "01ee8a2ad51e2be2a471ebcf27c47f18", "type": "electric_scooter", "lon": -77.00441466666666, "rental_uris": {"android": "https://dc.lft.to/lastmile_qr_scan", "ios": "https://dc.lft.to/lastmile_qr_scan"}, "lat": 38.87656966666667, "is_reserved": 0, "is_disabled": 0, "fusion_lat": 0.0}, {"fusion_lon": 0.0, "bike_id": "8be8e2d0eb5aca75864071fd20d45755", "name": "8be8e2d0eb5aca75864071fd20d45755", "type": "electric_scooter", "lon": -77.072326, "rental_uris": {"android": "https://dc.lft.to/lastmile_qr_scan", "ios": "https://dc.lft.to/lastmile_qr_scan"}, "lat": 38.934601666666666, "is_reserved": 0, "is_disabled": 0, "fusion_lat": 0.0}, {"fusion_lon": 0.0, "bike_id": "c6a1f4ae2dd3261ab934e948db1d4930", "name": "c6a1f4ae2dd3261ab934e948db1d4930", "type": "electric_bike", "lon": -76.95463516666666, "rental_uris": {"android": "https://dc.lft.to/lastmile_qr_scan", "ios": "https://dc.lft.to/lastmile_qr_scan"}, "lat": 38.935665666666665, "is_reserved": 0, "is_disabled": 0, "fusion_lat": 0.0}, {"fusion_lon": 0.0, "bike_id": "49b1057a2cfb84ec38bbecb6264acf94", "name": "49b1057a2cfb84ec38bbecb6264acf94", "type": "electric_scooter", "lon": -77.0233765, "rental_uris": {"android": "https://dc.lft.to/lastmile_qr_scan", "ios": "https://dc.lft.to/lastmile_qr_scan"}, "lat": 38.915577, "is_reserved": 0, "is_disabled": 0, "fusion_lat": 0.0}, {"fusion_lon": 0.0, "bike_id": "9647b2bc41f538dd01e778bc32733ce5", "name": "9647b2bc41f538dd01e778bc32733ce5", "type": "electric_scooter", "lon": -77.00195883333333, "rental_uris": {"android": "https://dc.lft.to/lastmile_qr_scan", "ios": "https://dc.lft.to/lastmile_qr_scan"}, "lat": 38.902315, "is_reserved": 0, "is_disabled": 0, "fusion_lat": 0.0}, {"fusion_lon": 0.0, "bike_id": "64b54993d728b8513addc2f8881434c1", "name": "64b54993d728b8513addc2f8881434c1", "type": "electric_scooter", "lon": -76.97618016666667, "rental_uris": {"android": "https://dc.lft.to/lastmile_qr_scan", "ios": "https://dc.lft.to/lastmile_qr_scan"}, "lat": 38.931411, "is_reserved": 0, "is_disabled": 0, "fusion_lat": 0.0}, {"fusion_lon": 0.0, "bike_id": "434becf707a739d7923776b166402c0b", "name": "434becf707a739d7923776b166402c0b", "type": "electric_scooter", "lon": -76.99060866666667, "rental_uris": {"android": "https://dc.lft.to/lastmile_qr_scan", "ios": "https://dc.lft.to/lastmile_qr_scan"}, "lat": 38.85895283333333, "is_reserved": 0, "is_disabled": 0, "fusion_lat": 0.0}, {"fusion_lon": 0.0, "bike_id": "4526c1dbb7d4d379442c8ded1de4ed8f", "name": "4526c1dbb7d4d379442c8ded1de4ed8f", "type": "electric_scooter", "lon": -77.01997616666667, "rental_uris": {"android": "https://dc.lft.to/lastmile_qr_scan", "ios": "https://dc.lft.to/lastmile_qr_scan"}, "lat": 38.883665, "is_reserved": 0, "is_disabled": 0, "fusion_lat": 0.0}, {"fusion_lon": 0.0, "bike_id": "0c014ddadf064c30ecb5762bcce1a1c0", "name": "0c014ddadf064c30ecb5762bcce1a1c0", "type": "electric_scooter", "lon": -77.0238915, "rental_uris": {"android": "https://dc.lft.to/lastmile_qr_scan", "ios": "https://dc.lft.to/lastmile_qr_scan"}, "lat": 38.957379833333334, "is_reserved": 0, "is_disabled": 0, "fusion_lat": 0.0}, {"fusion_lon": 0.0, "bike_id": "cc6ea7f4930bc3df02c042b1d451f706", "name": "cc6ea7f4930bc3df02c042b1d451f706", "type": "electric_scooter", "lon": -76.994645, "rental_uris": {"android": "https://dc.lft.to/lastmile_qr_scan", "ios": "https://dc.lft.to/lastmile_qr_scan"}, "lat": 38.8403315, "is_reserved": 0, "is_disabled": 0, "fusion_lat": 0.0}, {"fusion_lon": 0.0, "bike_id": "3c3bd51da710fef7f6de07828c44b140", "name": "3c3bd51da710fef7f6de07828c44b140", "type": "electric_scooter", "lon": -77.01636733333333, "rental_uris": {"android": "https://dc.lft.to/lastmile_qr_scan", "ios": "https://dc.lft.to/lastmile_qr_scan"}, "lat": 38.90369866666666, "is_reserved": 0, "is_disabled": 0, "fusion_lat": 0.0}, {"fusion_lon": 0.0, "bike_id": "c57cb1764503506138c9994ceefdcb21", "name": "c57cb1764503506138c9994ceefdcb21", "type": "electric_scooter", "lon": -77.041585, "rental_uris": {"android": "https://dc.lft.to/lastmile_qr_scan", "ios": "https://dc.lft.to/lastmile_qr_scan"}, "lat": 38.916038666666665, "is_reserved": 0, "is_disabled": 0, "fusion_lat": 0.0}, {"fusion_lon": 0.0, "bike_id": "dc6c4b30022133f1cc9d35a3d3329513", "name": "dc6c4b30022133f1cc9d35a3d3329513", "type": "electric_scooter", "lon": -77.04187766666666, "rental_uris": {"android": "https://dc.lft.to/lastmile_qr_scan", "ios": "https://dc.lft.to/lastmile_qr_scan"}, "lat": 38.924660333333335, "is_reserved": 0, "is_disabled": 0, "fusion_lat": 0.0}, {"fusion_lon": 0.0, "bike_id": "995a9a9efd27c9445661fa261b656d32", "name": "995a9a9efd27c9445661fa261b656d32", "type": "electric_scooter", "lon": -77.02443966666667, "rental_uris": {"android": "https://dc.lft.to/lastmile_qr_scan", "ios": "https://dc.lft.to/lastmile_qr_scan"}, "lat": 38.928017833333335, "is_reserved": 0, "is_disabled": 0, "fusion_lat": 0.0}, {"fusion_lon": 0.0, "bike_id": "9c5513f6fa5fb5b3b3f5b6936c70dad2", "name": "9c5513f6fa5fb5b3b3f5b6936c70dad2", "type": "electric_scooter", "lon": -77.047849, "rental_uris": {"android": "https://dc.lft.to/lastmile_qr_scan", "ios": "https://dc.lft.to/lastmile_qr_scan"}, "lat": 38.907919166666666, "is_reserved": 0, "is_disabled": 0, "fusion_lat": 0.0}, {"fusion_lon": 0.0, "bike_id": "24396e0c6fc69fb955152441129c4e9d", "name": "24396e0c6fc69fb955152441129c4e9d", "type": "electric_bike", "lon": -76.98826716666667, "rental_uris": {"android": "https://dc.lft.to/lastmile_qr_scan", "ios": "https://dc.lft.to/lastmile_qr_scan"}, "lat": 38.985663, "is_reserved": 0, "is_disabled": 0, "fusion_lat": 0.0}, {"fusion_lon": 0.0, "bike_id": "8782529574ca099c613d2bf83611939a", "name": "8782529574ca099c613d2bf83611939a", "type": "electric_scooter", "lon": -77.0401265, "rental_uris": {"android": "https://dc.lft.to/lastmile_qr_scan", "ios": "https://dc.lft.to/lastmile_qr_scan"}, "lat": 38.91798166666667, "is_reserved": 0, "is_disabled": 0, "fusion_lat": 0.0}, {"fusion_lon": 0.0, "bike_id": "4b69336765dd01753711cfbf48328cfc", "name": "4b69336765dd01753711cfbf48328cfc", "type": "electric_scooter", "lon": -77.03260233333333, "rental_uris": {"android": "https://dc.lft.to/lastmile_qr_scan", "ios": "https://dc.lft.to/lastmile_qr_scan"}, "lat": 38.9321445, "is_reserved": 0, "is_disabled": 0, "fusion_lat": 0.0}, {"fusion_lon": 0.0, "bike_id": "465e6e119c1345cfcb83a396649e06b7", "name": "465e6e119c1345cfcb83a396649e06b7", "type": "electric_scooter", "lon": -77.02662716666667, "rental_uris": {"android": "https://dc.lft.to/lastmile_qr_scan", "ios": "https://dc.lft.to/lastmile_qr_scan"}, "lat": 38.97942883333333, "is_reserved": 0, "is_disabled": 0, "fusion_lat": 0.0}, {"fusion_lon": 0.0, "bike_id": "8affe45b027f2d7a578250c524db6eba", "name": "8affe45b027f2d7a578250c524db6eba", "type": "electric_scooter", "lon": -77.02718383333334, "rental_uris": {"android": "https://dc.lft.to/lastmile_qr_scan", "ios": "https://dc.lft.to/lastmile_qr_scan"}, "lat": 38.934318, "is_reserved": 0, "is_disabled": 0, "fusion_lat": 0.0}, {"fusion_lon": 0.0, "bike_id": "7d651037e81c0ce6428738943e6b9c68", "name": "7d651037e81c0ce6428738943e6b9c68", "type": "electric_scooter", "lon": -77.04684766666666, "rental_uris": {"android": "https://dc.lft.to/lastmile_qr_scan", "ios": "https://dc.lft.to/lastmile_qr_scan"}, "lat": 38.897354666666665, "is_reserved": 0, "is_disabled": 0, "fusion_lat": 0.0}, {"fusion_lon": 0.0, "bike_id": "a10a5206c08b8ccb87571ce1922f6077", "name": "a10a5206c08b8ccb87571ce1922f6077", "type": "electric_scooter", "lon": -77.02351333333333, "rental_uris": {"android": "https://dc.lft.to/lastmile_qr_scan", "ios": "https://dc.lft.to/lastmile_qr_scan"}, "lat": 38.9250615, "is_reserved": 0, "is_disabled": 0, "fusion_lat": 0.0}, {"fusion_lon": 0.0, "bike_id": "f61194940e5cadb591c1df2b33f45ffe", "name": "f61194940e5cadb591c1df2b33f45ffe", "type": "electric_scooter", "lon": -77.00202516666667, "rental_uris": {"android": "https://dc.lft.to/lastmile_qr_scan", "ios": "https://dc.lft.to/lastmile_qr_scan"}, "lat": 38.9000825, "is_reserved": 0, "is_disabled": 0, "fusion_lat": 0.0}, {"fusion_lon": 0.0, "bike_id": "7dfbe62333b837df2e895fb2a8257dc5", "name": "7dfbe62333b837df2e895fb2a8257dc5", "type": "electric_scooter", "lon": -77.02607366666666, "rental_uris": {"android": "https://dc.lft.to/lastmile_qr_scan", "ios": "https://dc.lft.to/lastmile_qr_scan"}, "lat": 38.914265, "is_reserved": 0, "is_disabled": 0, "fusion_lat": 0.0}, {"fusion_lon": 0.0, "bike_id": "c3090d988232f8d3178342b1375bcba3", "name": "c3090d988232f8d3178342b1375bcba3", "type": "electric_scooter", "lon": -77.04140016666666, "rental_uris": {"android": "https://dc.lft.to/lastmile_qr_scan", "ios": "https://dc.lft.to/lastmile_qr_scan"}, "lat": 38.9168265, "is_reserved": 0, "is_disabled": 0, "fusion_lat": 0.0}, {"fusion_lon": 0.0, "bike_id": "88593d17d0fb62ee0643984e8e0fd910", "name": "88593d17d0fb62ee0643984e8e0fd910", "type": "electric_scooter", "lon": -77.05065083333334, "rental_uris": {"android": "https://dc.lft.to/lastmile_qr_scan", "ios": "https://dc.lft.to/lastmile_qr_scan"}, "lat": 38.9007315, "is_reserved": 0, "is_disabled": 0, "fusion_lat": 0.0}, {"fusion_lon": 0.0, "bike_id": "586f71589d6e3590404b572bfda04c75", "name": "586f71589d6e3590404b572bfda04c75", "type": "electric_scooter", "lon": -77.024891, "rental_uris": {"android": "https://dc.lft.to/lastmile_qr_scan", "ios": "https://dc.lft.to/lastmile_qr_scan"}, "lat": 38.917534833333335, "is_reserved": 0, "is_disabled": 0, "fusion_lat": 0.0}, {"fusion_lon": 0.0, "bike_id": "14e9ba3334e47ed3bce46408c19552e4", "name": "14e9ba3334e47ed3bce46408c19552e4", "type": "electric_scooter", "lon": -77.0344045, "rental_uris": {"android": "https://dc.lft.to/lastmile_qr_scan", "ios": "https://dc.lft.to/lastmile_qr_scan"}, "lat": 38.910365666666664, "is_reserved": 0, "is_disabled": 0, "fusion_lat": 0.0}, {"fusion_lon": 0.0, "bike_id": "5e3e4717714c8811646cc7f21921e15e", "name": "5e3e4717714c8811646cc7f21921e15e", "type": "electric_scooter", "lon": -77.03170583333333, "rental_uris": {"android": "https://dc.lft.to/lastmile_qr_scan", "ios": "https://dc.lft.to/lastmile_qr_scan"}, "lat": 38.92096133333333, "is_reserved": 0, "is_disabled": 0, "fusion_lat": 0.0}, {"fusion_lon": 0.0, "bike_id": "057bed48c9a5254c277ef903ce6c1127", "name": "057bed48c9a5254c277ef903ce6c1127", "type": "electric_scooter", "lon": -77.04310716666667, "rental_uris": {"android": "https://dc.lft.to/lastmile_qr_scan", "ios": "https://dc.lft.to/lastmile_qr_scan"}, "lat": 38.91883716666667, "is_reserved": 0, "is_disabled": 0, "fusion_lat": 0.0}, {"fusion_lon": 0.0, "bike_id": "f72f8154a8555ed66d9dccd72b666b99", "name": "f72f8154a8555ed66d9dccd72b666b99", "type": "electric_scooter", "lon": -77.024895, "rental_uris": {"android": "https://dc.lft.to/lastmile_qr_scan", "ios": "https://dc.lft.to/lastmile_qr_scan"}, "lat": 38.941859, "is_reserved": 0, "is_disabled": 0, "fusion_lat": 0.0}, {"fusion_lon": 0.0, "bike_id": "ca75cb9fb94e319b1ed410dd7a23753d", "name": "ca75cb9fb94e319b1ed410dd7a23753d", "type": "electric_bike", "lon": -76.92916216666667, "rental_uris": {"android": "https://dc.lft.to/lastmile_qr_scan", "ios": "https://dc.lft.to/lastmile_qr_scan"}, "lat": 38.98027316666666, "is_reserved": 0, "is_disabled": 0, "fusion_lat": 0.0}, {"fusion_lon": 0.0, "bike_id": "cf77196411eb59c70a90a9f4403d2338", "name": "cf77196411eb59c70a90a9f4403d2338", "type": "electric_scooter", "lon": -76.94636066666666, "rental_uris": {"android": "https://dc.lft.to/lastmile_qr_scan", "ios": "https://dc.lft.to/lastmile_qr_scan"}, "lat": 38.898473, "is_reserved": 0, "is_disabled": 0, "fusion_lat": 0.0}, {"fusion_lon": 0.0, "bike_id": "0f2a1cc5fde2ff7c8ad25300d75115b0", "name": "0f2a1cc5fde2ff7c8ad25300d75115b0", "type": "electric_scooter", "lon": -77.0579135, "rental_uris": {"android": "https://dc.lft.to/lastmile_qr_scan", "ios": "https://dc.lft.to/lastmile_qr_scan"}, "lat": 38.93479466666667, "is_reserved": 0, "is_disabled": 0, "fusion_lat": 0.0}, {"fusion_lon": 0.0, "bike_id": "f508e3742ec8d1c5fa6019c453eccfd7", "name": "f508e3742ec8d1c5fa6019c453eccfd7", "type": "electric_scooter", "lon": -76.99806116666667, "rental_uris": {"android": "https://dc.lft.to/lastmile_qr_scan", "ios": "https://dc.lft.to/lastmile_qr_scan"}, "lat": 38.87666466666667, "is_reserved": 0, "is_disabled": 0, "fusion_lat": 0.0}, {"fusion_lon": 0.0, "bike_id": "3548196134397d688a600684f373b24d", "name": "3548196134397d688a600684f373b24d", "type": "electric_scooter", "lon": -77.00296616666667, "rental_uris": {"android": "https://dc.lft.to/lastmile_qr_scan", "ios": "https://dc.lft.to/lastmile_qr_scan"}, "lat": 38.90899133333333, "is_reserved": 0, "is_disabled": 0, "fusion_lat": 0.0}, {"fusion_lon": 0.0, "bike_id": "3587e17a56455068e9579ba42a9d9dcf", "name": "3587e17a56455068e9579ba42a9d9dcf", "type": "electric_scooter", "lon": -76.99413883333334, "rental_uris": {"android": "https://dc.lft.to/lastmile_qr_scan", "ios": "https://dc.lft.to/lastmile_qr_scan"}, "lat": 38.93307566666667, "is_reserved": 0, "is_disabled": 0, "fusion_lat": 0.0}, {"fusion_lon": 0.0, "bike_id": "5cfbb0f18d126138511103da17c3ef84", "name": "5cfbb0f18d126138511103da17c3ef84", "type": "electric_scooter", "lon": -76.9944735, "rental_uris": {"android": "https://dc.lft.to/lastmile_qr_scan", "ios": "https://dc.lft.to/lastmile_qr_scan"}, "lat": 38.90503433333333, "is_reserved": 0, "is_disabled": 0, "fusion_lat": 0.0}, {"fusion_lon": 0.0, "bike_id": "8d5097d992e791c0616dc1ef0cda9e0b", "name": "8d5097d992e791c0616dc1ef0cda9e0b", "type": "electric_scooter", "lon": -77.04492016666667, "rental_uris": {"android": "https://dc.lft.to/lastmile_qr_scan", "ios": "https://dc.lft.to/lastmile_qr_scan"}, "lat": 38.906682833333335, "is_reserved": 0, "is_disabled": 0, "fusion_lat": 0.0}, {"fusion_lon": 0.0, "bike_id": "1756ec1f2f317a78a256ecbd78340819", "name": "1756ec1f2f317a78a256ecbd78340819", "type": "electric_scooter", "lon": -77.04164816666666, "rental_uris": {"android": "https://dc.lft.to/lastmile_qr_scan", "ios": "https://dc.lft.to/lastmile_qr_scan"}, "lat": 38.913335833333335, "is_reserved": 0, "is_disabled": 0, "fusion_lat": 0.0}, {"fusion_lon": 0.0, "bike_id": "8dfe93b7e9a0f56d9cd0ad265526c13f", "name": "8dfe93b7e9a0f56d9cd0ad265526c13f", "type": "electric_scooter", "lon": -76.9551775, "rental_uris": {"android": "https://dc.lft.to/lastmile_qr_scan", "ios": "https://dc.lft.to/lastmile_qr_scan"}, "lat": 38.890551333333335, "is_reserved": 0, "is_disabled": 0, "fusion_lat": 0.0}, {"fusion_lon": 0.0, "bike_id": "37ce75f9ea400d6fbc8f522f15988e22", "name": "37ce75f9ea400d6fbc8f522f15988e22", "type": "electric_scooter", "lon": -76.94472233333333, "rental_uris": {"android": "https://dc.lft.to/lastmile_qr_scan", "ios": "https://dc.lft.to/lastmile_qr_scan"}, "lat": 38.90283, "is_reserved": 0, "is_disabled": 0, "fusion_lat": 0.0}, {"fusion_lon": 0.0, "bike_id": "9a1ee1540493bb5dbfed725a80dbe9bb", "name": "9a1ee1540493bb5dbfed725a80dbe9bb", "type": "electric_scooter", "lon": -77.05517166666667, "rental_uris": {"android": "https://dc.lft.to/lastmile_qr_scan", "ios": "https://dc.lft.to/lastmile_qr_scan"}, "lat": 38.91064316666667, "is_reserved": 0, "is_disabled": 0, "fusion_lat": 0.0}, {"fusion_lon": 0.0, "bike_id": "6adf5a7aca08418c045028ec62ca5017", "name": "6adf5a7aca08418c045028ec62ca5017", "type": "electric_scooter", "lon": -77.03852966666666, "rental_uris": {"android": "https://dc.lft.to/lastmile_qr_scan", "ios": "https://dc.lft.to/lastmile_qr_scan"}, "lat": 38.9183855, "is_reserved": 0, "is_disabled": 0, "fusion_lat": 0.0}, {"fusion_lon": 0.0, "bike_id": "87d671ef8a044539631bf7e6dad543f0", "name": "87d671ef8a044539631bf7e6dad543f0", "type": "electric_scooter", "lon": -76.98250833333333, "rental_uris": {"android": "https://dc.lft.to/lastmile_qr_scan", "ios": "https://dc.lft.to/lastmile_qr_scan"}, "lat": 38.86355783333333, "is_reserved": 0, "is_disabled": 0, "fusion_lat": 0.0}, {"fusion_lon": 0.0, "bike_id": "430bf7bbe9fbc74459276117683be460", "name": "430bf7bbe9fbc74459276117683be460", "type": "electric_scooter", "lon": -77.02177583333334, "rental_uris": {"android": "https://dc.lft.to/lastmile_qr_scan", "ios": "https://dc.lft.to/lastmile_qr_scan"}, "lat": 38.91978966666667, "is_reserved": 0, "is_disabled": 0, "fusion_lat": 0.0}, {"fusion_lon": 0.0, "bike_id": "4d92a286ccd9d529ebf602fb0ae8525a", "name": "4d92a286ccd9d529ebf602fb0ae8525a", "type": "electric_scooter", "lon": -77.03215266666666, "rental_uris": {"android": "https://dc.lft.to/lastmile_qr_scan", "ios": "https://dc.lft.to/lastmile_qr_scan"}, "lat": 38.925811833333334, "is_reserved": 0, "is_disabled": 0, "fusion_lat": 0.0}, {"fusion_lon": 0.0, "bike_id": "6597d2e466c3d173b3f220aac6a41dd5", "name": "6597d2e466c3d173b3f220aac6a41dd5", "type": "electric_scooter", "lon": -76.982675, "rental_uris": {"android": "https://dc.lft.to/lastmile_qr_scan", "ios": "https://dc.lft.to/lastmile_qr_scan"}, "lat": 38.885329166666665, "is_reserved": 0, "is_disabled": 0, "fusion_lat": 0.0}, {"fusion_lon": 0.0, "bike_id": "e5bfc811b0b7e426bdc1e4fb13e9332a", "name": "e5bfc811b0b7e426bdc1e4fb13e9332a", "type": "electric_scooter", "lon": -77.04751616666667, "rental_uris": {"android": "https://dc.lft.to/lastmile_qr_scan", "ios": "https://dc.lft.to/lastmile_qr_scan"}, "lat": 38.902505, "is_reserved": 0, "is_disabled": 0, "fusion_lat": 0.0}, {"fusion_lon": 0.0, "bike_id": "2525feaee39f96559f48d83910274f81", "name": "2525feaee39f96559f48d83910274f81", "type": "electric_scooter", "lon": -77.00145916666666, "rental_uris": {"android": "https://dc.lft.to/lastmile_qr_scan", "ios": "https://dc.lft.to/lastmile_qr_scan"}, "lat": 38.907253833333336, "is_reserved": 0, "is_disabled": 0, "fusion_lat": 0.0}, {"fusion_lon": 0.0, "bike_id": "3a7960f751d6565295a1b2d0f3c21472", "name": "3a7960f751d6565295a1b2d0f3c21472", "type": "electric_bike", "lon": -76.9976345, "rental_uris": {"android": "https://dc.lft.to/lastmile_qr_scan", "ios": "https://dc.lft.to/lastmile_qr_scan"}, "lat": 39.005989, "is_reserved": 0, "is_disabled": 0, "fusion_lat": 0.0}, {"fusion_lon": 0.0, "bike_id": "2acc3a1a6f887e5ddeaca8c8fced791e", "name": "2acc3a1a6f887e5ddeaca8c8fced791e", "type": "electric_scooter", "lon": -77.045169, "rental_uris": {"android": "https://dc.lft.to/lastmile_qr_scan", "ios": "https://dc.lft.to/lastmile_qr_scan"}, "lat": 38.921494833333334, "is_reserved": 0, "is_disabled": 0, "fusion_lat": 0.0}, {"fusion_lon": 0.0, "bike_id": "0f2ad443f4386f68aa19a7e0166932cd", "name": "0f2ad443f4386f68aa19a7e0166932cd", "type": "electric_bike", "lon": -77.11424166666667, "rental_uris": {"android": "https://dc.lft.to/lastmile_qr_scan", "ios": "https://dc.lft.to/lastmile_qr_scan"}, "lat": 38.852477666666665, "is_reserved": 0, "is_disabled": 0, "fusion_lat": 0.0}, {"fusion_lon": 0.0, "bike_id": "e431879bcda30c14b0374a0e93d71fbd", "name": "e431879bcda30c14b0374a0e93d71fbd", "type": "electric_scooter", "lon": -77.01881883333333, "rental_uris": {"android": "https://dc.lft.to/lastmile_qr_scan", "ios": "https://dc.lft.to/lastmile_qr_scan"}, "lat": 38.946480333333334, "is_reserved": 0, "is_disabled": 0, "fusion_lat": 0.0}, {"fusion_lon": 0.0, "bike_id": "ebed3ce0fa497412b6dce47def081f20", "name": "ebed3ce0fa497412b6dce47def081f20", "type": "electric_scooter", "lon": -77.06660133333334, "rental_uris": {"android": "https://dc.lft.to/lastmile_qr_scan", "ios": "https://dc.lft.to/lastmile_qr_scan"}, "lat": 38.9497395, "is_reserved": 0, "is_disabled": 0, "fusion_lat": 0.0}, {"fusion_lon": 0.0, "bike_id": "17ba97bfe0f07a2ac23e90003d92e069", "name": "17ba97bfe0f07a2ac23e90003d92e069", "type": "electric_scooter", "lon": -76.98954033333334, "rental_uris": {"android": "https://dc.lft.to/lastmile_qr_scan", "ios": "https://dc.lft.to/lastmile_qr_scan"}, "lat": 38.844056333333334, "is_reserved": 0, "is_disabled": 0, "fusion_lat": 0.0}, {"fusion_lon": 0.0, "bike_id": "8440f4767ed1d96a22edfbd401b1af50", "name": "8440f4767ed1d96a22edfbd401b1af50", "type": "electric_scooter", "lon": -77.02703483333333, "rental_uris": {"android": "https://dc.lft.to/lastmile_qr_scan", "ios": "https://dc.lft.to/lastmile_qr_scan"}, "lat": 38.909871, "is_reserved": 0, "is_disabled": 0, "fusion_lat": 0.0}, {"fusion_lon": 0.0, "bike_id": "42fb5d13d18e41e10af7db7927ee0927", "name": "42fb5d13d18e41e10af7db7927ee0927", "type": "electric_scooter", "lon": -77.01343166666666, "rental_uris": {"android": "https://dc.lft.to/lastmile_qr_scan", "ios": "https://dc.lft.to/lastmile_qr_scan"}, "lat": 38.9072395, "is_reserved": 0, "is_disabled": 0, "fusion_lat": 0.0}, {"fusion_lon": 0.0, "bike_id": "87ef6040e564cf572809457e00583db1", "name": "87ef6040e564cf572809457e00583db1", "type": "electric_scooter", "lon": -77.023873, "rental_uris": {"android": "https://dc.lft.to/lastmile_qr_scan", "ios": "https://dc.lft.to/lastmile_qr_scan"}, "lat": 38.9208595, "is_reserved": 0, "is_disabled": 0, "fusion_lat": 0.0}, {"fusion_lon": 0.0, "bike_id": "fa6160abf21423c792b59a5ffc7cbd3d", "name": "fa6160abf21423c792b59a5ffc7cbd3d", "type": "electric_scooter", "lon": -77.01204283333334, "rental_uris": {"android": "https://dc.lft.to/lastmile_qr_scan", "ios": "https://dc.lft.to/lastmile_qr_scan"}, "lat": 38.893313666666664, "is_reserved": 0, "is_disabled": 0, "fusion_lat": 0.0}, {"fusion_lon": 0.0, "bike_id": "8d0505a38a23ef5a62edd4698d0991ad", "name": "8d0505a38a23ef5a62edd4698d0991ad", "type": "electric_scooter", "lon": -77.03658716666666, "rental_uris": {"android": "https://dc.lft.to/lastmile_qr_scan", "ios": "https://dc.lft.to/lastmile_qr_scan"}, "lat": 38.915864166666665, "is_reserved": 0, "is_disabled": 0, "fusion_lat": 0.0}, {"fusion_lon": 0.0, "bike_id": "be0fba8115d22f87d521e08970b309f8", "name": "be0fba8115d22f87d521e08970b309f8", "type": "electric_scooter", "lon": -77.01183616666667, "rental_uris": {"android": "https://dc.lft.to/lastmile_qr_scan", "ios": "https://dc.lft.to/lastmile_qr_scan"}, "lat": 38.906563, "is_reserved": 0, "is_disabled": 0, "fusion_lat": 0.0}, {"fusion_lon": 0.0, "bike_id": "8967bb368af6d14ad7bbca5e7d6c7a44", "name": "8967bb368af6d14ad7bbca5e7d6c7a44", "type": "electric_bike", "lon": -76.9817195, "rental_uris": {"android": "https://dc.lft.to/lastmile_qr_scan", "ios": "https://dc.lft.to/lastmile_qr_scan"}, "lat": 38.95953433333333, "is_reserved": 0, "is_disabled": 0, "fusion_lat": 0.0}, {"fusion_lon": 0.0, "bike_id": "b7c24733fa0c6c9a862547de37290ef6", "name": "b7c24733fa0c6c9a862547de37290ef6", "type": "electric_scooter", "lon": -77.018933, "rental_uris": {"android": "https://dc.lft.to/lastmile_qr_scan", "ios": "https://dc.lft.to/lastmile_qr_scan"}, "lat": 38.949298166666665, "is_reserved": 0, "is_disabled": 0, "fusion_lat": 0.0}, {"fusion_lon": 0.0, "bike_id": "b90e733228d2957dc655b155f7e33bee", "name": "b90e733228d2957dc655b155f7e33bee", "type": "electric_scooter", "lon": -76.93350283333334, "rental_uris": {"android": "https://dc.lft.to/lastmile_qr_scan", "ios": "https://dc.lft.to/lastmile_qr_scan"}, "lat": 38.899057, "is_reserved": 0, "is_disabled": 0, "fusion_lat": 0.0}, {"fusion_lon": 0.0, "bike_id": "e22c52103c9421a196d6f0100babe846", "name": "e22c52103c9421a196d6f0100babe846", "type": "electric_scooter", "lon": -77.00209783333334, "rental_uris": {"android": "https://dc.lft.to/lastmile_qr_scan", "ios": "https://dc.lft.to/lastmile_qr_scan"}, "lat": 38.90034883333333, "is_reserved": 0, "is_disabled": 0, "fusion_lat": 0.0}, {"fusion_lon": 0.0, "bike_id": "1f7dfb6c83a27a17e1f58b6f3d2c2ad7", "name": "1f7dfb6c83a27a17e1f58b6f3d2c2ad7", "type": "electric_scooter", "lon": -77.035345, "rental_uris": {"android": "https://dc.lft.to/lastmile_qr_scan", "ios": "https://dc.lft.to/lastmile_qr_scan"}, "lat": 38.936027, "is_reserved": 0, "is_disabled": 0, "fusion_lat": 0.0}, {"fusion_lon": 0.0, "bike_id": "e17e781088d4902b9e71146f303cdcfd", "name": "e17e781088d4902b9e71146f303cdcfd", "type": "electric_scooter", "lon": -76.98454483333333, "rental_uris": {"android": "https://dc.lft.to/lastmile_qr_scan", "ios": "https://dc.lft.to/lastmile_qr_scan"}, "lat": 38.880115833333335, "is_reserved": 0, "is_disabled": 0, "fusion_lat": 0.0}, {"fusion_lon": 0.0, "bike_id": "4fbd51438207c564ab358ff55df64725", "name": "4fbd51438207c564ab358ff55df64725", "type": "electric_scooter", "lon": -77.04165816666666, "rental_uris": {"android": "https://dc.lft.to/lastmile_qr_scan", "ios": "https://dc.lft.to/lastmile_qr_scan"}, "lat": 38.91096833333334, "is_reserved": 0, "is_disabled": 0, "fusion_lat": 0.0}, {"fusion_lon": 0.0, "bike_id": "3b10a1c356bc5c79bb69831c86cebe4e", "name": "3b10a1c356bc5c79bb69831c86cebe4e", "type": "electric_scooter", "lon": -77.04154183333333, "rental_uris": {"android": "https://dc.lft.to/lastmile_qr_scan", "ios": "https://dc.lft.to/lastmile_qr_scan"}, "lat": 38.916029333333334, "is_reserved": 0, "is_disabled": 0, "fusion_lat": 0.0}, {"fusion_lon": 0.0, "bike_id": "832dd46b9134caa76fdd380aee92f3c7", "name": "832dd46b9134caa76fdd380aee92f3c7", "type": "electric_bike", "lon": -77.0331725, "rental_uris": {"android": "https://dc.lft.to/lastmile_qr_scan", "ios": "https://dc.lft.to/lastmile_qr_scan"}, "lat": 38.918065, "is_reserved": 0, "is_disabled": 0, "fusion_lat": 0.0}, {"fusion_lon": 0.0, "bike_id": "8a024b5a80d75ec9a87616d7aa4ec3df", "name": "8a024b5a80d75ec9a87616d7aa4ec3df", "type": "electric_scooter", "lon": -76.98421416666666, "rental_uris": {"android": "https://dc.lft.to/lastmile_qr_scan", "ios": "https://dc.lft.to/lastmile_qr_scan"}, "lat": 38.919937166666664, "is_reserved": 0, "is_disabled": 0, "fusion_lat": 0.0}, {"fusion_lon": 0.0, "bike_id": "6c70bb38ba418007c4dbce65a41aef89", "name": "6c70bb38ba418007c4dbce65a41aef89", "type": "electric_scooter", "lon": -77.03683933333333, "rental_uris": {"android": "https://dc.lft.to/lastmile_qr_scan", "ios": "https://dc.lft.to/lastmile_qr_scan"}, "lat": 38.90818216666667, "is_reserved": 0, "is_disabled": 0, "fusion_lat": 0.0}, {"fusion_lon": 0.0, "bike_id": "ed2b4e03c196c4a1e9084d2003604bdf", "name": "ed2b4e03c196c4a1e9084d2003604bdf", "type": "electric_scooter", "lon": -77.03197833333333, "rental_uris": {"android": "https://dc.lft.to/lastmile_qr_scan", "ios": "https://dc.lft.to/lastmile_qr_scan"}, "lat": 38.91769, "is_reserved": 0, "is_disabled": 0, "fusion_lat": 0.0}, {"fusion_lon": 0.0, "bike_id": "db53d3be14ea40840ca01ae5967db147", "name": "db53d3be14ea40840ca01ae5967db147", "type": "electric_scooter", "lon": -77.02253316666666, "rental_uris": {"android": "https://dc.lft.to/lastmile_qr_scan", "ios": "https://dc.lft.to/lastmile_qr_scan"}, "lat": 38.965617, "is_reserved": 0, "is_disabled": 0, "fusion_lat": 0.0}, {"fusion_lon": 0.0, "bike_id": "d133127eb4e98379e98f45b701d0886f", "name": "d133127eb4e98379e98f45b701d0886f", "type": "electric_scooter", "lon": -76.987765, "rental_uris": {"android": "https://dc.lft.to/lastmile_qr_scan", "ios": "https://dc.lft.to/lastmile_qr_scan"}, "lat": 38.911746666666666, "is_reserved": 0, "is_disabled": 0, "fusion_lat": 0.0}, {"fusion_lon": 0.0, "bike_id": "609fe18bb484478985ce55986ab791e6", "name": "609fe18bb484478985ce55986ab791e6", "type": "electric_scooter", "lon": -77.04162, "rental_uris": {"android": "https://dc.lft.to/lastmile_qr_scan", "ios": "https://dc.lft.to/lastmile_qr_scan"}, "lat": 38.91568633333333, "is_reserved": 0, "is_disabled": 0, "fusion_lat": 0.0}, {"fusion_lon": 0.0, "bike_id": "5409ce48869df644cd58bb80145446f6", "name": "5409ce48869df644cd58bb80145446f6", "type": "electric_scooter", "lon": -77.01847783333334, "rental_uris": {"android": "https://dc.lft.to/lastmile_qr_scan", "ios": "https://dc.lft.to/lastmile_qr_scan"}, "lat": 38.92190983333333, "is_reserved": 0, "is_disabled": 0, "fusion_lat": 0.0}, {"fusion_lon": 0.0, "bike_id": "9482255d3c9c4d3b22e98e9e77067f58", "name": "9482255d3c9c4d3b22e98e9e77067f58", "type": "electric_scooter", "lon": -77.04738516666667, "rental_uris": {"android": "https://dc.lft.to/lastmile_qr_scan", "ios": "https://dc.lft.to/lastmile_qr_scan"}, "lat": 38.905945, "is_reserved": 0, "is_disabled": 0, "fusion_lat": 0.0}, {"fusion_lon": 0.0, "bike_id": "12bfee41a01a992b1dcef07454c38db1", "name": "12bfee41a01a992b1dcef07454c38db1", "type": "electric_scooter", "lon": -77.0258245, "rental_uris": {"android": "https://dc.lft.to/lastmile_qr_scan", "ios": "https://dc.lft.to/lastmile_qr_scan"}, "lat": 38.916380333333336, "is_reserved": 0, "is_disabled": 0, "fusion_lat": 0.0}, {"fusion_lon": 0.0, "bike_id": "6f6d6bdbfbf969e4073db11d710282c5", "name": "6f6d6bdbfbf969e4073db11d710282c5", "type": "electric_bike", "lon": -77.12579866666667, "rental_uris": {"android": "https://dc.lft.to/lastmile_qr_scan", "ios": "https://dc.lft.to/lastmile_qr_scan"}, "lat": 38.851484166666665, "is_reserved": 0, "is_disabled": 0, "fusion_lat": 0.0}, {"fusion_lon": 0.0, "bike_id": "442f4bd12536127146c8ed53c894daf8", "name": "442f4bd12536127146c8ed53c894daf8", "type": "electric_scooter", "lon": -77.02700933333334, "rental_uris": {"android": "https://dc.lft.to/lastmile_qr_scan", "ios": "https://dc.lft.to/lastmile_qr_scan"}, "lat": 38.908395166666665, "is_reserved": 0, "is_disabled": 0, "fusion_lat": 0.0}, {"fusion_lon": 0.0, "bike_id": "ecdc4fd113d6ca1c83ee46be01ecd01b", "name": "ecdc4fd113d6ca1c83ee46be01ecd01b", "type": "electric_scooter", "lon": -77.05131583333333, "rental_uris": {"android": "https://dc.lft.to/lastmile_qr_scan", "ios": "https://dc.lft.to/lastmile_qr_scan"}, "lat": 38.92362266666667, "is_reserved": 0, "is_disabled": 0, "fusion_lat": 0.0}, {"fusion_lon": 0.0, "bike_id": "3aa409feadd913e5241696654f3583a9", "name": "3aa409feadd913e5241696654f3583a9", "type": "electric_scooter", "lon": -76.94063883333334, "rental_uris": {"android": "https://dc.lft.to/lastmile_qr_scan", "ios": "https://dc.lft.to/lastmile_qr_scan"}, "lat": 38.890277833333336, "is_reserved": 0, "is_disabled": 0, "fusion_lat": 0.0}, {"fusion_lon": 0.0, "bike_id": "1655660aa962b3f42f72d9d22175246c", "name": "1655660aa962b3f42f72d9d22175246c", "type": "electric_scooter", "lon": -77.0271585, "rental_uris": {"android": "https://dc.lft.to/lastmile_qr_scan", "ios": "https://dc.lft.to/lastmile_qr_scan"}, "lat": 38.90750633333333, "is_reserved": 0, "is_disabled": 0, "fusion_lat": 0.0}, {"fusion_lon": 0.0, "bike_id": "39ad4a910a8eaa166027d7b07d3b9ed5", "name": "39ad4a910a8eaa166027d7b07d3b9ed5", "type": "electric_scooter", "lon": -76.97282366666667, "rental_uris": {"android": "https://dc.lft.to/lastmile_qr_scan", "ios": "https://dc.lft.to/lastmile_qr_scan"}, "lat": 38.930857, "is_reserved": 0, "is_disabled": 0, "fusion_lat": 0.0}, {"fusion_lon": 0.0, "bike_id": "079b2000d7b6d19158f2db48f8b28cf5", "name": "079b2000d7b6d19158f2db48f8b28cf5", "type": "electric_scooter", "lon": -77.01980466666667, "rental_uris": {"android": "https://dc.lft.to/lastmile_qr_scan", "ios": "https://dc.lft.to/lastmile_qr_scan"}, "lat": 38.884219333333334, "is_reserved": 0, "is_disabled": 0, "fusion_lat": 0.0}, {"fusion_lon": 0.0, "bike_id": "d9629de9c037a67eb35f708578a3c5a2", "name": "d9629de9c037a67eb35f708578a3c5a2", "type": "electric_bike", "lon": -76.93232266666666, "rental_uris": {"android": "https://dc.lft.to/lastmile_qr_scan", "ios": "https://dc.lft.to/lastmile_qr_scan"}, "lat": 38.86595033333333, "is_reserved": 0, "is_disabled": 0, "fusion_lat": 0.0}, {"fusion_lon": 0.0, "bike_id": "f3e5be088a971d2c083ee83af6c78629", "name": "f3e5be088a971d2c083ee83af6c78629", "type": "electric_scooter", "lon": -77.02274583333333, "rental_uris": {"android": "https://dc.lft.to/lastmile_qr_scan", "ios": "https://dc.lft.to/lastmile_qr_scan"}, "lat": 38.91764216666667, "is_reserved": 0, "is_disabled": 0, "fusion_lat": 0.0}, {"fusion_lon": 0.0, "bike_id": "1c0dba9880e9bb8717db9fa9736ef3e2", "name": "1c0dba9880e9bb8717db9fa9736ef3e2", "type": "electric_scooter", "lon": -77.06346183333333, "rental_uris": {"android": "https://dc.lft.to/lastmile_qr_scan", "ios": "https://dc.lft.to/lastmile_qr_scan"}, "lat": 38.91342683333333, "is_reserved": 0, "is_disabled": 0, "fusion_lat": 0.0}, {"fusion_lon": 0.0, "bike_id": "0affc296dd9078b6c6c499bd2dcf58f5", "name": "0affc296dd9078b6c6c499bd2dcf58f5", "type": "electric_scooter", "lon": -77.039944, "rental_uris": {"android": "https://dc.lft.to/lastmile_qr_scan", "ios": "https://dc.lft.to/lastmile_qr_scan"}, "lat": 38.9141505, "is_reserved": 0, "is_disabled": 0, "fusion_lat": 0.0}, {"fusion_lon": 0.0, "bike_id": "a550ba0d531904b8e63680893f207daf", "name": "a550ba0d531904b8e63680893f207daf", "type": "electric_scooter", "lon": -77.02263016666667, "rental_uris": {"android": "https://dc.lft.to/lastmile_qr_scan", "ios": "https://dc.lft.to/lastmile_qr_scan"}, "lat": 38.92735416666667, "is_reserved": 0, "is_disabled": 0, "fusion_lat": 0.0}, {"fusion_lon": 0.0, "bike_id": "dc9c5fd702ad62d2bf0c445e89f0dc22", "name": "dc9c5fd702ad62d2bf0c445e89f0dc22", "type": "electric_scooter", "lon": -77.02465633333334, "rental_uris": {"android": "https://dc.lft.to/lastmile_qr_scan", "ios": "https://dc.lft.to/lastmile_qr_scan"}, "lat": 38.939070666666666, "is_reserved": 0, "is_disabled": 0, "fusion_lat": 0.0}, {"fusion_lon": 0.0, "bike_id": "3161ebd66bc3ddf8dc1ade558f4f91dc", "name": "3161ebd66bc3ddf8dc1ade558f4f91dc", "type": "electric_scooter", "lon": -77.039929, "rental_uris": {"android": "https://dc.lft.to/lastmile_qr_scan", "ios": "https://dc.lft.to/lastmile_qr_scan"}, "lat": 38.901452166666665, "is_reserved": 0, "is_disabled": 0, "fusion_lat": 0.0}, {"fusion_lon": 0.0, "bike_id": "77898929f7e05d4a6f53f1624df27df1", "name": "77898929f7e05d4a6f53f1624df27df1", "type": "electric_scooter", "lon": -77.04490016666666, "rental_uris": {"android": "https://dc.lft.to/lastmile_qr_scan", "ios": "https://dc.lft.to/lastmile_qr_scan"}, "lat": 38.90672983333333, "is_reserved": 0, "is_disabled": 0, "fusion_lat": 0.0}, {"fusion_lon": 0.0, "bike_id": "8882414058774fce2dcb3aa8b722412b", "name": "8882414058774fce2dcb3aa8b722412b", "type": "electric_scooter", "lon": -76.99853766666666, "rental_uris": {"android": "https://dc.lft.to/lastmile_qr_scan", "ios": "https://dc.lft.to/lastmile_qr_scan"}, "lat": 38.90897783333333, "is_reserved": 0, "is_disabled": 0, "fusion_lat": 0.0}, {"fusion_lon": 0.0, "bike_id": "82b72ed65fe9236996000795ff3bae97", "name": "82b72ed65fe9236996000795ff3bae97", "type": "electric_bike", "lon": -77.353036, "rental_uris": {"android": "https://dc.lft.to/lastmile_qr_scan", "ios": "https://dc.lft.to/lastmile_qr_scan"}, "lat": 38.950041, "is_reserved": 0, "is_disabled": 0, "fusion_lat": 0.0}, {"fusion_lon": 0.0, "bike_id": "98d86f56d91b20270fc57a3460515ec1", "name": "98d86f56d91b20270fc57a3460515ec1", "type": "electric_scooter", "lon": -77.04792083333334, "rental_uris": {"android": "https://dc.lft.to/lastmile_qr_scan", "ios": "https://dc.lft.to/lastmile_qr_scan"}, "lat": 38.89769583333333, "is_reserved": 0, "is_disabled": 0, "fusion_lat": 0.0}, {"fusion_lon": 0.0, "bike_id": "31edf8247de75032ade8c86f69484363", "name": "31edf8247de75032ade8c86f69484363", "type": "electric_scooter", "lon": -77.046893, "rental_uris": {"android": "https://dc.lft.to/lastmile_qr_scan", "ios": "https://dc.lft.to/lastmile_qr_scan"}, "lat": 38.91594333333333, "is_reserved": 0, "is_disabled": 0, "fusion_lat": 0.0}, {"fusion_lon": 0.0, "bike_id": "9297a5716fdc6ca7d5712b454e4bb79d", "name": "9297a5716fdc6ca7d5712b454e4bb79d", "type": "electric_scooter", "lon": -77.0363815, "rental_uris": {"android": "https://dc.lft.to/lastmile_qr_scan", "ios": "https://dc.lft.to/lastmile_qr_scan"}, "lat": 38.936666, "is_reserved": 0, "is_disabled": 0, "fusion_lat": 0.0}, {"fusion_lon": 0.0, "bike_id": "d8744ed12419f2724ee697f65d6e51be", "name": "d8744ed12419f2724ee697f65d6e51be", "type": "electric_scooter", "lon": -77.0279675, "rental_uris": {"android": "https://dc.lft.to/lastmile_qr_scan", "ios": "https://dc.lft.to/lastmile_qr_scan"}, "lat": 38.912265166666664, "is_reserved": 0, "is_disabled": 0, "fusion_lat": 0.0}, {"fusion_lon": 0.0, "bike_id": "a21d8fdadb9136c322147806ee625b5d", "name": "a21d8fdadb9136c322147806ee625b5d", "type": "electric_scooter", "lon": -77.03258633333333, "rental_uris": {"android": "https://dc.lft.to/lastmile_qr_scan", "ios": "https://dc.lft.to/lastmile_qr_scan"}, "lat": 38.914874166666664, "is_reserved": 0, "is_disabled": 0, "fusion_lat": 0.0}, {"fusion_lon": 0.0, "bike_id": "f1f4f021af254d70c0d57d5ee0d08e9d", "name": "f1f4f021af254d70c0d57d5ee0d08e9d", "type": "electric_scooter", "lon": -77.07806566666666, "rental_uris": {"android": "https://dc.lft.to/lastmile_qr_scan", "ios": "https://dc.lft.to/lastmile_qr_scan"}, "lat": 38.924618, "is_reserved": 0, "is_disabled": 0, "fusion_lat": 0.0}, {"fusion_lon": 0.0, "bike_id": "9ede185b39b9593d63ff9d5e08136772", "name": "9ede185b39b9593d63ff9d5e08136772", "type": "electric_scooter", "lon": -77.03175833333333, "rental_uris": {"android": "https://dc.lft.to/lastmile_qr_scan", "ios": "https://dc.lft.to/lastmile_qr_scan"}, "lat": 38.893336166666664, "is_reserved": 0, "is_disabled": 0, "fusion_lat": 0.0}, {"fusion_lon": 0.0, "bike_id": "eee7d0812e1da60df8b64e08a8841102", "name": "eee7d0812e1da60df8b64e08a8841102", "type": "electric_scooter", "lon": -77.021974, "rental_uris": {"android": "https://dc.lft.to/lastmile_qr_scan", "ios": "https://dc.lft.to/lastmile_qr_scan"}, "lat": 38.915329666666665, "is_reserved": 0, "is_disabled": 0, "fusion_lat": 0.0}, {"fusion_lon": 0.0, "bike_id": "fdf23ddd7381cfa0c48dd0527b08d472", "name": "fdf23ddd7381cfa0c48dd0527b08d472", "type": "electric_bike", "lon": -76.9075865, "rental_uris": {"android": "https://dc.lft.to/lastmile_qr_scan", "ios": "https://dc.lft.to/lastmile_qr_scan"}, "lat": 38.9244075, "is_reserved": 0, "is_disabled": 0, "fusion_lat": 0.0}, {"fusion_lon": 0.0, "bike_id": "754cf260f49d465bd2ecd212850fd7e8", "name": "754cf260f49d465bd2ecd212850fd7e8", "type": "electric_scooter", "lon": -77.00580383333333, "rental_uris": {"android": "https://dc.lft.to/lastmile_qr_scan", "ios": "https://dc.lft.to/lastmile_qr_scan"}, "lat": 38.87177616666666, "is_reserved": 0, "is_disabled": 0, "fusion_lat": 0.0}, {"fusion_lon": 0.0, "bike_id": "7d64fec19088ef1f24566a13a4a2add0", "name": "7d64fec19088ef1f24566a13a4a2add0", "type": "electric_scooter", "lon": -77.01758316666667, "rental_uris": {"android": "https://dc.lft.to/lastmile_qr_scan", "ios": "https://dc.lft.to/lastmile_qr_scan"}, "lat": 38.900541, "is_reserved": 0, "is_disabled": 0, "fusion_lat": 0.0}, {"fusion_lon": 0.0, "bike_id": "f2e60329888fddce135998f1ef9771c2", "name": "f2e60329888fddce135998f1ef9771c2", "type": "electric_scooter", "lon": -77.03193683333333, "rental_uris": {"android": "https://dc.lft.to/lastmile_qr_scan", "ios": "https://dc.lft.to/lastmile_qr_scan"}, "lat": 38.90770933333334, "is_reserved": 0, "is_disabled": 0, "fusion_lat": 0.0}, {"fusion_lon": 0.0, "bike_id": "6832e74c10408d9e9f15040b3b71c7ce", "name": "6832e74c10408d9e9f15040b3b71c7ce", "type": "electric_scooter", "lon": -77.0326445, "rental_uris": {"android": "https://dc.lft.to/lastmile_qr_scan", "ios": "https://dc.lft.to/lastmile_qr_scan"}, "lat": 38.935279666666666, "is_reserved": 0, "is_disabled": 0, "fusion_lat": 0.0}, {"fusion_lon": 0.0, "bike_id": "b5ef74bf6a234505a4bf6b90294aff11", "name": "b5ef74bf6a234505a4bf6b90294aff11", "type": "electric_scooter", "lon": -77.03667366666667, "rental_uris": {"android": "https://dc.lft.to/lastmile_qr_scan", "ios": "https://dc.lft.to/lastmile_qr_scan"}, "lat": 38.91135883333333, "is_reserved": 0, "is_disabled": 0, "fusion_lat": 0.0}, {"fusion_lon": 0.0, "bike_id": "b73b07bed2af8d8f0f2affcd3c6e7f76", "name": "b73b07bed2af8d8f0f2affcd3c6e7f76", "type": "electric_scooter", "lon": -77.00454133333334, "rental_uris": {"android": "https://dc.lft.to/lastmile_qr_scan", "ios": "https://dc.lft.to/lastmile_qr_scan"}, "lat": 38.92898316666667, "is_reserved": 0, "is_disabled": 0, "fusion_lat": 0.0}, {"fusion_lon": 0.0, "bike_id": "699a272a1adda3242841db64b978bbf9", "name": "699a272a1adda3242841db64b978bbf9", "type": "electric_scooter", "lon": -77.03955983333333, "rental_uris": {"android": "https://dc.lft.to/lastmile_qr_scan", "ios": "https://dc.lft.to/lastmile_qr_scan"}, "lat": 38.92613433333333, "is_reserved": 0, "is_disabled": 0, "fusion_lat": 0.0}, {"fusion_lon": 0.0, "bike_id": "f931fa1723c53735f93b0891d74c0a6b", "name": "f931fa1723c53735f93b0891d74c0a6b", "type": "electric_scooter", "lon": -77.04360966666667, "rental_uris": {"android": "https://dc.lft.to/lastmile_qr_scan", "ios": "https://dc.lft.to/lastmile_qr_scan"}, "lat": 38.892371, "is_reserved": 0, "is_disabled": 0, "fusion_lat": 0.0}, {"fusion_lon": 0.0, "bike_id": "d2181a70cb17772126b75f48a9235eab", "name": "d2181a70cb17772126b75f48a9235eab", "type": "electric_scooter", "lon": -77.047169, "rental_uris": {"android": "https://dc.lft.to/lastmile_qr_scan", "ios": "https://dc.lft.to/lastmile_qr_scan"}, "lat": 38.92229066666667, "is_reserved": 0, "is_disabled": 0, "fusion_lat": 0.0}, {"fusion_lon": 0.0, "bike_id": "fdeffc7184d129dc0ccf84d553e145ea", "name": "fdeffc7184d129dc0ccf84d553e145ea", "type": "electric_scooter", "lon": -76.984632, "rental_uris": {"android": "https://dc.lft.to/lastmile_qr_scan", "ios": "https://dc.lft.to/lastmile_qr_scan"}, "lat": 38.897723166666665, "is_reserved": 0, "is_disabled": 0, "fusion_lat": 0.0}, {"fusion_lon": 0.0, "bike_id": "dba13b9aece59a1339838cffecc5c64c", "name": "dba13b9aece59a1339838cffecc5c64c", "type": "electric_scooter", "lon": -77.03922566666667, "rental_uris": {"android": "https://dc.lft.to/lastmile_qr_scan", "ios": "https://dc.lft.to/lastmile_qr_scan"}, "lat": 38.9118405, "is_reserved": 0, "is_disabled": 0, "fusion_lat": 0.0}, {"fusion_lon": 0.0, "bike_id": "08afa732534988107f610fa9018149aa", "name": "08afa732534988107f610fa9018149aa", "type": "electric_scooter", "lon": -77.004389, "rental_uris": {"android": "https://dc.lft.to/lastmile_qr_scan", "ios": "https://dc.lft.to/lastmile_qr_scan"}, "lat": 38.876543166666664, "is_reserved": 0, "is_disabled": 0, "fusion_lat": 0.0}, {"fusion_lon": 0.0, "bike_id": "1cb9abaee67db5bfe132e7a382614a76", "name": "1cb9abaee67db5bfe132e7a382614a76", "type": "electric_scooter", "lon": -77.00138666666666, "rental_uris": {"android": "https://dc.lft.to/lastmile_qr_scan", "ios": "https://dc.lft.to/lastmile_qr_scan"}, "lat": 38.905134333333336, "is_reserved": 0, "is_disabled": 0, "fusion_lat": 0.0}, {"fusion_lon": 0.0, "bike_id": "80fad6816a97561a6aea577e5f7f40d4", "name": "80fad6816a97561a6aea577e5f7f40d4", "type": "electric_scooter", "lon": -76.99008633333334, "rental_uris": {"android": "https://dc.lft.to/lastmile_qr_scan", "ios": "https://dc.lft.to/lastmile_qr_scan"}, "lat": 38.8650585, "is_reserved": 0, "is_disabled": 0, "fusion_lat": 0.0}, {"fusion_lon": 0.0, "bike_id": "f3764dd725e96cb5e09dbe7da39d5ce9", "name": "f3764dd725e96cb5e09dbe7da39d5ce9", "type": "electric_scooter", "lon": -77.02205083333334, "rental_uris": {"android": "https://dc.lft.to/lastmile_qr_scan", "ios": "https://dc.lft.to/lastmile_qr_scan"}, "lat": 38.915329166666666, "is_reserved": 0, "is_disabled": 0, "fusion_lat": 0.0}, {"fusion_lon": 0.0, "bike_id": "0b51111125495b2cbdb781488abe7cfa", "name": "0b51111125495b2cbdb781488abe7cfa", "type": "electric_scooter", "lon": -77.01711033333333, "rental_uris": {"android": "https://dc.lft.to/lastmile_qr_scan", "ios": "https://dc.lft.to/lastmile_qr_scan"}, "lat": 38.90514866666667, "is_reserved": 0, "is_disabled": 0, "fusion_lat": 0.0}, {"fusion_lon": 0.0, "bike_id": "0f47f809a768073b1a5f10163ef56403", "name": "0f47f809a768073b1a5f10163ef56403", "type": "electric_scooter", "lon": -77.03312883333334, "rental_uris": {"android": "https://dc.lft.to/lastmile_qr_scan", "ios": "https://dc.lft.to/lastmile_qr_scan"}, "lat": 38.903878666666664, "is_reserved": 0, "is_disabled": 0, "fusion_lat": 0.0}, {"fusion_lon": 0.0, "bike_id": "955476206cfaf2469a0a37b1e27b8a12", "name": "955476206cfaf2469a0a37b1e27b8a12", "type": "electric_scooter", "lon": -77.022646, "rental_uris": {"android": "https://dc.lft.to/lastmile_qr_scan", "ios": "https://dc.lft.to/lastmile_qr_scan"}, "lat": 38.947146000000004, "is_reserved": 0, "is_disabled": 0, "fusion_lat": 0.0}, {"fusion_lon": 0.0, "bike_id": "0d7d05f8ddcdef04a191ee55d7f8d1f1", "name": "0d7d05f8ddcdef04a191ee55d7f8d1f1", "type": "electric_scooter", "lon": -77.03834683333334, "rental_uris": {"android": "https://dc.lft.to/lastmile_qr_scan", "ios": "https://dc.lft.to/lastmile_qr_scan"}, "lat": 38.9156695, "is_reserved": 0, "is_disabled": 0, "fusion_lat": 0.0}, {"fusion_lon": 0.0, "bike_id": "6b3ebf8bcff78950120e4f22fe62662d", "name": "6b3ebf8bcff78950120e4f22fe62662d", "type": "electric_bike", "lon": -76.98653816666666, "rental_uris": {"android": "https://dc.lft.to/lastmile_qr_scan", "ios": "https://dc.lft.to/lastmile_qr_scan"}, "lat": 38.93974, "is_reserved": 0, "is_disabled": 0, "fusion_lat": 0.0}, {"fusion_lon": 0.0, "bike_id": "3b551a8bf7526a66152184e3bb1e6bff", "name": "3b551a8bf7526a66152184e3bb1e6bff", "type": "electric_scooter", "lon": -77.04042183333334, "rental_uris": {"android": "https://dc.lft.to/lastmile_qr_scan", "ios": "https://dc.lft.to/lastmile_qr_scan"}, "lat": 38.9058265, "is_reserved": 0, "is_disabled": 0, "fusion_lat": 0.0}, {"fusion_lon": 0.0, "bike_id": "1c902285221bfa2727038367fdf9a008", "name": "1c902285221bfa2727038367fdf9a008", "type": "electric_scooter", "lon": -77.04287916666667, "rental_uris": {"android": "https://dc.lft.to/lastmile_qr_scan", "ios": "https://dc.lft.to/lastmile_qr_scan"}, "lat": 38.91340066666667, "is_reserved": 0, "is_disabled": 0, "fusion_lat": 0.0}, {"fusion_lon": 0.0, "bike_id": "8c04ea088497acf53deac55926b04c3a", "name": "8c04ea088497acf53deac55926b04c3a", "type": "electric_scooter", "lon": -77.01757616666667, "rental_uris": {"android": "https://dc.lft.to/lastmile_qr_scan", "ios": "https://dc.lft.to/lastmile_qr_scan"}, "lat": 38.877281333333336, "is_reserved": 0, "is_disabled": 0, "fusion_lat": 0.0}, {"fusion_lon": 0.0, "bike_id": "1a82c161b9d709523cfb3a09736c9a07", "name": "1a82c161b9d709523cfb3a09736c9a07", "type": "electric_scooter", "lon": -77.0093735, "rental_uris": {"android": "https://dc.lft.to/lastmile_qr_scan", "ios": "https://dc.lft.to/lastmile_qr_scan"}, "lat": 38.8766325, "is_reserved": 0, "is_disabled": 0, "fusion_lat": 0.0}, {"fusion_lon": 0.0, "bike_id": "07c62259b8beb124562e23a50a0559ff", "name": "07c62259b8beb124562e23a50a0559ff", "type": "electric_scooter", "lon": -77.04360883333334, "rental_uris": {"android": "https://dc.lft.to/lastmile_qr_scan", "ios": "https://dc.lft.to/lastmile_qr_scan"}, "lat": 38.918744833333335, "is_reserved": 0, "is_disabled": 0, "fusion_lat": 0.0}, {"fusion_lon": 0.0, "bike_id": "3f22d1fdddbab84f15d6a0dcfac77f33", "name": "3f22d1fdddbab84f15d6a0dcfac77f33", "type": "electric_scooter", "lon": -77.07706333333333, "rental_uris": {"android": "https://dc.lft.to/lastmile_qr_scan", "ios": "https://dc.lft.to/lastmile_qr_scan"}, "lat": 38.942894, "is_reserved": 0, "is_disabled": 0, "fusion_lat": 0.0}, {"fusion_lon": 0.0, "bike_id": "658a85c0eb7a4cb6dce36ec02311af0b", "name": "658a85c0eb7a4cb6dce36ec02311af0b", "type": "electric_scooter", "lon": -77.00805566666666, "rental_uris": {"android": "https://dc.lft.to/lastmile_qr_scan", "ios": "https://dc.lft.to/lastmile_qr_scan"}, "lat": 38.8764645, "is_reserved": 0, "is_disabled": 0, "fusion_lat": 0.0}, {"fusion_lon": 0.0, "bike_id": "005f5d639c974f0c1baf4574d8fc41c7", "name": "005f5d639c974f0c1baf4574d8fc41c7", "type": "electric_scooter", "lon": -77.02109566666667, "rental_uris": {"android": "https://dc.lft.to/lastmile_qr_scan", "ios": "https://dc.lft.to/lastmile_qr_scan"}, "lat": 38.897464666666664, "is_reserved": 0, "is_disabled": 0, "fusion_lat": 0.0}, {"fusion_lon": 0.0, "bike_id": "6da22103fdcc277b71fe955aeb4c0d2f", "name": "6da22103fdcc277b71fe955aeb4c0d2f", "type": "electric_scooter", "lon": -77.0107915, "rental_uris": {"android": "https://dc.lft.to/lastmile_qr_scan", "ios": "https://dc.lft.to/lastmile_qr_scan"}, "lat": 38.89610166666667, "is_reserved": 0, "is_disabled": 0, "fusion_lat": 0.0}, {"fusion_lon": 0.0, "bike_id": "d2aff5fe590e0b0a6cc2873ab243b0ec", "name": "d2aff5fe590e0b0a6cc2873ab243b0ec", "type": "electric_scooter", "lon": -77.04157433333333, "rental_uris": {"android": "https://dc.lft.to/lastmile_qr_scan", "ios": "https://dc.lft.to/lastmile_qr_scan"}, "lat": 38.9147535, "is_reserved": 0, "is_disabled": 0, "fusion_lat": 0.0}, {"fusion_lon": 0.0, "bike_id": "24489910ed5c9725b6f7232b2d9e9e9a", "name": "24489910ed5c9725b6f7232b2d9e9e9a", "type": "electric_scooter", "lon": -77.048656, "rental_uris": {"android": "https://dc.lft.to/lastmile_qr_scan", "ios": "https://dc.lft.to/lastmile_qr_scan"}, "lat": 38.901929833333334, "is_reserved": 0, "is_disabled": 0, "fusion_lat": 0.0}, {"fusion_lon": 0.0, "bike_id": "f7c58750d7ac371079380f338dd96387", "name": "f7c58750d7ac371079380f338dd96387", "type": "electric_scooter", "lon": -77.04239466666667, "rental_uris": {"android": "https://dc.lft.to/lastmile_qr_scan", "ios": "https://dc.lft.to/lastmile_qr_scan"}, "lat": 38.91933083333333, "is_reserved": 0, "is_disabled": 0, "fusion_lat": 0.0}, {"fusion_lon": 0.0, "bike_id": "24ef301476396fd7f8149bc859098660", "name": "24ef301476396fd7f8149bc859098660", "type": "electric_scooter", "lon": -77.03292066666667, "rental_uris": {"android": "https://dc.lft.to/lastmile_qr_scan", "ios": "https://dc.lft.to/lastmile_qr_scan"}, "lat": 38.91121716666667, "is_reserved": 0, "is_disabled": 0, "fusion_lat": 0.0}, {"fusion_lon": 0.0, "bike_id": "786ffdfab215ad730c684d8fc166e72f", "name": "786ffdfab215ad730c684d8fc166e72f", "type": "electric_scooter", "lon": -76.996444, "rental_uris": {"android": "https://dc.lft.to/lastmile_qr_scan", "ios": "https://dc.lft.to/lastmile_qr_scan"}, "lat": 38.88720816666667, "is_reserved": 0, "is_disabled": 0, "fusion_lat": 0.0}, {"fusion_lon": 0.0, "bike_id": "dfd606347cf5582bb294b3a937aa9441", "name": "dfd606347cf5582bb294b3a937aa9441", "type": "electric_scooter", "lon": -77.02307266666666, "rental_uris": {"android": "https://dc.lft.to/lastmile_qr_scan", "ios": "https://dc.lft.to/lastmile_qr_scan"}, "lat": 38.91715333333333, "is_reserved": 0, "is_disabled": 0, "fusion_lat": 0.0}, {"fusion_lon": 0.0, "bike_id": "4069e491d0315489e4a7e1b36f905b02", "name": "4069e491d0315489e4a7e1b36f905b02", "type": "electric_scooter", "lon": -77.043932, "rental_uris": {"android": "https://dc.lft.to/lastmile_qr_scan", "ios": "https://dc.lft.to/lastmile_qr_scan"}, "lat": 38.910864833333335, "is_reserved": 0, "is_disabled": 0, "fusion_lat": 0.0}, {"fusion_lon": 0.0, "bike_id": "f608ae45b6f83933ce640d7a9c07ace0", "name": "f608ae45b6f83933ce640d7a9c07ace0", "type": "electric_scooter", "lon": -77.0489865, "rental_uris": {"android": "https://dc.lft.to/lastmile_qr_scan", "ios": "https://dc.lft.to/lastmile_qr_scan"}, "lat": 38.8923015, "is_reserved": 0, "is_disabled": 0, "fusion_lat": 0.0}, {"fusion_lon": 0.0, "bike_id": "f0bcb471ae67066e4ff25d50c30051f0", "name": "f0bcb471ae67066e4ff25d50c30051f0", "type": "electric_scooter", "lon": -77.04084116666667, "rental_uris": {"android": "https://dc.lft.to/lastmile_qr_scan", "ios": "https://dc.lft.to/lastmile_qr_scan"}, "lat": 38.90789016666667, "is_reserved": 0, "is_disabled": 0, "fusion_lat": 0.0}, {"fusion_lon": 0.0, "bike_id": "bb82d46801eb1ed0ace68b069e4aced7", "name": "bb82d46801eb1ed0ace68b069e4aced7", "type": "electric_bike", "lon": -76.9656015, "rental_uris": {"android": "https://dc.lft.to/lastmile_qr_scan", "ios": "https://dc.lft.to/lastmile_qr_scan"}, "lat": 38.950902, "is_reserved": 0, "is_disabled": 0, "fusion_lat": 0.0}, {"fusion_lon": 0.0, "bike_id": "c83b0fa76d10402bcc47fa4e78cbe982", "name": "c83b0fa76d10402bcc47fa4e78cbe982", "type": "electric_scooter", "lon": -77.03325866666667, "rental_uris": {"android": "https://dc.lft.to/lastmile_qr_scan", "ios": "https://dc.lft.to/lastmile_qr_scan"}, "lat": 38.9003235, "is_reserved": 0, "is_disabled": 0, "fusion_lat": 0.0}, {"fusion_lon": 0.0, "bike_id": "64e8ef9f76e59b10d4e7df5dc882d9b2", "name": "64e8ef9f76e59b10d4e7df5dc882d9b2", "type": "electric_scooter", "lon": -77.07230083333333, "rental_uris": {"android": "https://dc.lft.to/lastmile_qr_scan", "ios": "https://dc.lft.to/lastmile_qr_scan"}, "lat": 38.93459333333333, "is_reserved": 0, "is_disabled": 0, "fusion_lat": 0.0}, {"fusion_lon": 0.0, "bike_id": "0361bf38f19e280b01abe7641edcabc7", "name": "0361bf38f19e280b01abe7641edcabc7", "type": "electric_scooter", "lon": -77.04607066666667, "rental_uris": {"android": "https://dc.lft.to/lastmile_qr_scan", "ios": "https://dc.lft.to/lastmile_qr_scan"}, "lat": 38.91698133333333, "is_reserved": 0, "is_disabled": 0, "fusion_lat": 0.0}, {"fusion_lon": 0.0, "bike_id": "32a884d7a4f02c25a9db579d5e6ae0be", "name": "32a884d7a4f02c25a9db579d5e6ae0be", "type": "electric_bike", "lon": -77.17847966666666, "rental_uris": {"android": "https://dc.lft.to/lastmile_qr_scan", "ios": "https://dc.lft.to/lastmile_qr_scan"}, "lat": 39.0890445, "is_reserved": 0, "is_disabled": 0, "fusion_lat": 0.0}, {"fusion_lon": 0.0, "bike_id": "af42a1bb5591ae96c1667272d281456f", "name": "af42a1bb5591ae96c1667272d281456f", "type": "electric_scooter", "lon": -76.98660633333333, "rental_uris": {"android": "https://dc.lft.to/lastmile_qr_scan", "ios": "https://dc.lft.to/lastmile_qr_scan"}, "lat": 38.90141783333333, "is_reserved": 0, "is_disabled": 0, "fusion_lat": 0.0}, {"fusion_lon": 0.0, "bike_id": "711628f186ec0ce346eab6c60fdcedaa", "name": "711628f186ec0ce346eab6c60fdcedaa", "type": "electric_scooter", "lon": -77.04210333333333, "rental_uris": {"android": "https://dc.lft.to/lastmile_qr_scan", "ios": "https://dc.lft.to/lastmile_qr_scan"}, "lat": 38.917081, "is_reserved": 0, "is_disabled": 0, "fusion_lat": 0.0}, {"fusion_lon": 0.0, "bike_id": "bf6fbe04cb5f28b9aab330138b14dc76", "name": "bf6fbe04cb5f28b9aab330138b14dc76", "type": "electric_scooter", "lon": -76.931847, "rental_uris": {"android": "https://dc.lft.to/lastmile_qr_scan", "ios": "https://dc.lft.to/lastmile_qr_scan"}, "lat": 38.898762166666664, "is_reserved": 0, "is_disabled": 0, "fusion_lat": 0.0}, {"fusion_lon": 0.0, "bike_id": "6191cd175ce5bb05d96a1e78ec205482", "name": "6191cd175ce5bb05d96a1e78ec205482", "type": "electric_scooter", "lon": -77.07302433333334, "rental_uris": {"android": "https://dc.lft.to/lastmile_qr_scan", "ios": "https://dc.lft.to/lastmile_qr_scan"}, "lat": 38.921628166666665, "is_reserved": 0, "is_disabled": 0, "fusion_lat": 0.0}, {"fusion_lon": 0.0, "bike_id": "b738b78662ed2f410bf21fea4af05866", "name": "b738b78662ed2f410bf21fea4af05866", "type": "electric_bike", "lon": -77.04302683333333, "rental_uris": {"android": "https://dc.lft.to/lastmile_qr_scan", "ios": "https://dc.lft.to/lastmile_qr_scan"}, "lat": 39.05447483333333, "is_reserved": 0, "is_disabled": 0, "fusion_lat": 0.0}, {"fusion_lon": 0.0, "bike_id": "ec1db5570d5ed0b04c42c8c81940cdfb", "name": "ec1db5570d5ed0b04c42c8c81940cdfb", "type": "electric_scooter", "lon": -77.018169, "rental_uris": {"android": "https://dc.lft.to/lastmile_qr_scan", "ios": "https://dc.lft.to/lastmile_qr_scan"}, "lat": 38.92203716666667, "is_reserved": 0, "is_disabled": 0, "fusion_lat": 0.0}, {"fusion_lon": 0.0, "bike_id": "fa7338f819f6584ff1d553f8b04d0fcf", "name": "fa7338f819f6584ff1d553f8b04d0fcf", "type": "electric_scooter", "lon": -76.99858566666667, "rental_uris": {"android": "https://dc.lft.to/lastmile_qr_scan", "ios": "https://dc.lft.to/lastmile_qr_scan"}, "lat": 38.908980166666666, "is_reserved": 0, "is_disabled": 0, "fusion_lat": 0.0}, {"fusion_lon": 0.0, "bike_id": "d1923511d6b0cf2f181f643329ad46ab", "name": "d1923511d6b0cf2f181f643329ad46ab", "type": "electric_scooter", "lon": -77.038783, "rental_uris": {"android": "https://dc.lft.to/lastmile_qr_scan", "ios": "https://dc.lft.to/lastmile_qr_scan"}, "lat": 38.934333, "is_reserved": 0, "is_disabled": 0, "fusion_lat": 0.0}, {"fusion_lon": 0.0, "bike_id": "862a65d5d7b19509bc189934a1f35738", "name": "862a65d5d7b19509bc189934a1f35738", "type": "electric_bike", "lon": -77.05113766666666, "rental_uris": {"android": "https://dc.lft.to/lastmile_qr_scan", "ios": "https://dc.lft.to/lastmile_qr_scan"}, "lat": 38.945659166666665, "is_reserved": 0, "is_disabled": 0, "fusion_lat": 0.0}, {"fusion_lon": 0.0, "bike_id": "4b30c83c4f04b07490708556871b9d42", "name": "4b30c83c4f04b07490708556871b9d42", "type": "electric_bike", "lon": -77.00008283333334, "rental_uris": {"android": "https://dc.lft.to/lastmile_qr_scan", "ios": "https://dc.lft.to/lastmile_qr_scan"}, "lat": 38.923937, "is_reserved": 0, "is_disabled": 0, "fusion_lat": 0.0}, {"fusion_lon": 0.0, "bike_id": "f9cdde5f11b9cc4760b5d122529c108d", "name": "f9cdde5f11b9cc4760b5d122529c108d", "type": "electric_scooter", "lon": -76.98920516666666, "rental_uris": {"android": "https://dc.lft.to/lastmile_qr_scan", "ios": "https://dc.lft.to/lastmile_qr_scan"}, "lat": 38.882054833333335, "is_reserved": 0, "is_disabled": 0, "fusion_lat": 0.0}, {"fusion_lon": 0.0, "bike_id": "5ac6210faa53924939636800d266d7f2", "name": "5ac6210faa53924939636800d266d7f2", "type": "electric_bike", "lon": -77.05414, "rental_uris": {"android": "https://dc.lft.to/lastmile_qr_scan", "ios": "https://dc.lft.to/lastmile_qr_scan"}, "lat": 38.848896833333335, "is_reserved": 0, "is_disabled": 0, "fusion_lat": 0.0}, {"fusion_lon": 0.0, "bike_id": "2308b93a373251222ff4de1d3ba2aa57", "name": "2308b93a373251222ff4de1d3ba2aa57", "type": "electric_bike", "lon": -77.107139, "rental_uris": {"android": "https://dc.lft.to/lastmile_qr_scan", "ios": "https://dc.lft.to/lastmile_qr_scan"}, "lat": 38.855528, "is_reserved": 0, "is_disabled": 0, "fusion_lat": 0.0}, {"fusion_lon": 0.0, "bike_id": "c463c265480f63ef9dc2f5e7ac38ce33", "name": "c463c265480f63ef9dc2f5e7ac38ce33", "type": "electric_scooter", "lon": -77.03932433333334, "rental_uris": {"android": "https://dc.lft.to/lastmile_qr_scan", "ios": "https://dc.lft.to/lastmile_qr_scan"}, "lat": 38.9249415, "is_reserved": 0, "is_disabled": 0, "fusion_lat": 0.0}, {"fusion_lon": 0.0, "bike_id": "5754ad8be2ac779ca66671e9418fc6a0", "name": "5754ad8be2ac779ca66671e9418fc6a0", "type": "electric_scooter", "lon": -77.0636235, "rental_uris": {"android": "https://dc.lft.to/lastmile_qr_scan", "ios": "https://dc.lft.to/lastmile_qr_scan"}, "lat": 38.9441835, "is_reserved": 0, "is_disabled": 0, "fusion_lat": 0.0}, {"fusion_lon": 0.0, "bike_id": "d2d83c36540e2e377fe0671589dfeca7", "name": "d2d83c36540e2e377fe0671589dfeca7", "type": "electric_scooter", "lon": -77.032111, "rental_uris": {"android": "https://dc.lft.to/lastmile_qr_scan", "ios": "https://dc.lft.to/lastmile_qr_scan"}, "lat": 38.912503666666666, "is_reserved": 0, "is_disabled": 0, "fusion_lat": 0.0}, {"fusion_lon": 0.0, "bike_id": "ece9e9c796c16f64a22db24a19e950cf", "name": "ece9e9c796c16f64a22db24a19e950cf", "type": "electric_scooter", "lon": -77.0444935, "rental_uris": {"android": "https://dc.lft.to/lastmile_qr_scan", "ios": "https://dc.lft.to/lastmile_qr_scan"}, "lat": 38.90991433333333, "is_reserved": 0, "is_disabled": 0, "fusion_lat": 0.0}, {"fusion_lon": 0.0, "bike_id": "47ade5f60a1b0fd763c1633755e3a9d8", "name": "47ade5f60a1b0fd763c1633755e3a9d8", "type": "electric_scooter", "lon": -77.0414715, "rental_uris": {"android": "https://dc.lft.to/lastmile_qr_scan", "ios": "https://dc.lft.to/lastmile_qr_scan"}, "lat": 38.915640833333335, "is_reserved": 0, "is_disabled": 0, "fusion_lat": 0.0}, {"fusion_lon": 0.0, "bike_id": "5da0c64c19008c1ff0835916340ff3d4", "name": "5da0c64c19008c1ff0835916340ff3d4", "type": "electric_scooter", "lon": -77.02777116666667, "rental_uris": {"android": "https://dc.lft.to/lastmile_qr_scan", "ios": "https://dc.lft.to/lastmile_qr_scan"}, "lat": 38.89220983333333, "is_reserved": 0, "is_disabled": 0, "fusion_lat": 0.0}, {"fusion_lon": 0.0, "bike_id": "9c7c6b055d5a14092e4f8112106c7f56", "name": "9c7c6b055d5a14092e4f8112106c7f56", "type": "electric_scooter", "lon": -76.9643435, "rental_uris": {"android": "https://dc.lft.to/lastmile_qr_scan", "ios": "https://dc.lft.to/lastmile_qr_scan"}, "lat": 38.934656, "is_reserved": 0, "is_disabled": 0, "fusion_lat": 0.0}, {"fusion_lon": 0.0, "bike_id": "c618190bd31799a827ef3a3185971caa", "name": "c618190bd31799a827ef3a3185971caa", "type": "electric_scooter", "lon": -77.01681316666667, "rental_uris": {"android": "https://dc.lft.to/lastmile_qr_scan", "ios": "https://dc.lft.to/lastmile_qr_scan"}, "lat": 38.883167, "is_reserved": 0, "is_disabled": 0, "fusion_lat": 0.0}, {"fusion_lon": 0.0, "bike_id": "17ef7e040f1aae7a6877929c117afdfc", "name": "17ef7e040f1aae7a6877929c117afdfc", "type": "electric_scooter", "lon": -77.02389333333333, "rental_uris": {"android": "https://dc.lft.to/lastmile_qr_scan", "ios": "https://dc.lft.to/lastmile_qr_scan"}, "lat": 38.905870666666665, "is_reserved": 0, "is_disabled": 0, "fusion_lat": 0.0}, {"fusion_lon": 0.0, "bike_id": "7e4b5360b2afa83f9a26d6a30118285e", "name": "7e4b5360b2afa83f9a26d6a30118285e", "type": "electric_scooter", "lon": -76.99602183333333, "rental_uris": {"android": "https://dc.lft.to/lastmile_qr_scan", "ios": "https://dc.lft.to/lastmile_qr_scan"}, "lat": 38.864666666666665, "is_reserved": 0, "is_disabled": 0, "fusion_lat": 0.0}, {"fusion_lon": 0.0, "bike_id": "c7a9178e32a5da5c22f5869843d6e6cd", "name": "c7a9178e32a5da5c22f5869843d6e6cd", "type": "electric_scooter", "lon": -77.050347, "rental_uris": {"android": "https://dc.lft.to/lastmile_qr_scan", "ios": "https://dc.lft.to/lastmile_qr_scan"}, "lat": 38.898302666666666, "is_reserved": 0, "is_disabled": 0, "fusion_lat": 0.0}, {"fusion_lon": 0.0, "bike_id": "115d6ab5a1db926dd7137cdc90c007ad", "name": "115d6ab5a1db926dd7137cdc90c007ad", "type": "electric_scooter", "lon": -77.03440916666666, "rental_uris": {"android": "https://dc.lft.to/lastmile_qr_scan", "ios": "https://dc.lft.to/lastmile_qr_scan"}, "lat": 38.905833666666666, "is_reserved": 0, "is_disabled": 0, "fusion_lat": 0.0}, {"fusion_lon": 0.0, "bike_id": "14c8716b6c8e1ddf7bebf626ad44a2d5", "name": "14c8716b6c8e1ddf7bebf626ad44a2d5", "type": "electric_scooter", "lon": -77.008102, "rental_uris": {"android": "https://dc.lft.to/lastmile_qr_scan", "ios": "https://dc.lft.to/lastmile_qr_scan"}, "lat": 38.8764095, "is_reserved": 0, "is_disabled": 0, "fusion_lat": 0.0}, {"fusion_lon": 0.0, "bike_id": "6f871680bfc48ab8076dd0bb96661b84", "name": "6f871680bfc48ab8076dd0bb96661b84", "type": "electric_scooter", "lon": -76.9950265, "rental_uris": {"android": "https://dc.lft.to/lastmile_qr_scan", "ios": "https://dc.lft.to/lastmile_qr_scan"}, "lat": 38.8858175, "is_reserved": 0, "is_disabled": 0, "fusion_lat": 0.0}, {"fusion_lon": 0.0, "bike_id": "18a8df830ba427201b106a39b35225f4", "name": "18a8df830ba427201b106a39b35225f4", "type": "electric_scooter", "lon": -77.01617283333333, "rental_uris": {"android": "https://dc.lft.to/lastmile_qr_scan", "ios": "https://dc.lft.to/lastmile_qr_scan"}, "lat": 38.90600533333333, "is_reserved": 0, "is_disabled": 0, "fusion_lat": 0.0}, {"fusion_lon": 0.0, "bike_id": "f437c853f1ad8387423dd6d7ba80aec8", "name": "f437c853f1ad8387423dd6d7ba80aec8", "type": "electric_scooter", "lon": -77.0139235, "rental_uris": {"android": "https://dc.lft.to/lastmile_qr_scan", "ios": "https://dc.lft.to/lastmile_qr_scan"}, "lat": 38.880266, "is_reserved": 0, "is_disabled": 0, "fusion_lat": 0.0}, {"fusion_lon": 0.0, "bike_id": "c0579aca92dc5437fb5b13d3b6c5fc51", "name": "c0579aca92dc5437fb5b13d3b6c5fc51", "type": "electric_scooter", "lon": -77.00192883333334, "rental_uris": {"android": "https://dc.lft.to/lastmile_qr_scan", "ios": "https://dc.lft.to/lastmile_qr_scan"}, "lat": 38.90005583333333, "is_reserved": 0, "is_disabled": 0, "fusion_lat": 0.0},