{"data": {"bikes": [{"bike_id": "091b2de33f77edb84d44d55eaac8c8e0", "is_reserved": 0, "fusion_lon": 0.0, "lat": 38.9036915, "is_disabled": 0, "name": "091b2de33f77edb84d44d55eaac8c8e0", "fusion_lat": 0.0, "rental_uris": {"ios": "https://dc.lft.to/lastmile_qr_scan", "android": "https://dc.lft.to/lastmile_qr_scan"}, "lon": -76.98509766666666, "type": "electric_scooter"}, {"bike_id": "05a2fe9e3463d6d28eaa4c9746f3f218", "is_reserved": 0, "fusion_lon": 0.0, "lat": 38.88736083333333, "is_disabled": 0, "name": "05a2fe9e3463d6d28eaa4c9746f3f218", "fusion_lat": 0.0, "rental_uris": {"ios": "https://dc.lft.to/lastmile_qr_scan", "android": "https://dc.lft.to/lastmile_qr_scan"}, "lon": -77.02863666666667, "type": "electric_scooter"}, {"bike_id": "c14d5f8d46b7563745b7e798891b3c1d", "is_reserved": 0, "fusion_lon": 0.0, "lat": 38.93899, "is_disabled": 0, "name": "c14d5f8d46b7563745b7e798891b3c1d", "fusion_lat": 0.0, "rental_uris": {"ios": "https://dc.lft.to/lastmile_qr_scan", "android": "https://dc.lft.to/lastmile_qr_scan"}, "lon": -77.02811183333333, "type": "electric_bike"}, {"bike_id": "fc02646e851cf6ac034fcf40a4093015", "is_reserved": 0, "fusion_lon": 0.0, "lat": 38.90562166666667, "is_disabled": 0, "name": "fc02646e851cf6ac034fcf40a4093015", "fusion_lat": 0.0, "rental_uris": {"ios": "https://dc.lft.to/lastmile_qr_scan", "android": "https://dc.lft.to/lastmile_qr_scan"}, "lon": -76.98135683333334, "type": "electric_scooter"}, {"bike_id": "6c6da2acdd416ff0a3e332bd5bb749f4", "is_reserved": 0, "fusion_lon": 0.0, "lat": 38.940126166666666, "is_disabled": 0, "name": "6c6da2acdd416ff0a3e332bd5bb749f4", "fusion_lat": 0.0, "rental_uris": {"ios": "https://dc.lft.to/lastmile_qr_scan", "android": "https://dc.lft.to/lastmile_qr_scan"}, "lon": -77.07169483333334, "type": "electric_scooter"}, {"bike_id": "f1bbdc673c1b1817a3cdc85971951d63", "is_reserved": 0, "fusion_lon": 0.0, "lat": 38.904068333333335, "is_disabled": 0, "name": "f1bbdc673c1b1817a3cdc85971951d63", "fusion_lat": 0.0, "rental_uris": {"ios": "https://dc.lft.to/lastmile_qr_scan", "android": "https://dc.lft.to/lastmile_qr_scan"}, "lon": -76.97326233333334, "type": "electric_scooter"}, {"bike_id": "05b0a65a48199159dbddbef69cbd2803", "is_reserved": 0, "fusion_lon": 0.0, "lat": 38.903989333333335, "is_disabled": 0, "name": "05b0a65a48199159dbddbef69cbd2803", "fusion_lat": 0.0, "rental_uris": {"ios": "https://dc.lft.to/lastmile_qr_scan", "android": "https://dc.lft.to/lastmile_qr_scan"}, "lon": -77.024737, "type": "electric_scooter"}, {"bike_id": "ff03136a27c8ce8b12d9e5bc7600569e", "is_reserved": 0, "fusion_lon": 0.0, "lat": 38.92011016666667, "is_disabled": 0, "name": "ff03136a27c8ce8b12d9e5bc7600569e", "fusion_lat": 0.0, "rental_uris": {"ios": "https://dc.lft.to/lastmile_qr_scan", "android": "https://dc.lft.to/lastmile_qr_scan"}, "lon": -77.038642, "type": "electric_scooter"}, {"bike_id": "e366a52277ce9d92ee40b720a47dd9dc", "is_reserved": 0, "fusion_lon": 0.0, "lat": 38.903685833333334, "is_disabled": 0, "name": "e366a52277ce9d92ee40b720a47dd9dc", "fusion_lat": 0.0, "rental_uris": {"ios": "https://dc.lft.to/lastmile_qr_scan", "android": "https://dc.lft.to/lastmile_qr_scan"}, "lon": -77.04190466666667, "type": "electric_scooter"}, {"bike_id": "1986c57da0d98712d7342f889c1b2883", "is_reserved": 0, "fusion_lon": 0.0, "lat": 38.903949, "is_disabled": 0, "name": "1986c57da0d98712d7342f889c1b2883", "fusion_lat": 0.0, "rental_uris": {"ios": "https://dc.lft.to/lastmile_qr_scan", "android": "https://dc.lft.to/lastmile_qr_scan"}, "lon": -77.01762066666667, "type": "electric_scooter"}, {"bike_id": "ac6e6a1b71f4d50ae467ef4f84584523", "is_reserved": 0, "fusion_lon": 0.0, "lat": 38.9050355, "is_disabled": 0, "name": "ac6e6a1b71f4d50ae467ef4f84584523", "fusion_lat": 0.0, "rental_uris": {"ios": "https://dc.lft.to/lastmile_qr_scan", "android": "https://dc.lft.to/lastmile_qr_scan"}, "lon": -76.99014216666667, "type": "electric_scooter"}, {"bike_id": "62a980fd1231c10fe7fce02b7854b0c6", "is_reserved": 0, "fusion_lon": 0.0, "lat": 38.904739, "is_disabled": 0, "name": "62a980fd1231c10fe7fce02b7854b0c6", "fusion_lat": 0.0, "rental_uris": {"ios": "https://dc.lft.to/lastmile_qr_scan", "android": "https://dc.lft.to/lastmile_qr_scan"}, "lon": -77.04649, "type": "electric_scooter"}, {"bike_id": "e3b751db88992a4521d63dbc759f6cb0", "is_reserved": 0, "fusion_lon": 0.0, "lat": 38.88503166666667, "is_disabled": 0, "name": "e3b751db88992a4521d63dbc759f6cb0", "fusion_lat": 0.0, "rental_uris": {"ios": "https://dc.lft.to/lastmile_qr_scan", "android": "https://dc.lft.to/lastmile_qr_scan"}, "lon": -77.00564566666667, "type": "electric_scooter"}, {"bike_id": "cf0cc45120d44edd510cca9ce33446e8", "is_reserved": 0, "fusion_lon": 0.0, "lat": 38.91712733333333, "is_disabled": 0, "name": "cf0cc45120d44edd510cca9ce33446e8", "fusion_lat": 0.0, "rental_uris": {"ios": "https://dc.lft.to/lastmile_qr_scan", "android": "https://dc.lft.to/lastmile_qr_scan"}, "lon": -77.01210433333334, "type": "electric_scooter"}, {"bike_id": "d06e3932dc7fd60c6b2ff9a29a30990c", "is_reserved": 0, "fusion_lon": 0.0, "lat": 38.91357933333333, "is_disabled": 0, "name": "d06e3932dc7fd60c6b2ff9a29a30990c", "fusion_lat": 0.0, "rental_uris": {"ios": "https://dc.lft.to/lastmile_qr_scan", "android": "https://dc.lft.to/lastmile_qr_scan"}, "lon": -77.01754566666666, "type": "electric_scooter"}, {"bike_id": "67e33ab92a84ba8dbdcee77eab2f39db", "is_reserved": 0, "fusion_lon": 0.0, "lat": 38.92681566666667, "is_disabled": 0, "name": "67e33ab92a84ba8dbdcee77eab2f39db", "fusion_lat": 0.0, "rental_uris": {"ios": "https://dc.lft.to/lastmile_qr_scan", "android": "https://dc.lft.to/lastmile_qr_scan"}, "lon": -77.06635833333333, "type": "electric_scooter"}, {"bike_id": "2055099e592e41f4329ef23cbceec894", "is_reserved": 0, "fusion_lon": 0.0, "lat": 38.921285, "is_disabled": 0, "name": "2055099e592e41f4329ef23cbceec894", "fusion_lat": 0.0, "rental_uris": {"ios": "https://dc.lft.to/lastmile_qr_scan", "android": "https://dc.lft.to/lastmile_qr_scan"}, "lon": -77.01091233333334, "type": "electric_bike"}, {"bike_id": "3b48f2f056965a2957a97536b73fcc43", "is_reserved": 0, "fusion_lon": 0.0, "lat": 38.9140455, "is_disabled": 0, "name": "3b48f2f056965a2957a97536b73fcc43", "fusion_lat": 0.0, "rental_uris": {"ios": "https://dc.lft.to/lastmile_qr_scan", "android": "https://dc.lft.to/lastmile_qr_scan"}, "lon": -77.03174916666667, "type": "electric_scooter"}, {"bike_id": "1da5b281b2f07b0c3d472dcb5db4f454", "is_reserved": 0, "fusion_lon": 0.0, "lat": 38.9040505, "is_disabled": 0, "name": "1da5b281b2f07b0c3d472dcb5db4f454", "fusion_lat": 0.0, "rental_uris": {"ios": "https://dc.lft.to/lastmile_qr_scan", "android": "https://dc.lft.to/lastmile_qr_scan"}, "lon": -77.03254966666667, "type": "electric_scooter"}, {"bike_id": "4abc5ad806c27a2e64f061281be813de", "is_reserved": 0, "fusion_lon": 0.0, "lat": 38.8922185, "is_disabled": 0, "name": "4abc5ad806c27a2e64f061281be813de", "fusion_lat": 0.0, "rental_uris": {"ios": "https://dc.lft.to/lastmile_qr_scan", "android": "https://dc.lft.to/lastmile_qr_scan"}, "lon": -77.02623916666667, "type": "electric_scooter"}, {"bike_id": "25c998944a4ce8b09242176ae1584633", "is_reserved": 0, "fusion_lon": 0.0, "lat": 38.92072566666667, "is_disabled": 0, "name": "25c998944a4ce8b09242176ae1584633", "fusion_lat": 0.0, "rental_uris": {"ios": "https://dc.lft.to/lastmile_qr_scan", "android": "https://dc.lft.to/lastmile_qr_scan"}, "lon": -77.02426666666666, "type": "electric_scooter"}, {"bike_id": "562c93e48d16d408d3abe566e14215a5", "is_reserved": 0, "fusion_lon": 0.0, "lat": 38.93347833333333, "is_disabled": 0, "name": "562c93e48d16d408d3abe566e14215a5", "fusion_lat": 0.0, "rental_uris": {"ios": "https://dc.lft.to/lastmile_qr_scan", "android": "https://dc.lft.to/lastmile_qr_scan"}, "lon": -77.05864033333333, "type": "electric_scooter"}, {"bike_id": "62f53f060011a0beba749e84f755f480", "is_reserved": 0, "fusion_lon": 0.0, "lat": 38.9209345, "is_disabled": 0, "name": "62f53f060011a0beba749e84f755f480", "fusion_lat": 0.0, "rental_uris": {"ios": "https://dc.lft.to/lastmile_qr_scan", "android": "https://dc.lft.to/lastmile_qr_scan"}, "lon": -77.07465, "type": "electric_scooter"}, {"bike_id": "3ec4804ca9cf9d91234d160a2f9d9f49", "is_reserved": 0, "fusion_lon": 0.0, "lat": 38.900233, "is_disabled": 0, "name": "3ec4804ca9cf9d91234d160a2f9d9f49", "fusion_lat": 0.0, "rental_uris": {"ios": "https://dc.lft.to/lastmile_qr_scan", "android": "https://dc.lft.to/lastmile_qr_scan"}, "lon": -77.01127266666667, "type": "electric_scooter"}, {"bike_id": "c34af1a71c18c633d05f1ff0ce68fc84", "is_reserved": 0, "fusion_lon": 0.0, "lat": 38.90131933333333, "is_disabled": 0, "name": "c34af1a71c18c633d05f1ff0ce68fc84", "fusion_lat": 0.0, "rental_uris": {"ios": "https://dc.lft.to/lastmile_qr_scan", "android": "https://dc.lft.to/lastmile_qr_scan"}, "lon": -77.044993, "type": "electric_scooter"}, {"bike_id": "40ebbdd53fdba39908a48e267a9150de", "is_reserved": 0, "fusion_lon": 0.0, "lat": 38.862436833333334, "is_disabled": 0, "name": "40ebbdd53fdba39908a48e267a9150de", "fusion_lat": 0.0, "rental_uris": {"ios": "https://dc.lft.to/lastmile_qr_scan", "android": "https://dc.lft.to/lastmile_qr_scan"}, "lon": -76.994866, "type": "electric_scooter"}, {"bike_id": "fd3df5b4444d581f3d03a22684efe3b6", "is_reserved": 0, "fusion_lon": 0.0, "lat": 38.905040666666665, "is_disabled": 0, "name": "fd3df5b4444d581f3d03a22684efe3b6", "fusion_lat": 0.0, "rental_uris": {"ios": "https://dc.lft.to/lastmile_qr_scan", "android": "https://dc.lft.to/lastmile_qr_scan"}, "lon": -77.04159966666667, "type": "electric_scooter"}, {"bike_id": "097b6dc073a39f521e44235aab628318", "is_reserved": 0, "fusion_lon": 0.0, "lat": 38.911088666666664, "is_disabled": 0, "name": "097b6dc073a39f521e44235aab628318", "fusion_lat": 0.0, "rental_uris": {"ios": "https://dc.lft.to/lastmile_qr_scan", "android": "https://dc.lft.to/lastmile_qr_scan"}, "lon": -77.003722, "type": "electric_scooter"}, {"bike_id": "0c69d6da02deed1619e2f5de0f282a1a", "is_reserved": 0, "fusion_lon": 0.0, "lat": 38.89822383333333, "is_disabled": 0, "name": "0c69d6da02deed1619e2f5de0f282a1a", "fusion_lat": 0.0, "rental_uris": {"ios": "https://dc.lft.to/lastmile_qr_scan", "android": "https://dc.lft.to/lastmile_qr_scan"}, "lon": -77.03342866666667, "type": "electric_scooter"}, {"bike_id": "cf6dab08fea7897f65cae948fca400c7", "is_reserved": 0, "fusion_lon": 0.0, "lat": 38.923357333333335, "is_disabled": 0, "name": "cf6dab08fea7897f65cae948fca400c7", "fusion_lat": 0.0, "rental_uris": {"ios": "https://dc.lft.to/lastmile_qr_scan", "android": "https://dc.lft.to/lastmile_qr_scan"}, "lon": -77.03517266666667, "type": "electric_scooter"}, {"bike_id": "59c75c9147b8d0a05cc83b91e233a704", "is_reserved": 0, "fusion_lon": 0.0, "lat": 38.8966365, "is_disabled": 0, "name": "59c75c9147b8d0a05cc83b91e233a704", "fusion_lat": 0.0, "rental_uris": {"ios": "https://dc.lft.to/lastmile_qr_scan", "android": "https://dc.lft.to/lastmile_qr_scan"}, "lon": -77.02631266666667, "type": "electric_scooter"}, {"bike_id": "7b883230b69d3c2c14e7d87f3603f8cb", "is_reserved": 0, "fusion_lon": 0.0, "lat": 38.90331116666667, "is_disabled": 0, "name": "7b883230b69d3c2c14e7d87f3603f8cb", "fusion_lat": 0.0, "rental_uris": {"ios": "https://dc.lft.to/lastmile_qr_scan", "android": "https://dc.lft.to/lastmile_qr_scan"}, "lon": -77.06597983333333, "type": "electric_scooter"}, {"bike_id": "72a8b0fb66ce72825bbfe6ce55a3cd71", "is_reserved": 0, "fusion_lon": 0.0, "lat": 38.898414, "is_disabled": 0, "name": "72a8b0fb66ce72825bbfe6ce55a3cd71", "fusion_lat": 0.0, "rental_uris": {"ios": "https://dc.lft.to/lastmile_qr_scan", "android": "https://dc.lft.to/lastmile_qr_scan"}, "lon": -76.99508216666666, "type": "electric_scooter"}, {"bike_id": "642caf9dfa3a70a2331c9c7837fb98fa", "is_reserved": 0, "fusion_lon": 0.0, "lat": 38.902615833333336, "is_disabled": 0, "name": "642caf9dfa3a70a2331c9c7837fb98fa", "fusion_lat": 0.0, "rental_uris": {"ios": "https://dc.lft.to/lastmile_qr_scan", "android": "https://dc.lft.to/lastmile_qr_scan"}, "lon": -77.03833383333334, "type": "electric_scooter"}, {"bike_id": "40f015815b1fa57ba4514fde818be6f2", "is_reserved": 0, "fusion_lon": 0.0, "lat": 38.890966166666665, "is_disabled": 0, "name": "40f015815b1fa57ba4514fde818be6f2", "fusion_lat": 0.0, "rental_uris": {"ios": "https://dc.lft.to/lastmile_qr_scan", "android": "https://dc.lft.to/lastmile_qr_scan"}, "lon": -76.94393766666667, "type": "electric_scooter"}, {"bike_id": "b9ed1067cbccb85809eaee0d806ddd83", "is_reserved": 0, "fusion_lon": 0.0, "lat": 38.9276895, "is_disabled": 0, "name": "b9ed1067cbccb85809eaee0d806ddd83", "fusion_lat": 0.0, "rental_uris": {"ios": "https://dc.lft.to/lastmile_qr_scan", "android": "https://dc.lft.to/lastmile_qr_scan"}, "lon": -77.032454, "type": "electric_scooter"}, {"bike_id": "69c3ac4ee7f3bb304a38ba432de9f627", "is_reserved": 0, "fusion_lon": 0.0, "lat": 38.9097745, "is_disabled": 0, "name": "69c3ac4ee7f3bb304a38ba432de9f627", "fusion_lat": 0.0, "rental_uris": {"ios": "https://dc.lft.to/lastmile_qr_scan", "android": "https://dc.lft.to/lastmile_qr_scan"}, "lon": -77.05264016666666, "type": "electric_scooter"}, {"bike_id": "6be39583f0faf069c7aea1f167b43086", "is_reserved": 0, "fusion_lon": 0.0, "lat": 38.92369033333333, "is_disabled": 0, "name": "6be39583f0faf069c7aea1f167b43086", "fusion_lat": 0.0, "rental_uris": {"ios": "https://dc.lft.to/lastmile_qr_scan", "android": "https://dc.lft.to/lastmile_qr_scan"}, "lon": -77.01912816666666, "type": "electric_scooter"}, {"bike_id": "e80521e1d318762a0189ef334ed27e5c", "is_reserved": 0, "fusion_lon": 0.0, "lat": 38.9008485, "is_disabled": 0, "name": "e80521e1d318762a0189ef334ed27e5c", "fusion_lat": 0.0, "rental_uris": {"ios": "https://dc.lft.to/lastmile_qr_scan", "android": "https://dc.lft.to/lastmile_qr_scan"}, "lon": -76.93870983333333, "type": "electric_scooter"}, {"bike_id": "61caffbb5550d5b096b0ceac5bf64e0b", "is_reserved": 0, "fusion_lon": 0.0, "lat": 38.929695833333334, "is_disabled": 0, "name": "61caffbb5550d5b096b0ceac5bf64e0b", "fusion_lat": 0.0, "rental_uris": {"ios": "https://dc.lft.to/lastmile_qr_scan", "android": "https://dc.lft.to/lastmile_qr_scan"}, "lon": -77.005247, "type": "electric_scooter"}, {"bike_id": "aac287dffea3c8940078739c7e6e4484", "is_reserved": 0, "fusion_lon": 0.0, "lat": 38.918025666666665, "is_disabled": 0, "name": "aac287dffea3c8940078739c7e6e4484", "fusion_lat": 0.0, "rental_uris": {"ios": "https://dc.lft.to/lastmile_qr_scan", "android": "https://dc.lft.to/lastmile_qr_scan"}, "lon": -77.035492, "type": "electric_scooter"}, {"bike_id": "19fc60dcba706b182d374db1622ef3b7", "is_reserved": 0, "fusion_lon": 0.0, "lat": 38.92766683333333, "is_disabled": 0, "name": "19fc60dcba706b182d374db1622ef3b7", "fusion_lat": 0.0, "rental_uris": {"ios": "https://dc.lft.to/lastmile_qr_scan", "android": "https://dc.lft.to/lastmile_qr_scan"}, "lon": -77.02779316666667, "type": "electric_scooter"}, {"bike_id": "d13fbaaabb2881feeea98f3f67aaa034", "is_reserved": 0, "fusion_lon": 0.0, "lat": 38.9247415, "is_disabled": 0, "name": "d13fbaaabb2881feeea98f3f67aaa034", "fusion_lat": 0.0, "rental_uris": {"ios": "https://dc.lft.to/lastmile_qr_scan", "android": "https://dc.lft.to/lastmile_qr_scan"}, "lon": -77.0520095, "type": "electric_scooter"}, {"bike_id": "31be98451c9ac365f8ce33c73de0b8c7", "is_reserved": 0, "fusion_lon": 0.0, "lat": 38.93161833333333, "is_disabled": 0, "name": "31be98451c9ac365f8ce33c73de0b8c7", "fusion_lat": 0.0, "rental_uris": {"ios": "https://dc.lft.to/lastmile_qr_scan", "android": "https://dc.lft.to/lastmile_qr_scan"}, "lon": -77.05639616666667, "type": "electric_scooter"}, {"bike_id": "dff01de95a372ba792b9f2dec8b82fe2", "is_reserved": 0, "fusion_lon": 0.0, "lat": 38.90017066666667, "is_disabled": 0, "name": "dff01de95a372ba792b9f2dec8b82fe2", "fusion_lat": 0.0, "rental_uris": {"ios": "https://dc.lft.to/lastmile_qr_scan", "android": "https://dc.lft.to/lastmile_qr_scan"}, "lon": -77.01542633333334, "type": "electric_scooter"}, {"bike_id": "3563b6ddf874a603c88c802909144def", "is_reserved": 0, "fusion_lon": 0.0, "lat": 38.909467666666664, "is_disabled": 0, "name": "3563b6ddf874a603c88c802909144def", "fusion_lat": 0.0, "rental_uris": {"ios": "https://dc.lft.to/lastmile_qr_scan", "android": "https://dc.lft.to/lastmile_qr_scan"}, "lon": -77.038413, "type": "electric_scooter"}, {"bike_id": "7ede1d85d58b57a9525b6d76ee0628d1", "is_reserved": 0, "fusion_lon": 0.0, "lat": 38.8996405, "is_disabled": 0, "name": "7ede1d85d58b57a9525b6d76ee0628d1", "fusion_lat": 0.0, "rental_uris": {"ios": "https://dc.lft.to/lastmile_qr_scan", "android": "https://dc.lft.to/lastmile_qr_scan"}, "lon": -76.926322, "type": "electric_scooter"}, {"bike_id": "642bd92ec31987ad5625d815779fa35b", "is_reserved": 0, "fusion_lon": 0.0, "lat": 38.88769683333334, "is_disabled": 0, "name": "642bd92ec31987ad5625d815779fa35b", "fusion_lat": 0.0, "rental_uris": {"ios": "https://dc.lft.to/lastmile_qr_scan", "android": "https://dc.lft.to/lastmile_qr_scan"}, "lon": -76.9326685, "type": "electric_scooter"}, {"bike_id": "790f3feb3ad11680f18aad354723a2b8", "is_reserved": 0, "fusion_lon": 0.0, "lat": 38.905334, "is_disabled": 0, "name": "790f3feb3ad11680f18aad354723a2b8", "fusion_lat": 0.0, "rental_uris": {"ios": "https://dc.lft.to/lastmile_qr_scan", "android": "https://dc.lft.to/lastmile_qr_scan"}, "lon": -76.998067, "type": "electric_bike"}, {"bike_id": "d25b2d622c1de8f73e3c0ac1cb65f689", "is_reserved": 0, "fusion_lon": 0.0, "lat": 38.90060733333333, "is_disabled": 0, "name": "d25b2d622c1de8f73e3c0ac1cb65f689", "fusion_lat": 0.0, "rental_uris": {"ios": "https://dc.lft.to/lastmile_qr_scan", "android": "https://dc.lft.to/lastmile_qr_scan"}, "lon": -76.93386066666666, "type": "electric_scooter"}, {"bike_id": "ac24afbb46a8260eb380f7c9f80b0a4a", "is_reserved": 0, "fusion_lon": 0.0, "lat": 38.90751516666667, "is_disabled": 0, "name": "ac24afbb46a8260eb380f7c9f80b0a4a", "fusion_lat": 0.0, "rental_uris": {"ios": "https://dc.lft.to/lastmile_qr_scan", "android": "https://dc.lft.to/lastmile_qr_scan"}, "lon": -77.03470283333333, "type": "electric_scooter"}, {"bike_id": "c9906333d4088d61c1a212e35dd05d77", "is_reserved": 0, "fusion_lon": 0.0, "lat": 38.919776, "is_disabled": 0, "name": "c9906333d4088d61c1a212e35dd05d77", "fusion_lat": 0.0, "rental_uris": {"ios": "https://dc.lft.to/lastmile_qr_scan", "android": "https://dc.lft.to/lastmile_qr_scan"}, "lon": -77.02600083333333, "type": "electric_scooter"}, {"bike_id": "64845b1142a846fefe8c4e9b6ede9051", "is_reserved": 0, "fusion_lon": 0.0, "lat": 38.90578133333333, "is_disabled": 0, "name": "64845b1142a846fefe8c4e9b6ede9051", "fusion_lat": 0.0, "rental_uris": {"ios": "https://dc.lft.to/lastmile_qr_scan", "android": "https://dc.lft.to/lastmile_qr_scan"}, "lon": -77.03453833333333, "type": "electric_scooter"}, {"bike_id": "aa57d7604217a9600faf7338c614e60b", "is_reserved": 0, "fusion_lon": 0.0, "lat": 38.91663283333333, "is_disabled": 0, "name": "aa57d7604217a9600faf7338c614e60b", "fusion_lat": 0.0, "rental_uris": {"ios": "https://dc.lft.to/lastmile_qr_scan", "android": "https://dc.lft.to/lastmile_qr_scan"}, "lon": -77.02711783333334, "type": "electric_scooter"}, {"bike_id": "9723e23f86165601582235eb3d672ebd", "is_reserved": 0, "fusion_lon": 0.0, "lat": 38.922854, "is_disabled": 0, "name": "9723e23f86165601582235eb3d672ebd", "fusion_lat": 0.0, "rental_uris": {"ios": "https://dc.lft.to/lastmile_qr_scan", "android": "https://dc.lft.to/lastmile_qr_scan"}, "lon": -77.03195866666667, "type": "electric_scooter"}, {"bike_id": "aed1cb56c45b26b7fad9668a44a67e51", "is_reserved": 0, "fusion_lon": 0.0, "lat": 38.86698766666667, "is_disabled": 0, "name": "aed1cb56c45b26b7fad9668a44a67e51", "fusion_lat": 0.0, "rental_uris": {"ios": "https://dc.lft.to/lastmile_qr_scan", "android": "https://dc.lft.to/lastmile_qr_scan"}, "lon": -76.9871045, "type": "electric_scooter"}, {"bike_id": "4c0f2761b59a341e692a880320188066", "is_reserved": 0, "fusion_lon": 0.0, "lat": 38.9229095, "is_disabled": 0, "name": "4c0f2761b59a341e692a880320188066", "fusion_lat": 0.0, "rental_uris": {"ios": "https://dc.lft.to/lastmile_qr_scan", "android": "https://dc.lft.to/lastmile_qr_scan"}, "lon": -77.02076433333333, "type": "electric_scooter"}, {"bike_id": "01893f772d66662dec10aa5a7afa7763", "is_reserved": 0, "fusion_lon": 0.0, "lat": 38.9057405, "is_disabled": 0, "name": "01893f772d66662dec10aa5a7afa7763", "fusion_lat": 0.0, "rental_uris": {"ios": "https://dc.lft.to/lastmile_qr_scan", "android": "https://dc.lft.to/lastmile_qr_scan"}, "lon": -77.02173283333333, "type": "electric_scooter"}, {"bike_id": "48f071e56165d7be26c1af5250df5e61", "is_reserved": 0, "fusion_lon": 0.0, "lat": 38.94149783333334, "is_disabled": 0, "name": "48f071e56165d7be26c1af5250df5e61", "fusion_lat": 0.0, "rental_uris": {"ios": "https://dc.lft.to/lastmile_qr_scan", "android": "https://dc.lft.to/lastmile_qr_scan"}, "lon": -77.03651383333333, "type": "electric_scooter"}, {"bike_id": "c0afe402d222cabf95423ffd08e05ec7", "is_reserved": 0, "fusion_lon": 0.0, "lat": 38.905570166666664, "is_disabled": 0, "name": "c0afe402d222cabf95423ffd08e05ec7", "fusion_lat": 0.0, "rental_uris": {"ios": "https://dc.lft.to/lastmile_qr_scan", "android": "https://dc.lft.to/lastmile_qr_scan"}, "lon": -76.997903, "type": "electric_bike"}, {"bike_id": "2478264d4d8fdd3da726fc7dd515a819", "is_reserved": 0, "fusion_lon": 0.0, "lat": 38.913274666666666, "is_disabled": 0, "name": "2478264d4d8fdd3da726fc7dd515a819", "fusion_lat": 0.0, "rental_uris": {"ios": "https://dc.lft.to/lastmile_qr_scan", "android": "https://dc.lft.to/lastmile_qr_scan"}, "lon": -77.03038483333333, "type": "electric_scooter"}, {"bike_id": "2c068d77bcce95f48518628f3631557a", "is_reserved": 0, "fusion_lon": 0.0, "lat": 38.9240405, "is_disabled": 0, "name": "2c068d77bcce95f48518628f3631557a", "fusion_lat": 0.0, "rental_uris": {"ios": "https://dc.lft.to/lastmile_qr_scan", "android": "https://dc.lft.to/lastmile_qr_scan"}, "lon": -77.02537966666667, "type": "electric_scooter"}, {"bike_id": "e92167e995d1566344ea14c3c57e3c2d", "is_reserved": 0, "fusion_lon": 0.0, "lat": 38.88437733333333, "is_disabled": 0, "name": "e92167e995d1566344ea14c3c57e3c2d", "fusion_lat": 0.0, "rental_uris": {"ios": "https://dc.lft.to/lastmile_qr_scan", "android": "https://dc.lft.to/lastmile_qr_scan"}, "lon": -76.95756733333333, "type": "electric_scooter"}, {"bike_id": "93ff6bf081bda4afbb6bf2146107b11f", "is_reserved": 0, "fusion_lon": 0.0, "lat": 38.909168333333334, "is_disabled": 0, "name": "93ff6bf081bda4afbb6bf2146107b11f", "fusion_lat": 0.0, "rental_uris": {"ios": "https://dc.lft.to/lastmile_qr_scan", "android": "https://dc.lft.to/lastmile_qr_scan"}, "lon": -77.02654333333334, "type": "electric_scooter"}, {"bike_id": "eb39480ff85cef157076356e93c78505", "is_reserved": 0, "fusion_lon": 0.0, "lat": 38.912781333333335, "is_disabled": 0, "name": "eb39480ff85cef157076356e93c78505", "fusion_lat": 0.0, "rental_uris": {"ios": "https://dc.lft.to/lastmile_qr_scan", "android": "https://dc.lft.to/lastmile_qr_scan"}, "lon": -77.02296183333333, "type": "electric_scooter"}, {"bike_id": "b3513f44874de2873863db7a0bc88031", "is_reserved": 0, "fusion_lon": 0.0, "lat": 38.918809833333334, "is_disabled": 0, "name": "b3513f44874de2873863db7a0bc88031", "fusion_lat": 0.0, "rental_uris": {"ios": "https://dc.lft.to/lastmile_qr_scan", "android": "https://dc.lft.to/lastmile_qr_scan"}, "lon": -76.971625, "type": "electric_scooter"}, {"bike_id": "282d1c3a5bb3eaa7fd8f8afd74ba3108", "is_reserved": 0, "fusion_lon": 0.0, "lat": 38.894853166666664, "is_disabled": 0, "name": "282d1c3a5bb3eaa7fd8f8afd74ba3108", "fusion_lat": 0.0, "rental_uris": {"ios": "https://dc.lft.to/lastmile_qr_scan", "android": "https://dc.lft.to/lastmile_qr_scan"}, "lon": -77.02199533333334, "type": "electric_scooter"}, {"bike_id": "e0d12fb73d41f278f5ab1f847fc7aa49", "is_reserved": 0, "fusion_lon": 0.0, "lat": 38.914903, "is_disabled": 0, "name": "e0d12fb73d41f278f5ab1f847fc7aa49", "fusion_lat": 0.0, "rental_uris": {"ios": "https://dc.lft.to/lastmile_qr_scan", "android": "https://dc.lft.to/lastmile_qr_scan"}, "lon": -77.0269465, "type": "electric_scooter"}, {"bike_id": "d00993a6a0b48682b970053fa10a9512", "is_reserved": 0, "fusion_lon": 0.0, "lat": 38.8992915, "is_disabled": 0, "name": "d00993a6a0b48682b970053fa10a9512", "fusion_lat": 0.0, "rental_uris": {"ios": "https://dc.lft.to/lastmile_qr_scan", "android": "https://dc.lft.to/lastmile_qr_scan"}, "lon": -77.05395433333334, "type": "electric_scooter"}, {"bike_id": "42c252179dd235607adffa5b721ebf72", "is_reserved": 0, "fusion_lon": 0.0, "lat": 38.94609416666667, "is_disabled": 0, "name": "42c252179dd235607adffa5b721ebf72", "fusion_lat": 0.0, "rental_uris": {"ios": "https://dc.lft.to/lastmile_qr_scan", "android": "https://dc.lft.to/lastmile_qr_scan"}, "lon": -77.035088, "type": "electric_scooter"}, {"bike_id": "8eb56935883092cfaa93908ed9a42877", "is_reserved": 0, "fusion_lon": 0.0, "lat": 38.94929116666667, "is_disabled": 0, "name": "8eb56935883092cfaa93908ed9a42877", "fusion_lat": 0.0, "rental_uris": {"ios": "https://dc.lft.to/lastmile_qr_scan", "android": "https://dc.lft.to/lastmile_qr_scan"}, "lon": -77.01935583333334, "type": "electric_scooter"}, {"bike_id": "7b6bda9e1488883d7663e6c4c8ab964f", "is_reserved": 0, "fusion_lon": 0.0, "lat": 38.94317816666667, "is_disabled": 0, "name": "7b6bda9e1488883d7663e6c4c8ab964f", "fusion_lat": 0.0, "rental_uris": {"ios": "https://dc.lft.to/lastmile_qr_scan", "android": "https://dc.lft.to/lastmile_qr_scan"}, "lon": -77.07387633333333, "type": "electric_scooter"}, {"bike_id": "e3941c12d7da2520a554ecf582f14f75", "is_reserved": 0, "fusion_lon": 0.0, "lat": 38.909757666666664, "is_disabled": 0, "name": "e3941c12d7da2520a554ecf582f14f75", "fusion_lat": 0.0, "rental_uris": {"ios": "https://dc.lft.to/lastmile_qr_scan", "android": "https://dc.lft.to/lastmile_qr_scan"}, "lon": -77.067065, "type": "electric_scooter"}, {"bike_id": "31b1c4890204cdad14578276d76efab7", "is_reserved": 0, "fusion_lon": 0.0, "lat": 38.883314, "is_disabled": 0, "name": "31b1c4890204cdad14578276d76efab7", "fusion_lat": 0.0, "rental_uris": {"ios": "https://dc.lft.to/lastmile_qr_scan", "android": "https://dc.lft.to/lastmile_qr_scan"}, "lon": -77.01762866666667, "type": "electric_scooter"}, {"bike_id": "2daed6c49f0a52bd1fa573ea9166c94f", "is_reserved": 0, "fusion_lon": 0.0, "lat": 38.90574566666667, "is_disabled": 0, "name": "2daed6c49f0a52bd1fa573ea9166c94f", "fusion_lat": 0.0, "rental_uris": {"ios": "https://dc.lft.to/lastmile_qr_scan", "android": "https://dc.lft.to/lastmile_qr_scan"}, "lon": -77.02467233333333, "type": "electric_scooter"}, {"bike_id": "e045febb1cf16aa5c5c2dadc0b8bc250", "is_reserved": 0, "fusion_lon": 0.0, "lat": 38.93113016666667, "is_disabled": 0, "name": "e045febb1cf16aa5c5c2dadc0b8bc250", "fusion_lat": 0.0, "rental_uris": {"ios": "https://dc.lft.to/lastmile_qr_scan", "android": "https://dc.lft.to/lastmile_qr_scan"}, "lon": -77.0209565, "type": "electric_scooter"}, {"bike_id": "edf3c1c838b8c66d1c0340c5b270456a", "is_reserved": 0, "fusion_lon": 0.0, "lat": 38.90028866666667, "is_disabled": 0, "name": "edf3c1c838b8c66d1c0340c5b270456a", "fusion_lat": 0.0, "rental_uris": {"ios": "https://dc.lft.to/lastmile_qr_scan", "android": "https://dc.lft.to/lastmile_qr_scan"}, "lon": -76.98754083333333, "type": "electric_scooter"}, {"bike_id": "65c1dd8e98164869dc605c5e760f8fe4", "is_reserved": 0, "fusion_lon": 0.0, "lat": 38.917995833333336, "is_disabled": 0, "name": "65c1dd8e98164869dc605c5e760f8fe4", "fusion_lat": 0.0, "rental_uris": {"ios": "https://dc.lft.to/lastmile_qr_scan", "android": "https://dc.lft.to/lastmile_qr_scan"}, "lon": -77.03553366666667, "type": "electric_scooter"}, {"bike_id": "16e9bd7cd925eecf6a72f656e202c8a8", "is_reserved": 0, "fusion_lon": 0.0, "lat": 38.8791345, "is_disabled": 0, "name": "16e9bd7cd925eecf6a72f656e202c8a8", "fusion_lat": 0.0, "rental_uris": {"ios": "https://dc.lft.to/lastmile_qr_scan", "android": "https://dc.lft.to/lastmile_qr_scan"}, "lon": -77.022553, "type": "electric_scooter"}, {"bike_id": "c1a69058961d3ca04664ef47af451b5c", "is_reserved": 0, "fusion_lon": 0.0, "lat": 38.906218, "is_disabled": 0, "name": "c1a69058961d3ca04664ef47af451b5c", "fusion_lat": 0.0, "rental_uris": {"ios": "https://dc.lft.to/lastmile_qr_scan", "android": "https://dc.lft.to/lastmile_qr_scan"}, "lon": -76.9860665, "type": "electric_bike"}, {"bike_id": "4107ac6c2e9a568d1541359b5ba8a2d9", "is_reserved": 0, "fusion_lon": 0.0, "lat": 38.8968035, "is_disabled": 0, "name": "4107ac6c2e9a568d1541359b5ba8a2d9", "fusion_lat": 0.0, "rental_uris": {"ios": "https://dc.lft.to/lastmile_qr_scan", "android": "https://dc.lft.to/lastmile_qr_scan"}, "lon": -76.9961855, "type": "electric_scooter"}, {"bike_id": "6ab865427a939bad62de50440c5a3a0d", "is_reserved": 0, "fusion_lon": 0.0, "lat": 38.9125865, "is_disabled": 0, "name": "6ab865427a939bad62de50440c5a3a0d", "fusion_lat": 0.0, "rental_uris": {"ios": "https://dc.lft.to/lastmile_qr_scan", "android": "https://dc.lft.to/lastmile_qr_scan"}, "lon": -77.03768166666667, "type": "electric_scooter"}, {"bike_id": "b5d2ffd4c6c435c3f6224555f08ca2db", "is_reserved": 0, "fusion_lon": 0.0, "lat": 38.891062, "is_disabled": 0, "name": "b5d2ffd4c6c435c3f6224555f08ca2db", "fusion_lat": 0.0, "rental_uris": {"ios": "https://dc.lft.to/lastmile_qr_scan", "android": "https://dc.lft.to/lastmile_qr_scan"}, "lon": -76.98702333333334, "type": "electric_scooter"}, {"bike_id": "a1e3c640a61e649c1a91e6a63b11005e", "is_reserved": 0, "fusion_lon": 0.0, "lat": 38.85922566666667, "is_disabled": 0, "name": "a1e3c640a61e649c1a91e6a63b11005e", "fusion_lat": 0.0, "rental_uris": {"ios": "https://dc.lft.to/lastmile_qr_scan", "android": "https://dc.lft.to/lastmile_qr_scan"}, "lon": -76.98981166666667, "type": "electric_scooter"}, {"bike_id": "0aa3fccd9353eaa981c3c888c2422963", "is_reserved": 0, "fusion_lon": 0.0, "lat": 38.90959983333333, "is_disabled": 0, "name": "0aa3fccd9353eaa981c3c888c2422963", "fusion_lat": 0.0, "rental_uris": {"ios": "https://dc.lft.to/lastmile_qr_scan", "android": "https://dc.lft.to/lastmile_qr_scan"}, "lon": -77.02379016666667, "type": "electric_scooter"}, {"bike_id": "a03a1af4b0b3ada6587eb5b02787d653", "is_reserved": 0, "fusion_lon": 0.0, "lat": 38.9250095, "is_disabled": 0, "name": "a03a1af4b0b3ada6587eb5b02787d653", "fusion_lat": 0.0, "rental_uris": {"ios": "https://dc.lft.to/lastmile_qr_scan", "android": "https://dc.lft.to/lastmile_qr_scan"}, "lon": -77.02158316666667, "type": "electric_scooter"}, {"bike_id": "5a1b7d2ef6736cf1e71391e12087c96f", "is_reserved": 0, "fusion_lon": 0.0, "lat": 38.92246266666667, "is_disabled": 0, "name": "5a1b7d2ef6736cf1e71391e12087c96f", "fusion_lat": 0.0, "rental_uris": {"ios": "https://dc.lft.to/lastmile_qr_scan", "android": "https://dc.lft.to/lastmile_qr_scan"}, "lon": -77.030779, "type": "electric_scooter"}, {"bike_id": "269b29b0d1963e7b6bc441e4f70fea10", "is_reserved": 0, "fusion_lon": 0.0, "lat": 38.87081333333333, "is_disabled": 0, "name": "269b29b0d1963e7b6bc441e4f70fea10", "fusion_lat": 0.0, "rental_uris": {"ios": "https://dc.lft.to/lastmile_qr_scan", "android": "https://dc.lft.to/lastmile_qr_scan"}, "lon": -77.01213583333333, "type": "electric_bike"}, {"bike_id": "6df470074927812065c8a05fa43abda4", "is_reserved": 0, "fusion_lon": 0.0, "lat": 38.88453483333333, "is_disabled": 0, "name": "6df470074927812065c8a05fa43abda4", "fusion_lat": 0.0, "rental_uris": {"ios": "https://dc.lft.to/lastmile_qr_scan", "android": "https://dc.lft.to/lastmile_qr_scan"}, "lon": -77.005756, "type": "electric_scooter"}, {"bike_id": "7fcd36c244e8f75475fbca16cee64c93", "is_reserved": 0, "fusion_lon": 0.0, "lat": 38.96620016666667, "is_disabled": 0, "name": "7fcd36c244e8f75475fbca16cee64c93", "fusion_lat": 0.0, "rental_uris": {"ios": "https://dc.lft.to/lastmile_qr_scan", "android": "https://dc.lft.to/lastmile_qr_scan"}, "lon": -76.944229, "type": "electric_bike"}, {"bike_id": "105d528b9a5f4c390e9d4c047c2a12cd", "is_reserved": 0, "fusion_lon": 0.0, "lat": 38.8715025, "is_disabled": 0, "name": "105d528b9a5f4c390e9d4c047c2a12cd", "fusion_lat": 0.0, "rental_uris": {"ios": "https://dc.lft.to/lastmile_qr_scan", "android": "https://dc.lft.to/lastmile_qr_scan"}, "lon": -76.93668933333333, "type": "electric_bike"}, {"bike_id": "d3d787b5765a846bf76642b8c4002cde", "is_reserved": 0, "fusion_lon": 0.0, "lat": 38.8940105, "is_disabled": 0, "name": "d3d787b5765a846bf76642b8c4002cde", "fusion_lat": 0.0, "rental_uris": {"ios": "https://dc.lft.to/lastmile_qr_scan", "android": "https://dc.lft.to/lastmile_qr_scan"}, "lon": -76.9936275, "type": "electric_scooter"}, {"bike_id": "3e6161f61eee0fa8c514d94eb09542c7", "is_reserved": 0, "fusion_lon": 0.0, "lat": 38.927511, "is_disabled": 0, "name": "3e6161f61eee0fa8c514d94eb09542c7", "fusion_lat": 0.0, "rental_uris": {"ios": "https://dc.lft.to/lastmile_qr_scan", "android": "https://dc.lft.to/lastmile_qr_scan"}, "lon": -77.02415383333333, "type": "electric_scooter"}, {"bike_id": "71d8e1358c0ebd9707986c319e253ca8", "is_reserved": 0, "fusion_lon": 0.0, "lat": 38.9577205, "is_disabled": 0, "name": "71d8e1358c0ebd9707986c319e253ca8", "fusion_lat": 0.0, "rental_uris": {"ios": "https://dc.lft.to/lastmile_qr_scan", "android": "https://dc.lft.to/lastmile_qr_scan"}, "lon": -77.01152133333333, "type": "electric_bike"}, {"bike_id": "9bef6e30acf97c115721f63fca29e2cf", "is_reserved": 0, "fusion_lon": 0.0, "lat": 38.90676416666667, "is_disabled": 0, "name": "9bef6e30acf97c115721f63fca29e2cf", "fusion_lat": 0.0, "rental_uris": {"ios": "https://dc.lft.to/lastmile_qr_scan", "android": "https://dc.lft.to/lastmile_qr_scan"}, "lon": -77.02707633333333, "type": "electric_scooter"}, {"bike_id": "e4ad07d9789a615a390c7cd40b428854", "is_reserved": 0, "fusion_lon": 0.0, "lat": 38.934522, "is_disabled": 0, "name": "e4ad07d9789a615a390c7cd40b428854", "fusion_lat": 0.0, "rental_uris": {"ios": "https://dc.lft.to/lastmile_qr_scan", "android": "https://dc.lft.to/lastmile_qr_scan"}, "lon": -77.0722945, "type": "electric_scooter"}, {"bike_id": "fc9d5d449f997a4d3dbb6d9a48ab22ca", "is_reserved": 0, "fusion_lon": 0.0, "lat": 38.898380333333336, "is_disabled": 0, "name": "fc9d5d449f997a4d3dbb6d9a48ab22ca", "fusion_lat": 0.0, "rental_uris": {"ios": "https://dc.lft.to/lastmile_qr_scan", "android": "https://dc.lft.to/lastmile_qr_scan"}, "lon": -77.04820083333334, "type": "electric_scooter"}, {"bike_id": "cfc2841242611dfc12e8066b15e28da2", "is_reserved": 0, "fusion_lon": 0.0, "lat": 38.9072675, "is_disabled": 0, "name": "cfc2841242611dfc12e8066b15e28da2", "fusion_lat": 0.0, "rental_uris": {"ios": "https://dc.lft.to/lastmile_qr_scan", "android": "https://dc.lft.to/lastmile_qr_scan"}, "lon": -77.0464045, "type": "electric_scooter"}, {"bike_id": "53142d01d7fe8ea893a38f3a9cd10dc2", "is_reserved": 0, "fusion_lon": 0.0, "lat": 38.9183485, "is_disabled": 0, "name": "53142d01d7fe8ea893a38f3a9cd10dc2", "fusion_lat": 0.0, "rental_uris": {"ios": "https://dc.lft.to/lastmile_qr_scan", "android": "https://dc.lft.to/lastmile_qr_scan"}, "lon": -77.03511333333333, "type": "electric_scooter"}, {"bike_id": "9f1d65000c5c0fea7ade10c7a8e3bbfb", "is_reserved": 0, "fusion_lon": 0.0, "lat": 38.937256166666664, "is_disabled": 0, "name": "9f1d65000c5c0fea7ade10c7a8e3bbfb", "fusion_lat": 0.0, "rental_uris": {"ios": "https://dc.lft.to/lastmile_qr_scan", "android": "https://dc.lft.to/lastmile_qr_scan"}, "lon": -77.0326225, "type": "electric_scooter"}, {"bike_id": "16301b8c3f592ac0cab6fea49876844c", "is_reserved": 0, "fusion_lon": 0.0, "lat": 38.905263, "is_disabled": 0, "name": "16301b8c3f592ac0cab6fea49876844c", "fusion_lat": 0.0, "rental_uris": {"ios": "https://dc.lft.to/lastmile_qr_scan", "android": "https://dc.lft.to/lastmile_qr_scan"}, "lon": -77.05968183333333, "type": "electric_scooter"}, {"bike_id": "5e5c73c26ac85d1af5e9ac421a6b386d", "is_reserved": 0, "fusion_lon": 0.0, "lat": 38.892482666666666, "is_disabled": 0, "name": "5e5c73c26ac85d1af5e9ac421a6b386d", "fusion_lat": 0.0, "rental_uris": {"ios": "https://dc.lft.to/lastmile_qr_scan", "android": "https://dc.lft.to/lastmile_qr_scan"}, "lon": -76.94319683333333, "type": "electric_scooter"}, {"bike_id": "f0ebbb3ecd5daf27cb7972698999b1a6", "is_reserved": 0, "fusion_lon": 0.0, "lat": 38.91798416666666, "is_disabled": 0, "name": "f0ebbb3ecd5daf27cb7972698999b1a6", "fusion_lat": 0.0, "rental_uris": {"ios": "https://dc.lft.to/lastmile_qr_scan", "android": "https://dc.lft.to/lastmile_qr_scan"}, "lon": -77.03439233333333, "type": "electric_scooter"}, {"bike_id": "0b7d0b016636c64a0318748dffaae0ae", "is_reserved": 0, "fusion_lon": 0.0, "lat": 38.900235333333335, "is_disabled": 0, "name": "0b7d0b016636c64a0318748dffaae0ae", "fusion_lat": 0.0, "rental_uris": {"ios": "https://dc.lft.to/lastmile_qr_scan", "android": "https://dc.lft.to/lastmile_qr_scan"}, "lon": -76.98791616666666, "type": "electric_scooter"}, {"bike_id": "c612249555e9d7c8e6c3f448d48b9db7", "is_reserved": 0, "fusion_lon": 0.0, "lat": 38.88314416666667, "is_disabled": 0, "name": "c612249555e9d7c8e6c3f448d48b9db7", "fusion_lat": 0.0, "rental_uris": {"ios": "https://dc.lft.to/lastmile_qr_scan", "android": "https://dc.lft.to/lastmile_qr_scan"}, "lon": -77.009327, "type": "electric_scooter"}, {"bike_id": "087a46edd9508adbd9540f628686ff52", "is_reserved": 0, "fusion_lon": 0.0, "lat": 38.94273616666667, "is_disabled": 0, "name": "087a46edd9508adbd9540f628686ff52", "fusion_lat": 0.0, "rental_uris": {"ios": "https://dc.lft.to/lastmile_qr_scan", "android": "https://dc.lft.to/lastmile_qr_scan"}, "lon": -76.98071466666667, "type": "electric_bike"}, {"bike_id": "678b45cb80c4673f30788a18301c901d", "is_reserved": 0, "fusion_lon": 0.0, "lat": 38.918118166666666, "is_disabled": 0, "name": "678b45cb80c4673f30788a18301c901d", "fusion_lat": 0.0, "rental_uris": {"ios": "https://dc.lft.to/lastmile_qr_scan", "android": "https://dc.lft.to/lastmile_qr_scan"}, "lon": -77.010179, "type": "electric_scooter"}, {"bike_id": "84bac72e2669f3541814049a8da04243", "is_reserved": 0, "fusion_lon": 0.0, "lat": 38.895980333333334, "is_disabled": 0, "name": "84bac72e2669f3541814049a8da04243", "fusion_lat": 0.0, "rental_uris": {"ios": "https://dc.lft.to/lastmile_qr_scan", "android": "https://dc.lft.to/lastmile_qr_scan"}, "lon": -77.04453116666667, "type": "electric_scooter"}, {"bike_id": "ca18e2480fe0202b0a98a5e59f6808fd", "is_reserved": 0, "fusion_lon": 0.0, "lat": 38.920033833333335, "is_disabled": 0, "name": "ca18e2480fe0202b0a98a5e59f6808fd", "fusion_lat": 0.0, "rental_uris": {"ios": "https://dc.lft.to/lastmile_qr_scan", "android": "https://dc.lft.to/lastmile_qr_scan"}, "lon": -77.03214766666666, "type": "electric_scooter"}, {"bike_id": "8d2c03cc405a3f7fad22758274d665d7", "is_reserved": 0, "fusion_lon": 0.0, "lat": 38.9181735, "is_disabled": 0, "name": "8d2c03cc405a3f7fad22758274d665d7", "fusion_lat": 0.0, "rental_uris": {"ios": "https://dc.lft.to/lastmile_qr_scan", "android": "https://dc.lft.to/lastmile_qr_scan"}, "lon": -77.03257, "type": "electric_scooter"}, {"bike_id": "9624e626a7b1bff78d9e9ba8eaa43d9d", "is_reserved": 0, "fusion_lon": 0.0, "lat": 38.919323166666665, "is_disabled": 0, "name": "9624e626a7b1bff78d9e9ba8eaa43d9d", "fusion_lat": 0.0, "rental_uris": {"ios": "https://dc.lft.to/lastmile_qr_scan", "android": "https://dc.lft.to/lastmile_qr_scan"}, "lon": -77.0317635, "type": "electric_scooter"}, {"bike_id": "f706ae098066f33bd5010beead77622f", "is_reserved": 0, "fusion_lon": 0.0, "lat": 38.87629033333333, "is_disabled": 0, "name": "f706ae098066f33bd5010beead77622f", "fusion_lat": 0.0, "rental_uris": {"ios": "https://dc.lft.to/lastmile_qr_scan", "android": "https://dc.lft.to/lastmile_qr_scan"}, "lon": -76.96520616666666, "type": "electric_scooter"}, {"bike_id": "edae90a107dc0b89f34e2e21a8dbbad5", "is_reserved": 0, "fusion_lon": 0.0, "lat": 38.907727, "is_disabled": 0, "name": "edae90a107dc0b89f34e2e21a8dbbad5", "fusion_lat": 0.0, "rental_uris": {"ios": "https://dc.lft.to/lastmile_qr_scan", "android": "https://dc.lft.to/lastmile_qr_scan"}, "lon": -77.069266, "type": "electric_scooter"}, {"bike_id": "daa2005ff1f5dc72900108cffa1fcdb1", "is_reserved": 0, "fusion_lon": 0.0, "lat": 38.92262266666667, "is_disabled": 0, "name": "daa2005ff1f5dc72900108cffa1fcdb1", "fusion_lat": 0.0, "rental_uris": {"ios": "https://dc.lft.to/lastmile_qr_scan", "android": "https://dc.lft.to/lastmile_qr_scan"}, "lon": -77.01827466666667, "type": "electric_scooter"}, {"bike_id": "8a1a28f703646792bc1958044abc72d9", "is_reserved": 0, "fusion_lon": 0.0, "lat": 38.904423333333334, "is_disabled": 0, "name": "8a1a28f703646792bc1958044abc72d9", "fusion_lat": 0.0, "rental_uris": {"ios": "https://dc.lft.to/lastmile_qr_scan", "android": "https://dc.lft.to/lastmile_qr_scan"}, "lon": -76.9961575, "type": "electric_scooter"}, {"bike_id": "8d9162504c557322ef5be0b82f6bfa6b", "is_reserved": 0, "fusion_lon": 0.0, "lat": 38.916273833333335, "is_disabled": 0, "name": "8d9162504c557322ef5be0b82f6bfa6b", "fusion_lat": 0.0, "rental_uris": {"ios": "https://dc.lft.to/lastmile_qr_scan", "android": "https://dc.lft.to/lastmile_qr_scan"}, "lon": -77.03161316666667, "type": "electric_scooter"}, {"bike_id": "cf1d447c81c610c5d452155e6b1e3396", "is_reserved": 0, "fusion_lon": 0.0, "lat": 38.903007833333334, "is_disabled": 0, "name": "cf1d447c81c610c5d452155e6b1e3396", "fusion_lat": 0.0, "rental_uris": {"ios": "https://dc.lft.to/lastmile_qr_scan", "android": "https://dc.lft.to/lastmile_qr_scan"}, "lon": -76.99857283333333, "type": "electric_scooter"}, {"bike_id": "31c64ff189b291a2da85a2d28adac3aa", "is_reserved": 0, "fusion_lon": 0.0, "lat": 38.912679, "is_disabled": 0, "name": "31c64ff189b291a2da85a2d28adac3aa", "fusion_lat": 0.0, "rental_uris": {"ios": "https://dc.lft.to/lastmile_qr_scan", "android": "https://dc.lft.to/lastmile_qr_scan"}, "lon": -77.02689166666667, "type": "electric_scooter"}, {"bike_id": "304bf7549bb96e0cbf64febef5408008", "is_reserved": 0, "fusion_lon": 0.0, "lat": 38.86358966666667, "is_disabled": 0, "name": "304bf7549bb96e0cbf64febef5408008", "fusion_lat": 0.0, "rental_uris": {"ios": "https://dc.lft.to/lastmile_qr_scan", "android": "https://dc.lft.to/lastmile_qr_scan"}, "lon": -76.990654, "type": "electric_scooter"}, {"bike_id": "6c24b98de782e82ded9d20000d7e8a7a", "is_reserved": 0, "fusion_lon": 0.0, "lat": 38.878280333333336, "is_disabled": 0, "name": "6c24b98de782e82ded9d20000d7e8a7a", "fusion_lat": 0.0, "rental_uris": {"ios": "https://dc.lft.to/lastmile_qr_scan", "android": "https://dc.lft.to/lastmile_qr_scan"}, "lon": -76.99031683333334, "type": "electric_scooter"}, {"bike_id": "115299fe9957eb9b2a387f8d3c434a80", "is_reserved": 0, "fusion_lon": 0.0, "lat": 38.94175516666667, "is_disabled": 0, "name": "115299fe9957eb9b2a387f8d3c434a80", "fusion_lat": 0.0, "rental_uris": {"ios": "https://dc.lft.to/lastmile_qr_scan", "android": "https://dc.lft.to/lastmile_qr_scan"}, "lon": -77.02500383333333, "type": "electric_scooter"}, {"bike_id": "526a790283a892dfc7e6d3ebf4a0a3bd", "is_reserved": 0, "fusion_lon": 0.0, "lat": 38.92887833333333, "is_disabled": 0, "name": "526a790283a892dfc7e6d3ebf4a0a3bd", "fusion_lat": 0.0, "rental_uris": {"ios": "https://dc.lft.to/lastmile_qr_scan", "android": "https://dc.lft.to/lastmile_qr_scan"}, "lon": -77.03272216666667, "type": "electric_scooter"}, {"bike_id": "92708b9f952ec219c053cda6346fae71", "is_reserved": 0, "fusion_lon": 0.0, "lat": 38.8429335, "is_disabled": 0, "name": "92708b9f952ec219c053cda6346fae71", "fusion_lat": 0.0, "rental_uris": {"ios": "https://dc.lft.to/lastmile_qr_scan", "android": "https://dc.lft.to/lastmile_qr_scan"}, "lon": -76.99942483333334, "type": "electric_scooter"}, {"bike_id": "17ab939b0d50bfb64c304c587adf65e1", "is_reserved": 0, "fusion_lon": 0.0, "lat": 38.905757666666666, "is_disabled": 0, "name": "17ab939b0d50bfb64c304c587adf65e1", "fusion_lat": 0.0, "rental_uris": {"ios": "https://dc.lft.to/lastmile_qr_scan", "android": "https://dc.lft.to/lastmile_qr_scan"}, "lon": -77.0220445, "type": "electric_scooter"}, {"bike_id": "df2a31e27d32c97eb034b5dfe3c51c3b", "is_reserved": 0, "fusion_lon": 0.0, "lat": 38.8960305, "is_disabled": 0, "name": "df2a31e27d32c97eb034b5dfe3c51c3b", "fusion_lat": 0.0, "rental_uris": {"ios": "https://dc.lft.to/lastmile_qr_scan", "android": "https://dc.lft.to/lastmile_qr_scan"}, "lon": -77.02838316666667, "type": "electric_scooter"}, {"bike_id": "fbf53e4757392d22bb73d36fea8c7747", "is_reserved": 0, "fusion_lon": 0.0, "lat": 38.9078535, "is_disabled": 0, "name": "fbf53e4757392d22bb73d36fea8c7747", "fusion_lat": 0.0, "rental_uris": {"ios": "https://dc.lft.to/lastmile_qr_scan", "android": "https://dc.lft.to/lastmile_qr_scan"}, "lon": -77.00966316666667, "type": "electric_scooter"}, {"bike_id": "3b22c80183b1ab1a05df4061f7b38b12", "is_reserved": 0, "fusion_lon": 0.0, "lat": 38.869028166666666, "is_disabled": 0, "name": "3b22c80183b1ab1a05df4061f7b38b12", "fusion_lat": 0.0, "rental_uris": {"ios": "https://dc.lft.to/lastmile_qr_scan", "android": "https://dc.lft.to/lastmile_qr_scan"}, "lon": -77.13175683333333, "type": "electric_bike"}, {"bike_id": "9a3072ead3c8e86de033e5c144b3330e", "is_reserved": 0, "fusion_lon": 0.0, "lat": 38.915433166666666, "is_disabled": 0, "name": "9a3072ead3c8e86de033e5c144b3330e", "fusion_lat": 0.0, "rental_uris": {"ios": "https://dc.lft.to/lastmile_qr_scan", "android": "https://dc.lft.to/lastmile_qr_scan"}, "lon": -77.03842483333334, "type": "electric_scooter"}, {"bike_id": "59cf423b89b47d479ead2f8c273a0fc3", "is_reserved": 0, "fusion_lon": 0.0, "lat": 38.92788083333333, "is_disabled": 0, "name": "59cf423b89b47d479ead2f8c273a0fc3", "fusion_lat": 0.0, "rental_uris": {"ios": "https://dc.lft.to/lastmile_qr_scan", "android": "https://dc.lft.to/lastmile_qr_scan"}, "lon": -77.03194583333334, "type": "electric_scooter"}, {"bike_id": "b9578d0046a1367eab558e4d9d79c275", "is_reserved": 0, "fusion_lon": 0.0, "lat": 38.9068915, "is_disabled": 0, "name": "b9578d0046a1367eab558e4d9d79c275", "fusion_lat": 0.0, "rental_uris": {"ios": "https://dc.lft.to/lastmile_qr_scan", "android": "https://dc.lft.to/lastmile_qr_scan"}, "lon": -77.01344083333333, "type": "electric_scooter"}, {"bike_id": "f029bba907b15c4768e24dbcc02ecf31", "is_reserved": 0, "fusion_lon": 0.0, "lat": 38.890067, "is_disabled": 0, "name": "f029bba907b15c4768e24dbcc02ecf31", "fusion_lat": 0.0, "rental_uris": {"ios": "https://dc.lft.to/lastmile_qr_scan", "android": "https://dc.lft.to/lastmile_qr_scan"}, "lon": -77.0489335, "type": "electric_scooter"}, {"bike_id": "db38414234905b32d2df65e773425fcb", "is_reserved": 0, "fusion_lon": 0.0, "lat": 38.90601783333334, "is_disabled": 0, "name": "db38414234905b32d2df65e773425fcb", "fusion_lat": 0.0, "rental_uris": {"ios": "https://dc.lft.to/lastmile_qr_scan", "android": "https://dc.lft.to/lastmile_qr_scan"}, "lon": -77.01322683333333, "type": "electric_scooter"}, {"bike_id": "fa17b044d406bbad1b65e4075ea99b79", "is_reserved": 0, "fusion_lon": 0.0, "lat": 38.891965, "is_disabled": 0, "name": "fa17b044d406bbad1b65e4075ea99b79", "fusion_lat": 0.0, "rental_uris": {"ios": "https://dc.lft.to/lastmile_qr_scan", "android": "https://dc.lft.to/lastmile_qr_scan"}, "lon": -77.0024055, "type": "electric_bike"}, {"bike_id": "745b81797515d9c7c7a39a21f4debc2f", "is_reserved": 0, "fusion_lon": 0.0, "lat": 38.9342185, "is_disabled": 0, "name": "745b81797515d9c7c7a39a21f4debc2f", "fusion_lat": 0.0, "rental_uris": {"ios": "https://dc.lft.to/lastmile_qr_scan", "android": "https://dc.lft.to/lastmile_qr_scan"}, "lon": -77.0430995, "type": "electric_scooter"}, {"bike_id": "3490a58adbc038969294ec9b6056fad9", "is_reserved": 0, "fusion_lon": 0.0, "lat": 38.91195283333333, "is_disabled": 0, "name": "3490a58adbc038969294ec9b6056fad9", "fusion_lat": 0.0, "rental_uris": {"ios": "https://dc.lft.to/lastmile_qr_scan", "android": "https://dc.lft.to/lastmile_qr_scan"}, "lon": -77.00185466666667, "type": "electric_scooter"}, {"bike_id": "073f9691f288d2c4f67a0090e5a6a546", "is_reserved": 0, "fusion_lon": 0.0, "lat": 38.8919285, "is_disabled": 0, "name": "073f9691f288d2c4f67a0090e5a6a546", "fusion_lat": 0.0, "rental_uris": {"ios": "https://dc.lft.to/lastmile_qr_scan", "android": "https://dc.lft.to/lastmile_qr_scan"}, "lon": -77.029818, "type": "electric_scooter"}, {"bike_id": "13cbdaceb0ff73dbb68ee59ce65d0fcb", "is_reserved": 0, "fusion_lon": 0.0, "lat": 38.898187666666665, "is_disabled": 0, "name": "13cbdaceb0ff73dbb68ee59ce65d0fcb", "fusion_lat": 0.0, "rental_uris": {"ios": "https://dc.lft.to/lastmile_qr_scan", "android": "https://dc.lft.to/lastmile_qr_scan"}, "lon": -77.03309516666667, "type": "electric_scooter"}, {"bike_id": "cc348f293f33b201a88c17de19fec72e", "is_reserved": 0, "fusion_lon": 0.0, "lat": 38.922394, "is_disabled": 0, "name": "cc348f293f33b201a88c17de19fec72e", "fusion_lat": 0.0, "rental_uris": {"ios": "https://dc.lft.to/lastmile_qr_scan", "android": "https://dc.lft.to/lastmile_qr_scan"}, "lon": -77.01004533333334, "type": "electric_scooter"}, {"bike_id": "a79fa9a4a93cd4731ec57ac62672cecd", "is_reserved": 0, "fusion_lon": 0.0, "lat": 38.907262833333334, "is_disabled": 0, "name": "a79fa9a4a93cd4731ec57ac62672cecd", "fusion_lat": 0.0, "rental_uris": {"ios": "https://dc.lft.to/lastmile_qr_scan", "android": "https://dc.lft.to/lastmile_qr_scan"}, "lon": -77.04637016666666, "type": "electric_scooter"}, {"bike_id": "0a7f95287107ab6f63d140cc7a2113fc", "is_reserved": 0, "fusion_lon": 0.0, "lat": 38.92847966666667, "is_disabled": 0, "name": "0a7f95287107ab6f63d140cc7a2113fc", "fusion_lat": 0.0, "rental_uris": {"ios": "https://dc.lft.to/lastmile_qr_scan", "android": "https://dc.lft.to/lastmile_qr_scan"}, "lon": -77.05425333333334, "type": "electric_scooter"}, {"bike_id": "dd14b25f3d90114871b145c07fa78084", "is_reserved": 0, "fusion_lon": 0.0, "lat": 38.89621866666667, "is_disabled": 0, "name": "dd14b25f3d90114871b145c07fa78084", "fusion_lat": 0.0, "rental_uris": {"ios": "https://dc.lft.to/lastmile_qr_scan", "android": "https://dc.lft.to/lastmile_qr_scan"}, "lon": -76.99850383333333, "type": "electric_scooter"}, {"bike_id": "6901f2308e87137d0dc17aa52ebcfbff", "is_reserved": 0, "fusion_lon": 0.0, "lat": 38.89481083333333, "is_disabled": 0, "name": "6901f2308e87137d0dc17aa52ebcfbff", "fusion_lat": 0.0, "rental_uris": {"ios": "https://dc.lft.to/lastmile_qr_scan", "android": "https://dc.lft.to/lastmile_qr_scan"}, "lon": -77.022806, "type": "electric_scooter"}, {"bike_id": "2b5d3e8075343ea8b94a4480d10b8e28", "is_reserved": 0, "fusion_lon": 0.0, "lat": 38.902725833333335, "is_disabled": 0, "name": "2b5d3e8075343ea8b94a4480d10b8e28", "fusion_lat": 0.0, "rental_uris": {"ios": "https://dc.lft.to/lastmile_qr_scan", "android": "https://dc.lft.to/lastmile_qr_scan"}, "lon": -77.05902833333333, "type": "electric_scooter"}, {"bike_id": "301a0729293f762980cc04a86c363add", "is_reserved": 0, "fusion_lon": 0.0, "lat": 38.893886, "is_disabled": 0, "name": "301a0729293f762980cc04a86c363add", "fusion_lat": 0.0, "rental_uris": {"ios": "https://dc.lft.to/lastmile_qr_scan", "android": "https://dc.lft.to/lastmile_qr_scan"}, "lon": -77.022514, "type": "electric_bike"}, {"bike_id": "f38badaa2c334484d248754c0be69cd9", "is_reserved": 0, "fusion_lon": 0.0, "lat": 38.9072905, "is_disabled": 0, "name": "f38badaa2c334484d248754c0be69cd9", "fusion_lat": 0.0, "rental_uris": {"ios": "https://dc.lft.to/lastmile_qr_scan", "android": "https://dc.lft.to/lastmile_qr_scan"}, "lon": -77.04341316666667, "type": "electric_scooter"}, {"bike_id": "b8969d16f14373ba95ae5fc4fe6df79d", "is_reserved": 0, "fusion_lon": 0.0, "lat": 38.928991333333336, "is_disabled": 0, "name": "b8969d16f14373ba95ae5fc4fe6df79d", "fusion_lat": 0.0, "rental_uris": {"ios": "https://dc.lft.to/lastmile_qr_scan", "android": "https://dc.lft.to/lastmile_qr_scan"}, "lon": -77.0318915, "type": "electric_scooter"}, {"bike_id": "4f72ce83cb11bba08fcad15c518d8362", "is_reserved": 0, "fusion_lon": 0.0, "lat": 38.925079333333336, "is_disabled": 0, "name": "4f72ce83cb11bba08fcad15c518d8362", "fusion_lat": 0.0, "rental_uris": {"ios": "https://dc.lft.to/lastmile_qr_scan", "android": "https://dc.lft.to/lastmile_qr_scan"}, "lon": -77.024303, "type": "electric_scooter"}, {"bike_id": "ea3d3960ae736f321e37a183283539f3", "is_reserved": 0, "fusion_lon": 0.0, "lat": 38.930808, "is_disabled": 0, "name": "ea3d3960ae736f321e37a183283539f3", "fusion_lat": 0.0, "rental_uris": {"ios": "https://dc.lft.to/lastmile_qr_scan", "android": "https://dc.lft.to/lastmile_qr_scan"}, "lon": -77.0279725, "type": "electric_scooter"}, {"bike_id": "7a077015973574e88bf3962ca1655466", "is_reserved": 0, "fusion_lon": 0.0, "lat": 38.941762, "is_disabled": 0, "name": "7a077015973574e88bf3962ca1655466", "fusion_lat": 0.0, "rental_uris": {"ios": "https://dc.lft.to/lastmile_qr_scan", "android": "https://dc.lft.to/lastmile_qr_scan"}, "lon": -77.02525883333334, "type": "electric_scooter"}, {"bike_id": "01e3251dcd2a1c5dae0f30ea0965441d", "is_reserved": 0, "fusion_lon": 0.0, "lat": 38.92360466666667, "is_disabled": 0, "name": "01e3251dcd2a1c5dae0f30ea0965441d", "fusion_lat": 0.0, "rental_uris": {"ios": "https://dc.lft.to/lastmile_qr_scan", "android": "https://dc.lft.to/lastmile_qr_scan"}, "lon": -77.05240666666667, "type": "electric_scooter"}, {"bike_id": "db553704974629c88f4bfd69ca3a5ea7", "is_reserved": 0, "fusion_lon": 0.0, "lat": 38.9346015, "is_disabled": 0, "name": "db553704974629c88f4bfd69ca3a5ea7", "fusion_lat": 0.0, "rental_uris": {"ios": "https://dc.lft.to/lastmile_qr_scan", "android": "https://dc.lft.to/lastmile_qr_scan"}, "lon": -77.02341583333333, "type": "electric_scooter"}, {"bike_id": "72ef2ba41cc9335143a3bd17938baca6", "is_reserved": 0, "fusion_lon": 0.0, "lat": 38.894769833333335, "is_disabled": 0, "name": "72ef2ba41cc9335143a3bd17938baca6", "fusion_lat": 0.0, "rental_uris": {"ios": "https://dc.lft.to/lastmile_qr_scan", "android": "https://dc.lft.to/lastmile_qr_scan"}, "lon": -76.99535216666666, "type": "electric_scooter"}, {"bike_id": "57cb6caf1f24016ef3dbb19cec9a1c95", "is_reserved": 0, "fusion_lon": 0.0, "lat": 38.88391083333333, "is_disabled": 0, "name": "57cb6caf1f24016ef3dbb19cec9a1c95", "fusion_lat": 0.0, "rental_uris": {"ios": "https://dc.lft.to/lastmile_qr_scan", "android": "https://dc.lft.to/lastmile_qr_scan"}, "lon": -77.01768916666667, "type": "electric_scooter"}, {"bike_id": "783b8cbf16c64c63a173a8129dcd9d27", "is_reserved": 0, "fusion_lon": 0.0, "lat": 38.92470133333333, "is_disabled": 0, "name": "783b8cbf16c64c63a173a8129dcd9d27", "fusion_lat": 0.0, "rental_uris": {"ios": "https://dc.lft.to/lastmile_qr_scan", "android": "https://dc.lft.to/lastmile_qr_scan"}, "lon": -77.02833533333333, "type": "electric_scooter"}, {"bike_id": "ee2a99a64c10dac15fac3bab14608aae", "is_reserved": 0, "fusion_lon": 0.0, "lat": 38.904694166666665, "is_disabled": 0, "name": "ee2a99a64c10dac15fac3bab14608aae", "fusion_lat": 0.0, "rental_uris": {"ios": "https://dc.lft.to/lastmile_qr_scan", "android": "https://dc.lft.to/lastmile_qr_scan"}, "lon": -77.04642433333333, "type": "electric_scooter"}, {"bike_id": "53813d385544e2ee788e9e1a412c322a", "is_reserved": 0, "fusion_lon": 0.0, "lat": 38.897604666666666, "is_disabled": 0, "name": "53813d385544e2ee788e9e1a412c322a", "fusion_lat": 0.0, "rental_uris": {"ios": "https://dc.lft.to/lastmile_qr_scan", "android": "https://dc.lft.to/lastmile_qr_scan"}, "lon": -77.0316145, "type": "electric_scooter"}, {"bike_id": "f2007260e2800b4319c937c526fa2f65", "is_reserved": 0, "fusion_lon": 0.0, "lat": 38.930943666666664, "is_disabled": 0, "name": "f2007260e2800b4319c937c526fa2f65", "fusion_lat": 0.0, "rental_uris": {"ios": "https://dc.lft.to/lastmile_qr_scan", "android": "https://dc.lft.to/lastmile_qr_scan"}, "lon": -77.02466716666666, "type": "electric_scooter"}, {"bike_id": "778bf2e9e988250269e1bf5e84a89b24", "is_reserved": 0, "fusion_lon": 0.0, "lat": 38.900232, "is_disabled": 0, "name": "778bf2e9e988250269e1bf5e84a89b24", "fusion_lat": 0.0, "rental_uris": {"ios": "https://dc.lft.to/lastmile_qr_scan", "android": "https://dc.lft.to/lastmile_qr_scan"}, "lon": -77.03016316666667, "type": "electric_scooter"}, {"bike_id": "0bff10aa5919dbd756d09858a078d440", "is_reserved": 0, "fusion_lon": 0.0, "lat": 38.89910583333333, "is_disabled": 0, "name": "0bff10aa5919dbd756d09858a078d440", "fusion_lat": 0.0, "rental_uris": {"ios": "https://dc.lft.to/lastmile_qr_scan", "android": "https://dc.lft.to/lastmile_qr_scan"}, "lon": -77.03925266666667, "type": "electric_scooter"}, {"bike_id": "15bceda28ff599e778b08a313ad4b229", "is_reserved": 0, "fusion_lon": 0.0, "lat": 38.897559333333334, "is_disabled": 0, "name": "15bceda28ff599e778b08a313ad4b229", "fusion_lat": 0.0, "rental_uris": {"ios": "https://dc.lft.to/lastmile_qr_scan", "android": "https://dc.lft.to/lastmile_qr_scan"}, "lon": -77.04313266666666, "type": "electric_scooter"}, {"bike_id": "e3a05c3d7aa4bc4c6e617416a12057e8", "is_reserved": 0, "fusion_lon": 0.0, "lat": 38.93353916666667, "is_disabled": 0, "name": "e3a05c3d7aa4bc4c6e617416a12057e8", "fusion_lat": 0.0, "rental_uris": {"ios": "https://dc.lft.to/lastmile_qr_scan", "android": "https://dc.lft.to/lastmile_qr_scan"}, "lon": -77.069374, "type": "electric_scooter"}, {"bike_id": "a8a3fe3c00c3b1dddee7956272ddf92b", "is_reserved": 0, "fusion_lon": 0.0, "lat": 38.91115966666667, "is_disabled": 0, "name": "a8a3fe3c00c3b1dddee7956272ddf92b", "fusion_lat": 0.0, "rental_uris": {"ios": "https://dc.lft.to/lastmile_qr_scan", "android": "https://dc.lft.to/lastmile_qr_scan"}, "lon": -77.0218895, "type": "electric_scooter"}, {"bike_id": "a1a0387e8edeb7ab9e2b1f4d154ea3eb", "is_reserved": 0, "fusion_lon": 0.0, "lat": 38.90975316666667, "is_disabled": 0, "name": "a1a0387e8edeb7ab9e2b1f4d154ea3eb", "fusion_lat": 0.0, "rental_uris": {"ios": "https://dc.lft.to/lastmile_qr_scan", "android": "https://dc.lft.to/lastmile_qr_scan"}, "lon": -77.04863066666667, "type": "electric_scooter"}, {"bike_id": "50e375015a38b3491be6fbf4f9fd64af", "is_reserved": 0, "fusion_lon": 0.0, "lat": 38.885343, "is_disabled": 0, "name": "50e375015a38b3491be6fbf4f9fd64af", "fusion_lat": 0.0, "rental_uris": {"ios": "https://dc.lft.to/lastmile_qr_scan", "android": "https://dc.lft.to/lastmile_qr_scan"}, "lon": -77.00568016666666, "type": "electric_scooter"}, {"bike_id": "b3ad2554fb34415cc1fd4c1b4a9886e6", "is_reserved": 0, "fusion_lon": 0.0, "lat": 38.90268583333334, "is_disabled": 0, "name": "b3ad2554fb34415cc1fd4c1b4a9886e6", "fusion_lat": 0.0, "rental_uris": {"ios": "https://dc.lft.to/lastmile_qr_scan", "android": "https://dc.lft.to/lastmile_qr_scan"}, "lon": -77.03831433333333, "type": "electric_scooter"}, {"bike_id": "abfd9eb72bc5869580b401593d704278", "is_reserved": 0, "fusion_lon": 0.0, "lat": 38.866587, "is_disabled": 0, "name": "abfd9eb72bc5869580b401593d704278", "fusion_lat": 0.0, "rental_uris": {"ios": "https://dc.lft.to/lastmile_qr_scan", "android": "https://dc.lft.to/lastmile_qr_scan"}, "lon": -76.98903483333333, "type": "electric_scooter"}, {"bike_id": "168d6e831976d4f913b90651ad97672d", "is_reserved": 0, "fusion_lon": 0.0, "lat": 38.92161133333333, "is_disabled": 0, "name": "168d6e831976d4f913b90651ad97672d", "fusion_lat": 0.0, "rental_uris": {"ios": "https://dc.lft.to/lastmile_qr_scan", "android": "https://dc.lft.to/lastmile_qr_scan"}, "lon": -77.03373, "type": "electric_scooter"}, {"bike_id": "7479ac11cdc19cc87ffc2a24d8b70363", "is_reserved": 0, "fusion_lon": 0.0, "lat": 38.926208333333335, "is_disabled": 0, "name": "7479ac11cdc19cc87ffc2a24d8b70363", "fusion_lat": 0.0, "rental_uris": {"ios": "https://dc.lft.to/lastmile_qr_scan", "android": "https://dc.lft.to/lastmile_qr_scan"}, "lon": -77.044171, "type": "electric_scooter"}, {"bike_id": "4cf58d01bf26b2077728971f901e1418", "is_reserved": 0, "fusion_lon": 0.0, "lat": 38.89229783333333, "is_disabled": 0, "name": "4cf58d01bf26b2077728971f901e1418", "fusion_lat": 0.0, "rental_uris": {"ios": "https://dc.lft.to/lastmile_qr_scan", "android": "https://dc.lft.to/lastmile_qr_scan"}, "lon": -77.0499925, "type": "electric_scooter"}, {"bike_id": "3fa43951b7063fe65d23b8791efca0cf", "is_reserved": 0, "fusion_lon": 0.0, "lat": 38.93529183333333, "is_disabled": 0, "name": "3fa43951b7063fe65d23b8791efca0cf", "fusion_lat": 0.0, "rental_uris": {"ios": "https://dc.lft.to/lastmile_qr_scan", "android": "https://dc.lft.to/lastmile_qr_scan"}, "lon": -77.028554, "type": "electric_scooter"}, {"bike_id": "d7cea5e888bb98cde5a930224a386ebf", "is_reserved": 0, "fusion_lon": 0.0, "lat": 38.897649, "is_disabled": 0, "name": "d7cea5e888bb98cde5a930224a386ebf", "fusion_lat": 0.0, "rental_uris": {"ios": "https://dc.lft.to/lastmile_qr_scan", "android": "https://dc.lft.to/lastmile_qr_scan"}, "lon": -76.93910466666667, "type": "electric_scooter"}, {"bike_id": "4caa56479a69d5d879a93d547e103ff4", "is_reserved": 0, "fusion_lon": 0.0, "lat": 38.92591866666667, "is_disabled": 0, "name": "4caa56479a69d5d879a93d547e103ff4", "fusion_lat": 0.0, "rental_uris": {"ios": "https://dc.lft.to/lastmile_qr_scan", "android": "https://dc.lft.to/lastmile_qr_scan"}, "lon": -77.00486466666666, "type": "electric_scooter"}, {"bike_id": "2f6f3e0f9a3683a2164bc6d26d51bb1b", "is_reserved": 0, "fusion_lon": 0.0, "lat": 38.90849266666667, "is_disabled": 0, "name": "2f6f3e0f9a3683a2164bc6d26d51bb1b", "fusion_lat": 0.0, "rental_uris": {"ios": "https://dc.lft.to/lastmile_qr_scan", "android": "https://dc.lft.to/lastmile_qr_scan"}, "lon": -77.08528433333333, "type": "electric_scooter"}, {"bike_id": "cbcf844a659df21226e9a16eb7a7f235", "is_reserved": 0, "fusion_lon": 0.0, "lat": 38.8921545, "is_disabled": 0, "name": "cbcf844a659df21226e9a16eb7a7f235", "fusion_lat": 0.0, "rental_uris": {"ios": "https://dc.lft.to/lastmile_qr_scan", "android": "https://dc.lft.to/lastmile_qr_scan"}, "lon": -77.02806566666666, "type": "electric_scooter"}, {"bike_id": "3ff27a332edc94ec93cc690a4522a1aa", "is_reserved": 0, "fusion_lon": 0.0, "lat": 38.88360616666667, "is_disabled": 0, "name": "3ff27a332edc94ec93cc690a4522a1aa", "fusion_lat": 0.0, "rental_uris": {"ios": "https://dc.lft.to/lastmile_qr_scan", "android": "https://dc.lft.to/lastmile_qr_scan"}, "lon": -77.0317145, "type": "electric_scooter"}, {"bike_id": "cea2323c58c26dcb24af08e0371080e4", "is_reserved": 0, "fusion_lon": 0.0, "lat": 38.909652333333334, "is_disabled": 0, "name": "cea2323c58c26dcb24af08e0371080e4", "fusion_lat": 0.0, "rental_uris": {"ios": "https://dc.lft.to/lastmile_qr_scan", "android": "https://dc.lft.to/lastmile_qr_scan"}, "lon": -77.0344625, "type": "electric_scooter"}, {"bike_id": "cf046657842c63dc460f1fd9a1e1deb9", "is_reserved": 0, "fusion_lon": 0.0, "lat": 38.914150166666666, "is_disabled": 0, "name": "cf046657842c63dc460f1fd9a1e1deb9", "fusion_lat": 0.0, "rental_uris": {"ios": "https://dc.lft.to/lastmile_qr_scan", "android": "https://dc.lft.to/lastmile_qr_scan"}, "lon": -77.02671966666666, "type": "electric_scooter"}, {"bike_id": "cfca63db4b3c8d143e408c811425f629", "is_reserved": 0, "fusion_lon": 0.0, "lat": 38.91627166666667, "is_disabled": 0, "name": "cfca63db4b3c8d143e408c811425f629", "fusion_lat": 0.0, "rental_uris": {"ios": "https://dc.lft.to/lastmile_qr_scan", "android": "https://dc.lft.to/lastmile_qr_scan"}, "lon": -77.03212966666666, "type": "electric_scooter"}, {"bike_id": "b270d6bb608791cbbc7372750e2da5e8", "is_reserved": 0, "fusion_lon": 0.0, "lat": 38.9166835, "is_disabled": 0, "name": "b270d6bb608791cbbc7372750e2da5e8", "fusion_lat": 0.0, "rental_uris": {"ios": "https://dc.lft.to/lastmile_qr_scan", "android": "https://dc.lft.to/lastmile_qr_scan"}, "lon": -77.005003, "type": "electric_scooter"}, {"bike_id": "9948b52d2aa3bc70a67b09f4d2b3d607", "is_reserved": 0, "fusion_lon": 0.0, "lat": 38.91561433333333, "is_disabled": 0, "name": "9948b52d2aa3bc70a67b09f4d2b3d607", "fusion_lat": 0.0, "rental_uris": {"ios": "https://dc.lft.to/lastmile_qr_scan", "android": "https://dc.lft.to/lastmile_qr_scan"}, "lon": -77.0393445, "type": "electric_scooter"}, {"bike_id": "72c12ef4f82cb97c064bc1492ee5775c", "is_reserved": 0, "fusion_lon": 0.0, "lat": 38.9036295, "is_disabled": 0, "name": "72c12ef4f82cb97c064bc1492ee5775c", "fusion_lat": 0.0, "rental_uris": {"ios": "https://dc.lft.to/lastmile_qr_scan", "android": "https://dc.lft.to/lastmile_qr_scan"}, "lon": -77.02990033333333, "type": "electric_scooter"}, {"bike_id": "90bce74419966adec8322d274a7d6e1b", "is_reserved": 0, "fusion_lon": 0.0, "lat": 38.90559183333333, "is_disabled": 0, "name": "90bce74419966adec8322d274a7d6e1b", "fusion_lat": 0.0, "rental_uris": {"ios": "https://dc.lft.to/lastmile_qr_scan", "android": "https://dc.lft.to/lastmile_qr_scan"}, "lon": -77.03593683333334, "type": "electric_scooter"}, {"bike_id": "d1195c8a8bbbfb1c977d4de30d85cdb3", "is_reserved": 0, "fusion_lon": 0.0, "lat": 38.907952, "is_disabled": 0, "name": "d1195c8a8bbbfb1c977d4de30d85cdb3", "fusion_lat": 0.0, "rental_uris": {"ios": "https://dc.lft.to/lastmile_qr_scan", "android": "https://dc.lft.to/lastmile_qr_scan"}, "lon": -77.04821283333334, "type": "electric_scooter"}, {"bike_id": "06de577f33bae7117dbf52cf69794fba", "is_reserved": 0, "fusion_lon": 0.0, "lat": 38.895647833333335, "is_disabled": 0, "name": "06de577f33bae7117dbf52cf69794fba", "fusion_lat": 0.0, "rental_uris": {"ios": "https://dc.lft.to/lastmile_qr_scan", "android": "https://dc.lft.to/lastmile_qr_scan"}, "lon": -77.127322, "type": "electric_bike"}, {"bike_id": "3ae44aae6b6a74d2be3041ae8ebdcf06", "is_reserved": 0, "fusion_lon": 0.0, "lat": 38.89915533333333, "is_disabled": 0, "name": "3ae44aae6b6a74d2be3041ae8ebdcf06", "fusion_lat": 0.0, "rental_uris": {"ios": "https://dc.lft.to/lastmile_qr_scan", "android": "https://dc.lft.to/lastmile_qr_scan"}, "lon": -77.04023766666667, "type": "electric_scooter"}, {"bike_id": "de35b6f663afab82092896e0c53ef990", "is_reserved": 0, "fusion_lon": 0.0, "lat": 38.92254633333334, "is_disabled": 0, "name": "de35b6f663afab82092896e0c53ef990", "fusion_lat": 0.0, "rental_uris": {"ios": "https://dc.lft.to/lastmile_qr_scan", "android": "https://dc.lft.to/lastmile_qr_scan"}, "lon": -77.041484, "type": "electric_scooter"}, {"bike_id": "8cbda4df3f274d466a19743e4579ca28", "is_reserved": 0, "fusion_lon": 0.0, "lat": 38.90216133333333, "is_disabled": 0, "name": "8cbda4df3f274d466a19743e4579ca28", "fusion_lat": 0.0, "rental_uris": {"ios": "https://dc.lft.to/lastmile_qr_scan", "android": "https://dc.lft.to/lastmile_qr_scan"}, "lon": -76.950517, "type": "electric_bike"}, {"bike_id": "7b923a433a5c93cd2385aca46315dafd", "is_reserved": 0, "fusion_lon": 0.0, "lat": 38.91678016666667, "is_disabled": 0, "name": "7b923a433a5c93cd2385aca46315dafd", "fusion_lat": 0.0, "rental_uris": {"ios": "https://dc.lft.to/lastmile_qr_scan", "android": "https://dc.lft.to/lastmile_qr_scan"}, "lon": -77.03685116666666, "type": "electric_scooter"}, {"bike_id": "90b4d3ebadadb3ff5f4d3d4fa81a8fb7", "is_reserved": 0, "fusion_lon": 0.0, "lat": 38.898299333333334, "is_disabled": 0, "name": "90b4d3ebadadb3ff5f4d3d4fa81a8fb7", "fusion_lat": 0.0, "rental_uris": {"ios": "https://dc.lft.to/lastmile_qr_scan", "android": "https://dc.lft.to/lastmile_qr_scan"}, "lon": -77.05031366666667, "type": "electric_scooter"}, {"bike_id": "74087111759dbfb71dc6325d05257313", "is_reserved": 0, "fusion_lon": 0.0, "lat": 38.92271366666667, "is_disabled": 0, "name": "74087111759dbfb71dc6325d05257313", "fusion_lat": 0.0, "rental_uris": {"ios": "https://dc.lft.to/lastmile_qr_scan", "android": "https://dc.lft.to/lastmile_qr_scan"}, "lon": -77.02525733333333, "type": "electric_scooter"}, {"bike_id": "af91dad91444f0eb1adf6235c58fbc80", "is_reserved": 0, "fusion_lon": 0.0, "lat": 38.90110033333333, "is_disabled": 0, "name": "af91dad91444f0eb1adf6235c58fbc80", "fusion_lat": 0.0, "rental_uris": {"ios": "https://dc.lft.to/lastmile_qr_scan", "android": "https://dc.lft.to/lastmile_qr_scan"}, "lon": -77.04312133333333, "type": "electric_scooter"}, {"bike_id": "839aeef9bee76a9c40fb6c7c7b107bcf", "is_reserved": 0, "fusion_lon": 0.0, "lat": 38.92744283333333, "is_disabled": 0, "name": "839aeef9bee76a9c40fb6c7c7b107bcf", "fusion_lat": 0.0, "rental_uris": {"ios": "https://dc.lft.to/lastmile_qr_scan", "android": "https://dc.lft.to/lastmile_qr_scan"}, "lon": -77.036329, "type": "electric_bike"}, {"bike_id": "7f0c2a4d2d8d845410f251cb09386f1b", "is_reserved": 0, "fusion_lon": 0.0, "lat": 38.92162666666667, "is_disabled": 0, "name": "7f0c2a4d2d8d845410f251cb09386f1b", "fusion_lat": 0.0, "rental_uris": {"ios": "https://dc.lft.to/lastmile_qr_scan", "android": "https://dc.lft.to/lastmile_qr_scan"}, "lon": -77.04692133333333, "type": "electric_scooter"}, {"bike_id": "2f37c16dcfec165cdfbd90c860884b12", "is_reserved": 0, "fusion_lon": 0.0, "lat": 38.923437666666665, "is_disabled": 0, "name": "2f37c16dcfec165cdfbd90c860884b12", "fusion_lat": 0.0, "rental_uris": {"ios": "https://dc.lft.to/lastmile_qr_scan", "android": "https://dc.lft.to/lastmile_qr_scan"}, "lon": -77.035335, "type": "electric_scooter"}, {"bike_id": "07a19da332f67cf59790efd439b4f7f0", "is_reserved": 0, "fusion_lon": 0.0, "lat": 38.908717, "is_disabled": 0, "name": "07a19da332f67cf59790efd439b4f7f0", "fusion_lat": 0.0, "rental_uris": {"ios": "https://dc.lft.to/lastmile_qr_scan", "android": "https://dc.lft.to/lastmile_qr_scan"}, "lon": -77.0329455, "type": "electric_scooter"}, {"bike_id": "3dfd0e306f1c1001046e4dadc1ff3ed4", "is_reserved": 0, "fusion_lon": 0.0, "lat": 38.863742333333334, "is_disabled": 0, "name": "3dfd0e306f1c1001046e4dadc1ff3ed4", "fusion_lat": 0.0, "rental_uris": {"ios": "https://dc.lft.to/lastmile_qr_scan", "android": "https://dc.lft.to/lastmile_qr_scan"}, "lon": -77.01352716666666, "type": "electric_scooter"}, {"bike_id": "879fdacc270e557e1f67b4c6cc6d193d", "is_reserved": 0, "fusion_lon": 0.0, "lat": 38.929615, "is_disabled": 0, "name": "879fdacc270e557e1f67b4c6cc6d193d", "fusion_lat": 0.0, "rental_uris": {"ios": "https://dc.lft.to/lastmile_qr_scan", "android": "https://dc.lft.to/lastmile_qr_scan"}, "lon": -77.0114965, "type": "electric_scooter"}, {"bike_id": "73dedc94f3940c7f293e16d01259db8c", "is_reserved": 0, "fusion_lon": 0.0, "lat": 38.90531416666666, "is_disabled": 0, "name": "73dedc94f3940c7f293e16d01259db8c", "fusion_lat": 0.0, "rental_uris": {"ios": "https://dc.lft.to/lastmile_qr_scan", "android": "https://dc.lft.to/lastmile_qr_scan"}, "lon": -77.057617, "type": "electric_scooter"}, {"bike_id": "2c22347e5b2c51a63bdd2d3080dbd84a", "is_reserved": 0, "fusion_lon": 0.0, "lat": 38.91797, "is_disabled": 0, "name": "2c22347e5b2c51a63bdd2d3080dbd84a", "fusion_lat": 0.0, "rental_uris": {"ios": "https://dc.lft.to/lastmile_qr_scan", "android": "https://dc.lft.to/lastmile_qr_scan"}, "lon": -77.03441233333334, "type": "electric_scooter"}, {"bike_id": "e657c55ff38fa73f70cbb8685faec458", "is_reserved": 0, "fusion_lon": 0.0, "lat": 38.845710833333335, "is_disabled": 0, "name": "e657c55ff38fa73f70cbb8685faec458", "fusion_lat": 0.0, "rental_uris": {"ios": "https://dc.lft.to/lastmile_qr_scan", "android": "https://dc.lft.to/lastmile_qr_scan"}, "lon": -77.0962155, "type": "electric_bike"}, {"bike_id": "d8734a4b585790854693a13253ce86cb", "is_reserved": 0, "fusion_lon": 0.0, "lat": 38.897565166666666, "is_disabled": 0, "name": "d8734a4b585790854693a13253ce86cb", "fusion_lat": 0.0, "rental_uris": {"ios": "https://dc.lft.to/lastmile_qr_scan", "android": "https://dc.lft.to/lastmile_qr_scan"}, "lon": -77.046115, "type": "electric_scooter"}, {"bike_id": "3e890222b73a2f7e45faecb59fc7e38b", "is_reserved": 0, "fusion_lon": 0.0, "lat": 38.892848, "is_disabled": 0, "name": "3e890222b73a2f7e45faecb59fc7e38b", "fusion_lat": 0.0, "rental_uris": {"ios": "https://dc.lft.to/lastmile_qr_scan", "android": "https://dc.lft.to/lastmile_qr_scan"}, "lon": -77.02598233333333, "type": "electric_scooter"}, {"bike_id": "a8eff7dadddea92a0d314fcdb8245261", "is_reserved": 0, "fusion_lon": 0.0, "lat": 38.90474183333333, "is_disabled": 0, "name": "a8eff7dadddea92a0d314fcdb8245261", "fusion_lat": 0.0, "rental_uris": {"ios": "https://dc.lft.to/lastmile_qr_scan", "android": "https://dc.lft.to/lastmile_qr_scan"}, "lon": -77.04650033333333, "type": "electric_scooter"}, {"bike_id": "5c113961c4a404dfe190f790af43ab7b", "is_reserved": 0, "fusion_lon": 0.0, "lat": 38.86531466666667, "is_disabled": 0, "name": "5c113961c4a404dfe190f790af43ab7b", "fusion_lat": 0.0, "rental_uris": {"ios": "https://dc.lft.to/lastmile_qr_scan", "android": "https://dc.lft.to/lastmile_qr_scan"}, "lon": -76.99017566666667, "type": "electric_scooter"}, {"bike_id": "cfc505b6bb0e4555376fd9c23dfcb59a", "is_reserved": 0, "fusion_lon": 0.0, "lat": 38.940931, "is_disabled": 0, "name": "cfc505b6bb0e4555376fd9c23dfcb59a", "fusion_lat": 0.0, "rental_uris": {"ios": "https://dc.lft.to/lastmile_qr_scan", "android": "https://dc.lft.to/lastmile_qr_scan"}, "lon": -77.06190133333334, "type": "electric_scooter"}, {"bike_id": "b4620975c053913d6526b24a92f44fe2", "is_reserved": 0, "fusion_lon": 0.0, "lat": 38.916098, "is_disabled": 0, "name": "b4620975c053913d6526b24a92f44fe2", "fusion_lat": 0.0, "rental_uris": {"ios": "https://dc.lft.to/lastmile_qr_scan", "android": "https://dc.lft.to/lastmile_qr_scan"}, "lon": -77.04569483333333, "type": "electric_scooter"}, {"bike_id": "8a39807ee1e50a3429925a386a3d60f7", "is_reserved": 0, "fusion_lon": 0.0, "lat": 38.9066385, "is_disabled": 0, "name": "8a39807ee1e50a3429925a386a3d60f7", "fusion_lat": 0.0, "rental_uris": {"ios": "https://dc.lft.to/lastmile_qr_scan", "android": "https://dc.lft.to/lastmile_qr_scan"}, "lon": -77.03817633333334, "type": "electric_scooter"}, {"bike_id": "49f508c20cde0002f238fe5304f07624", "is_reserved": 0, "fusion_lon": 0.0, "lat": 38.911454166666665, "is_disabled": 0, "name": "49f508c20cde0002f238fe5304f07624", "fusion_lat": 0.0, "rental_uris": {"ios": "https://dc.lft.to/lastmile_qr_scan", "android": "https://dc.lft.to/lastmile_qr_scan"}, "lon": -77.0416025, "type": "electric_scooter"}, {"bike_id": "d2ff31286f1dbe0f75fbed7743959e4c", "is_reserved": 0, "fusion_lon": 0.0, "lat": 38.93672733333333, "is_disabled": 0, "name": "d2ff31286f1dbe0f75fbed7743959e4c", "fusion_lat": 0.0, "rental_uris": {"ios": "https://dc.lft.to/lastmile_qr_scan", "android": "https://dc.lft.to/lastmile_qr_scan"}, "lon": -76.95196216666666, "type": "electric_bike"}, {"bike_id": "536063b99a08b6e19f16be4dad49ae78", "is_reserved": 0, "fusion_lon": 0.0, "lat": 38.871904666666666, "is_disabled": 0, "name": "536063b99a08b6e19f16be4dad49ae78", "fusion_lat": 0.0, "rental_uris": {"ios": "https://dc.lft.to/lastmile_qr_scan", "android": "https://dc.lft.to/lastmile_qr_scan"}, "lon": -77.01372966666666, "type": "electric_scooter"}, {"bike_id": "ae2b019eacb1e1a083636592be9f4d45", "is_reserved": 0, "fusion_lon": 0.0, "lat": 38.909046333333336, "is_disabled": 0, "name": "ae2b019eacb1e1a083636592be9f4d45", "fusion_lat": 0.0, "rental_uris": {"ios": "https://dc.lft.to/lastmile_qr_scan", "android": "https://dc.lft.to/lastmile_qr_scan"}, "lon": -77.0382595, "type": "electric_scooter"}, {"bike_id": "1ed19e7e54c7865562ef756edaed0f1f", "is_reserved": 0, "fusion_lon": 0.0, "lat": 38.928787, "is_disabled": 0, "name": "1ed19e7e54c7865562ef756edaed0f1f", "fusion_lat": 0.0, "rental_uris": {"ios": "https://dc.lft.to/lastmile_qr_scan", "android": "https://dc.lft.to/lastmile_qr_scan"}, "lon": -77.04048833333333, "type": "electric_scooter"}, {"bike_id": "7bacef75833eec66cda5fe800abc3e19", "is_reserved": 0, "fusion_lon": 0.0, "lat": 38.91940533333333, "is_disabled": 0, "name": "7bacef75833eec66cda5fe800abc3e19", "fusion_lat": 0.0, "rental_uris": {"ios": "https://dc.lft.to/lastmile_qr_scan", "android": "https://dc.lft.to/lastmile_qr_scan"}, "lon": -76.97891783333333, "type": "electric_bike"}, {"bike_id": "ffc4062b389dbb98fa2e3fd9bff4a953", "is_reserved": 0, "fusion_lon": 0.0, "lat": 38.900030666666666, "is_disabled": 0, "name": "ffc4062b389dbb98fa2e3fd9bff4a953", "fusion_lat": 0.0, "rental_uris": {"ios": "https://dc.lft.to/lastmile_qr_scan", "android": "https://dc.lft.to/lastmile_qr_scan"}, "lon": -76.99752616666666, "type": "electric_scooter"}, {"bike_id": "fa4792c32ada63dd655167bf8983e09f", "is_reserved": 0, "fusion_lon": 0.0, "lat": 38.8850965, "is_disabled": 0, "name": "fa4792c32ada63dd655167bf8983e09f", "fusion_lat": 0.0, "rental_uris": {"ios": "https://dc.lft.to/lastmile_qr_scan", "android": "https://dc.lft.to/lastmile_qr_scan"}, "lon": -77.01711183333333, "type": "electric_scooter"}, {"bike_id": "8fa8fa95fa55016f52fbf6f812b13ac6", "is_reserved": 0, "fusion_lon": 0.0, "lat": 38.88400133333333, "is_disabled": 0, "name": "8fa8fa95fa55016f52fbf6f812b13ac6", "fusion_lat": 0.0, "rental_uris": {"ios": "https://dc.lft.to/lastmile_qr_scan", "android": "https://dc.lft.to/lastmile_qr_scan"}, "lon": -76.960509, "type": "electric_bike"}, {"bike_id": "c68a58f9e82f1870128b0ba57d84a114", "is_reserved": 0, "fusion_lon": 0.0, "lat": 38.89218433333333, "is_disabled": 0, "name": "c68a58f9e82f1870128b0ba57d84a114", "fusion_lat": 0.0, "rental_uris": {"ios": "https://dc.lft.to/lastmile_qr_scan", "android": "https://dc.lft.to/lastmile_qr_scan"}, "lon": -77.048624, "type": "electric_scooter"}, {"bike_id": "53ffa62d565672ca0bcce892bbe8cc28", "is_reserved": 0, "fusion_lon": 0.0, "lat": 38.885969, "is_disabled": 0, "name": "53ffa62d565672ca0bcce892bbe8cc28", "fusion_lat": 0.0, "rental_uris": {"ios": "https://dc.lft.to/lastmile_qr_scan", "android": "https://dc.lft.to/lastmile_qr_scan"}, "lon": -77.00565333333333, "type": "electric_scooter"}, {"bike_id": "c56a202fe91f86181a9fdeea55e1123c", "is_reserved": 0, "fusion_lon": 0.0, "lat": 38.914409166666665, "is_disabled": 0, "name": "c56a202fe91f86181a9fdeea55e1123c", "fusion_lat": 0.0, "rental_uris": {"ios": "https://dc.lft.to/lastmile_qr_scan", "android": "https://dc.lft.to/lastmile_qr_scan"}, "lon": -77.03465666666666, "type": "electric_scooter"}, {"bike_id": "ecc7dc79154a61f0c17f574e25fcd73b", "is_reserved": 0, "fusion_lon": 0.0, "lat": 38.844261, "is_disabled": 0, "name": "ecc7dc79154a61f0c17f574e25fcd73b", "fusion_lat": 0.0, "rental_uris": {"ios": "https://dc.lft.to/lastmile_qr_scan", "android": "https://dc.lft.to/lastmile_qr_scan"}, "lon": -76.99775583333333, "type": "electric_scooter"}, {"bike_id": "ec476b8da15b478636250ebace17d23f", "is_reserved": 0, "fusion_lon": 0.0, "lat": 38.89800866666667, "is_disabled": 0, "name": "ec476b8da15b478636250ebace17d23f", "fusion_lat": 0.0, "rental_uris": {"ios": "https://dc.lft.to/lastmile_qr_scan", "android": "https://dc.lft.to/lastmile_qr_scan"}, "lon": -76.99167883333334, "type": "electric_scooter"}, {"bike_id": "3c12828447ba2f4fc36517b9f3e1755e", "is_reserved": 0, "fusion_lon": 0.0, "lat": 38.91194683333333, "is_disabled": 0, "name": "3c12828447ba2f4fc36517b9f3e1755e", "fusion_lat": 0.0, "rental_uris": {"ios": "https://dc.lft.to/lastmile_qr_scan", "android": "https://dc.lft.to/lastmile_qr_scan"}, "lon": -77.060979, "type": "electric_scooter"}, {"bike_id": "82ed925bcd20a2541a411b5b5244ef37", "is_reserved": 0, "fusion_lon": 0.0, "lat": 38.9349105, "is_disabled": 0, "name": "82ed925bcd20a2541a411b5b5244ef37", "fusion_lat": 0.0, "rental_uris": {"ios": "https://dc.lft.to/lastmile_qr_scan", "android": "https://dc.lft.to/lastmile_qr_scan"}, "lon": -77.02839216666666, "type": "electric_scooter"}, {"bike_id": "31d7d328efd218eb8df8a01110cf8a7e", "is_reserved": 0, "fusion_lon": 0.0, "lat": 38.911937, "is_disabled": 0, "name": "31d7d328efd218eb8df8a01110cf8a7e", "fusion_lat": 0.0, "rental_uris": {"ios": "https://dc.lft.to/lastmile_qr_scan", "android": "https://dc.lft.to/lastmile_qr_scan"}, "lon": -77.0454185, "type": "electric_scooter"}, {"bike_id": "b8a3d6e5fac9bf3cbb45ea7112216640", "is_reserved": 0, "fusion_lon": 0.0, "lat": 38.903041, "is_disabled": 0, "name": "b8a3d6e5fac9bf3cbb45ea7112216640", "fusion_lat": 0.0, "rental_uris": {"ios": "https://dc.lft.to/lastmile_qr_scan", "android": "https://dc.lft.to/lastmile_qr_scan"}, "lon": -77.03312566666666, "type": "electric_scooter"}, {"bike_id": "b2215fdef92d767bd926263a94a54d7b", "is_reserved": 0, "fusion_lon": 0.0, "lat": 38.900217, "is_disabled": 0, "name": "b2215fdef92d767bd926263a94a54d7b", "fusion_lat": 0.0, "rental_uris": {"ios": "https://dc.lft.to/lastmile_qr_scan", "android": "https://dc.lft.to/lastmile_qr_scan"}, "lon": -76.99521616666667, "type": "electric_scooter"}, {"bike_id": "812e24d2f1d20781a67accc99818d93f", "is_reserved": 0, "fusion_lon": 0.0, "lat": 38.81049, "is_disabled": 0, "name": "812e24d2f1d20781a67accc99818d93f", "fusion_lat": 0.0, "rental_uris": {"ios": "https://dc.lft.to/lastmile_qr_scan", "android": "https://dc.lft.to/lastmile_qr_scan"}, "lon": -77.08507316666666, "type": "electric_bike"}, {"bike_id": "685e40f8760735d0f0cc1043a83d90da", "is_reserved": 0, "fusion_lon": 0.0, "lat": 38.946036166666666, "is_disabled": 0, "name": "685e40f8760735d0f0cc1043a83d90da", "fusion_lat": 0.0, "rental_uris": {"ios": "https://dc.lft.to/lastmile_qr_scan", "android": "https://dc.lft.to/lastmile_qr_scan"}, "lon": -77.02980083333334, "type": "electric_scooter"}, {"bike_id": "4d9a7a706c2a05b975a7e0f8feee0fbd", "is_reserved": 0, "fusion_lon": 0.0, "lat": 38.85434716666666, "is_disabled": 0, "name": "4d9a7a706c2a05b975a7e0f8feee0fbd", "fusion_lat": 0.0, "rental_uris": {"ios": "https://dc.lft.to/lastmile_qr_scan", "android": "https://dc.lft.to/lastmile_qr_scan"}, "lon": -76.90975083333333, "type": "electric_bike"}, {"bike_id": "ecdfc3c9a5a8b556ca7361b694169dfa", "is_reserved": 0, "fusion_lon": 0.0, "lat": 38.90367766666667, "is_disabled": 0, "name": "ecdfc3c9a5a8b556ca7361b694169dfa", "fusion_lat": 0.0, "rental_uris": {"ios": "https://dc.lft.to/lastmile_qr_scan", "android": "https://dc.lft.to/lastmile_qr_scan"}, "lon": -77.04343633333333, "type": "electric_scooter"}, {"bike_id": "425fdcfa612d9dd2c37e97ea9fba763b", "is_reserved": 0, "fusion_lon": 0.0, "lat": 38.90729066666667, "is_disabled": 0, "name": "425fdcfa612d9dd2c37e97ea9fba763b", "fusion_lat": 0.0, "rental_uris": {"ios": "https://dc.lft.to/lastmile_qr_scan", "android": "https://dc.lft.to/lastmile_qr_scan"}, "lon": -77.03198533333334, "type": "electric_scooter"}, {"bike_id": "48bbee7f0c6dea4ccbcc382c63735c5e", "is_reserved": 0, "fusion_lon": 0.0, "lat": 38.90545133333333, "is_disabled": 0, "name": "48bbee7f0c6dea4ccbcc382c63735c5e", "fusion_lat": 0.0, "rental_uris": {"ios": "https://dc.lft.to/lastmile_qr_scan", "android": "https://dc.lft.to/lastmile_qr_scan"}, "lon": -77.00605416666667, "type": "electric_scooter"}, {"bike_id": "82d32d9517b33d95c6dccc731e3837c3", "is_reserved": 0, "fusion_lon": 0.0, "lat": 38.911057666666665, "is_disabled": 0, "name": "82d32d9517b33d95c6dccc731e3837c3", "fusion_lat": 0.0, "rental_uris": {"ios": "https://dc.lft.to/lastmile_qr_scan", "android": "https://dc.lft.to/lastmile_qr_scan"}, "lon": -77.00269033333333, "type": "electric_scooter"}, {"bike_id": "8fb3d234d2f7d7af56f487fef4c059cc", "is_reserved": 0, "fusion_lon": 0.0, "lat": 38.9070185, "is_disabled": 0, "name": "8fb3d234d2f7d7af56f487fef4c059cc", "fusion_lat": 0.0, "rental_uris": {"ios": "https://dc.lft.to/lastmile_qr_scan", "android": "https://dc.lft.to/lastmile_qr_scan"}, "lon": -77.03205, "type": "electric_scooter"}, {"bike_id": "ee3d5955aefad3275926f97c3fb7e4d6", "is_reserved": 0, "fusion_lon": 0.0, "lat": 38.91886066666667, "is_disabled": 0, "name": "ee3d5955aefad3275926f97c3fb7e4d6", "fusion_lat": 0.0, "rental_uris": {"ios": "https://dc.lft.to/lastmile_qr_scan", "android": "https://dc.lft.to/lastmile_qr_scan"}, "lon": -77.03519966666667, "type": "electric_scooter"}, {"bike_id": "743f4338623ce5ecf71c6515fb903fdd", "is_reserved": 0, "fusion_lon": 0.0, "lat": 38.92286583333333, "is_disabled": 0, "name": "743f4338623ce5ecf71c6515fb903fdd", "fusion_lat": 0.0, "rental_uris": {"ios": "https://dc.lft.to/lastmile_qr_scan", "android": "https://dc.lft.to/lastmile_qr_scan"}, "lon": -77.03661883333334, "type": "electric_scooter"}, {"bike_id": "d7a5125f6ad392ba55cd2e5dd21aaa05", "is_reserved": 0, "fusion_lon": 0.0, "lat": 38.926669833333335, "is_disabled": 0, "name": "d7a5125f6ad392ba55cd2e5dd21aaa05", "fusion_lat": 0.0, "rental_uris": {"ios": "https://dc.lft.to/lastmile_qr_scan", "android": "https://dc.lft.to/lastmile_qr_scan"}, "lon": -76.99536316666666, "type": "electric_scooter"}, {"bike_id": "8b35d040e98eee727ac4597cce0c00f8", "is_reserved": 0, "fusion_lon": 0.0, "lat": 38.917660833333336, "is_disabled": 0, "name": "8b35d040e98eee727ac4597cce0c00f8", "fusion_lat": 0.0, "rental_uris": {"ios": "https://dc.lft.to/lastmile_qr_scan", "android": "https://dc.lft.to/lastmile_qr_scan"}, "lon": -77.04737016666667, "type": "electric_scooter"}, {"bike_id": "d0dd1d452358c88e6a40548b7cb5f39f", "is_reserved": 0, "fusion_lon": 0.0, "lat": 38.907235, "is_disabled": 0, "name": "d0dd1d452358c88e6a40548b7cb5f39f", "fusion_lat": 0.0, "rental_uris": {"ios": "https://dc.lft.to/lastmile_qr_scan", "android": "https://dc.lft.to/lastmile_qr_scan"}, "lon": -77.02939433333333, "type": "electric_scooter"}, {"bike_id": "00c1ae946308ca2cc977cb1ef8b34739", "is_reserved": 0, "fusion_lon": 0.0, "lat": 38.8763275, "is_disabled": 0, "name": "00c1ae946308ca2cc977cb1ef8b34739", "fusion_lat": 0.0, "rental_uris": {"ios": "https://dc.lft.to/lastmile_qr_scan", "android": "https://dc.lft.to/lastmile_qr_scan"}, "lon": -76.96527233333333, "type": "electric_scooter"}, {"bike_id": "7b8a7f24662d670c8d54a72d765f9aab", "is_reserved": 0, "fusion_lon": 0.0, "lat": 38.9017135, "is_disabled": 0, "name": "7b8a7f24662d670c8d54a72d765f9aab", "fusion_lat": 0.0, "rental_uris": {"ios": "https://dc.lft.to/lastmile_qr_scan", "android": "https://dc.lft.to/lastmile_qr_scan"}, "lon": -76.98078933333333, "type": "electric_scooter"}, {"bike_id": "d459a9ea98e78d6eca4d9a5a193260ba", "is_reserved": 0, "fusion_lon": 0.0, "lat": 38.9650505, "is_disabled": 0, "name": "d459a9ea98e78d6eca4d9a5a193260ba", "fusion_lat": 0.0, "rental_uris": {"ios": "https://dc.lft.to/lastmile_qr_scan", "android": "https://dc.lft.to/lastmile_qr_scan"}, "lon": -77.02828933333333, "type": "electric_bike"}, {"bike_id": "4613e477b3437acf021c588ca6120d2e", "is_reserved": 0, "fusion_lon": 0.0, "lat": 38.893246, "is_disabled": 0, "name": "4613e477b3437acf021c588ca6120d2e", "fusion_lat": 0.0, "rental_uris": {"ios": "https://dc.lft.to/lastmile_qr_scan", "android": "https://dc.lft.to/lastmile_qr_scan"}, "lon": -76.92990433333334, "type": "electric_scooter"}, {"bike_id": "a75655f3111918ca31a65519e402cd4c", "is_reserved": 0, "fusion_lon": 0.0, "lat": 38.899796333333335, "is_disabled": 0, "name": "a75655f3111918ca31a65519e402cd4c", "fusion_lat": 0.0, "rental_uris": {"ios": "https://dc.lft.to/lastmile_qr_scan", "android": "https://dc.lft.to/lastmile_qr_scan"}, "lon": -76.99143733333334, "type": "electric_scooter"}, {"bike_id": "57903c65e6e32fd3a0f17d95134339d8", "is_reserved": 0, "fusion_lon": 0.0, "lat": 38.9067495, "is_disabled": 0, "name": "57903c65e6e32fd3a0f17d95134339d8", "fusion_lat": 0.0, "rental_uris": {"ios": "https://dc.lft.to/lastmile_qr_scan", "android": "https://dc.lft.to/lastmile_qr_scan"}, "lon": -77.03754166666667, "type": "electric_scooter"}, {"bike_id": "17aa6937fc1d5014902e0951a9bf1320", "is_reserved": 0, "fusion_lon": 0.0, "lat": 38.91660316666667, "is_disabled": 0, "name": "17aa6937fc1d5014902e0951a9bf1320", "fusion_lat": 0.0, "rental_uris": {"ios": "https://dc.lft.to/lastmile_qr_scan", "android": "https://dc.lft.to/lastmile_qr_scan"}, "lon": -77.02705466666667, "type": "electric_scooter"}, {"bike_id": "29f14835bc3fd61d1df57f1f78763167", "is_reserved": 0, "fusion_lon": 0.0, "lat": 38.90449483333333, "is_disabled": 0, "name": "29f14835bc3fd61d1df57f1f78763167", "fusion_lat": 0.0, "rental_uris": {"ios": "https://dc.lft.to/lastmile_qr_scan", "android": "https://dc.lft.to/lastmile_qr_scan"}, "lon": -77.0198325, "type": "electric_scooter"}, {"bike_id": "8e23471cda5355da83b29cf6433766d9", "is_reserved": 0, "fusion_lon": 0.0, "lat": 38.90476866666667, "is_disabled": 0, "name": "8e23471cda5355da83b29cf6433766d9", "fusion_lat": 0.0, "rental_uris": {"ios": "https://dc.lft.to/lastmile_qr_scan", "android": "https://dc.lft.to/lastmile_qr_scan"}, "lon": -77.06009233333333, "type": "electric_scooter"}, {"bike_id": "69a10ff50c41c9ebb319c78dd0ab701a", "is_reserved": 0, "fusion_lon": 0.0, "lat": 38.90019783333334, "is_disabled": 0, "name": "69a10ff50c41c9ebb319c78dd0ab701a", "fusion_lat": 0.0, "rental_uris": {"ios": "https://dc.lft.to/lastmile_qr_scan", "android": "https://dc.lft.to/lastmile_qr_scan"}, "lon": -76.99531183333333, "type": "electric_scooter"}, {"bike_id": "4fba783218ff333240d88337a1720088", "is_reserved": 0, "fusion_lon": 0.0, "lat": 38.901311166666666, "is_disabled": 0, "name": "4fba783218ff333240d88337a1720088", "fusion_lat": 0.0, "rental_uris": {"ios": "https://dc.lft.to/lastmile_qr_scan", "android": "https://dc.lft.to/lastmile_qr_scan"}, "lon": -76.99791116666667, "type": "electric_scooter"}, {"bike_id": "6ef63730bf3a8c570ee9f6416819c8bf", "is_reserved": 0, "fusion_lon": 0.0, "lat": 39.030420166666666, "is_disabled": 0, "name": "6ef63730bf3a8c570ee9f6416819c8bf", "fusion_lat": 0.0, "rental_uris": {"ios": "https://dc.lft.to/lastmile_qr_scan", "android": "https://dc.lft.to/lastmile_qr_scan"}, "lon": -77.09475116666667, "type": "electric_bike"}, {"bike_id": "9ef6ca886d61e33c5e7d576002b51a77", "is_reserved": 0, "fusion_lon": 0.0, "lat": 38.92106616666667, "is_disabled": 0, "name": "9ef6ca886d61e33c5e7d576002b51a77", "fusion_lat": 0.0, "rental_uris": {"ios": "https://dc.lft.to/lastmile_qr_scan", "android": "https://dc.lft.to/lastmile_qr_scan"}, "lon": -77.04203383333333, "type": "electric_scooter"}, {"bike_id": "28c5e0387a8d907d7bff1885f81c9ab3", "is_reserved": 0, "fusion_lon": 0.0, "lat": 38.9076365, "is_disabled": 0, "name": "28c5e0387a8d907d7bff1885f81c9ab3", "fusion_lat": 0.0, "rental_uris": {"ios": "https://dc.lft.to/lastmile_qr_scan", "android": "https://dc.lft.to/lastmile_qr_scan"}, "lon": -77.06912916666667, "type": "electric_scooter"}, {"bike_id": "bf6783b20277dcb215aa1eb42faeae7a", "is_reserved": 0, "fusion_lon": 0.0, "lat": 38.99825216666667, "is_disabled": 0, "name": "bf6783b20277dcb215aa1eb42faeae7a", "fusion_lat": 0.0, "rental_uris": {"ios": "https://dc.lft.to/lastmile_qr_scan", "android": "https://dc.lft.to/lastmile_qr_scan"}, "lon": -76.883717, "type": "electric_bike"}, {"bike_id": "bcbcc4b3885aad23c0921eef9a3709aa", "is_reserved": 0, "fusion_lon": 0.0, "lat": 38.9311145, "is_disabled": 0, "name": "bcbcc4b3885aad23c0921eef9a3709aa", "fusion_lat": 0.0, "rental_uris": {"ios": "https://dc.lft.to/lastmile_qr_scan", "android": "https://dc.lft.to/lastmile_qr_scan"}, "lon": -77.038406, "type": "electric_scooter"}, {"bike_id": "cab68bf5cf13d9e5900fb60191e0ab06", "is_reserved": 0, "fusion_lon": 0.0, "lat": 38.92477216666666, "is_disabled": 0, "name": "cab68bf5cf13d9e5900fb60191e0ab06", "fusion_lat": 0.0, "rental_uris": {"ios": "https://dc.lft.to/lastmile_qr_scan", "android": "https://dc.lft.to/lastmile_qr_scan"}, "lon": -77.05212766666666, "type": "electric_scooter"}, {"bike_id": "e26ee09672de548938934d635ce62f25", "is_reserved": 0, "fusion_lon": 0.0, "lat": 38.912493833333336, "is_disabled": 0, "name": "e26ee09672de548938934d635ce62f25", "fusion_lat": 0.0, "rental_uris": {"ios": "https://dc.lft.to/lastmile_qr_scan", "android": "https://dc.lft.to/lastmile_qr_scan"}, "lon": -77.03647116666667, "type": "electric_scooter"}, {"bike_id": "b0844bd26769a3a983004d8a47f0b631", "is_reserved": 0, "fusion_lon": 0.0, "lat": 38.92474216666667, "is_disabled": 0, "name": "b0844bd26769a3a983004d8a47f0b631", "fusion_lat": 0.0, "rental_uris": {"ios": "https://dc.lft.to/lastmile_qr_scan", "android": "https://dc.lft.to/lastmile_qr_scan"}, "lon": -77.02834683333333, "type": "electric_scooter"}, {"bike_id": "867f888fe6b2c0289e4f155de7af3cbd", "is_reserved": 0, "fusion_lon": 0.0, "lat": 38.9518415, "is_disabled": 0, "name": "867f888fe6b2c0289e4f155de7af3cbd", "fusion_lat": 0.0, "rental_uris": {"ios": "https://dc.lft.to/lastmile_qr_scan", "android": "https://dc.lft.to/lastmile_qr_scan"}, "lon": -76.935416, "type": "electric_bike"}, {"bike_id": "67e3727fbf4ac90c942e1c7fa8f34a36", "is_reserved": 0, "fusion_lon": 0.0, "lat": 38.911900333333335, "is_disabled": 0, "name": "67e3727fbf4ac90c942e1c7fa8f34a36", "fusion_lat": 0.0, "rental_uris": {"ios": "https://dc.lft.to/lastmile_qr_scan", "android": "https://dc.lft.to/lastmile_qr_scan"}, "lon": -77.06080716666666, "type": "electric_scooter"}, {"bike_id": "32b8d22a84fe7be67c92506d9f080d67", "is_reserved": 0, "fusion_lon": 0.0, "lat": 38.9179275, "is_disabled": 0, "name": "32b8d22a84fe7be67c92506d9f080d67", "fusion_lat": 0.0, "rental_uris": {"ios": "https://dc.lft.to/lastmile_qr_scan", "android": "https://dc.lft.to/lastmile_qr_scan"}, "lon": -77.023084, "type": "electric_scooter"}, {"bike_id": "c723cf19e15c81e0b658dfaf720c5a4c", "is_reserved": 0, "fusion_lon": 0.0, "lat": 38.917084833333334, "is_disabled": 0, "name": "c723cf19e15c81e0b658dfaf720c5a4c", "fusion_lat": 0.0, "rental_uris": {"ios": "https://dc.lft.to/lastmile_qr_scan", "android": "https://dc.lft.to/lastmile_qr_scan"}, "lon": -77.0011415, "type": "electric_scooter"}, {"bike_id": "137b6fd199f363ba71a7f24cfdeb1dda", "is_reserved": 0, "fusion_lon": 0.0, "lat": 38.927133166666664, "is_disabled": 0, "name": "137b6fd199f363ba71a7f24cfdeb1dda", "fusion_lat": 0.0, "rental_uris": {"ios": "https://dc.lft.to/lastmile_qr_scan", "android": "https://dc.lft.to/lastmile_qr_scan"}, "lon": -77.03854016666666, "type": "electric_scooter"}, {"bike_id": "b881d7855d10a9951774102727525ac7", "is_reserved": 0, "fusion_lon": 0.0, "lat": 38.95642766666667, "is_disabled": 0, "name": "b881d7855d10a9951774102727525ac7", "fusion_lat": 0.0, "rental_uris": {"ios": "https://dc.lft.to/lastmile_qr_scan", "android": "https://dc.lft.to/lastmile_qr_scan"}, "lon": -76.99743916666667, "type": "electric_bike"}, {"bike_id": "4a3ec5896360019ebd1d4e2d99c85534", "is_reserved": 0, "fusion_lon": 0.0, "lat": 38.907608333333336, "is_disabled": 0, "name": "4a3ec5896360019ebd1d4e2d99c85534", "fusion_lat": 0.0, "rental_uris": {"ios": "https://dc.lft.to/lastmile_qr_scan", "android": "https://dc.lft.to/lastmile_qr_scan"}, "lon": -77.032097, "type": "electric_scooter"}, {"bike_id": "a53c96afcba2d83fcb6466e92b6c4c27", "is_reserved": 0, "fusion_lon": 0.0, "lat": 38.885919333333334, "is_disabled": 0, "name": "a53c96afcba2d83fcb6466e92b6c4c27", "fusion_lat": 0.0, "rental_uris": {"ios": "https://dc.lft.to/lastmile_qr_scan", "android": "https://dc.lft.to/lastmile_qr_scan"}, "lon": -77.01765466666667, "type": "electric_scooter"}, {"bike_id": "6c0762078a79a2dd6d807836f7987dc8", "is_reserved": 0, "fusion_lon": 0.0, "lat": 38.869328833333334, "is_disabled": 0, "name": "6c0762078a79a2dd6d807836f7987dc8", "fusion_lat": 0.0, "rental_uris": {"ios": "https://dc.lft.to/lastmile_qr_scan", "android": "https://dc.lft.to/lastmile_qr_scan"}, "lon": -76.96013833333333, "type": "electric_bike"}, {"bike_id": "ff45537221b8c3ab1fcbf453b22d1eac", "is_reserved": 0, "fusion_lon": 0.0, "lat": 38.90524383333333, "is_disabled": 0, "name": "ff45537221b8c3ab1fcbf453b22d1eac", "fusion_lat": 0.0, "rental_uris": {"ios": "https://dc.lft.to/lastmile_qr_scan", "android": "https://dc.lft.to/lastmile_qr_scan"}, "lon": -77.026944, "type": "electric_scooter"}, {"bike_id": "6ab42e1572004e2aa3cfa848e831620b", "is_reserved": 0, "fusion_lon": 0.0, "lat": 38.90343383333333, "is_disabled": 0, "name": "6ab42e1572004e2aa3cfa848e831620b", "fusion_lat": 0.0, "rental_uris": {"ios": "https://dc.lft.to/lastmile_qr_scan", "android": "https://dc.lft.to/lastmile_qr_scan"}, "lon": -77.03835966666666, "type": "electric_scooter"}, {"bike_id": "6d86151a232a88a97e4bdfc6ceda15ea", "is_reserved": 0, "fusion_lon": 0.0, "lat": 38.959250833333336, "is_disabled": 0, "name": "6d86151a232a88a97e4bdfc6ceda15ea", "fusion_lat": 0.0, "rental_uris": {"ios": "https://dc.lft.to/lastmile_qr_scan", "android": "https://dc.lft.to/lastmile_qr_scan"}, "lon": -77.03320433333333, "type": "electric_scooter"}, {"bike_id": "9fde39273fdc670a9598888b74e3c6bd", "is_reserved": 0, "fusion_lon": 0.0, "lat": 38.93985033333333, "is_disabled": 0, "name": "9fde39273fdc670a9598888b74e3c6bd", "fusion_lat": 0.0, "rental_uris": {"ios": "https://dc.lft.to/lastmile_qr_scan", "android": "https://dc.lft.to/lastmile_qr_scan"}, "lon": -77.02506583333333, "type": "electric_bike"}, {"bike_id": "fd11bffe63c984bc7e573895cef76a16", "is_reserved": 0, "fusion_lon": 0.0, "lat": 38.90802016666667, "is_disabled": 0, "name": "fd11bffe63c984bc7e573895cef76a16", "fusion_lat": 0.0, "rental_uris": {"ios": "https://dc.lft.to/lastmile_qr_scan", "android": "https://dc.lft.to/lastmile_qr_scan"}, "lon": -77.03459833333334, "type": "electric_scooter"}, {"bike_id": "40a79c583c39786e2a13a7f64419231b", "is_reserved": 0, "fusion_lon": 0.0, "lat": 38.916793166666665, "is_disabled": 0, "name": "40a79c583c39786e2a13a7f64419231b", "fusion_lat": 0.0, "rental_uris": {"ios": "https://dc.lft.to/lastmile_qr_scan", "android": "https://dc.lft.to/lastmile_qr_scan"}, "lon": -77.02948833333333, "type": "electric_scooter"}, {"bike_id": "ff8b9eae8dc8b9be0e5e408ebd834142", "is_reserved": 0, "fusion_lon": 0.0, "lat": 38.865640666666664, "is_disabled": 0, "name": "ff8b9eae8dc8b9be0e5e408ebd834142", "fusion_lat": 0.0, "rental_uris": {"ios": "https://dc.lft.to/lastmile_qr_scan", "android": "https://dc.lft.to/lastmile_qr_scan"}, "lon": -76.989445, "type": "electric_scooter"}, {"bike_id": "8703f87effcca61a441cd96384eed922", "is_reserved": 0, "fusion_lon": 0.0, "lat": 38.914885166666664, "is_disabled": 0, "name": "8703f87effcca61a441cd96384eed922", "fusion_lat": 0.0, "rental_uris": {"ios": "https://dc.lft.to/lastmile_qr_scan", "android": "https://dc.lft.to/lastmile_qr_scan"}, "lon": -77.00830266666667, "type": "electric_scooter"}, {"bike_id": "8d77ad90a50944ce40db53980f9b6ad0", "is_reserved": 0, "fusion_lon": 0.0, "lat": 39.058102833333336, "is_disabled": 0, "name": "8d77ad90a50944ce40db53980f9b6ad0", "fusion_lat": 0.0, "rental_uris": {"ios": "https://dc.lft.to/lastmile_qr_scan", "android": "https://dc.lft.to/lastmile_qr_scan"}, "lon": -77.12623166666667, "type": "electric_bike"}, {"bike_id": "0a75cf3046d661dc09af5fbf739c4284", "is_reserved": 0, "fusion_lon": 0.0, "lat": 38.8460895, "is_disabled": 0, "name": "0a75cf3046d661dc09af5fbf739c4284", "fusion_lat": 0.0, "rental_uris": {"ios": "https://dc.lft.to/lastmile_qr_scan", "android": "https://dc.lft.to/lastmile_qr_scan"}, "lon": -76.97830433333333, "type": "electric_bike"}, {"bike_id": "e0790e56982ad9d53c14e1b4ab0e82d5", "is_reserved": 0, "fusion_lon": 0.0, "lat": 38.90238733333333, "is_disabled": 0, "name": "e0790e56982ad9d53c14e1b4ab0e82d5", "fusion_lat": 0.0, "rental_uris": {"ios": "https://dc.lft.to/lastmile_qr_scan", "android": "https://dc.lft.to/lastmile_qr_scan"}, "lon": -77.0019815, "type": "electric_scooter"}, {"bike_id": "93c914bdefba4f3496ed8e31891f1523", "is_reserved": 0, "fusion_lon": 0.0, "lat": 38.89609016666667, "is_disabled": 0, "name": "93c914bdefba4f3496ed8e31891f1523", "fusion_lat": 0.0, "rental_uris": {"ios": "https://dc.lft.to/lastmile_qr_scan", "android": "https://dc.lft.to/lastmile_qr_scan"}, "lon": -77.011317, "type": "electric_scooter"}, {"bike_id": "df460f2fc8ebd63ad202eca7fd0ba487", "is_reserved": 0, "fusion_lon": 0.0, "lat": 38.953562, "is_disabled": 0, "name": "df460f2fc8ebd63ad202eca7fd0ba487", "fusion_lat": 0.0, "rental_uris": {"ios": "https://dc.lft.to/lastmile_qr_scan", "android": "https://dc.lft.to/lastmile_qr_scan"}, "lon": -76.98090233333333, "type": "electric_bike"}, {"bike_id": "323086c32cdaf90246cd4e65e63494e0", "is_reserved": 0, "fusion_lon": 0.0, "lat": 38.89842766666666, "is_disabled": 0, "name": "323086c32cdaf90246cd4e65e63494e0", "fusion_lat": 0.0, "rental_uris": {"ios": "https://dc.lft.to/lastmile_qr_scan", "android": "https://dc.lft.to/lastmile_qr_scan"}, "lon": -77.028681, "type": "electric_scooter"}, {"bike_id": "67f181ae0e5735436eaaccef3cc20f91", "is_reserved": 0, "fusion_lon": 0.0, "lat": 38.895549, "is_disabled": 0, "name": "67f181ae0e5735436eaaccef3cc20f91", "fusion_lat": 0.0, "rental_uris": {"ios": "https://dc.lft.to/lastmile_qr_scan", "android": "https://dc.lft.to/lastmile_qr_scan"}, "lon": -76.93043433333334, "type": "electric_scooter"},