{"data": {"bikes": [{"lon": -77.025943, "is_disabled": 0, "lat": 38.89651466666667, "fusion_lat": 0.0, "is_reserved": 0, "rental_uris": {"ios": "https://dc.lft.to/lastmile_qr_scan", "android": "https://dc.lft.to/lastmile_qr_scan"}, "fusion_lon": 0.0, "type": "electric_scooter", "bike_id": "9488d9c793ccc4072380c16f69ed36d8", "name": "9488d9c793ccc4072380c16f69ed36d8"}, {"lon": -77.04479683333334, "is_disabled": 0, "lat": 38.90377683333333, "fusion_lat": 0.0, "is_reserved": 0, "rental_uris": {"ios": "https://dc.lft.to/lastmile_qr_scan", "android": "https://dc.lft.to/lastmile_qr_scan"}, "fusion_lon": 0.0, "type": "electric_scooter", "bike_id": "8c830691e18fa0f617eb517e4d58bdf0", "name": "8c830691e18fa0f617eb517e4d58bdf0"}, {"lon": -77.03144566666667, "is_disabled": 0, "lat": 38.900886, "fusion_lat": 0.0, "is_reserved": 0, "rental_uris": {"ios": "https://dc.lft.to/lastmile_qr_scan", "android": "https://dc.lft.to/lastmile_qr_scan"}, "fusion_lon": 0.0, "type": "electric_scooter", "bike_id": "eb9816229518710b322b963f79c4a9bf", "name": "eb9816229518710b322b963f79c4a9bf"}, {"lon": -77.03429466666667, "is_disabled": 0, "lat": 38.919159, "fusion_lat": 0.0, "is_reserved": 0, "rental_uris": {"ios": "https://dc.lft.to/lastmile_qr_scan", "android": "https://dc.lft.to/lastmile_qr_scan"}, "fusion_lon": 0.0, "type": "electric_scooter", "bike_id": "5e0440930d1107cba3b4bef8a6b43f65", "name": "5e0440930d1107cba3b4bef8a6b43f65"}, {"lon": -76.97885483333333, "is_disabled": 0, "lat": 38.901931, "fusion_lat": 0.0, "is_reserved": 0, "rental_uris": {"ios": "https://dc.lft.to/lastmile_qr_scan", "android": "https://dc.lft.to/lastmile_qr_scan"}, "fusion_lon": 0.0, "type": "electric_scooter", "bike_id": "38fad6ac4c1cf476315d0e2cba3ef118", "name": "38fad6ac4c1cf476315d0e2cba3ef118"}, {"lon": -77.04178216666666, "is_disabled": 0, "lat": 38.918369166666665, "fusion_lat": 0.0, "is_reserved": 0, "rental_uris": {"ios": "https://dc.lft.to/lastmile_qr_scan", "android": "https://dc.lft.to/lastmile_qr_scan"}, "fusion_lon": 0.0, "type": "electric_scooter", "bike_id": "a3cd5b7dbf7f33187e49fad9f35ea27f", "name": "a3cd5b7dbf7f33187e49fad9f35ea27f"}, {"lon": -77.02729983333333, "is_disabled": 0, "lat": 38.89661433333333, "fusion_lat": 0.0, "is_reserved": 0, "rental_uris": {"ios": "https://dc.lft.to/lastmile_qr_scan", "android": "https://dc.lft.to/lastmile_qr_scan"}, "fusion_lon": 0.0, "type": "electric_scooter", "bike_id": "1dc780f26ddf4af869c48cb1d85945a2", "name": "1dc780f26ddf4af869c48cb1d85945a2"}, {"lon": -76.99402983333333, "is_disabled": 0, "lat": 38.910127833333334, "fusion_lat": 0.0, "is_reserved": 0, "rental_uris": {"ios": "https://dc.lft.to/lastmile_qr_scan", "android": "https://dc.lft.to/lastmile_qr_scan"}, "fusion_lon": 0.0, "type": "electric_scooter", "bike_id": "0ce128e21c6f592a236d579bdbcb133c", "name": "0ce128e21c6f592a236d579bdbcb133c"}, {"lon": -77.0320435, "is_disabled": 0, "lat": 38.91199833333334, "fusion_lat": 0.0, "is_reserved": 0, "rental_uris": {"ios": "https://dc.lft.to/lastmile_qr_scan", "android": "https://dc.lft.to/lastmile_qr_scan"}, "fusion_lon": 0.0, "type": "electric_scooter", "bike_id": "08f900d5f61ec35523faac47bb9abd17", "name": "08f900d5f61ec35523faac47bb9abd17"}, {"lon": -77.01351933333333, "is_disabled": 0, "lat": 38.91915566666667, "fusion_lat": 0.0, "is_reserved": 0, "rental_uris": {"ios": "https://dc.lft.to/lastmile_qr_scan", "android": "https://dc.lft.to/lastmile_qr_scan"}, "fusion_lon": 0.0, "type": "electric_scooter", "bike_id": "a855a769bba8572e114c56c5f694f50b", "name": "a855a769bba8572e114c56c5f694f50b"}, {"lon": -77.0224475, "is_disabled": 0, "lat": 38.89194366666667, "fusion_lat": 0.0, "is_reserved": 0, "rental_uris": {"ios": "https://dc.lft.to/lastmile_qr_scan", "android": "https://dc.lft.to/lastmile_qr_scan"}, "fusion_lon": 0.0, "type": "electric_scooter", "bike_id": "76698f3fcffaee9c539ae20d1db2467a", "name": "76698f3fcffaee9c539ae20d1db2467a"}, {"lon": -77.03551733333333, "is_disabled": 0, "lat": 38.9083, "fusion_lat": 0.0, "is_reserved": 0, "rental_uris": {"ios": "https://dc.lft.to/lastmile_qr_scan", "android": "https://dc.lft.to/lastmile_qr_scan"}, "fusion_lon": 0.0, "type": "electric_scooter", "bike_id": "c72e2f7f691e2fbce5bb65668921216e", "name": "c72e2f7f691e2fbce5bb65668921216e"}, {"lon": -77.0436705, "is_disabled": 0, "lat": 38.90620583333333, "fusion_lat": 0.0, "is_reserved": 0, "rental_uris": {"ios": "https://dc.lft.to/lastmile_qr_scan", "android": "https://dc.lft.to/lastmile_qr_scan"}, "fusion_lon": 0.0, "type": "electric_scooter", "bike_id": "2320e034c28857c7d29c2c6d0199e9c2", "name": "2320e034c28857c7d29c2c6d0199e9c2"}, {"lon": -76.98110416666667, "is_disabled": 0, "lat": 38.914663833333336, "fusion_lat": 0.0, "is_reserved": 0, "rental_uris": {"ios": "https://dc.lft.to/lastmile_qr_scan", "android": "https://dc.lft.to/lastmile_qr_scan"}, "fusion_lon": 0.0, "type": "electric_scooter", "bike_id": "391009cbcc1e471ad6b86e08f9a933b9", "name": "391009cbcc1e471ad6b86e08f9a933b9"}, {"lon": -77.03846866666666, "is_disabled": 0, "lat": 38.90977733333333, "fusion_lat": 0.0, "is_reserved": 0, "rental_uris": {"ios": "https://dc.lft.to/lastmile_qr_scan", "android": "https://dc.lft.to/lastmile_qr_scan"}, "fusion_lon": 0.0, "type": "electric_scooter", "bike_id": "d0c18afb09ba284dbbded65a71c61c15", "name": "d0c18afb09ba284dbbded65a71c61c15"}, {"lon": -77.0170925, "is_disabled": 0, "lat": 38.91382133333333, "fusion_lat": 0.0, "is_reserved": 0, "rental_uris": {"ios": "https://dc.lft.to/lastmile_qr_scan", "android": "https://dc.lft.to/lastmile_qr_scan"}, "fusion_lon": 0.0, "type": "electric_scooter", "bike_id": "c475549c30409ba2147a1279b3e4c5f6", "name": "c475549c30409ba2147a1279b3e4c5f6"}, {"lon": -77.04035583333334, "is_disabled": 0, "lat": 38.903706166666666, "fusion_lat": 0.0, "is_reserved": 0, "rental_uris": {"ios": "https://dc.lft.to/lastmile_qr_scan", "android": "https://dc.lft.to/lastmile_qr_scan"}, "fusion_lon": 0.0, "type": "electric_scooter", "bike_id": "b1fe226a08f866b89162631e123e316d", "name": "b1fe226a08f866b89162631e123e316d"}, {"lon": -77.04171283333334, "is_disabled": 0, "lat": 38.90561183333333, "fusion_lat": 0.0, "is_reserved": 0, "rental_uris": {"ios": "https://dc.lft.to/lastmile_qr_scan", "android": "https://dc.lft.to/lastmile_qr_scan"}, "fusion_lon": 0.0, "type": "electric_scooter", "bike_id": "7dd9b54ee66f0e8e9595100e006ca749", "name": "7dd9b54ee66f0e8e9595100e006ca749"}, {"lon": -76.932048, "is_disabled": 0, "lat": 38.89664633333334, "fusion_lat": 0.0, "is_reserved": 0, "rental_uris": {"ios": "https://dc.lft.to/lastmile_qr_scan", "android": "https://dc.lft.to/lastmile_qr_scan"}, "fusion_lon": 0.0, "type": "electric_scooter", "bike_id": "924e4dc1dbd5933ef09ec758c5405997", "name": "924e4dc1dbd5933ef09ec758c5405997"}, {"lon": -77.027333, "is_disabled": 0, "lat": 38.900121166666665, "fusion_lat": 0.0, "is_reserved": 0, "rental_uris": {"ios": "https://dc.lft.to/lastmile_qr_scan", "android": "https://dc.lft.to/lastmile_qr_scan"}, "fusion_lon": 0.0, "type": "electric_scooter", "bike_id": "d4594fda36fefcdd2716f9849797c5eb", "name": "d4594fda36fefcdd2716f9849797c5eb"}, {"lon": -77.01958766666667, "is_disabled": 0, "lat": 38.924228, "fusion_lat": 0.0, "is_reserved": 0, "rental_uris": {"ios": "https://dc.lft.to/lastmile_qr_scan", "android": "https://dc.lft.to/lastmile_qr_scan"}, "fusion_lon": 0.0, "type": "electric_scooter", "bike_id": "a1f8f6a127fe20f97c6cda322829828b", "name": "a1f8f6a127fe20f97c6cda322829828b"}, {"lon": -77.0176855, "is_disabled": 0, "lat": 38.92055583333333, "fusion_lat": 0.0, "is_reserved": 0, "rental_uris": {"ios": "https://dc.lft.to/lastmile_qr_scan", "android": "https://dc.lft.to/lastmile_qr_scan"}, "fusion_lon": 0.0, "type": "electric_scooter", "bike_id": "1d723b6d5904e8bc9d9c4cc1da555fe5", "name": "1d723b6d5904e8bc9d9c4cc1da555fe5"}, {"lon": -76.99743283333333, "is_disabled": 0, "lat": 38.901309833333336, "fusion_lat": 0.0, "is_reserved": 0, "rental_uris": {"ios": "https://dc.lft.to/lastmile_qr_scan", "android": "https://dc.lft.to/lastmile_qr_scan"}, "fusion_lon": 0.0, "type": "electric_scooter", "bike_id": "0e67f705ca54698a73d90f50f25e5ca4", "name": "0e67f705ca54698a73d90f50f25e5ca4"}, {"lon": -77.03213033333333, "is_disabled": 0, "lat": 38.91843033333333, "fusion_lat": 0.0, "is_reserved": 0, "rental_uris": {"ios": "https://dc.lft.to/lastmile_qr_scan", "android": "https://dc.lft.to/lastmile_qr_scan"}, "fusion_lon": 0.0, "type": "electric_scooter", "bike_id": "013025cbe70199ac64eae556020fc62c", "name": "013025cbe70199ac64eae556020fc62c"}, {"lon": -77.04149433333333, "is_disabled": 0, "lat": 38.906555166666664, "fusion_lat": 0.0, "is_reserved": 0, "rental_uris": {"ios": "https://dc.lft.to/lastmile_qr_scan", "android": "https://dc.lft.to/lastmile_qr_scan"}, "fusion_lon": 0.0, "type": "electric_scooter", "bike_id": "e238698d07b55d55ca976833b2f84919", "name": "e238698d07b55d55ca976833b2f84919"}, {"lon": -77.02086, "is_disabled": 0, "lat": 38.9215445, "fusion_lat": 0.0, "is_reserved": 0, "rental_uris": {"ios": "https://dc.lft.to/lastmile_qr_scan", "android": "https://dc.lft.to/lastmile_qr_scan"}, "fusion_lon": 0.0, "type": "electric_scooter", "bike_id": "cb82d0e782ba869a94972c2af1155f64", "name": "cb82d0e782ba869a94972c2af1155f64"}, {"lon": -76.9963495, "is_disabled": 0, "lat": 38.900658666666665, "fusion_lat": 0.0, "is_reserved": 0, "rental_uris": {"ios": "https://dc.lft.to/lastmile_qr_scan", "android": "https://dc.lft.to/lastmile_qr_scan"}, "fusion_lon": 0.0, "type": "electric_scooter", "bike_id": "a44556d33927105614ba5cbbc55b310e", "name": "a44556d33927105614ba5cbbc55b310e"}, {"lon": -77.02791933333333, "is_disabled": 0, "lat": 38.92972833333334, "fusion_lat": 0.0, "is_reserved": 0, "rental_uris": {"ios": "https://dc.lft.to/lastmile_qr_scan", "android": "https://dc.lft.to/lastmile_qr_scan"}, "fusion_lon": 0.0, "type": "electric_scooter", "bike_id": "a0e53476e3eb35b0c9ccacb596e4b690", "name": "a0e53476e3eb35b0c9ccacb596e4b690"}, {"lon": -77.11755333333333, "is_disabled": 0, "lat": 39.05105316666667, "fusion_lat": 0.0, "is_reserved": 0, "rental_uris": {"ios": "https://dc.lft.to/lastmile_qr_scan", "android": "https://dc.lft.to/lastmile_qr_scan"}, "fusion_lon": 0.0, "type": "electric_bike", "bike_id": "46490da639b2d952e0be6d52a6bfb1ab", "name": "46490da639b2d952e0be6d52a6bfb1ab"}, {"lon": -77.03238233333333, "is_disabled": 0, "lat": 38.90170066666667, "fusion_lat": 0.0, "is_reserved": 0, "rental_uris": {"ios": "https://dc.lft.to/lastmile_qr_scan", "android": "https://dc.lft.to/lastmile_qr_scan"}, "fusion_lon": 0.0, "type": "electric_scooter", "bike_id": "84a987c78e7d918552394950794e7912", "name": "84a987c78e7d918552394950794e7912"}, {"lon": -77.0418415, "is_disabled": 0, "lat": 38.91841766666667, "fusion_lat": 0.0, "is_reserved": 0, "rental_uris": {"ios": "https://dc.lft.to/lastmile_qr_scan", "android": "https://dc.lft.to/lastmile_qr_scan"}, "fusion_lon": 0.0, "type": "electric_scooter", "bike_id": "b809f089bfde4ee5a9d2535b299efa14", "name": "b809f089bfde4ee5a9d2535b299efa14"}, {"lon": -76.96055783333334, "is_disabled": 0, "lat": 38.884019, "fusion_lat": 0.0, "is_reserved": 0, "rental_uris": {"ios": "https://dc.lft.to/lastmile_qr_scan", "android": "https://dc.lft.to/lastmile_qr_scan"}, "fusion_lon": 0.0, "type": "electric_bike", "bike_id": "cfde73d5fbe42b9c48e6b0a0a2dc4f9d", "name": "cfde73d5fbe42b9c48e6b0a0a2dc4f9d"}, {"lon": -77.035876, "is_disabled": 0, "lat": 38.99227533333333, "fusion_lat": 0.0, "is_reserved": 0, "rental_uris": {"ios": "https://dc.lft.to/lastmile_qr_scan", "android": "https://dc.lft.to/lastmile_qr_scan"}, "fusion_lon": 0.0, "type": "electric_scooter", "bike_id": "d1195917deff50f5d5677d35980e1fd8", "name": "d1195917deff50f5d5677d35980e1fd8"}, {"lon": -77.00195716666667, "is_disabled": 0, "lat": 38.89107833333333, "fusion_lat": 0.0, "is_reserved": 0, "rental_uris": {"ios": "https://dc.lft.to/lastmile_qr_scan", "android": "https://dc.lft.to/lastmile_qr_scan"}, "fusion_lon": 0.0, "type": "electric_scooter", "bike_id": "4dd0f33258e2a14657cd25e6636b70c2", "name": "4dd0f33258e2a14657cd25e6636b70c2"}, {"lon": -77.04290933333333, "is_disabled": 0, "lat": 38.92779566666667, "fusion_lat": 0.0, "is_reserved": 0, "rental_uris": {"ios": "https://dc.lft.to/lastmile_qr_scan", "android": "https://dc.lft.to/lastmile_qr_scan"}, "fusion_lon": 0.0, "type": "electric_scooter", "bike_id": "64ea1a1ec80686b314865924ba5c33da", "name": "64ea1a1ec80686b314865924ba5c33da"}, {"lon": -77.03843116666667, "is_disabled": 0, "lat": 38.902739, "fusion_lat": 0.0, "is_reserved": 0, "rental_uris": {"ios": "https://dc.lft.to/lastmile_qr_scan", "android": "https://dc.lft.to/lastmile_qr_scan"}, "fusion_lon": 0.0, "type": "electric_scooter", "bike_id": "5c6223e437bc1edbe8a62973e8474693", "name": "5c6223e437bc1edbe8a62973e8474693"}, {"lon": -77.03217183333334, "is_disabled": 0, "lat": 38.90943433333333, "fusion_lat": 0.0, "is_reserved": 0, "rental_uris": {"ios": "https://dc.lft.to/lastmile_qr_scan", "android": "https://dc.lft.to/lastmile_qr_scan"}, "fusion_lon": 0.0, "type": "electric_scooter", "bike_id": "a0ed888538507bfa3a2c8f3fab3825df", "name": "a0ed888538507bfa3a2c8f3fab3825df"}, {"lon": -77.03020333333333, "is_disabled": 0, "lat": 38.928553666666666, "fusion_lat": 0.0, "is_reserved": 0, "rental_uris": {"ios": "https://dc.lft.to/lastmile_qr_scan", "android": "https://dc.lft.to/lastmile_qr_scan"}, "fusion_lon": 0.0, "type": "electric_scooter", "bike_id": "f7a7d5167b3d449d13df65bd4f7acff8", "name": "f7a7d5167b3d449d13df65bd4f7acff8"}, {"lon": -77.09523916666667, "is_disabled": 0, "lat": 38.83808533333333, "fusion_lat": 0.0, "is_reserved": 0, "rental_uris": {"ios": "https://dc.lft.to/lastmile_qr_scan", "android": "https://dc.lft.to/lastmile_qr_scan"}, "fusion_lon": 0.0, "type": "electric_bike", "bike_id": "da0750bebd4d532f8f28f7157183cec3", "name": "da0750bebd4d532f8f28f7157183cec3"}, {"lon": -77.021696, "is_disabled": 0, "lat": 38.919895333333336, "fusion_lat": 0.0, "is_reserved": 0, "rental_uris": {"ios": "https://dc.lft.to/lastmile_qr_scan", "android": "https://dc.lft.to/lastmile_qr_scan"}, "fusion_lon": 0.0, "type": "electric_scooter", "bike_id": "3a7220958e33224a36dbc149c58d40ff", "name": "3a7220958e33224a36dbc149c58d40ff"}, {"lon": -77.02587716666666, "is_disabled": 0, "lat": 38.892402833333335, "fusion_lat": 0.0, "is_reserved": 0, "rental_uris": {"ios": "https://dc.lft.to/lastmile_qr_scan", "android": "https://dc.lft.to/lastmile_qr_scan"}, "fusion_lon": 0.0, "type": "electric_scooter", "bike_id": "d08f6b97acbdbabe5b491754e305cf2f", "name": "d08f6b97acbdbabe5b491754e305cf2f"}, {"lon": -77.04166066666667, "is_disabled": 0, "lat": 38.89937283333333, "fusion_lat": 0.0, "is_reserved": 0, "rental_uris": {"ios": "https://dc.lft.to/lastmile_qr_scan", "android": "https://dc.lft.to/lastmile_qr_scan"}, "fusion_lon": 0.0, "type": "electric_scooter", "bike_id": "2fc1b1121fe976a9bcc5a427531ddc43", "name": "2fc1b1121fe976a9bcc5a427531ddc43"}, {"lon": -77.021121, "is_disabled": 0, "lat": 38.92163683333333, "fusion_lat": 0.0, "is_reserved": 0, "rental_uris": {"ios": "https://dc.lft.to/lastmile_qr_scan", "android": "https://dc.lft.to/lastmile_qr_scan"}, "fusion_lon": 0.0, "type": "electric_scooter", "bike_id": "d61df81d2bf5d9d00b328e62df6d855f", "name": "d61df81d2bf5d9d00b328e62df6d855f"}, {"lon": -77.02453, "is_disabled": 0, "lat": 38.92047816666667, "fusion_lat": 0.0, "is_reserved": 0, "rental_uris": {"ios": "https://dc.lft.to/lastmile_qr_scan", "android": "https://dc.lft.to/lastmile_qr_scan"}, "fusion_lon": 0.0, "type": "electric_scooter", "bike_id": "8b04a462ba0408c9c2e2791b0eee5104", "name": "8b04a462ba0408c9c2e2791b0eee5104"}, {"lon": -77.03297, "is_disabled": 0, "lat": 38.897324166666664, "fusion_lat": 0.0, "is_reserved": 0, "rental_uris": {"ios": "https://dc.lft.to/lastmile_qr_scan", "android": "https://dc.lft.to/lastmile_qr_scan"}, "fusion_lon": 0.0, "type": "electric_bike", "bike_id": "cbed7a16ba15b41fa0c00a6c1d5d740a", "name": "cbed7a16ba15b41fa0c00a6c1d5d740a"}, {"lon": -76.995594, "is_disabled": 0, "lat": 38.8859865, "fusion_lat": 0.0, "is_reserved": 0, "rental_uris": {"ios": "https://dc.lft.to/lastmile_qr_scan", "android": "https://dc.lft.to/lastmile_qr_scan"}, "fusion_lon": 0.0, "type": "electric_scooter", "bike_id": "95ce9612a60020312ade7253ed49ac82", "name": "95ce9612a60020312ade7253ed49ac82"}, {"lon": -77.02222983333333, "is_disabled": 0, "lat": 38.897431833333336, "fusion_lat": 0.0, "is_reserved": 0, "rental_uris": {"ios": "https://dc.lft.to/lastmile_qr_scan", "android": "https://dc.lft.to/lastmile_qr_scan"}, "fusion_lon": 0.0, "type": "electric_scooter", "bike_id": "4dac9330b930ea975d4f347dc69522b0", "name": "4dac9330b930ea975d4f347dc69522b0"}, {"lon": -76.99571716666667, "is_disabled": 0, "lat": 38.89215, "fusion_lat": 0.0, "is_reserved": 0, "rental_uris": {"ios": "https://dc.lft.to/lastmile_qr_scan", "android": "https://dc.lft.to/lastmile_qr_scan"}, "fusion_lon": 0.0, "type": "electric_scooter", "bike_id": "736c001475ef36ae6d1bf9a64efdc799", "name": "736c001475ef36ae6d1bf9a64efdc799"}, {"lon": -77.03627616666667, "is_disabled": 0, "lat": 38.965489, "fusion_lat": 0.0, "is_reserved": 0, "rental_uris": {"ios": "https://dc.lft.to/lastmile_qr_scan", "android": "https://dc.lft.to/lastmile_qr_scan"}, "fusion_lon": 0.0, "type": "electric_scooter", "bike_id": "d2705f84f6498635fcbda8a68d08fd85", "name": "d2705f84f6498635fcbda8a68d08fd85"}, {"lon": -77.04542516666666, "is_disabled": 0, "lat": 38.89606466666667, "fusion_lat": 0.0, "is_reserved": 0, "rental_uris": {"ios": "https://dc.lft.to/lastmile_qr_scan", "android": "https://dc.lft.to/lastmile_qr_scan"}, "fusion_lon": 0.0, "type": "electric_scooter", "bike_id": "3bce364e94bc77788f2c198ecf85309c", "name": "3bce364e94bc77788f2c198ecf85309c"}, {"lon": -77.046057, "is_disabled": 0, "lat": 38.915277, "fusion_lat": 0.0, "is_reserved": 0, "rental_uris": {"ios": "https://dc.lft.to/lastmile_qr_scan", "android": "https://dc.lft.to/lastmile_qr_scan"}, "fusion_lon": 0.0, "type": "electric_scooter", "bike_id": "fb647878ae1968436d0d63f1a5c2e2c7", "name": "fb647878ae1968436d0d63f1a5c2e2c7"}, {"lon": -77.07141283333333, "is_disabled": 0, "lat": 38.920327, "fusion_lat": 0.0, "is_reserved": 0, "rental_uris": {"ios": "https://dc.lft.to/lastmile_qr_scan", "android": "https://dc.lft.to/lastmile_qr_scan"}, "fusion_lon": 0.0, "type": "electric_scooter", "bike_id": "828be3c8950db9a1ecb23a851b2b7504", "name": "828be3c8950db9a1ecb23a851b2b7504"}, {"lon": -76.99228816666667, "is_disabled": 0, "lat": 38.940223833333334, "fusion_lat": 0.0, "is_reserved": 0, "rental_uris": {"ios": "https://dc.lft.to/lastmile_qr_scan", "android": "https://dc.lft.to/lastmile_qr_scan"}, "fusion_lon": 0.0, "type": "electric_bike", "bike_id": "fdb88981e20224c1616236ec7bd3fd58", "name": "fdb88981e20224c1616236ec7bd3fd58"}, {"lon": -77.0857415, "is_disabled": 0, "lat": 38.87424983333333, "fusion_lat": 0.0, "is_reserved": 0, "rental_uris": {"ios": "https://dc.lft.to/lastmile_qr_scan", "android": "https://dc.lft.to/lastmile_qr_scan"}, "fusion_lon": 0.0, "type": "electric_bike", "bike_id": "723af5258343957f1c0d719220f59e8f", "name": "723af5258343957f1c0d719220f59e8f"}, {"lon": -77.030054, "is_disabled": 0, "lat": 38.902626, "fusion_lat": 0.0, "is_reserved": 0, "rental_uris": {"ios": "https://dc.lft.to/lastmile_qr_scan", "android": "https://dc.lft.to/lastmile_qr_scan"}, "fusion_lon": 0.0, "type": "electric_scooter", "bike_id": "6453b9c9451a04466de7e42ad5473041", "name": "6453b9c9451a04466de7e42ad5473041"}, {"lon": -77.02640816666667, "is_disabled": 0, "lat": 38.89618466666667, "fusion_lat": 0.0, "is_reserved": 0, "rental_uris": {"ios": "https://dc.lft.to/lastmile_qr_scan", "android": "https://dc.lft.to/lastmile_qr_scan"}, "fusion_lon": 0.0, "type": "electric_scooter", "bike_id": "4add033d7cb197902ab7283bd2e99f62", "name": "4add033d7cb197902ab7283bd2e99f62"}, {"lon": -77.00334016666666, "is_disabled": 0, "lat": 38.89521416666667, "fusion_lat": 0.0, "is_reserved": 0, "rental_uris": {"ios": "https://dc.lft.to/lastmile_qr_scan", "android": "https://dc.lft.to/lastmile_qr_scan"}, "fusion_lon": 0.0, "type": "electric_scooter", "bike_id": "a6bbdeab78a001b500fda6ac8c5ec56d", "name": "a6bbdeab78a001b500fda6ac8c5ec56d"}, {"lon": -77.05229283333334, "is_disabled": 0, "lat": 38.9250825, "fusion_lat": 0.0, "is_reserved": 0, "rental_uris": {"ios": "https://dc.lft.to/lastmile_qr_scan", "android": "https://dc.lft.to/lastmile_qr_scan"}, "fusion_lon": 0.0, "type": "electric_scooter", "bike_id": "311b877f9ba39711f77e9e73b9e4c2f1", "name": "311b877f9ba39711f77e9e73b9e4c2f1"}, {"lon": -77.04229816666667, "is_disabled": 0, "lat": 38.92625783333333, "fusion_lat": 0.0, "is_reserved": 0, "rental_uris": {"ios": "https://dc.lft.to/lastmile_qr_scan", "android": "https://dc.lft.to/lastmile_qr_scan"}, "fusion_lon": 0.0, "type": "electric_scooter", "bike_id": "f42fa3e8c346c673cf67ad330dc92fe6", "name": "f42fa3e8c346c673cf67ad330dc92fe6"}, {"lon": -76.98208266666667, "is_disabled": 0, "lat": 38.902022333333335, "fusion_lat": 0.0, "is_reserved": 0, "rental_uris": {"ios": "https://dc.lft.to/lastmile_qr_scan", "android": "https://dc.lft.to/lastmile_qr_scan"}, "fusion_lon": 0.0, "type": "electric_scooter", "bike_id": "a3bbafddd8250c1c9cee46232499e0e9", "name": "a3bbafddd8250c1c9cee46232499e0e9"}, {"lon": -77.029336, "is_disabled": 0, "lat": 38.895356166666666, "fusion_lat": 0.0, "is_reserved": 0, "rental_uris": {"ios": "https://dc.lft.to/lastmile_qr_scan", "android": "https://dc.lft.to/lastmile_qr_scan"}, "fusion_lon": 0.0, "type": "electric_scooter", "bike_id": "6ddb8ef73f11301a94df0ad1952e2d6d", "name": "6ddb8ef73f11301a94df0ad1952e2d6d"}, {"lon": -77.03184916666666, "is_disabled": 0, "lat": 38.913227, "fusion_lat": 0.0, "is_reserved": 0, "rental_uris": {"ios": "https://dc.lft.to/lastmile_qr_scan", "android": "https://dc.lft.to/lastmile_qr_scan"}, "fusion_lon": 0.0, "type": "electric_scooter", "bike_id": "b14a62a787f14e6d35393d57b52ee84d", "name": "b14a62a787f14e6d35393d57b52ee84d"}, {"lon": -77.0337695, "is_disabled": 0, "lat": 38.90389316666667, "fusion_lat": 0.0, "is_reserved": 0, "rental_uris": {"ios": "https://dc.lft.to/lastmile_qr_scan", "android": "https://dc.lft.to/lastmile_qr_scan"}, "fusion_lon": 0.0, "type": "electric_scooter", "bike_id": "9ca8f9ab68fb9cade790a25cc3ad328e", "name": "9ca8f9ab68fb9cade790a25cc3ad328e"}, {"lon": -77.05426033333333, "is_disabled": 0, "lat": 38.92856666666667, "fusion_lat": 0.0, "is_reserved": 0, "rental_uris": {"ios": "https://dc.lft.to/lastmile_qr_scan", "android": "https://dc.lft.to/lastmile_qr_scan"}, "fusion_lon": 0.0, "type": "electric_scooter", "bike_id": "66165f0e0ab993ae00b4cd371c78220a", "name": "66165f0e0ab993ae00b4cd371c78220a"}, {"lon": -77.00897066666667, "is_disabled": 0, "lat": 38.885000166666664, "fusion_lat": 0.0, "is_reserved": 0, "rental_uris": {"ios": "https://dc.lft.to/lastmile_qr_scan", "android": "https://dc.lft.to/lastmile_qr_scan"}, "fusion_lon": 0.0, "type": "electric_scooter", "bike_id": "5a9e17e28ac6bf26d1059f28bcb9f9ba", "name": "5a9e17e28ac6bf26d1059f28bcb9f9ba"}, {"lon": -77.02961783333333, "is_disabled": 0, "lat": 38.9506785, "fusion_lat": 0.0, "is_reserved": 0, "rental_uris": {"ios": "https://dc.lft.to/lastmile_qr_scan", "android": "https://dc.lft.to/lastmile_qr_scan"}, "fusion_lon": 0.0, "type": "electric_scooter", "bike_id": "5d8c4b4cc68c7be346574b584b76cc54", "name": "5d8c4b4cc68c7be346574b584b76cc54"}, {"lon": -77.043776, "is_disabled": 0, "lat": 38.901079333333335, "fusion_lat": 0.0, "is_reserved": 0, "rental_uris": {"ios": "https://dc.lft.to/lastmile_qr_scan", "android": "https://dc.lft.to/lastmile_qr_scan"}, "fusion_lon": 0.0, "type": "electric_scooter", "bike_id": "81e7c71a09f909e268dc8f67e13693d4", "name": "81e7c71a09f909e268dc8f67e13693d4"}, {"lon": -77.044335, "is_disabled": 0, "lat": 38.89829833333334, "fusion_lat": 0.0, "is_reserved": 0, "rental_uris": {"ios": "https://dc.lft.to/lastmile_qr_scan", "android": "https://dc.lft.to/lastmile_qr_scan"}, "fusion_lon": 0.0, "type": "electric_scooter", "bike_id": "e31d9c01a348a81dc79cfaa9a962ed68", "name": "e31d9c01a348a81dc79cfaa9a962ed68"}, {"lon": -76.99150316666666, "is_disabled": 0, "lat": 38.9004135, "fusion_lat": 0.0, "is_reserved": 0, "rental_uris": {"ios": "https://dc.lft.to/lastmile_qr_scan", "android": "https://dc.lft.to/lastmile_qr_scan"}, "fusion_lon": 0.0, "type": "electric_scooter", "bike_id": "129211aa02ebc26e7f08623c20a50c6e", "name": "129211aa02ebc26e7f08623c20a50c6e"}, {"lon": -77.04108083333334, "is_disabled": 0, "lat": 38.91055166666666, "fusion_lat": 0.0, "is_reserved": 0, "rental_uris": {"ios": "https://dc.lft.to/lastmile_qr_scan", "android": "https://dc.lft.to/lastmile_qr_scan"}, "fusion_lon": 0.0, "type": "electric_scooter", "bike_id": "feb98aaeb928bdbef17c54229acb6577", "name": "feb98aaeb928bdbef17c54229acb6577"}, {"lon": -76.9817335, "is_disabled": 0, "lat": 38.869609, "fusion_lat": 0.0, "is_reserved": 0, "rental_uris": {"ios": "https://dc.lft.to/lastmile_qr_scan", "android": "https://dc.lft.to/lastmile_qr_scan"}, "fusion_lon": 0.0, "type": "electric_scooter", "bike_id": "0b59e0efd4ce7672c8737812ee8c805a", "name": "0b59e0efd4ce7672c8737812ee8c805a"}, {"lon": -77.033222, "is_disabled": 0, "lat": 38.89815866666667, "fusion_lat": 0.0, "is_reserved": 0, "rental_uris": {"ios": "https://dc.lft.to/lastmile_qr_scan", "android": "https://dc.lft.to/lastmile_qr_scan"}, "fusion_lon": 0.0, "type": "electric_scooter", "bike_id": "a58a9392feeb5e938bc2b0b992976c12", "name": "a58a9392feeb5e938bc2b0b992976c12"}, {"lon": -77.22892966666667, "is_disabled": 0, "lat": 38.909636, "fusion_lat": 0.0, "is_reserved": 0, "rental_uris": {"ios": "https://dc.lft.to/lastmile_qr_scan", "android": "https://dc.lft.to/lastmile_qr_scan"}, "fusion_lon": 0.0, "type": "electric_bike", "bike_id": "80062d1624ce28100649ca823bbbc4bf", "name": "80062d1624ce28100649ca823bbbc4bf"}, {"lon": -76.978405, "is_disabled": 0, "lat": 38.89850066666666, "fusion_lat": 0.0, "is_reserved": 0, "rental_uris": {"ios": "https://dc.lft.to/lastmile_qr_scan", "android": "https://dc.lft.to/lastmile_qr_scan"}, "fusion_lon": 0.0, "type": "electric_scooter", "bike_id": "665d7fc341f209af3954fb1580afd133", "name": "665d7fc341f209af3954fb1580afd133"}, {"lon": -77.04812816666667, "is_disabled": 0, "lat": 38.909885, "fusion_lat": 0.0, "is_reserved": 0, "rental_uris": {"ios": "https://dc.lft.to/lastmile_qr_scan", "android": "https://dc.lft.to/lastmile_qr_scan"}, "fusion_lon": 0.0, "type": "electric_scooter", "bike_id": "9ef992ec4ed87c29fd8244f6745e8f92", "name": "9ef992ec4ed87c29fd8244f6745e8f92"}, {"lon": -77.0114475, "is_disabled": 0, "lat": 38.89639566666666, "fusion_lat": 0.0, "is_reserved": 0, "rental_uris": {"ios": "https://dc.lft.to/lastmile_qr_scan", "android": "https://dc.lft.to/lastmile_qr_scan"}, "fusion_lon": 0.0, "type": "electric_scooter", "bike_id": "6adf1e0b3a5e547e124c30dfdfe47702", "name": "6adf1e0b3a5e547e124c30dfdfe47702"}, {"lon": -77.0393415, "is_disabled": 0, "lat": 38.92625566666667, "fusion_lat": 0.0, "is_reserved": 0, "rental_uris": {"ios": "https://dc.lft.to/lastmile_qr_scan", "android": "https://dc.lft.to/lastmile_qr_scan"}, "fusion_lon": 0.0, "type": "electric_scooter", "bike_id": "d7326018ae195e5af52eab48b7715df3", "name": "d7326018ae195e5af52eab48b7715df3"}, {"lon": -77.0505675, "is_disabled": 0, "lat": 38.905376333333336, "fusion_lat": 0.0, "is_reserved": 0, "rental_uris": {"ios": "https://dc.lft.to/lastmile_qr_scan", "android": "https://dc.lft.to/lastmile_qr_scan"}, "fusion_lon": 0.0, "type": "electric_scooter", "bike_id": "0b3b54b9637deecda048707fdaa96c0d", "name": "0b3b54b9637deecda048707fdaa96c0d"}, {"lon": -77.00717783333333, "is_disabled": 0, "lat": 38.88491616666667, "fusion_lat": 0.0, "is_reserved": 0, "rental_uris": {"ios": "https://dc.lft.to/lastmile_qr_scan", "android": "https://dc.lft.to/lastmile_qr_scan"}, "fusion_lon": 0.0, "type": "electric_scooter", "bike_id": "e6e67461c3d0abad1a8915813cea3901", "name": "e6e67461c3d0abad1a8915813cea3901"}, {"lon": -77.01848116666666, "is_disabled": 0, "lat": 38.90973866666667, "fusion_lat": 0.0, "is_reserved": 0, "rental_uris": {"ios": "https://dc.lft.to/lastmile_qr_scan", "android": "https://dc.lft.to/lastmile_qr_scan"}, "fusion_lon": 0.0, "type": "electric_scooter", "bike_id": "f81455caf71dc245f5e38b5ab02b0a6a", "name": "f81455caf71dc245f5e38b5ab02b0a6a"}, {"lon": -77.03860116666667, "is_disabled": 0, "lat": 38.907172333333335, "fusion_lat": 0.0, "is_reserved": 0, "rental_uris": {"ios": "https://dc.lft.to/lastmile_qr_scan", "android": "https://dc.lft.to/lastmile_qr_scan"}, "fusion_lon": 0.0, "type": "electric_scooter", "bike_id": "2df6be315862ae2325e8e7f8dc66c705", "name": "2df6be315862ae2325e8e7f8dc66c705"}, {"lon": -76.98884533333333, "is_disabled": 0, "lat": 38.86655316666667, "fusion_lat": 0.0, "is_reserved": 0, "rental_uris": {"ios": "https://dc.lft.to/lastmile_qr_scan", "android": "https://dc.lft.to/lastmile_qr_scan"}, "fusion_lon": 0.0, "type": "electric_scooter", "bike_id": "cd094d4237cded04f414566da4310808", "name": "cd094d4237cded04f414566da4310808"}, {"lon": -77.0428455, "is_disabled": 0, "lat": 38.914191833333334, "fusion_lat": 0.0, "is_reserved": 0, "rental_uris": {"ios": "https://dc.lft.to/lastmile_qr_scan", "android": "https://dc.lft.to/lastmile_qr_scan"}, "fusion_lon": 0.0, "type": "electric_scooter", "bike_id": "ef06b208ccc191e650e799a28dfe15d2", "name": "ef06b208ccc191e650e799a28dfe15d2"}, {"lon": -77.043764, "is_disabled": 0, "lat": 38.910501833333335, "fusion_lat": 0.0, "is_reserved": 0, "rental_uris": {"ios": "https://dc.lft.to/lastmile_qr_scan", "android": "https://dc.lft.to/lastmile_qr_scan"}, "fusion_lon": 0.0, "type": "electric_scooter", "bike_id": "56f5ed5b376559f98054228a714a19d6", "name": "56f5ed5b376559f98054228a714a19d6"}, {"lon": -77.03934883333334, "is_disabled": 0, "lat": 38.898553, "fusion_lat": 0.0, "is_reserved": 0, "rental_uris": {"ios": "https://dc.lft.to/lastmile_qr_scan", "android": "https://dc.lft.to/lastmile_qr_scan"}, "fusion_lon": 0.0, "type": "electric_scooter", "bike_id": "8f2e9615f98e3ed5f6391428dad2273b", "name": "8f2e9615f98e3ed5f6391428dad2273b"}, {"lon": -77.0258355, "is_disabled": 0, "lat": 38.892409666666666, "fusion_lat": 0.0, "is_reserved": 0, "rental_uris": {"ios": "https://dc.lft.to/lastmile_qr_scan", "android": "https://dc.lft.to/lastmile_qr_scan"}, "fusion_lon": 0.0, "type": "electric_scooter", "bike_id": "dc985e46d3eec28e80cca7c4566fa87a", "name": "dc985e46d3eec28e80cca7c4566fa87a"}, {"lon": -77.00902766666667, "is_disabled": 0, "lat": 38.87514133333333, "fusion_lat": 0.0, "is_reserved": 0, "rental_uris": {"ios": "https://dc.lft.to/lastmile_qr_scan", "android": "https://dc.lft.to/lastmile_qr_scan"}, "fusion_lon": 0.0, "type": "electric_bike", "bike_id": "ea2e00d713ea85f507ce16e98dd4471b", "name": "ea2e00d713ea85f507ce16e98dd4471b"}, {"lon": -77.04558783333333, "is_disabled": 0, "lat": 38.9146805, "fusion_lat": 0.0, "is_reserved": 0, "rental_uris": {"ios": "https://dc.lft.to/lastmile_qr_scan", "android": "https://dc.lft.to/lastmile_qr_scan"}, "fusion_lon": 0.0, "type": "electric_scooter", "bike_id": "d70e3f22deaaa15905229b498a611213", "name": "d70e3f22deaaa15905229b498a611213"}, {"lon": -77.02489916666667, "is_disabled": 0, "lat": 38.95792016666667, "fusion_lat": 0.0, "is_reserved": 0, "rental_uris": {"ios": "https://dc.lft.to/lastmile_qr_scan", "android": "https://dc.lft.to/lastmile_qr_scan"}, "fusion_lon": 0.0, "type": "electric_scooter", "bike_id": "ea854cb9ef9693b94f6df64710c8c96f", "name": "ea854cb9ef9693b94f6df64710c8c96f"}, {"lon": -77.04151233333333, "is_disabled": 0, "lat": 38.900125, "fusion_lat": 0.0, "is_reserved": 0, "rental_uris": {"ios": "https://dc.lft.to/lastmile_qr_scan", "android": "https://dc.lft.to/lastmile_qr_scan"}, "fusion_lon": 0.0, "type": "electric_scooter", "bike_id": "63c60c7a5a16952826ac575df531b24d", "name": "63c60c7a5a16952826ac575df531b24d"}, {"lon": -77.02127783333333, "is_disabled": 0, "lat": 38.923623666666664, "fusion_lat": 0.0, "is_reserved": 0, "rental_uris": {"ios": "https://dc.lft.to/lastmile_qr_scan", "android": "https://dc.lft.to/lastmile_qr_scan"}, "fusion_lon": 0.0, "type": "electric_scooter", "bike_id": "8f053762d0d77461f41e0c8880211f5e", "name": "8f053762d0d77461f41e0c8880211f5e"}, {"lon": -76.94640716666666, "is_disabled": 0, "lat": 38.89868366666666, "fusion_lat": 0.0, "is_reserved": 0, "rental_uris": {"ios": "https://dc.lft.to/lastmile_qr_scan", "android": "https://dc.lft.to/lastmile_qr_scan"}, "fusion_lon": 0.0, "type": "electric_scooter", "bike_id": "7d658934f4f898bfebe543bd73bdc229", "name": "7d658934f4f898bfebe543bd73bdc229"}, {"lon": -77.025705, "is_disabled": 0, "lat": 38.887448666666664, "fusion_lat": 0.0, "is_reserved": 0, "rental_uris": {"ios": "https://dc.lft.to/lastmile_qr_scan", "android": "https://dc.lft.to/lastmile_qr_scan"}, "fusion_lon": 0.0, "type": "electric_scooter", "bike_id": "e6325cbcb63c817b2d3d635edad6a35f", "name": "e6325cbcb63c817b2d3d635edad6a35f"}, {"lon": -77.05495416666666, "is_disabled": 0, "lat": 39.01478383333333, "fusion_lat": 0.0, "is_reserved": 0, "rental_uris": {"ios": "https://dc.lft.to/lastmile_qr_scan", "android": "https://dc.lft.to/lastmile_qr_scan"}, "fusion_lon": 0.0, "type": "electric_bike", "bike_id": "92dded258af35b607ffcb5bcea103c70", "name": "92dded258af35b607ffcb5bcea103c70"}, {"lon": -77.03586433333334, "is_disabled": 0, "lat": 38.91120766666667, "fusion_lat": 0.0, "is_reserved": 0, "rental_uris": {"ios": "https://dc.lft.to/lastmile_qr_scan", "android": "https://dc.lft.to/lastmile_qr_scan"}, "fusion_lon": 0.0, "type": "electric_scooter", "bike_id": "4ca17d556b0a3d99f5ec697d87b485b8", "name": "4ca17d556b0a3d99f5ec697d87b485b8"}, {"lon": -77.03278016666667, "is_disabled": 0, "lat": 38.9097255, "fusion_lat": 0.0, "is_reserved": 0, "rental_uris": {"ios": "https://dc.lft.to/lastmile_qr_scan", "android": "https://dc.lft.to/lastmile_qr_scan"}, "fusion_lon": 0.0, "type": "electric_scooter", "bike_id": "fb1ca288ab08c5ebd620394c9d43aa09", "name": "fb1ca288ab08c5ebd620394c9d43aa09"}, {"lon": -77.03737666666666, "is_disabled": 0, "lat": 38.92657916666667, "fusion_lat": 0.0, "is_reserved": 0, "rental_uris": {"ios": "https://dc.lft.to/lastmile_qr_scan", "android": "https://dc.lft.to/lastmile_qr_scan"}, "fusion_lon": 0.0, "type": "electric_scooter", "bike_id": "4031474b9187cb02bf567bfb91af8cd0", "name": "4031474b9187cb02bf567bfb91af8cd0"}, {"lon": -77.00406966666667, "is_disabled": 0, "lat": 38.92134333333333, "fusion_lat": 0.0, "is_reserved": 0, "rental_uris": {"ios": "https://dc.lft.to/lastmile_qr_scan", "android": "https://dc.lft.to/lastmile_qr_scan"}, "fusion_lon": 0.0, "type": "electric_scooter", "bike_id": "8b0aa18bb433ef742a5b393c73dbec53", "name": "8b0aa18bb433ef742a5b393c73dbec53"}, {"lon": -77.0071865, "is_disabled": 0, "lat": 38.925403, "fusion_lat": 0.0, "is_reserved": 0, "rental_uris": {"ios": "https://dc.lft.to/lastmile_qr_scan", "android": "https://dc.lft.to/lastmile_qr_scan"}, "fusion_lon": 0.0, "type": "electric_scooter", "bike_id": "69c83e9c85897415aa385f4c62919c12", "name": "69c83e9c85897415aa385f4c62919c12"}, {"lon": -77.02163416666667, "is_disabled": 0, "lat": 38.92461766666667, "fusion_lat": 0.0, "is_reserved": 0, "rental_uris": {"ios": "https://dc.lft.to/lastmile_qr_scan", "android": "https://dc.lft.to/lastmile_qr_scan"}, "fusion_lon": 0.0, "type": "electric_scooter", "bike_id": "9eec43bf419d32a4a2a46d1856787d4f", "name": "9eec43bf419d32a4a2a46d1856787d4f"}, {"lon": -77.0400505, "is_disabled": 0, "lat": 38.90317266666667, "fusion_lat": 0.0, "is_reserved": 0, "rental_uris": {"ios": "https://dc.lft.to/lastmile_qr_scan", "android": "https://dc.lft.to/lastmile_qr_scan"}, "fusion_lon": 0.0, "type": "electric_scooter", "bike_id": "c65a45c416b5aa6bb934a39ade301f74", "name": "c65a45c416b5aa6bb934a39ade301f74"}, {"lon": -76.981447, "is_disabled": 0, "lat": 38.89753733333333, "fusion_lat": 0.0, "is_reserved": 0, "rental_uris": {"ios": "https://dc.lft.to/lastmile_qr_scan", "android": "https://dc.lft.to/lastmile_qr_scan"}, "fusion_lon": 0.0, "type": "electric_scooter", "bike_id": "38f1625fc9dc6cd5de7cb0663c5bf59e", "name": "38f1625fc9dc6cd5de7cb0663c5bf59e"}, {"lon": -77.0886185, "is_disabled": 0, "lat": 38.91643, "fusion_lat": 0.0, "is_reserved": 0, "rental_uris": {"ios": "https://dc.lft.to/lastmile_qr_scan", "android": "https://dc.lft.to/lastmile_qr_scan"}, "fusion_lon": 0.0, "type": "electric_scooter", "bike_id": "28c099d8da991df1330cb4f74f3bec90", "name": "28c099d8da991df1330cb4f74f3bec90"}, {"lon": -77.022049, "is_disabled": 0, "lat": 38.896183, "fusion_lat": 0.0, "is_reserved": 0, "rental_uris": {"ios": "https://dc.lft.to/lastmile_qr_scan", "android": "https://dc.lft.to/lastmile_qr_scan"}, "fusion_lon": 0.0, "type": "electric_scooter", "bike_id": "7410ba7bd2981230d11b516a4ef9a1ad", "name": "7410ba7bd2981230d11b516a4ef9a1ad"}, {"lon": -76.95955433333333, "is_disabled": 0, "lat": 38.86193216666667, "fusion_lat": 0.0, "is_reserved": 0, "rental_uris": {"ios": "https://dc.lft.to/lastmile_qr_scan", "android": "https://dc.lft.to/lastmile_qr_scan"}, "fusion_lon": 0.0, "type": "electric_scooter", "bike_id": "a50c5e4e860555ea2ce79178bc356fa3", "name": "a50c5e4e860555ea2ce79178bc356fa3"}, {"lon": -77.04354616666667, "is_disabled": 0, "lat": 38.90598683333333, "fusion_lat": 0.0, "is_reserved": 0, "rental_uris": {"ios": "https://dc.lft.to/lastmile_qr_scan", "android": "https://dc.lft.to/lastmile_qr_scan"}, "fusion_lon": 0.0, "type": "electric_scooter", "bike_id": "fb44d3ab67be634a8e6f54678cb22e34", "name": "fb44d3ab67be634a8e6f54678cb22e34"}, {"lon": -77.03316916666667, "is_disabled": 0, "lat": 38.898157499999996, "fusion_lat": 0.0, "is_reserved": 0, "rental_uris": {"ios": "https://dc.lft.to/lastmile_qr_scan", "android": "https://dc.lft.to/lastmile_qr_scan"}, "fusion_lon": 0.0, "type": "electric_scooter", "bike_id": "64c956280c126634b7229b55cb0cedc8", "name": "64c956280c126634b7229b55cb0cedc8"}, {"lon": -76.99364716666666, "is_disabled": 0, "lat": 38.990986166666666, "fusion_lat": 0.0, "is_reserved": 0, "rental_uris": {"ios": "https://dc.lft.to/lastmile_qr_scan", "android": "https://dc.lft.to/lastmile_qr_scan"}, "fusion_lon": 0.0, "type": "electric_bike", "bike_id": "a30aaf4a40e8d5ebf665b101b9b6ca2a", "name": "a30aaf4a40e8d5ebf665b101b9b6ca2a"}, {"lon": -77.00731583333334, "is_disabled": 0, "lat": 38.88498766666667, "fusion_lat": 0.0, "is_reserved": 0, "rental_uris": {"ios": "https://dc.lft.to/lastmile_qr_scan", "android": "https://dc.lft.to/lastmile_qr_scan"}, "fusion_lon": 0.0, "type": "electric_scooter", "bike_id": "752fc2d070417175ba2e36005bb89f19", "name": "752fc2d070417175ba2e36005bb89f19"}, {"lon": -77.03166416666667, "is_disabled": 0, "lat": 38.901243666666666, "fusion_lat": 0.0, "is_reserved": 0, "rental_uris": {"ios": "https://dc.lft.to/lastmile_qr_scan", "android": "https://dc.lft.to/lastmile_qr_scan"}, "fusion_lon": 0.0, "type": "electric_scooter", "bike_id": "ae75f748140b3acdad66c382efc74d32", "name": "ae75f748140b3acdad66c382efc74d32"}, {"lon": -77.04255283333333, "is_disabled": 0, "lat": 38.909876833333335, "fusion_lat": 0.0, "is_reserved": 0, "rental_uris": {"ios": "https://dc.lft.to/lastmile_qr_scan", "android": "https://dc.lft.to/lastmile_qr_scan"}, "fusion_lon": 0.0, "type": "electric_scooter", "bike_id": "d95be979f754a16b2520f39723b9005d", "name": "d95be979f754a16b2520f39723b9005d"}, {"lon": -76.971718, "is_disabled": 0, "lat": 38.878190333333336, "fusion_lat": 0.0, "is_reserved": 0, "rental_uris": {"ios": "https://dc.lft.to/lastmile_qr_scan", "android": "https://dc.lft.to/lastmile_qr_scan"}, "fusion_lon": 0.0, "type": "electric_scooter", "bike_id": "5008c4dfc23d5dbe4ebb98e01130c189", "name": "5008c4dfc23d5dbe4ebb98e01130c189"}, {"lon": -77.04506133333334, "is_disabled": 0, "lat": 38.89296783333333, "fusion_lat": 0.0, "is_reserved": 0, "rental_uris": {"ios": "https://dc.lft.to/lastmile_qr_scan", "android": "https://dc.lft.to/lastmile_qr_scan"}, "fusion_lon": 0.0, "type": "electric_scooter", "bike_id": "92c45b45d325353a8600028f97506262", "name": "92c45b45d325353a8600028f97506262"}, {"lon": -77.03790233333334, "is_disabled": 0, "lat": 38.926366333333334, "fusion_lat": 0.0, "is_reserved": 0, "rental_uris": {"ios": "https://dc.lft.to/lastmile_qr_scan", "android": "https://dc.lft.to/lastmile_qr_scan"}, "fusion_lon": 0.0, "type": "electric_scooter", "bike_id": "ae9ca68393bdfe79dca7bbdcc35fd703", "name": "ae9ca68393bdfe79dca7bbdcc35fd703"}, {"lon": -77.01756433333334, "is_disabled": 0, "lat": 38.903321, "fusion_lat": 0.0, "is_reserved": 0, "rental_uris": {"ios": "https://dc.lft.to/lastmile_qr_scan", "android": "https://dc.lft.to/lastmile_qr_scan"}, "fusion_lon": 0.0, "type": "electric_scooter", "bike_id": "79838ae19c488983789101d90995855a", "name": "79838ae19c488983789101d90995855a"}, {"lon": -76.981765, "is_disabled": 0, "lat": 38.91690216666667, "fusion_lat": 0.0, "is_reserved": 0, "rental_uris": {"ios": "https://dc.lft.to/lastmile_qr_scan", "android": "https://dc.lft.to/lastmile_qr_scan"}, "fusion_lon": 0.0, "type": "electric_scooter", "bike_id": "e216bdc108ee1ac0cc8a87c004e8af96", "name": "e216bdc108ee1ac0cc8a87c004e8af96"}, {"lon": -77.03299383333334, "is_disabled": 0, "lat": 38.928586333333335, "fusion_lat": 0.0, "is_reserved": 0, "rental_uris": {"ios": "https://dc.lft.to/lastmile_qr_scan", "android": "https://dc.lft.to/lastmile_qr_scan"}, "fusion_lon": 0.0, "type": "electric_scooter", "bike_id": "2ec52023702d313b253b0e5b79757294", "name": "2ec52023702d313b253b0e5b79757294"}, {"lon": -77.02464133333334, "is_disabled": 0, "lat": 38.919023, "fusion_lat": 0.0, "is_reserved": 0, "rental_uris": {"ios": "https://dc.lft.to/lastmile_qr_scan", "android": "https://dc.lft.to/lastmile_qr_scan"}, "fusion_lon": 0.0, "type": "electric_scooter", "bike_id": "8521c712ddf7bccf4f501081cf4772c0", "name": "8521c712ddf7bccf4f501081cf4772c0"}, {"lon": -77.04603166666666, "is_disabled": 0, "lat": 38.9027485, "fusion_lat": 0.0, "is_reserved": 0, "rental_uris": {"ios": "https://dc.lft.to/lastmile_qr_scan", "android": "https://dc.lft.to/lastmile_qr_scan"}, "fusion_lon": 0.0, "type": "electric_scooter", "bike_id": "2fc5d063368c38ff4625d876040e9f50", "name": "2fc5d063368c38ff4625d876040e9f50"}, {"lon": -77.0120945, "is_disabled": 0, "lat": 38.9062375, "fusion_lat": 0.0, "is_reserved": 0, "rental_uris": {"ios": "https://dc.lft.to/lastmile_qr_scan", "android": "https://dc.lft.to/lastmile_qr_scan"}, "fusion_lon": 0.0, "type": "electric_scooter", "bike_id": "3bc5fd5adeda71e8781e7ec20ebb9ada", "name": "3bc5fd5adeda71e8781e7ec20ebb9ada"}, {"lon": -77.045648, "is_disabled": 0, "lat": 38.913172333333335, "fusion_lat": 0.0, "is_reserved": 0, "rental_uris": {"ios": "https://dc.lft.to/lastmile_qr_scan", "android": "https://dc.lft.to/lastmile_qr_scan"}, "fusion_lon": 0.0, "type": "electric_scooter", "bike_id": "20787bd22e87eef0afb0a082133a2564", "name": "20787bd22e87eef0afb0a082133a2564"}, {"lon": -76.98686566666666, "is_disabled": 0, "lat": 38.87757333333333, "fusion_lat": 0.0, "is_reserved": 0, "rental_uris": {"ios": "https://dc.lft.to/lastmile_qr_scan", "android": "https://dc.lft.to/lastmile_qr_scan"}, "fusion_lon": 0.0, "type": "electric_scooter", "bike_id": "8e669494089132e1bd6d798ec13081f9", "name": "8e669494089132e1bd6d798ec13081f9"}, {"lon": -77.03363466666667, "is_disabled": 0, "lat": 38.92164316666667, "fusion_lat": 0.0, "is_reserved": 0, "rental_uris": {"ios": "https://dc.lft.to/lastmile_qr_scan", "android": "https://dc.lft.to/lastmile_qr_scan"}, "fusion_lon": 0.0, "type": "electric_scooter", "bike_id": "8cc2270d16043a587ccfa35349e14b9e", "name": "8cc2270d16043a587ccfa35349e14b9e"}, {"lon": -77.02767166666666, "is_disabled": 0, "lat": 38.92867916666667, "fusion_lat": 0.0, "is_reserved": 0, "rental_uris": {"ios": "https://dc.lft.to/lastmile_qr_scan", "android": "https://dc.lft.to/lastmile_qr_scan"}, "fusion_lon": 0.0, "type": "electric_scooter", "bike_id": "1cd0e0416a168fed057b0a18e399e3b4", "name": "1cd0e0416a168fed057b0a18e399e3b4"}, {"lon": -76.9963645, "is_disabled": 0, "lat": 38.88445383333333, "fusion_lat": 0.0, "is_reserved": 0, "rental_uris": {"ios": "https://dc.lft.to/lastmile_qr_scan", "android": "https://dc.lft.to/lastmile_qr_scan"}, "fusion_lon": 0.0, "type": "electric_scooter", "bike_id": "4ed00ca210717117b40b5062f2ed29d4", "name": "4ed00ca210717117b40b5062f2ed29d4"}, {"lon": -77.03799516666666, "is_disabled": 0, "lat": 38.902400166666666, "fusion_lat": 0.0, "is_reserved": 0, "rental_uris": {"ios": "https://dc.lft.to/lastmile_qr_scan", "android": "https://dc.lft.to/lastmile_qr_scan"}, "fusion_lon": 0.0, "type": "electric_scooter", "bike_id": "3499bf1a7f2917fddec3610d7373a858", "name": "3499bf1a7f2917fddec3610d7373a858"}, {"lon": -77.0231015, "is_disabled": 0, "lat": 38.9275095, "fusion_lat": 0.0, "is_reserved": 0, "rental_uris": {"ios": "https://dc.lft.to/lastmile_qr_scan", "android": "https://dc.lft.to/lastmile_qr_scan"}, "fusion_lon": 0.0, "type": "electric_scooter", "bike_id": "270a493bdc3b5f2d7b91878c9f82f736", "name": "270a493bdc3b5f2d7b91878c9f82f736"}, {"lon": -76.9463215, "is_disabled": 0, "lat": 38.832447333333334, "fusion_lat": 0.0, "is_reserved": 0, "rental_uris": {"ios": "https://dc.lft.to/lastmile_qr_scan", "android": "https://dc.lft.to/lastmile_qr_scan"}, "fusion_lon": 0.0, "type": "electric_bike", "bike_id": "6d9c1af145930da69f15012ddda14d2a", "name": "6d9c1af145930da69f15012ddda14d2a"}, {"lon": -76.93028366666667, "is_disabled": 0, "lat": 38.8957045, "fusion_lat": 0.0, "is_reserved": 0, "rental_uris": {"ios": "https://dc.lft.to/lastmile_qr_scan", "android": "https://dc.lft.to/lastmile_qr_scan"}, "fusion_lon": 0.0, "type": "electric_scooter", "bike_id": "4a113d8cc9e40b8f5830aca99b2aeec6", "name": "4a113d8cc9e40b8f5830aca99b2aeec6"}, {"lon": -77.015098, "is_disabled": 0, "lat": 38.926701, "fusion_lat": 0.0, "is_reserved": 0, "rental_uris": {"ios": "https://dc.lft.to/lastmile_qr_scan", "android": "https://dc.lft.to/lastmile_qr_scan"}, "fusion_lon": 0.0, "type": "electric_scooter", "bike_id": "a3bc57c74caadd2b56a66ca0feae9be3", "name": "a3bc57c74caadd2b56a66ca0feae9be3"}, {"lon": -77.03171216666667, "is_disabled": 0, "lat": 38.91628016666667, "fusion_lat": 0.0, "is_reserved": 0, "rental_uris": {"ios": "https://dc.lft.to/lastmile_qr_scan", "android": "https://dc.lft.to/lastmile_qr_scan"}, "fusion_lon": 0.0, "type": "electric_scooter", "bike_id": "c0b6917b1f55c1cc4f8db2bf651f1179", "name": "c0b6917b1f55c1cc4f8db2bf651f1179"}, {"lon": -76.95666833333334, "is_disabled": 0, "lat": 38.8847205, "fusion_lat": 0.0, "is_reserved": 0, "rental_uris": {"ios": "https://dc.lft.to/lastmile_qr_scan", "android": "https://dc.lft.to/lastmile_qr_scan"}, "fusion_lon": 0.0, "type": "electric_bike", "bike_id": "a521e7d98b1959c6540ca7fd3a5db623", "name": "a521e7d98b1959c6540ca7fd3a5db623"}, {"lon": -77.04313316666666, "is_disabled": 0, "lat": 39.03428433333333, "fusion_lat": 0.0, "is_reserved": 0, "rental_uris": {"ios": "https://dc.lft.to/lastmile_qr_scan", "android": "https://dc.lft.to/lastmile_qr_scan"}, "fusion_lon": 0.0, "type": "electric_bike", "bike_id": "f57581b6d54bf8ac06ac620f60e91fab", "name": "f57581b6d54bf8ac06ac620f60e91fab"}, {"lon": -77.0515415, "is_disabled": 0, "lat": 38.9237535, "fusion_lat": 0.0, "is_reserved": 0, "rental_uris": {"ios": "https://dc.lft.to/lastmile_qr_scan", "android": "https://dc.lft.to/lastmile_qr_scan"}, "fusion_lon": 0.0, "type": "electric_scooter", "bike_id": "22246991b1c5c82c7581937a5a66d3db", "name": "22246991b1c5c82c7581937a5a66d3db"}, {"lon": -77.04164616666667, "is_disabled": 0, "lat": 38.907280166666666, "fusion_lat": 0.0, "is_reserved": 0, "rental_uris": {"ios": "https://dc.lft.to/lastmile_qr_scan", "android": "https://dc.lft.to/lastmile_qr_scan"}, "fusion_lon": 0.0, "type": "electric_scooter", "bike_id": "e5905b0c872dc68c9fb0193d9ed8a141", "name": "e5905b0c872dc68c9fb0193d9ed8a141"}, {"lon": -77.04360616666666, "is_disabled": 0, "lat": 38.91049066666667, "fusion_lat": 0.0, "is_reserved": 0, "rental_uris": {"ios": "https://dc.lft.to/lastmile_qr_scan", "android": "https://dc.lft.to/lastmile_qr_scan"}, "fusion_lon": 0.0, "type": "electric_scooter", "bike_id": "79eb8e61f4e47be6027dd6b08b8de46e", "name": "79eb8e61f4e47be6027dd6b08b8de46e"}, {"lon": -76.977836, "is_disabled": 0, "lat": 38.905648166666666, "fusion_lat": 0.0, "is_reserved": 0, "rental_uris": {"ios": "https://dc.lft.to/lastmile_qr_scan", "android": "https://dc.lft.to/lastmile_qr_scan"}, "fusion_lon": 0.0, "type": "electric_scooter", "bike_id": "99d7e89bb1f01556a9c13396ee163992", "name": "99d7e89bb1f01556a9c13396ee163992"}, {"lon": -77.06397866666667, "is_disabled": 0, "lat": 38.944222833333335, "fusion_lat": 0.0, "is_reserved": 0, "rental_uris": {"ios": "https://dc.lft.to/lastmile_qr_scan", "android": "https://dc.lft.to/lastmile_qr_scan"}, "fusion_lon": 0.0, "type": "electric_scooter", "bike_id": "113aeb37bbcfbf1f54a3df2b97445314", "name": "113aeb37bbcfbf1f54a3df2b97445314"}, {"lon": -77.00065716666667, "is_disabled": 0, "lat": 38.9003575, "fusion_lat": 0.0, "is_reserved": 0, "rental_uris": {"ios": "https://dc.lft.to/lastmile_qr_scan", "android": "https://dc.lft.to/lastmile_qr_scan"}, "fusion_lon": 0.0, "type": "electric_scooter", "bike_id": "0355249b802b4c6ae1676d9b745d3beb", "name": "0355249b802b4c6ae1676d9b745d3beb"}, {"lon": -77.0297485, "is_disabled": 0, "lat": 38.91727783333333, "fusion_lat": 0.0, "is_reserved": 0, "rental_uris": {"ios": "https://dc.lft.to/lastmile_qr_scan", "android": "https://dc.lft.to/lastmile_qr_scan"}, "fusion_lon": 0.0, "type": "electric_scooter", "bike_id": "f5a6f662daaba854453fac29c92424ea", "name": "f5a6f662daaba854453fac29c92424ea"}, {"lon": -77.06054683333333, "is_disabled": 0, "lat": 38.9392235, "fusion_lat": 0.0, "is_reserved": 0, "rental_uris": {"ios": "https://dc.lft.to/lastmile_qr_scan", "android": "https://dc.lft.to/lastmile_qr_scan"}, "fusion_lon": 0.0, "type": "electric_scooter", "bike_id": "a38a83a428269b2121115ef9780731e2", "name": "a38a83a428269b2121115ef9780731e2"}, {"lon": -77.0340535, "is_disabled": 0, "lat": 38.911049166666665, "fusion_lat": 0.0, "is_reserved": 0, "rental_uris": {"ios": "https://dc.lft.to/lastmile_qr_scan", "android": "https://dc.lft.to/lastmile_qr_scan"}, "fusion_lon": 0.0, "type": "electric_scooter", "bike_id": "4c664e61f16536cbde2b1282d737f5e9", "name": "4c664e61f16536cbde2b1282d737f5e9"}, {"lon": -77.0285955, "is_disabled": 0, "lat": 39.037007833333334, "fusion_lat": 0.0, "is_reserved": 0, "rental_uris": {"ios": "https://dc.lft.to/lastmile_qr_scan", "android": "https://dc.lft.to/lastmile_qr_scan"}, "fusion_lon": 0.0, "type": "electric_bike", "bike_id": "30e1303e4b6ab344d45ee5b4e609e067", "name": "30e1303e4b6ab344d45ee5b4e609e067"}, {"lon": -76.9879405, "is_disabled": 0, "lat": 38.91239683333333, "fusion_lat": 0.0, "is_reserved": 0, "rental_uris": {"ios": "https://dc.lft.to/lastmile_qr_scan", "android": "https://dc.lft.to/lastmile_qr_scan"}, "fusion_lon": 0.0, "type": "electric_scooter", "bike_id": "a07d50fc47af8c80661cdc8e2efd99a6", "name": "a07d50fc47af8c80661cdc8e2efd99a6"}, {"lon": -77.08095216666666, "is_disabled": 0, "lat": 38.950947, "fusion_lat": 0.0, "is_reserved": 0, "rental_uris": {"ios": "https://dc.lft.to/lastmile_qr_scan", "android": "https://dc.lft.to/lastmile_qr_scan"}, "fusion_lon": 0.0, "type": "electric_bike", "bike_id": "3f111ab9001f45e86df415fb396b4495", "name": "3f111ab9001f45e86df415fb396b4495"}, {"lon": -77.02613316666667, "is_disabled": 0, "lat": 38.91409866666667, "fusion_lat": 0.0, "is_reserved": 0, "rental_uris": {"ios": "https://dc.lft.to/lastmile_qr_scan", "android": "https://dc.lft.to/lastmile_qr_scan"}, "fusion_lon": 0.0, "type": "electric_scooter", "bike_id": "21b6708e1617833cbd0f30d06f4ccb05", "name": "21b6708e1617833cbd0f30d06f4ccb05"}, {"lon": -77.04836366666666, "is_disabled": 0, "lat": 38.89841916666666, "fusion_lat": 0.0, "is_reserved": 0, "rental_uris": {"ios": "https://dc.lft.to/lastmile_qr_scan", "android": "https://dc.lft.to/lastmile_qr_scan"}, "fusion_lon": 0.0, "type": "electric_scooter", "bike_id": "aeaa901823bcf2d75a21104dd60c47bf", "name": "aeaa901823bcf2d75a21104dd60c47bf"}, {"lon": -77.01634433333334, "is_disabled": 0, "lat": 38.899208333333334, "fusion_lat": 0.0, "is_reserved": 0, "rental_uris": {"ios": "https://dc.lft.to/lastmile_qr_scan", "android": "https://dc.lft.to/lastmile_qr_scan"}, "fusion_lon": 0.0, "type": "electric_scooter", "bike_id": "4920eb8b3c6720daed89f98b6751a92a", "name": "4920eb8b3c6720daed89f98b6751a92a"}, {"lon": -77.02288166666666, "is_disabled": 0, "lat": 38.915894333333334, "fusion_lat": 0.0, "is_reserved": 0, "rental_uris": {"ios": "https://dc.lft.to/lastmile_qr_scan", "android": "https://dc.lft.to/lastmile_qr_scan"}, "fusion_lon": 0.0, "type": "electric_scooter", "bike_id": "4b74d740d0ccd3418087d5eab520a969", "name": "4b74d740d0ccd3418087d5eab520a969"}, {"lon": -77.0067515, "is_disabled": 0, "lat": 38.90110716666667, "fusion_lat": 0.0, "is_reserved": 0, "rental_uris": {"ios": "https://dc.lft.to/lastmile_qr_scan", "android": "https://dc.lft.to/lastmile_qr_scan"}, "fusion_lon": 0.0, "type": "electric_scooter", "bike_id": "6938d1ec6d0b1234069409457e50f117", "name": "6938d1ec6d0b1234069409457e50f117"}, {"lon": -77.024071, "is_disabled": 0, "lat": 38.9166725, "fusion_lat": 0.0, "is_reserved": 0, "rental_uris": {"ios": "https://dc.lft.to/lastmile_qr_scan", "android": "https://dc.lft.to/lastmile_qr_scan"}, "fusion_lon": 0.0, "type": "electric_scooter", "bike_id": "7a7f202cb957e0080b81becaf89e1c8a", "name": "7a7f202cb957e0080b81becaf89e1c8a"}, {"lon": -77.0557585, "is_disabled": 0, "lat": 38.89975283333333, "fusion_lat": 0.0, "is_reserved": 0, "rental_uris": {"ios": "https://dc.lft.to/lastmile_qr_scan", "android": "https://dc.lft.to/lastmile_qr_scan"}, "fusion_lon": 0.0, "type": "electric_scooter", "bike_id": "7822209feca432037cd88ece6ee8e74c", "name": "7822209feca432037cd88ece6ee8e74c"}, {"lon": -77.03273883333334, "is_disabled": 0, "lat": 38.92865533333333, "fusion_lat": 0.0, "is_reserved": 0, "rental_uris": {"ios": "https://dc.lft.to/lastmile_qr_scan", "android": "https://dc.lft.to/lastmile_qr_scan"}, "fusion_lon": 0.0, "type": "electric_scooter", "bike_id": "b4b98fa3e609f802cc944a6b95f3551b", "name": "b4b98fa3e609f802cc944a6b95f3551b"}, {"lon": -77.03433933333334, "is_disabled": 0, "lat": 38.9094945, "fusion_lat": 0.0, "is_reserved": 0, "rental_uris": {"ios": "https://dc.lft.to/lastmile_qr_scan", "android": "https://dc.lft.to/lastmile_qr_scan"}, "fusion_lon": 0.0, "type": "electric_scooter", "bike_id": "5dc8c74041b3e41d8e4809ccdd9bde73", "name": "5dc8c74041b3e41d8e4809ccdd9bde73"}, {"lon": -77.02497433333333, "is_disabled": 0, "lat": 38.94272933333333, "fusion_lat": 0.0, "is_reserved": 0, "rental_uris": {"ios": "https://dc.lft.to/lastmile_qr_scan", "android": "https://dc.lft.to/lastmile_qr_scan"}, "fusion_lon": 0.0, "type": "electric_scooter", "bike_id": "49e6f3f2ef61d5d8b1e6d8542867ef5c", "name": "49e6f3f2ef61d5d8b1e6d8542867ef5c"}, {"lon": -77.02953466666666, "is_disabled": 0, "lat": 38.916814333333335, "fusion_lat": 0.0, "is_reserved": 0, "rental_uris": {"ios": "https://dc.lft.to/lastmile_qr_scan", "android": "https://dc.lft.to/lastmile_qr_scan"}, "fusion_lon": 0.0, "type": "electric_scooter", "bike_id": "86ae7cd75a4c5641a2bae7d0bbd5dd40", "name": "86ae7cd75a4c5641a2bae7d0bbd5dd40"}, {"lon": -76.993048, "is_disabled": 0, "lat": 38.85753866666667, "fusion_lat": 0.0, "is_reserved": 0, "rental_uris": {"ios": "https://dc.lft.to/lastmile_qr_scan", "android": "https://dc.lft.to/lastmile_qr_scan"}, "fusion_lon": 0.0, "type": "electric_scooter", "bike_id": "2dd22b3947fc6737d9aeed473d227798", "name": "2dd22b3947fc6737d9aeed473d227798"}, {"lon": -77.04136533333333, "is_disabled": 0, "lat": 38.92495266666667, "fusion_lat": 0.0, "is_reserved": 0, "rental_uris": {"ios": "https://dc.lft.to/lastmile_qr_scan", "android": "https://dc.lft.to/lastmile_qr_scan"}, "fusion_lon": 0.0, "type": "electric_scooter", "bike_id": "179692d8d83bc80e0d819da52bac437c", "name": "179692d8d83bc80e0d819da52bac437c"}, {"lon": -77.04307666666666, "is_disabled": 0, "lat": 38.9055835, "fusion_lat": 0.0, "is_reserved": 0, "rental_uris": {"ios": "https://dc.lft.to/lastmile_qr_scan", "android": "https://dc.lft.to/lastmile_qr_scan"}, "fusion_lon": 0.0, "type": "electric_scooter", "bike_id": "fd5cf7bfbadbd80f050c643cd160c597", "name": "fd5cf7bfbadbd80f050c643cd160c597"}, {"lon": -77.03208483333333, "is_disabled": 0, "lat": 38.9138965, "fusion_lat": 0.0, "is_reserved": 0, "rental_uris": {"ios": "https://dc.lft.to/lastmile_qr_scan", "android": "https://dc.lft.to/lastmile_qr_scan"}, "fusion_lon": 0.0, "type": "electric_scooter", "bike_id": "98e9a102495e0e9d4afc3715d37a5776", "name": "98e9a102495e0e9d4afc3715d37a5776"}, {"lon": -77.04496633333333, "is_disabled": 0, "lat": 38.91403366666667, "fusion_lat": 0.0, "is_reserved": 0, "rental_uris": {"ios": "https://dc.lft.to/lastmile_qr_scan", "android": "https://dc.lft.to/lastmile_qr_scan"}, "fusion_lon": 0.0, "type": "electric_scooter", "bike_id": "d8af80949c63d9786d7f1ec536eb72b5", "name": "d8af80949c63d9786d7f1ec536eb72b5"}, {"lon": -77.03831266666667, "is_disabled": 0, "lat": 38.9067765, "fusion_lat": 0.0, "is_reserved": 0, "rental_uris": {"ios": "https://dc.lft.to/lastmile_qr_scan", "android": "https://dc.lft.to/lastmile_qr_scan"}, "fusion_lon": 0.0, "type": "electric_scooter", "bike_id": "c4630fb776ba9cfe698be4e2d9c5329f", "name": "c4630fb776ba9cfe698be4e2d9c5329f"}, {"lon": -77.02295466666666, "is_disabled": 0, "lat": 38.895015666666666, "fusion_lat": 0.0, "is_reserved": 0, "rental_uris": {"ios": "https://dc.lft.to/lastmile_qr_scan", "android": "https://dc.lft.to/lastmile_qr_scan"}, "fusion_lon": 0.0, "type": "electric_scooter", "bike_id": "d4e375fa5c954200784f1af6fbe09f2a", "name": "d4e375fa5c954200784f1af6fbe09f2a"}, {"lon": -77.02639883333333, "is_disabled": 0, "lat": 38.984696, "fusion_lat": 0.0, "is_reserved": 0, "rental_uris": {"ios": "https://dc.lft.to/lastmile_qr_scan", "android": "https://dc.lft.to/lastmile_qr_scan"}, "fusion_lon": 0.0, "type": "electric_scooter", "bike_id": "0f37a2ccaf51cd422048ff0fc6f52e67", "name": "0f37a2ccaf51cd422048ff0fc6f52e67"}, {"lon": -77.04404683333334, "is_disabled": 0, "lat": 38.9002175, "fusion_lat": 0.0, "is_reserved": 0, "rental_uris": {"ios": "https://dc.lft.to/lastmile_qr_scan", "android": "https://dc.lft.to/lastmile_qr_scan"}, "fusion_lon": 0.0, "type": "electric_scooter", "bike_id": "7aba86e5da366d672b1b2f8f244adb2d", "name": "7aba86e5da366d672b1b2f8f244adb2d"}, {"lon": -77.03326366666667, "is_disabled": 0, "lat": 38.920569666666665, "fusion_lat": 0.0, "is_reserved": 0, "rental_uris": {"ios": "https://dc.lft.to/lastmile_qr_scan", "android": "https://dc.lft.to/lastmile_qr_scan"}, "fusion_lon": 0.0, "type": "electric_scooter", "bike_id": "f8e461eefc85c0864c061118ce64df50", "name": "f8e461eefc85c0864c061118ce64df50"}, {"lon": -77.04534233333334, "is_disabled": 0, "lat": 38.89473183333333, "fusion_lat": 0.0, "is_reserved": 0, "rental_uris": {"ios": "https://dc.lft.to/lastmile_qr_scan", "android": "https://dc.lft.to/lastmile_qr_scan"}, "fusion_lon": 0.0, "type": "electric_scooter", "bike_id": "813f80aaed70d22058a02fc70c5645c3", "name": "813f80aaed70d22058a02fc70c5645c3"}, {"lon": -77.02207716666666, "is_disabled": 0, "lat": 38.897463333333334, "fusion_lat": 0.0, "is_reserved": 0, "rental_uris": {"ios": "https://dc.lft.to/lastmile_qr_scan", "android": "https://dc.lft.to/lastmile_qr_scan"}, "fusion_lon": 0.0, "type": "electric_scooter", "bike_id": "07f11aeee90222fd4fe863d3670bff18", "name": "07f11aeee90222fd4fe863d3670bff18"}, {"lon": -76.99481716666666, "is_disabled": 0, "lat": 38.8836015, "fusion_lat": 0.0, "is_reserved": 0, "rental_uris": {"ios": "https://dc.lft.to/lastmile_qr_scan", "android": "https://dc.lft.to/lastmile_qr_scan"}, "fusion_lon": 0.0, "type": "electric_bike", "bike_id": "22654dcb5ea30430fd08b7cb11231715", "name": "22654dcb5ea30430fd08b7cb11231715"}, {"lon": -77.045105, "is_disabled": 0, "lat": 38.89957833333333, "fusion_lat": 0.0, "is_reserved": 0, "rental_uris": {"ios": "https://dc.lft.to/lastmile_qr_scan", "android": "https://dc.lft.to/lastmile_qr_scan"}, "fusion_lon": 0.0, "type": "electric_scooter", "bike_id": "135009d365272b18f7fd2895b564e491", "name": "135009d365272b18f7fd2895b564e491"}, {"lon": -77.0253315, "is_disabled": 0, "lat": 38.90656666666667, "fusion_lat": 0.0, "is_reserved": 0, "rental_uris": {"ios": "https://dc.lft.to/lastmile_qr_scan", "android": "https://dc.lft.to/lastmile_qr_scan"}, "fusion_lon": 0.0, "type": "electric_scooter", "bike_id": "5933d09c7c89f5a659c06e20df165924", "name": "5933d09c7c89f5a659c06e20df165924"}, {"lon": -77.03823333333334, "is_disabled": 0, "lat": 38.90332466666667, "fusion_lat": 0.0, "is_reserved": 0, "rental_uris": {"ios": "https://dc.lft.to/lastmile_qr_scan", "android": "https://dc.lft.to/lastmile_qr_scan"}, "fusion_lon": 0.0, "type": "electric_scooter", "bike_id": "57701b7f15c83b07d2e38c3f8c530991", "name": "57701b7f15c83b07d2e38c3f8c530991"}, {"lon": -77.03243716666667, "is_disabled": 0, "lat": 38.897402166666666, "fusion_lat": 0.0, "is_reserved": 0, "rental_uris": {"ios": "https://dc.lft.to/lastmile_qr_scan", "android": "https://dc.lft.to/lastmile_qr_scan"}, "fusion_lon": 0.0, "type": "electric_scooter", "bike_id": "d36faa497e35a4ad13a9d1b47d5ccc10", "name": "d36faa497e35a4ad13a9d1b47d5ccc10"}, {"lon": -77.0559375, "is_disabled": 0, "lat": 38.93698916666666, "fusion_lat": 0.0, "is_reserved": 0, "rental_uris": {"ios": "https://dc.lft.to/lastmile_qr_scan", "android": "https://dc.lft.to/lastmile_qr_scan"}, "fusion_lon": 0.0, "type": "electric_bike", "bike_id": "7acf3a8cbb3e2d5ed1a6b40c39be86af", "name": "7acf3a8cbb3e2d5ed1a6b40c39be86af"}, {"lon": -77.0230525, "is_disabled": 0, "lat": 38.914444333333336, "fusion_lat": 0.0, "is_reserved": 0, "rental_uris": {"ios": "https://dc.lft.to/lastmile_qr_scan", "android": "https://dc.lft.to/lastmile_qr_scan"}, "fusion_lon": 0.0, "type": "electric_scooter", "bike_id": "2153429758cebfbddb98140cc4c731f3", "name": "2153429758cebfbddb98140cc4c731f3"}, {"lon": -77.00827, "is_disabled": 0, "lat": 38.83171133333333, "fusion_lat": 0.0, "is_reserved": 0, "rental_uris": {"ios": "https://dc.lft.to/lastmile_qr_scan", "android": "https://dc.lft.to/lastmile_qr_scan"}, "fusion_lon": 0.0, "type": "electric_scooter", "bike_id": "4c4b16fb28162aff405cdc763c55d57d", "name": "4c4b16fb28162aff405cdc763c55d57d"}, {"lon": -77.0384235, "is_disabled": 0, "lat": 38.910640666666666, "fusion_lat": 0.0, "is_reserved": 0, "rental_uris": {"ios": "https://dc.lft.to/lastmile_qr_scan", "android": "https://dc.lft.to/lastmile_qr_scan"}, "fusion_lon": 0.0, "type": "electric_scooter", "bike_id": "035530599b69c3b63a60a9b00aed7c6e", "name": "035530599b69c3b63a60a9b00aed7c6e"}, {"lon": -76.96017983333333, "is_disabled": 0, "lat": 38.86933883333333, "fusion_lat": 0.0, "is_reserved": 0, "rental_uris": {"ios": "https://dc.lft.to/lastmile_qr_scan", "android": "https://dc.lft.to/lastmile_qr_scan"}, "fusion_lon": 0.0, "type": "electric_scooter", "bike_id": "a946d162decff8089becbced1f3bb2f4", "name": "a946d162decff8089becbced1f3bb2f4"}, {"lon": -77.01924316666667, "is_disabled": 0, "lat": 38.9225215, "fusion_lat": 0.0, "is_reserved": 0, "rental_uris": {"ios": "https://dc.lft.to/lastmile_qr_scan", "android": "https://dc.lft.to/lastmile_qr_scan"}, "fusion_lon": 0.0, "type": "electric_scooter", "bike_id": "a0f3963b74a1a6c2322968cb0e5a9a7d", "name": "a0f3963b74a1a6c2322968cb0e5a9a7d"}, {"lon": -77.0039295, "is_disabled": 0, "lat": 38.848534666666666, "fusion_lat": 0.0, "is_reserved": 0, "rental_uris": {"ios": "https://dc.lft.to/lastmile_qr_scan", "android": "https://dc.lft.to/lastmile_qr_scan"}, "fusion_lon": 0.0, "type": "electric_scooter", "bike_id": "0142c67cc314ccc2969830d9e9865f70", "name": "0142c67cc314ccc2969830d9e9865f70"}, {"lon": -77.03423683333334, "is_disabled": 0, "lat": 38.927392, "fusion_lat": 0.0, "is_reserved": 0, "rental_uris": {"ios": "https://dc.lft.to/lastmile_qr_scan", "android": "https://dc.lft.to/lastmile_qr_scan"}, "fusion_lon": 0.0, "type": "electric_scooter", "bike_id": "a3fe10dd60a9a9e64c21e9fe242c6699", "name": "a3fe10dd60a9a9e64c21e9fe242c6699"}, {"lon": -77.0387715, "is_disabled": 0, "lat": 38.92153016666666, "fusion_lat": 0.0, "is_reserved": 0, "rental_uris": {"ios": "https://dc.lft.to/lastmile_qr_scan", "android": "https://dc.lft.to/lastmile_qr_scan"}, "fusion_lon": 0.0, "type": "electric_scooter", "bike_id": "aac6fdce4b511ec45e44c325d06c434b", "name": "aac6fdce4b511ec45e44c325d06c434b"}, {"lon": -76.89072066666667, "is_disabled": 0, "lat": 38.92071, "fusion_lat": 0.0, "is_reserved": 0, "rental_uris": {"ios": "https://dc.lft.to/lastmile_qr_scan", "android": "https://dc.lft.to/lastmile_qr_scan"}, "fusion_lon": 0.0, "type": "electric_bike", "bike_id": "5d19062b3c98cad411912ab15477615e", "name": "5d19062b3c98cad411912ab15477615e"}, {"lon": -77.00773383333333, "is_disabled": 0, "lat": 38.905762333333335, "fusion_lat": 0.0, "is_reserved": 0, "rental_uris": {"ios": "https://dc.lft.to/lastmile_qr_scan", "android": "https://dc.lft.to/lastmile_qr_scan"}, "fusion_lon": 0.0, "type": "electric_scooter", "bike_id": "0f58c0ae18a8700cd44003042c242e9a", "name": "0f58c0ae18a8700cd44003042c242e9a"}, {"lon": -76.990654, "is_disabled": 0, "lat": 38.8637415, "fusion_lat": 0.0, "is_reserved": 0, "rental_uris": {"ios": "https://dc.lft.to/lastmile_qr_scan", "android": "https://dc.lft.to/lastmile_qr_scan"}, "fusion_lon": 0.0, "type": "electric_scooter", "bike_id": "3cc9432a04994af0b1413f6184536502", "name": "3cc9432a04994af0b1413f6184536502"}, {"lon": -77.05089316666667, "is_disabled": 0, "lat": 38.900647, "fusion_lat": 0.0, "is_reserved": 0, "rental_uris": {"ios": "https://dc.lft.to/lastmile_qr_scan", "android": "https://dc.lft.to/lastmile_qr_scan"}, "fusion_lon": 0.0, "type": "electric_scooter", "bike_id": "f4424c1e439a0518341a5baf3f1c7ade", "name": "f4424c1e439a0518341a5baf3f1c7ade"}, {"lon": -77.00665216666667, "is_disabled": 0, "lat": 38.89989216666667, "fusion_lat": 0.0, "is_reserved": 0, "rental_uris": {"ios": "https://dc.lft.to/lastmile_qr_scan", "android": "https://dc.lft.to/lastmile_qr_scan"}, "fusion_lon": 0.0, "type": "electric_scooter", "bike_id": "d681618f18879583e63543a4360376e8", "name": "d681618f18879583e63543a4360376e8"}, {"lon": -77.04364066666666, "is_disabled": 0, "lat": 38.9112145, "fusion_lat": 0.0, "is_reserved": 0, "rental_uris": {"ios": "https://dc.lft.to/lastmile_qr_scan", "android": "https://dc.lft.to/lastmile_qr_scan"}, "fusion_lon": 0.0, "type": "electric_scooter", "bike_id": "3e1bf128c5ea8418ba81f114b9f9f775", "name": "3e1bf128c5ea8418ba81f114b9f9f775"}, {"lon": -77.01112633333334, "is_disabled": 0, "lat": 38.90970433333333, "fusion_lat": 0.0, "is_reserved": 0, "rental_uris": {"ios": "https://dc.lft.to/lastmile_qr_scan", "android": "https://dc.lft.to/lastmile_qr_scan"}, "fusion_lon": 0.0, "type": "electric_scooter", "bike_id": "31ffab7c88326976b9243493bdd4a387", "name": "31ffab7c88326976b9243493bdd4a387"}, {"lon": -77.03441666666667, "is_disabled": 0, "lat": 38.9050475, "fusion_lat": 0.0, "is_reserved": 0, "rental_uris": {"ios": "https://dc.lft.to/lastmile_qr_scan", "android": "https://dc.lft.to/lastmile_qr_scan"}, "fusion_lon": 0.0, "type": "electric_scooter", "bike_id": "4ff1d9020142ac9acb9ffecb412d52d2", "name": "4ff1d9020142ac9acb9ffecb412d52d2"}, {"lon": -77.001312, "is_disabled": 0, "lat": 38.89273416666666, "fusion_lat": 0.0, "is_reserved": 0, "rental_uris": {"ios": "https://dc.lft.to/lastmile_qr_scan", "android": "https://dc.lft.to/lastmile_qr_scan"}, "fusion_lon": 0.0, "type": "electric_scooter", "bike_id": "7f1d8a7ae334ae0b155761f5d8849114", "name": "7f1d8a7ae334ae0b155761f5d8849114"}, {"lon": -76.99992316666666, "is_disabled": 0, "lat": 38.874853, "fusion_lat": 0.0, "is_reserved": 0, "rental_uris": {"ios": "https://dc.lft.to/lastmile_qr_scan", "android": "https://dc.lft.to/lastmile_qr_scan"}, "fusion_lon": 0.0, "type": "electric_scooter", "bike_id": "bbeedc81f1a5f7a67c6e337654c8f459", "name": "bbeedc81f1a5f7a67c6e337654c8f459"}, {"lon": -77.01223866666666, "is_disabled": 0, "lat": 38.9008245, "fusion_lat": 0.0, "is_reserved": 0, "rental_uris": {"ios": "https://dc.lft.to/lastmile_qr_scan", "android": "https://dc.lft.to/lastmile_qr_scan"}, "fusion_lon": 0.0, "type": "electric_scooter", "bike_id": "b9d3abb69ea5dcd048440c7707da79b7", "name": "b9d3abb69ea5dcd048440c7707da79b7"}, {"lon": -77.02980366666667, "is_disabled": 0, "lat": 38.92234166666667, "fusion_lat": 0.0, "is_reserved": 0, "rental_uris": {"ios": "https://dc.lft.to/lastmile_qr_scan", "android": "https://dc.lft.to/lastmile_qr_scan"}, "fusion_lon": 0.0, "type": "electric_scooter", "bike_id": "092f1898b36dfa707f695de12149f450", "name": "092f1898b36dfa707f695de12149f450"}, {"lon": -77.035053, "is_disabled": 0, "lat": 38.91709766666666, "fusion_lat": 0.0, "is_reserved": 0, "rental_uris": {"ios": "https://dc.lft.to/lastmile_qr_scan", "android": "https://dc.lft.to/lastmile_qr_scan"}, "fusion_lon": 0.0, "type": "electric_scooter", "bike_id": "401d05c221b0a616b87583169d8ff9a0", "name": "401d05c221b0a616b87583169d8ff9a0"}, {"lon": -77.038519, "is_disabled": 0, "lat": 38.90288866666667, "fusion_lat": 0.0, "is_reserved": 0, "rental_uris": {"ios": "https://dc.lft.to/lastmile_qr_scan", "android": "https://dc.lft.to/lastmile_qr_scan"}, "fusion_lon": 0.0, "type": "electric_scooter", "bike_id": "d876ce29a8dd444c42318604296cd89a", "name": "d876ce29a8dd444c42318604296cd89a"}, {"lon": -77.02867316666666, "is_disabled": 0, "lat": 38.900549833333336, "fusion_lat": 0.0, "is_reserved": 0, "rental_uris": {"ios": "https://dc.lft.to/lastmile_qr_scan", "android": "https://dc.lft.to/lastmile_qr_scan"}, "fusion_lon": 0.0, "type": "electric_scooter", "bike_id": "752e480974c769a375c278130c891191", "name": "752e480974c769a375c278130c891191"}, {"lon": -77.03186, "is_disabled": 0, "lat": 38.9248915, "fusion_lat": 0.0, "is_reserved": 0, "rental_uris": {"ios": "https://dc.lft.to/lastmile_qr_scan", "android": "https://dc.lft.to/lastmile_qr_scan"}, "fusion_lon": 0.0, "type": "electric_scooter", "bike_id": "5fb9a20f7176e4868c4f8eefa90d4b6b", "name": "5fb9a20f7176e4868c4f8eefa90d4b6b"}, {"lon": -77.02623433333333, "is_disabled": 0, "lat": 38.92826916666667, "fusion_lat": 0.0, "is_reserved": 0, "rental_uris": {"ios": "https://dc.lft.to/lastmile_qr_scan", "android": "https://dc.lft.to/lastmile_qr_scan"}, "fusion_lon": 0.0, "type": "electric_scooter", "bike_id": "4841e07457e071b54d991888fe14df7e", "name": "4841e07457e071b54d991888fe14df7e"}, {"lon": -77.03569883333333, "is_disabled": 0, "lat": 38.903697333333334, "fusion_lat": 0.0, "is_reserved": 0, "rental_uris": {"ios": "https://dc.lft.to/lastmile_qr_scan", "android": "https://dc.lft.to/lastmile_qr_scan"}, "fusion_lon": 0.0, "type": "electric_scooter", "bike_id": "7a73f7a51fa1b3b017414b55d01ad342", "name": "7a73f7a51fa1b3b017414b55d01ad342"}, {"lon": -77.0209325, "is_disabled": 0, "lat": 38.88186483333333, "fusion_lat": 0.0, "is_reserved": 0, "rental_uris": {"ios": "https://dc.lft.to/lastmile_qr_scan", "android": "https://dc.lft.to/lastmile_qr_scan"}, "fusion_lon": 0.0, "type": "electric_scooter", "bike_id": "6f7e64e4e1fcc86faee83edf3f9a4785", "name": "6f7e64e4e1fcc86faee83edf3f9a4785"}, {"lon": -77.00802566666667, "is_disabled": 0, "lat": 38.94913183333333, "fusion_lat": 0.0, "is_reserved": 0, "rental_uris": {"ios": "https://dc.lft.to/lastmile_qr_scan", "android": "https://dc.lft.to/lastmile_qr_scan"}, "fusion_lon": 0.0, "type": "electric_bike", "bike_id": "0646cdf969308cc86bfacc4c9ce4b5fa", "name": "0646cdf969308cc86bfacc4c9ce4b5fa"}, {"lon": -76.98819183333333, "is_disabled": 0, "lat": 38.90069066666667, "fusion_lat": 0.0, "is_reserved": 0, "rental_uris": {"ios": "https://dc.lft.to/lastmile_qr_scan", "android": "https://dc.lft.to/lastmile_qr_scan"}, "fusion_lon": 0.0, "type": "electric_scooter", "bike_id": "ab737ea8baee8235e85ec5beb4c7bfdd", "name": "ab737ea8baee8235e85ec5beb4c7bfdd"}, {"lon": -77.04515666666667, "is_disabled": 0, "lat": 38.90376716666667, "fusion_lat": 0.0, "is_reserved": 0, "rental_uris": {"ios": "https://dc.lft.to/lastmile_qr_scan", "android": "https://dc.lft.to/lastmile_qr_scan"}, "fusion_lon": 0.0, "type": "electric_scooter", "bike_id": "2e224674ad84ee4c8007ada4d315f1e5", "name": "2e224674ad84ee4c8007ada4d315f1e5"}, {"lon": -76.98605166666667, "is_disabled": 0, "lat": 38.90014266666667, "fusion_lat": 0.0, "is_reserved": 0, "rental_uris": {"ios": "https://dc.lft.to/lastmile_qr_scan", "android": "https://dc.lft.to/lastmile_qr_scan"}, "fusion_lon": 0.0, "type": "electric_scooter", "bike_id": "667731729fd30348e7bccf691764bbc7", "name": "667731729fd30348e7bccf691764bbc7"}, {"lon": -77.01571633333333, "is_disabled": 0, "lat": 38.87645216666667, "fusion_lat": 0.0, "is_reserved": 0, "rental_uris": {"ios": "https://dc.lft.to/lastmile_qr_scan", "android": "https://dc.lft.to/lastmile_qr_scan"}, "fusion_lon": 0.0, "type": "electric_scooter", "bike_id": "c1cab7ffcbeaf3cab77443f206310900", "name": "c1cab7ffcbeaf3cab77443f206310900"}, {"lon": -76.94644066666666, "is_disabled": 0, "lat": 38.8986335, "fusion_lat": 0.0, "is_reserved": 0, "rental_uris": {"ios": "https://dc.lft.to/lastmile_qr_scan", "android": "https://dc.lft.to/lastmile_qr_scan"}, "fusion_lon": 0.0, "type": "electric_scooter", "bike_id": "c082ebff036fe1a2ac880cbec1638abe", "name": "c082ebff036fe1a2ac880cbec1638abe"}, {"lon": -76.9948665, "is_disabled": 0, "lat": 38.88341416666667, "fusion_lat": 0.0, "is_reserved": 0, "rental_uris": {"ios": "https://dc.lft.to/lastmile_qr_scan", "android": "https://dc.lft.to/lastmile_qr_scan"}, "fusion_lon": 0.0, "type": "electric_scooter", "bike_id": "745ea0140bc8a79c2b3b2d28b3508f49", "name": "745ea0140bc8a79c2b3b2d28b3508f49"}, {"lon": -77.03830733333334, "is_disabled": 0, "lat": 38.903043833333335, "fusion_lat": 0.0, "is_reserved": 0, "rental_uris": {"ios": "https://dc.lft.to/lastmile_qr_scan", "android": "https://dc.lft.to/lastmile_qr_scan"}, "fusion_lon": 0.0, "type": "electric_scooter", "bike_id": "f3dd8e2abd5befdb40a199b82c68a19d", "name": "f3dd8e2abd5befdb40a199b82c68a19d"}, {"lon": -77.04196, "is_disabled": 0, "lat": 38.92085266666667, "fusion_lat": 0.0, "is_reserved": 0, "rental_uris": {"ios": "https://dc.lft.to/lastmile_qr_scan", "android": "https://dc.lft.to/lastmile_qr_scan"}, "fusion_lon": 0.0, "type": "electric_scooter", "bike_id": "d5b0c432b16afe2e9ae647dfc3afb469", "name": "d5b0c432b16afe2e9ae647dfc3afb469"}, {"lon": -77.0257295, "is_disabled": 0, "lat": 38.900948666666665, "fusion_lat": 0.0, "is_reserved": 0, "rental_uris": {"ios": "https://dc.lft.to/lastmile_qr_scan", "android": "https://dc.lft.to/lastmile_qr_scan"}, "fusion_lon": 0.0, "type": "electric_bike", "bike_id": "eecd30a19d0dc35df5d08427dd3c7def", "name": "eecd30a19d0dc35df5d08427dd3c7def"}, {"lon": -76.96531433333334, "is_disabled": 0, "lat": 38.876236666666664, "fusion_lat": 0.0, "is_reserved": 0, "rental_uris": {"ios": "https://dc.lft.to/lastmile_qr_scan", "android": "https://dc.lft.to/lastmile_qr_scan"}, "fusion_lon": 0.0, "type": "electric_scooter", "bike_id": "afbb2308183314f73d0c315dbe571aeb", "name": "afbb2308183314f73d0c315dbe571aeb"}, {"lon": -77.04356883333334, "is_disabled": 0, "lat": 38.90396483333333, "fusion_lat": 0.0, "is_reserved": 0, "rental_uris": {"ios": "https://dc.lft.to/lastmile_qr_scan", "android": "https://dc.lft.to/lastmile_qr_scan"}, "fusion_lon": 0.0, "type": "electric_scooter", "bike_id": "7386a06e6bef6c49e1e67cf6f6d99113", "name": "7386a06e6bef6c49e1e67cf6f6d99113"}, {"lon": -77.0468595, "is_disabled": 0, "lat": 38.89546966666666, "fusion_lat": 0.0, "is_reserved": 0, "rental_uris": {"ios": "https://dc.lft.to/lastmile_qr_scan", "android": "https://dc.lft.to/lastmile_qr_scan"}, "fusion_lon": 0.0, "type": "electric_scooter", "bike_id": "6c173458675c57061af56e3f873084ea", "name": "6c173458675c57061af56e3f873084ea"}, {"lon": -77.02819433333333, "is_disabled": 0, "lat": 38.89912, "fusion_lat": 0.0, "is_reserved": 0, "rental_uris": {"ios": "https://dc.lft.to/lastmile_qr_scan", "android": "https://dc.lft.to/lastmile_qr_scan"}, "fusion_lon": 0.0, "type": "electric_scooter", "bike_id": "1a9f831f61e7da3b4d425152e956eba2", "name": "1a9f831f61e7da3b4d425152e956eba2"}, {"lon": -76.99996616666667, "is_disabled": 0, "lat": 38.964066833333334, "fusion_lat": 0.0, "is_reserved": 0, "rental_uris": {"ios": "https://dc.lft.to/lastmile_qr_scan", "android": "https://dc.lft.to/lastmile_qr_scan"}, "fusion_lon": 0.0, "type": "electric_bike", "bike_id": "35b2fcdb937407a9dc0c9b0d95153f60", "name": "35b2fcdb937407a9dc0c9b0d95153f60"}, {"lon": -77.03840366666667, "is_disabled": 0, "lat": 38.911515333333334, "fusion_lat": 0.0, "is_reserved": 0, "rental_uris": {"ios": "https://dc.lft.to/lastmile_qr_scan", "android": "https://dc.lft.to/lastmile_qr_scan"}, "fusion_lon": 0.0, "type": "electric_scooter", "bike_id": "59b404cbf8f1cda178fe44643c0215c9", "name": "59b404cbf8f1cda178fe44643c0215c9"}, {"lon": -77.04492333333333, "is_disabled": 0, "lat": 38.90943733333334, "fusion_lat": 0.0, "is_reserved": 0, "rental_uris": {"ios": "https://dc.lft.to/lastmile_qr_scan", "android": "https://dc.lft.to/lastmile_qr_scan"}, "fusion_lon": 0.0, "type": "electric_scooter", "bike_id": "579dd2f95baf2ed16110b628e85550e8", "name": "579dd2f95baf2ed16110b628e85550e8"}, {"lon": -77.01691983333333, "is_disabled": 0, "lat": 38.920414666666666, "fusion_lat": 0.0, "is_reserved": 0, "rental_uris": {"ios": "https://dc.lft.to/lastmile_qr_scan", "android": "https://dc.lft.to/lastmile_qr_scan"}, "fusion_lon": 0.0, "type": "electric_scooter", "bike_id": "9f901d9ff7a36e58b0d26b95e755b8d9", "name": "9f901d9ff7a36e58b0d26b95e755b8d9"}, {"lon": -77.008924, "is_disabled": 0, "lat": 38.921500333333334, "fusion_lat": 0.0, "is_reserved": 0, "rental_uris": {"ios": "https://dc.lft.to/lastmile_qr_scan", "android": "https://dc.lft.to/lastmile_qr_scan"}, "fusion_lon": 0.0, "type": "electric_bike", "bike_id": "d904a3e6acdb0de1fc6ce804827bbb14", "name": "d904a3e6acdb0de1fc6ce804827bbb14"}, {"lon": -77.0468615, "is_disabled": 0, "lat": 38.89508933333333, "fusion_lat": 0.0, "is_reserved": 0, "rental_uris": {"ios": "https://dc.lft.to/lastmile_qr_scan", "android": "https://dc.lft.to/lastmile_qr_scan"}, "fusion_lon": 0.0, "type": "electric_scooter", "bike_id": "71255f24bc5939c42adbd72d6e9e01e7", "name": "71255f24bc5939c42adbd72d6e9e01e7"}, {"lon": -77.040777, "is_disabled": 0, "lat": 38.90381983333333, "fusion_lat": 0.0, "is_reserved": 0, "rental_uris": {"ios": "https://dc.lft.to/lastmile_qr_scan", "android": "https://dc.lft.to/lastmile_qr_scan"}, "fusion_lon": 0.0, "type": "electric_scooter", "bike_id": "188763dbe52759546febf2df6b8bdd6d", "name": "188763dbe52759546febf2df6b8bdd6d"}, {"lon": -77.00579866666666, "is_disabled": 0, "lat": 38.87656533333333, "fusion_lat": 0.0, "is_reserved": 0, "rental_uris": {"ios": "https://dc.lft.to/lastmile_qr_scan", "android": "https://dc.lft.to/lastmile_qr_scan"}, "fusion_lon": 0.0, "type": "electric_scooter", "bike_id": "b2e90b3539efb3fb16b744a3e2cd057d", "name": "b2e90b3539efb3fb16b744a3e2cd057d"}, {"lon": -77.008479, "is_disabled": 0, "lat": 38.9223175, "fusion_lat": 0.0, "is_reserved": 0, "rental_uris": {"ios": "https://dc.lft.to/lastmile_qr_scan", "android": "https://dc.lft.to/lastmile_qr_scan"}, "fusion_lon": 0.0, "type": "electric_scooter", "bike_id": "788dd87eec96d60045945abd62fde36b", "name": "788dd87eec96d60045945abd62fde36b"}, {"lon": -77.03325466666666, "is_disabled": 0, "lat": 38.972216833333334, "fusion_lat": 0.0, "is_reserved": 0, "rental_uris": {"ios": "https://dc.lft.to/lastmile_qr_scan", "android": "https://dc.lft.to/lastmile_qr_scan"}, "fusion_lon": 0.0, "type": "electric_bike", "bike_id": "27671f1002bd21966c73934857f91d4a", "name": "27671f1002bd21966c73934857f91d4a"}, {"lon": -76.9837965, "is_disabled": 0, "lat": 38.87947783333333, "fusion_lat": 0.0, "is_reserved": 0, "rental_uris": {"ios": "https://dc.lft.to/lastmile_qr_scan", "android": "https://dc.lft.to/lastmile_qr_scan"}, "fusion_lon": 0.0, "type": "electric_scooter", "bike_id": "52160bbe1121e06b84fac330446b0b68", "name": "52160bbe1121e06b84fac330446b0b68"}, {"lon": -77.00347033333334, "is_disabled": 0, "lat": 38.894650666666664, "fusion_lat": 0.0, "is_reserved": 0, "rental_uris": {"ios": "https://dc.lft.to/lastmile_qr_scan", "android": "https://dc.lft.to/lastmile_qr_scan"}, "fusion_lon": 0.0, "type": "electric_scooter", "bike_id": "bd21e1e9a75de57cbb89e9fbcc04a9a3", "name": "bd21e1e9a75de57cbb89e9fbcc04a9a3"}, {"lon": -77.02498416666667, "is_disabled": 0, "lat": 38.918079, "fusion_lat": 0.0, "is_reserved": 0, "rental_uris": {"ios": "https://dc.lft.to/lastmile_qr_scan", "android": "https://dc.lft.to/lastmile_qr_scan"}, "fusion_lon": 0.0, "type": "electric_scooter", "bike_id": "82aa76146ce5757f02f96396595d2ae6", "name": "82aa76146ce5757f02f96396595d2ae6"}, {"lon": -77.06386283333333, "is_disabled": 0, "lat": 38.90523966666667, "fusion_lat": 0.0, "is_reserved": 0, "rental_uris": {"ios": "https://dc.lft.to/lastmile_qr_scan", "android": "https://dc.lft.to/lastmile_qr_scan"}, "fusion_lon": 0.0, "type": "electric_scooter", "bike_id": "16352f7d3461ac0ec34806570b5f0d4b", "name": "16352f7d3461ac0ec34806570b5f0d4b"}, {"lon": -76.97860616666667, "is_disabled": 0, "lat": 38.8446765, "fusion_lat": 0.0, "is_reserved": 0, "rental_uris": {"ios": "https://dc.lft.to/lastmile_qr_scan", "android": "https://dc.lft.to/lastmile_qr_scan"}, "fusion_lon": 0.0, "type": "electric_bike", "bike_id": "9d0f04e5dc01816a0cc04db6e636c825", "name": "9d0f04e5dc01816a0cc04db6e636c825"}, {"lon": -77.03340633333333, "is_disabled": 0, "lat": 38.902854, "fusion_lat": 0.0, "is_reserved": 0, "rental_uris": {"ios": "https://dc.lft.to/lastmile_qr_scan", "android": "https://dc.lft.to/lastmile_qr_scan"}, "fusion_lon": 0.0, "type": "electric_scooter", "bike_id": "4686c98312cb08f3f21a350bd49207a8", "name": "4686c98312cb08f3f21a350bd49207a8"}, {"lon": -77.05738, "is_disabled": 0, "lat": 38.9336305, "fusion_lat": 0.0, "is_reserved": 0, "rental_uris": {"ios": "https://dc.lft.to/lastmile_qr_scan", "android": "https://dc.lft.to/lastmile_qr_scan"}, "fusion_lon": 0.0, "type": "electric_scooter", "bike_id": "1b2108b59cca9a6b37b4b74aa77df518", "name": "1b2108b59cca9a6b37b4b74aa77df518"}, {"lon": -76.96706566666667, "is_disabled": 0, "lat": 38.860392833333336, "fusion_lat": 0.0, "is_reserved": 0, "rental_uris": {"ios": "https://dc.lft.to/lastmile_qr_scan", "android": "https://dc.lft.to/lastmile_qr_scan"}, "fusion_lon": 0.0, "type": "electric_scooter", "bike_id": "9c22224c3f6eb2878f20b42fca160b79", "name": "9c22224c3f6eb2878f20b42fca160b79"}, {"lon": -77.01218666666666, "is_disabled": 0, "lat": 38.898481, "fusion_lat": 0.0, "is_reserved": 0, "rental_uris": {"ios": "https://dc.lft.to/lastmile_qr_scan", "android": "https://dc.lft.to/lastmile_qr_scan"}, "fusion_lon": 0.0, "type": "electric_scooter", "bike_id": "2f8c1f482a3822670782b606e8980445", "name": "2f8c1f482a3822670782b606e8980445"}, {"lon": -77.05659116666666, "is_disabled": 0, "lat": 38.90622333333334, "fusion_lat": 0.0, "is_reserved": 0, "rental_uris": {"ios": "https://dc.lft.to/lastmile_qr_scan", "android": "https://dc.lft.to/lastmile_qr_scan"}, "fusion_lon": 0.0, "type": "electric_scooter", "bike_id": "679e080aa17295ab007993854cb21215", "name": "679e080aa17295ab007993854cb21215"}, {"lon": -77.02561616666667, "is_disabled": 0, "lat": 38.9096675, "fusion_lat": 0.0, "is_reserved": 0, "rental_uris": {"ios": "https://dc.lft.to/lastmile_qr_scan", "android": "https://dc.lft.to/lastmile_qr_scan"}, "fusion_lon": 0.0, "type": "electric_scooter", "bike_id": "e7c72fdc4eb7f31245fec0cdc974242a", "name": "e7c72fdc4eb7f31245fec0cdc974242a"}, {"lon": -77.02415816666667, "is_disabled": 0, "lat": 38.95691566666667, "fusion_lat": 0.0, "is_reserved": 0, "rental_uris": {"ios": "https://dc.lft.to/lastmile_qr_scan", "android": "https://dc.lft.to/lastmile_qr_scan"}, "fusion_lon": 0.0, "type": "electric_scooter", "bike_id": "d98114ef7c10539e7fa6214b9ab519ba", "name": "d98114ef7c10539e7fa6214b9ab519ba"}, {"lon": -77.00955183333333, "is_disabled": 0, "lat": 38.918171666666666, "fusion_lat": 0.0, "is_reserved": 0, "rental_uris": {"ios": "https://dc.lft.to/lastmile_qr_scan", "android": "https://dc.lft.to/lastmile_qr_scan"}, "fusion_lon": 0.0, "type": "electric_scooter", "bike_id": "fb9b79a24c44662c46f5922aa349ec15", "name": "fb9b79a24c44662c46f5922aa349ec15"}, {"lon": -77.0343535, "is_disabled": 0, "lat": 38.9094905, "fusion_lat": 0.0, "is_reserved": 0, "rental_uris": {"ios": "https://dc.lft.to/lastmile_qr_scan", "android": "https://dc.lft.to/lastmile_qr_scan"}, "fusion_lon": 0.0, "type": "electric_scooter", "bike_id": "c38d1dabbf537dc061ef3084abf43d07", "name": "c38d1dabbf537dc061ef3084abf43d07"}, {"lon": -77.0454265, "is_disabled": 0, "lat": 38.90736066666667, "fusion_lat": 0.0, "is_reserved": 0, "rental_uris": {"ios": "https://dc.lft.to/lastmile_qr_scan", "android": "https://dc.lft.to/lastmile_qr_scan"}, "fusion_lon": 0.0, "type": "electric_scooter", "bike_id": "b9a8ab13a6f4926f7180103033ccb11d", "name": "b9a8ab13a6f4926f7180103033ccb11d"}, {"lon": -77.040152, "is_disabled": 0, "lat": 38.89634983333333, "fusion_lat": 0.0, "is_reserved": 0, "rental_uris": {"ios": "https://dc.lft.to/lastmile_qr_scan", "android": "https://dc.lft.to/lastmile_qr_scan"}, "fusion_lon": 0.0, "type": "electric_scooter", "bike_id": "6e0944fae6abb00f2203df9187a8f80a", "name": "6e0944fae6abb00f2203df9187a8f80a"}, {"lon": -77.03872483333333, "is_disabled": 0, "lat": 38.904984, "fusion_lat": 0.0, "is_reserved": 0, "rental_uris": {"ios": "https://dc.lft.to/lastmile_qr_scan", "android": "https://dc.lft.to/lastmile_qr_scan"}, "fusion_lon": 0.0, "type": "electric_scooter", "bike_id": "6056449db3a77bdb005b8615ba605009", "name": "6056449db3a77bdb005b8615ba605009"}, {"lon": -77.06871583333333, "is_disabled": 0, "lat": 38.936383666666664, "fusion_lat": 0.0, "is_reserved": 0, "rental_uris": {"ios": "https://dc.lft.to/lastmile_qr_scan", "android": "https://dc.lft.to/lastmile_qr_scan"}, "fusion_lon": 0.0, "type": "electric_scooter", "bike_id": "e830c2c60a471b5a66c95f1e79cee57c", "name": "e830c2c60a471b5a66c95f1e79cee57c"}, {"lon": -77.02499566666667, "is_disabled": 0, "lat": 38.940936, "fusion_lat": 0.0, "is_reserved": 0, "rental_uris": {"ios": "https://dc.lft.to/lastmile_qr_scan", "android": "https://dc.lft.to/lastmile_qr_scan"}, "fusion_lon": 0.0, "type": "electric_scooter", "bike_id": "bde1c504e370fe34d36f3d382d18f2e9", "name": "bde1c504e370fe34d36f3d382d18f2e9"}, {"lon": -77.029207, "is_disabled": 0, "lat": 38.9000645, "fusion_lat": 0.0, "is_reserved": 0, "rental_uris": {"ios": "https://dc.lft.to/lastmile_qr_scan", "android": "https://dc.lft.to/lastmile_qr_scan"}, "fusion_lon": 0.0, "type": "electric_scooter", "bike_id": "866e9cd349d5bd4555ba7384ecc11218", "name": "866e9cd349d5bd4555ba7384ecc11218"}, {"lon": -77.02231033333334, "is_disabled": 0, "lat": 38.90566333333334, "fusion_lat": 0.0, "is_reserved": 0, "rental_uris": {"ios": "https://dc.lft.to/lastmile_qr_scan", "android": "https://dc.lft.to/lastmile_qr_scan"}, "fusion_lon": 0.0, "type": "electric_scooter", "bike_id": "653b8a63564bdb2b0a66bf68b41395ac", "name": "653b8a63564bdb2b0a66bf68b41395ac"}, {"lon": -77.02093566666667, "is_disabled": 0, "lat": 38.919144, "fusion_lat": 0.0, "is_reserved": 0, "rental_uris": {"ios": "https://dc.lft.to/lastmile_qr_scan", "android": "https://dc.lft.to/lastmile_qr_scan"}, "fusion_lon": 0.0, "type": "electric_scooter", "bike_id": "3ea85a8e3367d4135c135fb7d2ed8d47", "name": "3ea85a8e3367d4135c135fb7d2ed8d47"}, {"lon": -77.09619666666667, "is_disabled": 0, "lat": 38.87884483333333, "fusion_lat": 0.0, "is_reserved": 0, "rental_uris": {"ios": "https://dc.lft.to/lastmile_qr_scan", "android": "https://dc.lft.to/lastmile_qr_scan"}, "fusion_lon": 0.0, "type": "electric_bike", "bike_id": "179177231abe797932505347d757068f", "name": "179177231abe797932505347d757068f"}, {"lon": -77.0348015, "is_disabled": 0, "lat": 38.902386, "fusion_lat": 0.0, "is_reserved": 0, "rental_uris": {"ios": "https://dc.lft.to/lastmile_qr_scan", "android": "https://dc.lft.to/lastmile_qr_scan"}, "fusion_lon": 0.0, "type": "electric_scooter", "bike_id": "6f4e64830983e4441574ca816dae262d", "name": "6f4e64830983e4441574ca816dae262d"}, {"lon": -76.998016, "is_disabled": 0, "lat": 38.9508865, "fusion_lat": 0.0, "is_reserved": 0, "rental_uris": {"ios": "https://dc.lft.to/lastmile_qr_scan", "android": "https://dc.lft.to/lastmile_qr_scan"}, "fusion_lon": 0.0, "type": "electric_bike", "bike_id": "7396124fa3531160d2add89ce0d75929", "name": "7396124fa3531160d2add89ce0d75929"}, {"lon": -77.01971683333333, "is_disabled": 0, "lat": 38.9357425, "fusion_lat": 0.0, "is_reserved": 0, "rental_uris": {"ios": "https://dc.lft.to/lastmile_qr_scan", "android": "https://dc.lft.to/lastmile_qr_scan"}, "fusion_lon": 0.0, "type": "electric_scooter", "bike_id": "f5dfcf483e2e95e68a34dc12f01de4a7", "name": "f5dfcf483e2e95e68a34dc12f01de4a7"}, {"lon": -77.024519, "is_disabled": 0, "lat": 38.899805666666666, "fusion_lat": 0.0, "is_reserved": 0, "rental_uris": {"ios": "https://dc.lft.to/lastmile_qr_scan", "android": "https://dc.lft.to/lastmile_qr_scan"}, "fusion_lon": 0.0, "type": "electric_scooter", "bike_id": "05d5b8e8eaedcffe4f5e10b0b09a8b44", "name": "05d5b8e8eaedcffe4f5e10b0b09a8b44"}, {"lon": -77.02287966666667, "is_disabled": 0, "lat": 38.92699, "fusion_lat": 0.0, "is_reserved": 0, "rental_uris": {"ios": "https://dc.lft.to/lastmile_qr_scan", "android": "https://dc.lft.to/lastmile_qr_scan"}, "fusion_lon": 0.0, "type": "electric_scooter", "bike_id": "9b35475dc90396afd6d92f10f7d4b43e", "name": "9b35475dc90396afd6d92f10f7d4b43e"}, {"lon": -76.95760183333333, "is_disabled": 0, "lat": 38.884320833333334, "fusion_lat": 0.0, "is_reserved": 0, "rental_uris": {"ios": "https://dc.lft.to/lastmile_qr_scan", "android": "https://dc.lft.to/lastmile_qr_scan"}, "fusion_lon": 0.0, "type": "electric_scooter", "bike_id": "f1ae7b655c08a822b2a4be3cd52a76eb", "name": "f1ae7b655c08a822b2a4be3cd52a76eb"}, {"lon": -77.00886383333334, "is_disabled": 0, "lat": 38.92508933333333, "fusion_lat": 0.0, "is_reserved": 0, "rental_uris": {"ios": "https://dc.lft.to/lastmile_qr_scan", "android": "https://dc.lft.to/lastmile_qr_scan"}, "fusion_lon": 0.0, "type": "electric_scooter", "bike_id": "eb20b2953838c1918e8eef10afcb07b0", "name": "eb20b2953838c1918e8eef10afcb07b0"}, {"lon": -77.02242066666666, "is_disabled": 0, "lat": 38.922451333333335, "fusion_lat": 0.0, "is_reserved": 0, "rental_uris": {"ios": "https://dc.lft.to/lastmile_qr_scan", "android": "https://dc.lft.to/lastmile_qr_scan"}, "fusion_lon": 0.0, "type": "electric_scooter", "bike_id": "1bfd5b847cabe3c7ad8ac1a1c5a2d2ec", "name": "1bfd5b847cabe3c7ad8ac1a1c5a2d2ec"}, {"lon": -77.05141233333333, "is_disabled": 0, "lat": 38.89820233333333, "fusion_lat": 0.0, "is_reserved": 0, "rental_uris": {"ios": "https://dc.lft.to/lastmile_qr_scan", "android": "https://dc.lft.to/lastmile_qr_scan"}, "fusion_lon": 0.0, "type": "electric_scooter", "bike_id": "95dfd83e5d11033e3b5f2b41e11ce5ab", "name": "95dfd83e5d11033e3b5f2b41e11ce5ab"}, {"lon": -77.08658016666666, "is_disabled": 0, "lat": 38.86248, "fusion_lat": 0.0, "is_reserved": 0, "rental_uris": {"ios": "https://dc.lft.to/lastmile_qr_scan", "android": "https://dc.lft.to/lastmile_qr_scan"}, "fusion_lon": 0.0, "type": "electric_bike", "bike_id": "6825dd295c0491d48b6b5cd08a179926", "name": "6825dd295c0491d48b6b5cd08a179926"}, {"lon": -77.03061066666666, "is_disabled": 0, "lat": 38.92372266666667, "fusion_lat": 0.0, "is_reserved": 0, "rental_uris": {"ios": "https://dc.lft.to/lastmile_qr_scan", "android": "https://dc.lft.to/lastmile_qr_scan"}, "fusion_lon": 0.0, "type": "electric_scooter", "bike_id": "6bfa4731409d677550c559d6d0978533", "name": "6bfa4731409d677550c559d6d0978533"}, {"lon": -77.0429375, "is_disabled": 0, "lat": 38.92799, "fusion_lat": 0.0, "is_reserved": 0, "rental_uris": {"ios": "https://dc.lft.to/lastmile_qr_scan", "android": "https://dc.lft.to/lastmile_qr_scan"}, "fusion_lon": 0.0, "type": "electric_scooter", "bike_id": "d73358124bdfc31b93d4b6593df435c9", "name": "d73358124bdfc31b93d4b6593df435c9"}, {"lon": -77.026384, "is_disabled": 0, "lat": 38.93656283333333, "fusion_lat": 0.0, "is_reserved": 0, "rental_uris": {"ios": "https://dc.lft.to/lastmile_qr_scan", "android": "https://dc.lft.to/lastmile_qr_scan"}, "fusion_lon": 0.0, "type": "electric_scooter", "bike_id": "c1eb6350fac621d2468cdc1c9b334058", "name": "c1eb6350fac621d2468cdc1c9b334058"}, {"lon": -77.0034645, "is_disabled": 0, "lat": 38.89510333333333, "fusion_lat": 0.0, "is_reserved": 0, "rental_uris": {"ios": "https://dc.lft.to/lastmile_qr_scan", "android": "https://dc.lft.to/lastmile_qr_scan"}, "fusion_lon": 0.0, "type": "electric_scooter", "bike_id": "4e7d7894f26d380282c650986bbd35f1", "name": "4e7d7894f26d380282c650986bbd35f1"}, {"lon": -77.04874966666667, "is_disabled": 0, "lat": 38.90532533333333, "fusion_lat": 0.0, "is_reserved": 0, "rental_uris": {"ios": "https://dc.lft.to/lastmile_qr_scan", "android": "https://dc.lft.to/lastmile_qr_scan"}, "fusion_lon": 0.0, "type": "electric_scooter", "bike_id": "6881b04a15aaee5853225d44c7abe1b5", "name": "6881b04a15aaee5853225d44c7abe1b5"}, {"lon": -77.01089966666666, "is_disabled": 0, "lat": 38.917426666666664, "fusion_lat": 0.0, "is_reserved": 0, "rental_uris": {"ios": "https://dc.lft.to/lastmile_qr_scan", "android": "https://dc.lft.to/lastmile_qr_scan"}, "fusion_lon": 0.0, "type": "electric_scooter", "bike_id": "8ae8db94d0df746b78a4b405635e993f", "name": "8ae8db94d0df746b78a4b405635e993f"}, {"lon": -77.02482716666667, "is_disabled": 0, "lat": 38.918841, "fusion_lat": 0.0, "is_reserved": 0, "rental_uris": {"ios": "https://dc.lft.to/lastmile_qr_scan", "android": "https://dc.lft.to/lastmile_qr_scan"}, "fusion_lon": 0.0, "type": "electric_scooter", "bike_id": "74dd119799aa33289696a387b09e674f", "name": "74dd119799aa33289696a387b09e674f"}, {"lon": -77.0238685, "is_disabled": 0, "lat": 38.91294633333333, "fusion_lat": 0.0, "is_reserved": 0, "rental_uris": {"ios": "https://dc.lft.to/lastmile_qr_scan", "android": "https://dc.lft.to/lastmile_qr_scan"}, "fusion_lon": 0.0, "type": "electric_scooter", "bike_id": "5621aa32611af1ad65e14b26fd274efb", "name": "5621aa32611af1ad65e14b26fd274efb"}, {"lon": -77.036412, "is_disabled": 0, "lat": 38.91738333333333, "fusion_lat": 0.0, "is_reserved": 0, "rental_uris": {"ios": "https://dc.lft.to/lastmile_qr_scan", "android": "https://dc.lft.to/lastmile_qr_scan"}, "fusion_lon": 0.0, "type": "electric_scooter", "bike_id": "5bb1769e3d507664da62e05ee083cd59", "name": "5bb1769e3d507664da62e05ee083cd59"}, {"lon": -77.01539633333333, "is_disabled": 0, "lat": 38.887437, "fusion_lat": 0.0, "is_reserved": 0, "rental_uris": {"ios": "https://dc.lft.to/lastmile_qr_scan", "android": "https://dc.lft.to/lastmile_qr_scan"}, "fusion_lon": 0.0, "type": "electric_scooter", "bike_id": "c3972e2d899160fb9bc9c7d7fed464d5", "name": "c3972e2d899160fb9bc9c7d7fed464d5"}, {"lon": -77.037001, "is_disabled": 0, "lat": 38.9038195, "fusion_lat": 0.0, "is_reserved": 0, "rental_uris": {"ios": "https://dc.lft.to/lastmile_qr_scan", "android": "https://dc.lft.to/lastmile_qr_scan"}, "fusion_lon": 0.0, "type": "electric_scooter", "bike_id": "3d0816b5b80da957acffcc72316ac320", "name": "3d0816b5b80da957acffcc72316ac320"}, {"lon": -77.03700383333333, "is_disabled": 0, "lat": 38.90375566666667, "fusion_lat": 0.0, "is_reserved": 0, "rental_uris": {"ios": "https://dc.lft.to/lastmile_qr_scan", "android": "https://dc.lft.to/lastmile_qr_scan"}, "fusion_lon": 0.0, "type": "electric_scooter", "bike_id": "653f49662472c2b1711b159047028d8c", "name": "653f49662472c2b1711b159047028d8c"}, {"lon": -76.97397716666667, "is_disabled": 0, "lat": 38.84526666666667, "fusion_lat": 0.0, "is_reserved": 0, "rental_uris": {"ios": "https://dc.lft.to/lastmile_qr_scan", "android": "https://dc.lft.to/lastmile_qr_scan"}, "fusion_lon": 0.0, "type": "electric_bike", "bike_id": "1f438a6f3421ef7a7db19d7823742274", "name": "1f438a6f3421ef7a7db19d7823742274"}, {"lon": -76.998702, "is_disabled": 0, "lat": 38.91014066666666, "fusion_lat": 0.0, "is_reserved": 0, "rental_uris": {"ios": "https://dc.lft.to/lastmile_qr_scan", "android": "https://dc.lft.to/lastmile_qr_scan"}, "fusion_lon": 0.0, "type": "electric_scooter", "bike_id": "abf636cad98cbdf911f60281848b1ca7", "name": "abf636cad98cbdf911f60281848b1ca7"}, {"lon": -77.03187066666666, "is_disabled": 0, "lat": 38.90882083333333, "fusion_lat": 0.0, "is_reserved": 0, "rental_uris": {"ios": "https://dc.lft.to/lastmile_qr_scan", "android": "https://dc.lft.to/lastmile_qr_scan"}, "fusion_lon": 0.0, "type": "electric_scooter", "bike_id": "ec5da354226fedd71811a591e07c5a16", "name": "ec5da354226fedd71811a591e07c5a16"}, {"lon": -77.004627, "is_disabled": 0, "lat": 38.876622833333336, "fusion_lat": 0.0, "is_reserved": 0, "rental_uris": {"ios": "https://dc.lft.to/lastmile_qr_scan", "android": "https://dc.lft.to/lastmile_qr_scan"}, "fusion_lon": 0.0, "type": "electric_scooter", "bike_id": "296f7db2e9bc7faf111f0e25e6704161", "name": "296f7db2e9bc7faf111f0e25e6704161"}, {"lon": -77.04040683333334, "is_disabled": 0, "lat": 38.917639666666666, "fusion_lat": 0.0, "is_reserved": 0, "rental_uris": {"ios": "https://dc.lft.to/lastmile_qr_scan", "android": "https://dc.lft.to/lastmile_qr_scan"}, "fusion_lon": 0.0, "type": "electric_scooter", "bike_id": "aaf809da77342997b96e307a9e021675", "name": "aaf809da77342997b96e307a9e021675"}, {"lon": -77.0315205, "is_disabled": 0, "lat": 38.915614, "fusion_lat": 0.0, "is_reserved": 0, "rental_uris": {"ios": "https://dc.lft.to/lastmile_qr_scan", "android": "https://dc.lft.to/lastmile_qr_scan"}, "fusion_lon": 0.0, "type": "electric_scooter", "bike_id": "e3b8c8a821369f9a27241c345ab7abc4", "name": "e3b8c8a821369f9a27241c345ab7abc4"}, {"lon": -77.046798, "is_disabled": 0, "lat": 38.89461466666667, "fusion_lat": 0.0, "is_reserved": 0, "rental_uris": {"ios": "https://dc.lft.to/lastmile_qr_scan", "android": "https://dc.lft.to/lastmile_qr_scan"}, "fusion_lon": 0.0, "type": "electric_scooter", "bike_id": "da78dba733158d0ba124f0fbfcea1dc9", "name": "da78dba733158d0ba124f0fbfcea1dc9"}, {"lon": -77.03232466666667, "is_disabled": 0, "lat": 38.9170895, "fusion_lat": 0.0, "is_reserved": 0, "rental_uris": {"ios": "https://dc.lft.to/lastmile_qr_scan", "android": "https://dc.lft.to/lastmile_qr_scan"}, "fusion_lon": 0.0, "type": "electric_scooter", "bike_id": "161d18cabb40c87d76d9f69a71d9a097", "name": "161d18cabb40c87d76d9f69a71d9a097"}, {"lon": -77.08555733333333, "is_disabled": 0, "lat": 38.937467, "fusion_lat": 0.0, "is_reserved": 0, "rental_uris": {"ios": "https://dc.lft.to/lastmile_qr_scan", "android": "https://dc.lft.to/lastmile_qr_scan"}, "fusion_lon": 0.0, "type": "electric_scooter", "bike_id": "81fcd93ed0c1b5c27960068a08733d2d", "name": "81fcd93ed0c1b5c27960068a08733d2d"}, {"lon": -77.040787, "is_disabled": 0, "lat": 38.9050335, "fusion_lat": 0.0, "is_reserved": 0, "rental_uris": {"ios": "https://dc.lft.to/lastmile_qr_scan", "android": "https://dc.lft.to/lastmile_qr_scan"}, "fusion_lon": 0.0, "type": "electric_scooter", "bike_id": "7dfad3af96089a9de2e60dceb2c572e6", "name": "7dfad3af96089a9de2e60dceb2c572e6"}, {"lon": -77.035218, "is_disabled": 0, "lat": 38.922401, "fusion_lat": 0.0, "is_reserved": 0, "rental_uris": {"ios": "https://dc.lft.to/lastmile_qr_scan", "android": "https://dc.lft.to/lastmile_qr_scan"}, "fusion_lon": 0.0, "type": "electric_scooter", "bike_id": "a40dd9bc95f28703efd3d232c63c720e", "name": "a40dd9bc95f28703efd3d232c63c720e"}, {"lon": -77.01873683333334, "is_disabled": 0, "lat": 38.874557, "fusion_lat": 0.0, "is_reserved": 0, "rental_uris": {"ios": "https://dc.lft.to/lastmile_qr_scan", "android": "https://dc.lft.to/lastmile_qr_scan"}, "fusion_lon": 0.0, "type": "electric_scooter", "bike_id": "9fa5fea67e78907d2cef58722b1f64fe", "name": "9fa5fea67e78907d2cef58722b1f64fe"},