{"data": {"bikes": [{"fusion_lat": 0.0, "name": "e35ebca671881af05fe3ae9eab2d7bdc", "is_disabled": 0, "rental_uris": {"android": "https://dc.lft.to/lastmile_qr_scan", "ios": "https://dc.lft.to/lastmile_qr_scan"}, "fusion_lon": 0.0, "lat": 38.9019095, "bike_id": "e35ebca671881af05fe3ae9eab2d7bdc", "type": "electric_scooter", "is_reserved": 0, "lon": -77.036626}, {"fusion_lat": 0.0, "name": "68d8e2c246cd62990413e8404f969ad3", "is_disabled": 0, "rental_uris": {"android": "https://dc.lft.to/lastmile_qr_scan", "ios": "https://dc.lft.to/lastmile_qr_scan"}, "fusion_lon": 0.0, "lat": 38.9074535, "bike_id": "68d8e2c246cd62990413e8404f969ad3", "type": "electric_scooter", "is_reserved": 0, "lon": -77.045507}, {"fusion_lat": 0.0, "name": "39e03d75b1e99ba0c9f2502eff214e6e", "is_disabled": 0, "rental_uris": {"android": "https://dc.lft.to/lastmile_qr_scan", "ios": "https://dc.lft.to/lastmile_qr_scan"}, "fusion_lon": 0.0, "lat": 38.907634, "bike_id": "39e03d75b1e99ba0c9f2502eff214e6e", "type": "electric_scooter", "is_reserved": 0, "lon": -77.05015466666667}, {"fusion_lat": 0.0, "name": "ac06b48d3168c71da90618ae5bf1c7cd", "is_disabled": 0, "rental_uris": {"android": "https://dc.lft.to/lastmile_qr_scan", "ios": "https://dc.lft.to/lastmile_qr_scan"}, "fusion_lon": 0.0, "lat": 38.93512116666667, "bike_id": "ac06b48d3168c71da90618ae5bf1c7cd", "type": "electric_scooter", "is_reserved": 0, "lon": -77.07272616666667}, {"fusion_lat": 0.0, "name": "69b84c751089aa38de7b005e282cedbd", "is_disabled": 0, "rental_uris": {"android": "https://dc.lft.to/lastmile_qr_scan", "ios": "https://dc.lft.to/lastmile_qr_scan"}, "fusion_lon": 0.0, "lat": 38.847551833333334, "bike_id": "69b84c751089aa38de7b005e282cedbd", "type": "electric_scooter", "is_reserved": 0, "lon": -76.9949995}, {"fusion_lat": 0.0, "name": "519f8ecd459370df4526bc20fac66522", "is_disabled": 0, "rental_uris": {"android": "https://dc.lft.to/lastmile_qr_scan", "ios": "https://dc.lft.to/lastmile_qr_scan"}, "fusion_lon": 0.0, "lat": 39.05253716666667, "bike_id": "519f8ecd459370df4526bc20fac66522", "type": "electric_bike", "is_reserved": 0, "lon": -77.08067083333333}, {"fusion_lat": 0.0, "name": "3620fd550ba64472e43ee4548a3c869f", "is_disabled": 0, "rental_uris": {"android": "https://dc.lft.to/lastmile_qr_scan", "ios": "https://dc.lft.to/lastmile_qr_scan"}, "fusion_lon": 0.0, "lat": 38.8944385, "bike_id": "3620fd550ba64472e43ee4548a3c869f", "type": "electric_scooter", "is_reserved": 0, "lon": -76.93674833333333}, {"fusion_lat": 0.0, "name": "5221b2ce2339e516377b1bf0906706f3", "is_disabled": 0, "rental_uris": {"android": "https://dc.lft.to/lastmile_qr_scan", "ios": "https://dc.lft.to/lastmile_qr_scan"}, "fusion_lon": 0.0, "lat": 38.935564, "bike_id": "5221b2ce2339e516377b1bf0906706f3", "type": "electric_bike", "is_reserved": 0, "lon": -77.03701383333333}, {"fusion_lat": 0.0, "name": "07f32c4b32a1173362c8b3a4f77fb0dd", "is_disabled": 0, "rental_uris": {"android": "https://dc.lft.to/lastmile_qr_scan", "ios": "https://dc.lft.to/lastmile_qr_scan"}, "fusion_lon": 0.0, "lat": 38.91409066666667, "bike_id": "07f32c4b32a1173362c8b3a4f77fb0dd", "type": "electric_scooter", "is_reserved": 0, "lon": -77.02829666666666}, {"fusion_lat": 0.0, "name": "798754ff5836379fc4db807950fd7f0f", "is_disabled": 0, "rental_uris": {"android": "https://dc.lft.to/lastmile_qr_scan", "ios": "https://dc.lft.to/lastmile_qr_scan"}, "fusion_lon": 0.0, "lat": 38.8719115, "bike_id": "798754ff5836379fc4db807950fd7f0f", "type": "electric_scooter", "is_reserved": 0, "lon": -77.00626116666666}, {"fusion_lat": 0.0, "name": "8fbe09272af79b0868ae9f9f2022c329", "is_disabled": 0, "rental_uris": {"android": "https://dc.lft.to/lastmile_qr_scan", "ios": "https://dc.lft.to/lastmile_qr_scan"}, "fusion_lon": 0.0, "lat": 38.89874866666667, "bike_id": "8fbe09272af79b0868ae9f9f2022c329", "type": "electric_scooter", "is_reserved": 0, "lon": -76.9318725}, {"fusion_lat": 0.0, "name": "0e4932d892f0f9ecfd9a75e6f103c872", "is_disabled": 0, "rental_uris": {"android": "https://dc.lft.to/lastmile_qr_scan", "ios": "https://dc.lft.to/lastmile_qr_scan"}, "fusion_lon": 0.0, "lat": 38.896648, "bike_id": "0e4932d892f0f9ecfd9a75e6f103c872", "type": "electric_scooter", "is_reserved": 0, "lon": -76.98838833333333}, {"fusion_lat": 0.0, "name": "b9a1b42039a47d5639ed21d3d9669851", "is_disabled": 0, "rental_uris": {"android": "https://dc.lft.to/lastmile_qr_scan", "ios": "https://dc.lft.to/lastmile_qr_scan"}, "fusion_lon": 0.0, "lat": 38.90528483333333, "bike_id": "b9a1b42039a47d5639ed21d3d9669851", "type": "electric_scooter", "is_reserved": 0, "lon": -77.05939483333333}, {"fusion_lat": 0.0, "name": "f2553d10efe0d048e82adcfa0ee5c74d", "is_disabled": 0, "rental_uris": {"android": "https://dc.lft.to/lastmile_qr_scan", "ios": "https://dc.lft.to/lastmile_qr_scan"}, "fusion_lon": 0.0, "lat": 38.892377, "bike_id": "f2553d10efe0d048e82adcfa0ee5c74d", "type": "electric_scooter", "is_reserved": 0, "lon": -77.00280983333333}, {"fusion_lat": 0.0, "name": "e7a3db2889a1126ce1fc578b5260d163", "is_disabled": 0, "rental_uris": {"android": "https://dc.lft.to/lastmile_qr_scan", "ios": "https://dc.lft.to/lastmile_qr_scan"}, "fusion_lon": 0.0, "lat": 38.922956166666665, "bike_id": "e7a3db2889a1126ce1fc578b5260d163", "type": "electric_scooter", "is_reserved": 0, "lon": -77.0182385}, {"fusion_lat": 0.0, "name": "f7315c5ca9325afddea78aa3ef15ed4b", "is_disabled": 0, "rental_uris": {"android": "https://dc.lft.to/lastmile_qr_scan", "ios": "https://dc.lft.to/lastmile_qr_scan"}, "fusion_lon": 0.0, "lat": 38.910230166666665, "bike_id": "f7315c5ca9325afddea78aa3ef15ed4b", "type": "electric_scooter", "is_reserved": 0, "lon": -77.0291505}, {"fusion_lat": 0.0, "name": "e8e8f5fd5aaebdb04002690709fc816a", "is_disabled": 0, "rental_uris": {"android": "https://dc.lft.to/lastmile_qr_scan", "ios": "https://dc.lft.to/lastmile_qr_scan"}, "fusion_lon": 0.0, "lat": 38.9117375, "bike_id": "e8e8f5fd5aaebdb04002690709fc816a", "type": "electric_scooter", "is_reserved": 0, "lon": -77.02956716666667}, {"fusion_lat": 0.0, "name": "bf37ee7bd272eef42327b7e5cf604431", "is_disabled": 0, "rental_uris": {"android": "https://dc.lft.to/lastmile_qr_scan", "ios": "https://dc.lft.to/lastmile_qr_scan"}, "fusion_lon": 0.0, "lat": 38.89758766666667, "bike_id": "bf37ee7bd272eef42327b7e5cf604431", "type": "electric_scooter", "is_reserved": 0, "lon": -77.02427316666666}, {"fusion_lat": 0.0, "name": "d702be4c68f53507af12cf1c4784cdb9", "is_disabled": 0, "rental_uris": {"android": "https://dc.lft.to/lastmile_qr_scan", "ios": "https://dc.lft.to/lastmile_qr_scan"}, "fusion_lon": 0.0, "lat": 38.934625833333335, "bike_id": "d702be4c68f53507af12cf1c4784cdb9", "type": "electric_scooter", "is_reserved": 0, "lon": -77.04115733333333}, {"fusion_lat": 0.0, "name": "48f5d604df613db80f8d9d5b7e0c37fe", "is_disabled": 0, "rental_uris": {"android": "https://dc.lft.to/lastmile_qr_scan", "ios": "https://dc.lft.to/lastmile_qr_scan"}, "fusion_lon": 0.0, "lat": 38.907791833333334, "bike_id": "48f5d604df613db80f8d9d5b7e0c37fe", "type": "electric_scooter", "is_reserved": 0, "lon": -77.04264133333334}, {"fusion_lat": 0.0, "name": "02fc4d008f4a24dc628b7c0a835ecfc3", "is_disabled": 0, "rental_uris": {"android": "https://dc.lft.to/lastmile_qr_scan", "ios": "https://dc.lft.to/lastmile_qr_scan"}, "fusion_lon": 0.0, "lat": 38.921219, "bike_id": "02fc4d008f4a24dc628b7c0a835ecfc3", "type": "electric_scooter", "is_reserved": 0, "lon": -77.01206966666666}, {"fusion_lat": 0.0, "name": "810d68efd36906c8454eeb8685ae0ee2", "is_disabled": 0, "rental_uris": {"android": "https://dc.lft.to/lastmile_qr_scan", "ios": "https://dc.lft.to/lastmile_qr_scan"}, "fusion_lon": 0.0, "lat": 38.924638333333334, "bike_id": "810d68efd36906c8454eeb8685ae0ee2", "type": "electric_scooter", "is_reserved": 0, "lon": -77.02078183333333}, {"fusion_lat": 0.0, "name": "25ad3bfe3cfdd0d200cf2e0be7d3dd5c", "is_disabled": 0, "rental_uris": {"android": "https://dc.lft.to/lastmile_qr_scan", "ios": "https://dc.lft.to/lastmile_qr_scan"}, "fusion_lon": 0.0, "lat": 38.91172733333333, "bike_id": "25ad3bfe3cfdd0d200cf2e0be7d3dd5c", "type": "electric_scooter", "is_reserved": 0, "lon": -77.0283325}, {"fusion_lat": 0.0, "name": "6e475027a05292d438c889c45c89f3bb", "is_disabled": 0, "rental_uris": {"android": "https://dc.lft.to/lastmile_qr_scan", "ios": "https://dc.lft.to/lastmile_qr_scan"}, "fusion_lon": 0.0, "lat": 38.909133, "bike_id": "6e475027a05292d438c889c45c89f3bb", "type": "electric_scooter", "is_reserved": 0, "lon": -76.99931833333333}, {"fusion_lat": 0.0, "name": "a8b2dfa44e9d00c95bf57bfdd0f91716", "is_disabled": 0, "rental_uris": {"android": "https://dc.lft.to/lastmile_qr_scan", "ios": "https://dc.lft.to/lastmile_qr_scan"}, "fusion_lon": 0.0, "lat": 38.9073045, "bike_id": "a8b2dfa44e9d00c95bf57bfdd0f91716", "type": "electric_scooter", "is_reserved": 0, "lon": -77.04759516666667}, {"fusion_lat": 0.0, "name": "cc8b7298c5bc038a3abbeff9a8e974ed", "is_disabled": 0, "rental_uris": {"android": "https://dc.lft.to/lastmile_qr_scan", "ios": "https://dc.lft.to/lastmile_qr_scan"}, "fusion_lon": 0.0, "lat": 38.920724, "bike_id": "cc8b7298c5bc038a3abbeff9a8e974ed", "type": "electric_scooter", "is_reserved": 0, "lon": -77.023059}, {"fusion_lat": 0.0, "name": "8e66669e8bffda23ecb253b92a019b6f", "is_disabled": 0, "rental_uris": {"android": "https://dc.lft.to/lastmile_qr_scan", "ios": "https://dc.lft.to/lastmile_qr_scan"}, "fusion_lon": 0.0, "lat": 38.90099516666667, "bike_id": "8e66669e8bffda23ecb253b92a019b6f", "type": "electric_scooter", "is_reserved": 0, "lon": -76.9304875}, {"fusion_lat": 0.0, "name": "df6580aa369d421bb922f8bab81554ab", "is_disabled": 0, "rental_uris": {"android": "https://dc.lft.to/lastmile_qr_scan", "ios": "https://dc.lft.to/lastmile_qr_scan"}, "fusion_lon": 0.0, "lat": 38.937017166666664, "bike_id": "df6580aa369d421bb922f8bab81554ab", "type": "electric_scooter", "is_reserved": 0, "lon": -77.06102633333333}, {"fusion_lat": 0.0, "name": "c51c8bbb9af3f8eff69ba682dff1628c", "is_disabled": 0, "rental_uris": {"android": "https://dc.lft.to/lastmile_qr_scan", "ios": "https://dc.lft.to/lastmile_qr_scan"}, "fusion_lon": 0.0, "lat": 38.848319833333335, "bike_id": "c51c8bbb9af3f8eff69ba682dff1628c", "type": "electric_bike", "is_reserved": 0, "lon": -77.07923783333334}, {"fusion_lat": 0.0, "name": "d650db64ca5a1c4f89df1b2e73598ff9", "is_disabled": 0, "rental_uris": {"android": "https://dc.lft.to/lastmile_qr_scan", "ios": "https://dc.lft.to/lastmile_qr_scan"}, "fusion_lon": 0.0, "lat": 38.9076735, "bike_id": "d650db64ca5a1c4f89df1b2e73598ff9", "type": "electric_scooter", "is_reserved": 0, "lon": -77.03461783333333}, {"fusion_lat": 0.0, "name": "7ff9b95969976ee555fb54c98e75cbc2", "is_disabled": 0, "rental_uris": {"android": "https://dc.lft.to/lastmile_qr_scan", "ios": "https://dc.lft.to/lastmile_qr_scan"}, "fusion_lon": 0.0, "lat": 38.91973766666667, "bike_id": "7ff9b95969976ee555fb54c98e75cbc2", "type": "electric_scooter", "is_reserved": 0, "lon": -77.07094083333334}, {"fusion_lat": 0.0, "name": "e9f36350e00f78099970e006b6d1160e", "is_disabled": 0, "rental_uris": {"android": "https://dc.lft.to/lastmile_qr_scan", "ios": "https://dc.lft.to/lastmile_qr_scan"}, "fusion_lon": 0.0, "lat": 38.904214833333334, "bike_id": "e9f36350e00f78099970e006b6d1160e", "type": "electric_scooter", "is_reserved": 0, "lon": -77.051338}, {"fusion_lat": 0.0, "name": "f369687b5789d8dafb7e67f651847161", "is_disabled": 0, "rental_uris": {"android": "https://dc.lft.to/lastmile_qr_scan", "ios": "https://dc.lft.to/lastmile_qr_scan"}, "fusion_lon": 0.0, "lat": 38.8996535, "bike_id": "f369687b5789d8dafb7e67f651847161", "type": "electric_scooter", "is_reserved": 0, "lon": -77.03350033333334}, {"fusion_lat": 0.0, "name": "b25ef925734491f7357916b8ebf6d5a9", "is_disabled": 0, "rental_uris": {"android": "https://dc.lft.to/lastmile_qr_scan", "ios": "https://dc.lft.to/lastmile_qr_scan"}, "fusion_lon": 0.0, "lat": 38.915162, "bike_id": "b25ef925734491f7357916b8ebf6d5a9", "type": "electric_scooter", "is_reserved": 0, "lon": -77.04163683333333}, {"fusion_lat": 0.0, "name": "bdc554a1d965d9617c699fe3f474e8cf", "is_disabled": 0, "rental_uris": {"android": "https://dc.lft.to/lastmile_qr_scan", "ios": "https://dc.lft.to/lastmile_qr_scan"}, "fusion_lon": 0.0, "lat": 38.925313333333335, "bike_id": "bdc554a1d965d9617c699fe3f474e8cf", "type": "electric_scooter", "is_reserved": 0, "lon": -77.00757733333333}, {"fusion_lat": 0.0, "name": "8233fb20f6d93da6f88387847ea5f89a", "is_disabled": 0, "rental_uris": {"android": "https://dc.lft.to/lastmile_qr_scan", "ios": "https://dc.lft.to/lastmile_qr_scan"}, "fusion_lon": 0.0, "lat": 38.807041166666664, "bike_id": "8233fb20f6d93da6f88387847ea5f89a", "type": "electric_bike", "is_reserved": 0, "lon": -77.06179716666666}, {"fusion_lat": 0.0, "name": "c3dfbc1d7bcbfaaff3c8606b38d2edc3", "is_disabled": 0, "rental_uris": {"android": "https://dc.lft.to/lastmile_qr_scan", "ios": "https://dc.lft.to/lastmile_qr_scan"}, "fusion_lon": 0.0, "lat": 38.890984833333334, "bike_id": "c3dfbc1d7bcbfaaff3c8606b38d2edc3", "type": "electric_scooter", "is_reserved": 0, "lon": -76.99624666666666}, {"fusion_lat": 0.0, "name": "6031cb1d6bdfd4fca2df779d906c9ac8", "is_disabled": 0, "rental_uris": {"android": "https://dc.lft.to/lastmile_qr_scan", "ios": "https://dc.lft.to/lastmile_qr_scan"}, "fusion_lon": 0.0, "lat": 38.90731266666667, "bike_id": "6031cb1d6bdfd4fca2df779d906c9ac8", "type": "electric_scooter", "is_reserved": 0, "lon": -76.935456}, {"fusion_lat": 0.0, "name": "dee0f9e3dd20a0af61e981de5bc42adc", "is_disabled": 0, "rental_uris": {"android": "https://dc.lft.to/lastmile_qr_scan", "ios": "https://dc.lft.to/lastmile_qr_scan"}, "fusion_lon": 0.0, "lat": 38.926776833333335, "bike_id": "dee0f9e3dd20a0af61e981de5bc42adc", "type": "electric_scooter", "is_reserved": 0, "lon": -77.03076933333334}, {"fusion_lat": 0.0, "name": "5cfdc999fe1558c2d71d6abf450026e8", "is_disabled": 0, "rental_uris": {"android": "https://dc.lft.to/lastmile_qr_scan", "ios": "https://dc.lft.to/lastmile_qr_scan"}, "fusion_lon": 0.0, "lat": 38.81913333333333, "bike_id": "5cfdc999fe1558c2d71d6abf450026e8", "type": "electric_bike", "is_reserved": 0, "lon": -77.04800883333333}, {"fusion_lat": 0.0, "name": "555ceb994c0600ad2e1920b6915c7a1b", "is_disabled": 0, "rental_uris": {"android": "https://dc.lft.to/lastmile_qr_scan", "ios": "https://dc.lft.to/lastmile_qr_scan"}, "fusion_lon": 0.0, "lat": 38.903986833333335, "bike_id": "555ceb994c0600ad2e1920b6915c7a1b", "type": "electric_scooter", "is_reserved": 0, "lon": -77.06812933333333}, {"fusion_lat": 0.0, "name": "cf5e0d961123d32fa6623ef867ee4d74", "is_disabled": 0, "rental_uris": {"android": "https://dc.lft.to/lastmile_qr_scan", "ios": "https://dc.lft.to/lastmile_qr_scan"}, "fusion_lon": 0.0, "lat": 38.882991, "bike_id": "cf5e0d961123d32fa6623ef867ee4d74", "type": "electric_scooter", "is_reserved": 0, "lon": -76.94856283333333}, {"fusion_lat": 0.0, "name": "fa05afb76957974fdeb7d7618ce7ff54", "is_disabled": 0, "rental_uris": {"android": "https://dc.lft.to/lastmile_qr_scan", "ios": "https://dc.lft.to/lastmile_qr_scan"}, "fusion_lon": 0.0, "lat": 38.94158566666667, "bike_id": "fa05afb76957974fdeb7d7618ce7ff54", "type": "electric_bike", "is_reserved": 0, "lon": -76.966522}, {"fusion_lat": 0.0, "name": "327a378b10a9381a3f095b6df6f7c6e0", "is_disabled": 0, "rental_uris": {"android": "https://dc.lft.to/lastmile_qr_scan", "ios": "https://dc.lft.to/lastmile_qr_scan"}, "fusion_lon": 0.0, "lat": 38.87842416666667, "bike_id": "327a378b10a9381a3f095b6df6f7c6e0", "type": "electric_scooter", "is_reserved": 0, "lon": -77.0196745}, {"fusion_lat": 0.0, "name": "51c0c686e726714214b558a7c454cd13", "is_disabled": 0, "rental_uris": {"android": "https://dc.lft.to/lastmile_qr_scan", "ios": "https://dc.lft.to/lastmile_qr_scan"}, "fusion_lon": 0.0, "lat": 38.916536, "bike_id": "51c0c686e726714214b558a7c454cd13", "type": "electric_scooter", "is_reserved": 0, "lon": -76.982754}, {"fusion_lat": 0.0, "name": "7bfb7834f5060756e303788870bf7380", "is_disabled": 0, "rental_uris": {"android": "https://dc.lft.to/lastmile_qr_scan", "ios": "https://dc.lft.to/lastmile_qr_scan"}, "fusion_lon": 0.0, "lat": 38.894594833333336, "bike_id": "7bfb7834f5060756e303788870bf7380", "type": "electric_scooter", "is_reserved": 0, "lon": -77.0418085}, {"fusion_lat": 0.0, "name": "6b4cd3299b0d3eef2419c08291dc2d9e", "is_disabled": 0, "rental_uris": {"android": "https://dc.lft.to/lastmile_qr_scan", "ios": "https://dc.lft.to/lastmile_qr_scan"}, "fusion_lon": 0.0, "lat": 38.941501, "bike_id": "6b4cd3299b0d3eef2419c08291dc2d9e", "type": "electric_bike", "is_reserved": 0, "lon": -77.0019235}, {"fusion_lat": 0.0, "name": "f97cf575fd2921e92b502527a291ad90", "is_disabled": 0, "rental_uris": {"android": "https://dc.lft.to/lastmile_qr_scan", "ios": "https://dc.lft.to/lastmile_qr_scan"}, "fusion_lon": 0.0, "lat": 38.873677666666666, "bike_id": "f97cf575fd2921e92b502527a291ad90", "type": "electric_scooter", "is_reserved": 0, "lon": -77.00059833333333}, {"fusion_lat": 0.0, "name": "7a19d4a300e44341526f34bac48710af", "is_disabled": 0, "rental_uris": {"android": "https://dc.lft.to/lastmile_qr_scan", "ios": "https://dc.lft.to/lastmile_qr_scan"}, "fusion_lon": 0.0, "lat": 38.9126045, "bike_id": "7a19d4a300e44341526f34bac48710af", "type": "electric_scooter", "is_reserved": 0, "lon": -77.031772}, {"fusion_lat": 0.0, "name": "51343dcaae7556a03221ffb974aa17b5", "is_disabled": 0, "rental_uris": {"android": "https://dc.lft.to/lastmile_qr_scan", "ios": "https://dc.lft.to/lastmile_qr_scan"}, "fusion_lon": 0.0, "lat": 38.987806666666664, "bike_id": "51343dcaae7556a03221ffb974aa17b5", "type": "electric_bike", "is_reserved": 0, "lon": -77.14102166666666}, {"fusion_lat": 0.0, "name": "ccd1771778e6622d15fbc7313ad87710", "is_disabled": 0, "rental_uris": {"android": "https://dc.lft.to/lastmile_qr_scan", "ios": "https://dc.lft.to/lastmile_qr_scan"}, "fusion_lon": 0.0, "lat": 38.94920416666667, "bike_id": "ccd1771778e6622d15fbc7313ad87710", "type": "electric_scooter", "is_reserved": 0, "lon": -77.01854683333333}, {"fusion_lat": 0.0, "name": "9026bc3a1dbd8b5045ef1631aaae270e", "is_disabled": 0, "rental_uris": {"android": "https://dc.lft.to/lastmile_qr_scan", "ios": "https://dc.lft.to/lastmile_qr_scan"}, "fusion_lon": 0.0, "lat": 38.881196333333335, "bike_id": "9026bc3a1dbd8b5045ef1631aaae270e", "type": "electric_scooter", "is_reserved": 0, "lon": -76.99515983333333}, {"fusion_lat": 0.0, "name": "a0345dd1df12c249b518e3b75c7730aa", "is_disabled": 0, "rental_uris": {"android": "https://dc.lft.to/lastmile_qr_scan", "ios": "https://dc.lft.to/lastmile_qr_scan"}, "fusion_lon": 0.0, "lat": 38.89362883333333, "bike_id": "a0345dd1df12c249b518e3b75c7730aa", "type": "electric_scooter", "is_reserved": 0, "lon": -77.00078966666666}, {"fusion_lat": 0.0, "name": "b44d84ccffb43f7eb49eaa3e58357b14", "is_disabled": 0, "rental_uris": {"android": "https://dc.lft.to/lastmile_qr_scan", "ios": "https://dc.lft.to/lastmile_qr_scan"}, "fusion_lon": 0.0, "lat": 38.91918016666666, "bike_id": "b44d84ccffb43f7eb49eaa3e58357b14", "type": "electric_scooter", "is_reserved": 0, "lon": -77.03181716666667}, {"fusion_lat": 0.0, "name": "dc90884395bee662989b2104b2b6c485", "is_disabled": 0, "rental_uris": {"android": "https://dc.lft.to/lastmile_qr_scan", "ios": "https://dc.lft.to/lastmile_qr_scan"}, "fusion_lon": 0.0, "lat": 38.91618483333333, "bike_id": "dc90884395bee662989b2104b2b6c485", "type": "electric_scooter", "is_reserved": 0, "lon": -77.03856916666666}, {"fusion_lat": 0.0, "name": "51d502bd3fda6888c82a3f6136bfe0de", "is_disabled": 0, "rental_uris": {"android": "https://dc.lft.to/lastmile_qr_scan", "ios": "https://dc.lft.to/lastmile_qr_scan"}, "fusion_lon": 0.0, "lat": 38.930422166666666, "bike_id": "51d502bd3fda6888c82a3f6136bfe0de", "type": "electric_scooter", "is_reserved": 0, "lon": -77.033664}, {"fusion_lat": 0.0, "name": "961201ac9a2587959cd383668ef402b5", "is_disabled": 0, "rental_uris": {"android": "https://dc.lft.to/lastmile_qr_scan", "ios": "https://dc.lft.to/lastmile_qr_scan"}, "fusion_lon": 0.0, "lat": 38.91651433333333, "bike_id": "961201ac9a2587959cd383668ef402b5", "type": "electric_scooter", "is_reserved": 0, "lon": -77.02809916666666}, {"fusion_lat": 0.0, "name": "2f3c9a250efb29155d855f6179b41a7d", "is_disabled": 0, "rental_uris": {"android": "https://dc.lft.to/lastmile_qr_scan", "ios": "https://dc.lft.to/lastmile_qr_scan"}, "fusion_lon": 0.0, "lat": 38.92312316666667, "bike_id": "2f3c9a250efb29155d855f6179b41a7d", "type": "electric_scooter", "is_reserved": 0, "lon": -77.03828216666666}, {"fusion_lat": 0.0, "name": "bb8c3a40e6cf4ea4b8a06d7a0526bd7c", "is_disabled": 0, "rental_uris": {"android": "https://dc.lft.to/lastmile_qr_scan", "ios": "https://dc.lft.to/lastmile_qr_scan"}, "fusion_lon": 0.0, "lat": 38.94891666666667, "bike_id": "bb8c3a40e6cf4ea4b8a06d7a0526bd7c", "type": "electric_bike", "is_reserved": 0, "lon": -76.96372416666667}, {"fusion_lat": 0.0, "name": "fdf285d6ff558ba313ea2592009d9d3a", "is_disabled": 0, "rental_uris": {"android": "https://dc.lft.to/lastmile_qr_scan", "ios": "https://dc.lft.to/lastmile_qr_scan"}, "fusion_lon": 0.0, "lat": 38.9162725, "bike_id": "fdf285d6ff558ba313ea2592009d9d3a", "type": "electric_scooter", "is_reserved": 0, "lon": -77.0313955}, {"fusion_lat": 0.0, "name": "6fc858cb4fce29898459549da692350f", "is_disabled": 0, "rental_uris": {"android": "https://dc.lft.to/lastmile_qr_scan", "ios": "https://dc.lft.to/lastmile_qr_scan"}, "fusion_lon": 0.0, "lat": 38.92297033333333, "bike_id": "6fc858cb4fce29898459549da692350f", "type": "electric_scooter", "is_reserved": 0, "lon": -77.0182295}, {"fusion_lat": 0.0, "name": "4e0d34afbc1d35f80afb41787a1d7c50", "is_disabled": 0, "rental_uris": {"android": "https://dc.lft.to/lastmile_qr_scan", "ios": "https://dc.lft.to/lastmile_qr_scan"}, "fusion_lon": 0.0, "lat": 38.921674333333335, "bike_id": "4e0d34afbc1d35f80afb41787a1d7c50", "type": "electric_scooter", "is_reserved": 0, "lon": -77.03831333333333}, {"fusion_lat": 0.0, "name": "b8eec6e85c4c9c02af872f43d5b82b5e", "is_disabled": 0, "rental_uris": {"android": "https://dc.lft.to/lastmile_qr_scan", "ios": "https://dc.lft.to/lastmile_qr_scan"}, "fusion_lon": 0.0, "lat": 38.873981666666666, "bike_id": "b8eec6e85c4c9c02af872f43d5b82b5e", "type": "electric_scooter", "is_reserved": 0, "lon": -77.000571}, {"fusion_lat": 0.0, "name": "b314a9efbf56abd730b88aeca30a3b4c", "is_disabled": 0, "rental_uris": {"android": "https://dc.lft.to/lastmile_qr_scan", "ios": "https://dc.lft.to/lastmile_qr_scan"}, "fusion_lon": 0.0, "lat": 38.9002855, "bike_id": "b314a9efbf56abd730b88aeca30a3b4c", "type": "electric_scooter", "is_reserved": 0, "lon": -77.01177833333334}, {"fusion_lat": 0.0, "name": "eb0697d15b45e4ef11a5359b58f48ed1", "is_disabled": 0, "rental_uris": {"android": "https://dc.lft.to/lastmile_qr_scan", "ios": "https://dc.lft.to/lastmile_qr_scan"}, "fusion_lon": 0.0, "lat": 38.8863595, "bike_id": "eb0697d15b45e4ef11a5359b58f48ed1", "type": "electric_scooter", "is_reserved": 0, "lon": -77.01968566666666}, {"fusion_lat": 0.0, "name": "f96afbc9969c649645756f8749506ce2", "is_disabled": 0, "rental_uris": {"android": "https://dc.lft.to/lastmile_qr_scan", "ios": "https://dc.lft.to/lastmile_qr_scan"}, "fusion_lon": 0.0, "lat": 38.9287225, "bike_id": "f96afbc9969c649645756f8749506ce2", "type": "electric_scooter", "is_reserved": 0, "lon": -77.01356333333334}, {"fusion_lat": 0.0, "name": "932812119d80833c9babce0d2b27abe7", "is_disabled": 0, "rental_uris": {"android": "https://dc.lft.to/lastmile_qr_scan", "ios": "https://dc.lft.to/lastmile_qr_scan"}, "fusion_lon": 0.0, "lat": 38.902479, "bike_id": "932812119d80833c9babce0d2b27abe7", "type": "electric_scooter", "is_reserved": 0, "lon": -77.01795266666667}, {"fusion_lat": 0.0, "name": "df466313b9788c151f09e3d049de8a56", "is_disabled": 0, "rental_uris": {"android": "https://dc.lft.to/lastmile_qr_scan", "ios": "https://dc.lft.to/lastmile_qr_scan"}, "fusion_lon": 0.0, "lat": 38.92034616666667, "bike_id": "df466313b9788c151f09e3d049de8a56", "type": "electric_scooter", "is_reserved": 0, "lon": -77.01219}, {"fusion_lat": 0.0, "name": "35c1ab2097fc5c2574498cdfadcad273", "is_disabled": 0, "rental_uris": {"android": "https://dc.lft.to/lastmile_qr_scan", "ios": "https://dc.lft.to/lastmile_qr_scan"}, "fusion_lon": 0.0, "lat": 38.9167995, "bike_id": "35c1ab2097fc5c2574498cdfadcad273", "type": "electric_scooter", "is_reserved": 0, "lon": -77.0297445}, {"fusion_lat": 0.0, "name": "bdc6cf80ecbcdd99c3d45634b9e4cf5c", "is_disabled": 0, "rental_uris": {"android": "https://dc.lft.to/lastmile_qr_scan", "ios": "https://dc.lft.to/lastmile_qr_scan"}, "fusion_lon": 0.0, "lat": 38.9298185, "bike_id": "bdc6cf80ecbcdd99c3d45634b9e4cf5c", "type": "electric_scooter", "is_reserved": 0, "lon": -77.03257116666667}, {"fusion_lat": 0.0, "name": "30f7feed288060dcd08c13bfce467c41", "is_disabled": 0, "rental_uris": {"android": "https://dc.lft.to/lastmile_qr_scan", "ios": "https://dc.lft.to/lastmile_qr_scan"}, "fusion_lon": 0.0, "lat": 38.902534333333335, "bike_id": "30f7feed288060dcd08c13bfce467c41", "type": "electric_scooter", "is_reserved": 0, "lon": -77.01755616666667}, {"fusion_lat": 0.0, "name": "98edf68bf7d9e1254bead1a2c5e307e2", "is_disabled": 0, "rental_uris": {"android": "https://dc.lft.to/lastmile_qr_scan", "ios": "https://dc.lft.to/lastmile_qr_scan"}, "fusion_lon": 0.0, "lat": 38.896359333333336, "bike_id": "98edf68bf7d9e1254bead1a2c5e307e2", "type": "electric_scooter", "is_reserved": 0, "lon": -77.02214783333334}, {"fusion_lat": 0.0, "name": "77337fff7f07910a1f0129a4c8958a15", "is_disabled": 0, "rental_uris": {"android": "https://dc.lft.to/lastmile_qr_scan", "ios": "https://dc.lft.to/lastmile_qr_scan"}, "fusion_lon": 0.0, "lat": 38.900046833333334, "bike_id": "77337fff7f07910a1f0129a4c8958a15", "type": "electric_scooter", "is_reserved": 0, "lon": -76.9984635}, {"fusion_lat": 0.0, "name": "a52bb72b75b3cdca2352b29ac4e35405", "is_disabled": 0, "rental_uris": {"android": "https://dc.lft.to/lastmile_qr_scan", "ios": "https://dc.lft.to/lastmile_qr_scan"}, "fusion_lon": 0.0, "lat": 38.87383966666667, "bike_id": "a52bb72b75b3cdca2352b29ac4e35405", "type": "electric_scooter", "is_reserved": 0, "lon": -77.00042533333334}, {"fusion_lat": 0.0, "name": "48a9421a58fbe020a10c8ffbe4d8d4e4", "is_disabled": 0, "rental_uris": {"android": "https://dc.lft.to/lastmile_qr_scan", "ios": "https://dc.lft.to/lastmile_qr_scan"}, "fusion_lon": 0.0, "lat": 38.926877, "bike_id": "48a9421a58fbe020a10c8ffbe4d8d4e4", "type": "electric_scooter", "is_reserved": 0, "lon": -77.035698}, {"fusion_lat": 0.0, "name": "0e5141f53e91fc8d92e636b86d79c16d", "is_disabled": 0, "rental_uris": {"android": "https://dc.lft.to/lastmile_qr_scan", "ios": "https://dc.lft.to/lastmile_qr_scan"}, "fusion_lon": 0.0, "lat": 38.853569, "bike_id": "0e5141f53e91fc8d92e636b86d79c16d", "type": "electric_bike", "is_reserved": 0, "lon": -77.11497983333334}, {"fusion_lat": 0.0, "name": "8111e22802417fb68d8d56c003c3f0d2", "is_disabled": 0, "rental_uris": {"android": "https://dc.lft.to/lastmile_qr_scan", "ios": "https://dc.lft.to/lastmile_qr_scan"}, "fusion_lon": 0.0, "lat": 38.91422383333333, "bike_id": "8111e22802417fb68d8d56c003c3f0d2", "type": "electric_scooter", "is_reserved": 0, "lon": -76.9845045}, {"fusion_lat": 0.0, "name": "7657b38ddc40255681f9796e2d2b2d8e", "is_disabled": 0, "rental_uris": {"android": "https://dc.lft.to/lastmile_qr_scan", "ios": "https://dc.lft.to/lastmile_qr_scan"}, "fusion_lon": 0.0, "lat": 38.87835783333333, "bike_id": "7657b38ddc40255681f9796e2d2b2d8e", "type": "electric_scooter", "is_reserved": 0, "lon": -76.99039183333333}, {"fusion_lat": 0.0, "name": "e056e89bbf926b8381410775859049d5", "is_disabled": 0, "rental_uris": {"android": "https://dc.lft.to/lastmile_qr_scan", "ios": "https://dc.lft.to/lastmile_qr_scan"}, "fusion_lon": 0.0, "lat": 38.87481916666667, "bike_id": "e056e89bbf926b8381410775859049d5", "type": "electric_scooter", "is_reserved": 0, "lon": -77.00034616666667}, {"fusion_lat": 0.0, "name": "101733829aa9782c917392508c4eac54", "is_disabled": 0, "rental_uris": {"android": "https://dc.lft.to/lastmile_qr_scan", "ios": "https://dc.lft.to/lastmile_qr_scan"}, "fusion_lon": 0.0, "lat": 39.0389045, "bike_id": "101733829aa9782c917392508c4eac54", "type": "electric_bike", "is_reserved": 0, "lon": -77.05047466666667}, {"fusion_lat": 0.0, "name": "13b7421660ff87b00533bdbfbc144658", "is_disabled": 0, "rental_uris": {"android": "https://dc.lft.to/lastmile_qr_scan", "ios": "https://dc.lft.to/lastmile_qr_scan"}, "fusion_lon": 0.0, "lat": 38.9004375, "bike_id": "13b7421660ff87b00533bdbfbc144658", "type": "electric_scooter", "is_reserved": 0, "lon": -77.04483866666666}, {"fusion_lat": 0.0, "name": "5e9dd3498202218cc5472617b4262f0f", "is_disabled": 0, "rental_uris": {"android": "https://dc.lft.to/lastmile_qr_scan", "ios": "https://dc.lft.to/lastmile_qr_scan"}, "fusion_lon": 0.0, "lat": 38.938608, "bike_id": "5e9dd3498202218cc5472617b4262f0f", "type": "electric_scooter", "is_reserved": 0, "lon": -77.0320865}, {"fusion_lat": 0.0, "name": "514c9d4331299bc56ce7bb888f929c05", "is_disabled": 0, "rental_uris": {"android": "https://dc.lft.to/lastmile_qr_scan", "ios": "https://dc.lft.to/lastmile_qr_scan"}, "fusion_lon": 0.0, "lat": 38.99221133333333, "bike_id": "514c9d4331299bc56ce7bb888f929c05", "type": "electric_bike", "is_reserved": 0, "lon": -76.94410116666667}, {"fusion_lat": 0.0, "name": "79efb6621739d10e98225388dfeceacf", "is_disabled": 0, "rental_uris": {"android": "https://dc.lft.to/lastmile_qr_scan", "ios": "https://dc.lft.to/lastmile_qr_scan"}, "fusion_lon": 0.0, "lat": 38.953077666666665, "bike_id": "79efb6621739d10e98225388dfeceacf", "type": "electric_scooter", "is_reserved": 0, "lon": -77.02251116666666}, {"fusion_lat": 0.0, "name": "5a1b88a545f121504883cea40f172b25", "is_disabled": 0, "rental_uris": {"android": "https://dc.lft.to/lastmile_qr_scan", "ios": "https://dc.lft.to/lastmile_qr_scan"}, "fusion_lon": 0.0, "lat": 38.9352685, "bike_id": "5a1b88a545f121504883cea40f172b25", "type": "electric_scooter", "is_reserved": 0, "lon": -77.02353066666667}, {"fusion_lat": 0.0, "name": "2caefa671b34dc524e5af142a491956d", "is_disabled": 0, "rental_uris": {"android": "https://dc.lft.to/lastmile_qr_scan", "ios": "https://dc.lft.to/lastmile_qr_scan"}, "fusion_lon": 0.0, "lat": 38.87173533333333, "bike_id": "2caefa671b34dc524e5af142a491956d", "type": "electric_scooter", "is_reserved": 0, "lon": -76.97402883333334}, {"fusion_lat": 0.0, "name": "271c34babbaea067570524c49b25a6e4", "is_disabled": 0, "rental_uris": {"android": "https://dc.lft.to/lastmile_qr_scan", "ios": "https://dc.lft.to/lastmile_qr_scan"}, "fusion_lon": 0.0, "lat": 38.916742166666666, "bike_id": "271c34babbaea067570524c49b25a6e4", "type": "electric_scooter", "is_reserved": 0, "lon": -77.03129433333334}, {"fusion_lat": 0.0, "name": "edb7c4f2ffdec8f06584376d49352286", "is_disabled": 0, "rental_uris": {"android": "https://dc.lft.to/lastmile_qr_scan", "ios": "https://dc.lft.to/lastmile_qr_scan"}, "fusion_lon": 0.0, "lat": 38.8804415, "bike_id": "edb7c4f2ffdec8f06584376d49352286", "type": "electric_scooter", "is_reserved": 0, "lon": -77.00374533333333}, {"fusion_lat": 0.0, "name": "60b735c0067d74b6328932327e1eb9ec", "is_disabled": 0, "rental_uris": {"android": "https://dc.lft.to/lastmile_qr_scan", "ios": "https://dc.lft.to/lastmile_qr_scan"}, "fusion_lon": 0.0, "lat": 38.899851166666664, "bike_id": "60b735c0067d74b6328932327e1eb9ec", "type": "electric_scooter", "is_reserved": 0, "lon": -77.02203533333333}, {"fusion_lat": 0.0, "name": "8669a98d59f892ddffa10db88fc5ddbe", "is_disabled": 0, "rental_uris": {"android": "https://dc.lft.to/lastmile_qr_scan", "ios": "https://dc.lft.to/lastmile_qr_scan"}, "fusion_lon": 0.0, "lat": 38.881837, "bike_id": "8669a98d59f892ddffa10db88fc5ddbe", "type": "electric_scooter", "is_reserved": 0, "lon": -77.02880583333334}, {"fusion_lat": 0.0, "name": "929f13101266395e0469b1ad35031a1f", "is_disabled": 0, "rental_uris": {"android": "https://dc.lft.to/lastmile_qr_scan", "ios": "https://dc.lft.to/lastmile_qr_scan"}, "fusion_lon": 0.0, "lat": 38.895638, "bike_id": "929f13101266395e0469b1ad35031a1f", "type": "electric_bike", "is_reserved": 0, "lon": -77.1274215}, {"fusion_lat": 0.0, "name": "af4c116ee9de5f904e778a9dcc41811f", "is_disabled": 0, "rental_uris": {"android": "https://dc.lft.to/lastmile_qr_scan", "ios": "https://dc.lft.to/lastmile_qr_scan"}, "fusion_lon": 0.0, "lat": 38.896069, "bike_id": "af4c116ee9de5f904e778a9dcc41811f", "type": "electric_scooter", "is_reserved": 0, "lon": -77.05061266666667}, {"fusion_lat": 0.0, "name": "62b9de6c47a42ffad5df07f87b69d5b9", "is_disabled": 0, "rental_uris": {"android": "https://dc.lft.to/lastmile_qr_scan", "ios": "https://dc.lft.to/lastmile_qr_scan"}, "fusion_lon": 0.0, "lat": 38.974898833333334, "bike_id": "62b9de6c47a42ffad5df07f87b69d5b9", "type": "electric_scooter", "is_reserved": 0, "lon": -77.01419866666667}, {"fusion_lat": 0.0, "name": "428dffe7f275b1095c1fb62469d4c0f6", "is_disabled": 0, "rental_uris": {"android": "https://dc.lft.to/lastmile_qr_scan", "ios": "https://dc.lft.to/lastmile_qr_scan"}, "fusion_lon": 0.0, "lat": 38.942831, "bike_id": "428dffe7f275b1095c1fb62469d4c0f6", "type": "electric_scooter", "is_reserved": 0, "lon": -77.02004383333333}, {"fusion_lat": 0.0, "name": "90ca493f4e5a1a283eb9f117dfaa7204", "is_disabled": 0, "rental_uris": {"android": "https://dc.lft.to/lastmile_qr_scan", "ios": "https://dc.lft.to/lastmile_qr_scan"}, "fusion_lon": 0.0, "lat": 38.9006215, "bike_id": "90ca493f4e5a1a283eb9f117dfaa7204", "type": "electric_scooter", "is_reserved": 0, "lon": -76.93388166666666}, {"fusion_lat": 0.0, "name": "4532214c5481f10b38ea03c16c27adfb", "is_disabled": 0, "rental_uris": {"android": "https://dc.lft.to/lastmile_qr_scan", "ios": "https://dc.lft.to/lastmile_qr_scan"}, "fusion_lon": 0.0, "lat": 38.894128, "bike_id": "4532214c5481f10b38ea03c16c27adfb", "type": "electric_scooter", "is_reserved": 0, "lon": -77.01221466666667}, {"fusion_lat": 0.0, "name": "e054a5eca84e8dc21804be813074815b", "is_disabled": 0, "rental_uris": {"android": "https://dc.lft.to/lastmile_qr_scan", "ios": "https://dc.lft.to/lastmile_qr_scan"}, "fusion_lon": 0.0, "lat": 38.90572083333333, "bike_id": "e054a5eca84e8dc21804be813074815b", "type": "electric_scooter", "is_reserved": 0, "lon": -77.00804616666667}, {"fusion_lat": 0.0, "name": "e6547f3c82f0a169969c6655e44df7e6", "is_disabled": 0, "rental_uris": {"android": "https://dc.lft.to/lastmile_qr_scan", "ios": "https://dc.lft.to/lastmile_qr_scan"}, "fusion_lon": 0.0, "lat": 38.90386766666666, "bike_id": "e6547f3c82f0a169969c6655e44df7e6", "type": "electric_scooter", "is_reserved": 0, "lon": -77.06131766666667}, {"fusion_lat": 0.0, "name": "510bade06e1240f17dadd9cd992c9ea7", "is_disabled": 0, "rental_uris": {"android": "https://dc.lft.to/lastmile_qr_scan", "ios": "https://dc.lft.to/lastmile_qr_scan"}, "fusion_lon": 0.0, "lat": 38.840554833333336, "bike_id": "510bade06e1240f17dadd9cd992c9ea7", "type": "electric_scooter", "is_reserved": 0, "lon": -76.97669083333334}, {"fusion_lat": 0.0, "name": "8781f2ba53ea6a936cbef5114ccaa607", "is_disabled": 0, "rental_uris": {"android": "https://dc.lft.to/lastmile_qr_scan", "ios": "https://dc.lft.to/lastmile_qr_scan"}, "fusion_lon": 0.0, "lat": 38.932051, "bike_id": "8781f2ba53ea6a936cbef5114ccaa607", "type": "electric_scooter", "is_reserved": 0, "lon": -77.02666016666667}, {"fusion_lat": 0.0, "name": "dbfa29c916b4712275c40293fa5f77c9", "is_disabled": 0, "rental_uris": {"android": "https://dc.lft.to/lastmile_qr_scan", "ios": "https://dc.lft.to/lastmile_qr_scan"}, "fusion_lon": 0.0, "lat": 38.900308833333334, "bike_id": "dbfa29c916b4712275c40293fa5f77c9", "type": "electric_scooter", "is_reserved": 0, "lon": -76.9992505}, {"fusion_lat": 0.0, "name": "631529081a7ea83934275ba89b3e4885", "is_disabled": 0, "rental_uris": {"android": "https://dc.lft.to/lastmile_qr_scan", "ios": "https://dc.lft.to/lastmile_qr_scan"}, "fusion_lon": 0.0, "lat": 38.923130666666665, "bike_id": "631529081a7ea83934275ba89b3e4885", "type": "electric_scooter", "is_reserved": 0, "lon": -77.0462505}, {"fusion_lat": 0.0, "name": "3ca6cc2a995a4b2389a140b1e4b20f23", "is_disabled": 0, "rental_uris": {"android": "https://dc.lft.to/lastmile_qr_scan", "ios": "https://dc.lft.to/lastmile_qr_scan"}, "fusion_lon": 0.0, "lat": 38.90577483333333, "bike_id": "3ca6cc2a995a4b2389a140b1e4b20f23", "type": "electric_scooter", "is_reserved": 0, "lon": -77.0341505}, {"fusion_lat": 0.0, "name": "4406c0b42ebb33ed057229088b52dd6e", "is_disabled": 0, "rental_uris": {"android": "https://dc.lft.to/lastmile_qr_scan", "ios": "https://dc.lft.to/lastmile_qr_scan"}, "fusion_lon": 0.0, "lat": 38.874301833333334, "bike_id": "4406c0b42ebb33ed057229088b52dd6e", "type": "electric_scooter", "is_reserved": 0, "lon": -77.01862583333333}, {"fusion_lat": 0.0, "name": "caf46f1994959af1fb5bed6eabcfee91", "is_disabled": 0, "rental_uris": {"android": "https://dc.lft.to/lastmile_qr_scan", "ios": "https://dc.lft.to/lastmile_qr_scan"}, "fusion_lon": 0.0, "lat": 38.920816, "bike_id": "caf46f1994959af1fb5bed6eabcfee91", "type": "electric_scooter", "is_reserved": 0, "lon": -77.04053883333333}, {"fusion_lat": 0.0, "name": "0f294c26b1deb3d3cc47c2f169aaa5dd", "is_disabled": 0, "rental_uris": {"android": "https://dc.lft.to/lastmile_qr_scan", "ios": "https://dc.lft.to/lastmile_qr_scan"}, "fusion_lon": 0.0, "lat": 38.88607716666667, "bike_id": "0f294c26b1deb3d3cc47c2f169aaa5dd", "type": "electric_scooter", "is_reserved": 0, "lon": -77.01912083333333}, {"fusion_lat": 0.0, "name": "a1577501b0a8ad5509be07e3bf02f8e3", "is_disabled": 0, "rental_uris": {"android": "https://dc.lft.to/lastmile_qr_scan", "ios": "https://dc.lft.to/lastmile_qr_scan"}, "fusion_lon": 0.0, "lat": 38.8951795, "bike_id": "a1577501b0a8ad5509be07e3bf02f8e3", "type": "electric_scooter", "is_reserved": 0, "lon": -77.0395575}, {"fusion_lat": 0.0, "name": "927de426527c48c68dbe156b0897009f", "is_disabled": 0, "rental_uris": {"android": "https://dc.lft.to/lastmile_qr_scan", "ios": "https://dc.lft.to/lastmile_qr_scan"}, "fusion_lon": 0.0, "lat": 38.87591333333334, "bike_id": "927de426527c48c68dbe156b0897009f", "type": "electric_scooter", "is_reserved": 0, "lon": -77.0058365}, {"fusion_lat": 0.0, "name": "bb2446d528a36c8e67b319bef28cedf4", "is_disabled": 0, "rental_uris": {"android": "https://dc.lft.to/lastmile_qr_scan", "ios": "https://dc.lft.to/lastmile_qr_scan"}, "fusion_lon": 0.0, "lat": 38.92276066666667, "bike_id": "bb2446d528a36c8e67b319bef28cedf4", "type": "electric_scooter", "is_reserved": 0, "lon": -76.994253}, {"fusion_lat": 0.0, "name": "92e3964c9c2553c0c31f30b2195bbdfa", "is_disabled": 0, "rental_uris": {"android": "https://dc.lft.to/lastmile_qr_scan", "ios": "https://dc.lft.to/lastmile_qr_scan"}, "fusion_lon": 0.0, "lat": 38.92366466666667, "bike_id": "92e3964c9c2553c0c31f30b2195bbdfa", "type": "electric_scooter", "is_reserved": 0, "lon": -77.08154266666666}, {"fusion_lat": 0.0, "name": "32ba8e05912da04cc6e274a85545814d", "is_disabled": 0, "rental_uris": {"android": "https://dc.lft.to/lastmile_qr_scan", "ios": "https://dc.lft.to/lastmile_qr_scan"}, "fusion_lon": 0.0, "lat": 38.902604833333335, "bike_id": "32ba8e05912da04cc6e274a85545814d", "type": "electric_scooter", "is_reserved": 0, "lon": -76.996123}, {"fusion_lat": 0.0, "name": "34bd1585aeaca262e01d420ea533803e", "is_disabled": 0, "rental_uris": {"android": "https://dc.lft.to/lastmile_qr_scan", "ios": "https://dc.lft.to/lastmile_qr_scan"}, "fusion_lon": 0.0, "lat": 38.927101, "bike_id": "34bd1585aeaca262e01d420ea533803e", "type": "electric_scooter", "is_reserved": 0, "lon": -77.03168366666667}, {"fusion_lat": 0.0, "name": "ba24f31bad70982d285310772bba7f79", "is_disabled": 0, "rental_uris": {"android": "https://dc.lft.to/lastmile_qr_scan", "ios": "https://dc.lft.to/lastmile_qr_scan"}, "fusion_lon": 0.0, "lat": 38.910830833333335, "bike_id": "ba24f31bad70982d285310772bba7f79", "type": "electric_scooter", "is_reserved": 0, "lon": -77.065477}, {"fusion_lat": 0.0, "name": "98c968d856cde06b4c1c8a9f1d211b4c", "is_disabled": 0, "rental_uris": {"android": "https://dc.lft.to/lastmile_qr_scan", "ios": "https://dc.lft.to/lastmile_qr_scan"}, "fusion_lon": 0.0, "lat": 38.897343, "bike_id": "98c968d856cde06b4c1c8a9f1d211b4c", "type": "electric_scooter", "is_reserved": 0, "lon": -76.94722883333333}, {"fusion_lat": 0.0, "name": "340f2dba066c906c95c02dbb9d29e3f7", "is_disabled": 0, "rental_uris": {"android": "https://dc.lft.to/lastmile_qr_scan", "ios": "https://dc.lft.to/lastmile_qr_scan"}, "fusion_lon": 0.0, "lat": 38.9160925, "bike_id": "340f2dba066c906c95c02dbb9d29e3f7", "type": "electric_scooter", "is_reserved": 0, "lon": -77.04612316666666}, {"fusion_lat": 0.0, "name": "0f223764a9fb2b9ec4c1e89706497962", "is_disabled": 0, "rental_uris": {"android": "https://dc.lft.to/lastmile_qr_scan", "ios": "https://dc.lft.to/lastmile_qr_scan"}, "fusion_lon": 0.0, "lat": 38.90464133333333, "bike_id": "0f223764a9fb2b9ec4c1e89706497962", "type": "electric_scooter", "is_reserved": 0, "lon": -77.01277416666667}, {"fusion_lat": 0.0, "name": "220ed54abe762a371b83036abec6c92f", "is_disabled": 0, "rental_uris": {"android": "https://dc.lft.to/lastmile_qr_scan", "ios": "https://dc.lft.to/lastmile_qr_scan"}, "fusion_lon": 0.0, "lat": 38.90027083333333, "bike_id": "220ed54abe762a371b83036abec6c92f", "type": "electric_scooter", "is_reserved": 0, "lon": -76.99137916666666}, {"fusion_lat": 0.0, "name": "791af6dc224cc7905f9ed44a9c6e5da3", "is_disabled": 0, "rental_uris": {"android": "https://dc.lft.to/lastmile_qr_scan", "ios": "https://dc.lft.to/lastmile_qr_scan"}, "fusion_lon": 0.0, "lat": 38.930369666666664, "bike_id": "791af6dc224cc7905f9ed44a9c6e5da3", "type": "electric_scooter", "is_reserved": 0, "lon": -77.0330145}, {"fusion_lat": 0.0, "name": "4a2d2beea1042f2b2dc5bba90713e02c", "is_disabled": 0, "rental_uris": {"android": "https://dc.lft.to/lastmile_qr_scan", "ios": "https://dc.lft.to/lastmile_qr_scan"}, "fusion_lon": 0.0, "lat": 38.92249483333333, "bike_id": "4a2d2beea1042f2b2dc5bba90713e02c", "type": "electric_scooter", "is_reserved": 0, "lon": -77.07454883333334}, {"fusion_lat": 0.0, "name": "8ef4ce5578eff9b3a15402164c075654", "is_disabled": 0, "rental_uris": {"android": "https://dc.lft.to/lastmile_qr_scan", "ios": "https://dc.lft.to/lastmile_qr_scan"}, "fusion_lon": 0.0, "lat": 38.888222999999996, "bike_id": "8ef4ce5578eff9b3a15402164c075654", "type": "electric_scooter", "is_reserved": 0, "lon": -76.98665516666667}, {"fusion_lat": 0.0, "name": "fb4cda72afd9d30654ca090c2aada1bf", "is_disabled": 0, "rental_uris": {"android": "https://dc.lft.to/lastmile_qr_scan", "ios": "https://dc.lft.to/lastmile_qr_scan"}, "fusion_lon": 0.0, "lat": 38.919744, "bike_id": "fb4cda72afd9d30654ca090c2aada1bf", "type": "electric_scooter", "is_reserved": 0, "lon": -77.044335}, {"fusion_lat": 0.0, "name": "10ac80810f49a50ce8374b89cc33a7b3", "is_disabled": 0, "rental_uris": {"android": "https://dc.lft.to/lastmile_qr_scan", "ios": "https://dc.lft.to/lastmile_qr_scan"}, "fusion_lon": 0.0, "lat": 38.90429133333333, "bike_id": "10ac80810f49a50ce8374b89cc33a7b3", "type": "electric_scooter", "is_reserved": 0, "lon": -76.982801}, {"fusion_lat": 0.0, "name": "1bc45f9e0f56e5abfafe37057b92bc3a", "is_disabled": 0, "rental_uris": {"android": "https://dc.lft.to/lastmile_qr_scan", "ios": "https://dc.lft.to/lastmile_qr_scan"}, "fusion_lon": 0.0, "lat": 38.91126666666667, "bike_id": "1bc45f9e0f56e5abfafe37057b92bc3a", "type": "electric_scooter", "is_reserved": 0, "lon": -76.99732916666666}, {"fusion_lat": 0.0, "name": "6dc8e44012def932c8d51d1e7348cb83", "is_disabled": 0, "rental_uris": {"android": "https://dc.lft.to/lastmile_qr_scan", "ios": "https://dc.lft.to/lastmile_qr_scan"}, "fusion_lon": 0.0, "lat": 38.91497483333333, "bike_id": "6dc8e44012def932c8d51d1e7348cb83", "type": "electric_scooter", "is_reserved": 0, "lon": -77.0672625}, {"fusion_lat": 0.0, "name": "23deae7f73952fea5e31a613b1d9f744", "is_disabled": 0, "rental_uris": {"android": "https://dc.lft.to/lastmile_qr_scan", "ios": "https://dc.lft.to/lastmile_qr_scan"}, "fusion_lon": 0.0, "lat": 38.907925666666664, "bike_id": "23deae7f73952fea5e31a613b1d9f744", "type": "electric_scooter", "is_reserved": 0, "lon": -76.994223}, {"fusion_lat": 0.0, "name": "bdbf507bb18c37100f064f56850a44e1", "is_disabled": 0, "rental_uris": {"android": "https://dc.lft.to/lastmile_qr_scan", "ios": "https://dc.lft.to/lastmile_qr_scan"}, "fusion_lon": 0.0, "lat": 38.919525, "bike_id": "bdbf507bb18c37100f064f56850a44e1", "type": "electric_bike", "is_reserved": 0, "lon": -77.101151}, {"fusion_lat": 0.0, "name": "5b5be004a75a723af573857e79a3df93", "is_disabled": 0, "rental_uris": {"android": "https://dc.lft.to/lastmile_qr_scan", "ios": "https://dc.lft.to/lastmile_qr_scan"}, "fusion_lon": 0.0, "lat": 38.86826683333334, "bike_id": "5b5be004a75a723af573857e79a3df93", "type": "electric_scooter", "is_reserved": 0, "lon": -77.01126383333333}, {"fusion_lat": 0.0, "name": "b7f9cc441baf87c78903980d178723bd", "is_disabled": 0, "rental_uris": {"android": "https://dc.lft.to/lastmile_qr_scan", "ios": "https://dc.lft.to/lastmile_qr_scan"}, "fusion_lon": 0.0, "lat": 38.916695, "bike_id": "b7f9cc441baf87c78903980d178723bd", "type": "electric_scooter", "is_reserved": 0, "lon": -77.02975333333333}, {"fusion_lat": 0.0, "name": "2b3a3abc77a9e9327cc1f621b1eb3ff7", "is_disabled": 0, "rental_uris": {"android": "https://dc.lft.to/lastmile_qr_scan", "ios": "https://dc.lft.to/lastmile_qr_scan"}, "fusion_lon": 0.0, "lat": 38.935810000000004, "bike_id": "2b3a3abc77a9e9327cc1f621b1eb3ff7", "type": "electric_scooter", "is_reserved": 0, "lon": -77.02849683333334}, {"fusion_lat": 0.0, "name": "d40c6dca3a49c6af2ce9ccce340ee9f0", "is_disabled": 0, "rental_uris": {"android": "https://dc.lft.to/lastmile_qr_scan", "ios": "https://dc.lft.to/lastmile_qr_scan"}, "fusion_lon": 0.0, "lat": 38.908030333333336, "bike_id": "d40c6dca3a49c6af2ce9ccce340ee9f0", "type": "electric_scooter", "is_reserved": 0, "lon": -77.04333233333334}, {"fusion_lat": 0.0, "name": "64c9bf7766150cc586c2e7418b9eb025", "is_disabled": 0, "rental_uris": {"android": "https://dc.lft.to/lastmile_qr_scan", "ios": "https://dc.lft.to/lastmile_qr_scan"}, "fusion_lon": 0.0, "lat": 38.906619166666665, "bike_id": "64c9bf7766150cc586c2e7418b9eb025", "type": "electric_bike", "is_reserved": 0, "lon": -77.02811316666667}, {"fusion_lat": 0.0, "name": "b3e67320dda341c998d8f93dafbcf0ea", "is_disabled": 0, "rental_uris": {"android": "https://dc.lft.to/lastmile_qr_scan", "ios": "https://dc.lft.to/lastmile_qr_scan"}, "fusion_lon": 0.0, "lat": 38.9073685, "bike_id": "b3e67320dda341c998d8f93dafbcf0ea", "type": "electric_scooter", "is_reserved": 0, "lon": -77.02208883333333}, {"fusion_lat": 0.0, "name": "e8383906bbe942618e2ae9ba74cd71fb", "is_disabled": 0, "rental_uris": {"android": "https://dc.lft.to/lastmile_qr_scan", "ios": "https://dc.lft.to/lastmile_qr_scan"}, "fusion_lon": 0.0, "lat": 38.916891166666666, "bike_id": "e8383906bbe942618e2ae9ba74cd71fb", "type": "electric_scooter", "is_reserved": 0, "lon": -77.0310685}, {"fusion_lat": 0.0, "name": "5e30a5947bdb3bdcd74b9dc01f32b080", "is_disabled": 0, "rental_uris": {"android": "https://dc.lft.to/lastmile_qr_scan", "ios": "https://dc.lft.to/lastmile_qr_scan"}, "fusion_lon": 0.0, "lat": 38.885845, "bike_id": "5e30a5947bdb3bdcd74b9dc01f32b080", "type": "electric_scooter", "is_reserved": 0, "lon": -77.01985016666667}, {"fusion_lat": 0.0, "name": "5125f47b2c348c25eb09e35bd63ddeb6", "is_disabled": 0, "rental_uris": {"android": "https://dc.lft.to/lastmile_qr_scan", "ios": "https://dc.lft.to/lastmile_qr_scan"}, "fusion_lon": 0.0, "lat": 38.92283366666667, "bike_id": "5125f47b2c348c25eb09e35bd63ddeb6", "type": "electric_scooter", "is_reserved": 0, "lon": -77.02979916666666}, {"fusion_lat": 0.0, "name": "057f885051111cd26c7a3b79152b5bbe", "is_disabled": 0, "rental_uris": {"android": "https://dc.lft.to/lastmile_qr_scan", "ios": "https://dc.lft.to/lastmile_qr_scan"}, "fusion_lon": 0.0, "lat": 38.9412015, "bike_id": "057f885051111cd26c7a3b79152b5bbe", "type": "electric_bike", "is_reserved": 0, "lon": -76.9903095}, {"fusion_lat": 0.0, "name": "c55e8fb06281c4c0a2f9690f80633c03", "is_disabled": 0, "rental_uris": {"android": "https://dc.lft.to/lastmile_qr_scan", "ios": "https://dc.lft.to/lastmile_qr_scan"}, "fusion_lon": 0.0, "lat": 38.88420633333333, "bike_id": "c55e8fb06281c4c0a2f9690f80633c03", "type": "electric_scooter", "is_reserved": 0, "lon": -77.02562133333333}, {"fusion_lat": 0.0, "name": "b8e3dcc26c839098f94e446035cb6977", "is_disabled": 0, "rental_uris": {"android": "https://dc.lft.to/lastmile_qr_scan", "ios": "https://dc.lft.to/lastmile_qr_scan"}, "fusion_lon": 0.0, "lat": 38.90053016666667, "bike_id": "b8e3dcc26c839098f94e446035cb6977", "type": "electric_scooter", "is_reserved": 0, "lon": -77.01368316666667}, {"fusion_lat": 0.0, "name": "f741acb1176965f6d6f6db48a094e6af", "is_disabled": 0, "rental_uris": {"android": "https://dc.lft.to/lastmile_qr_scan", "ios": "https://dc.lft.to/lastmile_qr_scan"}, "fusion_lon": 0.0, "lat": 38.933886666666666, "bike_id": "f741acb1176965f6d6f6db48a094e6af", "type": "electric_scooter", "is_reserved": 0, "lon": -77.02416916666667}, {"fusion_lat": 0.0, "name": "83e3d8b1a5fee0d678340e077013e256", "is_disabled": 0, "rental_uris": {"android": "https://dc.lft.to/lastmile_qr_scan", "ios": "https://dc.lft.to/lastmile_qr_scan"}, "fusion_lon": 0.0, "lat": 38.91917133333333, "bike_id": "83e3d8b1a5fee0d678340e077013e256", "type": "electric_scooter", "is_reserved": 0, "lon": -77.03180533333334}, {"fusion_lat": 0.0, "name": "895ac9e350757d5a4b2b1e88a8eead9f", "is_disabled": 0, "rental_uris": {"android": "https://dc.lft.to/lastmile_qr_scan", "ios": "https://dc.lft.to/lastmile_qr_scan"}, "fusion_lon": 0.0, "lat": 38.92026283333333, "bike_id": "895ac9e350757d5a4b2b1e88a8eead9f", "type": "electric_scooter", "is_reserved": 0, "lon": -77.001951}, {"fusion_lat": 0.0, "name": "e6cb99548e95c8a25812d172d667b550", "is_disabled": 0, "rental_uris": {"android": "https://dc.lft.to/lastmile_qr_scan", "ios": "https://dc.lft.to/lastmile_qr_scan"}, "fusion_lon": 0.0, "lat": 38.906500666666666, "bike_id": "e6cb99548e95c8a25812d172d667b550", "type": "electric_bike", "is_reserved": 0, "lon": -77.00884633333334}, {"fusion_lat": 0.0, "name": "38268e4dc9502a3dc9ec8584c99a5893", "is_disabled": 0, "rental_uris": {"android": "https://dc.lft.to/lastmile_qr_scan", "ios": "https://dc.lft.to/lastmile_qr_scan"}, "fusion_lon": 0.0, "lat": 38.91972883333333, "bike_id": "38268e4dc9502a3dc9ec8584c99a5893", "type": "electric_scooter", "is_reserved": 0, "lon": -77.04145333333334}, {"fusion_lat": 0.0, "name": "87efe7ff6923669cf420d8f46a6c19d3", "is_disabled": 0, "rental_uris": {"android": "https://dc.lft.to/lastmile_qr_scan", "ios": "https://dc.lft.to/lastmile_qr_scan"}, "fusion_lon": 0.0, "lat": 38.9170165, "bike_id": "87efe7ff6923669cf420d8f46a6c19d3", "type": "electric_scooter", "is_reserved": 0, "lon": -77.03466283333333}, {"fusion_lat": 0.0, "name": "467f087750dfb022f9dec0d0b93ad442", "is_disabled": 0, "rental_uris": {"android": "https://dc.lft.to/lastmile_qr_scan", "ios": "https://dc.lft.to/lastmile_qr_scan"}, "fusion_lon": 0.0, "lat": 38.90262883333333, "bike_id": "467f087750dfb022f9dec0d0b93ad442", "type": "electric_scooter", "is_reserved": 0, "lon": -77.04481333333334}, {"fusion_lat": 0.0, "name": "1a1cad4daa6916eccf2c24b9d07a884b", "is_disabled": 0, "rental_uris": {"android": "https://dc.lft.to/lastmile_qr_scan", "ios": "https://dc.lft.to/lastmile_qr_scan"}, "fusion_lon": 0.0, "lat": 38.92976766666666, "bike_id": "1a1cad4daa6916eccf2c24b9d07a884b", "type": "electric_scooter", "is_reserved": 0, "lon": -77.032317}, {"fusion_lat": 0.0, "name": "2620d370efadd6ca17e9b14f88aca1c5", "is_disabled": 0, "rental_uris": {"android": "https://dc.lft.to/lastmile_qr_scan", "ios": "https://dc.lft.to/lastmile_qr_scan"}, "fusion_lon": 0.0, "lat": 38.88757733333333, "bike_id": "2620d370efadd6ca17e9b14f88aca1c5", "type": "electric_scooter", "is_reserved": 0, "lon": -76.977484}, {"fusion_lat": 0.0, "name": "db7eca79e5391023f9d8d10e02c4617c", "is_disabled": 0, "rental_uris": {"android": "https://dc.lft.to/lastmile_qr_scan", "ios": "https://dc.lft.to/lastmile_qr_scan"}, "fusion_lon": 0.0, "lat": 38.90496516666666, "bike_id": "db7eca79e5391023f9d8d10e02c4617c", "type": "electric_scooter", "is_reserved": 0, "lon": -77.0348185}, {"fusion_lat": 0.0, "name": "99d995c2d5170a74d356d0b7e2c91d45", "is_disabled": 0, "rental_uris": {"android": "https://dc.lft.to/lastmile_qr_scan", "ios": "https://dc.lft.to/lastmile_qr_scan"}, "fusion_lon": 0.0, "lat": 38.854591166666665, "bike_id": "99d995c2d5170a74d356d0b7e2c91d45", "type": "electric_scooter", "is_reserved": 0, "lon": -76.97227416666666}, {"fusion_lat": 0.0, "name": "9e2475e6be7e57a8823dac165bf114e3", "is_disabled": 0, "rental_uris": {"android": "https://dc.lft.to/lastmile_qr_scan", "ios": "https://dc.lft.to/lastmile_qr_scan"}, "fusion_lon": 0.0, "lat": 38.897024333333334, "bike_id": "9e2475e6be7e57a8823dac165bf114e3", "type": "electric_scooter", "is_reserved": 0, "lon": -77.0262385}, {"fusion_lat": 0.0, "name": "f6885d840d6cdec14c600fd4b4cb5da4", "is_disabled": 0, "rental_uris": {"android": "https://dc.lft.to/lastmile_qr_scan", "ios": "https://dc.lft.to/lastmile_qr_scan"}, "fusion_lon": 0.0, "lat": 38.92646233333333, "bike_id": "f6885d840d6cdec14c600fd4b4cb5da4", "type": "electric_scooter", "is_reserved": 0, "lon": -77.02427533333334}, {"fusion_lat": 0.0, "name": "ecd455f6c7db9bc2fa83fde0b041361f", "is_disabled": 0, "rental_uris": {"android": "https://dc.lft.to/lastmile_qr_scan", "ios": "https://dc.lft.to/lastmile_qr_scan"}, "fusion_lon": 0.0, "lat": 38.87911066666667, "bike_id": "ecd455f6c7db9bc2fa83fde0b041361f", "type": "electric_scooter", "is_reserved": 0, "lon": -77.00805283333334}, {"fusion_lat": 0.0, "name": "9b34a11aa0d91bfe987b7033c9832015", "is_disabled": 0, "rental_uris": {"android": "https://dc.lft.to/lastmile_qr_scan", "ios": "https://dc.lft.to/lastmile_qr_scan"}, "fusion_lon": 0.0, "lat": 38.928656, "bike_id": "9b34a11aa0d91bfe987b7033c9832015", "type": "electric_scooter", "is_reserved": 0, "lon": -77.033593}, {"fusion_lat": 0.0, "name": "67c5e07bc20f9fc91df46a69844eca46", "is_disabled": 0, "rental_uris": {"android": "https://dc.lft.to/lastmile_qr_scan", "ios": "https://dc.lft.to/lastmile_qr_scan"}, "fusion_lon": 0.0, "lat": 38.956638, "bike_id": "67c5e07bc20f9fc91df46a69844eca46", "type": "electric_bike", "is_reserved": 0, "lon": -77.011318}, {"fusion_lat": 0.0, "name": "92382ba77a7020088c48be0145c26bcf", "is_disabled": 0, "rental_uris": {"android": "https://dc.lft.to/lastmile_qr_scan", "ios": "https://dc.lft.to/lastmile_qr_scan"}, "fusion_lon": 0.0, "lat": 38.95947816666666, "bike_id": "92382ba77a7020088c48be0145c26bcf", "type": "electric_scooter", "is_reserved": 0, "lon": -77.00894666666667}, {"fusion_lat": 0.0, "name": "008ed1c5c1c6e412110ed5a845ed1489", "is_disabled": 0, "rental_uris": {"android": "https://dc.lft.to/lastmile_qr_scan", "ios": "https://dc.lft.to/lastmile_qr_scan"}, "fusion_lon": 0.0, "lat": 38.93447616666667, "bike_id": "008ed1c5c1c6e412110ed5a845ed1489", "type": "electric_scooter", "is_reserved": 0, "lon": -77.0387875}, {"fusion_lat": 0.0, "name": "68c96a91ddeb255c93a781689269193f", "is_disabled": 0, "rental_uris": {"android": "https://dc.lft.to/lastmile_qr_scan", "ios": "https://dc.lft.to/lastmile_qr_scan"}, "fusion_lon": 0.0, "lat": 38.91542283333333, "bike_id": "68c96a91ddeb255c93a781689269193f", "type": "electric_scooter", "is_reserved": 0, "lon": -77.032311}, {"fusion_lat": 0.0, "name": "db8f52cd97db8fdcb1f2cc583bb40d21", "is_disabled": 0, "rental_uris": {"android": "https://dc.lft.to/lastmile_qr_scan", "ios": "https://dc.lft.to/lastmile_qr_scan"}, "fusion_lon": 0.0, "lat": 38.914147, "bike_id": "db8f52cd97db8fdcb1f2cc583bb40d21", "type": "electric_scooter", "is_reserved": 0, "lon": -77.038113}, {"fusion_lat": 0.0, "name": "08f8b314563b092f534bcdc0141fae1f", "is_disabled": 0, "rental_uris": {"android": "https://dc.lft.to/lastmile_qr_scan", "ios": "https://dc.lft.to/lastmile_qr_scan"}, "fusion_lon": 0.0, "lat": 38.879443333333334, "bike_id": "08f8b314563b092f534bcdc0141fae1f", "type": "electric_scooter", "is_reserved": 0, "lon": -77.0082195}, {"fusion_lat": 0.0, "name": "5645a7abcc14a0985601ffc253833d22", "is_disabled": 0, "rental_uris": {"android": "https://dc.lft.to/lastmile_qr_scan", "ios": "https://dc.lft.to/lastmile_qr_scan"}, "fusion_lon": 0.0, "lat": 38.92012716666667, "bike_id": "5645a7abcc14a0985601ffc253833d22", "type": "electric_scooter", "is_reserved": 0, "lon": -77.01746316666667}, {"fusion_lat": 0.0, "name": "a653f0f22559bc9552802bae441e7c4b", "is_disabled": 0, "rental_uris": {"android": "https://dc.lft.to/lastmile_qr_scan", "ios": "https://dc.lft.to/lastmile_qr_scan"}, "fusion_lon": 0.0, "lat": 38.91811033333333, "bike_id": "a653f0f22559bc9552802bae441e7c4b", "type": "electric_scooter", "is_reserved": 0, "lon": -77.039328}, {"fusion_lat": 0.0, "name": "84d9b630956e1ae5798177cef4219aef", "is_disabled": 0, "rental_uris": {"android": "https://dc.lft.to/lastmile_qr_scan", "ios": "https://dc.lft.to/lastmile_qr_scan"}, "fusion_lon": 0.0, "lat": 38.924805166666665, "bike_id": "84d9b630956e1ae5798177cef4219aef", "type": "electric_scooter", "is_reserved": 0, "lon": -77.02651416666667}, {"fusion_lat": 0.0, "name": "23f705ea6fdc54b0661ce8333158e2a4", "is_disabled": 0, "rental_uris": {"android": "https://dc.lft.to/lastmile_qr_scan", "ios": "https://dc.lft.to/lastmile_qr_scan"}, "fusion_lon": 0.0, "lat": 38.905920333333334, "bike_id": "23f705ea6fdc54b0661ce8333158e2a4", "type": "electric_scooter", "is_reserved": 0, "lon": -77.04189016666666}, {"fusion_lat": 0.0, "name": "a16584bc8792a54927d6b03aaf8e32a1", "is_disabled": 0, "rental_uris": {"android": "https://dc.lft.to/lastmile_qr_scan", "ios": "https://dc.lft.to/lastmile_qr_scan"}, "fusion_lon": 0.0, "lat": 38.913127833333334, "bike_id": "a16584bc8792a54927d6b03aaf8e32a1", "type": "electric_scooter", "is_reserved": 0, "lon": -77.04569416666666}, {"fusion_lat": 0.0, "name": "1a60cdfdc1cc3d8c4c1db7782caca16d", "is_disabled": 0, "rental_uris": {"android": "https://dc.lft.to/lastmile_qr_scan", "ios": "https://dc.lft.to/lastmile_qr_scan"}, "fusion_lon": 0.0, "lat": 38.906602, "bike_id": "1a60cdfdc1cc3d8c4c1db7782caca16d", "type": "electric_scooter", "is_reserved": 0, "lon": -77.00900616666667}, {"fusion_lat": 0.0, "name": "dcf04f7881934f650c01f11f2090cdf0", "is_disabled": 0, "rental_uris": {"android": "https://dc.lft.to/lastmile_qr_scan", "ios": "https://dc.lft.to/lastmile_qr_scan"}, "fusion_lon": 0.0, "lat": 38.9154895, "bike_id": "dcf04f7881934f650c01f11f2090cdf0", "type": "electric_scooter", "is_reserved": 0, "lon": -77.03799483333333}, {"fusion_lat": 0.0, "name": "a8c2a9542593c6eac471aaba25bc0a43", "is_disabled": 0, "rental_uris": {"android": "https://dc.lft.to/lastmile_qr_scan", "ios": "https://dc.lft.to/lastmile_qr_scan"}, "fusion_lon": 0.0, "lat": 38.866767333333335, "bike_id": "a8c2a9542593c6eac471aaba25bc0a43", "type": "electric_bike", "is_reserved": 0, "lon": -76.98239566666666}, {"fusion_lat": 0.0, "name": "d82c1944cf93001c4edfab69b75894ee", "is_disabled": 0, "rental_uris": {"android": "https://dc.lft.to/lastmile_qr_scan", "ios": "https://dc.lft.to/lastmile_qr_scan"}, "fusion_lon": 0.0, "lat": 38.906471833333335, "bike_id": "d82c1944cf93001c4edfab69b75894ee", "type": "electric_scooter", "is_reserved": 0, "lon": -77.02394416666667}, {"fusion_lat": 0.0, "name": "990805ca77009ef99fdb68df2ebaa13b", "is_disabled": 0, "rental_uris": {"android": "https://dc.lft.to/lastmile_qr_scan", "ios": "https://dc.lft.to/lastmile_qr_scan"}, "fusion_lon": 0.0, "lat": 38.96231983333333, "bike_id": "990805ca77009ef99fdb68df2ebaa13b", "type": "electric_bike", "is_reserved": 0, "lon": -76.92781616666667}, {"fusion_lat": 0.0, "name": "0b799095795eb3df7a149275626e9467", "is_disabled": 0, "rental_uris": {"android": "https://dc.lft.to/lastmile_qr_scan", "ios": "https://dc.lft.to/lastmile_qr_scan"}, "fusion_lon": 0.0, "lat": 38.918393, "bike_id": "0b799095795eb3df7a149275626e9467", "type": "electric_scooter", "is_reserved": 0, "lon": -76.965403}, {"fusion_lat": 0.0, "name": "23af5e27e887cbf094a9abc6a81e4107", "is_disabled": 0, "rental_uris": {"android": "https://dc.lft.to/lastmile_qr_scan", "ios": "https://dc.lft.to/lastmile_qr_scan"}, "fusion_lon": 0.0, "lat": 38.909460333333335, "bike_id": "23af5e27e887cbf094a9abc6a81e4107", "type": "electric_scooter", "is_reserved": 0, "lon": -77.0321365}, {"fusion_lat": 0.0, "name": "f84f7a2156c6701a6d6348496461b02f", "is_disabled": 0, "rental_uris": {"android": "https://dc.lft.to/lastmile_qr_scan", "ios": "https://dc.lft.to/lastmile_qr_scan"}, "fusion_lon": 0.0, "lat": 38.914687666666666, "bike_id": "f84f7a2156c6701a6d6348496461b02f", "type": "electric_scooter", "is_reserved": 0, "lon": -76.98392683333333}, {"fusion_lat": 0.0, "name": "76d24d8824c69e526a01e258d4ebe33b", "is_disabled": 0, "rental_uris": {"android": "https://dc.lft.to/lastmile_qr_scan", "ios": "https://dc.lft.to/lastmile_qr_scan"}, "fusion_lon": 0.0, "lat": 38.91350216666667, "bike_id": "76d24d8824c69e526a01e258d4ebe33b", "type": "electric_scooter", "is_reserved": 0, "lon": -77.03335666666666}, {"fusion_lat": 0.0, "name": "865093afe114da5cfd04a95d45f80381", "is_disabled": 0, "rental_uris": {"android": "https://dc.lft.to/lastmile_qr_scan", "ios": "https://dc.lft.to/lastmile_qr_scan"}, "fusion_lon": 0.0, "lat": 38.984705, "bike_id": "865093afe114da5cfd04a95d45f80381", "type": "electric_scooter", "is_reserved": 0, "lon": -77.0264645}, {"fusion_lat": 0.0, "name": "1476e3f9616b49c6eb7163fd3156f14f", "is_disabled": 0, "rental_uris": {"android": "https://dc.lft.to/lastmile_qr_scan", "ios": "https://dc.lft.to/lastmile_qr_scan"}, "fusion_lon": 0.0, "lat": 38.926977, "bike_id": "1476e3f9616b49c6eb7163fd3156f14f", "type": "electric_scooter", "is_reserved": 0, "lon": -77.021078}, {"fusion_lat": 0.0, "name": "cd1c7273a7f6739a8801b268fdfe91d0", "is_disabled": 0, "rental_uris": {"android": "https://dc.lft.to/lastmile_qr_scan", "ios": "https://dc.lft.to/lastmile_qr_scan"}, "fusion_lon": 0.0, "lat": 38.949994833333335, "bike_id": "cd1c7273a7f6739a8801b268fdfe91d0", "type": "electric_scooter", "is_reserved": 0, "lon": -77.01951116666666}, {"fusion_lat": 0.0, "name": "b15f993c046f4a8de4cbd5514bdb6701", "is_disabled": 0, "rental_uris": {"android": "https://dc.lft.to/lastmile_qr_scan", "ios": "https://dc.lft.to/lastmile_qr_scan"}, "fusion_lon": 0.0, "lat": 38.90152466666667, "bike_id": "b15f993c046f4a8de4cbd5514bdb6701", "type": "electric_scooter", "is_reserved": 0, "lon": -77.02004416666666}, {"fusion_lat": 0.0, "name": "0d0d337914895b2b601fa2b35196dd43", "is_disabled": 0, "rental_uris": {"android": "https://dc.lft.to/lastmile_qr_scan", "ios": "https://dc.lft.to/lastmile_qr_scan"}, "fusion_lon": 0.0, "lat": 38.91653766666667, "bike_id": "0d0d337914895b2b601fa2b35196dd43", "type": "electric_scooter", "is_reserved": 0, "lon": -77.02817}, {"fusion_lat": 0.0, "name": "57a79c5996f7fd51a750543cc5c65b32", "is_disabled": 0, "rental_uris": {"android": "https://dc.lft.to/lastmile_qr_scan", "ios": "https://dc.lft.to/lastmile_qr_scan"}, "fusion_lon": 0.0, "lat": 38.9184255, "bike_id": "57a79c5996f7fd51a750543cc5c65b32", "type": "electric_scooter", "is_reserved": 0, "lon": -77.040972}, {"fusion_lat": 0.0, "name": "c369e6bb4b1a97ae792681ae2acf14a2", "is_disabled": 0, "rental_uris": {"android": "https://dc.lft.to/lastmile_qr_scan", "ios": "https://dc.lft.to/lastmile_qr_scan"}, "fusion_lon": 0.0, "lat": 38.903749166666664, "bike_id": "c369e6bb4b1a97ae792681ae2acf14a2", "type": "electric_scooter", "is_reserved": 0, "lon": -77.01842883333333}, {"fusion_lat": 0.0, "name": "a5f4af80e2cda599102169a420c981fb", "is_disabled": 0, "rental_uris": {"android": "https://dc.lft.to/lastmile_qr_scan", "ios": "https://dc.lft.to/lastmile_qr_scan"}, "fusion_lon": 0.0, "lat": 38.915155666666664, "bike_id": "a5f4af80e2cda599102169a420c981fb", "type": "electric_scooter", "is_reserved": 0, "lon": -77.02694266666667}, {"fusion_lat": 0.0, "name": "a936874cd8970f10c525eb963c338c25", "is_disabled": 0, "rental_uris": {"android": "https://dc.lft.to/lastmile_qr_scan", "ios": "https://dc.lft.to/lastmile_qr_scan"}, "fusion_lon": 0.0, "lat": 38.91401333333334, "bike_id": "a936874cd8970f10c525eb963c338c25", "type": "electric_scooter", "is_reserved": 0, "lon": -77.032216}, {"fusion_lat": 0.0, "name": "942a27052daaf4d5fbb6a64082235b6e", "is_disabled": 0, "rental_uris": {"android": "https://dc.lft.to/lastmile_qr_scan", "ios": "https://dc.lft.to/lastmile_qr_scan"}, "fusion_lon": 0.0, "lat": 38.890148333333336, "bike_id": "942a27052daaf4d5fbb6a64082235b6e", "type": "electric_scooter", "is_reserved": 0, "lon": -76.93736933333334}, {"fusion_lat": 0.0, "name": "e16d0d862672437e487da9db9ff79eaa", "is_disabled": 0, "rental_uris": {"android": "https://dc.lft.to/lastmile_qr_scan", "ios": "https://dc.lft.to/lastmile_qr_scan"}, "fusion_lon": 0.0, "lat": 38.98392466666667, "bike_id": "e16d0d862672437e487da9db9ff79eaa", "type": "electric_scooter", "is_reserved": 0, "lon": -77.02632066666666}, {"fusion_lat": 0.0, "name": "1dc759026b084c5e62cacf6521a08b7f", "is_disabled": 0, "rental_uris": {"android": "https://dc.lft.to/lastmile_qr_scan", "ios": "https://dc.lft.to/lastmile_qr_scan"}, "fusion_lon": 0.0, "lat": 38.89572016666666, "bike_id": "1dc759026b084c5e62cacf6521a08b7f", "type": "electric_scooter", "is_reserved": 0, "lon": -76.948853}, {"fusion_lat": 0.0, "name": "c0a1f571db32415de3e4e4594242d687", "is_disabled": 0, "rental_uris": {"android": "https://dc.lft.to/lastmile_qr_scan", "ios": "https://dc.lft.to/lastmile_qr_scan"}, "fusion_lon": 0.0, "lat": 38.91835783333333, "bike_id": "c0a1f571db32415de3e4e4594242d687", "type": "electric_scooter", "is_reserved": 0, "lon": -77.0401995}, {"fusion_lat": 0.0, "name": "f95b930fdfc8d9d699b6af0592a0fd59", "is_disabled": 0, "rental_uris": {"android": "https://dc.lft.to/lastmile_qr_scan", "ios": "https://dc.lft.to/lastmile_qr_scan"}, "fusion_lon": 0.0, "lat": 38.94494783333333, "bike_id": "f95b930fdfc8d9d699b6af0592a0fd59", "type": "electric_scooter", "is_reserved": 0, "lon": -77.03880583333333}, {"fusion_lat": 0.0, "name": "a0fb47edf1adc52e74ea676d7fd01d2f", "is_disabled": 0, "rental_uris": {"android": "https://dc.lft.to/lastmile_qr_scan", "ios": "https://dc.lft.to/lastmile_qr_scan"}, "fusion_lon": 0.0, "lat": 38.917817666666664, "bike_id": "a0fb47edf1adc52e74ea676d7fd01d2f", "type": "electric_scooter", "is_reserved": 0, "lon": -77.04096666666666}, {"fusion_lat": 0.0, "name": "1db8372dc6a434fbe32b79b188fba161", "is_disabled": 0, "rental_uris": {"android": "https://dc.lft.to/lastmile_qr_scan", "ios": "https://dc.lft.to/lastmile_qr_scan"}, "fusion_lon": 0.0, "lat": 38.94520933333333, "bike_id": "1db8372dc6a434fbe32b79b188fba161", "type": "electric_scooter", "is_reserved": 0, "lon": -77.02274933333334}, {"fusion_lat": 0.0, "name": "970a4864e0e7812ffeb670b0e653d453", "is_disabled": 0, "rental_uris": {"android": "https://dc.lft.to/lastmile_qr_scan", "ios": "https://dc.lft.to/lastmile_qr_scan"}, "fusion_lon": 0.0, "lat": 38.895037, "bike_id": "970a4864e0e7812ffeb670b0e653d453", "type": "electric_scooter", "is_reserved": 0, "lon": -77.04173766666666}, {"fusion_lat": 0.0, "name": "49886082116b8094f863d187eb6e6d9f", "is_disabled": 0, "rental_uris": {"android": "https://dc.lft.to/lastmile_qr_scan", "ios": "https://dc.lft.to/lastmile_qr_scan"}, "fusion_lon": 0.0, "lat": 38.8800325, "bike_id": "49886082116b8094f863d187eb6e6d9f", "type": "electric_scooter", "is_reserved": 0, "lon": -76.9854955}, {"fusion_lat": 0.0, "name": "1889b95138e6981583f32a168abfc178", "is_disabled": 0, "rental_uris": {"android": "https://dc.lft.to/lastmile_qr_scan", "ios": "https://dc.lft.to/lastmile_qr_scan"}, "fusion_lon": 0.0, "lat": 38.9339665, "bike_id": "1889b95138e6981583f32a168abfc178", "type": "electric_scooter", "is_reserved": 0, "lon": -77.05747116666667}, {"fusion_lat": 0.0, "name": "a08a242b57e3cc7951e2176e7f146c31", "is_disabled": 0, "rental_uris": {"android": "https://dc.lft.to/lastmile_qr_scan", "ios": "https://dc.lft.to/lastmile_qr_scan"}, "fusion_lon": 0.0, "lat": 38.9064445, "bike_id": "a08a242b57e3cc7951e2176e7f146c31", "type": "electric_scooter", "is_reserved": 0, "lon": -77.04869966666666}, {"fusion_lat": 0.0, "name": "aeb648e99e0783f26f496e747d2c991e", "is_disabled": 0, "rental_uris": {"android": "https://dc.lft.to/lastmile_qr_scan", "ios": "https://dc.lft.to/lastmile_qr_scan"}, "fusion_lon": 0.0, "lat": 38.89851866666667, "bike_id": "aeb648e99e0783f26f496e747d2c991e", "type": "electric_scooter", "is_reserved": 0, "lon": -77.02222066666667}, {"fusion_lat": 0.0, "name": "eb30aacc2dba2892fb83bd2336170ebc", "is_disabled": 0, "rental_uris": {"android": "https://dc.lft.to/lastmile_qr_scan", "ios": "https://dc.lft.to/lastmile_qr_scan"}, "fusion_lon": 0.0, "lat": 38.897127833333336, "bike_id": "eb30aacc2dba2892fb83bd2336170ebc", "type": "electric_scooter", "is_reserved": 0, "lon": -77.02365616666667}, {"fusion_lat": 0.0, "name": "ea6f555ab9d6e1a93ca0884666d018b9", "is_disabled": 0, "rental_uris": {"android": "https://dc.lft.to/lastmile_qr_scan", "ios": "https://dc.lft.to/lastmile_qr_scan"}, "fusion_lon": 0.0, "lat": 38.91764633333333, "bike_id": "ea6f555ab9d6e1a93ca0884666d018b9", "type": "electric_scooter", "is_reserved": 0, "lon": -77.0151025}, {"fusion_lat": 0.0, "name": "5726047853225a3e47ef383dffaa01dd", "is_disabled": 0, "rental_uris": {"android": "https://dc.lft.to/lastmile_qr_scan", "ios": "https://dc.lft.to/lastmile_qr_scan"}, "fusion_lon": 0.0, "lat": 38.91155966666667, "bike_id": "5726047853225a3e47ef383dffaa01dd", "type": "electric_scooter", "is_reserved": 0, "lon": -76.98723733333334}, {"fusion_lat": 0.0, "name": "86ee4c0d2f4661aae0ebc4201a23f89a", "is_disabled": 0, "rental_uris": {"android": "https://dc.lft.to/lastmile_qr_scan", "ios": "https://dc.lft.to/lastmile_qr_scan"}, "fusion_lon": 0.0, "lat": 38.90397733333333, "bike_id": "86ee4c0d2f4661aae0ebc4201a23f89a", "type": "electric_scooter", "is_reserved": 0, "lon": -77.03658233333333}, {"fusion_lat": 0.0, "name": "ebe6fe8fef4b454e2826f1a81acc25cb", "is_disabled": 0, "rental_uris": {"android": "https://dc.lft.to/lastmile_qr_scan", "ios": "https://dc.lft.to/lastmile_qr_scan"}, "fusion_lon": 0.0, "lat": 38.9148885, "bike_id": "ebe6fe8fef4b454e2826f1a81acc25cb", "type": "electric_scooter", "is_reserved": 0, "lon": -77.014196}, {"fusion_lat": 0.0, "name": "71aa1ae496c08bbbc71d2c387e362cdf", "is_disabled": 0, "rental_uris": {"android": "https://dc.lft.to/lastmile_qr_scan", "ios": "https://dc.lft.to/lastmile_qr_scan"}, "fusion_lon": 0.0, "lat": 38.88806116666667, "bike_id": "71aa1ae496c08bbbc71d2c387e362cdf", "type": "electric_scooter", "is_reserved": 0, "lon": -76.98360983333333}, {"fusion_lat": 0.0, "name": "eb5f27b05a9815defe6a9b93249443d6", "is_disabled": 0, "rental_uris": {"android": "https://dc.lft.to/lastmile_qr_scan", "ios": "https://dc.lft.to/lastmile_qr_scan"}, "fusion_lon": 0.0, "lat": 38.913417833333334, "bike_id": "eb5f27b05a9815defe6a9b93249443d6", "type": "electric_bike", "is_reserved": 0, "lon": -76.98897966666667}, {"fusion_lat": 0.0, "name": "0d0ba297eb0c56436ce48f0a0c672b03", "is_disabled": 0, "rental_uris": {"android": "https://dc.lft.to/lastmile_qr_scan", "ios": "https://dc.lft.to/lastmile_qr_scan"}, "fusion_lon": 0.0, "lat": 38.926810333333336, "bike_id": "0d0ba297eb0c56436ce48f0a0c672b03", "type": "electric_scooter", "is_reserved": 0, "lon": -77.031485}, {"fusion_lat": 0.0, "name": "e16f68d20fbac999a641378aa0627d48", "is_disabled": 0, "rental_uris": {"android": "https://dc.lft.to/lastmile_qr_scan", "ios": "https://dc.lft.to/lastmile_qr_scan"}, "fusion_lon": 0.0, "lat": 38.924117333333335, "bike_id": "e16f68d20fbac999a641378aa0627d48", "type": "electric_scooter", "is_reserved": 0, "lon": -77.0200965}, {"fusion_lat": 0.0, "name": "e1ba72378435dad27e09711eb77c990c", "is_disabled": 0, "rental_uris": {"android": "https://dc.lft.to/lastmile_qr_scan", "ios": "https://dc.lft.to/lastmile_qr_scan"}, "fusion_lon": 0.0, "lat": 38.87362316666667, "bike_id": "e1ba72378435dad27e09711eb77c990c", "type": "electric_scooter", "is_reserved": 0, "lon": -77.000707}, {"fusion_lat": 0.0, "name": "198311e46f53d4287d674f651485b755", "is_disabled": 0, "rental_uris": {"android": "https://dc.lft.to/lastmile_qr_scan", "ios": "https://dc.lft.to/lastmile_qr_scan"}, "fusion_lon": 0.0, "lat": 38.90264966666667, "bike_id": "198311e46f53d4287d674f651485b755", "type": "electric_scooter", "is_reserved": 0, "lon": -77.00194083333334}, {"fusion_lat": 0.0, "name": "1fd42235543481a12594954df25ee598", "is_disabled": 0, "rental_uris": {"android": "https://dc.lft.to/lastmile_qr_scan", "ios": "https://dc.lft.to/lastmile_qr_scan"}, "fusion_lon": 0.0, "lat": 38.887440166666664, "bike_id": "1fd42235543481a12594954df25ee598", "type": "electric_scooter", "is_reserved": 0, "lon": -76.98359733333334}, {"fusion_lat": 0.0, "name": "c758034cd3330499f9d2d11777277022", "is_disabled": 0, "rental_uris": {"android": "https://dc.lft.to/lastmile_qr_scan", "ios": "https://dc.lft.to/lastmile_qr_scan"}, "fusion_lon": 0.0, "lat": 38.899436, "bike_id": "c758034cd3330499f9d2d11777277022", "type": "electric_scooter", "is_reserved": 0, "lon": -77.05475233333334}, {"fusion_lat": 0.0, "name": "d1073813e7f92901ab59c2c85e880140", "is_disabled": 0, "rental_uris": {"android": "https://dc.lft.to/lastmile_qr_scan", "ios": "https://dc.lft.to/lastmile_qr_scan"}, "fusion_lon": 0.0, "lat": 38.9430385, "bike_id": "d1073813e7f92901ab59c2c85e880140", "type": "electric_scooter", "is_reserved": 0, "lon": -77.0200855}, {"fusion_lat": 0.0, "name": "1cf934f889fca18e6f7a39a37b74e831", "is_disabled": 0, "rental_uris": {"android": "https://dc.lft.to/lastmile_qr_scan", "ios": "https://dc.lft.to/lastmile_qr_scan"}, "fusion_lon": 0.0, "lat": 38.871902166666665, "bike_id": "1cf934f889fca18e6f7a39a37b74e831", "type": "electric_scooter", "is_reserved": 0, "lon": -77.006285}, {"fusion_lat": 0.0, "name": "a174fc773fb701ae1d01f6b1d6110b22", "is_disabled": 0, "rental_uris": {"android": "https://dc.lft.to/lastmile_qr_scan", "ios": "https://dc.lft.to/lastmile_qr_scan"}, "fusion_lon": 0.0, "lat": 38.902961166666664, "bike_id": "a174fc773fb701ae1d01f6b1d6110b22", "type": "electric_scooter", "is_reserved": 0, "lon": -76.992606}, {"fusion_lat": 0.0, "name": "1046ceb4a67e2c3ab12e6336003794cd", "is_disabled": 0, "rental_uris": {"android": "https://dc.lft.to/lastmile_qr_scan", "ios": "https://dc.lft.to/lastmile_qr_scan"}, "fusion_lon": 0.0, "lat": 38.92576283333333, "bike_id": "1046ceb4a67e2c3ab12e6336003794cd", "type": "electric_scooter", "is_reserved": 0, "lon": -77.03746633333333}, {"fusion_lat": 0.0, "name": "a61f49a1fe04322aeb16b46d6fc17409", "is_disabled": 0, "rental_uris": {"android": "https://dc.lft.to/lastmile_qr_scan", "ios": "https://dc.lft.to/lastmile_qr_scan"}, "fusion_lon": 0.0, "lat": 38.8991025, "bike_id": "a61f49a1fe04322aeb16b46d6fc17409", "type": "electric_scooter", "is_reserved": 0, "lon": -76.9335185}, {"fusion_lat": 0.0, "name": "a4258874cb77efa37e3d8bdf4f05a1a2", "is_disabled": 0, "rental_uris": {"android": "https://dc.lft.to/lastmile_qr_scan", "ios": "https://dc.lft.to/lastmile_qr_scan"}, "fusion_lon": 0.0, "lat": 38.929761166666665, "bike_id": "a4258874cb77efa37e3d8bdf4f05a1a2", "type": "electric_bike", "is_reserved": 0, "lon": -77.03773083333333}, {"fusion_lat": 0.0, "name": "a5c88003f7a26f190c8c1ad8686bcb1c", "is_disabled": 0, "rental_uris": {"android": "https://dc.lft.to/lastmile_qr_scan", "ios": "https://dc.lft.to/lastmile_qr_scan"}, "fusion_lon": 0.0, "lat": 38.89726066666667, "bike_id": "a5c88003f7a26f190c8c1ad8686bcb1c", "type": "electric_scooter", "is_reserved": 0, "lon": -77.02144516666667}, {"fusion_lat": 0.0, "name": "9acc00826b27677a61dafdc11375d8af", "is_disabled": 0, "rental_uris": {"android": "https://dc.lft.to/lastmile_qr_scan", "ios": "https://dc.lft.to/lastmile_qr_scan"}, "fusion_lon": 0.0, "lat": 38.934154166666666, "bike_id": "9acc00826b27677a61dafdc11375d8af", "type": "electric_scooter", "is_reserved": 0, "lon": -77.04160716666667}, {"fusion_lat": 0.0, "name": "8db838581c34a6cd30dee2b8f3ca0af6", "is_disabled": 0, "rental_uris": {"android": "https://dc.lft.to/lastmile_qr_scan", "ios": "https://dc.lft.to/lastmile_qr_scan"}, "fusion_lon": 0.0, "lat": 38.914031, "bike_id": "8db838581c34a6cd30dee2b8f3ca0af6", "type": "electric_scooter", "is_reserved": 0, "lon": -77.03176}, {"fusion_lat": 0.0, "name": "d9ac50a5daf10f81fd4ef14fb375e386", "is_disabled": 0, "rental_uris": {"android": "https://dc.lft.to/lastmile_qr_scan", "ios": "https://dc.lft.to/lastmile_qr_scan"}, "fusion_lon": 0.0, "lat": 38.88984133333334, "bike_id": "d9ac50a5daf10f81fd4ef14fb375e386", "type": "electric_scooter", "is_reserved": 0, "lon": -76.99639833333333}, {"fusion_lat": 0.0, "name": "d2b0a6db29ab2bf3ffd031b2e75f5749", "is_disabled": 0, "rental_uris": {"android": "https://dc.lft.to/lastmile_qr_scan", "ios": "https://dc.lft.to/lastmile_qr_scan"}, "fusion_lon": 0.0, "lat": 38.934525, "bike_id": "d2b0a6db29ab2bf3ffd031b2e75f5749", "type": "electric_scooter", "is_reserved": 0, "lon": -77.03869533333334}, {"fusion_lat": 0.0, "name": "15bcfb3b4b6edbdb23c4003d4b542aab", "is_disabled": 0, "rental_uris": {"android": "https://dc.lft.to/lastmile_qr_scan", "ios": "https://dc.lft.to/lastmile_qr_scan"}, "fusion_lon": 0.0, "lat": 38.84909316666667, "bike_id": "15bcfb3b4b6edbdb23c4003d4b542aab", "type": "electric_bike", "is_reserved": 0, "lon": -77.10349866666667}, {"fusion_lat": 0.0, "name": "b0d88c2fce2ee2c3ef364ed1bf899132", "is_disabled": 0, "rental_uris": {"android": "https://dc.lft.to/lastmile_qr_scan", "ios": "https://dc.lft.to/lastmile_qr_scan"}, "fusion_lon": 0.0, "lat": 38.89988066666667, "bike_id": "b0d88c2fce2ee2c3ef364ed1bf899132", "type": "electric_scooter", "is_reserved": 0, "lon": -77.0220825}, {"fusion_lat": 0.0, "name": "843a725456a148654c6c9f0d0126740e", "is_disabled": 0, "rental_uris": {"android": "https://dc.lft.to/lastmile_qr_scan", "ios": "https://dc.lft.to/lastmile_qr_scan"}, "fusion_lon": 0.0, "lat": 38.9083395, "bike_id": "843a725456a148654c6c9f0d0126740e", "type": "electric_scooter", "is_reserved": 0, "lon": -76.99975766666667}, {"fusion_lat": 0.0, "name": "f8de9ecd26f8598515de3f56aaa0958b", "is_disabled": 0, "rental_uris": {"android": "https://dc.lft.to/lastmile_qr_scan", "ios": "https://dc.lft.to/lastmile_qr_scan"}, "fusion_lon": 0.0, "lat": 38.939466, "bike_id": "f8de9ecd26f8598515de3f56aaa0958b", "type": "electric_scooter", "is_reserved": 0, "lon": -77.03332833333333}, {"fusion_lat": 0.0, "name": "5c06a85d0fbcaa506fd3f4c448138f18", "is_disabled": 0, "rental_uris": {"android": "https://dc.lft.to/lastmile_qr_scan", "ios": "https://dc.lft.to/lastmile_qr_scan"}, "fusion_lon": 0.0, "lat": 38.92779816666667, "bike_id": "5c06a85d0fbcaa506fd3f4c448138f18", "type": "electric_scooter", "is_reserved": 0, "lon": -77.03593616666667}, {"fusion_lat": 0.0, "name": "8987879e96c23fd29d81694815d0b4e3", "is_disabled": 0, "rental_uris": {"android": "https://dc.lft.to/lastmile_qr_scan", "ios": "https://dc.lft.to/lastmile_qr_scan"}, "fusion_lon": 0.0, "lat": 38.889864333333335, "bike_id": "8987879e96c23fd29d81694815d0b4e3", "type": "electric_scooter", "is_reserved": 0, "lon": -76.98739716666667}, {"fusion_lat": 0.0, "name": "308b5dc4226c9e6563bf2806b54c53cc", "is_disabled": 0, "rental_uris": {"android": "https://dc.lft.to/lastmile_qr_scan", "ios": "https://dc.lft.to/lastmile_qr_scan"}, "fusion_lon": 0.0, "lat": 38.90939316666667, "bike_id": "308b5dc4226c9e6563bf2806b54c53cc", "type": "electric_scooter", "is_reserved": 0, "lon": -77.0212675}, {"fusion_lat": 0.0, "name": "bc0d483b87ef2926cfeee2c2c01396b8", "is_disabled": 0, "rental_uris": {"android": "https://dc.lft.to/lastmile_qr_scan", "ios": "https://dc.lft.to/lastmile_qr_scan"}, "fusion_lon": 0.0, "lat": 38.934788833333336, "bike_id": "bc0d483b87ef2926cfeee2c2c01396b8", "type": "electric_scooter", "is_reserved": 0, "lon": -77.045365}, {"fusion_lat": 0.0, "name": "f6daed1e001f30066f157bf9f2ed24be", "is_disabled": 0, "rental_uris": {"android": "https://dc.lft.to/lastmile_qr_scan", "ios": "https://dc.lft.to/lastmile_qr_scan"}, "fusion_lon": 0.0, "lat": 38.90234183333333, "bike_id": "f6daed1e001f30066f157bf9f2ed24be", "type": "electric_scooter", "is_reserved": 0, "lon": -77.027178}, {"fusion_lat": 0.0, "name": "10cd81aca0482a6c5d56efef5b1205e8", "is_disabled": 0, "rental_uris": {"android": "https://dc.lft.to/lastmile_qr_scan", "ios": "https://dc.lft.to/lastmile_qr_scan"}, "fusion_lon": 0.0, "lat": 38.896655, "bike_id": "10cd81aca0482a6c5d56efef5b1205e8", "type": "electric_scooter", "is_reserved": 0, "lon": -76.93213666666666}, {"fusion_lat": 0.0, "name": "05c208714078102a4fb67fc95ed9d356", "is_disabled": 0, "rental_uris": {"android": "https://dc.lft.to/lastmile_qr_scan", "ios": "https://dc.lft.to/lastmile_qr_scan"}, "fusion_lon": 0.0, "lat": 38.90934383333333, "bike_id": "05c208714078102a4fb67fc95ed9d356", "type": "electric_scooter", "is_reserved": 0, "lon": -77.06271516666666}, {"fusion_lat": 0.0, "name": "05e3528271f7b7beb70d7edfa257631f", "is_disabled": 0, "rental_uris": {"android": "https://dc.lft.to/lastmile_qr_scan", "ios": "https://dc.lft.to/lastmile_qr_scan"}, "fusion_lon": 0.0, "lat": 38.9396115, "bike_id": "05e3528271f7b7beb70d7edfa257631f", "type": "electric_scooter", "is_reserved": 0, "lon": -77.03284116666667}, {"fusion_lat": 0.0, "name": "e83c1f30eb6dc955a0f9a08bff0aafa5", "is_disabled": 0, "rental_uris": {"android": "https://dc.lft.to/lastmile_qr_scan", "ios": "https://dc.lft.to/lastmile_qr_scan"}, "fusion_lon": 0.0, "lat": 38.91515016666666, "bike_id": "e83c1f30eb6dc955a0f9a08bff0aafa5", "type": "electric_scooter", "is_reserved": 0, "lon": -77.07279566666666}, {"fusion_lat": 0.0, "name": "8ec59b40701ea9784886500555855521", "is_disabled": 0, "rental_uris": {"android": "https://dc.lft.to/lastmile_qr_scan", "ios": "https://dc.lft.to/lastmile_qr_scan"}, "fusion_lon": 0.0, "lat": 38.9535495, "bike_id": "8ec59b40701ea9784886500555855521", "type": "electric_bike", "is_reserved": 0, "lon": -76.98093583333333}, {"fusion_lat": 0.0, "name": "8366fdf799857181c2391e6f27f7c422", "is_disabled": 0, "rental_uris": {"android": "https://dc.lft.to/lastmile_qr_scan", "ios": "https://dc.lft.to/lastmile_qr_scan"}, "fusion_lon": 0.0, "lat": 38.90514666666667, "bike_id": "8366fdf799857181c2391e6f27f7c422", "type": "electric_scooter", "is_reserved": 0, "lon": -77.06779333333333}, {"fusion_lat": 0.0, "name": "b5917f93166907f0b3600e1c76da5b27", "is_disabled": 0, "rental_uris": {"android": "https://dc.lft.to/lastmile_qr_scan", "ios": "https://dc.lft.to/lastmile_qr_scan"}, "fusion_lon": 0.0, "lat": 38.924925333333334, "bike_id": "b5917f93166907f0b3600e1c76da5b27", "type": "electric_bike", "is_reserved": 0, "lon": -77.23339483333334}, {"fusion_lat": 0.0, "name": "05c0fc9cb398c8e96f889c0e7448f5ba", "is_disabled": 0, "rental_uris": {"android": "https://dc.lft.to/lastmile_qr_scan", "ios": "https://dc.lft.to/lastmile_qr_scan"}, "fusion_lon": 0.0, "lat": 38.93116966666667, "bike_id": "05c0fc9cb398c8e96f889c0e7448f5ba", "type": "electric_scooter", "is_reserved": 0, "lon": -77.02086183333333}, {"fusion_lat": 0.0, "name": "51ab5551bdb83e1af544190fcf79d258", "is_disabled": 0, "rental_uris": {"android": "https://dc.lft.to/lastmile_qr_scan", "ios": "https://dc.lft.to/lastmile_qr_scan"}, "fusion_lon": 0.0, "lat": 38.93262133333333, "bike_id": "51ab5551bdb83e1af544190fcf79d258", "type": "electric_scooter", "is_reserved": 0, "lon": -77.0192055}, {"fusion_lat": 0.0, "name": "372c703578171bd1bb8d93e8e89c354d", "is_disabled": 0, "rental_uris": {"android": "https://dc.lft.to/lastmile_qr_scan", "ios": "https://dc.lft.to/lastmile_qr_scan"}, "fusion_lon": 0.0, "lat": 38.900417, "bike_id": "372c703578171bd1bb8d93e8e89c354d", "type": "electric_scooter", "is_reserved": 0, "lon": -77.0319395}, {"fusion_lat": 0.0, "name": "3e769935eb5d38178f147bd6796d3110", "is_disabled": 0, "rental_uris": {"android": "https://dc.lft.to/lastmile_qr_scan", "ios": "https://dc.lft.to/lastmile_qr_scan"}, "fusion_lon": 0.0, "lat": 38.88231183333333, "bike_id": "3e769935eb5d38178f147bd6796d3110", "type": "electric_scooter", "is_reserved": 0, "lon": -77.02617333333333}, {"fusion_lat": 0.0, "name": "30dea94ea7ed1c75b4c527e1a031bc04", "is_disabled": 0, "rental_uris": {"android": "https://dc.lft.to/lastmile_qr_scan", "ios": "https://dc.lft.to/lastmile_qr_scan"}, "fusion_lon": 0.0, "lat": 38.88487766666667, "bike_id": "30dea94ea7ed1c75b4c527e1a031bc04", "type": "electric_scooter", "is_reserved": 0, "lon": -77.00714866666667}, {"fusion_lat": 0.0, "name": "f667924c81864f442368ebb24ec008e6", "is_disabled": 0, "rental_uris": {"android": "https://dc.lft.to/lastmile_qr_scan", "ios": "https://dc.lft.to/lastmile_qr_scan"}, "fusion_lon": 0.0, "lat": 38.92683366666667, "bike_id": "f667924c81864f442368ebb24ec008e6", "type": "electric_scooter", "is_reserved": 0, "lon": -77.02275766666666}, {"fusion_lat": 0.0, "name": "be1e11aa6094987dfcc5454abb8a0da6", "is_disabled": 0, "rental_uris": {"android": "https://dc.lft.to/lastmile_qr_scan", "ios": "https://dc.lft.to/lastmile_qr_scan"}, "fusion_lon": 0.0, "lat": 38.899904, "bike_id": "be1e11aa6094987dfcc5454abb8a0da6", "type": "electric_scooter", "is_reserved": 0, "lon": -76.9900635}, {"fusion_lat": 0.0, "name": "903a45cfbbf5483cde9026ff14185c25", "is_disabled": 0, "rental_uris": {"android": "https://dc.lft.to/lastmile_qr_scan", "ios": "https://dc.lft.to/lastmile_qr_scan"}, "fusion_lon": 0.0, "lat": 38.90147133333333, "bike_id": "903a45cfbbf5483cde9026ff14185c25", "type": "electric_scooter", "is_reserved": 0, "lon": -77.0229815}, {"fusion_lat": 0.0, "name": "944f9ca3751e3d268feb6b6a8ab563fc", "is_disabled": 0, "rental_uris": {"android": "https://dc.lft.to/lastmile_qr_scan", "ios": "https://dc.lft.to/lastmile_qr_scan"}, "fusion_lon": 0.0, "lat": 38.92768933333333, "bike_id": "944f9ca3751e3d268feb6b6a8ab563fc", "type": "electric_scooter", "is_reserved": 0, "lon": -77.02784233333334}, {"fusion_lat": 0.0, "name": "15f1545a0f861de7059b77d1ce99ff27", "is_disabled": 0, "rental_uris": {"android": "https://dc.lft.to/lastmile_qr_scan", "ios": "https://dc.lft.to/lastmile_qr_scan"}, "fusion_lon": 0.0, "lat": 38.9648365, "bike_id": "15f1545a0f861de7059b77d1ce99ff27", "type": "electric_bike", "is_reserved": 0, "lon": -77.0221615}, {"fusion_lat": 0.0, "name": "57f39337988ae118d0cce02048e7806e", "is_disabled": 0, "rental_uris": {"android": "https://dc.lft.to/lastmile_qr_scan", "ios": "https://dc.lft.to/lastmile_qr_scan"}, "fusion_lon": 0.0, "lat": 38.89873083333333, "bike_id": "57f39337988ae118d0cce02048e7806e", "type": "electric_scooter", "is_reserved": 0, "lon": -76.9318405}, {"fusion_lat": 0.0, "name": "f336fd35586d612a6ff0469e4245b664", "is_disabled": 0, "rental_uris": {"android": "https://dc.lft.to/lastmile_qr_scan", "ios": "https://dc.lft.to/lastmile_qr_scan"}, "fusion_lon": 0.0, "lat": 38.92419266666667, "bike_id": "f336fd35586d612a6ff0469e4245b664", "type": "electric_scooter", "is_reserved": 0, "lon": -77.02716016666666}, {"fusion_lat": 0.0, "name": "7534a22b4539ea8c2b61da306e0dcb4a", "is_disabled": 0, "rental_uris": {"android": "https://dc.lft.to/lastmile_qr_scan", "ios": "https://dc.lft.to/lastmile_qr_scan"}, "fusion_lon": 0.0, "lat": 38.91878766666667, "bike_id": "7534a22b4539ea8c2b61da306e0dcb4a", "type": "electric_scooter", "is_reserved": 0, "lon": -77.02290783333333}, {"fusion_lat": 0.0, "name": "4fa230b54bf18b57561ff2261bd44415", "is_disabled": 0, "rental_uris": {"android": "https://dc.lft.to/lastmile_qr_scan", "ios": "https://dc.lft.to/lastmile_qr_scan"}, "fusion_lon": 0.0, "lat": 38.9243835, "bike_id": "4fa230b54bf18b57561ff2261bd44415", "type": "electric_scooter", "is_reserved": 0, "lon": -77.02021966666666}, {"fusion_lat": 0.0, "name": "b5879b9f9e3b494a1c5e47cf8c0199fe", "is_disabled": 0, "rental_uris": {"android": "https://dc.lft.to/lastmile_qr_scan", "ios": "https://dc.lft.to/lastmile_qr_scan"}, "fusion_lon": 0.0, "lat": 38.87814483333333, "bike_id": "b5879b9f9e3b494a1c5e47cf8c0199fe", "type": "electric_scooter", "is_reserved": 0, "lon": -77.01329966666667}, {"fusion_lat": 0.0, "name": "abda203ba9743a313fc3e94adaa676b0", "is_disabled": 0, "rental_uris": {"android": "https://dc.lft.to/lastmile_qr_scan", "ios": "https://dc.lft.to/lastmile_qr_scan"}, "fusion_lon": 0.0, "lat": 38.876923166666664, "bike_id": "abda203ba9743a313fc3e94adaa676b0", "type": "electric_scooter", "is_reserved": 0, "lon": -77.00750416666666}, {"fusion_lat": 0.0, "name": "11718935efa04aa28cc707cc6be492f8", "is_disabled": 0, "rental_uris": {"android": "https://dc.lft.to/lastmile_qr_scan", "ios": "https://dc.lft.to/lastmile_qr_scan"}, "fusion_lon": 0.0, "lat": 38.93042633333334, "bike_id": "11718935efa04aa28cc707cc6be492f8", "type": "electric_scooter", "is_reserved": 0, "lon": -77.040637}, {"fusion_lat": 0.0, "name": "58584cca21977adc8adf02d23f14e6ba", "is_disabled": 0, "rental_uris": {"android": "https://dc.lft.to/lastmile_qr_scan", "ios": "https://dc.lft.to/lastmile_qr_scan"}, "fusion_lon": 0.0, "lat": 38.91926333333333, "bike_id": "58584cca21977adc8adf02d23f14e6ba", "type": "electric_scooter", "is_reserved": 0, "lon": -77.01208916666667}, {"fusion_lat": 0.0, "name": "b2158f5608f9120f7cfef083cce16da6", "is_disabled": 0, "rental_uris": {"android": "https://dc.lft.to/lastmile_qr_scan", "ios": "https://dc.lft.to/lastmile_qr_scan"}, "fusion_lon": 0.0, "lat": 38.91677116666666, "bike_id": "b2158f5608f9120f7cfef083cce16da6", "type": "electric_scooter", "is_reserved": 0, "lon": -77.02974783333333}, {"fusion_lat": 0.0, "name": "eb026f80cd6e0e7f9aaddbcbf8f8af2f", "is_disabled": 0, "rental_uris": {"android": "https://dc.lft.to/lastmile_qr_scan", "ios": "https://dc.lft.to/lastmile_qr_scan"}, "fusion_lon": 0.0, "lat": 38.9561575, "bike_id": "eb026f80cd6e0e7f9aaddbcbf8f8af2f", "type": "electric_bike", "is_reserved": 0, "lon": -76.93875783333333}, {"fusion_lat": 0.0, "name": "452d955ccd730ab4d39f77acb5dca501", "is_disabled": 0, "rental_uris": {"android": "https://dc.lft.to/lastmile_qr_scan", "ios": "https://dc.lft.to/lastmile_qr_scan"}, "fusion_lon": 0.0, "lat": 38.902836666666666, "bike_id": "452d955ccd730ab4d39f77acb5dca501", "type": "electric_scooter", "is_reserved": 0, "lon": -77.0366065}, {"fusion_lat": 0.0, "name": "d00dea384d29fee8a289dcfcc6ead70d", "is_disabled": 0, "rental_uris": {"android": "https://dc.lft.to/lastmile_qr_scan", "ios": "https://dc.lft.to/lastmile_qr_scan"}, "fusion_lon": 0.0, "lat": 38.930034166666665, "bike_id": "d00dea384d29fee8a289dcfcc6ead70d", "type": "electric_scooter", "is_reserved": 0, "lon": -77.02114}, {"fusion_lat": 0.0, "name": "653d2f6c2d016801545deccf4387d912", "is_disabled": 0, "rental_uris": {"android": "https://dc.lft.to/lastmile_qr_scan", "ios": "https://dc.lft.to/lastmile_qr_scan"}, "fusion_lon": 0.0, "lat": 38.89959416666667, "bike_id": "653d2f6c2d016801545deccf4387d912", "type": "electric_bike", "is_reserved": 0, "lon": -77.04504233333333}, {"fusion_lat": 0.0, "name": "cae76f0679e231e55b8c876b30145c4c", "is_disabled": 0, "rental_uris": {"android": "https://dc.lft.to/lastmile_qr_scan", "ios": "https://dc.lft.to/lastmile_qr_scan"}, "fusion_lon": 0.0, "lat": 38.9452625, "bike_id": "cae76f0679e231e55b8c876b30145c4c", "type": "electric_scooter", "is_reserved": 0, "lon": -77.0209125}, {"fusion_lat": 0.0, "name": "f95ff0db584322423691caa90b1b11f8", "is_disabled": 0, "rental_uris": {"android": "https://dc.lft.to/lastmile_qr_scan", "ios": "https://dc.lft.to/lastmile_qr_scan"}, "fusion_lon": 0.0, "lat": 39.01075683333333, "bike_id": "f95ff0db584322423691caa90b1b11f8", "type": "electric_bike", "is_reserved": 0, "lon": -76.9106475}, {"fusion_lat": 0.0, "name": "b43872a7e4dc9fe890bcc2e3fadbd202", "is_disabled": 0, "rental_uris": {"android": "https://dc.lft.to/lastmile_qr_scan", "ios": "https://dc.lft.to/lastmile_qr_scan"}, "fusion_lon": 0.0, "lat": 38.905931, "bike_id": "b43872a7e4dc9fe890bcc2e3fadbd202", "type": "electric_scooter", "is_reserved": 0, "lon": -77.0401215}, {"fusion_lat": 0.0, "name": "e2848936768a29a66d209209af4b1488", "is_disabled": 0, "rental_uris": {"android": "https://dc.lft.to/lastmile_qr_scan", "ios": "https://dc.lft.to/lastmile_qr_scan"}, "fusion_lon": 0.0, "lat": 38.88159116666667, "bike_id": "e2848936768a29a66d209209af4b1488", "type": "electric_scooter", "is_reserved": 0, "lon": -77.02770783333334}, {"fusion_lat": 0.0, "name": "7e264ba55c0230d7ec80b872a76094af", "is_disabled": 0, "rental_uris": {"android": "https://dc.lft.to/lastmile_qr_scan", "ios": "https://dc.lft.to/lastmile_qr_scan"}, "fusion_lon": 0.0, "lat": 38.89479933333333, "bike_id": "7e264ba55c0230d7ec80b872a76094af", "type": "electric_scooter", "is_reserved": 0, "lon": -77.01091083333333}, {"fusion_lat": 0.0, "name": "59589c1d2e86ee7f5a5f71ed0e4d0a1f", "is_disabled": 0, "rental_uris": {"android": "https://dc.lft.to/lastmile_qr_scan", "ios": "https://dc.lft.to/lastmile_qr_scan"}, "fusion_lon": 0.0, "lat": 38.90728716666667, "bike_id": "59589c1d2e86ee7f5a5f71ed0e4d0a1f", "type": "electric_scooter", "is_reserved": 0, "lon": -77.04002816666667}, {"fusion_lat": 0.0, "name": "53625497ec92ba62b482b13e7d8f6c31", "is_disabled": 0, "rental_uris": {"android": "https://dc.lft.to/lastmile_qr_scan", "ios": "https://dc.lft.to/lastmile_qr_scan"}, "fusion_lon": 0.0, "lat": 38.91565533333333, "bike_id": "53625497ec92ba62b482b13e7d8f6c31", "type": "electric_scooter", "is_reserved": 0, "lon": -77.0318435}, {"fusion_lat": 0.0, "name": "a9614ea434c4111c80c89fa4d9d98553", "is_disabled": 0, "rental_uris": {"android": "https://dc.lft.to/lastmile_qr_scan", "ios": "https://dc.lft.to/lastmile_qr_scan"}, "fusion_lon": 0.0, "lat": 38.900579666666665, "bike_id": "a9614ea434c4111c80c89fa4d9d98553", "type": "electric_scooter", "is_reserved": 0, "lon": -77.04542883333333}, {"fusion_lat": 0.0, "name": "bfe548b438aabf98934481af8af039e1", "is_disabled": 0, "rental_uris": {"android": "https://dc.lft.to/lastmile_qr_scan", "ios": "https://dc.lft.to/lastmile_qr_scan"}, "fusion_lon": 0.0, "lat": 38.93144366666667, "bike_id": "bfe548b438aabf98934481af8af039e1", "type": "electric_scooter", "is_reserved": 0, "lon": -77.03972833333333}, {"fusion_lat": 0.0, "name": "ca146109b81779da736f7586a8e448d2", "is_disabled": 0, "rental_uris": {"android": "https://dc.lft.to/lastmile_qr_scan", "ios": "https://dc.lft.to/lastmile_qr_scan"}, "fusion_lon": 0.0, "lat": 38.9073135, "bike_id": "ca146109b81779da736f7586a8e448d2", "type": "electric_scooter", "is_reserved": 0, "lon": -77.0206985}, {"fusion_lat": 0.0, "name": "f4696c04ede699f30d1ef1480cf1a540", "is_disabled": 0, "rental_uris": {"android": "https://dc.lft.to/lastmile_qr_scan", "ios": "https://dc.lft.to/lastmile_qr_scan"}, "fusion_lon": 0.0, "lat": 38.91561766666667, "bike_id": "f4696c04ede699f30d1ef1480cf1a540", "type": "electric_scooter", "is_reserved": 0, "lon": -77.04217733333333}, {"fusion_lat": 0.0, "name": "41faa0124080129c6a0c55c6dae1c8f8", "is_disabled": 0, "rental_uris": {"android": "https://dc.lft.to/lastmile_qr_scan", "ios": "https://dc.lft.to/lastmile_qr_scan"}, "fusion_lon": 0.0, "lat": 38.9022445, "bike_id": "41faa0124080129c6a0c55c6dae1c8f8", "type": "electric_scooter", "is_reserved": 0, "lon": -77.03477533333333}, {"fusion_lat": 0.0, "name": "06e2413d77532f256c1247dec0b8e835", "is_disabled": 0, "rental_uris": {"android": "https://dc.lft.to/lastmile_qr_scan", "ios": "https://dc.lft.to/lastmile_qr_scan"}, "fusion_lon": 0.0, "lat": 38.8349585, "bike_id": "06e2413d77532f256c1247dec0b8e835", "type": "electric_bike", "is_reserved": 0, "lon": -77.09021566666667}, {"fusion_lat": 0.0, "name": "c23578acb3ed192d98c5084183056863", "is_disabled": 0, "rental_uris": {"android": "https://dc.lft.to/lastmile_qr_scan", "ios": "https://dc.lft.to/lastmile_qr_scan"}, "fusion_lon": 0.0, "lat": 38.950837666666665, "bike_id": "c23578acb3ed192d98c5084183056863", "type": "electric_bike", "is_reserved": 0, "lon": -77.01231333333334}, {"fusion_lat": 0.0, "name": "ff56acf409d75866b3a42695be9c66fc", "is_disabled": 0, "rental_uris": {"android": "https://dc.lft.to/lastmile_qr_scan", "ios": "https://dc.lft.to/lastmile_qr_scan"}, "fusion_lon": 0.0, "lat": 38.91380783333334, "bike_id": "ff56acf409d75866b3a42695be9c66fc", "type": "electric_scooter", "is_reserved": 0, "lon": -77.03216616666667}, {"fusion_lat": 0.0, "name": "ad38daa099eb1c54e137f74cffc4e2a2", "is_disabled": 0, "rental_uris": {"android": "https://dc.lft.to/lastmile_qr_scan", "ios": "https://dc.lft.to/lastmile_qr_scan"}, "fusion_lon": 0.0, "lat": 38.887029, "bike_id": "ad38daa099eb1c54e137f74cffc4e2a2", "type": "electric_scooter", "is_reserved": 0, "lon": -76.99608066666667}, {"fusion_lat": 0.0, "name": "fefb16c0e1378872630dfa676a68c841", "is_disabled": 0, "rental_uris": {"android": "https://dc.lft.to/lastmile_qr_scan", "ios": "https://dc.lft.to/lastmile_qr_scan"}, "fusion_lon": 0.0, "lat": 38.81936133333333, "bike_id": "fefb16c0e1378872630dfa676a68c841", "type": "electric_bike", "is_reserved": 0, "lon": -77.00206216666666}, {"fusion_lat": 0.0, "name": "8c731f4058a4a5d0f6777c2cb92c1e7a", "is_disabled": 0, "rental_uris": {"android": "https://dc.lft.to/lastmile_qr_scan", "ios": "https://dc.lft.to/lastmile_qr_scan"}, "fusion_lon": 0.0, "lat": 38.907605333333336, "bike_id": "8c731f4058a4a5d0f6777c2cb92c1e7a", "type": "electric_scooter", "is_reserved": 0, "lon": -77.04267966666667}, {"fusion_lat": 0.0, "name": "fcd0b1615d69c3834d548f0a06b5eccb", "is_disabled": 0, "rental_uris": {"android": "https://dc.lft.to/lastmile_qr_scan", "ios": "https://dc.lft.to/lastmile_qr_scan"}, "fusion_lon": 0.0, "lat": 38.903917666666665, "bike_id": "fcd0b1615d69c3834d548f0a06b5eccb", "type": "electric_scooter", "is_reserved": 0, "lon": -76.99010616666666}, {"fusion_lat": 0.0, "name": "dff7afedceba8a9001c97fe84dc67275", "is_disabled": 0, "rental_uris": {"android": "https://dc.lft.to/lastmile_qr_scan", "ios": "https://dc.lft.to/lastmile_qr_scan"}, "fusion_lon": 0.0, "lat": 38.923142666666664, "bike_id": "dff7afedceba8a9001c97fe84dc67275", "type": "electric_scooter", "is_reserved": 0, "lon": -77.0204415}, {"fusion_lat": 0.0, "name": "28046ed066c332d30bdb86d5f8331c72", "is_disabled": 0, "rental_uris": {"android": "https://dc.lft.to/lastmile_qr_scan", "ios": "https://dc.lft.to/lastmile_qr_scan"}, "fusion_lon": 0.0, "lat": 38.93447666666667, "bike_id": "28046ed066c332d30bdb86d5f8331c72", "type": "electric_scooter", "is_reserved": 0, "lon": -77.02976016666666}, {"fusion_lat": 0.0, "name": "d5295d5f3f9ab8ef571482c4734a03de", "is_disabled": 0, "rental_uris": {"android": "https://dc.lft.to/lastmile_qr_scan", "ios": "https://dc.lft.to/lastmile_qr_scan"}, "fusion_lon": 0.0, "lat": 38.93073833333333, "bike_id": "d5295d5f3f9ab8ef571482c4734a03de", "type": "electric_scooter", "is_reserved": 0, "lon": -77.07761933333333}, {"fusion_lat": 0.0, "name": "813a3423ad0144184c3b46e9d2e78df7", "is_disabled": 0, "rental_uris": {"android": "https://dc.lft.to/lastmile_qr_scan", "ios": "https://dc.lft.to/lastmile_qr_scan"}, "fusion_lon": 0.0, "lat": 38.93522016666667, "bike_id": "813a3423ad0144184c3b46e9d2e78df7", "type": "electric_scooter", "is_reserved": 0, "lon": -77.03261716666667}, {"fusion_lat": 0.0, "name": "691e81249216fce1af701b2dc64e4835", "is_disabled": 0, "rental_uris": {"android": "https://dc.lft.to/lastmile_qr_scan", "ios": "https://dc.lft.to/lastmile_qr_scan"}, "fusion_lon": 0.0, "lat": 38.90468383333334, "bike_id": "691e81249216fce1af701b2dc64e4835", "type": "electric_scooter", "is_reserved": 0, "lon": -77.03219233333333}, {"fusion_lat": 0.0, "name": "afb7278109fd231c7ee8efb3b2649629", "is_disabled": 0, "rental_uris": {"android": "https://dc.lft.to/lastmile_qr_scan", "ios": "https://dc.lft.to/lastmile_qr_scan"}, "fusion_lon": 0.0, "lat": 38.9025775, "bike_id": "afb7278109fd231c7ee8efb3b2649629", "type": "electric_scooter", "is_reserved": 0, "lon": -76.97455716666667},