{"data": {"bikes": [{"lon": -77.032192, "rental_uris": {"android": "https://dc.lft.to/lastmile_qr_scan", "ios": "https://dc.lft.to/lastmile_qr_scan"}, "fusion_lon": 0.0, "is_reserved": 0, "is_disabled": 0, "fusion_lat": 0.0, "type": "electric_scooter", "name": "586599765f3dc1b88334b6fdebcfe800", "lat": 38.8921945, "bike_id": "586599765f3dc1b88334b6fdebcfe800"}, {"lon": -77.03047983333333, "rental_uris": {"android": "https://dc.lft.to/lastmile_qr_scan", "ios": "https://dc.lft.to/lastmile_qr_scan"}, "fusion_lon": 0.0, "is_reserved": 0, "is_disabled": 0, "fusion_lat": 0.0, "type": "electric_scooter", "name": "3d92fb3154673899a31d69c1cbdd9405", "lat": 38.916844166666664, "bike_id": "3d92fb3154673899a31d69c1cbdd9405"}, {"lon": -77.04349983333333, "rental_uris": {"android": "https://dc.lft.to/lastmile_qr_scan", "ios": "https://dc.lft.to/lastmile_qr_scan"}, "fusion_lon": 0.0, "is_reserved": 0, "is_disabled": 0, "fusion_lat": 0.0, "type": "electric_bike", "name": "e1e80205eb8c3aee63153cd61fd6997f", "lat": 38.903696333333336, "bike_id": "e1e80205eb8c3aee63153cd61fd6997f"}, {"lon": -77.03038783333334, "rental_uris": {"android": "https://dc.lft.to/lastmile_qr_scan", "ios": "https://dc.lft.to/lastmile_qr_scan"}, "fusion_lon": 0.0, "is_reserved": 0, "is_disabled": 0, "fusion_lat": 0.0, "type": "electric_scooter", "name": "489c5f63a1cac71f5f085987efb6a6bc", "lat": 38.8983205, "bike_id": "489c5f63a1cac71f5f085987efb6a6bc"}, {"lon": -77.02204466666667, "rental_uris": {"android": "https://dc.lft.to/lastmile_qr_scan", "ios": "https://dc.lft.to/lastmile_qr_scan"}, "fusion_lon": 0.0, "is_reserved": 0, "is_disabled": 0, "fusion_lat": 0.0, "type": "electric_scooter", "name": "4e5f63343e644477b89a83f33e95c68c", "lat": 38.903612833333334, "bike_id": "4e5f63343e644477b89a83f33e95c68c"}, {"lon": -77.02701583333334, "rental_uris": {"android": "https://dc.lft.to/lastmile_qr_scan", "ios": "https://dc.lft.to/lastmile_qr_scan"}, "fusion_lon": 0.0, "is_reserved": 0, "is_disabled": 0, "fusion_lat": 0.0, "type": "electric_scooter", "name": "016c673233322305d609466baeae2764", "lat": 38.917276666666666, "bike_id": "016c673233322305d609466baeae2764"}, {"lon": -77.04009866666667, "rental_uris": {"android": "https://dc.lft.to/lastmile_qr_scan", "ios": "https://dc.lft.to/lastmile_qr_scan"}, "fusion_lon": 0.0, "is_reserved": 0, "is_disabled": 0, "fusion_lat": 0.0, "type": "electric_scooter", "name": "860c33421903416d7f7a1d049140c479", "lat": 38.898564666666665, "bike_id": "860c33421903416d7f7a1d049140c479"}, {"lon": -77.01950533333333, "rental_uris": {"android": "https://dc.lft.to/lastmile_qr_scan", "ios": "https://dc.lft.to/lastmile_qr_scan"}, "fusion_lon": 0.0, "is_reserved": 0, "is_disabled": 0, "fusion_lat": 0.0, "type": "electric_scooter", "name": "ea66fb118eae5a6075f581265ceec183", "lat": 38.92418966666666, "bike_id": "ea66fb118eae5a6075f581265ceec183"}, {"lon": -77.0322655, "rental_uris": {"android": "https://dc.lft.to/lastmile_qr_scan", "ios": "https://dc.lft.to/lastmile_qr_scan"}, "fusion_lon": 0.0, "is_reserved": 0, "is_disabled": 0, "fusion_lat": 0.0, "type": "electric_scooter", "name": "a855d04323dea1adb5a5738ccd5aa715", "lat": 38.91489416666667, "bike_id": "a855d04323dea1adb5a5738ccd5aa715"}, {"lon": -76.931829, "rental_uris": {"android": "https://dc.lft.to/lastmile_qr_scan", "ios": "https://dc.lft.to/lastmile_qr_scan"}, "fusion_lon": 0.0, "is_reserved": 0, "is_disabled": 0, "fusion_lat": 0.0, "type": "electric_scooter", "name": "b8d6cd6a1dfab51a4db095138a5dc8b2", "lat": 38.89876733333333, "bike_id": "b8d6cd6a1dfab51a4db095138a5dc8b2"}, {"lon": -76.97773133333334, "rental_uris": {"android": "https://dc.lft.to/lastmile_qr_scan", "ios": "https://dc.lft.to/lastmile_qr_scan"}, "fusion_lon": 0.0, "is_reserved": 0, "is_disabled": 0, "fusion_lat": 0.0, "type": "electric_bike", "name": "35d0aeeb14491be2fdf629580a94b1d5", "lat": 38.857248166666665, "bike_id": "35d0aeeb14491be2fdf629580a94b1d5"}, {"lon": -77.04273683333334, "rental_uris": {"android": "https://dc.lft.to/lastmile_qr_scan", "ios": "https://dc.lft.to/lastmile_qr_scan"}, "fusion_lon": 0.0, "is_reserved": 0, "is_disabled": 0, "fusion_lat": 0.0, "type": "electric_scooter", "name": "0229df93a088b5274654e1ee4bf12c3c", "lat": 38.89602433333334, "bike_id": "0229df93a088b5274654e1ee4bf12c3c"}, {"lon": -76.997591, "rental_uris": {"android": "https://dc.lft.to/lastmile_qr_scan", "ios": "https://dc.lft.to/lastmile_qr_scan"}, "fusion_lon": 0.0, "is_reserved": 0, "is_disabled": 0, "fusion_lat": 0.0, "type": "electric_bike", "name": "5f48cad11433f4d9f2f2e1abbb37db1d", "lat": 38.922771, "bike_id": "5f48cad11433f4d9f2f2e1abbb37db1d"}, {"lon": -77.02206733333334, "rental_uris": {"android": "https://dc.lft.to/lastmile_qr_scan", "ios": "https://dc.lft.to/lastmile_qr_scan"}, "fusion_lon": 0.0, "is_reserved": 0, "is_disabled": 0, "fusion_lat": 0.0, "type": "electric_scooter", "name": "eb8365d06dcf11ca58dc134f3b97ccbc", "lat": 38.901354833333336, "bike_id": "eb8365d06dcf11ca58dc134f3b97ccbc"}, {"lon": -77.08603083333334, "rental_uris": {"android": "https://dc.lft.to/lastmile_qr_scan", "ios": "https://dc.lft.to/lastmile_qr_scan"}, "fusion_lon": 0.0, "is_reserved": 0, "is_disabled": 0, "fusion_lat": 0.0, "type": "electric_scooter", "name": "ef4ea2d1b4a7e3eddcdf27cb39c86edc", "lat": 38.960707, "bike_id": "ef4ea2d1b4a7e3eddcdf27cb39c86edc"}, {"lon": -77.01379016666667, "rental_uris": {"android": "https://dc.lft.to/lastmile_qr_scan", "ios": "https://dc.lft.to/lastmile_qr_scan"}, "fusion_lon": 0.0, "is_reserved": 0, "is_disabled": 0, "fusion_lat": 0.0, "type": "electric_scooter", "name": "4ede2ce24f90c05bfc0b5668acbfc61c", "lat": 38.869375833333336, "bike_id": "4ede2ce24f90c05bfc0b5668acbfc61c"}, {"lon": -77.00600016666667, "rental_uris": {"android": "https://dc.lft.to/lastmile_qr_scan", "ios": "https://dc.lft.to/lastmile_qr_scan"}, "fusion_lon": 0.0, "is_reserved": 0, "is_disabled": 0, "fusion_lat": 0.0, "type": "electric_scooter", "name": "cd6436ae1bf24bdc8b3fa271d84b0db2", "lat": 38.8756315, "bike_id": "cd6436ae1bf24bdc8b3fa271d84b0db2"}, {"lon": -77.0385135, "rental_uris": {"android": "https://dc.lft.to/lastmile_qr_scan", "ios": "https://dc.lft.to/lastmile_qr_scan"}, "fusion_lon": 0.0, "is_reserved": 0, "is_disabled": 0, "fusion_lat": 0.0, "type": "electric_scooter", "name": "f9682105a50d0e8d40c6718c4fe5b2c0", "lat": 38.91655733333333, "bike_id": "f9682105a50d0e8d40c6718c4fe5b2c0"}, {"lon": -77.03737483333333, "rental_uris": {"android": "https://dc.lft.to/lastmile_qr_scan", "ios": "https://dc.lft.to/lastmile_qr_scan"}, "fusion_lon": 0.0, "is_reserved": 0, "is_disabled": 0, "fusion_lat": 0.0, "type": "electric_scooter", "name": "7b5184172d588a405ce62a9c02030cd3", "lat": 38.912740666666664, "bike_id": "7b5184172d588a405ce62a9c02030cd3"}, {"lon": -77.00711933333334, "rental_uris": {"android": "https://dc.lft.to/lastmile_qr_scan", "ios": "https://dc.lft.to/lastmile_qr_scan"}, "fusion_lon": 0.0, "is_reserved": 0, "is_disabled": 0, "fusion_lat": 0.0, "type": "electric_scooter", "name": "732dacf200044c6b2b3d94d4747c4be9", "lat": 38.871534833333335, "bike_id": "732dacf200044c6b2b3d94d4747c4be9"}, {"lon": -77.02180966666667, "rental_uris": {"android": "https://dc.lft.to/lastmile_qr_scan", "ios": "https://dc.lft.to/lastmile_qr_scan"}, "fusion_lon": 0.0, "is_reserved": 0, "is_disabled": 0, "fusion_lat": 0.0, "type": "electric_scooter", "name": "623a2bca91a3f21b157fd39d359efd9f", "lat": 38.89233083333333, "bike_id": "623a2bca91a3f21b157fd39d359efd9f"}, {"lon": -76.937288, "rental_uris": {"android": "https://dc.lft.to/lastmile_qr_scan", "ios": "https://dc.lft.to/lastmile_qr_scan"}, "fusion_lon": 0.0, "is_reserved": 0, "is_disabled": 0, "fusion_lat": 0.0, "type": "electric_scooter", "name": "a9c155f53db830fe41e4f1fc6b35c51a", "lat": 38.89028716666667, "bike_id": "a9c155f53db830fe41e4f1fc6b35c51a"}, {"lon": -76.99680783333334, "rental_uris": {"android": "https://dc.lft.to/lastmile_qr_scan", "ios": "https://dc.lft.to/lastmile_qr_scan"}, "fusion_lon": 0.0, "is_reserved": 0, "is_disabled": 0, "fusion_lat": 0.0, "type": "electric_scooter", "name": "7e91c87fb0408d25a2f8d479cdecba45", "lat": 38.8786815, "bike_id": "7e91c87fb0408d25a2f8d479cdecba45"}, {"lon": -77.03166983333334, "rental_uris": {"android": "https://dc.lft.to/lastmile_qr_scan", "ios": "https://dc.lft.to/lastmile_qr_scan"}, "fusion_lon": 0.0, "is_reserved": 0, "is_disabled": 0, "fusion_lat": 0.0, "type": "electric_bike", "name": "33e48ac8611082f1dfe35e6a5aa2a905", "lat": 38.8944685, "bike_id": "33e48ac8611082f1dfe35e6a5aa2a905"}, {"lon": -77.03175233333333, "rental_uris": {"android": "https://dc.lft.to/lastmile_qr_scan", "ios": "https://dc.lft.to/lastmile_qr_scan"}, "fusion_lon": 0.0, "is_reserved": 0, "is_disabled": 0, "fusion_lat": 0.0, "type": "electric_scooter", "name": "98b8f4f881c7b47b5485a453ae094997", "lat": 38.914202333333336, "bike_id": "98b8f4f881c7b47b5485a453ae094997"}, {"lon": -77.01006583333333, "rental_uris": {"android": "https://dc.lft.to/lastmile_qr_scan", "ios": "https://dc.lft.to/lastmile_qr_scan"}, "fusion_lon": 0.0, "is_reserved": 0, "is_disabled": 0, "fusion_lat": 0.0, "type": "electric_bike", "name": "74719825cc3978219af5ce10dea31a64", "lat": 38.95591, "bike_id": "74719825cc3978219af5ce10dea31a64"}, {"lon": -77.03437066666666, "rental_uris": {"android": "https://dc.lft.to/lastmile_qr_scan", "ios": "https://dc.lft.to/lastmile_qr_scan"}, "fusion_lon": 0.0, "is_reserved": 0, "is_disabled": 0, "fusion_lat": 0.0, "type": "electric_scooter", "name": "d3fdfa390a4352b6b7fdd2b3457d4e6b", "lat": 38.918098666666666, "bike_id": "d3fdfa390a4352b6b7fdd2b3457d4e6b"}, {"lon": -77.03058616666667, "rental_uris": {"android": "https://dc.lft.to/lastmile_qr_scan", "ios": "https://dc.lft.to/lastmile_qr_scan"}, "fusion_lon": 0.0, "is_reserved": 0, "is_disabled": 0, "fusion_lat": 0.0, "type": "electric_scooter", "name": "5a1dd7e6b5060e73048be106f3febea2", "lat": 38.92026883333333, "bike_id": "5a1dd7e6b5060e73048be106f3febea2"}, {"lon": -77.03871466666666, "rental_uris": {"android": "https://dc.lft.to/lastmile_qr_scan", "ios": "https://dc.lft.to/lastmile_qr_scan"}, "fusion_lon": 0.0, "is_reserved": 0, "is_disabled": 0, "fusion_lat": 0.0, "type": "electric_scooter", "name": "1b48353ede12bf11b362ce6381395181", "lat": 38.91263883333333, "bike_id": "1b48353ede12bf11b362ce6381395181"}, {"lon": -77.04676866666667, "rental_uris": {"android": "https://dc.lft.to/lastmile_qr_scan", "ios": "https://dc.lft.to/lastmile_qr_scan"}, "fusion_lon": 0.0, "is_reserved": 0, "is_disabled": 0, "fusion_lat": 0.0, "type": "electric_scooter", "name": "18c5581a597c917f72ab6cd95d718b5b", "lat": 38.89274016666667, "bike_id": "18c5581a597c917f72ab6cd95d718b5b"}, {"lon": -77.04858633333333, "rental_uris": {"android": "https://dc.lft.to/lastmile_qr_scan", "ios": "https://dc.lft.to/lastmile_qr_scan"}, "fusion_lon": 0.0, "is_reserved": 0, "is_disabled": 0, "fusion_lat": 0.0, "type": "electric_scooter", "name": "497e96fd7505256d6454fd0b431a305c", "lat": 38.902386666666665, "bike_id": "497e96fd7505256d6454fd0b431a305c"}, {"lon": -77.022053, "rental_uris": {"android": "https://dc.lft.to/lastmile_qr_scan", "ios": "https://dc.lft.to/lastmile_qr_scan"}, "fusion_lon": 0.0, "is_reserved": 0, "is_disabled": 0, "fusion_lat": 0.0, "type": "electric_scooter", "name": "a5adb2a3d23259a4bce11267bccd62fd", "lat": 38.88717483333333, "bike_id": "a5adb2a3d23259a4bce11267bccd62fd"}, {"lon": -77.00340733333333, "rental_uris": {"android": "https://dc.lft.to/lastmile_qr_scan", "ios": "https://dc.lft.to/lastmile_qr_scan"}, "fusion_lon": 0.0, "is_reserved": 0, "is_disabled": 0, "fusion_lat": 0.0, "type": "electric_scooter", "name": "6cda01ba364f4d9d7b2cede4ecfb786a", "lat": 38.89356183333334, "bike_id": "6cda01ba364f4d9d7b2cede4ecfb786a"}, {"lon": -77.021316, "rental_uris": {"android": "https://dc.lft.to/lastmile_qr_scan", "ios": "https://dc.lft.to/lastmile_qr_scan"}, "fusion_lon": 0.0, "is_reserved": 0, "is_disabled": 0, "fusion_lat": 0.0, "type": "electric_scooter", "name": "ba5fc7fbf9c85ee49add6f9b3559aeec", "lat": 38.88746166666667, "bike_id": "ba5fc7fbf9c85ee49add6f9b3559aeec"}, {"lon": -77.02722383333334, "rental_uris": {"android": "https://dc.lft.to/lastmile_qr_scan", "ios": "https://dc.lft.to/lastmile_qr_scan"}, "fusion_lon": 0.0, "is_reserved": 0, "is_disabled": 0, "fusion_lat": 0.0, "type": "electric_scooter", "name": "458f5d56d43ce458fdcf9042b1364eef", "lat": 38.89744916666667, "bike_id": "458f5d56d43ce458fdcf9042b1364eef"}, {"lon": -77.02539483333334, "rental_uris": {"android": "https://dc.lft.to/lastmile_qr_scan", "ios": "https://dc.lft.to/lastmile_qr_scan"}, "fusion_lon": 0.0, "is_reserved": 0, "is_disabled": 0, "fusion_lat": 0.0, "type": "electric_scooter", "name": "1829114f9222e9e7be958f550173b01b", "lat": 38.93984916666667, "bike_id": "1829114f9222e9e7be958f550173b01b"}, {"lon": -76.937531, "rental_uris": {"android": "https://dc.lft.to/lastmile_qr_scan", "ios": "https://dc.lft.to/lastmile_qr_scan"}, "fusion_lon": 0.0, "is_reserved": 0, "is_disabled": 0, "fusion_lat": 0.0, "type": "electric_scooter", "name": "5c4b0860c0a83dbd39f3bd8b94f09ff7", "lat": 38.890424833333334, "bike_id": "5c4b0860c0a83dbd39f3bd8b94f09ff7"}, {"lon": -76.9745115, "rental_uris": {"android": "https://dc.lft.to/lastmile_qr_scan", "ios": "https://dc.lft.to/lastmile_qr_scan"}, "fusion_lon": 0.0, "is_reserved": 0, "is_disabled": 0, "fusion_lat": 0.0, "type": "electric_bike", "name": "e2d709c13485371cc48a00d8a784abf0", "lat": 38.966641, "bike_id": "e2d709c13485371cc48a00d8a784abf0"}, {"lon": -77.0034615, "rental_uris": {"android": "https://dc.lft.to/lastmile_qr_scan", "ios": "https://dc.lft.to/lastmile_qr_scan"}, "fusion_lon": 0.0, "is_reserved": 0, "is_disabled": 0, "fusion_lat": 0.0, "type": "electric_bike", "name": "665fc9771ecf87559dc45b97f386da69", "lat": 38.919736666666665, "bike_id": "665fc9771ecf87559dc45b97f386da69"}, {"lon": -76.99466833333334, "rental_uris": {"android": "https://dc.lft.to/lastmile_qr_scan", "ios": "https://dc.lft.to/lastmile_qr_scan"}, "fusion_lon": 0.0, "is_reserved": 0, "is_disabled": 0, "fusion_lat": 0.0, "type": "electric_scooter", "name": "e0a655c297fbfe3f1b4a6b17f02fb23a", "lat": 38.862026166666666, "bike_id": "e0a655c297fbfe3f1b4a6b17f02fb23a"}, {"lon": -77.01230166666667, "rental_uris": {"android": "https://dc.lft.to/lastmile_qr_scan", "ios": "https://dc.lft.to/lastmile_qr_scan"}, "fusion_lon": 0.0, "is_reserved": 0, "is_disabled": 0, "fusion_lat": 0.0, "type": "electric_scooter", "name": "a1558225dcf48eb23c79035a62d4f93c", "lat": 38.869750333333336, "bike_id": "a1558225dcf48eb23c79035a62d4f93c"}, {"lon": -77.0234865, "rental_uris": {"android": "https://dc.lft.to/lastmile_qr_scan", "ios": "https://dc.lft.to/lastmile_qr_scan"}, "fusion_lon": 0.0, "is_reserved": 0, "is_disabled": 0, "fusion_lat": 0.0, "type": "electric_scooter", "name": "21c37b97ab008cee07a3fb667f6b4b94", "lat": 38.92971983333333, "bike_id": "21c37b97ab008cee07a3fb667f6b4b94"}, {"lon": -77.05334833333333, "rental_uris": {"android": "https://dc.lft.to/lastmile_qr_scan", "ios": "https://dc.lft.to/lastmile_qr_scan"}, "fusion_lon": 0.0, "is_reserved": 0, "is_disabled": 0, "fusion_lat": 0.0, "type": "electric_scooter", "name": "79e83d765cedd405d3a6c966870d4dfe", "lat": 38.90416316666666, "bike_id": "79e83d765cedd405d3a6c966870d4dfe"}, {"lon": -77.02169283333333, "rental_uris": {"android": "https://dc.lft.to/lastmile_qr_scan", "ios": "https://dc.lft.to/lastmile_qr_scan"}, "fusion_lon": 0.0, "is_reserved": 0, "is_disabled": 0, "fusion_lat": 0.0, "type": "electric_scooter", "name": "820221df4ad2a538d78dcec3079eda40", "lat": 38.8956525, "bike_id": "820221df4ad2a538d78dcec3079eda40"}, {"lon": -77.04853933333334, "rental_uris": {"android": "https://dc.lft.to/lastmile_qr_scan", "ios": "https://dc.lft.to/lastmile_qr_scan"}, "fusion_lon": 0.0, "is_reserved": 0, "is_disabled": 0, "fusion_lat": 0.0, "type": "electric_scooter", "name": "afdd550556ca2ccbf4e2ed74be3de870", "lat": 38.90024583333334, "bike_id": "afdd550556ca2ccbf4e2ed74be3de870"}, {"lon": -77.0262355, "rental_uris": {"android": "https://dc.lft.to/lastmile_qr_scan", "ios": "https://dc.lft.to/lastmile_qr_scan"}, "fusion_lon": 0.0, "is_reserved": 0, "is_disabled": 0, "fusion_lat": 0.0, "type": "electric_scooter", "name": "ee88ae0b1aeb009c8203554e0ce862ed", "lat": 38.892174833333335, "bike_id": "ee88ae0b1aeb009c8203554e0ce862ed"}, {"lon": -77.02070683333334, "rental_uris": {"android": "https://dc.lft.to/lastmile_qr_scan", "ios": "https://dc.lft.to/lastmile_qr_scan"}, "fusion_lon": 0.0, "is_reserved": 0, "is_disabled": 0, "fusion_lat": 0.0, "type": "electric_scooter", "name": "c253e06102e92f014dfa7e4cd41d44f7", "lat": 38.9240995, "bike_id": "c253e06102e92f014dfa7e4cd41d44f7"}, {"lon": -77.06791883333334, "rental_uris": {"android": "https://dc.lft.to/lastmile_qr_scan", "ios": "https://dc.lft.to/lastmile_qr_scan"}, "fusion_lon": 0.0, "is_reserved": 0, "is_disabled": 0, "fusion_lat": 0.0, "type": "electric_scooter", "name": "9d422ddaca713681326461a717d7b932", "lat": 38.908762833333334, "bike_id": "9d422ddaca713681326461a717d7b932"}, {"lon": -77.02735966666667, "rental_uris": {"android": "https://dc.lft.to/lastmile_qr_scan", "ios": "https://dc.lft.to/lastmile_qr_scan"}, "fusion_lon": 0.0, "is_reserved": 0, "is_disabled": 0, "fusion_lat": 0.0, "type": "electric_scooter", "name": "d42cf651380b55e677fe4002b1b0efd0", "lat": 38.952009833333335, "bike_id": "d42cf651380b55e677fe4002b1b0efd0"}, {"lon": -77.04335766666667, "rental_uris": {"android": "https://dc.lft.to/lastmile_qr_scan", "ios": "https://dc.lft.to/lastmile_qr_scan"}, "fusion_lon": 0.0, "is_reserved": 0, "is_disabled": 0, "fusion_lat": 0.0, "type": "electric_scooter", "name": "40106ed0c8597e39f619ff8fbbf7eacb", "lat": 38.91024016666667, "bike_id": "40106ed0c8597e39f619ff8fbbf7eacb"}, {"lon": -77.02914666666666, "rental_uris": {"android": "https://dc.lft.to/lastmile_qr_scan", "ios": "https://dc.lft.to/lastmile_qr_scan"}, "fusion_lon": 0.0, "is_reserved": 0, "is_disabled": 0, "fusion_lat": 0.0, "type": "electric_scooter", "name": "3829b8d9b39fee714bece45377af8e8e", "lat": 38.93329516666667, "bike_id": "3829b8d9b39fee714bece45377af8e8e"}, {"lon": -77.02972033333333, "rental_uris": {"android": "https://dc.lft.to/lastmile_qr_scan", "ios": "https://dc.lft.to/lastmile_qr_scan"}, "fusion_lon": 0.0, "is_reserved": 0, "is_disabled": 0, "fusion_lat": 0.0, "type": "electric_scooter", "name": "7ac1d4489b872752cd874a7ceab89dc9", "lat": 38.9231205, "bike_id": "7ac1d4489b872752cd874a7ceab89dc9"}, {"lon": -76.96506766666667, "rental_uris": {"android": "https://dc.lft.to/lastmile_qr_scan", "ios": "https://dc.lft.to/lastmile_qr_scan"}, "fusion_lon": 0.0, "is_reserved": 0, "is_disabled": 0, "fusion_lat": 0.0, "type": "electric_scooter", "name": "9b649c3fba55ad8f4c2f057724737392", "lat": 38.87650416666666, "bike_id": "9b649c3fba55ad8f4c2f057724737392"}, {"lon": -76.989254, "rental_uris": {"android": "https://dc.lft.to/lastmile_qr_scan", "ios": "https://dc.lft.to/lastmile_qr_scan"}, "fusion_lon": 0.0, "is_reserved": 0, "is_disabled": 0, "fusion_lat": 0.0, "type": "electric_scooter", "name": "dacf7f4c721d45758e232f9d92ad1dc8", "lat": 38.9382295, "bike_id": "dacf7f4c721d45758e232f9d92ad1dc8"}, {"lon": -77.00713516666667, "rental_uris": {"android": "https://dc.lft.to/lastmile_qr_scan", "ios": "https://dc.lft.to/lastmile_qr_scan"}, "fusion_lon": 0.0, "is_reserved": 0, "is_disabled": 0, "fusion_lat": 0.0, "type": "electric_scooter", "name": "7cee98ef9791ef42fa193ebbbc2cf13d", "lat": 38.88491916666667, "bike_id": "7cee98ef9791ef42fa193ebbbc2cf13d"}, {"lon": -77.03088266666667, "rental_uris": {"android": "https://dc.lft.to/lastmile_qr_scan", "ios": "https://dc.lft.to/lastmile_qr_scan"}, "fusion_lon": 0.0, "is_reserved": 0, "is_disabled": 0, "fusion_lat": 0.0, "type": "electric_scooter", "name": "f3c1fd7beac80ff4275b09038cea8170", "lat": 38.899882166666664, "bike_id": "f3c1fd7beac80ff4275b09038cea8170"}, {"lon": -77.03988, "rental_uris": {"android": "https://dc.lft.to/lastmile_qr_scan", "ios": "https://dc.lft.to/lastmile_qr_scan"}, "fusion_lon": 0.0, "is_reserved": 0, "is_disabled": 0, "fusion_lat": 0.0, "type": "electric_scooter", "name": "3c877e1fcb02bbb025264a018c2cf8b3", "lat": 38.9097485, "bike_id": "3c877e1fcb02bbb025264a018c2cf8b3"}, {"lon": -76.99124583333334, "rental_uris": {"android": "https://dc.lft.to/lastmile_qr_scan", "ios": "https://dc.lft.to/lastmile_qr_scan"}, "fusion_lon": 0.0, "is_reserved": 0, "is_disabled": 0, "fusion_lat": 0.0, "type": "electric_scooter", "name": "57320630c252f8d31ad003e56a311c5f", "lat": 38.908859666666665, "bike_id": "57320630c252f8d31ad003e56a311c5f"}, {"lon": -76.93390216666667, "rental_uris": {"android": "https://dc.lft.to/lastmile_qr_scan", "ios": "https://dc.lft.to/lastmile_qr_scan"}, "fusion_lon": 0.0, "is_reserved": 0, "is_disabled": 0, "fusion_lat": 0.0, "type": "electric_scooter", "name": "6784e502991ddfe40f812e0c533bbaf2", "lat": 38.899156166666664, "bike_id": "6784e502991ddfe40f812e0c533bbaf2"}, {"lon": -77.038444, "rental_uris": {"android": "https://dc.lft.to/lastmile_qr_scan", "ios": "https://dc.lft.to/lastmile_qr_scan"}, "fusion_lon": 0.0, "is_reserved": 0, "is_disabled": 0, "fusion_lat": 0.0, "type": "electric_scooter", "name": "c4dfc68e63d2dacbf4f4a0a66a6ca33f", "lat": 38.90631616666667, "bike_id": "c4dfc68e63d2dacbf4f4a0a66a6ca33f"}, {"lon": -77.016581, "rental_uris": {"android": "https://dc.lft.to/lastmile_qr_scan", "ios": "https://dc.lft.to/lastmile_qr_scan"}, "fusion_lon": 0.0, "is_reserved": 0, "is_disabled": 0, "fusion_lat": 0.0, "type": "electric_scooter", "name": "c28d9b862f19b0711eb8a8791444e5ed", "lat": 38.9139975, "bike_id": "c28d9b862f19b0711eb8a8791444e5ed"}, {"lon": -77.03785833333333, "rental_uris": {"android": "https://dc.lft.to/lastmile_qr_scan", "ios": "https://dc.lft.to/lastmile_qr_scan"}, "fusion_lon": 0.0, "is_reserved": 0, "is_disabled": 0, "fusion_lat": 0.0, "type": "electric_scooter", "name": "2d0f2cf54a7d7c07ac685601e9c3d719", "lat": 38.90373, "bike_id": "2d0f2cf54a7d7c07ac685601e9c3d719"}, {"lon": -77.09950183333333, "rental_uris": {"android": "https://dc.lft.to/lastmile_qr_scan", "ios": "https://dc.lft.to/lastmile_qr_scan"}, "fusion_lon": 0.0, "is_reserved": 0, "is_disabled": 0, "fusion_lat": 0.0, "type": "electric_bike", "name": "a8a6d96def030686208d139fe4fea19e", "lat": 39.014857166666665, "bike_id": "a8a6d96def030686208d139fe4fea19e"}, {"lon": -77.02207983333334, "rental_uris": {"android": "https://dc.lft.to/lastmile_qr_scan", "ios": "https://dc.lft.to/lastmile_qr_scan"}, "fusion_lon": 0.0, "is_reserved": 0, "is_disabled": 0, "fusion_lat": 0.0, "type": "electric_scooter", "name": "60fdddbd1a99a9e0d445010282146c58", "lat": 38.915361833333336, "bike_id": "60fdddbd1a99a9e0d445010282146c58"}, {"lon": -77.041312, "rental_uris": {"android": "https://dc.lft.to/lastmile_qr_scan", "ios": "https://dc.lft.to/lastmile_qr_scan"}, "fusion_lon": 0.0, "is_reserved": 0, "is_disabled": 0, "fusion_lat": 0.0, "type": "electric_scooter", "name": "a1ac318767c1bd97d264c8bbacc2c4ae", "lat": 38.921384, "bike_id": "a1ac318767c1bd97d264c8bbacc2c4ae"}, {"lon": -76.99727233333333, "rental_uris": {"android": "https://dc.lft.to/lastmile_qr_scan", "ios": "https://dc.lft.to/lastmile_qr_scan"}, "fusion_lon": 0.0, "is_reserved": 0, "is_disabled": 0, "fusion_lat": 0.0, "type": "electric_scooter", "name": "fef5c172db70e11badfe8b58a41a663c", "lat": 38.91023833333333, "bike_id": "fef5c172db70e11badfe8b58a41a663c"}, {"lon": -77.05032016666667, "rental_uris": {"android": "https://dc.lft.to/lastmile_qr_scan", "ios": "https://dc.lft.to/lastmile_qr_scan"}, "fusion_lon": 0.0, "is_reserved": 0, "is_disabled": 0, "fusion_lat": 0.0, "type": "electric_scooter", "name": "2d9ef14b534a88c1c4570be3d3994c43", "lat": 38.90370566666667, "bike_id": "2d9ef14b534a88c1c4570be3d3994c43"}, {"lon": -77.05038216666667, "rental_uris": {"android": "https://dc.lft.to/lastmile_qr_scan", "ios": "https://dc.lft.to/lastmile_qr_scan"}, "fusion_lon": 0.0, "is_reserved": 0, "is_disabled": 0, "fusion_lat": 0.0, "type": "electric_scooter", "name": "f12b244aeb2208d5d804d4bf2643041d", "lat": 38.9251655, "bike_id": "f12b244aeb2208d5d804d4bf2643041d"}, {"lon": -76.98988683333333, "rental_uris": {"android": "https://dc.lft.to/lastmile_qr_scan", "ios": "https://dc.lft.to/lastmile_qr_scan"}, "fusion_lon": 0.0, "is_reserved": 0, "is_disabled": 0, "fusion_lat": 0.0, "type": "electric_scooter", "name": "6f13a72584423b020e0c5f8e4b089897", "lat": 38.9244205, "bike_id": "6f13a72584423b020e0c5f8e4b089897"}, {"lon": -77.03431966666666, "rental_uris": {"android": "https://dc.lft.to/lastmile_qr_scan", "ios": "https://dc.lft.to/lastmile_qr_scan"}, "fusion_lon": 0.0, "is_reserved": 0, "is_disabled": 0, "fusion_lat": 0.0, "type": "electric_scooter", "name": "d2afde83d82d895c828758ad5cd2b1a9", "lat": 38.9094325, "bike_id": "d2afde83d82d895c828758ad5cd2b1a9"}, {"lon": -77.03216383333333, "rental_uris": {"android": "https://dc.lft.to/lastmile_qr_scan", "ios": "https://dc.lft.to/lastmile_qr_scan"}, "fusion_lon": 0.0, "is_reserved": 0, "is_disabled": 0, "fusion_lat": 0.0, "type": "electric_scooter", "name": "ca3d070c34a8a2f01110d0b375eb9686", "lat": 38.900242, "bike_id": "ca3d070c34a8a2f01110d0b375eb9686"}, {"lon": -76.9878135, "rental_uris": {"android": "https://dc.lft.to/lastmile_qr_scan", "ios": "https://dc.lft.to/lastmile_qr_scan"}, "fusion_lon": 0.0, "is_reserved": 0, "is_disabled": 0, "fusion_lat": 0.0, "type": "electric_scooter", "name": "aba99f4b6db72cf6d721c6845d882c91", "lat": 38.9119975, "bike_id": "aba99f4b6db72cf6d721c6845d882c91"}, {"lon": -77.05277266666667, "rental_uris": {"android": "https://dc.lft.to/lastmile_qr_scan", "ios": "https://dc.lft.to/lastmile_qr_scan"}, "fusion_lon": 0.0, "is_reserved": 0, "is_disabled": 0, "fusion_lat": 0.0, "type": "electric_scooter", "name": "f974e5a7bc79e51a313e41ad4c919765", "lat": 38.927681666666665, "bike_id": "f974e5a7bc79e51a313e41ad4c919765"}, {"lon": -77.029748, "rental_uris": {"android": "https://dc.lft.to/lastmile_qr_scan", "ios": "https://dc.lft.to/lastmile_qr_scan"}, "fusion_lon": 0.0, "is_reserved": 0, "is_disabled": 0, "fusion_lat": 0.0, "type": "electric_scooter", "name": "7398b86fd6f25e3aebeb691dde598684", "lat": 38.92253133333333, "bike_id": "7398b86fd6f25e3aebeb691dde598684"}, {"lon": -76.99504483333334, "rental_uris": {"android": "https://dc.lft.to/lastmile_qr_scan", "ios": "https://dc.lft.to/lastmile_qr_scan"}, "fusion_lon": 0.0, "is_reserved": 0, "is_disabled": 0, "fusion_lat": 0.0, "type": "electric_scooter", "name": "2c71fdfa8a5433b5e98d9ecdc6979fbe", "lat": 38.90470066666666, "bike_id": "2c71fdfa8a5433b5e98d9ecdc6979fbe"}, {"lon": -77.01225083333334, "rental_uris": {"android": "https://dc.lft.to/lastmile_qr_scan", "ios": "https://dc.lft.to/lastmile_qr_scan"}, "fusion_lon": 0.0, "is_reserved": 0, "is_disabled": 0, "fusion_lat": 0.0, "type": "electric_scooter", "name": "c161cfc5313e68bd5eb8ba4c2d201dc2", "lat": 38.89844, "bike_id": "c161cfc5313e68bd5eb8ba4c2d201dc2"}, {"lon": -77.01947883333334, "rental_uris": {"android": "https://dc.lft.to/lastmile_qr_scan", "ios": "https://dc.lft.to/lastmile_qr_scan"}, "fusion_lon": 0.0, "is_reserved": 0, "is_disabled": 0, "fusion_lat": 0.0, "type": "electric_scooter", "name": "d8814a01d86295e0c1b6c72cee364587", "lat": 38.924240833333336, "bike_id": "d8814a01d86295e0c1b6c72cee364587"}, {"lon": -77.03440266666667, "rental_uris": {"android": "https://dc.lft.to/lastmile_qr_scan", "ios": "https://dc.lft.to/lastmile_qr_scan"}, "fusion_lon": 0.0, "is_reserved": 0, "is_disabled": 0, "fusion_lat": 0.0, "type": "electric_scooter", "name": "f191f62f0e061889825c35d5b11eb440", "lat": 38.9026355, "bike_id": "f191f62f0e061889825c35d5b11eb440"}, {"lon": -77.01680366666666, "rental_uris": {"android": "https://dc.lft.to/lastmile_qr_scan", "ios": "https://dc.lft.to/lastmile_qr_scan"}, "fusion_lon": 0.0, "is_reserved": 0, "is_disabled": 0, "fusion_lat": 0.0, "type": "electric_scooter", "name": "dda4195bff3c6d4b133c4c2fdc22c3b9", "lat": 38.9126735, "bike_id": "dda4195bff3c6d4b133c4c2fdc22c3b9"}, {"lon": -77.043272, "rental_uris": {"android": "https://dc.lft.to/lastmile_qr_scan", "ios": "https://dc.lft.to/lastmile_qr_scan"}, "fusion_lon": 0.0, "is_reserved": 0, "is_disabled": 0, "fusion_lat": 0.0, "type": "electric_scooter", "name": "7ddcd0ac0d4aad7980f1e9397aed5f87", "lat": 38.892225, "bike_id": "7ddcd0ac0d4aad7980f1e9397aed5f87"}, {"lon": -77.04007633333333, "rental_uris": {"android": "https://dc.lft.to/lastmile_qr_scan", "ios": "https://dc.lft.to/lastmile_qr_scan"}, "fusion_lon": 0.0, "is_reserved": 0, "is_disabled": 0, "fusion_lat": 0.0, "type": "electric_scooter", "name": "18970cf3beb0454bca9b86cb21bb6666", "lat": 38.9033025, "bike_id": "18970cf3beb0454bca9b86cb21bb6666"}, {"lon": -76.99816566666667, "rental_uris": {"android": "https://dc.lft.to/lastmile_qr_scan", "ios": "https://dc.lft.to/lastmile_qr_scan"}, "fusion_lon": 0.0, "is_reserved": 0, "is_disabled": 0, "fusion_lat": 0.0, "type": "electric_bike", "name": "ef73e619cf29f438174877a5ba024b94", "lat": 38.81987683333333, "bike_id": "ef73e619cf29f438174877a5ba024b94"}, {"lon": -77.04256016666666, "rental_uris": {"android": "https://dc.lft.to/lastmile_qr_scan", "ios": "https://dc.lft.to/lastmile_qr_scan"}, "fusion_lon": 0.0, "is_reserved": 0, "is_disabled": 0, "fusion_lat": 0.0, "type": "electric_scooter", "name": "31918cc6d144ee50663fb8b8b1ef6c18", "lat": 38.921845, "bike_id": "31918cc6d144ee50663fb8b8b1ef6c18"}, {"lon": -76.926638, "rental_uris": {"android": "https://dc.lft.to/lastmile_qr_scan", "ios": "https://dc.lft.to/lastmile_qr_scan"}, "fusion_lon": 0.0, "is_reserved": 0, "is_disabled": 0, "fusion_lat": 0.0, "type": "electric_scooter", "name": "dee245ba23bd93ebc4d002c134c2cd8a", "lat": 38.89172683333334, "bike_id": "dee245ba23bd93ebc4d002c134c2cd8a"}, {"lon": -77.04140466666666, "rental_uris": {"android": "https://dc.lft.to/lastmile_qr_scan", "ios": "https://dc.lft.to/lastmile_qr_scan"}, "fusion_lon": 0.0, "is_reserved": 0, "is_disabled": 0, "fusion_lat": 0.0, "type": "electric_scooter", "name": "83670a7390b62e0ec4e31cf3f61044c6", "lat": 38.90031416666667, "bike_id": "83670a7390b62e0ec4e31cf3f61044c6"}, {"lon": -77.041989, "rental_uris": {"android": "https://dc.lft.to/lastmile_qr_scan", "ios": "https://dc.lft.to/lastmile_qr_scan"}, "fusion_lon": 0.0, "is_reserved": 0, "is_disabled": 0, "fusion_lat": 0.0, "type": "electric_scooter", "name": "2da05e944b92f94a9b8d08ce3ad14b88", "lat": 38.892230833333336, "bike_id": "2da05e944b92f94a9b8d08ce3ad14b88"}, {"lon": -76.99388816666666, "rental_uris": {"android": "https://dc.lft.to/lastmile_qr_scan", "ios": "https://dc.lft.to/lastmile_qr_scan"}, "fusion_lon": 0.0, "is_reserved": 0, "is_disabled": 0, "fusion_lat": 0.0, "type": "electric_scooter", "name": "c7749811643e3ddc3a987a846d6894cb", "lat": 38.8919535, "bike_id": "c7749811643e3ddc3a987a846d6894cb"}, {"lon": -77.0317695, "rental_uris": {"android": "https://dc.lft.to/lastmile_qr_scan", "ios": "https://dc.lft.to/lastmile_qr_scan"}, "fusion_lon": 0.0, "is_reserved": 0, "is_disabled": 0, "fusion_lat": 0.0, "type": "electric_scooter", "name": "0f3a5f05ce805c1c2328bb0c572659b3", "lat": 38.901082333333335, "bike_id": "0f3a5f05ce805c1c2328bb0c572659b3"}, {"lon": -77.00597116666667, "rental_uris": {"android": "https://dc.lft.to/lastmile_qr_scan", "ios": "https://dc.lft.to/lastmile_qr_scan"}, "fusion_lon": 0.0, "is_reserved": 0, "is_disabled": 0, "fusion_lat": 0.0, "type": "electric_scooter", "name": "2fbc8a712a062aecc2df05b398b3948e", "lat": 38.905698666666666, "bike_id": "2fbc8a712a062aecc2df05b398b3948e"}, {"lon": -77.03340766666666, "rental_uris": {"android": "https://dc.lft.to/lastmile_qr_scan", "ios": "https://dc.lft.to/lastmile_qr_scan"}, "fusion_lon": 0.0, "is_reserved": 0, "is_disabled": 0, "fusion_lat": 0.0, "type": "electric_scooter", "name": "77b847dbe37afb8713952fe43f2ded69", "lat": 38.90246233333333, "bike_id": "77b847dbe37afb8713952fe43f2ded69"}, {"lon": -77.00580133333334, "rental_uris": {"android": "https://dc.lft.to/lastmile_qr_scan", "ios": "https://dc.lft.to/lastmile_qr_scan"}, "fusion_lon": 0.0, "is_reserved": 0, "is_disabled": 0, "fusion_lat": 0.0, "type": "electric_scooter", "name": "81d6dc83c9a43909e1044157bfff0443", "lat": 38.88514266666667, "bike_id": "81d6dc83c9a43909e1044157bfff0443"}, {"lon": -77.02836283333333, "rental_uris": {"android": "https://dc.lft.to/lastmile_qr_scan", "ios": "https://dc.lft.to/lastmile_qr_scan"}, "fusion_lon": 0.0, "is_reserved": 0, "is_disabled": 0, "fusion_lat": 0.0, "type": "electric_bike", "name": "a561093ea74d3c42517425afc4422e12", "lat": 38.92241416666667, "bike_id": "a561093ea74d3c42517425afc4422e12"}, {"lon": -76.93384016666667, "rental_uris": {"android": "https://dc.lft.to/lastmile_qr_scan", "ios": "https://dc.lft.to/lastmile_qr_scan"}, "fusion_lon": 0.0, "is_reserved": 0, "is_disabled": 0, "fusion_lat": 0.0, "type": "electric_scooter", "name": "7da63ed45012c181bba86f48f6cedc52", "lat": 38.89911583333333, "bike_id": "7da63ed45012c181bba86f48f6cedc52"}, {"lon": -77.02154433333334, "rental_uris": {"android": "https://dc.lft.to/lastmile_qr_scan", "ios": "https://dc.lft.to/lastmile_qr_scan"}, "fusion_lon": 0.0, "is_reserved": 0, "is_disabled": 0, "fusion_lat": 0.0, "type": "electric_scooter", "name": "30f4ad0408d79211bf9a8764247f6453", "lat": 38.924468166666664, "bike_id": "30f4ad0408d79211bf9a8764247f6453"}, {"lon": -76.99868116666667, "rental_uris": {"android": "https://dc.lft.to/lastmile_qr_scan", "ios": "https://dc.lft.to/lastmile_qr_scan"}, "fusion_lon": 0.0, "is_reserved": 0, "is_disabled": 0, "fusion_lat": 0.0, "type": "electric_scooter", "name": "566bf4fa8e4226318671e89b0186eab2", "lat": 38.900209, "bike_id": "566bf4fa8e4226318671e89b0186eab2"}, {"lon": -77.05091, "rental_uris": {"android": "https://dc.lft.to/lastmile_qr_scan", "ios": "https://dc.lft.to/lastmile_qr_scan"}, "fusion_lon": 0.0, "is_reserved": 0, "is_disabled": 0, "fusion_lat": 0.0, "type": "electric_bike", "name": "c83d6c88e4a3b8579e1fcb36a55fecc1", "lat": 38.81330766666667, "bike_id": "c83d6c88e4a3b8579e1fcb36a55fecc1"}, {"lon": -77.00128733333334, "rental_uris": {"android": "https://dc.lft.to/lastmile_qr_scan", "ios": "https://dc.lft.to/lastmile_qr_scan"}, "fusion_lon": 0.0, "is_reserved": 0, "is_disabled": 0, "fusion_lat": 0.0, "type": "electric_scooter", "name": "31180f61a0698de9430387d475a9ece0", "lat": 38.87636066666666, "bike_id": "31180f61a0698de9430387d475a9ece0"}, {"lon": -77.01260683333334, "rental_uris": {"android": "https://dc.lft.to/lastmile_qr_scan", "ios": "https://dc.lft.to/lastmile_qr_scan"}, "fusion_lon": 0.0, "is_reserved": 0, "is_disabled": 0, "fusion_lat": 0.0, "type": "electric_scooter", "name": "fbf1ec9d856374b6487c7f6cea41b66d", "lat": 38.90008816666667, "bike_id": "fbf1ec9d856374b6487c7f6cea41b66d"}, {"lon": -77.01907916666667, "rental_uris": {"android": "https://dc.lft.to/lastmile_qr_scan", "ios": "https://dc.lft.to/lastmile_qr_scan"}, "fusion_lon": 0.0, "is_reserved": 0, "is_disabled": 0, "fusion_lat": 0.0, "type": "electric_scooter", "name": "d49dad0965a03c14c0cb22860f401cb9", "lat": 38.899784333333336, "bike_id": "d49dad0965a03c14c0cb22860f401cb9"}, {"lon": -77.03413016666667, "rental_uris": {"android": "https://dc.lft.to/lastmile_qr_scan", "ios": "https://dc.lft.to/lastmile_qr_scan"}, "fusion_lon": 0.0, "is_reserved": 0, "is_disabled": 0, "fusion_lat": 0.0, "type": "electric_scooter", "name": "f117dfe5cf758e45d4ee85f3415d3227", "lat": 38.91918733333333, "bike_id": "f117dfe5cf758e45d4ee85f3415d3227"}, {"lon": -77.07167566666666, "rental_uris": {"android": "https://dc.lft.to/lastmile_qr_scan", "ios": "https://dc.lft.to/lastmile_qr_scan"}, "fusion_lon": 0.0, "is_reserved": 0, "is_disabled": 0, "fusion_lat": 0.0, "type": "electric_bike", "name": "074076bfb3168b13b29b7f90feb73458", "lat": 38.90778683333333, "bike_id": "074076bfb3168b13b29b7f90feb73458"}, {"lon": -77.04167533333333, "rental_uris": {"android": "https://dc.lft.to/lastmile_qr_scan", "ios": "https://dc.lft.to/lastmile_qr_scan"}, "fusion_lon": 0.0, "is_reserved": 0, "is_disabled": 0, "fusion_lat": 0.0, "type": "electric_scooter", "name": "8e7f17687e0542ec217a00c11cd79a93", "lat": 38.911642, "bike_id": "8e7f17687e0542ec217a00c11cd79a93"}, {"lon": -76.9953625, "rental_uris": {"android": "https://dc.lft.to/lastmile_qr_scan", "ios": "https://dc.lft.to/lastmile_qr_scan"}, "fusion_lon": 0.0, "is_reserved": 0, "is_disabled": 0, "fusion_lat": 0.0, "type": "electric_scooter", "name": "5e032977c6ecaf13af733ce9551e61da", "lat": 38.862672833333335, "bike_id": "5e032977c6ecaf13af733ce9551e61da"}, {"lon": -77.00282433333334, "rental_uris": {"android": "https://dc.lft.to/lastmile_qr_scan", "ios": "https://dc.lft.to/lastmile_qr_scan"}, "fusion_lon": 0.0, "is_reserved": 0, "is_disabled": 0, "fusion_lat": 0.0, "type": "electric_scooter", "name": "5b64775d8ec89b39535ff422f2be28cf", "lat": 38.908814166666666, "bike_id": "5b64775d8ec89b39535ff422f2be28cf"}, {"lon": -77.03166933333334, "rental_uris": {"android": "https://dc.lft.to/lastmile_qr_scan", "ios": "https://dc.lft.to/lastmile_qr_scan"}, "fusion_lon": 0.0, "is_reserved": 0, "is_disabled": 0, "fusion_lat": 0.0, "type": "electric_scooter", "name": "cd2c1c5a27436d0d7635ae3d4e9ae6ba", "lat": 38.917893, "bike_id": "cd2c1c5a27436d0d7635ae3d4e9ae6ba"}, {"lon": -77.032141, "rental_uris": {"android": "https://dc.lft.to/lastmile_qr_scan", "ios": "https://dc.lft.to/lastmile_qr_scan"}, "fusion_lon": 0.0, "is_reserved": 0, "is_disabled": 0, "fusion_lat": 0.0, "type": "electric_scooter", "name": "e7bef75ead1b57eeb787f7aaf996fdec", "lat": 38.908523833333334, "bike_id": "e7bef75ead1b57eeb787f7aaf996fdec"}, {"lon": -77.04484983333333, "rental_uris": {"android": "https://dc.lft.to/lastmile_qr_scan", "ios": "https://dc.lft.to/lastmile_qr_scan"}, "fusion_lon": 0.0, "is_reserved": 0, "is_disabled": 0, "fusion_lat": 0.0, "type": "electric_scooter", "name": "1c16db6842c0ecce6c826eb7718150c4", "lat": 38.8923405, "bike_id": "1c16db6842c0ecce6c826eb7718150c4"}, {"lon": -77.02248866666666, "rental_uris": {"android": "https://dc.lft.to/lastmile_qr_scan", "ios": "https://dc.lft.to/lastmile_qr_scan"}, "fusion_lon": 0.0, "is_reserved": 0, "is_disabled": 0, "fusion_lat": 0.0, "type": "electric_scooter", "name": "1c81b1960e7c27672d25fe63b4351a4e", "lat": 38.9136285, "bike_id": "1c81b1960e7c27672d25fe63b4351a4e"}, {"lon": -77.05745933333333, "rental_uris": {"android": "https://dc.lft.to/lastmile_qr_scan", "ios": "https://dc.lft.to/lastmile_qr_scan"}, "fusion_lon": 0.0, "is_reserved": 0, "is_disabled": 0, "fusion_lat": 0.0, "type": "electric_scooter", "name": "e225399e2d77f19ab77320619ad1abaf", "lat": 38.93395183333333, "bike_id": "e225399e2d77f19ab77320619ad1abaf"}, {"lon": -77.027488, "rental_uris": {"android": "https://dc.lft.to/lastmile_qr_scan", "ios": "https://dc.lft.to/lastmile_qr_scan"}, "fusion_lon": 0.0, "is_reserved": 0, "is_disabled": 0, "fusion_lat": 0.0, "type": "electric_scooter", "name": "9a461a09b96f66f95a4786a0284254a9", "lat": 38.9660815, "bike_id": "9a461a09b96f66f95a4786a0284254a9"}, {"lon": -77.057419, "rental_uris": {"android": "https://dc.lft.to/lastmile_qr_scan", "ios": "https://dc.lft.to/lastmile_qr_scan"}, "fusion_lon": 0.0, "is_reserved": 0, "is_disabled": 0, "fusion_lat": 0.0, "type": "electric_scooter", "name": "4fc3f3fe545a68382f151b65658ac917", "lat": 38.9339345, "bike_id": "4fc3f3fe545a68382f151b65658ac917"}, {"lon": -77.0393915, "rental_uris": {"android": "https://dc.lft.to/lastmile_qr_scan", "ios": "https://dc.lft.to/lastmile_qr_scan"}, "fusion_lon": 0.0, "is_reserved": 0, "is_disabled": 0, "fusion_lat": 0.0, "type": "electric_scooter", "name": "866d4502d2df64697643158846cc9485", "lat": 38.914115333333335, "bike_id": "866d4502d2df64697643158846cc9485"}, {"lon": -77.027966, "rental_uris": {"android": "https://dc.lft.to/lastmile_qr_scan", "ios": "https://dc.lft.to/lastmile_qr_scan"}, "fusion_lon": 0.0, "is_reserved": 0, "is_disabled": 0, "fusion_lat": 0.0, "type": "electric_scooter", "name": "08e2551a817df26f70808852a8bf7e6d", "lat": 38.91660816666667, "bike_id": "08e2551a817df26f70808852a8bf7e6d"}, {"lon": -77.03122483333334, "rental_uris": {"android": "https://dc.lft.to/lastmile_qr_scan", "ios": "https://dc.lft.to/lastmile_qr_scan"}, "fusion_lon": 0.0, "is_reserved": 0, "is_disabled": 0, "fusion_lat": 0.0, "type": "electric_scooter", "name": "ef2d329d2325a4a288c151045ff0f32f", "lat": 38.920197, "bike_id": "ef2d329d2325a4a288c151045ff0f32f"}, {"lon": -76.9988825, "rental_uris": {"android": "https://dc.lft.to/lastmile_qr_scan", "ios": "https://dc.lft.to/lastmile_qr_scan"}, "fusion_lon": 0.0, "is_reserved": 0, "is_disabled": 0, "fusion_lat": 0.0, "type": "electric_scooter", "name": "d1dbe2d3de8544b65cf2c60def21909e", "lat": 38.89605516666666, "bike_id": "d1dbe2d3de8544b65cf2c60def21909e"}, {"lon": -77.00336583333333, "rental_uris": {"android": "https://dc.lft.to/lastmile_qr_scan", "ios": "https://dc.lft.to/lastmile_qr_scan"}, "fusion_lon": 0.0, "is_reserved": 0, "is_disabled": 0, "fusion_lat": 0.0, "type": "electric_scooter", "name": "dc959655ad993f5d49553aaaddfd37f9", "lat": 38.8935755, "bike_id": "dc959655ad993f5d49553aaaddfd37f9"}, {"lon": -76.98707933333333, "rental_uris": {"android": "https://dc.lft.to/lastmile_qr_scan", "ios": "https://dc.lft.to/lastmile_qr_scan"}, "fusion_lon": 0.0, "is_reserved": 0, "is_disabled": 0, "fusion_lat": 0.0, "type": "electric_scooter", "name": "719fb3d746a4ca10a5cd028be6dff661", "lat": 38.865393166666664, "bike_id": "719fb3d746a4ca10a5cd028be6dff661"}, {"lon": -77.024493, "rental_uris": {"android": "https://dc.lft.to/lastmile_qr_scan", "ios": "https://dc.lft.to/lastmile_qr_scan"}, "fusion_lon": 0.0, "is_reserved": 0, "is_disabled": 0, "fusion_lat": 0.0, "type": "electric_scooter", "name": "c04522831636e76d0223ba54270e58e9", "lat": 38.8996255, "bike_id": "c04522831636e76d0223ba54270e58e9"}, {"lon": -77.02603616666667, "rental_uris": {"android": "https://dc.lft.to/lastmile_qr_scan", "ios": "https://dc.lft.to/lastmile_qr_scan"}, "fusion_lon": 0.0, "is_reserved": 0, "is_disabled": 0, "fusion_lat": 0.0, "type": "electric_scooter", "name": "092a7fffb59fef859fec22bd4c05ccd0", "lat": 38.91688833333333, "bike_id": "092a7fffb59fef859fec22bd4c05ccd0"}, {"lon": -77.02160966666666, "rental_uris": {"android": "https://dc.lft.to/lastmile_qr_scan", "ios": "https://dc.lft.to/lastmile_qr_scan"}, "fusion_lon": 0.0, "is_reserved": 0, "is_disabled": 0, "fusion_lat": 0.0, "type": "electric_scooter", "name": "d3fbbf9cfc7e902f071a53039125248d", "lat": 38.89720583333333, "bike_id": "d3fbbf9cfc7e902f071a53039125248d"}, {"lon": -77.03667283333333, "rental_uris": {"android": "https://dc.lft.to/lastmile_qr_scan", "ios": "https://dc.lft.to/lastmile_qr_scan"}, "fusion_lon": 0.0, "is_reserved": 0, "is_disabled": 0, "fusion_lat": 0.0, "type": "electric_scooter", "name": "e31624304cfe21de7e4fa923d2002d8d", "lat": 38.932071666666666, "bike_id": "e31624304cfe21de7e4fa923d2002d8d"}, {"lon": -77.043694, "rental_uris": {"android": "https://dc.lft.to/lastmile_qr_scan", "ios": "https://dc.lft.to/lastmile_qr_scan"}, "fusion_lon": 0.0, "is_reserved": 0, "is_disabled": 0, "fusion_lat": 0.0, "type": "electric_scooter", "name": "2bff1ff32349eccdcfde484855e441a3", "lat": 38.902372666666665, "bike_id": "2bff1ff32349eccdcfde484855e441a3"}, {"lon": -76.93448216666667, "rental_uris": {"android": "https://dc.lft.to/lastmile_qr_scan", "ios": "https://dc.lft.to/lastmile_qr_scan"}, "fusion_lon": 0.0, "is_reserved": 0, "is_disabled": 0, "fusion_lat": 0.0, "type": "electric_scooter", "name": "a25d151d5302812b52c31fec7d751fd0", "lat": 38.90846966666667, "bike_id": "a25d151d5302812b52c31fec7d751fd0"}, {"lon": -76.99812016666667, "rental_uris": {"android": "https://dc.lft.to/lastmile_qr_scan", "ios": "https://dc.lft.to/lastmile_qr_scan"}, "fusion_lon": 0.0, "is_reserved": 0, "is_disabled": 0, "fusion_lat": 0.0, "type": "electric_bike", "name": "68fc27520365c8be58f69bbebdb8639a", "lat": 38.83742516666667, "bike_id": "68fc27520365c8be58f69bbebdb8639a"}, {"lon": -77.030551, "rental_uris": {"android": "https://dc.lft.to/lastmile_qr_scan", "ios": "https://dc.lft.to/lastmile_qr_scan"}, "fusion_lon": 0.0, "is_reserved": 0, "is_disabled": 0, "fusion_lat": 0.0, "type": "electric_bike", "name": "5695856fac658fc6665f0deacc11ad40", "lat": 38.95955883333333, "bike_id": "5695856fac658fc6665f0deacc11ad40"}, {"lon": -77.04865116666667, "rental_uris": {"android": "https://dc.lft.to/lastmile_qr_scan", "ios": "https://dc.lft.to/lastmile_qr_scan"}, "fusion_lon": 0.0, "is_reserved": 0, "is_disabled": 0, "fusion_lat": 0.0, "type": "electric_scooter", "name": "9a491f80e9c3fc844814b8423a2a3527", "lat": 38.904742, "bike_id": "9a491f80e9c3fc844814b8423a2a3527"}, {"lon": -77.03184233333333, "rental_uris": {"android": "https://dc.lft.to/lastmile_qr_scan", "ios": "https://dc.lft.to/lastmile_qr_scan"}, "fusion_lon": 0.0, "is_reserved": 0, "is_disabled": 0, "fusion_lat": 0.0, "type": "electric_scooter", "name": "d07bf86d63783066cc60c731566b4380", "lat": 38.8840815, "bike_id": "d07bf86d63783066cc60c731566b4380"}, {"lon": -77.02415816666667, "rental_uris": {"android": "https://dc.lft.to/lastmile_qr_scan", "ios": "https://dc.lft.to/lastmile_qr_scan"}, "fusion_lon": 0.0, "is_reserved": 0, "is_disabled": 0, "fusion_lat": 0.0, "type": "electric_scooter", "name": "8aa92d24ec76f6e71b67ed0d205cb950", "lat": 38.892175, "bike_id": "8aa92d24ec76f6e71b67ed0d205cb950"}, {"lon": -76.9824045, "rental_uris": {"android": "https://dc.lft.to/lastmile_qr_scan", "ios": "https://dc.lft.to/lastmile_qr_scan"}, "fusion_lon": 0.0, "is_reserved": 0, "is_disabled": 0, "fusion_lat": 0.0, "type": "electric_bike", "name": "81435acf665b3f38df96eb7916b80650", "lat": 38.95320566666667, "bike_id": "81435acf665b3f38df96eb7916b80650"}, {"lon": -77.033209, "rental_uris": {"android": "https://dc.lft.to/lastmile_qr_scan", "ios": "https://dc.lft.to/lastmile_qr_scan"}, "fusion_lon": 0.0, "is_reserved": 0, "is_disabled": 0, "fusion_lat": 0.0, "type": "electric_scooter", "name": "f2e85ae95722a68c665c2e2d9204e9b9", "lat": 38.8987985, "bike_id": "f2e85ae95722a68c665c2e2d9204e9b9"}, {"lon": -77.02430666666666, "rental_uris": {"android": "https://dc.lft.to/lastmile_qr_scan", "ios": "https://dc.lft.to/lastmile_qr_scan"}, "fusion_lon": 0.0, "is_reserved": 0, "is_disabled": 0, "fusion_lat": 0.0, "type": "electric_scooter", "name": "661721b465beeac5a2981b934da34e75", "lat": 38.96799583333333, "bike_id": "661721b465beeac5a2981b934da34e75"}, {"lon": -76.98344466666667, "rental_uris": {"android": "https://dc.lft.to/lastmile_qr_scan", "ios": "https://dc.lft.to/lastmile_qr_scan"}, "fusion_lon": 0.0, "is_reserved": 0, "is_disabled": 0, "fusion_lat": 0.0, "type": "electric_scooter", "name": "50fcb869d7b5e74a48bac56f0596b9f9", "lat": 38.89545233333333, "bike_id": "50fcb869d7b5e74a48bac56f0596b9f9"}, {"lon": -76.95757733333333, "rental_uris": {"android": "https://dc.lft.to/lastmile_qr_scan", "ios": "https://dc.lft.to/lastmile_qr_scan"}, "fusion_lon": 0.0, "is_reserved": 0, "is_disabled": 0, "fusion_lat": 0.0, "type": "electric_scooter", "name": "29018715225265df8f76dfdada697c44", "lat": 38.8843, "bike_id": "29018715225265df8f76dfdada697c44"}, {"lon": -77.0211735, "rental_uris": {"android": "https://dc.lft.to/lastmile_qr_scan", "ios": "https://dc.lft.to/lastmile_qr_scan"}, "fusion_lon": 0.0, "is_reserved": 0, "is_disabled": 0, "fusion_lat": 0.0, "type": "electric_scooter", "name": "f14f9faf3c488b8109b74e4db460612e", "lat": 38.9363215, "bike_id": "f14f9faf3c488b8109b74e4db460612e"}, {"lon": -77.03217916666667, "rental_uris": {"android": "https://dc.lft.to/lastmile_qr_scan", "ios": "https://dc.lft.to/lastmile_qr_scan"}, "fusion_lon": 0.0, "is_reserved": 0, "is_disabled": 0, "fusion_lat": 0.0, "type": "electric_scooter", "name": "06b7d69557b13650de8b6074b1658ebe", "lat": 38.89221633333333, "bike_id": "06b7d69557b13650de8b6074b1658ebe"}, {"lon": -77.0136195, "rental_uris": {"android": "https://dc.lft.to/lastmile_qr_scan", "ios": "https://dc.lft.to/lastmile_qr_scan"}, "fusion_lon": 0.0, "is_reserved": 0, "is_disabled": 0, "fusion_lat": 0.0, "type": "electric_scooter", "name": "e139d85e6eb14d33adbf47bd4c2141c6", "lat": 38.87267683333334, "bike_id": "e139d85e6eb14d33adbf47bd4c2141c6"}, {"lon": -77.05135683333333, "rental_uris": {"android": "https://dc.lft.to/lastmile_qr_scan", "ios": "https://dc.lft.to/lastmile_qr_scan"}, "fusion_lon": 0.0, "is_reserved": 0, "is_disabled": 0, "fusion_lat": 0.0, "type": "electric_scooter", "name": "c503b2a29ddf532658d42b7239c3db5a", "lat": 38.90639933333333, "bike_id": "c503b2a29ddf532658d42b7239c3db5a"}, {"lon": -77.02598266666666, "rental_uris": {"android": "https://dc.lft.to/lastmile_qr_scan", "ios": "https://dc.lft.to/lastmile_qr_scan"}, "fusion_lon": 0.0, "is_reserved": 0, "is_disabled": 0, "fusion_lat": 0.0, "type": "electric_scooter", "name": "fbe56c04b3a9b8b89918099a1218e891", "lat": 38.89357433333333, "bike_id": "fbe56c04b3a9b8b89918099a1218e891"}, {"lon": -77.02221783333333, "rental_uris": {"android": "https://dc.lft.to/lastmile_qr_scan", "ios": "https://dc.lft.to/lastmile_qr_scan"}, "fusion_lon": 0.0, "is_reserved": 0, "is_disabled": 0, "fusion_lat": 0.0, "type": "electric_scooter", "name": "d933d8b2e77e437c041da35e834790a1", "lat": 38.89221083333333, "bike_id": "d933d8b2e77e437c041da35e834790a1"}, {"lon": -77.0193065, "rental_uris": {"android": "https://dc.lft.to/lastmile_qr_scan", "ios": "https://dc.lft.to/lastmile_qr_scan"}, "fusion_lon": 0.0, "is_reserved": 0, "is_disabled": 0, "fusion_lat": 0.0, "type": "electric_scooter", "name": "cc32729b0ed96fe490f62b8eba24b1b5", "lat": 38.922511166666666, "bike_id": "cc32729b0ed96fe490f62b8eba24b1b5"}, {"lon": -77.0075315, "rental_uris": {"android": "https://dc.lft.to/lastmile_qr_scan", "ios": "https://dc.lft.to/lastmile_qr_scan"}, "fusion_lon": 0.0, "is_reserved": 0, "is_disabled": 0, "fusion_lat": 0.0, "type": "electric_scooter", "name": "72dd770c8c5f7509b7c661b15b67dfdf", "lat": 38.871137833333336, "bike_id": "72dd770c8c5f7509b7c661b15b67dfdf"}, {"lon": -76.978519, "rental_uris": {"android": "https://dc.lft.to/lastmile_qr_scan", "ios": "https://dc.lft.to/lastmile_qr_scan"}, "fusion_lon": 0.0, "is_reserved": 0, "is_disabled": 0, "fusion_lat": 0.0, "type": "electric_scooter", "name": "99db40685c64c79c4f6a35edcd7bb414", "lat": 38.869713, "bike_id": "99db40685c64c79c4f6a35edcd7bb414"}, {"lon": -77.0437275, "rental_uris": {"android": "https://dc.lft.to/lastmile_qr_scan", "ios": "https://dc.lft.to/lastmile_qr_scan"}, "fusion_lon": 0.0, "is_reserved": 0, "is_disabled": 0, "fusion_lat": 0.0, "type": "electric_scooter", "name": "049a1c76b705a39fd9a57e58f6950574", "lat": 38.91112966666667, "bike_id": "049a1c76b705a39fd9a57e58f6950574"}, {"lon": -77.05001333333334, "rental_uris": {"android": "https://dc.lft.to/lastmile_qr_scan", "ios": "https://dc.lft.to/lastmile_qr_scan"}, "fusion_lon": 0.0, "is_reserved": 0, "is_disabled": 0, "fusion_lat": 0.0, "type": "electric_scooter", "name": "983a288d76351f19127dbc3b0a22707b", "lat": 38.89875633333333, "bike_id": "983a288d76351f19127dbc3b0a22707b"}, {"lon": -77.04330033333333, "rental_uris": {"android": "https://dc.lft.to/lastmile_qr_scan", "ios": "https://dc.lft.to/lastmile_qr_scan"}, "fusion_lon": 0.0, "is_reserved": 0, "is_disabled": 0, "fusion_lat": 0.0, "type": "electric_scooter", "name": "3b30d0bd1506356b6e721f68342e724d", "lat": 38.900332166666665, "bike_id": "3b30d0bd1506356b6e721f68342e724d"}, {"lon": -77.03949383333334, "rental_uris": {"android": "https://dc.lft.to/lastmile_qr_scan", "ios": "https://dc.lft.to/lastmile_qr_scan"}, "fusion_lon": 0.0, "is_reserved": 0, "is_disabled": 0, "fusion_lat": 0.0, "type": "electric_scooter", "name": "fb8fb3b24a83e71932cbe75aae81fff8", "lat": 38.946253666666664, "bike_id": "fb8fb3b24a83e71932cbe75aae81fff8"}, {"lon": -77.02721583333333, "rental_uris": {"android": "https://dc.lft.to/lastmile_qr_scan", "ios": "https://dc.lft.to/lastmile_qr_scan"}, "fusion_lon": 0.0, "is_reserved": 0, "is_disabled": 0, "fusion_lat": 0.0, "type": "electric_scooter", "name": "7b5c9ec89975640ccba028344153cbba", "lat": 38.936926666666665, "bike_id": "7b5c9ec89975640ccba028344153cbba"}, {"lon": -77.03834816666667, "rental_uris": {"android": "https://dc.lft.to/lastmile_qr_scan", "ios": "https://dc.lft.to/lastmile_qr_scan"}, "fusion_lon": 0.0, "is_reserved": 0, "is_disabled": 0, "fusion_lat": 0.0, "type": "electric_scooter", "name": "01264927810bf46a003408ba10d8b393", "lat": 38.91108966666667, "bike_id": "01264927810bf46a003408ba10d8b393"}, {"lon": -77.04340883333333, "rental_uris": {"android": "https://dc.lft.to/lastmile_qr_scan", "ios": "https://dc.lft.to/lastmile_qr_scan"}, "fusion_lon": 0.0, "is_reserved": 0, "is_disabled": 0, "fusion_lat": 0.0, "type": "electric_scooter", "name": "908ce99aefd752a88de63aec3ea96425", "lat": 38.90312633333333, "bike_id": "908ce99aefd752a88de63aec3ea96425"}, {"lon": -77.02295416666666, "rental_uris": {"android": "https://dc.lft.to/lastmile_qr_scan", "ios": "https://dc.lft.to/lastmile_qr_scan"}, "fusion_lon": 0.0, "is_reserved": 0, "is_disabled": 0, "fusion_lat": 0.0, "type": "electric_scooter", "name": "79205e3918007971358d84d02c938e4c", "lat": 38.916067166666664, "bike_id": "79205e3918007971358d84d02c938e4c"}, {"lon": -77.033354, "rental_uris": {"android": "https://dc.lft.to/lastmile_qr_scan", "ios": "https://dc.lft.to/lastmile_qr_scan"}, "fusion_lon": 0.0, "is_reserved": 0, "is_disabled": 0, "fusion_lat": 0.0, "type": "electric_scooter", "name": "006b430623afcfbcb8c3821f3a3a94a2", "lat": 38.92441483333333, "bike_id": "006b430623afcfbcb8c3821f3a3a94a2"}, {"lon": -76.9375585, "rental_uris": {"android": "https://dc.lft.to/lastmile_qr_scan", "ios": "https://dc.lft.to/lastmile_qr_scan"}, "fusion_lon": 0.0, "is_reserved": 0, "is_disabled": 0, "fusion_lat": 0.0, "type": "electric_scooter", "name": "f6e1aeb79703cb82bbc65b2d585139de", "lat": 38.89043516666667, "bike_id": "f6e1aeb79703cb82bbc65b2d585139de"}, {"lon": -76.93258983333334, "rental_uris": {"android": "https://dc.lft.to/lastmile_qr_scan", "ios": "https://dc.lft.to/lastmile_qr_scan"}, "fusion_lon": 0.0, "is_reserved": 0, "is_disabled": 0, "fusion_lat": 0.0, "type": "electric_scooter", "name": "3dc94f4cac24940c29fc83d8540476eb", "lat": 38.887406, "bike_id": "3dc94f4cac24940c29fc83d8540476eb"}, {"lon": -77.04336566666667, "rental_uris": {"android": "https://dc.lft.to/lastmile_qr_scan", "ios": "https://dc.lft.to/lastmile_qr_scan"}, "fusion_lon": 0.0, "is_reserved": 0, "is_disabled": 0, "fusion_lat": 0.0, "type": "electric_scooter", "name": "bc32d0853dc9162b565cfa6f5fab49dc", "lat": 38.8922175, "bike_id": "bc32d0853dc9162b565cfa6f5fab49dc"}, {"lon": -77.02232183333334, "rental_uris": {"android": "https://dc.lft.to/lastmile_qr_scan", "ios": "https://dc.lft.to/lastmile_qr_scan"}, "fusion_lon": 0.0, "is_reserved": 0, "is_disabled": 0, "fusion_lat": 0.0, "type": "electric_scooter", "name": "f8a8f1c46cbbbe7d738430f21c3c9abd", "lat": 38.907333333333334, "bike_id": "f8a8f1c46cbbbe7d738430f21c3c9abd"}, {"lon": -77.2333725, "rental_uris": {"android": "https://dc.lft.to/lastmile_qr_scan", "ios": "https://dc.lft.to/lastmile_qr_scan"}, "fusion_lon": 0.0, "is_reserved": 0, "is_disabled": 0, "fusion_lat": 0.0, "type": "electric_bike", "name": "46326bc7bda1f27eb6baf48f808ebeb1", "lat": 38.925026333333335, "bike_id": "46326bc7bda1f27eb6baf48f808ebeb1"}, {"lon": -77.07956683333333, "rental_uris": {"android": "https://dc.lft.to/lastmile_qr_scan", "ios": "https://dc.lft.to/lastmile_qr_scan"}, "fusion_lon": 0.0, "is_reserved": 0, "is_disabled": 0, "fusion_lat": 0.0, "type": "electric_scooter", "name": "06f4799de3213d62676dcaba02344d5b", "lat": 38.945597666666664, "bike_id": "06f4799de3213d62676dcaba02344d5b"}, {"lon": -77.043696, "rental_uris": {"android": "https://dc.lft.to/lastmile_qr_scan", "ios": "https://dc.lft.to/lastmile_qr_scan"}, "fusion_lon": 0.0, "is_reserved": 0, "is_disabled": 0, "fusion_lat": 0.0, "type": "electric_scooter", "name": "6561991df6e58f9945a385e7a514e04b", "lat": 38.8922215, "bike_id": "6561991df6e58f9945a385e7a514e04b"}, {"lon": -76.97348583333333, "rental_uris": {"android": "https://dc.lft.to/lastmile_qr_scan", "ios": "https://dc.lft.to/lastmile_qr_scan"}, "fusion_lon": 0.0, "is_reserved": 0, "is_disabled": 0, "fusion_lat": 0.0, "type": "electric_scooter", "name": "6bc5b123f9cfead2bdcf0756f22e8dae", "lat": 38.9276725, "bike_id": "6bc5b123f9cfead2bdcf0756f22e8dae"}, {"lon": -77.02117783333334, "rental_uris": {"android": "https://dc.lft.to/lastmile_qr_scan", "ios": "https://dc.lft.to/lastmile_qr_scan"}, "fusion_lon": 0.0, "is_reserved": 0, "is_disabled": 0, "fusion_lat": 0.0, "type": "electric_scooter", "name": "72b59c2a3b415bbd55d27cd90ef54fe4", "lat": 38.893223, "bike_id": "72b59c2a3b415bbd55d27cd90ef54fe4"}, {"lon": -77.02714933333333, "rental_uris": {"android": "https://dc.lft.to/lastmile_qr_scan", "ios": "https://dc.lft.to/lastmile_qr_scan"}, "fusion_lon": 0.0, "is_reserved": 0, "is_disabled": 0, "fusion_lat": 0.0, "type": "electric_scooter", "name": "d12a865c13768c207e49b5d7372f7a4e", "lat": 38.906661166666666, "bike_id": "d12a865c13768c207e49b5d7372f7a4e"}, {"lon": -77.02321, "rental_uris": {"android": "https://dc.lft.to/lastmile_qr_scan", "ios": "https://dc.lft.to/lastmile_qr_scan"}, "fusion_lon": 0.0, "is_reserved": 0, "is_disabled": 0, "fusion_lat": 0.0, "type": "electric_scooter", "name": "385fbe21da8ef4b23d3d795dfa8ef4a6", "lat": 38.920938166666666, "bike_id": "385fbe21da8ef4b23d3d795dfa8ef4a6"}, {"lon": -77.03253616666667, "rental_uris": {"android": "https://dc.lft.to/lastmile_qr_scan", "ios": "https://dc.lft.to/lastmile_qr_scan"}, "fusion_lon": 0.0, "is_reserved": 0, "is_disabled": 0, "fusion_lat": 0.0, "type": "electric_bike", "name": "5aab64787b0c53897a8bf1f2460eeaba", "lat": 38.93091233333333, "bike_id": "5aab64787b0c53897a8bf1f2460eeaba"}, {"lon": -77.02072283333334, "rental_uris": {"android": "https://dc.lft.to/lastmile_qr_scan", "ios": "https://dc.lft.to/lastmile_qr_scan"}, "fusion_lon": 0.0, "is_reserved": 0, "is_disabled": 0, "fusion_lat": 0.0, "type": "electric_scooter", "name": "21a9cb1d7824a6e5b9e682e4659e753b", "lat": 38.904124, "bike_id": "21a9cb1d7824a6e5b9e682e4659e753b"}, {"lon": -77.03231383333333, "rental_uris": {"android": "https://dc.lft.to/lastmile_qr_scan", "ios": "https://dc.lft.to/lastmile_qr_scan"}, "fusion_lon": 0.0, "is_reserved": 0, "is_disabled": 0, "fusion_lat": 0.0, "type": "electric_scooter", "name": "e0e3cb7a0ced44dd021c2292137536b5", "lat": 38.92883583333333, "bike_id": "e0e3cb7a0ced44dd021c2292137536b5"}, {"lon": -77.05807566666667, "rental_uris": {"android": "https://dc.lft.to/lastmile_qr_scan", "ios": "https://dc.lft.to/lastmile_qr_scan"}, "fusion_lon": 0.0, "is_reserved": 0, "is_disabled": 0, "fusion_lat": 0.0, "type": "electric_scooter", "name": "feca08cc5240089a5e9db8ad9d8eed81", "lat": 38.92894366666667, "bike_id": "feca08cc5240089a5e9db8ad9d8eed81"}, {"lon": -77.04676433333333, "rental_uris": {"android": "https://dc.lft.to/lastmile_qr_scan", "ios": "https://dc.lft.to/lastmile_qr_scan"}, "fusion_lon": 0.0, "is_reserved": 0, "is_disabled": 0, "fusion_lat": 0.0, "type": "electric_scooter", "name": "fa262eb2f226b706d54c0ecab16e8457", "lat": 38.9024765, "bike_id": "fa262eb2f226b706d54c0ecab16e8457"}, {"lon": -77.00596383333334, "rental_uris": {"android": "https://dc.lft.to/lastmile_qr_scan", "ios": "https://dc.lft.to/lastmile_qr_scan"}, "fusion_lon": 0.0, "is_reserved": 0, "is_disabled": 0, "fusion_lat": 0.0, "type": "electric_bike", "name": "da84433bb22272c026d3273d84464d5d", "lat": 38.89804016666667, "bike_id": "da84433bb22272c026d3273d84464d5d"}, {"lon": -77.0209285, "rental_uris": {"android": "https://dc.lft.to/lastmile_qr_scan", "ios": "https://dc.lft.to/lastmile_qr_scan"}, "fusion_lon": 0.0, "is_reserved": 0, "is_disabled": 0, "fusion_lat": 0.0, "type": "electric_scooter", "name": "09094b2f62ba723f7c4a40b070508ab3", "lat": 38.90083766666667, "bike_id": "09094b2f62ba723f7c4a40b070508ab3"}, {"lon": -77.005381, "rental_uris": {"android": "https://dc.lft.to/lastmile_qr_scan", "ios": "https://dc.lft.to/lastmile_qr_scan"}, "fusion_lon": 0.0, "is_reserved": 0, "is_disabled": 0, "fusion_lat": 0.0, "type": "electric_scooter", "name": "e167a63f34a5b5245dc7a7d3e74c5fe5", "lat": 38.8754705, "bike_id": "e167a63f34a5b5245dc7a7d3e74c5fe5"}, {"lon": -77.02947883333333, "rental_uris": {"android": "https://dc.lft.to/lastmile_qr_scan", "ios": "https://dc.lft.to/lastmile_qr_scan"}, "fusion_lon": 0.0, "is_reserved": 0, "is_disabled": 0, "fusion_lat": 0.0, "type": "electric_scooter", "name": "f9d167d043f3b89d8099ba01532bafef", "lat": 38.913478833333336, "bike_id": "f9d167d043f3b89d8099ba01532bafef"}, {"lon": -77.04487583333334, "rental_uris": {"android": "https://dc.lft.to/lastmile_qr_scan", "ios": "https://dc.lft.to/lastmile_qr_scan"}, "fusion_lon": 0.0, "is_reserved": 0, "is_disabled": 0, "fusion_lat": 0.0, "type": "electric_scooter", "name": "a672643cb0d2c37343d2000acc5974af", "lat": 38.914019333333336, "bike_id": "a672643cb0d2c37343d2000acc5974af"}, {"lon": -77.00716616666666, "rental_uris": {"android": "https://dc.lft.to/lastmile_qr_scan", "ios": "https://dc.lft.to/lastmile_qr_scan"}, "fusion_lon": 0.0, "is_reserved": 0, "is_disabled": 0, "fusion_lat": 0.0, "type": "electric_scooter", "name": "cf027084f0ab05cd829d2cfb3f8a4289", "lat": 38.884941, "bike_id": "cf027084f0ab05cd829d2cfb3f8a4289"}, {"lon": -77.01232583333334, "rental_uris": {"android": "https://dc.lft.to/lastmile_qr_scan", "ios": "https://dc.lft.to/lastmile_qr_scan"}, "fusion_lon": 0.0, "is_reserved": 0, "is_disabled": 0, "fusion_lat": 0.0, "type": "electric_scooter", "name": "1ec34edf25a090a3096869fa65c4ee14", "lat": 38.8933625, "bike_id": "1ec34edf25a090a3096869fa65c4ee14"}, {"lon": -77.0499375, "rental_uris": {"android": "https://dc.lft.to/lastmile_qr_scan", "ios": "https://dc.lft.to/lastmile_qr_scan"}, "fusion_lon": 0.0, "is_reserved": 0, "is_disabled": 0, "fusion_lat": 0.0, "type": "electric_scooter", "name": "4388f1ff8f719cd2657232c212ab15cb", "lat": 38.901137166666665, "bike_id": "4388f1ff8f719cd2657232c212ab15cb"}, {"lon": -77.02371683333334, "rental_uris": {"android": "https://dc.lft.to/lastmile_qr_scan", "ios": "https://dc.lft.to/lastmile_qr_scan"}, "fusion_lon": 0.0, "is_reserved": 0, "is_disabled": 0, "fusion_lat": 0.0, "type": "electric_scooter", "name": "0d1fd71f56be031adc9ab2d5ff9d9f80", "lat": 38.91763133333333, "bike_id": "0d1fd71f56be031adc9ab2d5ff9d9f80"}, {"lon": -77.031828, "rental_uris": {"android": "https://dc.lft.to/lastmile_qr_scan", "ios": "https://dc.lft.to/lastmile_qr_scan"}, "fusion_lon": 0.0, "is_reserved": 0, "is_disabled": 0, "fusion_lat": 0.0, "type": "electric_scooter", "name": "97511e2eca6a319ce22a6ce53c834f5a", "lat": 38.89189833333333, "bike_id": "97511e2eca6a319ce22a6ce53c834f5a"}, {"lon": -77.0449725, "rental_uris": {"android": "https://dc.lft.to/lastmile_qr_scan", "ios": "https://dc.lft.to/lastmile_qr_scan"}, "fusion_lon": 0.0, "is_reserved": 0, "is_disabled": 0, "fusion_lat": 0.0, "type": "electric_scooter", "name": "2e92c5d4572fa9dafec40815377dff5f", "lat": 38.90381283333333, "bike_id": "2e92c5d4572fa9dafec40815377dff5f"}, {"lon": -77.0503525, "rental_uris": {"android": "https://dc.lft.to/lastmile_qr_scan", "ios": "https://dc.lft.to/lastmile_qr_scan"}, "fusion_lon": 0.0, "is_reserved": 0, "is_disabled": 0, "fusion_lat": 0.0, "type": "electric_scooter", "name": "12c350a4e783cc074d73910e33e03391", "lat": 38.906283, "bike_id": "12c350a4e783cc074d73910e33e03391"}, {"lon": -77.05832516666666, "rental_uris": {"android": "https://dc.lft.to/lastmile_qr_scan", "ios": "https://dc.lft.to/lastmile_qr_scan"}, "fusion_lon": 0.0, "is_reserved": 0, "is_disabled": 0, "fusion_lat": 0.0, "type": "electric_scooter", "name": "3ba94bbbfe2e3b23fdd48816044e3fd6", "lat": 38.935634, "bike_id": "3ba94bbbfe2e3b23fdd48816044e3fd6"}, {"lon": -77.04337516666666, "rental_uris": {"android": "https://dc.lft.to/lastmile_qr_scan", "ios": "https://dc.lft.to/lastmile_qr_scan"}, "fusion_lon": 0.0, "is_reserved": 0, "is_disabled": 0, "fusion_lat": 0.0, "type": "electric_scooter", "name": "a08e4a097e4699747b1dd3f7bdddf900", "lat": 38.907967166666666, "bike_id": "a08e4a097e4699747b1dd3f7bdddf900"}, {"lon": -77.027868, "rental_uris": {"android": "https://dc.lft.to/lastmile_qr_scan", "ios": "https://dc.lft.to/lastmile_qr_scan"}, "fusion_lon": 0.0, "is_reserved": 0, "is_disabled": 0, "fusion_lat": 0.0, "type": "electric_scooter", "name": "1ef5b15e98850c4760a62061f5ca4328", "lat": 38.973510166666664, "bike_id": "1ef5b15e98850c4760a62061f5ca4328"}, {"lon": -77.02377716666666, "rental_uris": {"android": "https://dc.lft.to/lastmile_qr_scan", "ios": "https://dc.lft.to/lastmile_qr_scan"}, "fusion_lon": 0.0, "is_reserved": 0, "is_disabled": 0, "fusion_lat": 0.0, "type": "electric_scooter", "name": "ddf1476695a7c5fdf4fbc563f6805072", "lat": 38.892191833333335, "bike_id": "ddf1476695a7c5fdf4fbc563f6805072"}, {"lon": -76.98467033333333, "rental_uris": {"android": "https://dc.lft.to/lastmile_qr_scan", "ios": "https://dc.lft.to/lastmile_qr_scan"}, "fusion_lon": 0.0, "is_reserved": 0, "is_disabled": 0, "fusion_lat": 0.0, "type": "electric_scooter", "name": "266daefbf5efdeafbca22500b8fa85d8", "lat": 38.909676833333336, "bike_id": "266daefbf5efdeafbca22500b8fa85d8"}, {"lon": -77.04706333333333, "rental_uris": {"android": "https://dc.lft.to/lastmile_qr_scan", "ios": "https://dc.lft.to/lastmile_qr_scan"}, "fusion_lon": 0.0, "is_reserved": 0, "is_disabled": 0, "fusion_lat": 0.0, "type": "electric_scooter", "name": "24d6ebfb27eccb74556cdd948e88d65b", "lat": 38.89953916666666, "bike_id": "24d6ebfb27eccb74556cdd948e88d65b"}, {"lon": -77.03877766666666, "rental_uris": {"android": "https://dc.lft.to/lastmile_qr_scan", "ios": "https://dc.lft.to/lastmile_qr_scan"}, "fusion_lon": 0.0, "is_reserved": 0, "is_disabled": 0, "fusion_lat": 0.0, "type": "electric_scooter", "name": "36a1b94ae1e3e366c18d2ce32ad863a0", "lat": 38.90279, "bike_id": "36a1b94ae1e3e366c18d2ce32ad863a0"}, {"lon": -77.02155133333333, "rental_uris": {"android": "https://dc.lft.to/lastmile_qr_scan", "ios": "https://dc.lft.to/lastmile_qr_scan"}, "fusion_lon": 0.0, "is_reserved": 0, "is_disabled": 0, "fusion_lat": 0.0, "type": "electric_scooter", "name": "42d436bd5869d7c2e83a86aa444f07c8", "lat": 38.92458283333333, "bike_id": "42d436bd5869d7c2e83a86aa444f07c8"}, {"lon": -77.01972283333333, "rental_uris": {"android": "https://dc.lft.to/lastmile_qr_scan", "ios": "https://dc.lft.to/lastmile_qr_scan"}, "fusion_lon": 0.0, "is_reserved": 0, "is_disabled": 0, "fusion_lat": 0.0, "type": "electric_scooter", "name": "c05b0b62fd407b0f11e962795db06aaa", "lat": 38.91899183333334, "bike_id": "c05b0b62fd407b0f11e962795db06aaa"}, {"lon": -77.03215683333333, "rental_uris": {"android": "https://dc.lft.to/lastmile_qr_scan", "ios": "https://dc.lft.to/lastmile_qr_scan"}, "fusion_lon": 0.0, "is_reserved": 0, "is_disabled": 0, "fusion_lat": 0.0, "type": "electric_scooter", "name": "3993918f5b7f662e79cab67fb7cf43c0", "lat": 38.91793466666667, "bike_id": "3993918f5b7f662e79cab67fb7cf43c0"}, {"lon": -77.0299065, "rental_uris": {"android": "https://dc.lft.to/lastmile_qr_scan", "ios": "https://dc.lft.to/lastmile_qr_scan"}, "fusion_lon": 0.0, "is_reserved": 0, "is_disabled": 0, "fusion_lat": 0.0, "type": "electric_scooter", "name": "72a5703cbd0c55cfc03f9c82fd995cc9", "lat": 38.92240816666666, "bike_id": "72a5703cbd0c55cfc03f9c82fd995cc9"}, {"lon": -77.03836, "rental_uris": {"android": "https://dc.lft.to/lastmile_qr_scan", "ios": "https://dc.lft.to/lastmile_qr_scan"}, "fusion_lon": 0.0, "is_reserved": 0, "is_disabled": 0, "fusion_lat": 0.0, "type": "electric_scooter", "name": "b4b21d1c6d03102d85b631ea9d1a514d", "lat": 38.94502766666667, "bike_id": "b4b21d1c6d03102d85b631ea9d1a514d"}, {"lon": -77.03673466666666, "rental_uris": {"android": "https://dc.lft.to/lastmile_qr_scan", "ios": "https://dc.lft.to/lastmile_qr_scan"}, "fusion_lon": 0.0, "is_reserved": 0, "is_disabled": 0, "fusion_lat": 0.0, "type": "electric_scooter", "name": "ea7333a3282500a48db78021120e7d07", "lat": 38.932068, "bike_id": "ea7333a3282500a48db78021120e7d07"}, {"lon": -77.02373766666666, "rental_uris": {"android": "https://dc.lft.to/lastmile_qr_scan", "ios": "https://dc.lft.to/lastmile_qr_scan"}, "fusion_lon": 0.0, "is_reserved": 0, "is_disabled": 0, "fusion_lat": 0.0, "type": "electric_scooter", "name": "fa29d380d593816941922df5f19b2932", "lat": 38.902055833333335, "bike_id": "fa29d380d593816941922df5f19b2932"}, {"lon": -77.007288, "rental_uris": {"android": "https://dc.lft.to/lastmile_qr_scan", "ios": "https://dc.lft.to/lastmile_qr_scan"}, "fusion_lon": 0.0, "is_reserved": 0, "is_disabled": 0, "fusion_lat": 0.0, "type": "electric_scooter", "name": "1d74fa9a07e8a7ae401cb20ec83148b4", "lat": 38.9053945, "bike_id": "1d74fa9a07e8a7ae401cb20ec83148b4"}, {"lon": -77.01240966666667, "rental_uris": {"android": "https://dc.lft.to/lastmile_qr_scan", "ios": "https://dc.lft.to/lastmile_qr_scan"}, "fusion_lon": 0.0, "is_reserved": 0, "is_disabled": 0, "fusion_lat": 0.0, "type": "electric_scooter", "name": "c1ed7e4c40f5b55dc67bceeaff1bb89f", "lat": 38.89849933333333, "bike_id": "c1ed7e4c40f5b55dc67bceeaff1bb89f"}, {"lon": -77.003859, "rental_uris": {"android": "https://dc.lft.to/lastmile_qr_scan", "ios": "https://dc.lft.to/lastmile_qr_scan"}, "fusion_lon": 0.0, "is_reserved": 0, "is_disabled": 0, "fusion_lat": 0.0, "type": "electric_scooter", "name": "ed22f83dd72b4ddfcc648e9b2a0ce83d", "lat": 38.907382166666665, "bike_id": "ed22f83dd72b4ddfcc648e9b2a0ce83d"}, {"lon": -77.02373066666667, "rental_uris": {"android": "https://dc.lft.to/lastmile_qr_scan", "ios": "https://dc.lft.to/lastmile_qr_scan"}, "fusion_lon": 0.0, "is_reserved": 0, "is_disabled": 0, "fusion_lat": 0.0, "type": "electric_scooter", "name": "f0be809a3aeaf33342eda22148069f32", "lat": 38.90207016666667, "bike_id": "f0be809a3aeaf33342eda22148069f32"}, {"lon": -77.00641733333333, "rental_uris": {"android": "https://dc.lft.to/lastmile_qr_scan", "ios": "https://dc.lft.to/lastmile_qr_scan"}, "fusion_lon": 0.0, "is_reserved": 0, "is_disabled": 0, "fusion_lat": 0.0, "type": "electric_scooter", "name": "e8cf780b0a20f76c727562d51887d464", "lat": 38.87184666666667, "bike_id": "e8cf780b0a20f76c727562d51887d464"}, {"lon": -77.0318485, "rental_uris": {"android": "https://dc.lft.to/lastmile_qr_scan", "ios": "https://dc.lft.to/lastmile_qr_scan"}, "fusion_lon": 0.0, "is_reserved": 0, "is_disabled": 0, "fusion_lat": 0.0, "type": "electric_scooter", "name": "b5e2859c4e5397e028cef7078041713b", "lat": 38.8873225, "bike_id": "b5e2859c4e5397e028cef7078041713b"}, {"lon": -76.9940225, "rental_uris": {"android": "https://dc.lft.to/lastmile_qr_scan", "ios": "https://dc.lft.to/lastmile_qr_scan"}, "fusion_lon": 0.0, "is_reserved": 0, "is_disabled": 0, "fusion_lat": 0.0, "type": "electric_bike", "name": "6af8870161c14006460f9da214e9e2b8", "lat": 38.910069666666665, "bike_id": "6af8870161c14006460f9da214e9e2b8"}, {"lon": -77.07526883333334, "rental_uris": {"android": "https://dc.lft.to/lastmile_qr_scan", "ios": "https://dc.lft.to/lastmile_qr_scan"}, "fusion_lon": 0.0, "is_reserved": 0, "is_disabled": 0, "fusion_lat": 0.0, "type": "electric_bike", "name": "e42614c4f3113b77643b816194b5b4ea", "lat": 38.842848833333335, "bike_id": "e42614c4f3113b77643b816194b5b4ea"}, {"lon": -77.02129183333334, "rental_uris": {"android": "https://dc.lft.to/lastmile_qr_scan", "ios": "https://dc.lft.to/lastmile_qr_scan"}, "fusion_lon": 0.0, "is_reserved": 0, "is_disabled": 0, "fusion_lat": 0.0, "type": "electric_bike", "name": "19fed79bd061acaf9b79bc54890a44c8", "lat": 38.935762, "bike_id": "19fed79bd061acaf9b79bc54890a44c8"}, {"lon": -77.04471633333333, "rental_uris": {"android": "https://dc.lft.to/lastmile_qr_scan", "ios": "https://dc.lft.to/lastmile_qr_scan"}, "fusion_lon": 0.0, "is_reserved": 0, "is_disabled": 0, "fusion_lat": 0.0, "type": "electric_scooter", "name": "62aa9e52cf445ec88d5effebece42928", "lat": 38.892201, "bike_id": "62aa9e52cf445ec88d5effebece42928"}, {"lon": -77.0217495, "rental_uris": {"android": "https://dc.lft.to/lastmile_qr_scan", "ios": "https://dc.lft.to/lastmile_qr_scan"}, "fusion_lon": 0.0, "is_reserved": 0, "is_disabled": 0, "fusion_lat": 0.0, "type": "electric_scooter", "name": "08ab0fc1155205f104f92ec5b267e36b", "lat": 38.92635583333333, "bike_id": "08ab0fc1155205f104f92ec5b267e36b"}, {"lon": -77.043263, "rental_uris": {"android": "https://dc.lft.to/lastmile_qr_scan", "ios": "https://dc.lft.to/lastmile_qr_scan"}, "fusion_lon": 0.0, "is_reserved": 0, "is_disabled": 0, "fusion_lat": 0.0, "type": "electric_scooter", "name": "26b7857cd1bfed56dd3f253857013589", "lat": 38.90806083333333, "bike_id": "26b7857cd1bfed56dd3f253857013589"}, {"lon": -77.02841266666667, "rental_uris": {"android": "https://dc.lft.to/lastmile_qr_scan", "ios": "https://dc.lft.to/lastmile_qr_scan"}, "fusion_lon": 0.0, "is_reserved": 0, "is_disabled": 0, "fusion_lat": 0.0, "type": "electric_scooter", "name": "169e9c29f47526c22300ac95a5e25548", "lat": 38.887674833333335, "bike_id": "169e9c29f47526c22300ac95a5e25548"}, {"lon": -77.02970683333334, "rental_uris": {"android": "https://dc.lft.to/lastmile_qr_scan", "ios": "https://dc.lft.to/lastmile_qr_scan"}, "fusion_lon": 0.0, "is_reserved": 0, "is_disabled": 0, "fusion_lat": 0.0, "type": "electric_scooter", "name": "bb44c66aaac7fe523fdc238d4f6cfaef", "lat": 38.91295133333333, "bike_id": "bb44c66aaac7fe523fdc238d4f6cfaef"}, {"lon": -76.9836115, "rental_uris": {"android": "https://dc.lft.to/lastmile_qr_scan", "ios": "https://dc.lft.to/lastmile_qr_scan"}, "fusion_lon": 0.0, "is_reserved": 0, "is_disabled": 0, "fusion_lat": 0.0, "type": "electric_scooter", "name": "130bb7b14666f19fb9fd6ca173f8d001", "lat": 38.887442166666666, "bike_id": "130bb7b14666f19fb9fd6ca173f8d001"}, {"lon": -77.04360033333333, "rental_uris": {"android": "https://dc.lft.to/lastmile_qr_scan", "ios": "https://dc.lft.to/lastmile_qr_scan"}, "fusion_lon": 0.0, "is_reserved": 0, "is_disabled": 0, "fusion_lat": 0.0, "type": "electric_scooter", "name": "f8f8b0fe1657e6f94fe2e8fb37f3ce76", "lat": 38.89744816666666, "bike_id": "f8f8b0fe1657e6f94fe2e8fb37f3ce76"}, {"lon": -77.03247316666666, "rental_uris": {"android": "https://dc.lft.to/lastmile_qr_scan", "ios": "https://dc.lft.to/lastmile_qr_scan"}, "fusion_lon": 0.0, "is_reserved": 0, "is_disabled": 0, "fusion_lat": 0.0, "type": "electric_scooter", "name": "fed0d6427267a6d38341f6767928b853", "lat": 38.905589, "bike_id": "fed0d6427267a6d38341f6767928b853"}, {"lon": -77.02999866666667, "rental_uris": {"android": "https://dc.lft.to/lastmile_qr_scan", "ios": "https://dc.lft.to/lastmile_qr_scan"}, "fusion_lon": 0.0, "is_reserved": 0, "is_disabled": 0, "fusion_lat": 0.0, "type": "electric_scooter", "name": "ca1aa7e6ce20f3d6a553d110afa78642", "lat": 38.90509616666667, "bike_id": "ca1aa7e6ce20f3d6a553d110afa78642"}, {"lon": -77.02203733333333, "rental_uris": {"android": "https://dc.lft.to/lastmile_qr_scan", "ios": "https://dc.lft.to/lastmile_qr_scan"}, "fusion_lon": 0.0, "is_reserved": 0, "is_disabled": 0, "fusion_lat": 0.0, "type": "electric_scooter", "name": "fc250412937f71b2aab6facec99dbcc4", "lat": 38.88599266666667, "bike_id": "fc250412937f71b2aab6facec99dbcc4"}, {"lon": -77.00560983333334, "rental_uris": {"android": "https://dc.lft.to/lastmile_qr_scan", "ios": "https://dc.lft.to/lastmile_qr_scan"}, "fusion_lon": 0.0, "is_reserved": 0, "is_disabled": 0, "fusion_lat": 0.0, "type": "electric_scooter", "name": "efd98e030f7613308460f616b195a0f4", "lat": 38.875623, "bike_id": "efd98e030f7613308460f616b195a0f4"}, {"lon": -77.03245633333333, "rental_uris": {"android": "https://dc.lft.to/lastmile_qr_scan", "ios": "https://dc.lft.to/lastmile_qr_scan"}, "fusion_lon": 0.0, "is_reserved": 0, "is_disabled": 0, "fusion_lat": 0.0, "type": "electric_scooter", "name": "a1e979aa91c218579e2d0ab8ec775df3", "lat": 38.929308166666665, "bike_id": "a1e979aa91c218579e2d0ab8ec775df3"}, {"lon": -77.02721333333334, "rental_uris": {"android": "https://dc.lft.to/lastmile_qr_scan", "ios": "https://dc.lft.to/lastmile_qr_scan"}, "fusion_lon": 0.0, "is_reserved": 0, "is_disabled": 0, "fusion_lat": 0.0, "type": "electric_scooter", "name": "bfa9f0c9a45955f4eada285348196707", "lat": 38.8985115, "bike_id": "bfa9f0c9a45955f4eada285348196707"}, {"lon": -76.9984485, "rental_uris": {"android": "https://dc.lft.to/lastmile_qr_scan", "ios": "https://dc.lft.to/lastmile_qr_scan"}, "fusion_lon": 0.0, "is_reserved": 0, "is_disabled": 0, "fusion_lat": 0.0, "type": "electric_scooter", "name": "dde2d54b748b66752b1b77e86b412854", "lat": 38.839574, "bike_id": "dde2d54b748b66752b1b77e86b412854"}, {"lon": -77.04621916666666, "rental_uris": {"android": "https://dc.lft.to/lastmile_qr_scan", "ios": "https://dc.lft.to/lastmile_qr_scan"}, "fusion_lon": 0.0, "is_reserved": 0, "is_disabled": 0, "fusion_lat": 0.0, "type": "electric_scooter", "name": "ac0a3af58c51e3d919bcdee6c0e8ed1c", "lat": 38.90636033333333, "bike_id": "ac0a3af58c51e3d919bcdee6c0e8ed1c"}, {"lon": -76.973338, "rental_uris": {"android": "https://dc.lft.to/lastmile_qr_scan", "ios": "https://dc.lft.to/lastmile_qr_scan"}, "fusion_lon": 0.0, "is_reserved": 0, "is_disabled": 0, "fusion_lat": 0.0, "type": "electric_scooter", "name": "2ddb1b9dee2343b2933d40fbaee7e6ac", "lat": 38.90409016666667, "bike_id": "2ddb1b9dee2343b2933d40fbaee7e6ac"}, {"lon": -77.045449, "rental_uris": {"android": "https://dc.lft.to/lastmile_qr_scan", "ios": "https://dc.lft.to/lastmile_qr_scan"}, "fusion_lon": 0.0, "is_reserved": 0, "is_disabled": 0, "fusion_lat": 0.0, "type": "electric_scooter", "name": "884f9510462e0fa1298632a391e7ae97", "lat": 38.9111135, "bike_id": "884f9510462e0fa1298632a391e7ae97"}, {"lon": -77.04784683333334, "rental_uris": {"android": "https://dc.lft.to/lastmile_qr_scan", "ios": "https://dc.lft.to/lastmile_qr_scan"}, "fusion_lon": 0.0, "is_reserved": 0, "is_disabled": 0, "fusion_lat": 0.0, "type": "electric_scooter", "name": "5ccf73a3566dec18b0de5aefff1cc25a", "lat": 38.89774383333334, "bike_id": "5ccf73a3566dec18b0de5aefff1cc25a"}, {"lon": -77.00383283333333, "rental_uris": {"android": "https://dc.lft.to/lastmile_qr_scan", "ios": "https://dc.lft.to/lastmile_qr_scan"}, "fusion_lon": 0.0, "is_reserved": 0, "is_disabled": 0, "fusion_lat": 0.0, "type": "electric_scooter", "name": "7e12d93aacd1549facf4dcb4600eb891", "lat": 38.896827, "bike_id": "7e12d93aacd1549facf4dcb4600eb891"}, {"lon": -77.05006433333334, "rental_uris": {"android": "https://dc.lft.to/lastmile_qr_scan", "ios": "https://dc.lft.to/lastmile_qr_scan"}, "fusion_lon": 0.0, "is_reserved": 0, "is_disabled": 0, "fusion_lat": 0.0, "type": "electric_scooter", "name": "34f9640daa07a0641565d5eb9c04f494", "lat": 38.89230833333333, "bike_id": "34f9640daa07a0641565d5eb9c04f494"}, {"lon": -76.93871416666667, "rental_uris": {"android": "https://dc.lft.to/lastmile_qr_scan", "ios": "https://dc.lft.to/lastmile_qr_scan"}, "fusion_lon": 0.0, "is_reserved": 0, "is_disabled": 0, "fusion_lat": 0.0, "type": "electric_bike", "name": "311e456fba0eae05cfa12402310edf34", "lat": 38.956380833333334, "bike_id": "311e456fba0eae05cfa12402310edf34"}, {"lon": -77.06428566666666, "rental_uris": {"android": "https://dc.lft.to/lastmile_qr_scan", "ios": "https://dc.lft.to/lastmile_qr_scan"}, "fusion_lon": 0.0, "is_reserved": 0, "is_disabled": 0, "fusion_lat": 0.0, "type": "electric_scooter", "name": "32747f2505c94aa278947fa86c72a138", "lat": 38.914001999999996, "bike_id": "32747f2505c94aa278947fa86c72a138"}, {"lon": -77.02450266666666, "rental_uris": {"android": "https://dc.lft.to/lastmile_qr_scan", "ios": "https://dc.lft.to/lastmile_qr_scan"}, "fusion_lon": 0.0, "is_reserved": 0, "is_disabled": 0, "fusion_lat": 0.0, "type": "electric_scooter", "name": "f70b8583da32c2b0e0518f8a32451fa1", "lat": 38.90000416666667, "bike_id": "f70b8583da32c2b0e0518f8a32451fa1"}, {"lon": -77.03543833333333, "rental_uris": {"android": "https://dc.lft.to/lastmile_qr_scan", "ios": "https://dc.lft.to/lastmile_qr_scan"}, "fusion_lon": 0.0, "is_reserved": 0, "is_disabled": 0, "fusion_lat": 0.0, "type": "electric_scooter", "name": "8667c2d42e4e2f845d6fb6296cda4a37", "lat": 38.933065166666665, "bike_id": "8667c2d42e4e2f845d6fb6296cda4a37"}, {"lon": -77.03212733333334, "rental_uris": {"android": "https://dc.lft.to/lastmile_qr_scan", "ios": "https://dc.lft.to/lastmile_qr_scan"}, "fusion_lon": 0.0, "is_reserved": 0, "is_disabled": 0, "fusion_lat": 0.0, "type": "electric_scooter", "name": "7c9168aea7d85bc6c669593e72ee0ee1", "lat": 38.914187166666665, "bike_id": "7c9168aea7d85bc6c669593e72ee0ee1"}, {"lon": -77.03568333333334, "rental_uris": {"android": "https://dc.lft.to/lastmile_qr_scan", "ios": "https://dc.lft.to/lastmile_qr_scan"}, "fusion_lon": 0.0, "is_reserved": 0, "is_disabled": 0, "fusion_lat": 0.0, "type": "electric_scooter", "name": "27936289a50ba583c9bda782db979b77", "lat": 38.90268833333333, "bike_id": "27936289a50ba583c9bda782db979b77"}, {"lon": -77.023696, "rental_uris": {"android": "https://dc.lft.to/lastmile_qr_scan", "ios": "https://dc.lft.to/lastmile_qr_scan"}, "fusion_lon": 0.0, "is_reserved": 0, "is_disabled": 0, "fusion_lat": 0.0, "type": "electric_scooter", "name": "e7f0ff37f1eecea501b3d7ac286e3a37", "lat": 38.90201183333333, "bike_id": "e7f0ff37f1eecea501b3d7ac286e3a37"}, {"lon": -77.064725, "rental_uris": {"android": "https://dc.lft.to/lastmile_qr_scan", "ios": "https://dc.lft.to/lastmile_qr_scan"}, "fusion_lon": 0.0, "is_reserved": 0, "is_disabled": 0, "fusion_lat": 0.0, "type": "electric_scooter", "name": "49c4abe69a35e089c0f438b79c67a931", "lat": 38.90503066666667, "bike_id": "49c4abe69a35e089c0f438b79c67a931"}, {"lon": -77.0219345, "rental_uris": {"android": "https://dc.lft.to/lastmile_qr_scan", "ios": "https://dc.lft.to/lastmile_qr_scan"}, "fusion_lon": 0.0, "is_reserved": 0, "is_disabled": 0, "fusion_lat": 0.0, "type": "electric_scooter", "name": "5907fa4eac155af69415f8902dd957bc", "lat": 38.921088, "bike_id": "5907fa4eac155af69415f8902dd957bc"}, {"lon": -77.0121765, "rental_uris": {"android": "https://dc.lft.to/lastmile_qr_scan", "ios": "https://dc.lft.to/lastmile_qr_scan"}, "fusion_lon": 0.0, "is_reserved": 0, "is_disabled": 0, "fusion_lat": 0.0, "type": "electric_bike", "name": "77fd9d54ccfbcb877bfb115096ec9dc0", "lat": 38.921225, "bike_id": "77fd9d54ccfbcb877bfb115096ec9dc0"}, {"lon": -76.97330433333333, "rental_uris": {"android": "https://dc.lft.to/lastmile_qr_scan", "ios": "https://dc.lft.to/lastmile_qr_scan"}, "fusion_lon": 0.0, "is_reserved": 0, "is_disabled": 0, "fusion_lat": 0.0, "type": "electric_scooter", "name": "ff7bfa335c132f59392451085da8fa34", "lat": 38.904107833333335, "bike_id": "ff7bfa335c132f59392451085da8fa34"}, {"lon": -77.056835, "rental_uris": {"android": "https://dc.lft.to/lastmile_qr_scan", "ios": "https://dc.lft.to/lastmile_qr_scan"}, "fusion_lon": 0.0, "is_reserved": 0, "is_disabled": 0, "fusion_lat": 0.0, "type": "electric_scooter", "name": "9cd891a3ce768b048bedd5d7cc29fc00", "lat": 38.923315833333334, "bike_id": "9cd891a3ce768b048bedd5d7cc29fc00"}, {"lon": -77.0473605, "rental_uris": {"android": "https://dc.lft.to/lastmile_qr_scan", "ios": "https://dc.lft.to/lastmile_qr_scan"}, "fusion_lon": 0.0, "is_reserved": 0, "is_disabled": 0, "fusion_lat": 0.0, "type": "electric_scooter", "name": "82fac308357c876a0fb25ed946e6fe72", "lat": 38.912653, "bike_id": "82fac308357c876a0fb25ed946e6fe72"}, {"lon": -77.0433675, "rental_uris": {"android": "https://dc.lft.to/lastmile_qr_scan", "ios": "https://dc.lft.to/lastmile_qr_scan"}, "fusion_lon": 0.0, "is_reserved": 0, "is_disabled": 0, "fusion_lat": 0.0, "type": "electric_scooter", "name": "6fff8f3d34a04c5f88bca3b39df04031", "lat": 38.90873116666667, "bike_id": "6fff8f3d34a04c5f88bca3b39df04031"}, {"lon": -77.02130083333333, "rental_uris": {"android": "https://dc.lft.to/lastmile_qr_scan", "ios": "https://dc.lft.to/lastmile_qr_scan"}, "fusion_lon": 0.0, "is_reserved": 0, "is_disabled": 0, "fusion_lat": 0.0, "type": "electric_scooter", "name": "6f202b580e5c3bd8b8e15350a5c3b5ef", "lat": 38.93579066666667, "bike_id": "6f202b580e5c3bd8b8e15350a5c3b5ef"}, {"lon": -76.99915633333333, "rental_uris": {"android": "https://dc.lft.to/lastmile_qr_scan", "ios": "https://dc.lft.to/lastmile_qr_scan"}, "fusion_lon": 0.0, "is_reserved": 0, "is_disabled": 0, "fusion_lat": 0.0, "type": "electric_scooter", "name": "30283aac571f1de52a0527ff451048db", "lat": 38.8434725, "bike_id": "30283aac571f1de52a0527ff451048db"}, {"lon": -77.02388116666667, "rental_uris": {"android": "https://dc.lft.to/lastmile_qr_scan", "ios": "https://dc.lft.to/lastmile_qr_scan"}, "fusion_lon": 0.0, "is_reserved": 0, "is_disabled": 0, "fusion_lat": 0.0, "type": "electric_scooter", "name": "dc47e0e3b14030e207b2a61d76e80dad", "lat": 38.896198, "bike_id": "dc47e0e3b14030e207b2a61d76e80dad"}, {"lon": -77.00574166666667, "rental_uris": {"android": "https://dc.lft.to/lastmile_qr_scan", "ios": "https://dc.lft.to/lastmile_qr_scan"}, "fusion_lon": 0.0, "is_reserved": 0, "is_disabled": 0, "fusion_lat": 0.0, "type": "electric_scooter", "name": "92502983d32a8b67537108fe8ce7d34d", "lat": 38.885103666666666, "bike_id": "92502983d32a8b67537108fe8ce7d34d"}, {"lon": -77.03401283333334, "rental_uris": {"android": "https://dc.lft.to/lastmile_qr_scan", "ios": "https://dc.lft.to/lastmile_qr_scan"}, "fusion_lon": 0.0, "is_reserved": 0, "is_disabled": 0, "fusion_lat": 0.0, "type": "electric_scooter", "name": "221a8470659056f962675f45c56c55dd", "lat": 38.9025395, "bike_id": "221a8470659056f962675f45c56c55dd"}, {"lon": -76.93481766666666, "rental_uris": {"android": "https://dc.lft.to/lastmile_qr_scan", "ios": "https://dc.lft.to/lastmile_qr_scan"}, "fusion_lon": 0.0, "is_reserved": 0, "is_disabled": 0, "fusion_lat": 0.0, "type": "electric_scooter", "name": "a38336af870379a6094fbaea85e1ef9d", "lat": 38.883266, "bike_id": "a38336af870379a6094fbaea85e1ef9d"}, {"lon": -77.02583866666667, "rental_uris": {"android": "https://dc.lft.to/lastmile_qr_scan", "ios": "https://dc.lft.to/lastmile_qr_scan"}, "fusion_lon": 0.0, "is_reserved": 0, "is_disabled": 0, "fusion_lat": 0.0, "type": "electric_scooter", "name": "248d8133f5ed008ed0f9b358b240183f", "lat": 38.918163166666666, "bike_id": "248d8133f5ed008ed0f9b358b240183f"}, {"lon": -77.03277983333334, "rental_uris": {"android": "https://dc.lft.to/lastmile_qr_scan", "ios": "https://dc.lft.to/lastmile_qr_scan"}, "fusion_lon": 0.0, "is_reserved": 0, "is_disabled": 0, "fusion_lat": 0.0, "type": "electric_scooter", "name": "1dc767dfcd85d6ed633cc53d92124473", "lat": 38.929366333333334, "bike_id": "1dc767dfcd85d6ed633cc53d92124473"}, {"lon": -77.018477, "rental_uris": {"android": "https://dc.lft.to/lastmile_qr_scan", "ios": "https://dc.lft.to/lastmile_qr_scan"}, "fusion_lon": 0.0, "is_reserved": 0, "is_disabled": 0, "fusion_lat": 0.0, "type": "electric_scooter", "name": "42537a3dba34ca72706a1f27e707cfcd", "lat": 38.904106166666665, "bike_id": "42537a3dba34ca72706a1f27e707cfcd"}, {"lon": -77.04608083333333, "rental_uris": {"android": "https://dc.lft.to/lastmile_qr_scan", "ios": "https://dc.lft.to/lastmile_qr_scan"}, "fusion_lon": 0.0, "is_reserved": 0, "is_disabled": 0, "fusion_lat": 0.0, "type": "electric_scooter", "name": "50f182aa4cd84291bbbaed669cce4aa9", "lat": 38.902642166666666, "bike_id": "50f182aa4cd84291bbbaed669cce4aa9"}, {"lon": -77.0328325, "rental_uris": {"android": "https://dc.lft.to/lastmile_qr_scan", "ios": "https://dc.lft.to/lastmile_qr_scan"}, "fusion_lon": 0.0, "is_reserved": 0, "is_disabled": 0, "fusion_lat": 0.0, "type": "electric_scooter", "name": "ede9ab9035beaa2aa67017540431617a", "lat": 38.937560833333336, "bike_id": "ede9ab9035beaa2aa67017540431617a"}, {"lon": -77.15251383333333, "rental_uris": {"android": "https://dc.lft.to/lastmile_qr_scan", "ios": "https://dc.lft.to/lastmile_qr_scan"}, "fusion_lon": 0.0, "is_reserved": 0, "is_disabled": 0, "fusion_lat": 0.0, "type": "electric_bike", "name": "a5f7109e225b53344193594fb36a3968", "lat": 39.08615566666667, "bike_id": "a5f7109e225b53344193594fb36a3968"}, {"lon": -77.023197, "rental_uris": {"android": "https://dc.lft.to/lastmile_qr_scan", "ios": "https://dc.lft.to/lastmile_qr_scan"}, "fusion_lon": 0.0, "is_reserved": 0, "is_disabled": 0, "fusion_lat": 0.0, "type": "electric_scooter", "name": "8170271abb76ce7ee70e326c54668a1a", "lat": 38.878862166666664, "bike_id": "8170271abb76ce7ee70e326c54668a1a"}, {"lon": -76.9876805, "rental_uris": {"android": "https://dc.lft.to/lastmile_qr_scan", "ios": "https://dc.lft.to/lastmile_qr_scan"}, "fusion_lon": 0.0, "is_reserved": 0, "is_disabled": 0, "fusion_lat": 0.0, "type": "electric_bike", "name": "fc7b9160bf8751394a18e25764648219", "lat": 38.857666333333334, "bike_id": "fc7b9160bf8751394a18e25764648219"}, {"lon": -77.044994, "rental_uris": {"android": "https://dc.lft.to/lastmile_qr_scan", "ios": "https://dc.lft.to/lastmile_qr_scan"}, "fusion_lon": 0.0, "is_reserved": 0, "is_disabled": 0, "fusion_lat": 0.0, "type": "electric_scooter", "name": "fbd196ea3f845c86ac72c43d8588a8a6", "lat": 38.908706, "bike_id": "fbd196ea3f845c86ac72c43d8588a8a6"}, {"lon": -77.051017, "rental_uris": {"android": "https://dc.lft.to/lastmile_qr_scan", "ios": "https://dc.lft.to/lastmile_qr_scan"}, "fusion_lon": 0.0, "is_reserved": 0, "is_disabled": 0, "fusion_lat": 0.0, "type": "electric_scooter", "name": "58eab0f0681b03487aa6b170d6b50040", "lat": 38.9017735, "bike_id": "58eab0f0681b03487aa6b170d6b50040"}, {"lon": -77.058826, "rental_uris": {"android": "https://dc.lft.to/lastmile_qr_scan", "ios": "https://dc.lft.to/lastmile_qr_scan"}, "fusion_lon": 0.0, "is_reserved": 0, "is_disabled": 0, "fusion_lat": 0.0, "type": "electric_scooter", "name": "a9e82855f5a644a1f312f895d4294899", "lat": 38.936317, "bike_id": "a9e82855f5a644a1f312f895d4294899"}, {"lon": -77.0412775, "rental_uris": {"android": "https://dc.lft.to/lastmile_qr_scan", "ios": "https://dc.lft.to/lastmile_qr_scan"}, "fusion_lon": 0.0, "is_reserved": 0, "is_disabled": 0, "fusion_lat": 0.0, "type": "electric_scooter", "name": "b6061485cdf11be96f32b3ac063b3fd3", "lat": 38.89921833333333, "bike_id": "b6061485cdf11be96f32b3ac063b3fd3"}, {"lon": -77.01818433333334, "rental_uris": {"android": "https://dc.lft.to/lastmile_qr_scan", "ios": "https://dc.lft.to/lastmile_qr_scan"}, "fusion_lon": 0.0, "is_reserved": 0, "is_disabled": 0, "fusion_lat": 0.0, "type": "electric_scooter", "name": "68838eb432c407ea32904d9170587534", "lat": 38.920405, "bike_id": "68838eb432c407ea32904d9170587534"}, {"lon": -76.988602, "rental_uris": {"android": "https://dc.lft.to/lastmile_qr_scan", "ios": "https://dc.lft.to/lastmile_qr_scan"}, "fusion_lon": 0.0, "is_reserved": 0, "is_disabled": 0, "fusion_lat": 0.0, "type": "electric_scooter", "name": "b7c6a9f7909356a2ef43381a196fcb97", "lat": 38.9070055, "bike_id": "b7c6a9f7909356a2ef43381a196fcb97"}, {"lon": -77.05048116666667, "rental_uris": {"android": "https://dc.lft.to/lastmile_qr_scan", "ios": "https://dc.lft.to/lastmile_qr_scan"}, "fusion_lon": 0.0, "is_reserved": 0, "is_disabled": 0, "fusion_lat": 0.0, "type": "electric_scooter", "name": "6574e400d495906abf3b2f03d9785528", "lat": 38.92369883333333, "bike_id": "6574e400d495906abf3b2f03d9785528"}, {"lon": -77.01400316666667, "rental_uris": {"android": "https://dc.lft.to/lastmile_qr_scan", "ios": "https://dc.lft.to/lastmile_qr_scan"}, "fusion_lon": 0.0, "is_reserved": 0, "is_disabled": 0, "fusion_lat": 0.0, "type": "electric_scooter", "name": "9dcd4e5c148b9193753821d78da7801b", "lat": 38.9747065, "bike_id": "9dcd4e5c148b9193753821d78da7801b"}, {"lon": -76.91718583333333, "rental_uris": {"android": "https://dc.lft.to/lastmile_qr_scan", "ios": "https://dc.lft.to/lastmile_qr_scan"}, "fusion_lon": 0.0, "is_reserved": 0, "is_disabled": 0, "fusion_lat": 0.0, "type": "electric_bike", "name": "b95a6a7e4a816d03baf48721e2f5b453", "lat": 38.8802905, "bike_id": "b95a6a7e4a816d03baf48721e2f5b453"}, {"lon": -76.99162133333333, "rental_uris": {"android": "https://dc.lft.to/lastmile_qr_scan", "ios": "https://dc.lft.to/lastmile_qr_scan"}, "fusion_lon": 0.0, "is_reserved": 0, "is_disabled": 0, "fusion_lat": 0.0, "type": "electric_scooter", "name": "2a1abdbf85030174a8572e445b23aeb4", "lat": 38.897789833333334, "bike_id": "2a1abdbf85030174a8572e445b23aeb4"}, {"lon": -77.02123716666667, "rental_uris": {"android": "https://dc.lft.to/lastmile_qr_scan", "ios": "https://dc.lft.to/lastmile_qr_scan"}, "fusion_lon": 0.0, "is_reserved": 0, "is_disabled": 0, "fusion_lat": 0.0, "type": "electric_scooter", "name": "99bca4c1471a86ab793578a5767205c2", "lat": 38.92219133333333, "bike_id": "99bca4c1471a86ab793578a5767205c2"}, {"lon": -77.02175966666667, "rental_uris": {"android": "https://dc.lft.to/lastmile_qr_scan", "ios": "https://dc.lft.to/lastmile_qr_scan"}, "fusion_lon": 0.0, "is_reserved": 0, "is_disabled": 0, "fusion_lat": 0.0, "type": "electric_scooter", "name": "1fe42d908de6a38c5ca209b62a4bd167", "lat": 38.892298833333335, "bike_id": "1fe42d908de6a38c5ca209b62a4bd167"}, {"lon": -77.06743566666667, "rental_uris": {"android": "https://dc.lft.to/lastmile_qr_scan", "ios": "https://dc.lft.to/lastmile_qr_scan"}, "fusion_lon": 0.0, "is_reserved": 0, "is_disabled": 0, "fusion_lat": 0.0, "type": "electric_scooter", "name": "27c91da13bae1091bb937806b27bde40", "lat": 38.905133666666664, "bike_id": "27c91da13bae1091bb937806b27bde40"}, {"lon": -77.0533425, "rental_uris": {"android": "https://dc.lft.to/lastmile_qr_scan", "ios": "https://dc.lft.to/lastmile_qr_scan"}, "fusion_lon": 0.0, "is_reserved": 0, "is_disabled": 0, "fusion_lat": 0.0, "type": "electric_scooter", "name": "8ed4fc5fd08627285dec01393a338862", "lat": 38.90466883333333, "bike_id": "8ed4fc5fd08627285dec01393a338862"}, {"lon": -76.98358816666666, "rental_uris": {"android": "https://dc.lft.to/lastmile_qr_scan", "ios": "https://dc.lft.to/lastmile_qr_scan"}, "fusion_lon": 0.0, "is_reserved": 0, "is_disabled": 0, "fusion_lat": 0.0, "type": "electric_scooter", "name": "20bd63b353026d5b7bda48b90714462b", "lat": 38.887306333333335, "bike_id": "20bd63b353026d5b7bda48b90714462b"}, {"lon": -77.0321045, "rental_uris": {"android": "https://dc.lft.to/lastmile_qr_scan", "ios": "https://dc.lft.to/lastmile_qr_scan"}, "fusion_lon": 0.0, "is_reserved": 0, "is_disabled": 0, "fusion_lat": 0.0, "type": "electric_scooter", "name": "75c0cf64b8fc93657e53a69bd3d24f77", "lat": 38.9257915, "bike_id": "75c0cf64b8fc93657e53a69bd3d24f77"}, {"lon": -77.02674333333333, "rental_uris": {"android": "https://dc.lft.to/lastmile_qr_scan", "ios": "https://dc.lft.to/lastmile_qr_scan"}, "fusion_lon": 0.0, "is_reserved": 0, "is_disabled": 0, "fusion_lat": 0.0, "type": "electric_scooter", "name": "54be4827c0d508c1898364c858058148", "lat": 38.945986833333336, "bike_id": "54be4827c0d508c1898364c858058148"}, {"lon": -77.0343525, "rental_uris": {"android": "https://dc.lft.to/lastmile_qr_scan", "ios": "https://dc.lft.to/lastmile_qr_scan"}, "fusion_lon": 0.0, "is_reserved": 0, "is_disabled": 0, "fusion_lat": 0.0, "type": "electric_scooter", "name": "ab62606ba58ab423d0a5deed44d89fb1", "lat": 38.9027115, "bike_id": "ab62606ba58ab423d0a5deed44d89fb1"}, {"lon": -77.03821966666666, "rental_uris": {"android": "https://dc.lft.to/lastmile_qr_scan", "ios": "https://dc.lft.to/lastmile_qr_scan"}, "fusion_lon": 0.0, "is_reserved": 0, "is_disabled": 0, "fusion_lat": 0.0, "type": "electric_scooter", "name": "c19dd8876ab069d830a6ead7c69f2338", "lat": 38.906746166666665, "bike_id": "c19dd8876ab069d830a6ead7c69f2338"}, {"lon": -76.98070166666666, "rental_uris": {"android": "https://dc.lft.to/lastmile_qr_scan", "ios": "https://dc.lft.to/lastmile_qr_scan"}, "fusion_lon": 0.0, "is_reserved": 0, "is_disabled": 0, "fusion_lat": 0.0, "type": "electric_scooter", "name": "e16f35a337245d28d27226d2c16a5948", "lat": 38.8801765, "bike_id": "e16f35a337245d28d27226d2c16a5948"}, {"lon": -77.014056, "rental_uris": {"android": "https://dc.lft.to/lastmile_qr_scan", "ios": "https://dc.lft.to/lastmile_qr_scan"}, "fusion_lon": 0.0, "is_reserved": 0, "is_disabled": 0, "fusion_lat": 0.0, "type": "electric_scooter", "name": "7b4d134631ae3cec3bd00b3e96f1e53c", "lat": 38.887498666666666, "bike_id": "7b4d134631ae3cec3bd00b3e96f1e53c"}, {"lon": -77.03565666666667, "rental_uris": {"android": "https://dc.lft.to/lastmile_qr_scan", "ios": "https://dc.lft.to/lastmile_qr_scan"}, "fusion_lon": 0.0, "is_reserved": 0, "is_disabled": 0, "fusion_lat": 0.0, "type": "electric_scooter", "name": "d66ae7d71a6b592a6897cafc23648e1b", "lat": 38.90733383333333, "bike_id": "d66ae7d71a6b592a6897cafc23648e1b"}, {"lon": -76.99948366666666, "rental_uris": {"android": "https://dc.lft.to/lastmile_qr_scan", "ios": "https://dc.lft.to/lastmile_qr_scan"}, "fusion_lon": 0.0, "is_reserved": 0, "is_disabled": 0, "fusion_lat": 0.0, "type": "electric_scooter", "name": "fada8ccf72605f8f1f91292301a19f77", "lat": 38.904261, "bike_id": "fada8ccf72605f8f1f91292301a19f77"}, {"lon": -77.02206566666666, "rental_uris": {"android": "https://dc.lft.to/lastmile_qr_scan", "ios": "https://dc.lft.to/lastmile_qr_scan"}, "fusion_lon": 0.0, "is_reserved": 0, "is_disabled": 0, "fusion_lat": 0.0, "type": "electric_scooter", "name": "149f7f74063ea98b0bbc4b96e7eefb6f", "lat": 38.905344666666664, "bike_id": "149f7f74063ea98b0bbc4b96e7eefb6f"}, {"lon": -77.02654783333334, "rental_uris": {"android": "https://dc.lft.to/lastmile_qr_scan", "ios": "https://dc.lft.to/lastmile_qr_scan"}, "fusion_lon": 0.0, "is_reserved": 0, "is_disabled": 0, "fusion_lat": 0.0, "type": "electric_scooter", "name": "ae79909059eb7ee88e91968aa57db40f", "lat": 38.89212233333333, "bike_id": "ae79909059eb7ee88e91968aa57db40f"}, {"lon": -77.021049, "rental_uris": {"android": "https://dc.lft.to/lastmile_qr_scan", "ios": "https://dc.lft.to/lastmile_qr_scan"}, "fusion_lon": 0.0, "is_reserved": 0, "is_disabled": 0, "fusion_lat": 0.0, "type": "electric_scooter", "name": "404902ab5108a5d688a161db60347327", "lat": 38.93435733333333, "bike_id": "404902ab5108a5d688a161db60347327"}, {"lon": -77.21027116666667, "rental_uris": {"android": "https://dc.lft.to/lastmile_qr_scan", "ios": "https://dc.lft.to/lastmile_qr_scan"}, "fusion_lon": 0.0, "is_reserved": 0, "is_disabled": 0, "fusion_lat": 0.0, "type": "electric_bike", "name": "b5ac37cb12a01ae619a8232186e2616f", "lat": 38.92594916666667, "bike_id": "b5ac37cb12a01ae619a8232186e2616f"}, {"lon": -77.01568666666667, "rental_uris": {"android": "https://dc.lft.to/lastmile_qr_scan", "ios": "https://dc.lft.to/lastmile_qr_scan"}, "fusion_lon": 0.0, "is_reserved": 0, "is_disabled": 0, "fusion_lat": 0.0, "type": "electric_scooter", "name": "c30f1ac8ee68b15c7384981e1452bd61", "lat": 38.915091833333335, "bike_id": "c30f1ac8ee68b15c7384981e1452bd61"}, {"lon": -77.0203135, "rental_uris": {"android": "https://dc.lft.to/lastmile_qr_scan", "ios": "https://dc.lft.to/lastmile_qr_scan"}, "fusion_lon": 0.0, "is_reserved": 0, "is_disabled": 0, "fusion_lat": 0.0, "type": "electric_scooter", "name": "786963eeaa531216eeb3e6a842e5d80a", "lat": 38.92449533333333, "bike_id": "786963eeaa531216eeb3e6a842e5d80a"}, {"lon": -77.0638055, "rental_uris": {"android": "https://dc.lft.to/lastmile_qr_scan", "ios": "https://dc.lft.to/lastmile_qr_scan"}, "fusion_lon": 0.0, "is_reserved": 0, "is_disabled": 0, "fusion_lat": 0.0, "type": "electric_scooter", "name": "8523fcd1b313e33db32087a58e139db7", "lat": 38.90619316666667, "bike_id": "8523fcd1b313e33db32087a58e139db7"}, {"lon": -77.01372866666667, "rental_uris": {"android": "https://dc.lft.to/lastmile_qr_scan", "ios": "https://dc.lft.to/lastmile_qr_scan"}, "fusion_lon": 0.0, "is_reserved": 0, "is_disabled": 0, "fusion_lat": 0.0, "type": "electric_scooter", "name": "b7cc7eddbc6985558d19943ecd28f667", "lat": 38.871670333333334, "bike_id": "b7cc7eddbc6985558d19943ecd28f667"}, {"lon": -77.04354516666666, "rental_uris": {"android": "https://dc.lft.to/lastmile_qr_scan", "ios": "https://dc.lft.to/lastmile_qr_scan"}, "fusion_lon": 0.0, "is_reserved": 0, "is_disabled": 0, "fusion_lat": 0.0, "type": "electric_scooter", "name": "eb5e2cc13a46d35fcf7d0b04f894ed57", "lat": 38.904324833333334, "bike_id": "eb5e2cc13a46d35fcf7d0b04f894ed57"},