{"data": {"bikes": [{"bike_id": "f16b6b6b0ed76d05240a3d5588f97f14", "type": "electric_scooter", "is_disabled": 0, "lat": 38.939772833333336, "rental_uris": {"ios": "https://dc.lft.to/lastmile_qr_scan", "android": "https://dc.lft.to/lastmile_qr_scan"}, "is_reserved": 0, "fusion_lon": 0.0, "fusion_lat": 0.0, "lon": -77.02873983333333, "name": "f16b6b6b0ed76d05240a3d5588f97f14"}, {"bike_id": "a068df73251583a58a3751597d69d024", "type": "electric_scooter", "is_disabled": 0, "lat": 38.89865616666667, "rental_uris": {"ios": "https://dc.lft.to/lastmile_qr_scan", "android": "https://dc.lft.to/lastmile_qr_scan"}, "is_reserved": 0, "fusion_lon": 0.0, "fusion_lat": 0.0, "lon": -77.023962, "name": "a068df73251583a58a3751597d69d024"}, {"bike_id": "4cab38deb2218d0703e4c10c7790ae5b", "type": "electric_scooter", "is_disabled": 0, "lat": 38.90782166666666, "rental_uris": {"ios": "https://dc.lft.to/lastmile_qr_scan", "android": "https://dc.lft.to/lastmile_qr_scan"}, "is_reserved": 0, "fusion_lon": 0.0, "fusion_lat": 0.0, "lon": -76.99435533333333, "name": "4cab38deb2218d0703e4c10c7790ae5b"}, {"bike_id": "f75f6a3d698ba6b393e9c27428ba9e2f", "type": "electric_scooter", "is_disabled": 0, "lat": 38.93330533333334, "rental_uris": {"ios": "https://dc.lft.to/lastmile_qr_scan", "android": "https://dc.lft.to/lastmile_qr_scan"}, "is_reserved": 0, "fusion_lon": 0.0, "fusion_lat": 0.0, "lon": -77.023926, "name": "f75f6a3d698ba6b393e9c27428ba9e2f"}, {"bike_id": "287145199764c26cfb66fb3b6886ee18", "type": "electric_scooter", "is_disabled": 0, "lat": 38.9212815, "rental_uris": {"ios": "https://dc.lft.to/lastmile_qr_scan", "android": "https://dc.lft.to/lastmile_qr_scan"}, "is_reserved": 0, "fusion_lon": 0.0, "fusion_lat": 0.0, "lon": -77.02721416666667, "name": "287145199764c26cfb66fb3b6886ee18"}, {"bike_id": "a6e5a230bf649e64f2eeaeb59108e16c", "type": "electric_bike", "is_disabled": 0, "lat": 38.9436355, "rental_uris": {"ios": "https://dc.lft.to/lastmile_qr_scan", "android": "https://dc.lft.to/lastmile_qr_scan"}, "is_reserved": 0, "fusion_lon": 0.0, "fusion_lat": 0.0, "lon": -77.0035475, "name": "a6e5a230bf649e64f2eeaeb59108e16c"}, {"bike_id": "81d9d314ee6eb7f8a9f3249fc907e74e", "type": "electric_scooter", "is_disabled": 0, "lat": 38.908637166666665, "rental_uris": {"ios": "https://dc.lft.to/lastmile_qr_scan", "android": "https://dc.lft.to/lastmile_qr_scan"}, "is_reserved": 0, "fusion_lon": 0.0, "fusion_lat": 0.0, "lon": -76.9995575, "name": "81d9d314ee6eb7f8a9f3249fc907e74e"}, {"bike_id": "58c16c943a042fe086ba24b48d326454", "type": "electric_scooter", "is_disabled": 0, "lat": 38.92706583333333, "rental_uris": {"ios": "https://dc.lft.to/lastmile_qr_scan", "android": "https://dc.lft.to/lastmile_qr_scan"}, "is_reserved": 0, "fusion_lon": 0.0, "fusion_lat": 0.0, "lon": -77.020681, "name": "58c16c943a042fe086ba24b48d326454"}, {"bike_id": "1fb680bfc6117382f8e612a18f8783fd", "type": "electric_scooter", "is_disabled": 0, "lat": 38.86627133333333, "rental_uris": {"ios": "https://dc.lft.to/lastmile_qr_scan", "android": "https://dc.lft.to/lastmile_qr_scan"}, "is_reserved": 0, "fusion_lon": 0.0, "fusion_lat": 0.0, "lon": -76.98717483333333, "name": "1fb680bfc6117382f8e612a18f8783fd"}, {"bike_id": "233a46b8d7555a38650defb46df28483", "type": "electric_scooter", "is_disabled": 0, "lat": 38.894798333333334, "rental_uris": {"ios": "https://dc.lft.to/lastmile_qr_scan", "android": "https://dc.lft.to/lastmile_qr_scan"}, "is_reserved": 0, "fusion_lon": 0.0, "fusion_lat": 0.0, "lon": -76.98783516666667, "name": "233a46b8d7555a38650defb46df28483"}, {"bike_id": "58fdfaaf6d8b11417f83d92c47b35faa", "type": "electric_scooter", "is_disabled": 0, "lat": 38.85806683333333, "rental_uris": {"ios": "https://dc.lft.to/lastmile_qr_scan", "android": "https://dc.lft.to/lastmile_qr_scan"}, "is_reserved": 0, "fusion_lon": 0.0, "fusion_lat": 0.0, "lon": -76.98929883333334, "name": "58fdfaaf6d8b11417f83d92c47b35faa"}, {"bike_id": "8e5bafb5fb257c9ef3d620d2a65bc7e5", "type": "electric_scooter", "is_disabled": 0, "lat": 38.870736, "rental_uris": {"ios": "https://dc.lft.to/lastmile_qr_scan", "android": "https://dc.lft.to/lastmile_qr_scan"}, "is_reserved": 0, "fusion_lon": 0.0, "fusion_lat": 0.0, "lon": -76.98133316666667, "name": "8e5bafb5fb257c9ef3d620d2a65bc7e5"}, {"bike_id": "3a9f89358d9de9a36f3b988ef0c36d94", "type": "electric_scooter", "is_disabled": 0, "lat": 38.88639783333333, "rental_uris": {"ios": "https://dc.lft.to/lastmile_qr_scan", "android": "https://dc.lft.to/lastmile_qr_scan"}, "is_reserved": 0, "fusion_lon": 0.0, "fusion_lat": 0.0, "lon": -77.013854, "name": "3a9f89358d9de9a36f3b988ef0c36d94"}, {"bike_id": "2f93d5453f975517929b2f453ccdefb4", "type": "electric_scooter", "is_disabled": 0, "lat": 38.93506816666667, "rental_uris": {"ios": "https://dc.lft.to/lastmile_qr_scan", "android": "https://dc.lft.to/lastmile_qr_scan"}, "is_reserved": 0, "fusion_lon": 0.0, "fusion_lat": 0.0, "lon": -77.0254485, "name": "2f93d5453f975517929b2f453ccdefb4"}, {"bike_id": "2d8359604dc790781e1869b2e82ce1cf", "type": "electric_scooter", "is_disabled": 0, "lat": 38.8996645, "rental_uris": {"ios": "https://dc.lft.to/lastmile_qr_scan", "android": "https://dc.lft.to/lastmile_qr_scan"}, "is_reserved": 0, "fusion_lon": 0.0, "fusion_lat": 0.0, "lon": -76.98304216666666, "name": "2d8359604dc790781e1869b2e82ce1cf"}, {"bike_id": "aa3d490613e0a73611f6e2fedb04decb", "type": "electric_scooter", "is_disabled": 0, "lat": 38.94614116666666, "rental_uris": {"ios": "https://dc.lft.to/lastmile_qr_scan", "android": "https://dc.lft.to/lastmile_qr_scan"}, "is_reserved": 0, "fusion_lon": 0.0, "fusion_lat": 0.0, "lon": -77.02267283333333, "name": "aa3d490613e0a73611f6e2fedb04decb"}, {"bike_id": "61cc86370c1088dbff9683a1ba630794", "type": "electric_scooter", "is_disabled": 0, "lat": 38.90546583333333, "rental_uris": {"ios": "https://dc.lft.to/lastmile_qr_scan", "android": "https://dc.lft.to/lastmile_qr_scan"}, "is_reserved": 0, "fusion_lon": 0.0, "fusion_lat": 0.0, "lon": -77.02180183333333, "name": "61cc86370c1088dbff9683a1ba630794"}, {"bike_id": "c130c13380f2f3e02e3117c0832562a6", "type": "electric_scooter", "is_disabled": 0, "lat": 38.916027166666666, "rental_uris": {"ios": "https://dc.lft.to/lastmile_qr_scan", "android": "https://dc.lft.to/lastmile_qr_scan"}, "is_reserved": 0, "fusion_lon": 0.0, "fusion_lat": 0.0, "lon": -77.0398755, "name": "c130c13380f2f3e02e3117c0832562a6"}, {"bike_id": "b83bccc86896c0d6c02fe0f55c1654a9", "type": "electric_scooter", "is_disabled": 0, "lat": 38.922415, "rental_uris": {"ios": "https://dc.lft.to/lastmile_qr_scan", "android": "https://dc.lft.to/lastmile_qr_scan"}, "is_reserved": 0, "fusion_lon": 0.0, "fusion_lat": 0.0, "lon": -77.04020666666666, "name": "b83bccc86896c0d6c02fe0f55c1654a9"}, {"bike_id": "4955a289efe7bb4aa28f469f0efe41e6", "type": "electric_scooter", "is_disabled": 0, "lat": 38.891360666666664, "rental_uris": {"ios": "https://dc.lft.to/lastmile_qr_scan", "android": "https://dc.lft.to/lastmile_qr_scan"}, "is_reserved": 0, "fusion_lon": 0.0, "fusion_lat": 0.0, "lon": -76.95186283333334, "name": "4955a289efe7bb4aa28f469f0efe41e6"}, {"bike_id": "ab38bccc05cf39ae01e700c5ea226da4", "type": "electric_scooter", "is_disabled": 0, "lat": 38.911019333333336, "rental_uris": {"ios": "https://dc.lft.to/lastmile_qr_scan", "android": "https://dc.lft.to/lastmile_qr_scan"}, "is_reserved": 0, "fusion_lon": 0.0, "fusion_lat": 0.0, "lon": -77.00218033333333, "name": "ab38bccc05cf39ae01e700c5ea226da4"}, {"bike_id": "8bc5c8f72cbe299cf8bc640b2a4d3a11", "type": "electric_scooter", "is_disabled": 0, "lat": 38.9151725, "rental_uris": {"ios": "https://dc.lft.to/lastmile_qr_scan", "android": "https://dc.lft.to/lastmile_qr_scan"}, "is_reserved": 0, "fusion_lon": 0.0, "fusion_lat": 0.0, "lon": -77.01984316666666, "name": "8bc5c8f72cbe299cf8bc640b2a4d3a11"}, {"bike_id": "ab78d507cdb5adebdd8c040ff1af2da1", "type": "electric_scooter", "is_disabled": 0, "lat": 38.903841, "rental_uris": {"ios": "https://dc.lft.to/lastmile_qr_scan", "android": "https://dc.lft.to/lastmile_qr_scan"}, "is_reserved": 0, "fusion_lon": 0.0, "fusion_lat": 0.0, "lon": -76.98209183333333, "name": "ab78d507cdb5adebdd8c040ff1af2da1"}, {"bike_id": "ab7984f81181da89c8235095994e0d9a", "type": "electric_scooter", "is_disabled": 0, "lat": 38.920230333333336, "rental_uris": {"ios": "https://dc.lft.to/lastmile_qr_scan", "android": "https://dc.lft.to/lastmile_qr_scan"}, "is_reserved": 0, "fusion_lon": 0.0, "fusion_lat": 0.0, "lon": -77.00192316666667, "name": "ab7984f81181da89c8235095994e0d9a"}, {"bike_id": "5dbc1cf9b06cc30e3b07f3c912d0ac67", "type": "electric_scooter", "is_disabled": 0, "lat": 38.906559666666666, "rental_uris": {"ios": "https://dc.lft.to/lastmile_qr_scan", "android": "https://dc.lft.to/lastmile_qr_scan"}, "is_reserved": 0, "fusion_lon": 0.0, "fusion_lat": 0.0, "lon": -77.04285433333334, "name": "5dbc1cf9b06cc30e3b07f3c912d0ac67"}, {"bike_id": "7555bdf995eb057a75ab920abb743d70", "type": "electric_scooter", "is_disabled": 0, "lat": 38.927624333333334, "rental_uris": {"ios": "https://dc.lft.to/lastmile_qr_scan", "android": "https://dc.lft.to/lastmile_qr_scan"}, "is_reserved": 0, "fusion_lon": 0.0, "fusion_lat": 0.0, "lon": -77.0564115, "name": "7555bdf995eb057a75ab920abb743d70"}, {"bike_id": "35ab803a0fe1768f90a5e20cc0331165", "type": "electric_scooter", "is_disabled": 0, "lat": 38.896701, "rental_uris": {"ios": "https://dc.lft.to/lastmile_qr_scan", "android": "https://dc.lft.to/lastmile_qr_scan"}, "is_reserved": 0, "fusion_lon": 0.0, "fusion_lat": 0.0, "lon": -77.00520183333333, "name": "35ab803a0fe1768f90a5e20cc0331165"}, {"bike_id": "07083f9b2efd7a8bf8584c5384da456f", "type": "electric_scooter", "is_disabled": 0, "lat": 38.910513333333334, "rental_uris": {"ios": "https://dc.lft.to/lastmile_qr_scan", "android": "https://dc.lft.to/lastmile_qr_scan"}, "is_reserved": 0, "fusion_lon": 0.0, "fusion_lat": 0.0, "lon": -77.043917, "name": "07083f9b2efd7a8bf8584c5384da456f"}, {"bike_id": "9ce7291539e14f945ea125b97d7e13d6", "type": "electric_scooter", "is_disabled": 0, "lat": 38.91416, "rental_uris": {"ios": "https://dc.lft.to/lastmile_qr_scan", "android": "https://dc.lft.to/lastmile_qr_scan"}, "is_reserved": 0, "fusion_lon": 0.0, "fusion_lat": 0.0, "lon": -77.02816583333333, "name": "9ce7291539e14f945ea125b97d7e13d6"}, {"bike_id": "157e86be40985b3d5f79a3ccf4cbbc04", "type": "electric_scooter", "is_disabled": 0, "lat": 38.908427, "rental_uris": {"ios": "https://dc.lft.to/lastmile_qr_scan", "android": "https://dc.lft.to/lastmile_qr_scan"}, "is_reserved": 0, "fusion_lon": 0.0, "fusion_lat": 0.0, "lon": -77.02701183333333, "name": "157e86be40985b3d5f79a3ccf4cbbc04"}, {"bike_id": "8741256581717656d84ec2b3ea6034b2", "type": "electric_scooter", "is_disabled": 0, "lat": 38.91363116666667, "rental_uris": {"ios": "https://dc.lft.to/lastmile_qr_scan", "android": "https://dc.lft.to/lastmile_qr_scan"}, "is_reserved": 0, "fusion_lon": 0.0, "fusion_lat": 0.0, "lon": -77.01218516666667, "name": "8741256581717656d84ec2b3ea6034b2"}, {"bike_id": "cabf379d7456cf81c5bc761b664a219c", "type": "electric_scooter", "is_disabled": 0, "lat": 38.887404333333336, "rental_uris": {"ios": "https://dc.lft.to/lastmile_qr_scan", "android": "https://dc.lft.to/lastmile_qr_scan"}, "is_reserved": 0, "fusion_lon": 0.0, "fusion_lat": 0.0, "lon": -77.01538466666666, "name": "cabf379d7456cf81c5bc761b664a219c"}, {"bike_id": "55a861d7b28e89aea0897c164b933d21", "type": "electric_scooter", "is_disabled": 0, "lat": 38.91858666666667, "rental_uris": {"ios": "https://dc.lft.to/lastmile_qr_scan", "android": "https://dc.lft.to/lastmile_qr_scan"}, "is_reserved": 0, "fusion_lon": 0.0, "fusion_lat": 0.0, "lon": -77.04181266666667, "name": "55a861d7b28e89aea0897c164b933d21"}, {"bike_id": "3fe30dadbd0f9a08dc744c4013260640", "type": "electric_scooter", "is_disabled": 0, "lat": 38.905293666666665, "rental_uris": {"ios": "https://dc.lft.to/lastmile_qr_scan", "android": "https://dc.lft.to/lastmile_qr_scan"}, "is_reserved": 0, "fusion_lon": 0.0, "fusion_lat": 0.0, "lon": -77.0311535, "name": "3fe30dadbd0f9a08dc744c4013260640"}, {"bike_id": "721e308403ed47f65e0a6dcd5976a9c0", "type": "electric_scooter", "is_disabled": 0, "lat": 38.89216733333333, "rental_uris": {"ios": "https://dc.lft.to/lastmile_qr_scan", "android": "https://dc.lft.to/lastmile_qr_scan"}, "is_reserved": 0, "fusion_lon": 0.0, "fusion_lat": 0.0, "lon": -77.03980366666667, "name": "721e308403ed47f65e0a6dcd5976a9c0"}, {"bike_id": "b4af162bcaba264f4cace9ca88c84bd3", "type": "electric_scooter", "is_disabled": 0, "lat": 38.92669383333333, "rental_uris": {"ios": "https://dc.lft.to/lastmile_qr_scan", "android": "https://dc.lft.to/lastmile_qr_scan"}, "is_reserved": 0, "fusion_lon": 0.0, "fusion_lat": 0.0, "lon": -76.99536716666667, "name": "b4af162bcaba264f4cace9ca88c84bd3"}, {"bike_id": "302c86aa4fdd71bac162799699035299", "type": "electric_scooter", "is_disabled": 0, "lat": 38.923799833333334, "rental_uris": {"ios": "https://dc.lft.to/lastmile_qr_scan", "android": "https://dc.lft.to/lastmile_qr_scan"}, "is_reserved": 0, "fusion_lon": 0.0, "fusion_lat": 0.0, "lon": -77.03130466666667, "name": "302c86aa4fdd71bac162799699035299"}, {"bike_id": "91043b56461bf2e105fb5651084fb10f", "type": "electric_scooter", "is_disabled": 0, "lat": 38.89602683333333, "rental_uris": {"ios": "https://dc.lft.to/lastmile_qr_scan", "android": "https://dc.lft.to/lastmile_qr_scan"}, "is_reserved": 0, "fusion_lon": 0.0, "fusion_lat": 0.0, "lon": -77.026428, "name": "91043b56461bf2e105fb5651084fb10f"}, {"bike_id": "5c9d9aa00b0a2b54d4fca96ef37af72b", "type": "electric_scooter", "is_disabled": 0, "lat": 38.91704083333333, "rental_uris": {"ios": "https://dc.lft.to/lastmile_qr_scan", "android": "https://dc.lft.to/lastmile_qr_scan"}, "is_reserved": 0, "fusion_lon": 0.0, "fusion_lat": 0.0, "lon": -77.04126516666666, "name": "5c9d9aa00b0a2b54d4fca96ef37af72b"}, {"bike_id": "97462d6fcd957100b354c8b1aac71a54", "type": "electric_scooter", "is_disabled": 0, "lat": 38.929190166666665, "rental_uris": {"ios": "https://dc.lft.to/lastmile_qr_scan", "android": "https://dc.lft.to/lastmile_qr_scan"}, "is_reserved": 0, "fusion_lon": 0.0, "fusion_lat": 0.0, "lon": -77.03262283333333, "name": "97462d6fcd957100b354c8b1aac71a54"}, {"bike_id": "5dc0035047b2d5ac064c430a218175ae", "type": "electric_scooter", "is_disabled": 0, "lat": 38.9237815, "rental_uris": {"ios": "https://dc.lft.to/lastmile_qr_scan", "android": "https://dc.lft.to/lastmile_qr_scan"}, "is_reserved": 0, "fusion_lon": 0.0, "fusion_lat": 0.0, "lon": -77.03132983333333, "name": "5dc0035047b2d5ac064c430a218175ae"}, {"bike_id": "b8b29c3b20f600572686ab69d51cb33d", "type": "electric_scooter", "is_disabled": 0, "lat": 38.905738666666664, "rental_uris": {"ios": "https://dc.lft.to/lastmile_qr_scan", "android": "https://dc.lft.to/lastmile_qr_scan"}, "is_reserved": 0, "fusion_lon": 0.0, "fusion_lat": 0.0, "lon": -77.030981, "name": "b8b29c3b20f600572686ab69d51cb33d"}, {"bike_id": "def495886886dedfd0665429d79ce74d", "type": "electric_scooter", "is_disabled": 0, "lat": 38.90392816666667, "rental_uris": {"ios": "https://dc.lft.to/lastmile_qr_scan", "android": "https://dc.lft.to/lastmile_qr_scan"}, "is_reserved": 0, "fusion_lon": 0.0, "fusion_lat": 0.0, "lon": -77.06291233333333, "name": "def495886886dedfd0665429d79ce74d"}, {"bike_id": "d7fc2fa191170bcbf572d3c698789aa0", "type": "electric_scooter", "is_disabled": 0, "lat": 38.89669816666667, "rental_uris": {"ios": "https://dc.lft.to/lastmile_qr_scan", "android": "https://dc.lft.to/lastmile_qr_scan"}, "is_reserved": 0, "fusion_lon": 0.0, "fusion_lat": 0.0, "lon": -76.93211216666667, "name": "d7fc2fa191170bcbf572d3c698789aa0"}, {"bike_id": "223a692ad3bcaa3cffaccb4f66e1c702", "type": "electric_scooter", "is_disabled": 0, "lat": 38.89706283333334, "rental_uris": {"ios": "https://dc.lft.to/lastmile_qr_scan", "android": "https://dc.lft.to/lastmile_qr_scan"}, "is_reserved": 0, "fusion_lon": 0.0, "fusion_lat": 0.0, "lon": -77.04886316666666, "name": "223a692ad3bcaa3cffaccb4f66e1c702"}, {"bike_id": "01a24f307d1d5aeb53547d8ecf1c9571", "type": "electric_scooter", "is_disabled": 0, "lat": 38.91527266666667, "rental_uris": {"ios": "https://dc.lft.to/lastmile_qr_scan", "android": "https://dc.lft.to/lastmile_qr_scan"}, "is_reserved": 0, "fusion_lon": 0.0, "fusion_lat": 0.0, "lon": -77.031961, "name": "01a24f307d1d5aeb53547d8ecf1c9571"}, {"bike_id": "dc6a9cdd5d4b3c91a88d8002ca5862dc", "type": "electric_scooter", "is_disabled": 0, "lat": 38.947864333333335, "rental_uris": {"ios": "https://dc.lft.to/lastmile_qr_scan", "android": "https://dc.lft.to/lastmile_qr_scan"}, "is_reserved": 0, "fusion_lon": 0.0, "fusion_lat": 0.0, "lon": -77.0213705, "name": "dc6a9cdd5d4b3c91a88d8002ca5862dc"}, {"bike_id": "012d8f49e1fc8b81f396fa6a35566cc7", "type": "electric_scooter", "is_disabled": 0, "lat": 38.916855, "rental_uris": {"ios": "https://dc.lft.to/lastmile_qr_scan", "android": "https://dc.lft.to/lastmile_qr_scan"}, "is_reserved": 0, "fusion_lon": 0.0, "fusion_lat": 0.0, "lon": -77.02949116666667, "name": "012d8f49e1fc8b81f396fa6a35566cc7"}, {"bike_id": "51820e9db2a09766001b44e8e12aa8c0", "type": "electric_scooter", "is_disabled": 0, "lat": 38.8918945, "rental_uris": {"ios": "https://dc.lft.to/lastmile_qr_scan", "android": "https://dc.lft.to/lastmile_qr_scan"}, "is_reserved": 0, "fusion_lon": 0.0, "fusion_lat": 0.0, "lon": -77.0363805, "name": "51820e9db2a09766001b44e8e12aa8c0"}, {"bike_id": "500e77b804410f505557731bacc4dc68", "type": "electric_scooter", "is_disabled": 0, "lat": 38.95852583333333, "rental_uris": {"ios": "https://dc.lft.to/lastmile_qr_scan", "android": "https://dc.lft.to/lastmile_qr_scan"}, "is_reserved": 0, "fusion_lon": 0.0, "fusion_lat": 0.0, "lon": -77.0280115, "name": "500e77b804410f505557731bacc4dc68"}, {"bike_id": "c609a08598ac40d75a63505b576a4dd6", "type": "electric_scooter", "is_disabled": 0, "lat": 38.905692333333334, "rental_uris": {"ios": "https://dc.lft.to/lastmile_qr_scan", "android": "https://dc.lft.to/lastmile_qr_scan"}, "is_reserved": 0, "fusion_lon": 0.0, "fusion_lat": 0.0, "lon": -77.028111, "name": "c609a08598ac40d75a63505b576a4dd6"}, {"bike_id": "497881de83d07bf620d1ebd8499ceed6", "type": "electric_scooter", "is_disabled": 0, "lat": 38.89364583333333, "rental_uris": {"ios": "https://dc.lft.to/lastmile_qr_scan", "android": "https://dc.lft.to/lastmile_qr_scan"}, "is_reserved": 0, "fusion_lon": 0.0, "fusion_lat": 0.0, "lon": -76.94703016666666, "name": "497881de83d07bf620d1ebd8499ceed6"}, {"bike_id": "ceb146060062fa77d9ebb8ea1df1d2fe", "type": "electric_scooter", "is_disabled": 0, "lat": 38.90912066666667, "rental_uris": {"ios": "https://dc.lft.to/lastmile_qr_scan", "android": "https://dc.lft.to/lastmile_qr_scan"}, "is_reserved": 0, "fusion_lon": 0.0, "fusion_lat": 0.0, "lon": -77.0320005, "name": "ceb146060062fa77d9ebb8ea1df1d2fe"}, {"bike_id": "42bedbae26060a42026ed7dcd6863417", "type": "electric_scooter", "is_disabled": 0, "lat": 38.973677, "rental_uris": {"ios": "https://dc.lft.to/lastmile_qr_scan", "android": "https://dc.lft.to/lastmile_qr_scan"}, "is_reserved": 0, "fusion_lon": 0.0, "fusion_lat": 0.0, "lon": -77.0186515, "name": "42bedbae26060a42026ed7dcd6863417"}, {"bike_id": "003875e9413d40196c6303b1385bf7a7", "type": "electric_scooter", "is_disabled": 0, "lat": 38.91265666666666, "rental_uris": {"ios": "https://dc.lft.to/lastmile_qr_scan", "android": "https://dc.lft.to/lastmile_qr_scan"}, "is_reserved": 0, "fusion_lon": 0.0, "fusion_lat": 0.0, "lon": -77.02959033333333, "name": "003875e9413d40196c6303b1385bf7a7"}, {"bike_id": "ec16a77684233ad5318d898b2af40237", "type": "electric_scooter", "is_disabled": 0, "lat": 38.93952516666667, "rental_uris": {"ios": "https://dc.lft.to/lastmile_qr_scan", "android": "https://dc.lft.to/lastmile_qr_scan"}, "is_reserved": 0, "fusion_lon": 0.0, "fusion_lat": 0.0, "lon": -77.07247166666667, "name": "ec16a77684233ad5318d898b2af40237"}, {"bike_id": "fdee1e9e1790ee675f87cd2957b158ec", "type": "electric_bike", "is_disabled": 0, "lat": 38.88676483333333, "rental_uris": {"ios": "https://dc.lft.to/lastmile_qr_scan", "android": "https://dc.lft.to/lastmile_qr_scan"}, "is_reserved": 0, "fusion_lon": 0.0, "fusion_lat": 0.0, "lon": -77.16246533333333, "name": "fdee1e9e1790ee675f87cd2957b158ec"}, {"bike_id": "3821425cbab99bb738d0bb7aeb5268eb", "type": "electric_scooter", "is_disabled": 0, "lat": 38.9142015, "rental_uris": {"ios": "https://dc.lft.to/lastmile_qr_scan", "android": "https://dc.lft.to/lastmile_qr_scan"}, "is_reserved": 0, "fusion_lon": 0.0, "fusion_lat": 0.0, "lon": -77.01991233333334, "name": "3821425cbab99bb738d0bb7aeb5268eb"}, {"bike_id": "b7a2d6f1925f5865e0cf68d11d0c0182", "type": "electric_bike", "is_disabled": 0, "lat": 38.83607666666666, "rental_uris": {"ios": "https://dc.lft.to/lastmile_qr_scan", "android": "https://dc.lft.to/lastmile_qr_scan"}, "is_reserved": 0, "fusion_lon": 0.0, "fusion_lat": 0.0, "lon": -77.00385266666666, "name": "b7a2d6f1925f5865e0cf68d11d0c0182"}, {"bike_id": "1d84bd2cb754cac66eeeb1634f872476", "type": "electric_scooter", "is_disabled": 0, "lat": 38.916941, "rental_uris": {"ios": "https://dc.lft.to/lastmile_qr_scan", "android": "https://dc.lft.to/lastmile_qr_scan"}, "is_reserved": 0, "fusion_lon": 0.0, "fusion_lat": 0.0, "lon": -77.04110083333333, "name": "1d84bd2cb754cac66eeeb1634f872476"}, {"bike_id": "727c7cd4b34562e13d97b86f5d55376e", "type": "electric_scooter", "is_disabled": 0, "lat": 38.8985145, "rental_uris": {"ios": "https://dc.lft.to/lastmile_qr_scan", "android": "https://dc.lft.to/lastmile_qr_scan"}, "is_reserved": 0, "fusion_lon": 0.0, "fusion_lat": 0.0, "lon": -77.02244433333334, "name": "727c7cd4b34562e13d97b86f5d55376e"}, {"bike_id": "85f17c20c22d106114008380d16e532a", "type": "electric_scooter", "is_disabled": 0, "lat": 38.90098283333333, "rental_uris": {"ios": "https://dc.lft.to/lastmile_qr_scan", "android": "https://dc.lft.to/lastmile_qr_scan"}, "is_reserved": 0, "fusion_lon": 0.0, "fusion_lat": 0.0, "lon": -77.0384795, "name": "85f17c20c22d106114008380d16e532a"}, {"bike_id": "aaf667c8e1ef4754c1fbc1a47ad2c141", "type": "electric_scooter", "is_disabled": 0, "lat": 38.92233316666667, "rental_uris": {"ios": "https://dc.lft.to/lastmile_qr_scan", "android": "https://dc.lft.to/lastmile_qr_scan"}, "is_reserved": 0, "fusion_lon": 0.0, "fusion_lat": 0.0, "lon": -77.04249833333333, "name": "aaf667c8e1ef4754c1fbc1a47ad2c141"}, {"bike_id": "555c0693671d4375a6457818a79743b6", "type": "electric_scooter", "is_disabled": 0, "lat": 38.90671116666667, "rental_uris": {"ios": "https://dc.lft.to/lastmile_qr_scan", "android": "https://dc.lft.to/lastmile_qr_scan"}, "is_reserved": 0, "fusion_lon": 0.0, "fusion_lat": 0.0, "lon": -77.0272285, "name": "555c0693671d4375a6457818a79743b6"}, {"bike_id": "968841d0613c1bb708a38bc8c26fc640", "type": "electric_scooter", "is_disabled": 0, "lat": 38.911457, "rental_uris": {"ios": "https://dc.lft.to/lastmile_qr_scan", "android": "https://dc.lft.to/lastmile_qr_scan"}, "is_reserved": 0, "fusion_lon": 0.0, "fusion_lat": 0.0, "lon": -77.02694433333333, "name": "968841d0613c1bb708a38bc8c26fc640"}, {"bike_id": "5b945f67a45f9c15269cd15df2b99799", "type": "electric_scooter", "is_disabled": 0, "lat": 38.88440933333333, "rental_uris": {"ios": "https://dc.lft.to/lastmile_qr_scan", "android": "https://dc.lft.to/lastmile_qr_scan"}, "is_reserved": 0, "fusion_lon": 0.0, "fusion_lat": 0.0, "lon": -76.95752583333334, "name": "5b945f67a45f9c15269cd15df2b99799"}, {"bike_id": "63b60a06b0653c0001888c14a29aeed7", "type": "electric_scooter", "is_disabled": 0, "lat": 38.908110666666666, "rental_uris": {"ios": "https://dc.lft.to/lastmile_qr_scan", "android": "https://dc.lft.to/lastmile_qr_scan"}, "is_reserved": 0, "fusion_lon": 0.0, "fusion_lat": 0.0, "lon": -77.0260755, "name": "63b60a06b0653c0001888c14a29aeed7"}, {"bike_id": "62ae231a8a48bf5862799cb179c5f8c0", "type": "electric_scooter", "is_disabled": 0, "lat": 38.887084, "rental_uris": {"ios": "https://dc.lft.to/lastmile_qr_scan", "android": "https://dc.lft.to/lastmile_qr_scan"}, "is_reserved": 0, "fusion_lon": 0.0, "fusion_lat": 0.0, "lon": -77.02209966666666, "name": "62ae231a8a48bf5862799cb179c5f8c0"}, {"bike_id": "c4c7d4c89cc30bf52d73d8a83fed1f7a", "type": "electric_scooter", "is_disabled": 0, "lat": 38.90284533333333, "rental_uris": {"ios": "https://dc.lft.to/lastmile_qr_scan", "android": "https://dc.lft.to/lastmile_qr_scan"}, "is_reserved": 0, "fusion_lon": 0.0, "fusion_lat": 0.0, "lon": -77.03574, "name": "c4c7d4c89cc30bf52d73d8a83fed1f7a"}, {"bike_id": "7a34acc3dd1f1136e3596ce44413e4fb", "type": "electric_scooter", "is_disabled": 0, "lat": 38.90029783333333, "rental_uris": {"ios": "https://dc.lft.to/lastmile_qr_scan", "android": "https://dc.lft.to/lastmile_qr_scan"}, "is_reserved": 0, "fusion_lon": 0.0, "fusion_lat": 0.0, "lon": -77.05079383333333, "name": "7a34acc3dd1f1136e3596ce44413e4fb"}, {"bike_id": "81841f04c9ee7e6228d1c5c85a9cbf29", "type": "electric_scooter", "is_disabled": 0, "lat": 38.896985666666666, "rental_uris": {"ios": "https://dc.lft.to/lastmile_qr_scan", "android": "https://dc.lft.to/lastmile_qr_scan"}, "is_reserved": 0, "fusion_lon": 0.0, "fusion_lat": 0.0, "lon": -76.93002166666666, "name": "81841f04c9ee7e6228d1c5c85a9cbf29"}, {"bike_id": "a7d613d75d578a6c52c09d59cb2589a2", "type": "electric_bike", "is_disabled": 0, "lat": 38.86513, "rental_uris": {"ios": "https://dc.lft.to/lastmile_qr_scan", "android": "https://dc.lft.to/lastmile_qr_scan"}, "is_reserved": 0, "fusion_lon": 0.0, "fusion_lat": 0.0, "lon": -77.12940966666666, "name": "a7d613d75d578a6c52c09d59cb2589a2"}, {"bike_id": "d62693dd67637c005a6bc8616c843940", "type": "electric_bike", "is_disabled": 0, "lat": 38.80389533333334, "rental_uris": {"ios": "https://dc.lft.to/lastmile_qr_scan", "android": "https://dc.lft.to/lastmile_qr_scan"}, "is_reserved": 0, "fusion_lon": 0.0, "fusion_lat": 0.0, "lon": -77.05567183333334, "name": "d62693dd67637c005a6bc8616c843940"}, {"bike_id": "7b5e1d4bfe31eb8f50ad1a820001402f", "type": "electric_scooter", "is_disabled": 0, "lat": 38.944696666666665, "rental_uris": {"ios": "https://dc.lft.to/lastmile_qr_scan", "android": "https://dc.lft.to/lastmile_qr_scan"}, "is_reserved": 0, "fusion_lon": 0.0, "fusion_lat": 0.0, "lon": -77.02341383333334, "name": "7b5e1d4bfe31eb8f50ad1a820001402f"}, {"bike_id": "6eb2b61b5f7e6043954d411635f588da", "type": "electric_scooter", "is_disabled": 0, "lat": 38.908503833333334, "rental_uris": {"ios": "https://dc.lft.to/lastmile_qr_scan", "android": "https://dc.lft.to/lastmile_qr_scan"}, "is_reserved": 0, "fusion_lon": 0.0, "fusion_lat": 0.0, "lon": -77.02062066666667, "name": "6eb2b61b5f7e6043954d411635f588da"}, {"bike_id": "a07951b825ccde36168682360fee6c3d", "type": "electric_scooter", "is_disabled": 0, "lat": 38.9155905, "rental_uris": {"ios": "https://dc.lft.to/lastmile_qr_scan", "android": "https://dc.lft.to/lastmile_qr_scan"}, "is_reserved": 0, "fusion_lon": 0.0, "fusion_lat": 0.0, "lon": -77.021355, "name": "a07951b825ccde36168682360fee6c3d"}, {"bike_id": "b4140def909d85c2d2d41e1be5c78553", "type": "electric_scooter", "is_disabled": 0, "lat": 38.8995955, "rental_uris": {"ios": "https://dc.lft.to/lastmile_qr_scan", "android": "https://dc.lft.to/lastmile_qr_scan"}, "is_reserved": 0, "fusion_lon": 0.0, "fusion_lat": 0.0, "lon": -77.01508466666667, "name": "b4140def909d85c2d2d41e1be5c78553"}, {"bike_id": "69f40dd02dd4641549534b50686430f4", "type": "electric_scooter", "is_disabled": 0, "lat": 38.91496816666667, "rental_uris": {"ios": "https://dc.lft.to/lastmile_qr_scan", "android": "https://dc.lft.to/lastmile_qr_scan"}, "is_reserved": 0, "fusion_lon": 0.0, "fusion_lat": 0.0, "lon": -77.03188266666666, "name": "69f40dd02dd4641549534b50686430f4"}, {"bike_id": "a753ba0966cbf3898ee4fa372ab0dca2", "type": "electric_scooter", "is_disabled": 0, "lat": 38.9294325, "rental_uris": {"ios": "https://dc.lft.to/lastmile_qr_scan", "android": "https://dc.lft.to/lastmile_qr_scan"}, "is_reserved": 0, "fusion_lon": 0.0, "fusion_lat": 0.0, "lon": -77.0375785, "name": "a753ba0966cbf3898ee4fa372ab0dca2"}, {"bike_id": "4599021018e0a50f9c7b658ca7761921", "type": "electric_scooter", "is_disabled": 0, "lat": 38.90191883333333, "rental_uris": {"ios": "https://dc.lft.to/lastmile_qr_scan", "android": "https://dc.lft.to/lastmile_qr_scan"}, "is_reserved": 0, "fusion_lon": 0.0, "fusion_lat": 0.0, "lon": -76.99681416666667, "name": "4599021018e0a50f9c7b658ca7761921"}, {"bike_id": "74618c3037865d076879ffc07d7f9be6", "type": "electric_scooter", "is_disabled": 0, "lat": 38.88211716666667, "rental_uris": {"ios": "https://dc.lft.to/lastmile_qr_scan", "android": "https://dc.lft.to/lastmile_qr_scan"}, "is_reserved": 0, "fusion_lon": 0.0, "fusion_lat": 0.0, "lon": -77.02906616666667, "name": "74618c3037865d076879ffc07d7f9be6"}, {"bike_id": "c1650885b9fe82e0753e415034c05ef8", "type": "electric_scooter", "is_disabled": 0, "lat": 38.895678333333336, "rental_uris": {"ios": "https://dc.lft.to/lastmile_qr_scan", "android": "https://dc.lft.to/lastmile_qr_scan"}, "is_reserved": 0, "fusion_lon": 0.0, "fusion_lat": 0.0, "lon": -77.03147466666667, "name": "c1650885b9fe82e0753e415034c05ef8"}, {"bike_id": "71d3e38dbba1191bd83f6e2fec5f67d9", "type": "electric_scooter", "is_disabled": 0, "lat": 38.878896166666664, "rental_uris": {"ios": "https://dc.lft.to/lastmile_qr_scan", "android": "https://dc.lft.to/lastmile_qr_scan"}, "is_reserved": 0, "fusion_lon": 0.0, "fusion_lat": 0.0, "lon": -76.99158333333334, "name": "71d3e38dbba1191bd83f6e2fec5f67d9"}, {"bike_id": "4899ef8fe43765728144ee25739862d9", "type": "electric_scooter", "is_disabled": 0, "lat": 38.926551333333336, "rental_uris": {"ios": "https://dc.lft.to/lastmile_qr_scan", "android": "https://dc.lft.to/lastmile_qr_scan"}, "is_reserved": 0, "fusion_lon": 0.0, "fusion_lat": 0.0, "lon": -77.01509216666666, "name": "4899ef8fe43765728144ee25739862d9"}, {"bike_id": "147ef33a331e3e02c90c7008a06139d5", "type": "electric_scooter", "is_disabled": 0, "lat": 38.93038116666666, "rental_uris": {"ios": "https://dc.lft.to/lastmile_qr_scan", "android": "https://dc.lft.to/lastmile_qr_scan"}, "is_reserved": 0, "fusion_lon": 0.0, "fusion_lat": 0.0, "lon": -77.01836983333334, "name": "147ef33a331e3e02c90c7008a06139d5"}, {"bike_id": "b7fa6c5bf54feff170f4922fcc53835a", "type": "electric_scooter", "is_disabled": 0, "lat": 38.90266866666666, "rental_uris": {"ios": "https://dc.lft.to/lastmile_qr_scan", "android": "https://dc.lft.to/lastmile_qr_scan"}, "is_reserved": 0, "fusion_lon": 0.0, "fusion_lat": 0.0, "lon": -77.054784, "name": "b7fa6c5bf54feff170f4922fcc53835a"}, {"bike_id": "6e24a3afbdf644c4661b8cca16889124", "type": "electric_bike", "is_disabled": 0, "lat": 38.87481916666667, "rental_uris": {"ios": "https://dc.lft.to/lastmile_qr_scan", "android": "https://dc.lft.to/lastmile_qr_scan"}, "is_reserved": 0, "fusion_lon": 0.0, "fusion_lat": 0.0, "lon": -76.96528516666666, "name": "6e24a3afbdf644c4661b8cca16889124"}, {"bike_id": "9d7d4364dc6d39a894762536e25d00f1", "type": "electric_scooter", "is_disabled": 0, "lat": 38.898427, "rental_uris": {"ios": "https://dc.lft.to/lastmile_qr_scan", "android": "https://dc.lft.to/lastmile_qr_scan"}, "is_reserved": 0, "fusion_lon": 0.0, "fusion_lat": 0.0, "lon": -76.94632733333333, "name": "9d7d4364dc6d39a894762536e25d00f1"}, {"bike_id": "c7a6d5b12ff41cfc108442e33ee10a19", "type": "electric_scooter", "is_disabled": 0, "lat": 38.897058, "rental_uris": {"ios": "https://dc.lft.to/lastmile_qr_scan", "android": "https://dc.lft.to/lastmile_qr_scan"}, "is_reserved": 0, "fusion_lon": 0.0, "fusion_lat": 0.0, "lon": -77.0083255, "name": "c7a6d5b12ff41cfc108442e33ee10a19"}, {"bike_id": "fdf9dd3b330a3e38c374bd55b7aa643f", "type": "electric_scooter", "is_disabled": 0, "lat": 38.9051085, "rental_uris": {"ios": "https://dc.lft.to/lastmile_qr_scan", "android": "https://dc.lft.to/lastmile_qr_scan"}, "is_reserved": 0, "fusion_lon": 0.0, "fusion_lat": 0.0, "lon": -77.06431066666667, "name": "fdf9dd3b330a3e38c374bd55b7aa643f"}, {"bike_id": "7953f6ac6f436c96996e15e70afc2f9e", "type": "electric_scooter", "is_disabled": 0, "lat": 38.921504, "rental_uris": {"ios": "https://dc.lft.to/lastmile_qr_scan", "android": "https://dc.lft.to/lastmile_qr_scan"}, "is_reserved": 0, "fusion_lon": 0.0, "fusion_lat": 0.0, "lon": -77.035183, "name": "7953f6ac6f436c96996e15e70afc2f9e"}, {"bike_id": "6d5ce888f905ffe58711ccc232a7b3b9", "type": "electric_scooter", "is_disabled": 0, "lat": 38.92389266666667, "rental_uris": {"ios": "https://dc.lft.to/lastmile_qr_scan", "android": "https://dc.lft.to/lastmile_qr_scan"}, "is_reserved": 0, "fusion_lon": 0.0, "fusion_lat": 0.0, "lon": -77.03215816666666, "name": "6d5ce888f905ffe58711ccc232a7b3b9"}, {"bike_id": "9e46cbc1dad2f3e6867f148bc1f008b0", "type": "electric_scooter", "is_disabled": 0, "lat": 38.911939333333336, "rental_uris": {"ios": "https://dc.lft.to/lastmile_qr_scan", "android": "https://dc.lft.to/lastmile_qr_scan"}, "is_reserved": 0, "fusion_lon": 0.0, "fusion_lat": 0.0, "lon": -77.04035133333333, "name": "9e46cbc1dad2f3e6867f148bc1f008b0"}, {"bike_id": "cb9b75751d73b6eb9ad39066fbeaf61b", "type": "electric_scooter", "is_disabled": 0, "lat": 38.91322783333333, "rental_uris": {"ios": "https://dc.lft.to/lastmile_qr_scan", "android": "https://dc.lft.to/lastmile_qr_scan"}, "is_reserved": 0, "fusion_lon": 0.0, "fusion_lat": 0.0, "lon": -77.031818, "name": "cb9b75751d73b6eb9ad39066fbeaf61b"}, {"bike_id": "904e50ff3fb1f33d8ac44195ec472d6c", "type": "electric_scooter", "is_disabled": 0, "lat": 38.894750333333334, "rental_uris": {"ios": "https://dc.lft.to/lastmile_qr_scan", "android": "https://dc.lft.to/lastmile_qr_scan"}, "is_reserved": 0, "fusion_lon": 0.0, "fusion_lat": 0.0, "lon": -76.9486205, "name": "904e50ff3fb1f33d8ac44195ec472d6c"}, {"bike_id": "3234364cba3852af5b90fffa89de4f4a", "type": "electric_scooter", "is_disabled": 0, "lat": 38.9148245, "rental_uris": {"ios": "https://dc.lft.to/lastmile_qr_scan", "android": "https://dc.lft.to/lastmile_qr_scan"}, "is_reserved": 0, "fusion_lon": 0.0, "fusion_lat": 0.0, "lon": -77.03761716666666, "name": "3234364cba3852af5b90fffa89de4f4a"}, {"bike_id": "711b32cd9212518b01661c8d31957ba2", "type": "electric_scooter", "is_disabled": 0, "lat": 38.901269666666664, "rental_uris": {"ios": "https://dc.lft.to/lastmile_qr_scan", "android": "https://dc.lft.to/lastmile_qr_scan"}, "is_reserved": 0, "fusion_lon": 0.0, "fusion_lat": 0.0, "lon": -77.00325716666667, "name": "711b32cd9212518b01661c8d31957ba2"}, {"bike_id": "6d83fe9ab4afcd817a9eaaca36ea963f", "type": "electric_scooter", "is_disabled": 0, "lat": 38.907577333333336, "rental_uris": {"ios": "https://dc.lft.to/lastmile_qr_scan", "android": "https://dc.lft.to/lastmile_qr_scan"}, "is_reserved": 0, "fusion_lon": 0.0, "fusion_lat": 0.0, "lon": -77.01698983333333, "name": "6d83fe9ab4afcd817a9eaaca36ea963f"}, {"bike_id": "e2cae0b035d31ee7f96cbd424967b97f", "type": "electric_scooter", "is_disabled": 0, "lat": 38.915561833333335, "rental_uris": {"ios": "https://dc.lft.to/lastmile_qr_scan", "android": "https://dc.lft.to/lastmile_qr_scan"}, "is_reserved": 0, "fusion_lon": 0.0, "fusion_lat": 0.0, "lon": -77.0220815, "name": "e2cae0b035d31ee7f96cbd424967b97f"}, {"bike_id": "490a0d0593ab5b63e63781b7d0739821", "type": "electric_scooter", "is_disabled": 0, "lat": 38.905185, "rental_uris": {"ios": "https://dc.lft.to/lastmile_qr_scan", "android": "https://dc.lft.to/lastmile_qr_scan"}, "is_reserved": 0, "fusion_lon": 0.0, "fusion_lat": 0.0, "lon": -77.0171835, "name": "490a0d0593ab5b63e63781b7d0739821"}, {"bike_id": "6c1bd3f69d3ff1bf1fca5bd78a45eb74", "type": "electric_scooter", "is_disabled": 0, "lat": 38.90969333333334, "rental_uris": {"ios": "https://dc.lft.to/lastmile_qr_scan", "android": "https://dc.lft.to/lastmile_qr_scan"}, "is_reserved": 0, "fusion_lon": 0.0, "fusion_lat": 0.0, "lon": -77.03438216666666, "name": "6c1bd3f69d3ff1bf1fca5bd78a45eb74"}, {"bike_id": "996ba6f02aaa8d92acf98927187dd42e", "type": "electric_scooter", "is_disabled": 0, "lat": 38.931890833333334, "rental_uris": {"ios": "https://dc.lft.to/lastmile_qr_scan", "android": "https://dc.lft.to/lastmile_qr_scan"}, "is_reserved": 0, "fusion_lon": 0.0, "fusion_lat": 0.0, "lon": -77.02021466666666, "name": "996ba6f02aaa8d92acf98927187dd42e"}, {"bike_id": "f09f89c4f2c816ef406bcc480cd6508f", "type": "electric_scooter", "is_disabled": 0, "lat": 38.867121833333336, "rental_uris": {"ios": "https://dc.lft.to/lastmile_qr_scan", "android": "https://dc.lft.to/lastmile_qr_scan"}, "is_reserved": 0, "fusion_lon": 0.0, "fusion_lat": 0.0, "lon": -77.01010366666667, "name": "f09f89c4f2c816ef406bcc480cd6508f"}, {"bike_id": "40163baa9d1d413f03c4aade3a30de73", "type": "electric_scooter", "is_disabled": 0, "lat": 38.91680566666667, "rental_uris": {"ios": "https://dc.lft.to/lastmile_qr_scan", "android": "https://dc.lft.to/lastmile_qr_scan"}, "is_reserved": 0, "fusion_lon": 0.0, "fusion_lat": 0.0, "lon": -77.02397533333334, "name": "40163baa9d1d413f03c4aade3a30de73"}, {"bike_id": "e4394848d990a8793c264ab8ae4771aa", "type": "electric_scooter", "is_disabled": 0, "lat": 38.900362666666666, "rental_uris": {"ios": "https://dc.lft.to/lastmile_qr_scan", "android": "https://dc.lft.to/lastmile_qr_scan"}, "is_reserved": 0, "fusion_lon": 0.0, "fusion_lat": 0.0, "lon": -76.9916005, "name": "e4394848d990a8793c264ab8ae4771aa"}, {"bike_id": "9244291522d6b7bd7512d4075fd13587", "type": "electric_scooter", "is_disabled": 0, "lat": 38.923188833333334, "rental_uris": {"ios": "https://dc.lft.to/lastmile_qr_scan", "android": "https://dc.lft.to/lastmile_qr_scan"}, "is_reserved": 0, "fusion_lon": 0.0, "fusion_lat": 0.0, "lon": -77.02975866666667, "name": "9244291522d6b7bd7512d4075fd13587"}, {"bike_id": "d72fe2c9809eefd4d8f8cd2923edc44a", "type": "electric_scooter", "is_disabled": 0, "lat": 38.910060666666666, "rental_uris": {"ios": "https://dc.lft.to/lastmile_qr_scan", "android": "https://dc.lft.to/lastmile_qr_scan"}, "is_reserved": 0, "fusion_lon": 0.0, "fusion_lat": 0.0, "lon": -77.04010216666667, "name": "d72fe2c9809eefd4d8f8cd2923edc44a"}, {"bike_id": "a0c996cb8fc33fc032d8003266d01969", "type": "electric_scooter", "is_disabled": 0, "lat": 38.92337216666667, "rental_uris": {"ios": "https://dc.lft.to/lastmile_qr_scan", "android": "https://dc.lft.to/lastmile_qr_scan"}, "is_reserved": 0, "fusion_lon": 0.0, "fusion_lat": 0.0, "lon": -77.05251883333334, "name": "a0c996cb8fc33fc032d8003266d01969"}, {"bike_id": "e2754432f15f7d044de35e84912750a8", "type": "electric_scooter", "is_disabled": 0, "lat": 38.901378666666666, "rental_uris": {"ios": "https://dc.lft.to/lastmile_qr_scan", "android": "https://dc.lft.to/lastmile_qr_scan"}, "is_reserved": 0, "fusion_lon": 0.0, "fusion_lat": 0.0, "lon": -77.0160775, "name": "e2754432f15f7d044de35e84912750a8"}, {"bike_id": "c3ca7a91ded8cfb9a4f4b088412fb2b1", "type": "electric_scooter", "is_disabled": 0, "lat": 38.9026675, "rental_uris": {"ios": "https://dc.lft.to/lastmile_qr_scan", "android": "https://dc.lft.to/lastmile_qr_scan"}, "is_reserved": 0, "fusion_lon": 0.0, "fusion_lat": 0.0, "lon": -77.01726216666667, "name": "c3ca7a91ded8cfb9a4f4b088412fb2b1"}, {"bike_id": "ef71dd78155f9256b363c01c66ef0e34", "type": "electric_scooter", "is_disabled": 0, "lat": 38.9169915, "rental_uris": {"ios": "https://dc.lft.to/lastmile_qr_scan", "android": "https://dc.lft.to/lastmile_qr_scan"}, "is_reserved": 0, "fusion_lon": 0.0, "fusion_lat": 0.0, "lon": -77.03774783333333, "name": "ef71dd78155f9256b363c01c66ef0e34"}, {"bike_id": "6c058d58d507d00263bf88df6b43d19f", "type": "electric_scooter", "is_disabled": 0, "lat": 38.9075935, "rental_uris": {"ios": "https://dc.lft.to/lastmile_qr_scan", "android": "https://dc.lft.to/lastmile_qr_scan"}, "is_reserved": 0, "fusion_lon": 0.0, "fusion_lat": 0.0, "lon": -77.04194566666666, "name": "6c058d58d507d00263bf88df6b43d19f"}, {"bike_id": "47ee4ba72033994479ec844373de2f94", "type": "electric_scooter", "is_disabled": 0, "lat": 38.940303, "rental_uris": {"ios": "https://dc.lft.to/lastmile_qr_scan", "android": "https://dc.lft.to/lastmile_qr_scan"}, "is_reserved": 0, "fusion_lon": 0.0, "fusion_lat": 0.0, "lon": -77.02799683333333, "name": "47ee4ba72033994479ec844373de2f94"}, {"bike_id": "533bb523728e0981f53b423d93499806", "type": "electric_scooter", "is_disabled": 0, "lat": 38.91496633333333, "rental_uris": {"ios": "https://dc.lft.to/lastmile_qr_scan", "android": "https://dc.lft.to/lastmile_qr_scan"}, "is_reserved": 0, "fusion_lon": 0.0, "fusion_lat": 0.0, "lon": -77.03186166666667, "name": "533bb523728e0981f53b423d93499806"}, {"bike_id": "5b6e7317aa3cd3887306523bf346e79a", "type": "electric_scooter", "is_disabled": 0, "lat": 38.8998175, "rental_uris": {"ios": "https://dc.lft.to/lastmile_qr_scan", "android": "https://dc.lft.to/lastmile_qr_scan"}, "is_reserved": 0, "fusion_lon": 0.0, "fusion_lat": 0.0, "lon": -77.02169183333334, "name": "5b6e7317aa3cd3887306523bf346e79a"}, {"bike_id": "60b1adb6159638f2a743f7145d2c1ab9", "type": "electric_bike", "is_disabled": 0, "lat": 39.03987883333333, "rental_uris": {"ios": "https://dc.lft.to/lastmile_qr_scan", "android": "https://dc.lft.to/lastmile_qr_scan"}, "is_reserved": 0, "fusion_lon": 0.0, "fusion_lat": 0.0, "lon": -76.99926933333333, "name": "60b1adb6159638f2a743f7145d2c1ab9"}, {"bike_id": "13a89f1ada42fa81f010f4ae4eeb02fe", "type": "electric_scooter", "is_disabled": 0, "lat": 38.917033333333336, "rental_uris": {"ios": "https://dc.lft.to/lastmile_qr_scan", "android": "https://dc.lft.to/lastmile_qr_scan"}, "is_reserved": 0, "fusion_lon": 0.0, "fusion_lat": 0.0, "lon": -77.04613466666666, "name": "13a89f1ada42fa81f010f4ae4eeb02fe"}, {"bike_id": "9b7484bcc83b8f5a7659acc8de3b19ac", "type": "electric_scooter", "is_disabled": 0, "lat": 38.909125833333334, "rental_uris": {"ios": "https://dc.lft.to/lastmile_qr_scan", "android": "https://dc.lft.to/lastmile_qr_scan"}, "is_reserved": 0, "fusion_lon": 0.0, "fusion_lat": 0.0, "lon": -76.99966366666666, "name": "9b7484bcc83b8f5a7659acc8de3b19ac"}, {"bike_id": "df4ecce9f349be27e75c96b4ddbd85e9", "type": "electric_scooter", "is_disabled": 0, "lat": 38.900436166666665, "rental_uris": {"ios": "https://dc.lft.to/lastmile_qr_scan", "android": "https://dc.lft.to/lastmile_qr_scan"}, "is_reserved": 0, "fusion_lon": 0.0, "fusion_lat": 0.0, "lon": -77.036562, "name": "df4ecce9f349be27e75c96b4ddbd85e9"}, {"bike_id": "393c34c40a28e224fda651e5a64466b0", "type": "electric_scooter", "is_disabled": 0, "lat": 38.892957, "rental_uris": {"ios": "https://dc.lft.to/lastmile_qr_scan", "android": "https://dc.lft.to/lastmile_qr_scan"}, "is_reserved": 0, "fusion_lon": 0.0, "fusion_lat": 0.0, "lon": -77.048745, "name": "393c34c40a28e224fda651e5a64466b0"}, {"bike_id": "4e19018ed1259d435bc1975a5ee5ee16", "type": "electric_scooter", "is_disabled": 0, "lat": 38.90709583333334, "rental_uris": {"ios": "https://dc.lft.to/lastmile_qr_scan", "android": "https://dc.lft.to/lastmile_qr_scan"}, "is_reserved": 0, "fusion_lon": 0.0, "fusion_lat": 0.0, "lon": -77.02402466666666, "name": "4e19018ed1259d435bc1975a5ee5ee16"}, {"bike_id": "8cd1a2f363f812a444ee0e41bc75afcf", "type": "electric_scooter", "is_disabled": 0, "lat": 38.92211366666667, "rental_uris": {"ios": "https://dc.lft.to/lastmile_qr_scan", "android": "https://dc.lft.to/lastmile_qr_scan"}, "is_reserved": 0, "fusion_lon": 0.0, "fusion_lat": 0.0, "lon": -77.03465516666667, "name": "8cd1a2f363f812a444ee0e41bc75afcf"}, {"bike_id": "fb7af5a7a766168651116182186f2fc4", "type": "electric_scooter", "is_disabled": 0, "lat": 38.90378333333334, "rental_uris": {"ios": "https://dc.lft.to/lastmile_qr_scan", "android": "https://dc.lft.to/lastmile_qr_scan"}, "is_reserved": 0, "fusion_lon": 0.0, "fusion_lat": 0.0, "lon": -77.02911966666667, "name": "fb7af5a7a766168651116182186f2fc4"}, {"bike_id": "250441b2274d5df5e05e922bf2fa146a", "type": "electric_scooter", "is_disabled": 0, "lat": 38.91462816666667, "rental_uris": {"ios": "https://dc.lft.to/lastmile_qr_scan", "android": "https://dc.lft.to/lastmile_qr_scan"}, "is_reserved": 0, "fusion_lon": 0.0, "fusion_lat": 0.0, "lon": -77.022897, "name": "250441b2274d5df5e05e922bf2fa146a"}, {"bike_id": "35d8ae7c3adb405972d568b014a6c64d", "type": "electric_bike", "is_disabled": 0, "lat": 38.93670733333333, "rental_uris": {"ios": "https://dc.lft.to/lastmile_qr_scan", "android": "https://dc.lft.to/lastmile_qr_scan"}, "is_reserved": 0, "fusion_lon": 0.0, "fusion_lat": 0.0, "lon": -76.95206433333334, "name": "35d8ae7c3adb405972d568b014a6c64d"}, {"bike_id": "c65abf44bcc8ae3dce265729e828c5d4", "type": "electric_scooter", "is_disabled": 0, "lat": 38.898418666666664, "rental_uris": {"ios": "https://dc.lft.to/lastmile_qr_scan", "android": "https://dc.lft.to/lastmile_qr_scan"}, "is_reserved": 0, "fusion_lon": 0.0, "fusion_lat": 0.0, "lon": -76.94636116666666, "name": "c65abf44bcc8ae3dce265729e828c5d4"}, {"bike_id": "10126fd9f80f468e96ee783918a95c8f", "type": "electric_bike", "is_disabled": 0, "lat": 38.9020685, "rental_uris": {"ios": "https://dc.lft.to/lastmile_qr_scan", "android": "https://dc.lft.to/lastmile_qr_scan"}, "is_reserved": 0, "fusion_lon": 0.0, "fusion_lat": 0.0, "lon": -76.97416016666666, "name": "10126fd9f80f468e96ee783918a95c8f"}, {"bike_id": "f71e069cc2c409e2149b989251829895", "type": "electric_scooter", "is_disabled": 0, "lat": 38.916844833333336, "rental_uris": {"ios": "https://dc.lft.to/lastmile_qr_scan", "android": "https://dc.lft.to/lastmile_qr_scan"}, "is_reserved": 0, "fusion_lon": 0.0, "fusion_lat": 0.0, "lon": -77.0295545, "name": "f71e069cc2c409e2149b989251829895"}, {"bike_id": "85df0e9fb3c5f0d8a43c620e6b3dcc34", "type": "electric_scooter", "is_disabled": 0, "lat": 38.90620666666667, "rental_uris": {"ios": "https://dc.lft.to/lastmile_qr_scan", "android": "https://dc.lft.to/lastmile_qr_scan"}, "is_reserved": 0, "fusion_lon": 0.0, "fusion_lat": 0.0, "lon": -77.01028416666666, "name": "85df0e9fb3c5f0d8a43c620e6b3dcc34"}, {"bike_id": "c733bc63b35d30ee8d1dde6d3a478758", "type": "electric_bike", "is_disabled": 0, "lat": 38.92644933333333, "rental_uris": {"ios": "https://dc.lft.to/lastmile_qr_scan", "android": "https://dc.lft.to/lastmile_qr_scan"}, "is_reserved": 0, "fusion_lon": 0.0, "fusion_lat": 0.0, "lon": -76.98427649999999, "name": "c733bc63b35d30ee8d1dde6d3a478758"}, {"bike_id": "8e3abc27f676a744a8340c34449d816c", "type": "electric_bike", "is_disabled": 0, "lat": 38.924611666666664, "rental_uris": {"ios": "https://dc.lft.to/lastmile_qr_scan", "android": "https://dc.lft.to/lastmile_qr_scan"}, "is_reserved": 0, "fusion_lon": 0.0, "fusion_lat": 0.0, "lon": -77.22562533333334, "name": "8e3abc27f676a744a8340c34449d816c"}, {"bike_id": "8233a774127c925fee77e252033bf43a", "type": "electric_scooter", "is_disabled": 0, "lat": 38.941976333333336, "rental_uris": {"ios": "https://dc.lft.to/lastmile_qr_scan", "android": "https://dc.lft.to/lastmile_qr_scan"}, "is_reserved": 0, "fusion_lon": 0.0, "fusion_lat": 0.0, "lon": -77.024338, "name": "8233a774127c925fee77e252033bf43a"}, {"bike_id": "8bd5d33bc683f5878656696ff82e1303", "type": "electric_scooter", "is_disabled": 0, "lat": 38.9067295, "rental_uris": {"ios": "https://dc.lft.to/lastmile_qr_scan", "android": "https://dc.lft.to/lastmile_qr_scan"}, "is_reserved": 0, "fusion_lon": 0.0, "fusion_lat": 0.0, "lon": -77.023924, "name": "8bd5d33bc683f5878656696ff82e1303"}, {"bike_id": "d8b4f902ed6320dfd242ea82ed27ace8", "type": "electric_scooter", "is_disabled": 0, "lat": 38.918537666666666, "rental_uris": {"ios": "https://dc.lft.to/lastmile_qr_scan", "android": "https://dc.lft.to/lastmile_qr_scan"}, "is_reserved": 0, "fusion_lon": 0.0, "fusion_lat": 0.0, "lon": -77.0410795, "name": "d8b4f902ed6320dfd242ea82ed27ace8"}, {"bike_id": "f26f090231e96921b70fc1aad638b49f", "type": "electric_scooter", "is_disabled": 0, "lat": 38.9224535, "rental_uris": {"ios": "https://dc.lft.to/lastmile_qr_scan", "android": "https://dc.lft.to/lastmile_qr_scan"}, "is_reserved": 0, "fusion_lon": 0.0, "fusion_lat": 0.0, "lon": -77.04271216666666, "name": "f26f090231e96921b70fc1aad638b49f"}, {"bike_id": "e30892acec6fc3b1711806e74749c87a", "type": "electric_scooter", "is_disabled": 0, "lat": 38.90925216666667, "rental_uris": {"ios": "https://dc.lft.to/lastmile_qr_scan", "android": "https://dc.lft.to/lastmile_qr_scan"}, "is_reserved": 0, "fusion_lon": 0.0, "fusion_lat": 0.0, "lon": -77.03208116666667, "name": "e30892acec6fc3b1711806e74749c87a"}, {"bike_id": "202c0a8b6ca9bd4087ec90671b4d1bfb", "type": "electric_scooter", "is_disabled": 0, "lat": 38.921918166666664, "rental_uris": {"ios": "https://dc.lft.to/lastmile_qr_scan", "android": "https://dc.lft.to/lastmile_qr_scan"}, "is_reserved": 0, "fusion_lon": 0.0, "fusion_lat": 0.0, "lon": -77.03807366666666, "name": "202c0a8b6ca9bd4087ec90671b4d1bfb"}, {"bike_id": "1633551d128409310d381bee0db3a2b1", "type": "electric_scooter", "is_disabled": 0, "lat": 38.912678, "rental_uris": {"ios": "https://dc.lft.to/lastmile_qr_scan", "android": "https://dc.lft.to/lastmile_qr_scan"}, "is_reserved": 0, "fusion_lon": 0.0, "fusion_lat": 0.0, "lon": -77.02211183333333, "name": "1633551d128409310d381bee0db3a2b1"}, {"bike_id": "976876d31c92c6039e7a34adcb0608f7", "type": "electric_scooter", "is_disabled": 0, "lat": 38.92357, "rental_uris": {"ios": "https://dc.lft.to/lastmile_qr_scan", "android": "https://dc.lft.to/lastmile_qr_scan"}, "is_reserved": 0, "fusion_lon": 0.0, "fusion_lat": 0.0, "lon": -77.04152416666666, "name": "976876d31c92c6039e7a34adcb0608f7"}, {"bike_id": "2d69f2155e5cbe92053f3d9091381c09", "type": "electric_scooter", "is_disabled": 0, "lat": 38.91091733333333, "rental_uris": {"ios": "https://dc.lft.to/lastmile_qr_scan", "android": "https://dc.lft.to/lastmile_qr_scan"}, "is_reserved": 0, "fusion_lon": 0.0, "fusion_lat": 0.0, "lon": -77.03855816666666, "name": "2d69f2155e5cbe92053f3d9091381c09"}, {"bike_id": "4a1373fc196d2d89bb225537f05c5f56", "type": "electric_bike", "is_disabled": 0, "lat": 38.949015333333335, "rental_uris": {"ios": "https://dc.lft.to/lastmile_qr_scan", "android": "https://dc.lft.to/lastmile_qr_scan"}, "is_reserved": 0, "fusion_lon": 0.0, "fusion_lat": 0.0, "lon": -76.9637585, "name": "4a1373fc196d2d89bb225537f05c5f56"}, {"bike_id": "526d3bed5f596dcc32b17cf9bef714aa", "type": "electric_scooter", "is_disabled": 0, "lat": 38.88673416666666, "rental_uris": {"ios": "https://dc.lft.to/lastmile_qr_scan", "android": "https://dc.lft.to/lastmile_qr_scan"}, "is_reserved": 0, "fusion_lon": 0.0, "fusion_lat": 0.0, "lon": -76.98778733333333, "name": "526d3bed5f596dcc32b17cf9bef714aa"}, {"bike_id": "cdea5e4b4d17e154388920c13ddb505a", "type": "electric_scooter", "is_disabled": 0, "lat": 38.9111955, "rental_uris": {"ios": "https://dc.lft.to/lastmile_qr_scan", "android": "https://dc.lft.to/lastmile_qr_scan"}, "is_reserved": 0, "fusion_lon": 0.0, "fusion_lat": 0.0, "lon": -77.0317225, "name": "cdea5e4b4d17e154388920c13ddb505a"}, {"bike_id": "8b99a43ac007f19c5cf00523dadf7dcc", "type": "electric_scooter", "is_disabled": 0, "lat": 38.91817833333333, "rental_uris": {"ios": "https://dc.lft.to/lastmile_qr_scan", "android": "https://dc.lft.to/lastmile_qr_scan"}, "is_reserved": 0, "fusion_lon": 0.0, "fusion_lat": 0.0, "lon": -77.0026015, "name": "8b99a43ac007f19c5cf00523dadf7dcc"}, {"bike_id": "0713627b4031fbfa1beefc87bc189b27", "type": "electric_scooter", "is_disabled": 0, "lat": 38.91268566666667, "rental_uris": {"ios": "https://dc.lft.to/lastmile_qr_scan", "android": "https://dc.lft.to/lastmile_qr_scan"}, "is_reserved": 0, "fusion_lon": 0.0, "fusion_lat": 0.0, "lon": -77.0221155, "name": "0713627b4031fbfa1beefc87bc189b27"}, {"bike_id": "cc83ef50b249603c671fdc4da9a8a4ff", "type": "electric_scooter", "is_disabled": 0, "lat": 38.90428716666667, "rental_uris": {"ios": "https://dc.lft.to/lastmile_qr_scan", "android": "https://dc.lft.to/lastmile_qr_scan"}, "is_reserved": 0, "fusion_lon": 0.0, "fusion_lat": 0.0, "lon": -77.024007, "name": "cc83ef50b249603c671fdc4da9a8a4ff"}, {"bike_id": "03e1e8bf32afee5a951171cc20e7a171", "type": "electric_scooter", "is_disabled": 0, "lat": 38.91946433333333, "rental_uris": {"ios": "https://dc.lft.to/lastmile_qr_scan", "android": "https://dc.lft.to/lastmile_qr_scan"}, "is_reserved": 0, "fusion_lon": 0.0, "fusion_lat": 0.0, "lon": -77.02486933333333, "name": "03e1e8bf32afee5a951171cc20e7a171"}, {"bike_id": "a2d29f24e8b7773236663e9c541ba790", "type": "electric_scooter", "is_disabled": 0, "lat": 38.91763483333333, "rental_uris": {"ios": "https://dc.lft.to/lastmile_qr_scan", "android": "https://dc.lft.to/lastmile_qr_scan"}, "is_reserved": 0, "fusion_lon": 0.0, "fusion_lat": 0.0, "lon": -77.04767433333333, "name": "a2d29f24e8b7773236663e9c541ba790"}, {"bike_id": "901889f6316f68ada6c69d7353ae2943", "type": "electric_scooter", "is_disabled": 0, "lat": 38.90393133333333, "rental_uris": {"ios": "https://dc.lft.to/lastmile_qr_scan", "android": "https://dc.lft.to/lastmile_qr_scan"}, "is_reserved": 0, "fusion_lon": 0.0, "fusion_lat": 0.0, "lon": -77.06864466666667, "name": "901889f6316f68ada6c69d7353ae2943"}, {"bike_id": "39756dfbae8f71d6f8b4ef71e0c0379d", "type": "electric_scooter", "is_disabled": 0, "lat": 38.908239333333334, "rental_uris": {"ios": "https://dc.lft.to/lastmile_qr_scan", "android": "https://dc.lft.to/lastmile_qr_scan"}, "is_reserved": 0, "fusion_lon": 0.0, "fusion_lat": 0.0, "lon": -77.03365683333334, "name": "39756dfbae8f71d6f8b4ef71e0c0379d"}, {"bike_id": "43fab75a45dabacb7fe7f14011854779", "type": "electric_scooter", "is_disabled": 0, "lat": 38.941374, "rental_uris": {"ios": "https://dc.lft.to/lastmile_qr_scan", "android": "https://dc.lft.to/lastmile_qr_scan"}, "is_reserved": 0, "fusion_lon": 0.0, "fusion_lat": 0.0, "lon": -77.0232985, "name": "43fab75a45dabacb7fe7f14011854779"}, {"bike_id": "be7038287d8ee50b3eefc81474dd8cd5", "type": "electric_scooter", "is_disabled": 0, "lat": 38.929741, "rental_uris": {"ios": "https://dc.lft.to/lastmile_qr_scan", "android": "https://dc.lft.to/lastmile_qr_scan"}, "is_reserved": 0, "fusion_lon": 0.0, "fusion_lat": 0.0, "lon": -77.013051, "name": "be7038287d8ee50b3eefc81474dd8cd5"}, {"bike_id": "17c79290a8fc4ba77fbdd996d0aa8a65", "type": "electric_scooter", "is_disabled": 0, "lat": 38.8973815, "rental_uris": {"ios": "https://dc.lft.to/lastmile_qr_scan", "android": "https://dc.lft.to/lastmile_qr_scan"}, "is_reserved": 0, "fusion_lon": 0.0, "fusion_lat": 0.0, "lon": -76.94723366666666, "name": "17c79290a8fc4ba77fbdd996d0aa8a65"}, {"bike_id": "92d7173c322c9155251db9b4e9be62e9", "type": "electric_scooter", "is_disabled": 0, "lat": 38.8952565, "rental_uris": {"ios": "https://dc.lft.to/lastmile_qr_scan", "android": "https://dc.lft.to/lastmile_qr_scan"}, "is_reserved": 0, "fusion_lon": 0.0, "fusion_lat": 0.0, "lon": -76.948925, "name": "92d7173c322c9155251db9b4e9be62e9"}, {"bike_id": "920a96405d5b809a41d92a803bf27942", "type": "electric_scooter", "is_disabled": 0, "lat": 38.92876433333333, "rental_uris": {"ios": "https://dc.lft.to/lastmile_qr_scan", "android": "https://dc.lft.to/lastmile_qr_scan"}, "is_reserved": 0, "fusion_lon": 0.0, "fusion_lat": 0.0, "lon": -77.02710016666667, "name": "920a96405d5b809a41d92a803bf27942"}, {"bike_id": "3d033761c374a74f8da5147bf17333d8", "type": "electric_scooter", "is_disabled": 0, "lat": 38.90050733333333, "rental_uris": {"ios": "https://dc.lft.to/lastmile_qr_scan", "android": "https://dc.lft.to/lastmile_qr_scan"}, "is_reserved": 0, "fusion_lon": 0.0, "fusion_lat": 0.0, "lon": -77.000697, "name": "3d033761c374a74f8da5147bf17333d8"}, {"bike_id": "8257758a11d2d64c83df8b676cc60998", "type": "electric_scooter", "is_disabled": 0, "lat": 38.90365233333333, "rental_uris": {"ios": "https://dc.lft.to/lastmile_qr_scan", "android": "https://dc.lft.to/lastmile_qr_scan"}, "is_reserved": 0, "fusion_lon": 0.0, "fusion_lat": 0.0, "lon": -77.03549133333334, "name": "8257758a11d2d64c83df8b676cc60998"}, {"bike_id": "b40de33f9a41c7650d6e47d951447f60", "type": "electric_scooter", "is_disabled": 0, "lat": 38.915220166666664, "rental_uris": {"ios": "https://dc.lft.to/lastmile_qr_scan", "android": "https://dc.lft.to/lastmile_qr_scan"}, "is_reserved": 0, "fusion_lon": 0.0, "fusion_lat": 0.0, "lon": -77.02204233333333, "name": "b40de33f9a41c7650d6e47d951447f60"}, {"bike_id": "08ae6b1cccf8072aac16445697cfacc9", "type": "electric_scooter", "is_disabled": 0, "lat": 38.918071833333336, "rental_uris": {"ios": "https://dc.lft.to/lastmile_qr_scan", "android": "https://dc.lft.to/lastmile_qr_scan"}, "is_reserved": 0, "fusion_lon": 0.0, "fusion_lat": 0.0, "lon": -77.02721866666667, "name": "08ae6b1cccf8072aac16445697cfacc9"}, {"bike_id": "3f3809a38172808d1e3c5dc5467b357e", "type": "electric_scooter", "is_disabled": 0, "lat": 38.88485083333333, "rental_uris": {"ios": "https://dc.lft.to/lastmile_qr_scan", "android": "https://dc.lft.to/lastmile_qr_scan"}, "is_reserved": 0, "fusion_lon": 0.0, "fusion_lat": 0.0, "lon": -77.034782, "name": "3f3809a38172808d1e3c5dc5467b357e"}, {"bike_id": "e1f541cbe682319dcbd7baa90d7d126c", "type": "electric_scooter", "is_disabled": 0, "lat": 38.92671566666667, "rental_uris": {"ios": "https://dc.lft.to/lastmile_qr_scan", "android": "https://dc.lft.to/lastmile_qr_scan"}, "is_reserved": 0, "fusion_lon": 0.0, "fusion_lat": 0.0, "lon": -77.014715, "name": "e1f541cbe682319dcbd7baa90d7d126c"}, {"bike_id": "fc52d2b3c4fbfe73d5c0bc3c0c920d65", "type": "electric_scooter", "is_disabled": 0, "lat": 38.9003285, "rental_uris": {"ios": "https://dc.lft.to/lastmile_qr_scan", "android": "https://dc.lft.to/lastmile_qr_scan"}, "is_reserved": 0, "fusion_lon": 0.0, "fusion_lat": 0.0, "lon": -76.9916095, "name": "fc52d2b3c4fbfe73d5c0bc3c0c920d65"}, {"bike_id": "01b8db03ad4b65590de9556cfd563d8d", "type": "electric_bike", "is_disabled": 0, "lat": 38.836029333333336, "rental_uris": {"ios": "https://dc.lft.to/lastmile_qr_scan", "android": "https://dc.lft.to/lastmile_qr_scan"}, "is_reserved": 0, "fusion_lon": 0.0, "fusion_lat": 0.0, "lon": -77.00383783333334, "name": "01b8db03ad4b65590de9556cfd563d8d"}, {"bike_id": "e13702d7adfe261a7ef90a1b4934b85d", "type": "electric_scooter", "is_disabled": 0, "lat": 38.892221666666664, "rental_uris": {"ios": "https://dc.lft.to/lastmile_qr_scan", "android": "https://dc.lft.to/lastmile_qr_scan"}, "is_reserved": 0, "fusion_lon": 0.0, "fusion_lat": 0.0, "lon": -77.04799616666666, "name": "e13702d7adfe261a7ef90a1b4934b85d"}, {"bike_id": "3d9bd8a3d39cb4e48a86969af57b847c", "type": "electric_scooter", "is_disabled": 0, "lat": 38.92159616666667, "rental_uris": {"ios": "https://dc.lft.to/lastmile_qr_scan", "android": "https://dc.lft.to/lastmile_qr_scan"}, "is_reserved": 0, "fusion_lon": 0.0, "fusion_lat": 0.0, "lon": -77.03851083333333, "name": "3d9bd8a3d39cb4e48a86969af57b847c"}, {"bike_id": "2c66c722d4d78d4380c9cc0a82c98b01", "type": "electric_scooter", "is_disabled": 0, "lat": 38.89695433333333, "rental_uris": {"ios": "https://dc.lft.to/lastmile_qr_scan", "android": "https://dc.lft.to/lastmile_qr_scan"}, "is_reserved": 0, "fusion_lon": 0.0, "fusion_lat": 0.0, "lon": -76.99963016666666, "name": "2c66c722d4d78d4380c9cc0a82c98b01"}, {"bike_id": "87915f887b1e6e5ce6179cb0c496884b", "type": "electric_scooter", "is_disabled": 0, "lat": 38.917677, "rental_uris": {"ios": "https://dc.lft.to/lastmile_qr_scan", "android": "https://dc.lft.to/lastmile_qr_scan"}, "is_reserved": 0, "fusion_lon": 0.0, "fusion_lat": 0.0, "lon": -77.04057933333333, "name": "87915f887b1e6e5ce6179cb0c496884b"}, {"bike_id": "bd97c923fc7c1a4a31d75c5e1c0a91e2", "type": "electric_scooter", "is_disabled": 0, "lat": 38.895132333333336, "rental_uris": {"ios": "https://dc.lft.to/lastmile_qr_scan", "android": "https://dc.lft.to/lastmile_qr_scan"}, "is_reserved": 0, "fusion_lon": 0.0, "fusion_lat": 0.0, "lon": -77.01136583333333, "name": "bd97c923fc7c1a4a31d75c5e1c0a91e2"}, {"bike_id": "ed1f0fdd6f7deec1fbffd6dd83a7aeca", "type": "electric_scooter", "is_disabled": 0, "lat": 38.914204, "rental_uris": {"ios": "https://dc.lft.to/lastmile_qr_scan", "android": "https://dc.lft.to/lastmile_qr_scan"}, "is_reserved": 0, "fusion_lon": 0.0, "fusion_lat": 0.0, "lon": -77.01802133333334, "name": "ed1f0fdd6f7deec1fbffd6dd83a7aeca"}, {"bike_id": "72206900aa1af47091c4b52f6e6b681d", "type": "electric_scooter", "is_disabled": 0, "lat": 38.976758, "rental_uris": {"ios": "https://dc.lft.to/lastmile_qr_scan", "android": "https://dc.lft.to/lastmile_qr_scan"}, "is_reserved": 0, "fusion_lon": 0.0, "fusion_lat": 0.0, "lon": -77.0165945, "name": "72206900aa1af47091c4b52f6e6b681d"}, {"bike_id": "5eec70433e6d09c4e6dfe0833c6e2cc6", "type": "electric_scooter", "is_disabled": 0, "lat": 38.9039635, "rental_uris": {"ios": "https://dc.lft.to/lastmile_qr_scan", "android": "https://dc.lft.to/lastmile_qr_scan"}, "is_reserved": 0, "fusion_lon": 0.0, "fusion_lat": 0.0, "lon": -77.024916, "name": "5eec70433e6d09c4e6dfe0833c6e2cc6"}, {"bike_id": "4d6417b94442ae8b1fa0c3c1f180a967", "type": "electric_scooter", "is_disabled": 0, "lat": 38.88133066666666, "rental_uris": {"ios": "https://dc.lft.to/lastmile_qr_scan", "android": "https://dc.lft.to/lastmile_qr_scan"}, "is_reserved": 0, "fusion_lon": 0.0, "fusion_lat": 0.0, "lon": -77.00073666666667, "name": "4d6417b94442ae8b1fa0c3c1f180a967"}, {"bike_id": "61ebc504289fa4c67dfc62c747cc16d8", "type": "electric_scooter", "is_disabled": 0, "lat": 38.92447033333333, "rental_uris": {"ios": "https://dc.lft.to/lastmile_qr_scan", "android": "https://dc.lft.to/lastmile_qr_scan"}, "is_reserved": 0, "fusion_lon": 0.0, "fusion_lat": 0.0, "lon": -77.03343916666667, "name": "61ebc504289fa4c67dfc62c747cc16d8"}, {"bike_id": "9ac5a7677054ac579935b027687e81cf", "type": "electric_scooter", "is_disabled": 0, "lat": 38.923355, "rental_uris": {"ios": "https://dc.lft.to/lastmile_qr_scan", "android": "https://dc.lft.to/lastmile_qr_scan"}, "is_reserved": 0, "fusion_lon": 0.0, "fusion_lat": 0.0, "lon": -77.054183, "name": "9ac5a7677054ac579935b027687e81cf"}, {"bike_id": "039aa7ec2a75544e61c81ba13e1b0d7f", "type": "electric_scooter", "is_disabled": 0, "lat": 38.89845033333334, "rental_uris": {"ios": "https://dc.lft.to/lastmile_qr_scan", "android": "https://dc.lft.to/lastmile_qr_scan"}, "is_reserved": 0, "fusion_lon": 0.0, "fusion_lat": 0.0, "lon": -76.94629916666666, "name": "039aa7ec2a75544e61c81ba13e1b0d7f"}, {"bike_id": "1051c2d6f58845b56efdf491a8648823", "type": "electric_scooter", "is_disabled": 0, "lat": 38.9068365, "rental_uris": {"ios": "https://dc.lft.to/lastmile_qr_scan", "android": "https://dc.lft.to/lastmile_qr_scan"}, "is_reserved": 0, "fusion_lon": 0.0, "fusion_lat": 0.0, "lon": -77.02693933333333, "name": "1051c2d6f58845b56efdf491a8648823"}, {"bike_id": "02323c4cdf5a7f8cefd6f9cab117deeb", "type": "electric_bike", "is_disabled": 0, "lat": 38.796026833333336, "rental_uris": {"ios": "https://dc.lft.to/lastmile_qr_scan", "android": "https://dc.lft.to/lastmile_qr_scan"}, "is_reserved": 0, "fusion_lon": 0.0, "fusion_lat": 0.0, "lon": -76.99748066666666, "name": "02323c4cdf5a7f8cefd6f9cab117deeb"}, {"bike_id": "a4e371c7f43b93909939e4dc50330334", "type": "electric_scooter", "is_disabled": 0, "lat": 38.9047615, "rental_uris": {"ios": "https://dc.lft.to/lastmile_qr_scan", "android": "https://dc.lft.to/lastmile_qr_scan"}, "is_reserved": 0, "fusion_lon": 0.0, "fusion_lat": 0.0, "lon": -77.061146, "name": "a4e371c7f43b93909939e4dc50330334"}, {"bike_id": "76ac32a8eef53139ab558f247d15d25b", "type": "electric_bike", "is_disabled": 0, "lat": 38.815130833333335, "rental_uris": {"ios": "https://dc.lft.to/lastmile_qr_scan", "android": "https://dc.lft.to/lastmile_qr_scan"}, "is_reserved": 0, "fusion_lon": 0.0, "fusion_lat": 0.0, "lon": -77.12656516666667, "name": "76ac32a8eef53139ab558f247d15d25b"}, {"bike_id": "ac22d2bb2ff95622cf0b44b8f5d30950", "type": "electric_scooter", "is_disabled": 0, "lat": 38.895304833333334, "rental_uris": {"ios": "https://dc.lft.to/lastmile_qr_scan", "android": "https://dc.lft.to/lastmile_qr_scan"}, "is_reserved": 0, "fusion_lon": 0.0, "fusion_lat": 0.0, "lon": -77.03212066666667, "name": "ac22d2bb2ff95622cf0b44b8f5d30950"}, {"bike_id": "77e8a6b180522269335b03f18e71c6f5", "type": "electric_scooter", "is_disabled": 0, "lat": 38.8812965, "rental_uris": {"ios": "https://dc.lft.to/lastmile_qr_scan", "android": "https://dc.lft.to/lastmile_qr_scan"}, "is_reserved": 0, "fusion_lon": 0.0, "fusion_lat": 0.0, "lon": -77.00213316666667, "name": "77e8a6b180522269335b03f18e71c6f5"}, {"bike_id": "644790815a7a896a640ceabe0e59ea53", "type": "electric_scooter", "is_disabled": 0, "lat": 38.904195333333334, "rental_uris": {"ios": "https://dc.lft.to/lastmile_qr_scan", "android": "https://dc.lft.to/lastmile_qr_scan"}, "is_reserved": 0, "fusion_lon": 0.0, "fusion_lat": 0.0, "lon": -76.97376766666666, "name": "644790815a7a896a640ceabe0e59ea53"}, {"bike_id": "fc1364617018e6ad0361d7c37e4d3516", "type": "electric_scooter", "is_disabled": 0, "lat": 38.90068933333333, "rental_uris": {"ios": "https://dc.lft.to/lastmile_qr_scan", "android": "https://dc.lft.to/lastmile_qr_scan"}, "is_reserved": 0, "fusion_lon": 0.0, "fusion_lat": 0.0, "lon": -77.04536033333333, "name": "fc1364617018e6ad0361d7c37e4d3516"}, {"bike_id": "d7102c7d35fb35bc1f9584da84f264c8", "type": "electric_scooter", "is_disabled": 0, "lat": 38.86659383333333, "rental_uris": {"ios": "https://dc.lft.to/lastmile_qr_scan", "android": "https://dc.lft.to/lastmile_qr_scan"}, "is_reserved": 0, "fusion_lon": 0.0, "fusion_lat": 0.0, "lon": -76.98887616666667, "name": "d7102c7d35fb35bc1f9584da84f264c8"}, {"bike_id": "1c35433dc3e60c65be0ed6f11232e4cd", "type": "electric_scooter", "is_disabled": 0, "lat": 38.8982865, "rental_uris": {"ios": "https://dc.lft.to/lastmile_qr_scan", "android": "https://dc.lft.to/lastmile_qr_scan"}, "is_reserved": 0, "fusion_lon": 0.0, "fusion_lat": 0.0, "lon": -77.03050016666667, "name": "1c35433dc3e60c65be0ed6f11232e4cd"}, {"bike_id": "983368049e11d79490ea84ea71633074", "type": "electric_bike", "is_disabled": 0, "lat": 38.854228166666665, "rental_uris": {"ios": "https://dc.lft.to/lastmile_qr_scan", "android": "https://dc.lft.to/lastmile_qr_scan"}, "is_reserved": 0, "fusion_lon": 0.0, "fusion_lat": 0.0, "lon": -77.1207575, "name": "983368049e11d79490ea84ea71633074"}, {"bike_id": "91e799946ff1467dc3cc708ed27c6dd1", "type": "electric_scooter", "is_disabled": 0, "lat": 38.8995455, "rental_uris": {"ios": "https://dc.lft.to/lastmile_qr_scan", "android": "https://dc.lft.to/lastmile_qr_scan"}, "is_reserved": 0, "fusion_lon": 0.0, "fusion_lat": 0.0, "lon": -76.97532333333334, "name": "91e799946ff1467dc3cc708ed27c6dd1"}, {"bike_id": "42688b24a6a674629c25bf43fd5d565d", "type": "electric_scooter", "is_disabled": 0, "lat": 38.86569, "rental_uris": {"ios": "https://dc.lft.to/lastmile_qr_scan", "android": "https://dc.lft.to/lastmile_qr_scan"}, "is_reserved": 0, "fusion_lon": 0.0, "fusion_lat": 0.0, "lon": -76.9821885, "name": "42688b24a6a674629c25bf43fd5d565d"}, {"bike_id": "2a627edfafc75974113e1534011bd116", "type": "electric_scooter", "is_disabled": 0, "lat": 38.924495, "rental_uris": {"ios": "https://dc.lft.to/lastmile_qr_scan", "android": "https://dc.lft.to/lastmile_qr_scan"}, "is_reserved": 0, "fusion_lon": 0.0, "fusion_lat": 0.0, "lon": -77.0241625, "name": "2a627edfafc75974113e1534011bd116"}, {"bike_id": "1ca58e6b0bf496d2b6bdf849629cbafe", "type": "electric_scooter", "is_disabled": 0, "lat": 38.91808016666667, "rental_uris": {"ios": "https://dc.lft.to/lastmile_qr_scan", "android": "https://dc.lft.to/lastmile_qr_scan"}, "is_reserved": 0, "fusion_lon": 0.0, "fusion_lat": 0.0, "lon": -77.02714866666666, "name": "1ca58e6b0bf496d2b6bdf849629cbafe"}, {"bike_id": "5c5ec58428b33c35d79bfbbd8b2cdcf4", "type": "electric_scooter", "is_disabled": 0, "lat": 38.909628166666664, "rental_uris": {"ios": "https://dc.lft.to/lastmile_qr_scan", "android": "https://dc.lft.to/lastmile_qr_scan"}, "is_reserved": 0, "fusion_lon": 0.0, "fusion_lat": 0.0, "lon": -77.02384866666667, "name": "5c5ec58428b33c35d79bfbbd8b2cdcf4"}, {"bike_id": "dcac476449df215d8b39aec13ae1834a", "type": "electric_scooter", "is_disabled": 0, "lat": 38.9429, "rental_uris": {"ios": "https://dc.lft.to/lastmile_qr_scan", "android": "https://dc.lft.to/lastmile_qr_scan"}, "is_reserved": 0, "fusion_lon": 0.0, "fusion_lat": 0.0, "lon": -77.02172683333333, "name": "dcac476449df215d8b39aec13ae1834a"}, {"bike_id": "a383a397ce090f074f91935be4f44250", "type": "electric_scooter", "is_disabled": 0, "lat": 38.90166216666667, "rental_uris": {"ios": "https://dc.lft.to/lastmile_qr_scan", "android": "https://dc.lft.to/lastmile_qr_scan"}, "is_reserved": 0, "fusion_lon": 0.0, "fusion_lat": 0.0, "lon": -76.9844985, "name": "a383a397ce090f074f91935be4f44250"}, {"bike_id": "e1cd192d09e04b64c2536a667bfa2605", "type": "electric_scooter", "is_disabled": 0, "lat": 38.916920833333336, "rental_uris": {"ios": "https://dc.lft.to/lastmile_qr_scan", "android": "https://dc.lft.to/lastmile_qr_scan"}, "is_reserved": 0, "fusion_lon": 0.0, "fusion_lat": 0.0, "lon": -77.025991, "name": "e1cd192d09e04b64c2536a667bfa2605"}, {"bike_id": "6f97b9f68b30a96e6d6789e00108ecf1", "type": "electric_scooter", "is_disabled": 0, "lat": 38.901210666666664, "rental_uris": {"ios": "https://dc.lft.to/lastmile_qr_scan", "android": "https://dc.lft.to/lastmile_qr_scan"}, "is_reserved": 0, "fusion_lon": 0.0, "fusion_lat": 0.0, "lon": -76.92952783333334, "name": "6f97b9f68b30a96e6d6789e00108ecf1"}, {"bike_id": "01f5554a5bf88abe09dc99db7a7b0039", "type": "electric_scooter", "is_disabled": 0, "lat": 38.9234105, "rental_uris": {"ios": "https://dc.lft.to/lastmile_qr_scan", "android": "https://dc.lft.to/lastmile_qr_scan"}, "is_reserved": 0, "fusion_lon": 0.0, "fusion_lat": 0.0, "lon": -77.05116083333333, "name": "01f5554a5bf88abe09dc99db7a7b0039"}, {"bike_id": "f033873564bd2db60fe3a7557b36e038", "type": "electric_scooter", "is_disabled": 0, "lat": 38.885345, "rental_uris": {"ios": "https://dc.lft.to/lastmile_qr_scan", "android": "https://dc.lft.to/lastmile_qr_scan"}, "is_reserved": 0, "fusion_lon": 0.0, "fusion_lat": 0.0, "lon": -76.99818983333333, "name": "f033873564bd2db60fe3a7557b36e038"}, {"bike_id": "7ef2b4d7292d3a6a31787f1ddf702b23", "type": "electric_scooter", "is_disabled": 0, "lat": 38.872344, "rental_uris": {"ios": "https://dc.lft.to/lastmile_qr_scan", "android": "https://dc.lft.to/lastmile_qr_scan"}, "is_reserved": 0, "fusion_lon": 0.0, "fusion_lat": 0.0, "lon": -76.97730816666666, "name": "7ef2b4d7292d3a6a31787f1ddf702b23"}, {"bike_id": "1a11910506d10a75e60db5bb7fa7f7aa", "type": "electric_scooter", "is_disabled": 0, "lat": 38.903043833333335, "rental_uris": {"ios": "https://dc.lft.to/lastmile_qr_scan", "android": "https://dc.lft.to/lastmile_qr_scan"}, "is_reserved": 0, "fusion_lon": 0.0, "fusion_lat": 0.0, "lon": -77.065282, "name": "1a11910506d10a75e60db5bb7fa7f7aa"}, {"bike_id": "b071cf17b0d15a417224e8d64c7a0891", "type": "electric_scooter", "is_disabled": 0, "lat": 38.91034033333333, "rental_uris": {"ios": "https://dc.lft.to/lastmile_qr_scan", "android": "https://dc.lft.to/lastmile_qr_scan"}, "is_reserved": 0, "fusion_lon": 0.0, "fusion_lat": 0.0, "lon": -77.03805316666667, "name": "b071cf17b0d15a417224e8d64c7a0891"}, {"bike_id": "1fed36ce78050534060ffbb14e6d6078", "type": "electric_scooter", "is_disabled": 0, "lat": 38.91922566666667, "rental_uris": {"ios": "https://dc.lft.to/lastmile_qr_scan", "android": "https://dc.lft.to/lastmile_qr_scan"}, "is_reserved": 0, "fusion_lon": 0.0, "fusion_lat": 0.0, "lon": -77.0310745, "name": "1fed36ce78050534060ffbb14e6d6078"}, {"bike_id": "9ec617c52bc51a5f7251610157ceba03", "type": "electric_bike", "is_disabled": 0, "lat": 38.97403966666667, "rental_uris": {"ios": "https://dc.lft.to/lastmile_qr_scan", "android": "https://dc.lft.to/lastmile_qr_scan"}, "is_reserved": 0, "fusion_lon": 0.0, "fusion_lat": 0.0, "lon": -77.06455583333333, "name": "9ec617c52bc51a5f7251610157ceba03"}, {"bike_id": "480c76c9c1ad1e7e45f95013df7aa8f9", "type": "electric_scooter", "is_disabled": 0, "lat": 38.957895, "rental_uris": {"ios": "https://dc.lft.to/lastmile_qr_scan", "android": "https://dc.lft.to/lastmile_qr_scan"}, "is_reserved": 0, "fusion_lon": 0.0, "fusion_lat": 0.0, "lon": -77.03220933333333, "name": "480c76c9c1ad1e7e45f95013df7aa8f9"}, {"bike_id": "37c9ed8fba6ff1df1663be3f4b6736d6", "type": "electric_scooter", "is_disabled": 0, "lat": 38.9238985, "rental_uris": {"ios": "https://dc.lft.to/lastmile_qr_scan", "android": "https://dc.lft.to/lastmile_qr_scan"}, "is_reserved": 0, "fusion_lon": 0.0, "fusion_lat": 0.0, "lon": -77.02977783333333, "name": "37c9ed8fba6ff1df1663be3f4b6736d6"}, {"bike_id": "974532fbdcfeee801b4d83fb9cc55487", "type": "electric_scooter", "is_disabled": 0, "lat": 38.92334816666666, "rental_uris": {"ios": "https://dc.lft.to/lastmile_qr_scan", "android": "https://dc.lft.to/lastmile_qr_scan"}, "is_reserved": 0, "fusion_lon": 0.0, "fusion_lat": 0.0, "lon": -77.03785466666666, "name": "974532fbdcfeee801b4d83fb9cc55487"}, {"bike_id": "1cf316024baa42809eb08690ff9115b8", "type": "electric_scooter", "is_disabled": 0, "lat": 38.90720266666667, "rental_uris": {"ios": "https://dc.lft.to/lastmile_qr_scan", "android": "https://dc.lft.to/lastmile_qr_scan"}, "is_reserved": 0, "fusion_lon": 0.0, "fusion_lat": 0.0, "lon": -77.04506233333333, "name": "1cf316024baa42809eb08690ff9115b8"}, {"bike_id": "a705c0fffb9fce48da3cc81cf307fdf6", "type": "electric_scooter", "is_disabled": 0, "lat": 38.9207435, "rental_uris": {"ios": "https://dc.lft.to/lastmile_qr_scan", "android": "https://dc.lft.to/lastmile_qr_scan"}, "is_reserved": 0, "fusion_lon": 0.0, "fusion_lat": 0.0, "lon": -77.02415, "name": "a705c0fffb9fce48da3cc81cf307fdf6"}, {"bike_id": "359ea5535300e8ea2c617408ae0e1a01", "type": "electric_scooter", "is_disabled": 0, "lat": 38.83826283333333, "rental_uris": {"ios": "https://dc.lft.to/lastmile_qr_scan", "android": "https://dc.lft.to/lastmile_qr_scan"}, "is_reserved": 0, "fusion_lon": 0.0, "fusion_lat": 0.0, "lon": -77.002738, "name": "359ea5535300e8ea2c617408ae0e1a01"}, {"bike_id": "6979ea50a357e1db8b5821bad1e292c3", "type": "electric_scooter", "is_disabled": 0, "lat": 38.91757283333333, "rental_uris": {"ios": "https://dc.lft.to/lastmile_qr_scan", "android": "https://dc.lft.to/lastmile_qr_scan"}, "is_reserved": 0, "fusion_lon": 0.0, "fusion_lat": 0.0, "lon": -77.02488166666667, "name": "6979ea50a357e1db8b5821bad1e292c3"}, {"bike_id": "37d91728d3cf75ec4345d18de378fad1", "type": "electric_scooter", "is_disabled": 0, "lat": 38.90474016666667, "rental_uris": {"ios": "https://dc.lft.to/lastmile_qr_scan", "android": "https://dc.lft.to/lastmile_qr_scan"}, "is_reserved": 0, "fusion_lon": 0.0, "fusion_lat": 0.0, "lon": -77.007272, "name": "37d91728d3cf75ec4345d18de378fad1"}, {"bike_id": "aa7862d1848e04d38cb17606b53d14cf", "type": "electric_scooter", "is_disabled": 0, "lat": 38.9330415, "rental_uris": {"ios": "https://dc.lft.to/lastmile_qr_scan", "android": "https://dc.lft.to/lastmile_qr_scan"}, "is_reserved": 0, "fusion_lon": 0.0, "fusion_lat": 0.0, "lon": -77.0326335, "name": "aa7862d1848e04d38cb17606b53d14cf"}, {"bike_id": "01a53c83c7a713ef72b46b41cad8cf29", "type": "electric_scooter", "is_disabled": 0, "lat": 38.91552016666667, "rental_uris": {"ios": "https://dc.lft.to/lastmile_qr_scan", "android": "https://dc.lft.to/lastmile_qr_scan"}, "is_reserved": 0, "fusion_lon": 0.0, "fusion_lat": 0.0, "lon": -77.02413233333333, "name": "01a53c83c7a713ef72b46b41cad8cf29"}, {"bike_id": "aade2e10b2226bdbbfc99a686e788663", "type": "electric_scooter", "is_disabled": 0, "lat": 38.912633666666665, "rental_uris": {"ios": "https://dc.lft.to/lastmile_qr_scan", "android": "https://dc.lft.to/lastmile_qr_scan"}, "is_reserved": 0, "fusion_lon": 0.0, "fusion_lat": 0.0, "lon": -77.03668583333334, "name": "aade2e10b2226bdbbfc99a686e788663"}, {"bike_id": "1783139d9d0db358eae74cb6837c74cd", "type": "electric_scooter", "is_disabled": 0, "lat": 38.8965685, "rental_uris": {"ios": "https://dc.lft.to/lastmile_qr_scan", "android": "https://dc.lft.to/lastmile_qr_scan"}, "is_reserved": 0, "fusion_lon": 0.0, "fusion_lat": 0.0, "lon": -77.02407283333334, "name": "1783139d9d0db358eae74cb6837c74cd"}, {"bike_id": "08d0b203b15b391023e495d09cf27365", "type": "electric_scooter", "is_disabled": 0, "lat": 38.9216235, "rental_uris": {"ios": "https://dc.lft.to/lastmile_qr_scan", "android": "https://dc.lft.to/lastmile_qr_scan"}, "is_reserved": 0, "fusion_lon": 0.0, "fusion_lat": 0.0, "lon": -77.033116, "name": "08d0b203b15b391023e495d09cf27365"}, {"bike_id": "9f9b695d3c4d2d622732fd75737f3e7f", "type": "electric_scooter", "is_disabled": 0, "lat": 38.915572166666664, "rental_uris": {"ios": "https://dc.lft.to/lastmile_qr_scan", "android": "https://dc.lft.to/lastmile_qr_scan"}, "is_reserved": 0, "fusion_lon": 0.0, "fusion_lat": 0.0, "lon": -77.02030716666667, "name": "9f9b695d3c4d2d622732fd75737f3e7f"}, {"bike_id": "a516132c6676b91d19bc0c08e6b85108", "type": "electric_scooter", "is_disabled": 0, "lat": 38.8873205, "rental_uris": {"ios": "https://dc.lft.to/lastmile_qr_scan", "android": "https://dc.lft.to/lastmile_qr_scan"}, "is_reserved": 0, "fusion_lon": 0.0, "fusion_lat": 0.0, "lon": -77.0283515, "name": "a516132c6676b91d19bc0c08e6b85108"}, {"bike_id": "0aac988defda2f59c7bf4f4d4367d1d5", "type": "electric_scooter", "is_disabled": 0, "lat": 38.9248705, "rental_uris": {"ios": "https://dc.lft.to/lastmile_qr_scan", "android": "https://dc.lft.to/lastmile_qr_scan"}, "is_reserved": 0, "fusion_lon": 0.0, "fusion_lat": 0.0, "lon": -77.021958, "name": "0aac988defda2f59c7bf4f4d4367d1d5"}, {"bike_id": "135b38903b6cd1b7c661b2aa27fc7ff5", "type": "electric_scooter", "is_disabled": 0, "lat": 38.91417, "rental_uris": {"ios": "https://dc.lft.to/lastmile_qr_scan", "android": "https://dc.lft.to/lastmile_qr_scan"}, "is_reserved": 0, "fusion_lon": 0.0, "fusion_lat": 0.0, "lon": -77.0123615, "name": "135b38903b6cd1b7c661b2aa27fc7ff5"}, {"bike_id": "614dde7a74295ab65974328b836324fe", "type": "electric_scooter", "is_disabled": 0, "lat": 38.940638, "rental_uris": {"ios": "https://dc.lft.to/lastmile_qr_scan", "android": "https://dc.lft.to/lastmile_qr_scan"}, "is_reserved": 0, "fusion_lon": 0.0, "fusion_lat": 0.0, "lon": -77.0611595, "name": "614dde7a74295ab65974328b836324fe"}, {"bike_id": "e57ae0355d5580ecef2b9f34ded08b12", "type": "electric_scooter", "is_disabled": 0, "lat": 38.91198883333333, "rental_uris": {"ios": "https://dc.lft.to/lastmile_qr_scan", "android": "https://dc.lft.to/lastmile_qr_scan"}, "is_reserved": 0, "fusion_lon": 0.0, "fusion_lat": 0.0, "lon": -77.019016, "name": "e57ae0355d5580ecef2b9f34ded08b12"}, {"bike_id": "43389c8e43bc4f25d9e5cb855259d0f6", "type": "electric_scooter", "is_disabled": 0, "lat": 38.9104055, "rental_uris": {"ios": "https://dc.lft.to/lastmile_qr_scan", "android": "https://dc.lft.to/lastmile_qr_scan"}, "is_reserved": 0, "fusion_lon": 0.0, "fusion_lat": 0.0, "lon": -77.038008, "name": "43389c8e43bc4f25d9e5cb855259d0f6"}, {"bike_id": "126608b807081aff50cf5195f32f9f18", "type": "electric_scooter", "is_disabled": 0, "lat": 38.94290266666667, "rental_uris": {"ios": "https://dc.lft.to/lastmile_qr_scan", "android": "https://dc.lft.to/lastmile_qr_scan"}, "is_reserved": 0, "fusion_lon": 0.0, "fusion_lat": 0.0, "lon": -77.021699, "name": "126608b807081aff50cf5195f32f9f18"}, {"bike_id": "55630d1f50f9da65054a0555ba142f00", "type": "electric_scooter", "is_disabled": 0, "lat": 38.9078655, "rental_uris": {"ios": "https://dc.lft.to/lastmile_qr_scan", "android": "https://dc.lft.to/lastmile_qr_scan"}, "is_reserved": 0, "fusion_lon": 0.0, "fusion_lat": 0.0, "lon": -77.04177283333334, "name": "55630d1f50f9da65054a0555ba142f00"}, {"bike_id": "9686dd1673a3965dd9d29042c6a38bbe", "type": "electric_scooter", "is_disabled": 0, "lat": 38.9023365, "rental_uris": {"ios": "https://dc.lft.to/lastmile_qr_scan", "android": "https://dc.lft.to/lastmile_qr_scan"}, "is_reserved": 0, "fusion_lon": 0.0, "fusion_lat": 0.0, "lon": -77.02944633333334, "name": "9686dd1673a3965dd9d29042c6a38bbe"}, {"bike_id": "849496b664d31741c2ec4c462bd1a37d", "type": "electric_scooter", "is_disabled": 0, "lat": 38.9167735, "rental_uris": {"ios": "https://dc.lft.to/lastmile_qr_scan", "android": "https://dc.lft.to/lastmile_qr_scan"}, "is_reserved": 0, "fusion_lon": 0.0, "fusion_lat": 0.0, "lon": -77.023969, "name": "849496b664d31741c2ec4c462bd1a37d"}, {"bike_id": "b120296b09a3143db379ae971793604a", "type": "electric_bike", "is_disabled": 0, "lat": 38.88097283333333, "rental_uris": {"ios": "https://dc.lft.to/lastmile_qr_scan", "android": "https://dc.lft.to/lastmile_qr_scan"}, "is_reserved": 0, "fusion_lon": 0.0, "fusion_lat": 0.0, "lon": -77.01513066666666, "name": "b120296b09a3143db379ae971793604a"}, {"bike_id": "64cad14530ae82216a9633ea93db880d", "type": "electric_scooter", "is_disabled": 0, "lat": 38.8950085, "rental_uris": {"ios": "https://dc.lft.to/lastmile_qr_scan", "android": "https://dc.lft.to/lastmile_qr_scan"}, "is_reserved": 0, "fusion_lon": 0.0, "fusion_lat": 0.0, "lon": -77.010765, "name": "64cad14530ae82216a9633ea93db880d"}, {"bike_id": "499610468b0cf2220ac2a47f24870825", "type": "electric_scooter", "is_disabled": 0, "lat": 38.907220333333335, "rental_uris": {"ios": "https://dc.lft.to/lastmile_qr_scan", "android": "https://dc.lft.to/lastmile_qr_scan"}, "is_reserved": 0, "fusion_lon": 0.0, "fusion_lat": 0.0, "lon": -77.0262505, "name": "499610468b0cf2220ac2a47f24870825"}, {"bike_id": "88c43f0422a40a8e69203c23a267dd0c", "type": "electric_scooter", "is_disabled": 0, "lat": 38.9124525, "rental_uris": {"ios": "https://dc.lft.to/lastmile_qr_scan", "android": "https://dc.lft.to/lastmile_qr_scan"}, "is_reserved": 0, "fusion_lon": 0.0, "fusion_lat": 0.0, "lon": -77.022297, "name": "88c43f0422a40a8e69203c23a267dd0c"}, {"bike_id": "fc28932da77629dfd22445d3d40c6628", "type": "electric_scooter", "is_disabled": 0, "lat": 38.91830616666667, "rental_uris": {"ios": "https://dc.lft.to/lastmile_qr_scan", "android": "https://dc.lft.to/lastmile_qr_scan"}, "is_reserved": 0, "fusion_lon": 0.0, "fusion_lat": 0.0, "lon": -77.03933883333333, "name": "fc28932da77629dfd22445d3d40c6628"}, {"bike_id": "a614edc9f9fe48d2a3bad83768e94004", "type": "electric_scooter", "is_disabled": 0, "lat": 38.93092716666666, "rental_uris": {"ios": "https://dc.lft.to/lastmile_qr_scan", "android": "https://dc.lft.to/lastmile_qr_scan"}, "is_reserved": 0, "fusion_lon": 0.0, "fusion_lat": 0.0, "lon": -77.02464183333333, "name": "a614edc9f9fe48d2a3bad83768e94004"}, {"bike_id": "d1062309b112768c79166cfbce1433b6", "type": "electric_scooter", "is_disabled": 0, "lat": 38.876860666666666, "rental_uris": {"ios": "https://dc.lft.to/lastmile_qr_scan", "android": "https://dc.lft.to/lastmile_qr_scan"}, "is_reserved": 0, "fusion_lon": 0.0, "fusion_lat": 0.0, "lon": -77.01760333333333, "name": "d1062309b112768c79166cfbce1433b6"}, {"bike_id": "ef81559fb5d893ff3f30fbba64d701ac", "type": "electric_scooter", "is_disabled": 0, "lat": 38.90564216666667, "rental_uris": {"ios": "https://dc.lft.to/lastmile_qr_scan", "android": "https://dc.lft.to/lastmile_qr_scan"}, "is_reserved": 0, "fusion_lon": 0.0, "fusion_lat": 0.0, "lon": -77.0048275, "name": "ef81559fb5d893ff3f30fbba64d701ac"}, {"bike_id": "869ad3a8cb4b3ea7fa2f696912d0262b", "type": "electric_scooter", "is_disabled": 0, "lat": 38.90562633333333, "rental_uris": {"ios": "https://dc.lft.to/lastmile_qr_scan", "android": "https://dc.lft.to/lastmile_qr_scan"}, "is_reserved": 0, "fusion_lon": 0.0, "fusion_lat": 0.0, "lon": -77.06517766666667, "name": "869ad3a8cb4b3ea7fa2f696912d0262b"}, {"bike_id": "01b1a43f323a1f548e7072617baca63d", "type": "electric_scooter", "is_disabled": 0, "lat": 38.89768083333333, "rental_uris": {"ios": "https://dc.lft.to/lastmile_qr_scan", "android": "https://dc.lft.to/lastmile_qr_scan"}, "is_reserved": 0, "fusion_lon": 0.0, "fusion_lat": 0.0, "lon": -77.03193083333333, "name": "01b1a43f323a1f548e7072617baca63d"}, {"bike_id": "0f1cb6faeab5c5d6ac31e348497d72c1", "type": "electric_scooter", "is_disabled": 0, "lat": 38.8935705, "rental_uris": {"ios": "https://dc.lft.to/lastmile_qr_scan", "android": "https://dc.lft.to/lastmile_qr_scan"}, "is_reserved": 0, "fusion_lon": 0.0, "fusion_lat": 0.0, "lon": -76.949346, "name": "0f1cb6faeab5c5d6ac31e348497d72c1"}, {"bike_id": "2ae2c9c5618dea69ed7dc1004ef23aab", "type": "electric_scooter", "is_disabled": 0, "lat": 38.919621, "rental_uris": {"ios": "https://dc.lft.to/lastmile_qr_scan", "android": "https://dc.lft.to/lastmile_qr_scan"}, "is_reserved": 0, "fusion_lon": 0.0, "fusion_lat": 0.0, "lon": -77.04280833333333, "name": "2ae2c9c5618dea69ed7dc1004ef23aab"}, {"bike_id": "b130a49740eebeb49ae7405aab697951", "type": "electric_scooter", "is_disabled": 0, "lat": 38.904929333333335, "rental_uris": {"ios": "https://dc.lft.to/lastmile_qr_scan", "android": "https://dc.lft.to/lastmile_qr_scan"}, "is_reserved": 0, "fusion_lon": 0.0, "fusion_lat": 0.0, "lon": -77.01997, "name": "b130a49740eebeb49ae7405aab697951"}, {"bike_id": "883d061d6754ec25a8a68785927276dd", "type": "electric_scooter", "is_disabled": 0, "lat": 38.84640616666667, "rental_uris": {"ios": "https://dc.lft.to/lastmile_qr_scan", "android": "https://dc.lft.to/lastmile_qr_scan"}, "is_reserved": 0, "fusion_lon": 0.0, "fusion_lat": 0.0, "lon": -76.99131116666666, "name": "883d061d6754ec25a8a68785927276dd"}, {"bike_id": "dc0eff8627f11f24f467aa4d4052cb9e", "type": "electric_scooter", "is_disabled": 0, "lat": 38.87156366666667, "rental_uris": {"ios": "https://dc.lft.to/lastmile_qr_scan", "android": "https://dc.lft.to/lastmile_qr_scan"}, "is_reserved": 0, "fusion_lon": 0.0, "fusion_lat": 0.0, "lon": -77.01359066666667, "name": "dc0eff8627f11f24f467aa4d4052cb9e"}, {"bike_id": "19ab4a184482d319ff9e2a1c74b9a3fa", "type": "electric_scooter", "is_disabled": 0, "lat": 38.892277666666665, "rental_uris": {"ios": "https://dc.lft.to/lastmile_qr_scan", "android": "https://dc.lft.to/lastmile_qr_scan"}, "is_reserved": 0, "fusion_lon": 0.0, "fusion_lat": 0.0, "lon": -76.99847683333333, "name": "19ab4a184482d319ff9e2a1c74b9a3fa"}, {"bike_id": "fe3170de01d700a4419725d8ce3ddba8", "type": "electric_scooter", "is_disabled": 0, "lat": 38.906247666666665, "rental_uris": {"ios": "https://dc.lft.to/lastmile_qr_scan", "android": "https://dc.lft.to/lastmile_qr_scan"}, "is_reserved": 0, "fusion_lon": 0.0, "fusion_lat": 0.0, "lon": -77.03437283333334, "name": "fe3170de01d700a4419725d8ce3ddba8"}, {"bike_id": "6ed3f84b56ab24a6e343538452ef4b0d", "type": "electric_bike", "is_disabled": 0, "lat": 38.8217905, "rental_uris": {"ios": "https://dc.lft.to/lastmile_qr_scan", "android": "https://dc.lft.to/lastmile_qr_scan"}, "is_reserved": 0, "fusion_lon": 0.0, "fusion_lat": 0.0, "lon": -76.99513333333333, "name": "6ed3f84b56ab24a6e343538452ef4b0d"}, {"bike_id": "3699de3980f0260c9a25a5115914d83b", "type": "electric_scooter", "is_disabled": 0, "lat": 38.91821816666667, "rental_uris": {"ios": "https://dc.lft.to/lastmile_qr_scan", "android": "https://dc.lft.to/lastmile_qr_scan"}, "is_reserved": 0, "fusion_lon": 0.0, "fusion_lat": 0.0, "lon": -77.02534766666666, "name": "3699de3980f0260c9a25a5115914d83b"}, {"bike_id": "8a126cd0d64678f849df3bc47d755e6e", "type": "electric_bike", "is_disabled": 0, "lat": 39.043129, "rental_uris": {"ios": "https://dc.lft.to/lastmile_qr_scan", "android": "https://dc.lft.to/lastmile_qr_scan"}, "is_reserved": 0, "fusion_lon": 0.0, "fusion_lat": 0.0, "lon": -77.05159066666667, "name": "8a126cd0d64678f849df3bc47d755e6e"}, {"bike_id": "da5d2e44bdf485c827a0a6dc73fd05a2", "type": "electric_scooter", "is_disabled": 0, "lat": 38.91250933333333, "rental_uris": {"ios": "https://dc.lft.to/lastmile_qr_scan", "android": "https://dc.lft.to/lastmile_qr_scan"}, "is_reserved": 0, "fusion_lon": 0.0, "fusion_lat": 0.0, "lon": -77.02426133333333, "name": "da5d2e44bdf485c827a0a6dc73fd05a2"}, {"bike_id": "b7d7b3e55bdb35cd645c5774fdd53950", "type": "electric_bike", "is_disabled": 0, "lat": 38.91008016666667, "rental_uris": {"ios": "https://dc.lft.to/lastmile_qr_scan", "android": "https://dc.lft.to/lastmile_qr_scan"}, "is_reserved": 0, "fusion_lon": 0.0, "fusion_lat": 0.0, "lon": -77.0462225, "name": "b7d7b3e55bdb35cd645c5774fdd53950"}, {"bike_id": "bdd1bfb722d656273d3d1aad422b22af", "type": "electric_scooter", "is_disabled": 0, "lat": 38.932011, "rental_uris": {"ios": "https://dc.lft.to/lastmile_qr_scan", "android": "https://dc.lft.to/lastmile_qr_scan"}, "is_reserved": 0, "fusion_lon": 0.0, "fusion_lat": 0.0, "lon": -77.023984, "name": "bdd1bfb722d656273d3d1aad422b22af"}, {"bike_id": "138a920182e5d336d1e52ece6a012bdb", "type": "electric_scooter", "is_disabled": 0, "lat": 38.89824683333333, "rental_uris": {"ios": "https://dc.lft.to/lastmile_qr_scan", "android": "https://dc.lft.to/lastmile_qr_scan"}, "is_reserved": 0, "fusion_lon": 0.0, "fusion_lat": 0.0, "lon": -77.03325733333334, "name": "138a920182e5d336d1e52ece6a012bdb"}, {"bike_id": "5fb14e41db66d71968a65331caf1f4f2", "type": "electric_scooter", "is_disabled": 0, "lat": 38.8762895, "rental_uris": {"ios": "https://dc.lft.to/lastmile_qr_scan", "android": "https://dc.lft.to/lastmile_qr_scan"}, "is_reserved": 0, "fusion_lon": 0.0, "fusion_lat": 0.0, "lon": -76.96528083333334, "name": "5fb14e41db66d71968a65331caf1f4f2"}, {"bike_id": "7eb8cdbb78ce1f8d3e65f247a0148d69", "type": "electric_bike", "is_disabled": 0, "lat": 38.886373166666665, "rental_uris": {"ios": "https://dc.lft.to/lastmile_qr_scan", "android": "https://dc.lft.to/lastmile_qr_scan"}, "is_reserved": 0, "fusion_lon": 0.0, "fusion_lat": 0.0, "lon": -77.12986733333334, "name": "7eb8cdbb78ce1f8d3e65f247a0148d69"}, {"bike_id": "3c661dba44bdbc7e1edc9a6ab140116e", "type": "electric_scooter", "is_disabled": 0, "lat": 38.90048066666667, "rental_uris": {"ios": "https://dc.lft.to/lastmile_qr_scan", "android": "https://dc.lft.to/lastmile_qr_scan"}, "is_reserved": 0, "fusion_lon": 0.0, "fusion_lat": 0.0, "lon": -77.012948, "name": "3c661dba44bdbc7e1edc9a6ab140116e"}, {"bike_id": "e384fad6ae5a067ae2c2081e0b414162", "type": "electric_scooter", "is_disabled": 0, "lat": 38.901583333333335, "rental_uris": {"ios": "https://dc.lft.to/lastmile_qr_scan", "android": "https://dc.lft.to/lastmile_qr_scan"}, "is_reserved": 0, "fusion_lon": 0.0, "fusion_lat": 0.0, "lon": -77.02044916666667, "name": "e384fad6ae5a067ae2c2081e0b414162"}, {"bike_id": "b82b5ad788510a272be04b7daa26a2cb", "type": "electric_scooter", "is_disabled": 0, "lat": 38.905146, "rental_uris": {"ios": "https://dc.lft.to/lastmile_qr_scan", "android": "https://dc.lft.to/lastmile_qr_scan"}, "is_reserved": 0, "fusion_lon": 0.0, "fusion_lat": 0.0, "lon": -77.068442, "name": "b82b5ad788510a272be04b7daa26a2cb"}, {"bike_id": "6b9fd4b34260598abf229c837bbf3184", "type": "electric_bike", "is_disabled": 0, "lat": 38.952374166666665, "rental_uris": {"ios": "https://dc.lft.to/lastmile_qr_scan", "android": "https://dc.lft.to/lastmile_qr_scan"}, "is_reserved": 0, "fusion_lon": 0.0, "fusion_lat": 0.0, "lon": -76.97959683333333, "name": "6b9fd4b34260598abf229c837bbf3184"}, {"bike_id": "c3030e68e787e48ee00f7505e1253298", "type": "electric_scooter", "is_disabled": 0, "lat": 38.900582166666666, "rental_uris": {"ios": "https://dc.lft.to/lastmile_qr_scan", "android": "https://dc.lft.to/lastmile_qr_scan"}, "is_reserved": 0, "fusion_lon": 0.0, "fusion_lat": 0.0, "lon": -76.9274345, "name": "c3030e68e787e48ee00f7505e1253298"}, {"bike_id": "a5f3331030fa0b431ba8a946a1aa082c", "type": "electric_scooter", "is_disabled": 0, "lat": 38.9056385, "rental_uris": {"ios": "https://dc.lft.to/lastmile_qr_scan", "android": "https://dc.lft.to/lastmile_qr_scan"}, "is_reserved": 0, "fusion_lon": 0.0, "fusion_lat": 0.0, "lon": -77.051456, "name": "a5f3331030fa0b431ba8a946a1aa082c"}, {"bike_id": "e613e79512d546f7e66c6dff9db70cf1", "type": "electric_scooter", "is_disabled": 0, "lat": 38.939298, "rental_uris": {"ios": "https://dc.lft.to/lastmile_qr_scan", "android": "https://dc.lft.to/lastmile_qr_scan"}, "is_reserved": 0, "fusion_lon": 0.0, "fusion_lat": 0.0, "lon": -77.03680183333333, "name": "e613e79512d546f7e66c6dff9db70cf1"}, {"bike_id": "15622a5f7e9e599392be946ff6766887", "type": "electric_scooter", "is_disabled": 0, "lat": 38.8767635, "rental_uris": {"ios": "https://dc.lft.to/lastmile_qr_scan", "android": "https://dc.lft.to/lastmile_qr_scan"}, "is_reserved": 0, "fusion_lon": 0.0, "fusion_lat": 0.0, "lon": -77.00044416666667, "name": "15622a5f7e9e599392be946ff6766887"}, {"bike_id": "20252a8c9ebf047ee2a782a221a8af8b", "type": "electric_scooter", "is_disabled": 0, "lat": 38.94996666666667, "rental_uris": {"ios": "https://dc.lft.to/lastmile_qr_scan", "android": "https://dc.lft.to/lastmile_qr_scan"}, "is_reserved": 0, "fusion_lon": 0.0, "fusion_lat": 0.0, "lon": -77.01834833333334, "name": "20252a8c9ebf047ee2a782a221a8af8b"}, {"bike_id": "dd202c4c55f2aad0add98d804f5e87b2", "type": "electric_scooter", "is_disabled": 0, "lat": 38.909773333333334, "rental_uris": {"ios": "https://dc.lft.to/lastmile_qr_scan", "android": "https://dc.lft.to/lastmile_qr_scan"}, "is_reserved": 0, "fusion_lon": 0.0, "fusion_lat": 0.0, "lon": -77.01516966666667, "name": "dd202c4c55f2aad0add98d804f5e87b2"}, {"bike_id": "f26d795ad51a6d26668ba5fff034c8d5", "type": "electric_scooter", "is_disabled": 0, "lat": 38.91141266666666, "rental_uris": {"ios": "https://dc.lft.to/lastmile_qr_scan", "android": "https://dc.lft.to/lastmile_qr_scan"}, "is_reserved": 0, "fusion_lon": 0.0, "fusion_lat": 0.0, "lon": -77.04426816666667, "name": "f26d795ad51a6d26668ba5fff034c8d5"}, {"bike_id": "70502a0ae291c69c915e58af438db804", "type": "electric_scooter", "is_disabled": 0, "lat": 38.8995555, "rental_uris": {"ios": "https://dc.lft.to/lastmile_qr_scan", "android": "https://dc.lft.to/lastmile_qr_scan"}, "is_reserved": 0, "fusion_lon": 0.0, "fusion_lat": 0.0, "lon": -77.01602533333333, "name": "70502a0ae291c69c915e58af438db804"}, {"bike_id": "1f96408002efeb1d47ff7e0946d48333", "type": "electric_bike", "is_disabled": 0, "lat": 38.9389615, "rental_uris": {"ios": "https://dc.lft.to/lastmile_qr_scan", "android": "https://dc.lft.to/lastmile_qr_scan"}, "is_reserved": 0, "fusion_lon": 0.0, "fusion_lat": 0.0, "lon": -77.0635175, "name": "1f96408002efeb1d47ff7e0946d48333"}, {"bike_id": "695026a59cd698931ac2fb98c9c2a1a7", "type": "electric_scooter", "is_disabled": 0, "lat": 38.9169325, "rental_uris": {"ios": "https://dc.lft.to/lastmile_qr_scan", "android": "https://dc.lft.to/lastmile_qr_scan"}, "is_reserved": 0, "fusion_lon": 0.0, "fusion_lat": 0.0, "lon": -77.02520516666667, "name": "695026a59cd698931ac2fb98c9c2a1a7"}, {"bike_id": "301c588371d00f4b11cee2306597a0e1", "type": "electric_scooter", "is_disabled": 0, "lat": 38.907803, "rental_uris": {"ios": "https://dc.lft.to/lastmile_qr_scan", "android": "https://dc.lft.to/lastmile_qr_scan"}, "is_reserved": 0, "fusion_lon": 0.0, "fusion_lat": 0.0, "lon": -77.07258916666666, "name": "301c588371d00f4b11cee2306597a0e1"}, {"bike_id": "13281185e37b8fbc419b73aeb1d8269c", "type": "electric_scooter", "is_disabled": 0, "lat": 38.844328, "rental_uris": {"ios": "https://dc.lft.to/lastmile_qr_scan", "android": "https://dc.lft.to/lastmile_qr_scan"}, "is_reserved": 0, "fusion_lon": 0.0, "fusion_lat": 0.0, "lon": -76.9987065, "name": "13281185e37b8fbc419b73aeb1d8269c"}, {"bike_id": "30790fee55cda0c70cdeaa9ea05df14f", "type": "electric_scooter", "is_disabled": 0, "lat": 38.923628, "rental_uris": {"ios": "https://dc.lft.to/lastmile_qr_scan", "android": "https://dc.lft.to/lastmile_qr_scan"}, "is_reserved": 0, "fusion_lon": 0.0, "fusion_lat": 0.0, "lon": -77.05045183333333, "name": "30790fee55cda0c70cdeaa9ea05df14f"}, {"bike_id": "352d42d249cc036feba166772e2fa79b", "type": "electric_scooter", "is_disabled": 0, "lat": 38.920901, "rental_uris": {"ios": "https://dc.lft.to/lastmile_qr_scan", "android": "https://dc.lft.to/lastmile_qr_scan"}, "is_reserved": 0, "fusion_lon": 0.0, "fusion_lat": 0.0, "lon": -77.03169883333334, "name": "352d42d249cc036feba166772e2fa79b"}, {"bike_id": "d5545b1c651d83b3d6744232ceaa7844", "type": "electric_scooter", "is_disabled": 0, "lat": 38.909454333333336, "rental_uris": {"ios": "https://dc.lft.to/lastmile_qr_scan", "android": "https://dc.lft.to/lastmile_qr_scan"}, "is_reserved": 0, "fusion_lon": 0.0, "fusion_lat": 0.0, "lon": -77.05561066666667, "name": "d5545b1c651d83b3d6744232ceaa7844"}, {"bike_id": "804045de1402fcfd04d744d03649dc3a", "type": "electric_scooter", "is_disabled": 0, "lat": 38.965055, "rental_uris": {"ios": "https://dc.lft.to/lastmile_qr_scan", "android": "https://dc.lft.to/lastmile_qr_scan"}, "is_reserved": 0, "fusion_lon": 0.0, "fusion_lat": 0.0, "lon": -77.00206483333334, "name": "804045de1402fcfd04d744d03649dc3a"}, {"bike_id": "a143938d48158373136e23ec1b8efe54", "type": "electric_scooter", "is_disabled": 0, "lat": 38.93555, "rental_uris": {"ios": "https://dc.lft.to/lastmile_qr_scan", "android": "https://dc.lft.to/lastmile_qr_scan"}, "is_reserved": 0, "fusion_lon": 0.0, "fusion_lat": 0.0, "lon": -77.058793, "name": "a143938d48158373136e23ec1b8efe54"}, {"bike_id": "eaaea4e8bf1bfedc5ccb5c76868909fd", "type": "electric_scooter", "is_disabled": 0, "lat": 38.9097375, "rental_uris": {"ios": "https://dc.lft.to/lastmile_qr_scan", "android": "https://dc.lft.to/lastmile_qr_scan"}, "is_reserved": 0, "fusion_lon": 0.0, "fusion_lat": 0.0, "lon": -77.048192, "name": "eaaea4e8bf1bfedc5ccb5c76868909fd"}, {"bike_id": "0e0013df7f82de89da5131830d2f137e", "type": "electric_scooter", "is_disabled": 0, "lat": 38.90535883333333, "rental_uris": {"ios": "https://dc.lft.to/lastmile_qr_scan", "android": "https://dc.lft.to/lastmile_qr_scan"}, "is_reserved": 0, "fusion_lon": 0.0, "fusion_lat": 0.0, "lon": -77.04844766666666, "name": "0e0013df7f82de89da5131830d2f137e"}, {"bike_id": "c39ac516039337430f0b91dcb6aaed23", "type": "electric_scooter", "is_disabled": 0, "lat": 38.92342083333333, "rental_uris": {"ios": "https://dc.lft.to/lastmile_qr_scan", "android": "https://dc.lft.to/lastmile_qr_scan"}, "is_reserved": 0, "fusion_lon": 0.0, "fusion_lat": 0.0, "lon": -77.05116983333333, "name": "c39ac516039337430f0b91dcb6aaed23"}, {"bike_id": "9268bb5a69033522ee3c0e01d3d5015c", "type": "electric_scooter", "is_disabled": 0, "lat": 38.93326866666666, "rental_uris": {"ios": "https://dc.lft.to/lastmile_qr_scan", "android": "https://dc.lft.to/lastmile_qr_scan"}, "is_reserved": 0, "fusion_lon": 0.0, "fusion_lat": 0.0, "lon": -77.02397, "name": "9268bb5a69033522ee3c0e01d3d5015c"}, {"bike_id": "e2de2860f49a8a3582e047dbfdc6fa29", "type": "electric_bike", "is_disabled": 0, "lat": 38.87296833333333, "rental_uris": {"ios": "https://dc.lft.to/lastmile_qr_scan", "android": "https://dc.lft.to/lastmile_qr_scan"}, "is_reserved": 0, "fusion_lon": 0.0, "fusion_lat": 0.0, "lon": -77.13928433333334, "name": "e2de2860f49a8a3582e047dbfdc6fa29"}, {"bike_id": "7f6e78af052e8dc56906fc600cc50afd", "type": "electric_scooter", "is_disabled": 0, "lat": 38.90132416666667, "rental_uris": {"ios": "https://dc.lft.to/lastmile_qr_scan", "android": "https://dc.lft.to/lastmile_qr_scan"}, "is_reserved": 0, "fusion_lon": 0.0, "fusion_lat": 0.0, "lon": -76.98012533333333, "name": "7f6e78af052e8dc56906fc600cc50afd"}, {"bike_id": "222b7896785c22187be1cbcbd1f03c22", "type": "electric_scooter", "is_disabled": 0, "lat": 38.89234366666667, "rental_uris": {"ios": "https://dc.lft.to/lastmile_qr_scan", "android": "https://dc.lft.to/lastmile_qr_scan"}, "is_reserved": 0, "fusion_lon": 0.0, "fusion_lat": 0.0, "lon": -77.0467645, "name": "222b7896785c22187be1cbcbd1f03c22"}, {"bike_id": "8ae67d002b4fe14257f852942acd5665", "type": "electric_scooter", "is_disabled": 0, "lat": 38.91699233333333, "rental_uris": {"ios": "https://dc.lft.to/lastmile_qr_scan", "android": "https://dc.lft.to/lastmile_qr_scan"}, "is_reserved": 0, "fusion_lon": 0.0, "fusion_lat": 0.0, "lon": -77.0287405, "name": "8ae67d002b4fe14257f852942acd5665"}, {"bike_id": "7581d1b8d58d1417573cadf7e4028b19", "type": "electric_scooter", "is_disabled": 0, "lat": 38.939200166666666, "rental_uris": {"ios": "https://dc.lft.to/lastmile_qr_scan", "android": "https://dc.lft.to/lastmile_qr_scan"}, "is_reserved": 0, "fusion_lon": 0.0, "fusion_lat": 0.0, "lon": -77.06052466666667, "name": "7581d1b8d58d1417573cadf7e4028b19"},