{"data": {"bikes": [{"is_disabled": 0, "is_reserved": 0, "fusion_lat": 0.0, "lat": 38.898505166666666, "fusion_lon": 0.0, "rental_uris": {"ios": "https://dc.lft.to/lastmile_qr_scan", "android": "https://dc.lft.to/lastmile_qr_scan"}, "lon": -77.0236495, "bike_id": "a7a34a9c45223dfdcf11c6024814c60a", "type": "electric_scooter", "name": "a7a34a9c45223dfdcf11c6024814c60a"}, {"is_disabled": 0, "is_reserved": 0, "fusion_lat": 0.0, "lat": 38.92244266666667, "fusion_lon": 0.0, "rental_uris": {"ios": "https://dc.lft.to/lastmile_qr_scan", "android": "https://dc.lft.to/lastmile_qr_scan"}, "lon": -77.03660933333333, "bike_id": "4888486f4cc506a30b57b141bb696605", "type": "electric_scooter", "name": "4888486f4cc506a30b57b141bb696605"}, {"is_disabled": 0, "is_reserved": 0, "fusion_lat": 0.0, "lat": 38.901522, "fusion_lon": 0.0, "rental_uris": {"ios": "https://dc.lft.to/lastmile_qr_scan", "android": "https://dc.lft.to/lastmile_qr_scan"}, "lon": -77.003308, "bike_id": "c39dab08cb2d2057d766af0badc17227", "type": "electric_scooter", "name": "c39dab08cb2d2057d766af0badc17227"}, {"is_disabled": 0, "is_reserved": 0, "fusion_lat": 0.0, "lat": 38.91043483333333, "fusion_lon": 0.0, "rental_uris": {"ios": "https://dc.lft.to/lastmile_qr_scan", "android": "https://dc.lft.to/lastmile_qr_scan"}, "lon": -76.9979435, "bike_id": "18ccaee92fa660c6ae6e60bbc112abf7", "type": "electric_scooter", "name": "18ccaee92fa660c6ae6e60bbc112abf7"}, {"is_disabled": 0, "is_reserved": 0, "fusion_lat": 0.0, "lat": 38.896142833333336, "fusion_lon": 0.0, "rental_uris": {"ios": "https://dc.lft.to/lastmile_qr_scan", "android": "https://dc.lft.to/lastmile_qr_scan"}, "lon": -77.02744683333333, "bike_id": "94c3c444181532ade365091958fa5078", "type": "electric_scooter", "name": "94c3c444181532ade365091958fa5078"}, {"is_disabled": 0, "is_reserved": 0, "fusion_lat": 0.0, "lat": 38.89279233333333, "fusion_lon": 0.0, "rental_uris": {"ios": "https://dc.lft.to/lastmile_qr_scan", "android": "https://dc.lft.to/lastmile_qr_scan"}, "lon": -77.04505233333333, "bike_id": "2fffa18528318200d438dd1f91e6f779", "type": "electric_scooter", "name": "2fffa18528318200d438dd1f91e6f779"}, {"is_disabled": 0, "is_reserved": 0, "fusion_lat": 0.0, "lat": 38.910516666666666, "fusion_lon": 0.0, "rental_uris": {"ios": "https://dc.lft.to/lastmile_qr_scan", "android": "https://dc.lft.to/lastmile_qr_scan"}, "lon": -77.02213016666667, "bike_id": "172612738c5ff2a20b3a4e7abb66bf5c", "type": "electric_scooter", "name": "172612738c5ff2a20b3a4e7abb66bf5c"}, {"is_disabled": 0, "is_reserved": 0, "fusion_lat": 0.0, "lat": 38.920403, "fusion_lon": 0.0, "rental_uris": {"ios": "https://dc.lft.to/lastmile_qr_scan", "android": "https://dc.lft.to/lastmile_qr_scan"}, "lon": -77.0259305, "bike_id": "ab195c88deefe2ece8b3d3f548baacac", "type": "electric_scooter", "name": "ab195c88deefe2ece8b3d3f548baacac"}, {"is_disabled": 0, "is_reserved": 0, "fusion_lat": 0.0, "lat": 38.92709133333334, "fusion_lon": 0.0, "rental_uris": {"ios": "https://dc.lft.to/lastmile_qr_scan", "android": "https://dc.lft.to/lastmile_qr_scan"}, "lon": -77.0210455, "bike_id": "520a04c374f6780d9fffce1e816de339", "type": "electric_scooter", "name": "520a04c374f6780d9fffce1e816de339"}, {"is_disabled": 0, "is_reserved": 0, "fusion_lat": 0.0, "lat": 38.93060166666667, "fusion_lon": 0.0, "rental_uris": {"ios": "https://dc.lft.to/lastmile_qr_scan", "android": "https://dc.lft.to/lastmile_qr_scan"}, "lon": -77.033637, "bike_id": "bb2a4f3b022f003d71bfbeb15201aaa9", "type": "electric_scooter", "name": "bb2a4f3b022f003d71bfbeb15201aaa9"}, {"is_disabled": 0, "is_reserved": 0, "fusion_lat": 0.0, "lat": 38.8747865, "fusion_lon": 0.0, "rental_uris": {"ios": "https://dc.lft.to/lastmile_qr_scan", "android": "https://dc.lft.to/lastmile_qr_scan"}, "lon": -76.9998165, "bike_id": "62cb348f159e7ae3d2be8df9d130aa43", "type": "electric_scooter", "name": "62cb348f159e7ae3d2be8df9d130aa43"}, {"is_disabled": 0, "is_reserved": 0, "fusion_lat": 0.0, "lat": 38.90614733333334, "fusion_lon": 0.0, "rental_uris": {"ios": "https://dc.lft.to/lastmile_qr_scan", "android": "https://dc.lft.to/lastmile_qr_scan"}, "lon": -77.04680216666667, "bike_id": "00a1be60cd6ce3f7a09f656824cb38aa", "type": "electric_scooter", "name": "00a1be60cd6ce3f7a09f656824cb38aa"}, {"is_disabled": 0, "is_reserved": 0, "fusion_lat": 0.0, "lat": 38.84096533333334, "fusion_lon": 0.0, "rental_uris": {"ios": "https://dc.lft.to/lastmile_qr_scan", "android": "https://dc.lft.to/lastmile_qr_scan"}, "lon": -76.98707566666667, "bike_id": "697022791dcedbae58a78f74cd1d7890", "type": "electric_bike", "name": "697022791dcedbae58a78f74cd1d7890"}, {"is_disabled": 0, "is_reserved": 0, "fusion_lat": 0.0, "lat": 38.96506633333333, "fusion_lon": 0.0, "rental_uris": {"ios": "https://dc.lft.to/lastmile_qr_scan", "android": "https://dc.lft.to/lastmile_qr_scan"}, "lon": -77.06285, "bike_id": "5ef4dea63d8ef91545ce4dd2cb352f52", "type": "electric_scooter", "name": "5ef4dea63d8ef91545ce4dd2cb352f52"}, {"is_disabled": 0, "is_reserved": 0, "fusion_lat": 0.0, "lat": 38.8840205, "fusion_lon": 0.0, "rental_uris": {"ios": "https://dc.lft.to/lastmile_qr_scan", "android": "https://dc.lft.to/lastmile_qr_scan"}, "lon": -77.02986283333334, "bike_id": "c32e47bb68f19706de7c743680adbb54", "type": "electric_scooter", "name": "c32e47bb68f19706de7c743680adbb54"}, {"is_disabled": 0, "is_reserved": 0, "fusion_lat": 0.0, "lat": 38.910861833333335, "fusion_lon": 0.0, "rental_uris": {"ios": "https://dc.lft.to/lastmile_qr_scan", "android": "https://dc.lft.to/lastmile_qr_scan"}, "lon": -77.0218875, "bike_id": "6738704280d64929a2d1a3c1b1e505b9", "type": "electric_scooter", "name": "6738704280d64929a2d1a3c1b1e505b9"}, {"is_disabled": 0, "is_reserved": 0, "fusion_lat": 0.0, "lat": 38.90528716666667, "fusion_lon": 0.0, "rental_uris": {"ios": "https://dc.lft.to/lastmile_qr_scan", "android": "https://dc.lft.to/lastmile_qr_scan"}, "lon": -77.05880566666667, "bike_id": "4d9fc3d78014df17b5fd991caf4086a3", "type": "electric_scooter", "name": "4d9fc3d78014df17b5fd991caf4086a3"}, {"is_disabled": 0, "is_reserved": 0, "fusion_lat": 0.0, "lat": 38.8793165, "fusion_lon": 0.0, "rental_uris": {"ios": "https://dc.lft.to/lastmile_qr_scan", "android": "https://dc.lft.to/lastmile_qr_scan"}, "lon": -77.02149016666667, "bike_id": "84977656b5998faa37b86565f035b0e5", "type": "electric_scooter", "name": "84977656b5998faa37b86565f035b0e5"}, {"is_disabled": 0, "is_reserved": 0, "fusion_lat": 0.0, "lat": 38.911168, "fusion_lon": 0.0, "rental_uris": {"ios": "https://dc.lft.to/lastmile_qr_scan", "android": "https://dc.lft.to/lastmile_qr_scan"}, "lon": -77.038057, "bike_id": "b5c60b94ecda84f0c781f9ef87a86b98", "type": "electric_scooter", "name": "b5c60b94ecda84f0c781f9ef87a86b98"}, {"is_disabled": 0, "is_reserved": 0, "fusion_lat": 0.0, "lat": 38.957286333333336, "fusion_lon": 0.0, "rental_uris": {"ios": "https://dc.lft.to/lastmile_qr_scan", "android": "https://dc.lft.to/lastmile_qr_scan"}, "lon": -77.02572983333333, "bike_id": "c62a10cc29c554418d28814939108911", "type": "electric_scooter", "name": "c62a10cc29c554418d28814939108911"}, {"is_disabled": 0, "is_reserved": 0, "fusion_lat": 0.0, "lat": 38.917022833333334, "fusion_lon": 0.0, "rental_uris": {"ios": "https://dc.lft.to/lastmile_qr_scan", "android": "https://dc.lft.to/lastmile_qr_scan"}, "lon": -77.03471833333333, "bike_id": "e0415f51a8deebc31ae8a3dd86bb8802", "type": "electric_scooter", "name": "e0415f51a8deebc31ae8a3dd86bb8802"}, {"is_disabled": 0, "is_reserved": 0, "fusion_lat": 0.0, "lat": 38.87106466666667, "fusion_lon": 0.0, "rental_uris": {"ios": "https://dc.lft.to/lastmile_qr_scan", "android": "https://dc.lft.to/lastmile_qr_scan"}, "lon": -77.012058, "bike_id": "e908d8753354a08982beaadc033a14f8", "type": "electric_scooter", "name": "e908d8753354a08982beaadc033a14f8"}, {"is_disabled": 0, "is_reserved": 0, "fusion_lat": 0.0, "lat": 38.924113, "fusion_lon": 0.0, "rental_uris": {"ios": "https://dc.lft.to/lastmile_qr_scan", "android": "https://dc.lft.to/lastmile_qr_scan"}, "lon": -77.0212765, "bike_id": "6b9fbec46b8294e1eac61530e2f66a36", "type": "electric_scooter", "name": "6b9fbec46b8294e1eac61530e2f66a36"}, {"is_disabled": 0, "is_reserved": 0, "fusion_lat": 0.0, "lat": 38.901812, "fusion_lon": 0.0, "rental_uris": {"ios": "https://dc.lft.to/lastmile_qr_scan", "android": "https://dc.lft.to/lastmile_qr_scan"}, "lon": -76.97672266666666, "bike_id": "0bdc2c0a03dd88c73fcc2279ce4ee1d3", "type": "electric_scooter", "name": "0bdc2c0a03dd88c73fcc2279ce4ee1d3"}, {"is_disabled": 0, "is_reserved": 0, "fusion_lat": 0.0, "lat": 38.876102, "fusion_lon": 0.0, "rental_uris": {"ios": "https://dc.lft.to/lastmile_qr_scan", "android": "https://dc.lft.to/lastmile_qr_scan"}, "lon": -77.0075145, "bike_id": "6ae0eb9fbd576417b89bdebbaf802718", "type": "electric_scooter", "name": "6ae0eb9fbd576417b89bdebbaf802718"}, {"is_disabled": 0, "is_reserved": 0, "fusion_lat": 0.0, "lat": 38.917443166666665, "fusion_lon": 0.0, "rental_uris": {"ios": "https://dc.lft.to/lastmile_qr_scan", "android": "https://dc.lft.to/lastmile_qr_scan"}, "lon": -77.02811316666667, "bike_id": "3bd570b7e513e5df0957c8981d1600c6", "type": "electric_scooter", "name": "3bd570b7e513e5df0957c8981d1600c6"}, {"is_disabled": 0, "is_reserved": 0, "fusion_lat": 0.0, "lat": 38.88712433333333, "fusion_lon": 0.0, "rental_uris": {"ios": "https://dc.lft.to/lastmile_qr_scan", "android": "https://dc.lft.to/lastmile_qr_scan"}, "lon": -76.9838135, "bike_id": "f716ef230098f83acc3fd69c9becdcf5", "type": "electric_scooter", "name": "f716ef230098f83acc3fd69c9becdcf5"}, {"is_disabled": 0, "is_reserved": 0, "fusion_lat": 0.0, "lat": 38.873776166666666, "fusion_lon": 0.0, "rental_uris": {"ios": "https://dc.lft.to/lastmile_qr_scan", "android": "https://dc.lft.to/lastmile_qr_scan"}, "lon": -77.001297, "bike_id": "c4f64a1034cacd9cdac51d6f150da9fd", "type": "electric_scooter", "name": "c4f64a1034cacd9cdac51d6f150da9fd"}, {"is_disabled": 0, "is_reserved": 0, "fusion_lat": 0.0, "lat": 38.9085945, "fusion_lon": 0.0, "rental_uris": {"ios": "https://dc.lft.to/lastmile_qr_scan", "android": "https://dc.lft.to/lastmile_qr_scan"}, "lon": -77.02358716666667, "bike_id": "b1bdfebbdb8e22a2b44430d00aabd822", "type": "electric_scooter", "name": "b1bdfebbdb8e22a2b44430d00aabd822"}, {"is_disabled": 0, "is_reserved": 0, "fusion_lat": 0.0, "lat": 38.92756383333333, "fusion_lon": 0.0, "rental_uris": {"ios": "https://dc.lft.to/lastmile_qr_scan", "android": "https://dc.lft.to/lastmile_qr_scan"}, "lon": -77.05269283333334, "bike_id": "35b292b67a2cdd67a1d2359f667ca094", "type": "electric_scooter", "name": "35b292b67a2cdd67a1d2359f667ca094"}, {"is_disabled": 0, "is_reserved": 0, "fusion_lat": 0.0, "lat": 38.905152, "fusion_lon": 0.0, "rental_uris": {"ios": "https://dc.lft.to/lastmile_qr_scan", "android": "https://dc.lft.to/lastmile_qr_scan"}, "lon": -76.95197566666667, "bike_id": "537395ed2cc1ed1f96890fdc48af7050", "type": "electric_scooter", "name": "537395ed2cc1ed1f96890fdc48af7050"}, {"is_disabled": 0, "is_reserved": 0, "fusion_lat": 0.0, "lat": 38.91649, "fusion_lon": 0.0, "rental_uris": {"ios": "https://dc.lft.to/lastmile_qr_scan", "android": "https://dc.lft.to/lastmile_qr_scan"}, "lon": -77.023145, "bike_id": "78ea688e499fc459bd7b7c5e6a2c141b", "type": "electric_scooter", "name": "78ea688e499fc459bd7b7c5e6a2c141b"}, {"is_disabled": 0, "is_reserved": 0, "fusion_lat": 0.0, "lat": 38.89832333333333, "fusion_lon": 0.0, "rental_uris": {"ios": "https://dc.lft.to/lastmile_qr_scan", "android": "https://dc.lft.to/lastmile_qr_scan"}, "lon": -76.99626316666667, "bike_id": "14bd50973901faf228e9495618a8fa0d", "type": "electric_scooter", "name": "14bd50973901faf228e9495618a8fa0d"}, {"is_disabled": 0, "is_reserved": 0, "fusion_lat": 0.0, "lat": 38.95584216666666, "fusion_lon": 0.0, "rental_uris": {"ios": "https://dc.lft.to/lastmile_qr_scan", "android": "https://dc.lft.to/lastmile_qr_scan"}, "lon": -77.017854, "bike_id": "2be811d40ab4f1e0e37b7c0faf46152d", "type": "electric_scooter", "name": "2be811d40ab4f1e0e37b7c0faf46152d"}, {"is_disabled": 0, "is_reserved": 0, "fusion_lat": 0.0, "lat": 38.88625366666667, "fusion_lon": 0.0, "rental_uris": {"ios": "https://dc.lft.to/lastmile_qr_scan", "android": "https://dc.lft.to/lastmile_qr_scan"}, "lon": -76.92634333333334, "bike_id": "b9a0f6c08668a87385e471f77ca681c4", "type": "electric_scooter", "name": "b9a0f6c08668a87385e471f77ca681c4"}, {"is_disabled": 0, "is_reserved": 0, "fusion_lat": 0.0, "lat": 38.9141605, "fusion_lon": 0.0, "rental_uris": {"ios": "https://dc.lft.to/lastmile_qr_scan", "android": "https://dc.lft.to/lastmile_qr_scan"}, "lon": -77.05212266666666, "bike_id": "8c5106ae7a94b2db080700a659ba0037", "type": "electric_scooter", "name": "8c5106ae7a94b2db080700a659ba0037"}, {"is_disabled": 0, "is_reserved": 0, "fusion_lat": 0.0, "lat": 39.02647483333333, "fusion_lon": 0.0, "rental_uris": {"ios": "https://dc.lft.to/lastmile_qr_scan", "android": "https://dc.lft.to/lastmile_qr_scan"}, "lon": -77.03685866666666, "bike_id": "20a56bb52bfed77ad01fddb17d5df3c0", "type": "electric_bike", "name": "20a56bb52bfed77ad01fddb17d5df3c0"}, {"is_disabled": 0, "is_reserved": 0, "fusion_lat": 0.0, "lat": 38.914209666666665, "fusion_lon": 0.0, "rental_uris": {"ios": "https://dc.lft.to/lastmile_qr_scan", "android": "https://dc.lft.to/lastmile_qr_scan"}, "lon": -77.041379, "bike_id": "1139f36a39443019ee8617a7ee206c00", "type": "electric_scooter", "name": "1139f36a39443019ee8617a7ee206c00"}, {"is_disabled": 0, "is_reserved": 0, "fusion_lat": 0.0, "lat": 38.886299, "fusion_lon": 0.0, "rental_uris": {"ios": "https://dc.lft.to/lastmile_qr_scan", "android": "https://dc.lft.to/lastmile_qr_scan"}, "lon": -77.02216533333333, "bike_id": "2bdb85ebb813ad7bc7b13a3d9d82cdfd", "type": "electric_scooter", "name": "2bdb85ebb813ad7bc7b13a3d9d82cdfd"}, {"is_disabled": 0, "is_reserved": 0, "fusion_lat": 0.0, "lat": 38.9346185, "fusion_lon": 0.0, "rental_uris": {"ios": "https://dc.lft.to/lastmile_qr_scan", "android": "https://dc.lft.to/lastmile_qr_scan"}, "lon": -77.0276635, "bike_id": "8e17c0dfa98f6df7789bddb8aec128c4", "type": "electric_scooter", "name": "8e17c0dfa98f6df7789bddb8aec128c4"}, {"is_disabled": 0, "is_reserved": 0, "fusion_lat": 0.0, "lat": 38.92195183333333, "fusion_lon": 0.0, "rental_uris": {"ios": "https://dc.lft.to/lastmile_qr_scan", "android": "https://dc.lft.to/lastmile_qr_scan"}, "lon": -77.020423, "bike_id": "377ccaa79b3ea7e2b93f851df56ec61c", "type": "electric_scooter", "name": "377ccaa79b3ea7e2b93f851df56ec61c"}, {"is_disabled": 0, "is_reserved": 0, "fusion_lat": 0.0, "lat": 38.89849683333333, "fusion_lon": 0.0, "rental_uris": {"ios": "https://dc.lft.to/lastmile_qr_scan", "android": "https://dc.lft.to/lastmile_qr_scan"}, "lon": -77.02781666666667, "bike_id": "62f4aedd4337fce68d305ce9ce26c1a4", "type": "electric_scooter", "name": "62f4aedd4337fce68d305ce9ce26c1a4"}, {"is_disabled": 0, "is_reserved": 0, "fusion_lat": 0.0, "lat": 38.881226166666664, "fusion_lon": 0.0, "rental_uris": {"ios": "https://dc.lft.to/lastmile_qr_scan", "android": "https://dc.lft.to/lastmile_qr_scan"}, "lon": -77.01481416666667, "bike_id": "5131c6f687982ef10a327db531af94e2", "type": "electric_scooter", "name": "5131c6f687982ef10a327db531af94e2"}, {"is_disabled": 0, "is_reserved": 0, "fusion_lat": 0.0, "lat": 38.92062033333333, "fusion_lon": 0.0, "rental_uris": {"ios": "https://dc.lft.to/lastmile_qr_scan", "android": "https://dc.lft.to/lastmile_qr_scan"}, "lon": -77.025615, "bike_id": "6395372ad6a557cb26ebafeaf1f2a248", "type": "electric_scooter", "name": "6395372ad6a557cb26ebafeaf1f2a248"}, {"is_disabled": 0, "is_reserved": 0, "fusion_lat": 0.0, "lat": 38.90082983333333, "fusion_lon": 0.0, "rental_uris": {"ios": "https://dc.lft.to/lastmile_qr_scan", "android": "https://dc.lft.to/lastmile_qr_scan"}, "lon": -77.04989166666667, "bike_id": "2b85f85c3d1508954ed4717a5d0fda05", "type": "electric_scooter", "name": "2b85f85c3d1508954ed4717a5d0fda05"}, {"is_disabled": 0, "is_reserved": 0, "fusion_lat": 0.0, "lat": 38.90879666666667, "fusion_lon": 0.0, "rental_uris": {"ios": "https://dc.lft.to/lastmile_qr_scan", "android": "https://dc.lft.to/lastmile_qr_scan"}, "lon": -77.0294665, "bike_id": "21fa434f6be4f89f6d8a1457590f2dec", "type": "electric_scooter", "name": "21fa434f6be4f89f6d8a1457590f2dec"}, {"is_disabled": 0, "is_reserved": 0, "fusion_lat": 0.0, "lat": 38.86891816666667, "fusion_lon": 0.0, "rental_uris": {"ios": "https://dc.lft.to/lastmile_qr_scan", "android": "https://dc.lft.to/lastmile_qr_scan"}, "lon": -76.98996966666667, "bike_id": "57a0b72b2f51da2adabf72f42ebfa087", "type": "electric_scooter", "name": "57a0b72b2f51da2adabf72f42ebfa087"}, {"is_disabled": 0, "is_reserved": 0, "fusion_lat": 0.0, "lat": 38.9217635, "fusion_lon": 0.0, "rental_uris": {"ios": "https://dc.lft.to/lastmile_qr_scan", "android": "https://dc.lft.to/lastmile_qr_scan"}, "lon": -77.038215, "bike_id": "00a85ed84b6d1aaf21f023bf3794678f", "type": "electric_scooter", "name": "00a85ed84b6d1aaf21f023bf3794678f"}, {"is_disabled": 0, "is_reserved": 0, "fusion_lat": 0.0, "lat": 38.931005, "fusion_lon": 0.0, "rental_uris": {"ios": "https://dc.lft.to/lastmile_qr_scan", "android": "https://dc.lft.to/lastmile_qr_scan"}, "lon": -77.03800066666666, "bike_id": "eae2f33276b8c2e1f6ccee7ce759a394", "type": "electric_scooter", "name": "eae2f33276b8c2e1f6ccee7ce759a394"}, {"is_disabled": 0, "is_reserved": 0, "fusion_lat": 0.0, "lat": 38.84646683333333, "fusion_lon": 0.0, "rental_uris": {"ios": "https://dc.lft.to/lastmile_qr_scan", "android": "https://dc.lft.to/lastmile_qr_scan"}, "lon": -77.0036975, "bike_id": "7efc10e63bc8e0ef293e173bc634deec", "type": "electric_scooter", "name": "7efc10e63bc8e0ef293e173bc634deec"}, {"is_disabled": 0, "is_reserved": 0, "fusion_lat": 0.0, "lat": 38.88738016666667, "fusion_lon": 0.0, "rental_uris": {"ios": "https://dc.lft.to/lastmile_qr_scan", "android": "https://dc.lft.to/lastmile_qr_scan"}, "lon": -77.03180616666667, "bike_id": "882ea753e96883d9a20ec6771c85e140", "type": "electric_scooter", "name": "882ea753e96883d9a20ec6771c85e140"}, {"is_disabled": 0, "is_reserved": 0, "fusion_lat": 0.0, "lat": 38.84617216666667, "fusion_lon": 0.0, "rental_uris": {"ios": "https://dc.lft.to/lastmile_qr_scan", "android": "https://dc.lft.to/lastmile_qr_scan"}, "lon": -76.978427, "bike_id": "1fb55e559055bdc52b0e49200a657dc2", "type": "electric_bike", "name": "1fb55e559055bdc52b0e49200a657dc2"}, {"is_disabled": 0, "is_reserved": 0, "fusion_lat": 0.0, "lat": 38.90255483333333, "fusion_lon": 0.0, "rental_uris": {"ios": "https://dc.lft.to/lastmile_qr_scan", "android": "https://dc.lft.to/lastmile_qr_scan"}, "lon": -77.034691, "bike_id": "760d22f63e4805502a78817504330a13", "type": "electric_scooter", "name": "760d22f63e4805502a78817504330a13"}, {"is_disabled": 0, "is_reserved": 0, "fusion_lat": 0.0, "lat": 38.880246, "fusion_lon": 0.0, "rental_uris": {"ios": "https://dc.lft.to/lastmile_qr_scan", "android": "https://dc.lft.to/lastmile_qr_scan"}, "lon": -76.94327833333334, "bike_id": "9456ea492b76f03b29ac1528d69a5f0a", "type": "electric_scooter", "name": "9456ea492b76f03b29ac1528d69a5f0a"}, {"is_disabled": 0, "is_reserved": 0, "fusion_lat": 0.0, "lat": 38.90391, "fusion_lon": 0.0, "rental_uris": {"ios": "https://dc.lft.to/lastmile_qr_scan", "android": "https://dc.lft.to/lastmile_qr_scan"}, "lon": -76.98074183333334, "bike_id": "70035903e2b1bf73bebd7caa8adf332e", "type": "electric_scooter", "name": "70035903e2b1bf73bebd7caa8adf332e"}, {"is_disabled": 0, "is_reserved": 0, "fusion_lat": 0.0, "lat": 38.88573683333333, "fusion_lon": 0.0, "rental_uris": {"ios": "https://dc.lft.to/lastmile_qr_scan", "android": "https://dc.lft.to/lastmile_qr_scan"}, "lon": -77.01209666666666, "bike_id": "ed21561a1f02875c70f398a148d8e77c", "type": "electric_scooter", "name": "ed21561a1f02875c70f398a148d8e77c"}, {"is_disabled": 0, "is_reserved": 0, "fusion_lat": 0.0, "lat": 38.90052433333334, "fusion_lon": 0.0, "rental_uris": {"ios": "https://dc.lft.to/lastmile_qr_scan", "android": "https://dc.lft.to/lastmile_qr_scan"}, "lon": -77.026004, "bike_id": "2e35c4edf7a8b79099a883804552d115", "type": "electric_scooter", "name": "2e35c4edf7a8b79099a883804552d115"}, {"is_disabled": 0, "is_reserved": 0, "fusion_lat": 0.0, "lat": 38.908132333333334, "fusion_lon": 0.0, "rental_uris": {"ios": "https://dc.lft.to/lastmile_qr_scan", "android": "https://dc.lft.to/lastmile_qr_scan"}, "lon": -77.0842705, "bike_id": "9f42482d6b75662510ee129a21be6b5f", "type": "electric_scooter", "name": "9f42482d6b75662510ee129a21be6b5f"}, {"is_disabled": 0, "is_reserved": 0, "fusion_lat": 0.0, "lat": 38.907300666666664, "fusion_lon": 0.0, "rental_uris": {"ios": "https://dc.lft.to/lastmile_qr_scan", "android": "https://dc.lft.to/lastmile_qr_scan"}, "lon": -77.01133666666666, "bike_id": "b7c64132483c0e904be5adae0a682ab9", "type": "electric_scooter", "name": "b7c64132483c0e904be5adae0a682ab9"}, {"is_disabled": 0, "is_reserved": 0, "fusion_lat": 0.0, "lat": 38.803965833333336, "fusion_lon": 0.0, "rental_uris": {"ios": "https://dc.lft.to/lastmile_qr_scan", "android": "https://dc.lft.to/lastmile_qr_scan"}, "lon": -77.11333266666666, "bike_id": "bb3d4333e22e638710df5a015d82e214", "type": "electric_bike", "name": "bb3d4333e22e638710df5a015d82e214"}, {"is_disabled": 0, "is_reserved": 0, "fusion_lat": 0.0, "lat": 38.855960833333334, "fusion_lon": 0.0, "rental_uris": {"ios": "https://dc.lft.to/lastmile_qr_scan", "android": "https://dc.lft.to/lastmile_qr_scan"}, "lon": -76.97272016666666, "bike_id": "1cfa9cf7dd4734535eabaf4f27109935", "type": "electric_bike", "name": "1cfa9cf7dd4734535eabaf4f27109935"}, {"is_disabled": 0, "is_reserved": 0, "fusion_lat": 0.0, "lat": 38.9326825, "fusion_lon": 0.0, "rental_uris": {"ios": "https://dc.lft.to/lastmile_qr_scan", "android": "https://dc.lft.to/lastmile_qr_scan"}, "lon": -77.02099166666666, "bike_id": "d48448b39c586ababab34a122d844776", "type": "electric_scooter", "name": "d48448b39c586ababab34a122d844776"}, {"is_disabled": 0, "is_reserved": 0, "fusion_lat": 0.0, "lat": 39.07441516666667, "fusion_lon": 0.0, "rental_uris": {"ios": "https://dc.lft.to/lastmile_qr_scan", "android": "https://dc.lft.to/lastmile_qr_scan"}, "lon": -77.115194, "bike_id": "6e187f09afc0282b24e7e1d91a4d61c0", "type": "electric_bike", "name": "6e187f09afc0282b24e7e1d91a4d61c0"}, {"is_disabled": 0, "is_reserved": 0, "fusion_lat": 0.0, "lat": 38.91117666666667, "fusion_lon": 0.0, "rental_uris": {"ios": "https://dc.lft.to/lastmile_qr_scan", "android": "https://dc.lft.to/lastmile_qr_scan"}, "lon": -77.04368866666667, "bike_id": "896c650843b340a1f14f2ebf885bcac6", "type": "electric_scooter", "name": "896c650843b340a1f14f2ebf885bcac6"}, {"is_disabled": 0, "is_reserved": 0, "fusion_lat": 0.0, "lat": 38.908650333333334, "fusion_lon": 0.0, "rental_uris": {"ios": "https://dc.lft.to/lastmile_qr_scan", "android": "https://dc.lft.to/lastmile_qr_scan"}, "lon": -76.99161633333334, "bike_id": "10c086d4e34257a69ffa07b50123c61a", "type": "electric_scooter", "name": "10c086d4e34257a69ffa07b50123c61a"}, {"is_disabled": 0, "is_reserved": 0, "fusion_lat": 0.0, "lat": 38.89989583333333, "fusion_lon": 0.0, "rental_uris": {"ios": "https://dc.lft.to/lastmile_qr_scan", "android": "https://dc.lft.to/lastmile_qr_scan"}, "lon": -77.023789, "bike_id": "67ef4bc53092009f2802ec8ea6c916df", "type": "electric_scooter", "name": "67ef4bc53092009f2802ec8ea6c916df"}, {"is_disabled": 0, "is_reserved": 0, "fusion_lat": 0.0, "lat": 38.8858245, "fusion_lon": 0.0, "rental_uris": {"ios": "https://dc.lft.to/lastmile_qr_scan", "android": "https://dc.lft.to/lastmile_qr_scan"}, "lon": -77.0122555, "bike_id": "e35e8af02667097957ae95955e4a3230", "type": "electric_scooter", "name": "e35e8af02667097957ae95955e4a3230"}, {"is_disabled": 0, "is_reserved": 0, "fusion_lat": 0.0, "lat": 38.894693333333336, "fusion_lon": 0.0, "rental_uris": {"ios": "https://dc.lft.to/lastmile_qr_scan", "android": "https://dc.lft.to/lastmile_qr_scan"}, "lon": -77.02267966666666, "bike_id": "544f437f6419a87b3c9d26b6e9c0de0b", "type": "electric_scooter", "name": "544f437f6419a87b3c9d26b6e9c0de0b"}, {"is_disabled": 0, "is_reserved": 0, "fusion_lat": 0.0, "lat": 38.904738333333334, "fusion_lon": 0.0, "rental_uris": {"ios": "https://dc.lft.to/lastmile_qr_scan", "android": "https://dc.lft.to/lastmile_qr_scan"}, "lon": -76.95049566666667, "bike_id": "a9297a3353dfe74f1276dbb7bcedc6f2", "type": "electric_scooter", "name": "a9297a3353dfe74f1276dbb7bcedc6f2"}, {"is_disabled": 0, "is_reserved": 0, "fusion_lat": 0.0, "lat": 38.90178616666667, "fusion_lon": 0.0, "rental_uris": {"ios": "https://dc.lft.to/lastmile_qr_scan", "android": "https://dc.lft.to/lastmile_qr_scan"}, "lon": -77.00215066666667, "bike_id": "1057dbe9ece2b23c6b30d5fa74377f9b", "type": "electric_scooter", "name": "1057dbe9ece2b23c6b30d5fa74377f9b"}, {"is_disabled": 0, "is_reserved": 0, "fusion_lat": 0.0, "lat": 38.90601483333333, "fusion_lon": 0.0, "rental_uris": {"ios": "https://dc.lft.to/lastmile_qr_scan", "android": "https://dc.lft.to/lastmile_qr_scan"}, "lon": -77.0210805, "bike_id": "3f7c84ed1e04b1a8a705cd57bbaa4753", "type": "electric_scooter", "name": "3f7c84ed1e04b1a8a705cd57bbaa4753"}, {"is_disabled": 0, "is_reserved": 0, "fusion_lat": 0.0, "lat": 38.855191833333336, "fusion_lon": 0.0, "rental_uris": {"ios": "https://dc.lft.to/lastmile_qr_scan", "android": "https://dc.lft.to/lastmile_qr_scan"}, "lon": -76.991429, "bike_id": "b6674f7b2fb6e11135334344be70b8fc", "type": "electric_scooter", "name": "b6674f7b2fb6e11135334344be70b8fc"}, {"is_disabled": 0, "is_reserved": 0, "fusion_lat": 0.0, "lat": 38.922160166666664, "fusion_lon": 0.0, "rental_uris": {"ios": "https://dc.lft.to/lastmile_qr_scan", "android": "https://dc.lft.to/lastmile_qr_scan"}, "lon": -77.03292616666667, "bike_id": "5688ce666b8e4b4d74c2a35cca5ea2db", "type": "electric_scooter", "name": "5688ce666b8e4b4d74c2a35cca5ea2db"}, {"is_disabled": 0, "is_reserved": 0, "fusion_lat": 0.0, "lat": 38.911471666666664, "fusion_lon": 0.0, "rental_uris": {"ios": "https://dc.lft.to/lastmile_qr_scan", "android": "https://dc.lft.to/lastmile_qr_scan"}, "lon": -77.02184033333333, "bike_id": "15eec328f6e7f4b66a722720e67e280b", "type": "electric_scooter", "name": "15eec328f6e7f4b66a722720e67e280b"}, {"is_disabled": 0, "is_reserved": 0, "fusion_lat": 0.0, "lat": 38.92082333333333, "fusion_lon": 0.0, "rental_uris": {"ios": "https://dc.lft.to/lastmile_qr_scan", "android": "https://dc.lft.to/lastmile_qr_scan"}, "lon": -77.03657416666667, "bike_id": "df1c3794dddb68cde43ed96ee0d42eab", "type": "electric_scooter", "name": "df1c3794dddb68cde43ed96ee0d42eab"}, {"is_disabled": 0, "is_reserved": 0, "fusion_lat": 0.0, "lat": 38.885855666666664, "fusion_lon": 0.0, "rental_uris": {"ios": "https://dc.lft.to/lastmile_qr_scan", "android": "https://dc.lft.to/lastmile_qr_scan"}, "lon": -76.99611933333334, "bike_id": "c145d22c3b99fa074bdc84965fa2b6a7", "type": "electric_scooter", "name": "c145d22c3b99fa074bdc84965fa2b6a7"}, {"is_disabled": 0, "is_reserved": 0, "fusion_lat": 0.0, "lat": 38.9202015, "fusion_lon": 0.0, "rental_uris": {"ios": "https://dc.lft.to/lastmile_qr_scan", "android": "https://dc.lft.to/lastmile_qr_scan"}, "lon": -77.07135666666667, "bike_id": "f11e30d32128a9a8b315e6dcea16f89b", "type": "electric_scooter", "name": "f11e30d32128a9a8b315e6dcea16f89b"}, {"is_disabled": 0, "is_reserved": 0, "fusion_lat": 0.0, "lat": 38.92073833333333, "fusion_lon": 0.0, "rental_uris": {"ios": "https://dc.lft.to/lastmile_qr_scan", "android": "https://dc.lft.to/lastmile_qr_scan"}, "lon": -77.02513933333333, "bike_id": "3632166674e6a0218aad750b8e4c7616", "type": "electric_scooter", "name": "3632166674e6a0218aad750b8e4c7616"}, {"is_disabled": 0, "is_reserved": 0, "fusion_lat": 0.0, "lat": 38.932137166666664, "fusion_lon": 0.0, "rental_uris": {"ios": "https://dc.lft.to/lastmile_qr_scan", "android": "https://dc.lft.to/lastmile_qr_scan"}, "lon": -77.035295, "bike_id": "35abc09f9ee4606fe3c1344f1c866ffd", "type": "electric_scooter", "name": "35abc09f9ee4606fe3c1344f1c866ffd"}, {"is_disabled": 0, "is_reserved": 0, "fusion_lat": 0.0, "lat": 38.910357166666664, "fusion_lon": 0.0, "rental_uris": {"ios": "https://dc.lft.to/lastmile_qr_scan", "android": "https://dc.lft.to/lastmile_qr_scan"}, "lon": -77.0395265, "bike_id": "299c3201e2fb85c5da6b51466c8c623c", "type": "electric_scooter", "name": "299c3201e2fb85c5da6b51466c8c623c"}, {"is_disabled": 0, "is_reserved": 0, "fusion_lat": 0.0, "lat": 38.88974866666667, "fusion_lon": 0.0, "rental_uris": {"ios": "https://dc.lft.to/lastmile_qr_scan", "android": "https://dc.lft.to/lastmile_qr_scan"}, "lon": -76.98178133333333, "bike_id": "bfd0e73468d1ae59b9703a5b536455db", "type": "electric_scooter", "name": "bfd0e73468d1ae59b9703a5b536455db"}, {"is_disabled": 0, "is_reserved": 0, "fusion_lat": 0.0, "lat": 38.900383, "fusion_lon": 0.0, "rental_uris": {"ios": "https://dc.lft.to/lastmile_qr_scan", "android": "https://dc.lft.to/lastmile_qr_scan"}, "lon": -77.00200283333334, "bike_id": "076fa1878dbe6ce215ad70b61ebcb68e", "type": "electric_scooter", "name": "076fa1878dbe6ce215ad70b61ebcb68e"}, {"is_disabled": 0, "is_reserved": 0, "fusion_lat": 0.0, "lat": 38.87088416666667, "fusion_lon": 0.0, "rental_uris": {"ios": "https://dc.lft.to/lastmile_qr_scan", "android": "https://dc.lft.to/lastmile_qr_scan"}, "lon": -77.01079683333333, "bike_id": "45f66e344257db8b0a9dba9acd4ae95e", "type": "electric_scooter", "name": "45f66e344257db8b0a9dba9acd4ae95e"}, {"is_disabled": 0, "is_reserved": 0, "fusion_lat": 0.0, "lat": 38.8762805, "fusion_lon": 0.0, "rental_uris": {"ios": "https://dc.lft.to/lastmile_qr_scan", "android": "https://dc.lft.to/lastmile_qr_scan"}, "lon": -77.0021245, "bike_id": "ed109c1235d77ddc3952489362287822", "type": "electric_scooter", "name": "ed109c1235d77ddc3952489362287822"}, {"is_disabled": 0, "is_reserved": 0, "fusion_lat": 0.0, "lat": 38.9174695, "fusion_lon": 0.0, "rental_uris": {"ios": "https://dc.lft.to/lastmile_qr_scan", "android": "https://dc.lft.to/lastmile_qr_scan"}, "lon": -77.01086733333334, "bike_id": "43c0b93d125a50385d5a2687bf875f84", "type": "electric_scooter", "name": "43c0b93d125a50385d5a2687bf875f84"}, {"is_disabled": 0, "is_reserved": 0, "fusion_lat": 0.0, "lat": 38.92432516666667, "fusion_lon": 0.0, "rental_uris": {"ios": "https://dc.lft.to/lastmile_qr_scan", "android": "https://dc.lft.to/lastmile_qr_scan"}, "lon": -77.0194735, "bike_id": "b96a41ad9f1904acfeb71941839bdfef", "type": "electric_scooter", "name": "b96a41ad9f1904acfeb71941839bdfef"}, {"is_disabled": 0, "is_reserved": 0, "fusion_lat": 0.0, "lat": 38.9043165, "fusion_lon": 0.0, "rental_uris": {"ios": "https://dc.lft.to/lastmile_qr_scan", "android": "https://dc.lft.to/lastmile_qr_scan"}, "lon": -77.0343685, "bike_id": "2a14013d37b1d75b7576bc35e475dbfa", "type": "electric_scooter", "name": "2a14013d37b1d75b7576bc35e475dbfa"}, {"is_disabled": 0, "is_reserved": 0, "fusion_lat": 0.0, "lat": 38.89935233333333, "fusion_lon": 0.0, "rental_uris": {"ios": "https://dc.lft.to/lastmile_qr_scan", "android": "https://dc.lft.to/lastmile_qr_scan"}, "lon": -76.93759216666666, "bike_id": "8484c3df2c33e05abe31e2db5ac19fe5", "type": "electric_scooter", "name": "8484c3df2c33e05abe31e2db5ac19fe5"}, {"is_disabled": 0, "is_reserved": 0, "fusion_lat": 0.0, "lat": 38.887706666666666, "fusion_lon": 0.0, "rental_uris": {"ios": "https://dc.lft.to/lastmile_qr_scan", "android": "https://dc.lft.to/lastmile_qr_scan"}, "lon": -76.97731816666666, "bike_id": "78b99d96ed136f1ae0de298f3716f527", "type": "electric_scooter", "name": "78b99d96ed136f1ae0de298f3716f527"}, {"is_disabled": 0, "is_reserved": 0, "fusion_lat": 0.0, "lat": 38.873520166666665, "fusion_lon": 0.0, "rental_uris": {"ios": "https://dc.lft.to/lastmile_qr_scan", "android": "https://dc.lft.to/lastmile_qr_scan"}, "lon": -77.00196316666667, "bike_id": "330726b899ddb19af4b22c1f2b252341", "type": "electric_scooter", "name": "330726b899ddb19af4b22c1f2b252341"}, {"is_disabled": 0, "is_reserved": 0, "fusion_lat": 0.0, "lat": 38.900982666666664, "fusion_lon": 0.0, "rental_uris": {"ios": "https://dc.lft.to/lastmile_qr_scan", "android": "https://dc.lft.to/lastmile_qr_scan"}, "lon": -77.059195, "bike_id": "06ee84158e6b48912bcab76eb4a84fe0", "type": "electric_scooter", "name": "06ee84158e6b48912bcab76eb4a84fe0"}, {"is_disabled": 0, "is_reserved": 0, "fusion_lat": 0.0, "lat": 38.919074333333334, "fusion_lon": 0.0, "rental_uris": {"ios": "https://dc.lft.to/lastmile_qr_scan", "android": "https://dc.lft.to/lastmile_qr_scan"}, "lon": -77.02303333333333, "bike_id": "bb4a7cfe6d7249e03bdb48a2e181c6e3", "type": "electric_scooter", "name": "bb4a7cfe6d7249e03bdb48a2e181c6e3"}, {"is_disabled": 0, "is_reserved": 0, "fusion_lat": 0.0, "lat": 38.90388766666667, "fusion_lon": 0.0, "rental_uris": {"ios": "https://dc.lft.to/lastmile_qr_scan", "android": "https://dc.lft.to/lastmile_qr_scan"}, "lon": -77.0506765, "bike_id": "218f3f333bf50054efac00c2386c2c75", "type": "electric_scooter", "name": "218f3f333bf50054efac00c2386c2c75"}, {"is_disabled": 0, "is_reserved": 0, "fusion_lat": 0.0, "lat": 38.883597333333334, "fusion_lon": 0.0, "rental_uris": {"ios": "https://dc.lft.to/lastmile_qr_scan", "android": "https://dc.lft.to/lastmile_qr_scan"}, "lon": -76.99502216666667, "bike_id": "3cc03c6b725707028d4aea53bedf47b9", "type": "electric_scooter", "name": "3cc03c6b725707028d4aea53bedf47b9"}, {"is_disabled": 0, "is_reserved": 0, "fusion_lat": 0.0, "lat": 38.9003155, "fusion_lon": 0.0, "rental_uris": {"ios": "https://dc.lft.to/lastmile_qr_scan", "android": "https://dc.lft.to/lastmile_qr_scan"}, "lon": -77.0036815, "bike_id": "03471b97543ad632df165a9787b2409b", "type": "electric_scooter", "name": "03471b97543ad632df165a9787b2409b"}, {"is_disabled": 0, "is_reserved": 0, "fusion_lat": 0.0, "lat": 38.937216166666666, "fusion_lon": 0.0, "rental_uris": {"ios": "https://dc.lft.to/lastmile_qr_scan", "android": "https://dc.lft.to/lastmile_qr_scan"}, "lon": -77.02436916666667, "bike_id": "f771687c453ae05d85ca6c3c2d87b8a6", "type": "electric_scooter", "name": "f771687c453ae05d85ca6c3c2d87b8a6"}, {"is_disabled": 0, "is_reserved": 0, "fusion_lat": 0.0, "lat": 38.881151, "fusion_lon": 0.0, "rental_uris": {"ios": "https://dc.lft.to/lastmile_qr_scan", "android": "https://dc.lft.to/lastmile_qr_scan"}, "lon": -77.026607, "bike_id": "b66e2990309d721d0c3c65b4b1a6a940", "type": "electric_scooter", "name": "b66e2990309d721d0c3c65b4b1a6a940"}, {"is_disabled": 0, "is_reserved": 0, "fusion_lat": 0.0, "lat": 38.92773116666667, "fusion_lon": 0.0, "rental_uris": {"ios": "https://dc.lft.to/lastmile_qr_scan", "android": "https://dc.lft.to/lastmile_qr_scan"}, "lon": -77.026096, "bike_id": "2d3955b2daf303976ae8b5d9e6b82c5b", "type": "electric_scooter", "name": "2d3955b2daf303976ae8b5d9e6b82c5b"}, {"is_disabled": 0, "is_reserved": 0, "fusion_lat": 0.0, "lat": 38.902487, "fusion_lon": 0.0, "rental_uris": {"ios": "https://dc.lft.to/lastmile_qr_scan", "android": "https://dc.lft.to/lastmile_qr_scan"}, "lon": -76.9938525, "bike_id": "efef1c8e03793575d24a6c6e67d00e96", "type": "electric_scooter", "name": "efef1c8e03793575d24a6c6e67d00e96"}, {"is_disabled": 0, "is_reserved": 0, "fusion_lat": 0.0, "lat": 38.916957, "fusion_lon": 0.0, "rental_uris": {"ios": "https://dc.lft.to/lastmile_qr_scan", "android": "https://dc.lft.to/lastmile_qr_scan"}, "lon": -77.0374495, "bike_id": "e8b4c049103dbc9ea611f1c0be490d5f", "type": "electric_scooter", "name": "e8b4c049103dbc9ea611f1c0be490d5f"}, {"is_disabled": 0, "is_reserved": 0, "fusion_lat": 0.0, "lat": 38.87953133333333, "fusion_lon": 0.0, "rental_uris": {"ios": "https://dc.lft.to/lastmile_qr_scan", "android": "https://dc.lft.to/lastmile_qr_scan"}, "lon": -76.93187716666667, "bike_id": "8a04b18f6ed37ae8855c155d15f890f8", "type": "electric_bike", "name": "8a04b18f6ed37ae8855c155d15f890f8"}, {"is_disabled": 0, "is_reserved": 0, "fusion_lat": 0.0, "lat": 38.901802833333335, "fusion_lon": 0.0, "rental_uris": {"ios": "https://dc.lft.to/lastmile_qr_scan", "android": "https://dc.lft.to/lastmile_qr_scan"}, "lon": -77.00069583333334, "bike_id": "4e7f0775f56edeaec3175575349d3c93", "type": "electric_scooter", "name": "4e7f0775f56edeaec3175575349d3c93"}, {"is_disabled": 0, "is_reserved": 0, "fusion_lat": 0.0, "lat": 38.914162166666664, "fusion_lon": 0.0, "rental_uris": {"ios": "https://dc.lft.to/lastmile_qr_scan", "android": "https://dc.lft.to/lastmile_qr_scan"}, "lon": -77.03255133333333, "bike_id": "596444c9060be3eed1ed60ef515b9ce1", "type": "electric_scooter", "name": "596444c9060be3eed1ed60ef515b9ce1"}, {"is_disabled": 0, "is_reserved": 0, "fusion_lat": 0.0, "lat": 38.91835, "fusion_lon": 0.0, "rental_uris": {"ios": "https://dc.lft.to/lastmile_qr_scan", "android": "https://dc.lft.to/lastmile_qr_scan"}, "lon": -77.02319483333333, "bike_id": "5ea95e021d0cf494904c093b94581ab2", "type": "electric_scooter", "name": "5ea95e021d0cf494904c093b94581ab2"}, {"is_disabled": 0, "is_reserved": 0, "fusion_lat": 0.0, "lat": 38.88875433333333, "fusion_lon": 0.0, "rental_uris": {"ios": "https://dc.lft.to/lastmile_qr_scan", "android": "https://dc.lft.to/lastmile_qr_scan"}, "lon": -76.95699216666667, "bike_id": "22482d4da148a38b8db341d5d54211b1", "type": "electric_bike", "name": "22482d4da148a38b8db341d5d54211b1"}, {"is_disabled": 0, "is_reserved": 0, "fusion_lat": 0.0, "lat": 38.91776933333333, "fusion_lon": 0.0, "rental_uris": {"ios": "https://dc.lft.to/lastmile_qr_scan", "android": "https://dc.lft.to/lastmile_qr_scan"}, "lon": -77.04094333333333, "bike_id": "7328bc2075bf7166c3cca87bd18e4532", "type": "electric_scooter", "name": "7328bc2075bf7166c3cca87bd18e4532"}, {"is_disabled": 0, "is_reserved": 0, "fusion_lat": 0.0, "lat": 38.96428366666667, "fusion_lon": 0.0, "rental_uris": {"ios": "https://dc.lft.to/lastmile_qr_scan", "android": "https://dc.lft.to/lastmile_qr_scan"}, "lon": -77.07422166666667, "bike_id": "616e87b7aa2d94ac02c86cefea07dc79", "type": "electric_scooter", "name": "616e87b7aa2d94ac02c86cefea07dc79"}, {"is_disabled": 0, "is_reserved": 0, "fusion_lat": 0.0, "lat": 38.91090766666667, "fusion_lon": 0.0, "rental_uris": {"ios": "https://dc.lft.to/lastmile_qr_scan", "android": "https://dc.lft.to/lastmile_qr_scan"}, "lon": -77.0219015, "bike_id": "807a44e460d9d1e3f5f4ba9daf9bbdbf", "type": "electric_scooter", "name": "807a44e460d9d1e3f5f4ba9daf9bbdbf"}, {"is_disabled": 0, "is_reserved": 0, "fusion_lat": 0.0, "lat": 38.902621333333336, "fusion_lon": 0.0, "rental_uris": {"ios": "https://dc.lft.to/lastmile_qr_scan", "android": "https://dc.lft.to/lastmile_qr_scan"}, "lon": -76.99387933333334, "bike_id": "ec9db732297cc77c89db6b876b854360", "type": "electric_scooter", "name": "ec9db732297cc77c89db6b876b854360"}, {"is_disabled": 0, "is_reserved": 0, "fusion_lat": 0.0, "lat": 38.898264833333336, "fusion_lon": 0.0, "rental_uris": {"ios": "https://dc.lft.to/lastmile_qr_scan", "android": "https://dc.lft.to/lastmile_qr_scan"}, "lon": -77.04637533333333, "bike_id": "aae272f901c82c7f9d1bd0a1ee0370cd", "type": "electric_scooter", "name": "aae272f901c82c7f9d1bd0a1ee0370cd"}, {"is_disabled": 0, "is_reserved": 0, "fusion_lat": 0.0, "lat": 38.83412383333334, "fusion_lon": 0.0, "rental_uris": {"ios": "https://dc.lft.to/lastmile_qr_scan", "android": "https://dc.lft.to/lastmile_qr_scan"}, "lon": -77.050122, "bike_id": "607d6815d379f9b9568f06ab0061f017", "type": "electric_bike", "name": "607d6815d379f9b9568f06ab0061f017"}, {"is_disabled": 0, "is_reserved": 0, "fusion_lat": 0.0, "lat": 38.9355405, "fusion_lon": 0.0, "rental_uris": {"ios": "https://dc.lft.to/lastmile_qr_scan", "android": "https://dc.lft.to/lastmile_qr_scan"}, "lon": -77.073436, "bike_id": "48a1e6f028dd980029977a416d8deb3f", "type": "electric_scooter", "name": "48a1e6f028dd980029977a416d8deb3f"}, {"is_disabled": 0, "is_reserved": 0, "fusion_lat": 0.0, "lat": 38.906823, "fusion_lon": 0.0, "rental_uris": {"ios": "https://dc.lft.to/lastmile_qr_scan", "android": "https://dc.lft.to/lastmile_qr_scan"}, "lon": -77.04877916666666, "bike_id": "c37faf644d4b221e941dc2e9cd5bd086", "type": "electric_scooter", "name": "c37faf644d4b221e941dc2e9cd5bd086"}, {"is_disabled": 0, "is_reserved": 0, "fusion_lat": 0.0, "lat": 38.85713633333334, "fusion_lon": 0.0, "rental_uris": {"ios": "https://dc.lft.to/lastmile_qr_scan", "android": "https://dc.lft.to/lastmile_qr_scan"}, "lon": -76.98100716666667, "bike_id": "4b90441513c645430aa3bcd21de29013", "type": "electric_scooter", "name": "4b90441513c645430aa3bcd21de29013"}, {"is_disabled": 0, "is_reserved": 0, "fusion_lat": 0.0, "lat": 38.903597500000004, "fusion_lon": 0.0, "rental_uris": {"ios": "https://dc.lft.to/lastmile_qr_scan", "android": "https://dc.lft.to/lastmile_qr_scan"}, "lon": -77.053734, "bike_id": "6708056f3e07d9bdb540833aaeeb7937", "type": "electric_scooter", "name": "6708056f3e07d9bdb540833aaeeb7937"}, {"is_disabled": 0, "is_reserved": 0, "fusion_lat": 0.0, "lat": 38.92799766666667, "fusion_lon": 0.0, "rental_uris": {"ios": "https://dc.lft.to/lastmile_qr_scan", "android": "https://dc.lft.to/lastmile_qr_scan"}, "lon": -77.2294025, "bike_id": "bb7008a9970bc0fb09c1f76c3a073463", "type": "electric_bike", "name": "bb7008a9970bc0fb09c1f76c3a073463"}, {"is_disabled": 0, "is_reserved": 0, "fusion_lat": 0.0, "lat": 38.916942, "fusion_lon": 0.0, "rental_uris": {"ios": "https://dc.lft.to/lastmile_qr_scan", "android": "https://dc.lft.to/lastmile_qr_scan"}, "lon": -77.052995, "bike_id": "6e49d351dd1d5514be62f48e9f43397d", "type": "electric_scooter", "name": "6e49d351dd1d5514be62f48e9f43397d"}, {"is_disabled": 0, "is_reserved": 0, "fusion_lat": 0.0, "lat": 38.8854335, "fusion_lon": 0.0, "rental_uris": {"ios": "https://dc.lft.to/lastmile_qr_scan", "android": "https://dc.lft.to/lastmile_qr_scan"}, "lon": -76.98539283333334, "bike_id": "d23fbad90aadd260e0dd9f5ea4d0b201", "type": "electric_scooter", "name": "d23fbad90aadd260e0dd9f5ea4d0b201"}, {"is_disabled": 0, "is_reserved": 0, "fusion_lat": 0.0, "lat": 38.92182783333333, "fusion_lon": 0.0, "rental_uris": {"ios": "https://dc.lft.to/lastmile_qr_scan", "android": "https://dc.lft.to/lastmile_qr_scan"}, "lon": -77.02102116666667, "bike_id": "83e1a0834a11c2fdaf8b24442e6bea66", "type": "electric_scooter", "name": "83e1a0834a11c2fdaf8b24442e6bea66"}, {"is_disabled": 0, "is_reserved": 0, "fusion_lat": 0.0, "lat": 38.923647833333334, "fusion_lon": 0.0, "rental_uris": {"ios": "https://dc.lft.to/lastmile_qr_scan", "android": "https://dc.lft.to/lastmile_qr_scan"}, "lon": -77.01917333333333, "bike_id": "0f9fcea072abc8842a3884efb22f1bfc", "type": "electric_scooter", "name": "0f9fcea072abc8842a3884efb22f1bfc"}, {"is_disabled": 0, "is_reserved": 0, "fusion_lat": 0.0, "lat": 38.901303166666665, "fusion_lon": 0.0, "rental_uris": {"ios": "https://dc.lft.to/lastmile_qr_scan", "android": "https://dc.lft.to/lastmile_qr_scan"}, "lon": -77.00361183333334, "bike_id": "c60effb3c7c30a4a6bfb9ce41ebaba26", "type": "electric_scooter", "name": "c60effb3c7c30a4a6bfb9ce41ebaba26"}, {"is_disabled": 0, "is_reserved": 0, "fusion_lat": 0.0, "lat": 38.898782, "fusion_lon": 0.0, "rental_uris": {"ios": "https://dc.lft.to/lastmile_qr_scan", "android": "https://dc.lft.to/lastmile_qr_scan"}, "lon": -76.93174533333334, "bike_id": "345555b1e2ac41a502a27871ecd504c4", "type": "electric_scooter", "name": "345555b1e2ac41a502a27871ecd504c4"}, {"is_disabled": 0, "is_reserved": 0, "fusion_lat": 0.0, "lat": 38.934048, "fusion_lon": 0.0, "rental_uris": {"ios": "https://dc.lft.to/lastmile_qr_scan", "android": "https://dc.lft.to/lastmile_qr_scan"}, "lon": -77.0454745, "bike_id": "07a53e316211241e0536dd657557d910", "type": "electric_scooter", "name": "07a53e316211241e0536dd657557d910"}, {"is_disabled": 0, "is_reserved": 0, "fusion_lat": 0.0, "lat": 38.9103345, "fusion_lon": 0.0, "rental_uris": {"ios": "https://dc.lft.to/lastmile_qr_scan", "android": "https://dc.lft.to/lastmile_qr_scan"}, "lon": -76.92333183333334, "bike_id": "57382db46b07f81524bccc2308367f52", "type": "electric_bike", "name": "57382db46b07f81524bccc2308367f52"}, {"is_disabled": 0, "is_reserved": 0, "fusion_lat": 0.0, "lat": 38.91350283333333, "fusion_lon": 0.0, "rental_uris": {"ios": "https://dc.lft.to/lastmile_qr_scan", "android": "https://dc.lft.to/lastmile_qr_scan"}, "lon": -76.971395, "bike_id": "c2a1d207e74eced9d77bedd03f1dfa35", "type": "electric_scooter", "name": "c2a1d207e74eced9d77bedd03f1dfa35"}, {"is_disabled": 0, "is_reserved": 0, "fusion_lat": 0.0, "lat": 38.92980983333333, "fusion_lon": 0.0, "rental_uris": {"ios": "https://dc.lft.to/lastmile_qr_scan", "android": "https://dc.lft.to/lastmile_qr_scan"}, "lon": -77.0388, "bike_id": "5c5a75d7c4d53282302068993c4a47b8", "type": "electric_scooter", "name": "5c5a75d7c4d53282302068993c4a47b8"}, {"is_disabled": 0, "is_reserved": 0, "fusion_lat": 0.0, "lat": 38.90916716666667, "fusion_lon": 0.0, "rental_uris": {"ios": "https://dc.lft.to/lastmile_qr_scan", "android": "https://dc.lft.to/lastmile_qr_scan"}, "lon": -77.049383, "bike_id": "a889c8f512c516a418e8287612b424ad", "type": "electric_scooter", "name": "a889c8f512c516a418e8287612b424ad"}, {"is_disabled": 0, "is_reserved": 0, "fusion_lat": 0.0, "lat": 38.89724416666667, "fusion_lon": 0.0, "rental_uris": {"ios": "https://dc.lft.to/lastmile_qr_scan", "android": "https://dc.lft.to/lastmile_qr_scan"}, "lon": -77.03057716666666, "bike_id": "4670d8a2355a7940a40fd0220e007e99", "type": "electric_scooter", "name": "4670d8a2355a7940a40fd0220e007e99"}, {"is_disabled": 0, "is_reserved": 0, "fusion_lat": 0.0, "lat": 38.90028516666667, "fusion_lon": 0.0, "rental_uris": {"ios": "https://dc.lft.to/lastmile_qr_scan", "android": "https://dc.lft.to/lastmile_qr_scan"}, "lon": -77.00694333333334, "bike_id": "12aa89f1b6c863beea4836fcd21b9997", "type": "electric_scooter", "name": "12aa89f1b6c863beea4836fcd21b9997"}, {"is_disabled": 0, "is_reserved": 0, "fusion_lat": 0.0, "lat": 38.903598, "fusion_lon": 0.0, "rental_uris": {"ios": "https://dc.lft.to/lastmile_qr_scan", "android": "https://dc.lft.to/lastmile_qr_scan"}, "lon": -77.0259295, "bike_id": "3739fb6c24d89160e5ffbe852d0e8bdf", "type": "electric_scooter", "name": "3739fb6c24d89160e5ffbe852d0e8bdf"}, {"is_disabled": 0, "is_reserved": 0, "fusion_lat": 0.0, "lat": 38.928207666666665, "fusion_lon": 0.0, "rental_uris": {"ios": "https://dc.lft.to/lastmile_qr_scan", "android": "https://dc.lft.to/lastmile_qr_scan"}, "lon": -77.036096, "bike_id": "58e6540ecd76c4a67c1e7c5a3de2e246", "type": "electric_scooter", "name": "58e6540ecd76c4a67c1e7c5a3de2e246"}, {"is_disabled": 0, "is_reserved": 0, "fusion_lat": 0.0, "lat": 38.8974015, "fusion_lon": 0.0, "rental_uris": {"ios": "https://dc.lft.to/lastmile_qr_scan", "android": "https://dc.lft.to/lastmile_qr_scan"}, "lon": -77.0441635, "bike_id": "baf87e685216b656e72d144b4b55a531", "type": "electric_scooter", "name": "baf87e685216b656e72d144b4b55a531"}, {"is_disabled": 0, "is_reserved": 0, "fusion_lat": 0.0, "lat": 38.9036865, "fusion_lon": 0.0, "rental_uris": {"ios": "https://dc.lft.to/lastmile_qr_scan", "android": "https://dc.lft.to/lastmile_qr_scan"}, "lon": -77.03186216666667, "bike_id": "d03c2071b629087caeadb70841089a52", "type": "electric_scooter", "name": "d03c2071b629087caeadb70841089a52"}, {"is_disabled": 0, "is_reserved": 0, "fusion_lat": 0.0, "lat": 38.917737333333335, "fusion_lon": 0.0, "rental_uris": {"ios": "https://dc.lft.to/lastmile_qr_scan", "android": "https://dc.lft.to/lastmile_qr_scan"}, "lon": -77.021096, "bike_id": "75df4a87a3c23d87af8da961a5ba9c00", "type": "electric_scooter", "name": "75df4a87a3c23d87af8da961a5ba9c00"}, {"is_disabled": 0, "is_reserved": 0, "fusion_lat": 0.0, "lat": 38.90251766666667, "fusion_lon": 0.0, "rental_uris": {"ios": "https://dc.lft.to/lastmile_qr_scan", "android": "https://dc.lft.to/lastmile_qr_scan"}, "lon": -77.0281385, "bike_id": "679ec8e03c930c42ace09a1a5aa4f763", "type": "electric_scooter", "name": "679ec8e03c930c42ace09a1a5aa4f763"}, {"is_disabled": 0, "is_reserved": 0, "fusion_lat": 0.0, "lat": 38.921308, "fusion_lon": 0.0, "rental_uris": {"ios": "https://dc.lft.to/lastmile_qr_scan", "android": "https://dc.lft.to/lastmile_qr_scan"}, "lon": -77.04682516666666, "bike_id": "662b3626ad69f0c0be5e3c97185a9e8c", "type": "electric_scooter", "name": "662b3626ad69f0c0be5e3c97185a9e8c"}, {"is_disabled": 0, "is_reserved": 0, "fusion_lat": 0.0, "lat": 38.940804666666665, "fusion_lon": 0.0, "rental_uris": {"ios": "https://dc.lft.to/lastmile_qr_scan", "android": "https://dc.lft.to/lastmile_qr_scan"}, "lon": -77.001573, "bike_id": "ad0055a12e353f2b5570ea9f87d22a3a", "type": "electric_bike", "name": "ad0055a12e353f2b5570ea9f87d22a3a"}, {"is_disabled": 0, "is_reserved": 0, "fusion_lat": 0.0, "lat": 38.90039483333334, "fusion_lon": 0.0, "rental_uris": {"ios": "https://dc.lft.to/lastmile_qr_scan", "android": "https://dc.lft.to/lastmile_qr_scan"}, "lon": -77.00377666666667, "bike_id": "e1ff3afc2d88c779a528ff2099995630", "type": "electric_scooter", "name": "e1ff3afc2d88c779a528ff2099995630"}, {"is_disabled": 0, "is_reserved": 0, "fusion_lat": 0.0, "lat": 38.910926, "fusion_lon": 0.0, "rental_uris": {"ios": "https://dc.lft.to/lastmile_qr_scan", "android": "https://dc.lft.to/lastmile_qr_scan"}, "lon": -77.08757383333334, "bike_id": "f08f10778b194f11a6dc2461139fbb7c", "type": "electric_bike", "name": "f08f10778b194f11a6dc2461139fbb7c"}, {"is_disabled": 0, "is_reserved": 0, "fusion_lat": 0.0, "lat": 38.9060655, "fusion_lon": 0.0, "rental_uris": {"ios": "https://dc.lft.to/lastmile_qr_scan", "android": "https://dc.lft.to/lastmile_qr_scan"}, "lon": -77.0565295, "bike_id": "e652ae03a34b8d781ff560bff7779b07", "type": "electric_scooter", "name": "e652ae03a34b8d781ff560bff7779b07"}, {"is_disabled": 0, "is_reserved": 0, "fusion_lat": 0.0, "lat": 38.931923166666664, "fusion_lon": 0.0, "rental_uris": {"ios": "https://dc.lft.to/lastmile_qr_scan", "android": "https://dc.lft.to/lastmile_qr_scan"}, "lon": -77.03884816666667, "bike_id": "98f4abfaa0de979e3417093458a6e22d", "type": "electric_scooter", "name": "98f4abfaa0de979e3417093458a6e22d"}, {"is_disabled": 0, "is_reserved": 0, "fusion_lat": 0.0, "lat": 38.93011683333334, "fusion_lon": 0.0, "rental_uris": {"ios": "https://dc.lft.to/lastmile_qr_scan", "android": "https://dc.lft.to/lastmile_qr_scan"}, "lon": -77.03251016666667, "bike_id": "213f2ee04b24f36b3e4181a9f3cbc0b9", "type": "electric_scooter", "name": "213f2ee04b24f36b3e4181a9f3cbc0b9"}, {"is_disabled": 0, "is_reserved": 0, "fusion_lat": 0.0, "lat": 39.084760333333335, "fusion_lon": 0.0, "rental_uris": {"ios": "https://dc.lft.to/lastmile_qr_scan", "android": "https://dc.lft.to/lastmile_qr_scan"}, "lon": -76.95065266666667, "bike_id": "4f5e84ff8ef96e5101dd022862409b06", "type": "electric_bike", "name": "4f5e84ff8ef96e5101dd022862409b06"}, {"is_disabled": 0, "is_reserved": 0, "fusion_lat": 0.0, "lat": 38.942012, "fusion_lon": 0.0, "rental_uris": {"ios": "https://dc.lft.to/lastmile_qr_scan", "android": "https://dc.lft.to/lastmile_qr_scan"}, "lon": -77.024576, "bike_id": "e6ff412a3f2a5794bafb81f80441728a", "type": "electric_scooter", "name": "e6ff412a3f2a5794bafb81f80441728a"}, {"is_disabled": 0, "is_reserved": 0, "fusion_lat": 0.0, "lat": 38.952784, "fusion_lon": 0.0, "rental_uris": {"ios": "https://dc.lft.to/lastmile_qr_scan", "android": "https://dc.lft.to/lastmile_qr_scan"}, "lon": -77.068552, "bike_id": "2941b397e5a79413041e75ce3b74a796", "type": "electric_scooter", "name": "2941b397e5a79413041e75ce3b74a796"}, {"is_disabled": 0, "is_reserved": 0, "fusion_lat": 0.0, "lat": 38.904886166666664, "fusion_lon": 0.0, "rental_uris": {"ios": "https://dc.lft.to/lastmile_qr_scan", "android": "https://dc.lft.to/lastmile_qr_scan"}, "lon": -77.0281565, "bike_id": "50be80df0d3dbfb0c0db07139c1df3a5", "type": "electric_scooter", "name": "50be80df0d3dbfb0c0db07139c1df3a5"}, {"is_disabled": 0, "is_reserved": 0, "fusion_lat": 0.0, "lat": 38.9205775, "fusion_lon": 0.0, "rental_uris": {"ios": "https://dc.lft.to/lastmile_qr_scan", "android": "https://dc.lft.to/lastmile_qr_scan"}, "lon": -77.02300466666667, "bike_id": "2915340eac6c10b0ca63fb2ae9c4789d", "type": "electric_scooter", "name": "2915340eac6c10b0ca63fb2ae9c4789d"}, {"is_disabled": 0, "is_reserved": 0, "fusion_lat": 0.0, "lat": 38.888821166666666, "fusion_lon": 0.0, "rental_uris": {"ios": "https://dc.lft.to/lastmile_qr_scan", "android": "https://dc.lft.to/lastmile_qr_scan"}, "lon": -76.99034216666666, "bike_id": "a659264755c0099a63d36452735ade0e", "type": "electric_scooter", "name": "a659264755c0099a63d36452735ade0e"}, {"is_disabled": 0, "is_reserved": 0, "fusion_lat": 0.0, "lat": 38.90145533333333, "fusion_lon": 0.0, "rental_uris": {"ios": "https://dc.lft.to/lastmile_qr_scan", "android": "https://dc.lft.to/lastmile_qr_scan"}, "lon": -77.03081466666667, "bike_id": "df1dfef688addd780506efd9ecfb4f1c", "type": "electric_scooter", "name": "df1dfef688addd780506efd9ecfb4f1c"}, {"is_disabled": 0, "is_reserved": 0, "fusion_lat": 0.0, "lat": 38.940882333333334, "fusion_lon": 0.0, "rental_uris": {"ios": "https://dc.lft.to/lastmile_qr_scan", "android": "https://dc.lft.to/lastmile_qr_scan"}, "lon": -77.02724833333333, "bike_id": "e0bd94a7e207b2a2d9c3f0957aa4cc07", "type": "electric_scooter", "name": "e0bd94a7e207b2a2d9c3f0957aa4cc07"}, {"is_disabled": 0, "is_reserved": 0, "fusion_lat": 0.0, "lat": 38.899741666666664, "fusion_lon": 0.0, "rental_uris": {"ios": "https://dc.lft.to/lastmile_qr_scan", "android": "https://dc.lft.to/lastmile_qr_scan"}, "lon": -76.92624516666666, "bike_id": "62221db03f892bbdc8a5c38fc7bef842", "type": "electric_scooter", "name": "62221db03f892bbdc8a5c38fc7bef842"}, {"is_disabled": 0, "is_reserved": 0, "fusion_lat": 0.0, "lat": 38.9300215, "fusion_lon": 0.0, "rental_uris": {"ios": "https://dc.lft.to/lastmile_qr_scan", "android": "https://dc.lft.to/lastmile_qr_scan"}, "lon": -77.03799266666667, "bike_id": "c2cde752573e195f434b5454389b6c9e", "type": "electric_scooter", "name": "c2cde752573e195f434b5454389b6c9e"}, {"is_disabled": 0, "is_reserved": 0, "fusion_lat": 0.0, "lat": 38.89855, "fusion_lon": 0.0, "rental_uris": {"ios": "https://dc.lft.to/lastmile_qr_scan", "android": "https://dc.lft.to/lastmile_qr_scan"}, "lon": -77.02785166666666, "bike_id": "d061437e7757829c0ca80bf8cd99e986", "type": "electric_scooter", "name": "d061437e7757829c0ca80bf8cd99e986"}, {"is_disabled": 0, "is_reserved": 0, "fusion_lat": 0.0, "lat": 39.0251845, "fusion_lon": 0.0, "rental_uris": {"ios": "https://dc.lft.to/lastmile_qr_scan", "android": "https://dc.lft.to/lastmile_qr_scan"}, "lon": -77.01967616666667, "bike_id": "dfb1c3dd262eba6acdb7f3959cd5a65a", "type": "electric_bike", "name": "dfb1c3dd262eba6acdb7f3959cd5a65a"}, {"is_disabled": 0, "is_reserved": 0, "fusion_lat": 0.0, "lat": 38.9211095, "fusion_lon": 0.0, "rental_uris": {"ios": "https://dc.lft.to/lastmile_qr_scan", "android": "https://dc.lft.to/lastmile_qr_scan"}, "lon": -77.04706583333333, "bike_id": "3369668f872b3820259a70c1632dfd6b", "type": "electric_scooter", "name": "3369668f872b3820259a70c1632dfd6b"}, {"is_disabled": 0, "is_reserved": 0, "fusion_lat": 0.0, "lat": 38.878415833333335, "fusion_lon": 0.0, "rental_uris": {"ios": "https://dc.lft.to/lastmile_qr_scan", "android": "https://dc.lft.to/lastmile_qr_scan"}, "lon": -77.00685383333334, "bike_id": "41843090240249a0f02c4ae182d59074", "type": "electric_scooter", "name": "41843090240249a0f02c4ae182d59074"}, {"is_disabled": 0, "is_reserved": 0, "fusion_lat": 0.0, "lat": 38.8950745, "fusion_lon": 0.0, "rental_uris": {"ios": "https://dc.lft.to/lastmile_qr_scan", "android": "https://dc.lft.to/lastmile_qr_scan"}, "lon": -77.0229125, "bike_id": "902183a8ac5dc027a59a279bc4e18af2", "type": "electric_scooter", "name": "902183a8ac5dc027a59a279bc4e18af2"}, {"is_disabled": 0, "is_reserved": 0, "fusion_lat": 0.0, "lat": 38.916612666666666, "fusion_lon": 0.0, "rental_uris": {"ios": "https://dc.lft.to/lastmile_qr_scan", "android": "https://dc.lft.to/lastmile_qr_scan"}, "lon": -77.04386066666666, "bike_id": "607e3efb425e683a9731c5a691d39fed", "type": "electric_scooter", "name": "607e3efb425e683a9731c5a691d39fed"}, {"is_disabled": 0, "is_reserved": 0, "fusion_lat": 0.0, "lat": 38.80521533333334, "fusion_lon": 0.0, "rental_uris": {"ios": "https://dc.lft.to/lastmile_qr_scan", "android": "https://dc.lft.to/lastmile_qr_scan"}, "lon": -77.043411, "bike_id": "41435e30c82cc9c58f8ba98e0bc6e811", "type": "electric_bike", "name": "41435e30c82cc9c58f8ba98e0bc6e811"}, {"is_disabled": 0, "is_reserved": 0, "fusion_lat": 0.0, "lat": 38.864937, "fusion_lon": 0.0, "rental_uris": {"ios": "https://dc.lft.to/lastmile_qr_scan", "android": "https://dc.lft.to/lastmile_qr_scan"}, "lon": -76.96988133333333, "bike_id": "71eabefe699cfc2cc1028aeedb71dc6a", "type": "electric_bike", "name": "71eabefe699cfc2cc1028aeedb71dc6a"}, {"is_disabled": 0, "is_reserved": 0, "fusion_lat": 0.0, "lat": 38.920881, "fusion_lon": 0.0, "rental_uris": {"ios": "https://dc.lft.to/lastmile_qr_scan", "android": "https://dc.lft.to/lastmile_qr_scan"}, "lon": -77.02406416666666, "bike_id": "c8385587586b1c9b28d4938f0297d750", "type": "electric_scooter", "name": "c8385587586b1c9b28d4938f0297d750"}, {"is_disabled": 0, "is_reserved": 0, "fusion_lat": 0.0, "lat": 38.880265333333334, "fusion_lon": 0.0, "rental_uris": {"ios": "https://dc.lft.to/lastmile_qr_scan", "android": "https://dc.lft.to/lastmile_qr_scan"}, "lon": -76.94322733333334, "bike_id": "3c29c2586f0fd94e1087f17e71ab4109", "type": "electric_scooter", "name": "3c29c2586f0fd94e1087f17e71ab4109"}, {"is_disabled": 0, "is_reserved": 0, "fusion_lat": 0.0, "lat": 38.87375466666667, "fusion_lon": 0.0, "rental_uris": {"ios": "https://dc.lft.to/lastmile_qr_scan", "android": "https://dc.lft.to/lastmile_qr_scan"}, "lon": -77.00130383333334, "bike_id": "18d225f66d4ec3dfe7f6eb16791407f6", "type": "electric_scooter", "name": "18d225f66d4ec3dfe7f6eb16791407f6"}, {"is_disabled": 0, "is_reserved": 0, "fusion_lat": 0.0, "lat": 38.897429333333335, "fusion_lon": 0.0, "rental_uris": {"ios": "https://dc.lft.to/lastmile_qr_scan", "android": "https://dc.lft.to/lastmile_qr_scan"}, "lon": -77.017621, "bike_id": "63374f6400c4cd7900aa9aa01aaeba6f", "type": "electric_scooter", "name": "63374f6400c4cd7900aa9aa01aaeba6f"}, {"is_disabled": 0, "is_reserved": 0, "fusion_lat": 0.0, "lat": 38.893384833333336, "fusion_lon": 0.0, "rental_uris": {"ios": "https://dc.lft.to/lastmile_qr_scan", "android": "https://dc.lft.to/lastmile_qr_scan"}, "lon": -76.98555183333333, "bike_id": "4c9248cacfe5ab3a7d4acce9bec11ab5", "type": "electric_scooter", "name": "4c9248cacfe5ab3a7d4acce9bec11ab5"}, {"is_disabled": 0, "is_reserved": 0, "fusion_lat": 0.0, "lat": 38.900332166666665, "fusion_lon": 0.0, "rental_uris": {"ios": "https://dc.lft.to/lastmile_qr_scan", "android": "https://dc.lft.to/lastmile_qr_scan"}, "lon": -77.00623383333334, "bike_id": "dfddc5dc1a7954c9c04c4b4ce7cf9494", "type": "electric_scooter", "name": "dfddc5dc1a7954c9c04c4b4ce7cf9494"}, {"is_disabled": 0, "is_reserved": 0, "fusion_lat": 0.0, "lat": 38.91866233333333, "fusion_lon": 0.0, "rental_uris": {"ios": "https://dc.lft.to/lastmile_qr_scan", "android": "https://dc.lft.to/lastmile_qr_scan"}, "lon": -77.03507416666666, "bike_id": "0a835453dee75e46c39c1a6bfc45ebc4", "type": "electric_scooter", "name": "0a835453dee75e46c39c1a6bfc45ebc4"}, {"is_disabled": 0, "is_reserved": 0, "fusion_lat": 0.0, "lat": 38.93586, "fusion_lon": 0.0, "rental_uris": {"ios": "https://dc.lft.to/lastmile_qr_scan", "android": "https://dc.lft.to/lastmile_qr_scan"}, "lon": -77.0743495, "bike_id": "97a063b6f6b04761a0554384112f8094", "type": "electric_scooter", "name": "97a063b6f6b04761a0554384112f8094"}, {"is_disabled": 0, "is_reserved": 0, "fusion_lat": 0.0, "lat": 38.90554816666667, "fusion_lon": 0.0, "rental_uris": {"ios": "https://dc.lft.to/lastmile_qr_scan", "android": "https://dc.lft.to/lastmile_qr_scan"}, "lon": -77.0487615, "bike_id": "e229874dc9013187cfd3aaffe7c84242", "type": "electric_scooter", "name": "e229874dc9013187cfd3aaffe7c84242"}, {"is_disabled": 0, "is_reserved": 0, "fusion_lat": 0.0, "lat": 38.917057, "fusion_lon": 0.0, "rental_uris": {"ios": "https://dc.lft.to/lastmile_qr_scan", "android": "https://dc.lft.to/lastmile_qr_scan"}, "lon": -77.0241095, "bike_id": "54f82791eed744ef036ded9dd3747248", "type": "electric_scooter", "name": "54f82791eed744ef036ded9dd3747248"}, {"is_disabled": 0, "is_reserved": 0, "fusion_lat": 0.0, "lat": 38.91806916666667, "fusion_lon": 0.0, "rental_uris": {"ios": "https://dc.lft.to/lastmile_qr_scan", "android": "https://dc.lft.to/lastmile_qr_scan"}, "lon": -77.0249365, "bike_id": "c7c61d12b4125db9d388df6992bdbb0d", "type": "electric_scooter", "name": "c7c61d12b4125db9d388df6992bdbb0d"}, {"is_disabled": 0, "is_reserved": 0, "fusion_lat": 0.0, "lat": 38.876581, "fusion_lon": 0.0, "rental_uris": {"ios": "https://dc.lft.to/lastmile_qr_scan", "android": "https://dc.lft.to/lastmile_qr_scan"}, "lon": -77.00750966666666, "bike_id": "b42a419eefb8d9d5c3db68c0b490aa27", "type": "electric_scooter", "name": "b42a419eefb8d9d5c3db68c0b490aa27"}, {"is_disabled": 0, "is_reserved": 0, "fusion_lat": 0.0, "lat": 38.92032316666667, "fusion_lon": 0.0, "rental_uris": {"ios": "https://dc.lft.to/lastmile_qr_scan", "android": "https://dc.lft.to/lastmile_qr_scan"}, "lon": -77.0384645, "bike_id": "2b964b759564c967ff304c528f4f4d26", "type": "electric_scooter", "name": "2b964b759564c967ff304c528f4f4d26"}, {"is_disabled": 0, "is_reserved": 0, "fusion_lat": 0.0, "lat": 38.90261016666667, "fusion_lon": 0.0, "rental_uris": {"ios": "https://dc.lft.to/lastmile_qr_scan", "android": "https://dc.lft.to/lastmile_qr_scan"}, "lon": -77.005746, "bike_id": "0e6f4bba4a9c2395937ffb2692a98e39", "type": "electric_scooter", "name": "0e6f4bba4a9c2395937ffb2692a98e39"}, {"is_disabled": 0, "is_reserved": 0, "fusion_lat": 0.0, "lat": 38.881358166666665, "fusion_lon": 0.0, "rental_uris": {"ios": "https://dc.lft.to/lastmile_qr_scan", "android": "https://dc.lft.to/lastmile_qr_scan"}, "lon": -76.99612633333334, "bike_id": "3ae2c5b1dc15ce5cd7c2a4534f57b07a", "type": "electric_scooter", "name": "3ae2c5b1dc15ce5cd7c2a4534f57b07a"}, {"is_disabled": 0, "is_reserved": 0, "fusion_lat": 0.0, "lat": 38.9218275, "fusion_lon": 0.0, "rental_uris": {"ios": "https://dc.lft.to/lastmile_qr_scan", "android": "https://dc.lft.to/lastmile_qr_scan"}, "lon": -76.99854816666667, "bike_id": "74ba70c26f7ebec88a7c7acd8c50d0e5", "type": "electric_scooter", "name": "74ba70c26f7ebec88a7c7acd8c50d0e5"}, {"is_disabled": 0, "is_reserved": 0, "fusion_lat": 0.0, "lat": 38.90208633333334, "fusion_lon": 0.0, "rental_uris": {"ios": "https://dc.lft.to/lastmile_qr_scan", "android": "https://dc.lft.to/lastmile_qr_scan"}, "lon": -76.9949175, "bike_id": "aa53e5555b354734af2a238d7effad6a", "type": "electric_scooter", "name": "aa53e5555b354734af2a238d7effad6a"}, {"is_disabled": 0, "is_reserved": 0, "fusion_lat": 0.0, "lat": 38.81938983333333, "fusion_lon": 0.0, "rental_uris": {"ios": "https://dc.lft.to/lastmile_qr_scan", "android": "https://dc.lft.to/lastmile_qr_scan"}, "lon": -77.00202466666667, "bike_id": "17725ae99b0a98d6085255dca4c1059a", "type": "electric_bike", "name": "17725ae99b0a98d6085255dca4c1059a"}, {"is_disabled": 0, "is_reserved": 0, "fusion_lat": 0.0, "lat": 38.90494316666667, "fusion_lon": 0.0, "rental_uris": {"ios": "https://dc.lft.to/lastmile_qr_scan", "android": "https://dc.lft.to/lastmile_qr_scan"}, "lon": -77.01980783333333, "bike_id": "13f2ebaf2fee7e61ca43ab4359f356ab", "type": "electric_scooter", "name": "13f2ebaf2fee7e61ca43ab4359f356ab"}, {"is_disabled": 0, "is_reserved": 0, "fusion_lat": 0.0, "lat": 38.878944833333335, "fusion_lon": 0.0, "rental_uris": {"ios": "https://dc.lft.to/lastmile_qr_scan", "android": "https://dc.lft.to/lastmile_qr_scan"}, "lon": -77.02205916666666, "bike_id": "bef6a0050f3a8330c22448006326bc53", "type": "electric_scooter", "name": "bef6a0050f3a8330c22448006326bc53"}, {"is_disabled": 0, "is_reserved": 0, "fusion_lat": 0.0, "lat": 38.924497, "fusion_lon": 0.0, "rental_uris": {"ios": "https://dc.lft.to/lastmile_qr_scan", "android": "https://dc.lft.to/lastmile_qr_scan"}, "lon": -77.02038683333333, "bike_id": "8b79de3d3c7ff98f3bc20cbebb3ef8c2", "type": "electric_scooter", "name": "8b79de3d3c7ff98f3bc20cbebb3ef8c2"}, {"is_disabled": 0, "is_reserved": 0, "fusion_lat": 0.0, "lat": 38.9446505, "fusion_lon": 0.0, "rental_uris": {"ios": "https://dc.lft.to/lastmile_qr_scan", "android": "https://dc.lft.to/lastmile_qr_scan"}, "lon": -77.006595, "bike_id": "528872da88be7c7c5b7a229ab09ab651", "type": "electric_scooter", "name": "528872da88be7c7c5b7a229ab09ab651"}, {"is_disabled": 0, "is_reserved": 0, "fusion_lat": 0.0, "lat": 38.92790133333333, "fusion_lon": 0.0, "rental_uris": {"ios": "https://dc.lft.to/lastmile_qr_scan", "android": "https://dc.lft.to/lastmile_qr_scan"}, "lon": -77.03141516666666, "bike_id": "f07840e016c10b485c5b17b5c1fee5eb", "type": "electric_scooter", "name": "f07840e016c10b485c5b17b5c1fee5eb"}, {"is_disabled": 0, "is_reserved": 0, "fusion_lat": 0.0, "lat": 38.88112483333333, "fusion_lon": 0.0, "rental_uris": {"ios": "https://dc.lft.to/lastmile_qr_scan", "android": "https://dc.lft.to/lastmile_qr_scan"}, "lon": -77.02627883333334, "bike_id": "9b91cdeff2ceb375d91cf4bb5d08ecd5", "type": "electric_scooter", "name": "9b91cdeff2ceb375d91cf4bb5d08ecd5"}, {"is_disabled": 0, "is_reserved": 0, "fusion_lat": 0.0, "lat": 38.89841166666667, "fusion_lon": 0.0, "rental_uris": {"ios": "https://dc.lft.to/lastmile_qr_scan", "android": "https://dc.lft.to/lastmile_qr_scan"}, "lon": -76.9882535, "bike_id": "afca16d82c3f0fd295855fff50824871", "type": "electric_scooter", "name": "afca16d82c3f0fd295855fff50824871"}, {"is_disabled": 0, "is_reserved": 0, "fusion_lat": 0.0, "lat": 38.876692, "fusion_lon": 0.0, "rental_uris": {"ios": "https://dc.lft.to/lastmile_qr_scan", "android": "https://dc.lft.to/lastmile_qr_scan"}, "lon": -77.00335783333334, "bike_id": "a52cec1ea16212dcbfe48c47247b147e", "type": "electric_scooter", "name": "a52cec1ea16212dcbfe48c47247b147e"}, {"is_disabled": 0, "is_reserved": 0, "fusion_lat": 0.0, "lat": 38.898651666666666, "fusion_lon": 0.0, "rental_uris": {"ios": "https://dc.lft.to/lastmile_qr_scan", "android": "https://dc.lft.to/lastmile_qr_scan"}, "lon": -77.04660466666667, "bike_id": "78b4fe5180eb207482fa0db48d3f67e6", "type": "electric_scooter", "name": "78b4fe5180eb207482fa0db48d3f67e6"}, {"is_disabled": 0, "is_reserved": 0, "fusion_lat": 0.0, "lat": 38.895198, "fusion_lon": 0.0, "rental_uris": {"ios": "https://dc.lft.to/lastmile_qr_scan", "android": "https://dc.lft.to/lastmile_qr_scan"}, "lon": -77.022846, "bike_id": "2de4df5c1bdfeaaca14e452b4d38dd45", "type": "electric_scooter", "name": "2de4df5c1bdfeaaca14e452b4d38dd45"}, {"is_disabled": 0, "is_reserved": 0, "fusion_lat": 0.0, "lat": 38.93749233333333, "fusion_lon": 0.0, "rental_uris": {"ios": "https://dc.lft.to/lastmile_qr_scan", "android": "https://dc.lft.to/lastmile_qr_scan"}, "lon": -77.02445233333333, "bike_id": "0a87a2081fc8ab3319846089301ceab4", "type": "electric_scooter", "name": "0a87a2081fc8ab3319846089301ceab4"}, {"is_disabled": 0, "is_reserved": 0, "fusion_lat": 0.0, "lat": 38.89857466666667, "fusion_lon": 0.0, "rental_uris": {"ios": "https://dc.lft.to/lastmile_qr_scan", "android": "https://dc.lft.to/lastmile_qr_scan"}, "lon": -77.01893833333334, "bike_id": "52f2f20c507bbd592615438a59e336fe", "type": "electric_scooter", "name": "52f2f20c507bbd592615438a59e336fe"}, {"is_disabled": 0, "is_reserved": 0, "fusion_lat": 0.0, "lat": 38.876662333333336, "fusion_lon": 0.0, "rental_uris": {"ios": "https://dc.lft.to/lastmile_qr_scan", "android": "https://dc.lft.to/lastmile_qr_scan"}, "lon": -77.00581216666667, "bike_id": "a85f70a81d469eea714ba93d7865d676", "type": "electric_scooter", "name": "a85f70a81d469eea714ba93d7865d676"}, {"is_disabled": 0, "is_reserved": 0, "fusion_lat": 0.0, "lat": 38.90245516666667, "fusion_lon": 0.0, "rental_uris": {"ios": "https://dc.lft.to/lastmile_qr_scan", "android": "https://dc.lft.to/lastmile_qr_scan"}, "lon": -76.99275416666667, "bike_id": "1410cea858616015893d89e3295315b6", "type": "electric_scooter", "name": "1410cea858616015893d89e3295315b6"}, {"is_disabled": 0, "is_reserved": 0, "fusion_lat": 0.0, "lat": 38.9360225, "fusion_lon": 0.0, "rental_uris": {"ios": "https://dc.lft.to/lastmile_qr_scan", "android": "https://dc.lft.to/lastmile_qr_scan"}, "lon": -77.02423916666666, "bike_id": "abae680e9180445bba2361818ea51cde", "type": "electric_scooter", "name": "abae680e9180445bba2361818ea51cde"}, {"is_disabled": 0, "is_reserved": 0, "fusion_lat": 0.0, "lat": 38.88208933333333, "fusion_lon": 0.0, "rental_uris": {"ios": "https://dc.lft.to/lastmile_qr_scan", "android": "https://dc.lft.to/lastmile_qr_scan"}, "lon": -76.933355, "bike_id": "9bbcd5a962e66add7f765dec4c7af8a2", "type": "electric_scooter", "name": "9bbcd5a962e66add7f765dec4c7af8a2"}, {"is_disabled": 0, "is_reserved": 0, "fusion_lat": 0.0, "lat": 38.92909216666666, "fusion_lon": 0.0, "rental_uris": {"ios": "https://dc.lft.to/lastmile_qr_scan", "android": "https://dc.lft.to/lastmile_qr_scan"}, "lon": -77.0208945, "bike_id": "7813ab099a0358f23592adf0a5e5b5ae", "type": "electric_scooter", "name": "7813ab099a0358f23592adf0a5e5b5ae"}, {"is_disabled": 0, "is_reserved": 0, "fusion_lat": 0.0, "lat": 38.89374466666666, "fusion_lon": 0.0, "rental_uris": {"ios": "https://dc.lft.to/lastmile_qr_scan", "android": "https://dc.lft.to/lastmile_qr_scan"}, "lon": -77.0205815, "bike_id": "9eb30447354d08f737d063e7b548a342", "type": "electric_scooter", "name": "9eb30447354d08f737d063e7b548a342"}, {"is_disabled": 0, "is_reserved": 0, "fusion_lat": 0.0, "lat": 38.9141725, "fusion_lon": 0.0, "rental_uris": {"ios": "https://dc.lft.to/lastmile_qr_scan", "android": "https://dc.lft.to/lastmile_qr_scan"}, "lon": -77.03164866666667, "bike_id": "6052fa5c368591a7b7dd2a40eee1edc8", "type": "electric_scooter", "name": "6052fa5c368591a7b7dd2a40eee1edc8"}, {"is_disabled": 0, "is_reserved": 0, "fusion_lat": 0.0, "lat": 38.90142983333333, "fusion_lon": 0.0, "rental_uris": {"ios": "https://dc.lft.to/lastmile_qr_scan", "android": "https://dc.lft.to/lastmile_qr_scan"}, "lon": -77.03226533333333, "bike_id": "0d99c5812bef3e1b23944a932fa4b9e5", "type": "electric_scooter", "name": "0d99c5812bef3e1b23944a932fa4b9e5"}, {"is_disabled": 0, "is_reserved": 0, "fusion_lat": 0.0, "lat": 38.92175916666667, "fusion_lon": 0.0, "rental_uris": {"ios": "https://dc.lft.to/lastmile_qr_scan", "android": "https://dc.lft.to/lastmile_qr_scan"}, "lon": -77.0382995, "bike_id": "028bdf131dfa0a930d2872c3d1aa8179", "type": "electric_scooter", "name": "028bdf131dfa0a930d2872c3d1aa8179"}, {"is_disabled": 0, "is_reserved": 0, "fusion_lat": 0.0, "lat": 38.80521133333333, "fusion_lon": 0.0, "rental_uris": {"ios": "https://dc.lft.to/lastmile_qr_scan", "android": "https://dc.lft.to/lastmile_qr_scan"}, "lon": -77.04339483333334, "bike_id": "273e89a6b4dd218f87524d322bc46592", "type": "electric_bike", "name": "273e89a6b4dd218f87524d322bc46592"}, {"is_disabled": 0, "is_reserved": 0, "fusion_lat": 0.0, "lat": 38.898483666666664, "fusion_lon": 0.0, "rental_uris": {"ios": "https://dc.lft.to/lastmile_qr_scan", "android": "https://dc.lft.to/lastmile_qr_scan"}, "lon": -76.99146216666666, "bike_id": "add53d3e4bdcde345725589f05ce6c79", "type": "electric_scooter", "name": "add53d3e4bdcde345725589f05ce6c79"}, {"is_disabled": 0, "is_reserved": 0, "fusion_lat": 0.0, "lat": 38.912497333333334, "fusion_lon": 0.0, "rental_uris": {"ios": "https://dc.lft.to/lastmile_qr_scan", "android": "https://dc.lft.to/lastmile_qr_scan"}, "lon": -76.98671766666666, "bike_id": "0f6559e46570a92fb8ff81d4a2f2ef55", "type": "electric_scooter", "name": "0f6559e46570a92fb8ff81d4a2f2ef55"}, {"is_disabled": 0, "is_reserved": 0, "fusion_lat": 0.0, "lat": 38.90844516666667, "fusion_lon": 0.0, "rental_uris": {"ios": "https://dc.lft.to/lastmile_qr_scan", "android": "https://dc.lft.to/lastmile_qr_scan"}, "lon": -76.934472, "bike_id": "201af08700332a05efdcb7ba04d295db", "type": "electric_scooter", "name": "201af08700332a05efdcb7ba04d295db"}, {"is_disabled": 0, "is_reserved": 0, "fusion_lat": 0.0, "lat": 38.89782533333333, "fusion_lon": 0.0, "rental_uris": {"ios": "https://dc.lft.to/lastmile_qr_scan", "android": "https://dc.lft.to/lastmile_qr_scan"}, "lon": -77.0478015, "bike_id": "ba02961c3fdd0ca37f2df21b8a21fb70", "type": "electric_scooter", "name": "ba02961c3fdd0ca37f2df21b8a21fb70"}, {"is_disabled": 0, "is_reserved": 0, "fusion_lat": 0.0, "lat": 38.87446533333333, "fusion_lon": 0.0, "rental_uris": {"ios": "https://dc.lft.to/lastmile_qr_scan", "android": "https://dc.lft.to/lastmile_qr_scan"}, "lon": -77.00924, "bike_id": "06fa4b15349b19b1534bc06ab34500ab", "type": "electric_scooter", "name": "06fa4b15349b19b1534bc06ab34500ab"}, {"is_disabled": 0, "is_reserved": 0, "fusion_lat": 0.0, "lat": 38.96797, "fusion_lon": 0.0, "rental_uris": {"ios": "https://dc.lft.to/lastmile_qr_scan", "android": "https://dc.lft.to/lastmile_qr_scan"}, "lon": -77.0243235, "bike_id": "1e2695faf35053048aa4030e40d04261", "type": "electric_scooter", "name": "1e2695faf35053048aa4030e40d04261"}, {"is_disabled": 0, "is_reserved": 0, "fusion_lat": 0.0, "lat": 38.88583366666667, "fusion_lon": 0.0, "rental_uris": {"ios": "https://dc.lft.to/lastmile_qr_scan", "android": "https://dc.lft.to/lastmile_qr_scan"}, "lon": -77.01226733333333, "bike_id": "246673c272b1646c1b590d03172e05f5", "type": "electric_scooter", "name": "246673c272b1646c1b590d03172e05f5"}, {"is_disabled": 0, "is_reserved": 0, "fusion_lat": 0.0, "lat": 38.90686433333333, "fusion_lon": 0.0, "rental_uris": {"ios": "https://dc.lft.to/lastmile_qr_scan", "android": "https://dc.lft.to/lastmile_qr_scan"}, "lon": -77.06293866666667, "bike_id": "90ff846e35d3aaeab667c97a82de0729", "type": "electric_scooter", "name": "90ff846e35d3aaeab667c97a82de0729"}, {"is_disabled": 0, "is_reserved": 0, "fusion_lat": 0.0, "lat": 38.920786666666665, "fusion_lon": 0.0, "rental_uris": {"ios": "https://dc.lft.to/lastmile_qr_scan", "android": "https://dc.lft.to/lastmile_qr_scan"}, "lon": -77.02374716666667, "bike_id": "1d0dfb68b47d516688257ffbbb2891c8", "type": "electric_scooter", "name": "1d0dfb68b47d516688257ffbbb2891c8"}, {"is_disabled": 0, "is_reserved": 0, "fusion_lat": 0.0, "lat": 38.95363283333333, "fusion_lon": 0.0, "rental_uris": {"ios": "https://dc.lft.to/lastmile_qr_scan", "android": "https://dc.lft.to/lastmile_qr_scan"}, "lon": -76.99850566666667, "bike_id": "9e2dcb48079320e1f1e1fc8dc02d8351", "type": "electric_scooter", "name": "9e2dcb48079320e1f1e1fc8dc02d8351"}, {"is_disabled": 0, "is_reserved": 0, "fusion_lat": 0.0, "lat": 38.92476116666667, "fusion_lon": 0.0, "rental_uris": {"ios": "https://dc.lft.to/lastmile_qr_scan", "android": "https://dc.lft.to/lastmile_qr_scan"}, "lon": -77.037808, "bike_id": "bb40f039ebbf36cad2268ae44e65f101", "type": "electric_scooter", "name": "bb40f039ebbf36cad2268ae44e65f101"}, {"is_disabled": 0, "is_reserved": 0, "fusion_lat": 0.0, "lat": 38.91704283333333, "fusion_lon": 0.0, "rental_uris": {"ios": "https://dc.lft.to/lastmile_qr_scan", "android": "https://dc.lft.to/lastmile_qr_scan"}, "lon": -77.038534, "bike_id": "af89b4467fe53bf772e8ea0c0681630a", "type": "electric_scooter", "name": "af89b4467fe53bf772e8ea0c0681630a"}, {"is_disabled": 0, "is_reserved": 0, "fusion_lat": 0.0, "lat": 38.90231966666666, "fusion_lon": 0.0, "rental_uris": {"ios": "https://dc.lft.to/lastmile_qr_scan", "android": "https://dc.lft.to/lastmile_qr_scan"}, "lon": -77.000656, "bike_id": "04f5849dfd321d09ed0082cfefc051a1", "type": "electric_scooter", "name": "04f5849dfd321d09ed0082cfefc051a1"}, {"is_disabled": 0, "is_reserved": 0, "fusion_lat": 0.0, "lat": 38.936978333333336, "fusion_lon": 0.0, "rental_uris": {"ios": "https://dc.lft.to/lastmile_qr_scan", "android": "https://dc.lft.to/lastmile_qr_scan"}, "lon": -77.05596, "bike_id": "a51df5fc940684d882076851cfc29bf5", "type": "electric_scooter", "name": "a51df5fc940684d882076851cfc29bf5"}, {"is_disabled": 0, "is_reserved": 0, "fusion_lat": 0.0, "lat": 38.89970916666667, "fusion_lon": 0.0, "rental_uris": {"ios": "https://dc.lft.to/lastmile_qr_scan", "android": "https://dc.lft.to/lastmile_qr_scan"}, "lon": -76.9835155, "bike_id": "7262c28086710a570aa54902ef0af3ec", "type": "electric_scooter", "name": "7262c28086710a570aa54902ef0af3ec"}, {"is_disabled": 0, "is_reserved": 0, "fusion_lat": 0.0, "lat": 38.89984483333333, "fusion_lon": 0.0, "rental_uris": {"ios": "https://dc.lft.to/lastmile_qr_scan", "android": "https://dc.lft.to/lastmile_qr_scan"}, "lon": -76.9947965, "bike_id": "1333b6d19e1bb5098e630e3ed7044c0c", "type": "electric_bike", "name": "1333b6d19e1bb5098e630e3ed7044c0c"}, {"is_disabled": 0, "is_reserved": 0, "fusion_lat": 0.0, "lat": 38.95258616666667, "fusion_lon": 0.0, "rental_uris": {"ios": "https://dc.lft.to/lastmile_qr_scan", "android": "https://dc.lft.to/lastmile_qr_scan"}, "lon": -77.020744, "bike_id": "a40538ac49beb6dd0807bcb5dfaf2ef6", "type": "electric_scooter", "name": "a40538ac49beb6dd0807bcb5dfaf2ef6"}, {"is_disabled": 0, "is_reserved": 0, "fusion_lat": 0.0, "lat": 38.914536166666664, "fusion_lon": 0.0, "rental_uris": {"ios": "https://dc.lft.to/lastmile_qr_scan", "android": "https://dc.lft.to/lastmile_qr_scan"}, "lon": -77.04164783333333, "bike_id": "00027e40046f58f5d945b997a23e13c1", "type": "electric_scooter", "name": "00027e40046f58f5d945b997a23e13c1"}, {"is_disabled": 0, "is_reserved": 0, "fusion_lat": 0.0, "lat": 38.90269, "fusion_lon": 0.0, "rental_uris": {"ios": "https://dc.lft.to/lastmile_qr_scan", "android": "https://dc.lft.to/lastmile_qr_scan"}, "lon": -77.04520416666666, "bike_id": "4d9713562a48b0f24350e47e95774497", "type": "electric_scooter", "name": "4d9713562a48b0f24350e47e95774497"}, {"is_disabled": 0, "is_reserved": 0, "fusion_lat": 0.0, "lat": 38.922479333333335, "fusion_lon": 0.0, "rental_uris": {"ios": "https://dc.lft.to/lastmile_qr_scan", "android": "https://dc.lft.to/lastmile_qr_scan"}, "lon": -77.0298035, "bike_id": "6b6517aebf28b9101ebdb004c28b1bd8", "type": "electric_scooter", "name": "6b6517aebf28b9101ebdb004c28b1bd8"}, {"is_disabled": 0, "is_reserved": 0, "fusion_lat": 0.0, "lat": 38.842905, "fusion_lon": 0.0, "rental_uris": {"ios": "https://dc.lft.to/lastmile_qr_scan", "android": "https://dc.lft.to/lastmile_qr_scan"}, "lon": -77.06382066666667, "bike_id": "c8ae31d2a01e271d20b3b1cde573baeb", "type": "electric_bike", "name": "c8ae31d2a01e271d20b3b1cde573baeb"}, {"is_disabled": 0, "is_reserved": 0, "fusion_lat": 0.0, "lat": 38.972871166666664, "fusion_lon": 0.0, "rental_uris": {"ios": "https://dc.lft.to/lastmile_qr_scan", "android": "https://dc.lft.to/lastmile_qr_scan"}, "lon": -77.03626416666667, "bike_id": "71582de2a40a9c051350ce2968a2a7f1", "type": "electric_bike", "name": "71582de2a40a9c051350ce2968a2a7f1"}, {"is_disabled": 0, "is_reserved": 0, "fusion_lat": 0.0, "lat": 38.92661583333334, "fusion_lon": 0.0, "rental_uris": {"ios": "https://dc.lft.to/lastmile_qr_scan", "android": "https://dc.lft.to/lastmile_qr_scan"}, "lon": -76.9929995, "bike_id": "2d1b1d0e858380a391a9d523d1a1b20d", "type": "electric_scooter", "name": "2d1b1d0e858380a391a9d523d1a1b20d"}, {"is_disabled": 0, "is_reserved": 0, "fusion_lat": 0.0, "lat": 38.8783825, "fusion_lon": 0.0, "rental_uris": {"ios": "https://dc.lft.to/lastmile_qr_scan", "android": "https://dc.lft.to/lastmile_qr_scan"}, "lon": -77.00858916666667, "bike_id": "0fb8b7cc65940be5a7ef68e55d21ca74", "type": "electric_scooter", "name": "0fb8b7cc65940be5a7ef68e55d21ca74"}, {"is_disabled": 0, "is_reserved": 0, "fusion_lat": 0.0, "lat": 38.900791, "fusion_lon": 0.0, "rental_uris": {"ios": "https://dc.lft.to/lastmile_qr_scan", "android": "https://dc.lft.to/lastmile_qr_scan"}, "lon": -77.02597116666666, "bike_id": "99f352da10a3efcef0682e1a284bd4ed", "type": "electric_scooter", "name": "99f352da10a3efcef0682e1a284bd4ed"}, {"is_disabled": 0, "is_reserved": 0, "fusion_lat": 0.0, "lat": 38.91559433333333, "fusion_lon": 0.0, "rental_uris": {"ios": "https://dc.lft.to/lastmile_qr_scan", "android": "https://dc.lft.to/lastmile_qr_scan"}, "lon": -77.042818, "bike_id": "ec5457e1550826abfb5efe3c95e25919", "type": "electric_scooter", "name": "ec5457e1550826abfb5efe3c95e25919"}, {"is_disabled": 0, "is_reserved": 0, "fusion_lat": 0.0, "lat": 38.901816, "fusion_lon": 0.0, "rental_uris": {"ios": "https://dc.lft.to/lastmile_qr_scan", "android": "https://dc.lft.to/lastmile_qr_scan"}, "lon": -77.00211133333333, "bike_id": "bcb9ba9c03b2821084b12c9f6aa1f091", "type": "electric_scooter", "name": "bcb9ba9c03b2821084b12c9f6aa1f091"}, {"is_disabled": 0, "is_reserved": 0, "fusion_lat": 0.0, "lat": 38.95249666666667, "fusion_lon": 0.0, "rental_uris": {"ios": "https://dc.lft.to/lastmile_qr_scan", "android": "https://dc.lft.to/lastmile_qr_scan"}, "lon": -77.0962345, "bike_id": "8d3651eb580e4f4475c08c445978d5de", "type": "electric_bike", "name": "8d3651eb580e4f4475c08c445978d5de"}, {"is_disabled": 0, "is_reserved": 0, "fusion_lat": 0.0, "lat": 38.906706666666665, "fusion_lon": 0.0, "rental_uris": {"ios": "https://dc.lft.to/lastmile_qr_scan", "android": "https://dc.lft.to/lastmile_qr_scan"}, "lon": -77.0714625, "bike_id": "658ab75a982e432f341450a8b285b9b4", "type": "electric_scooter", "name": "658ab75a982e432f341450a8b285b9b4"}, {"is_disabled": 0, "is_reserved": 0, "fusion_lat": 0.0, "lat": 38.916508666666665, "fusion_lon": 0.0, "rental_uris": {"ios": "https://dc.lft.to/lastmile_qr_scan", "android": "https://dc.lft.to/lastmile_qr_scan"}, "lon": -77.01027133333334, "bike_id": "6babf6a7d8af1e1c048b54687991215d", "type": "electric_scooter", "name": "6babf6a7d8af1e1c048b54687991215d"}, {"is_disabled": 0, "is_reserved": 0, "fusion_lat": 0.0, "lat": 38.89822366666667, "fusion_lon": 0.0, "rental_uris": {"ios": "https://dc.lft.to/lastmile_qr_scan", "android": "https://dc.lft.to/lastmile_qr_scan"}, "lon": -76.93002583333333, "bike_id": "26a806bd4b71e51e7527c2181b6669ed", "type": "electric_scooter", "name": "26a806bd4b71e51e7527c2181b6669ed"}, {"is_disabled": 0, "is_reserved": 0, "fusion_lat": 0.0, "lat": 38.91998483333333, "fusion_lon": 0.0, "rental_uris": {"ios": "https://dc.lft.to/lastmile_qr_scan", "android": "https://dc.lft.to/lastmile_qr_scan"}, "lon": -77.04185783333334, "bike_id": "da84c9a4b5d7826fad4ec8ca735dad96", "type": "electric_scooter", "name": "da84c9a4b5d7826fad4ec8ca735dad96"}, {"is_disabled": 0, "is_reserved": 0, "fusion_lat": 0.0, "lat": 38.897839166666664, "fusion_lon": 0.0, "rental_uris": {"ios": "https://dc.lft.to/lastmile_qr_scan", "android": "https://dc.lft.to/lastmile_qr_scan"}, "lon": -77.0478815, "bike_id": "445bd85e871b628d33254ebe278c9b2d", "type": "electric_scooter", "name": "445bd85e871b628d33254ebe278c9b2d"}, {"is_disabled": 0, "is_reserved": 0, "fusion_lat": 0.0, "lat": 38.8097655, "fusion_lon": 0.0, "rental_uris": {"ios": "https://dc.lft.to/lastmile_qr_scan", "android": "https://dc.lft.to/lastmile_qr_scan"}, "lon": -77.07661333333333, "bike_id": "7270ef920faf5509303744403429ee12", "type": "electric_bike", "name": "7270ef920faf5509303744403429ee12"}, {"is_disabled": 0, "is_reserved": 0, "fusion_lat": 0.0, "lat": 38.92665383333333, "fusion_lon": 0.0, "rental_uris": {"ios": "https://dc.lft.to/lastmile_qr_scan", "android": "https://dc.lft.to/lastmile_qr_scan"}, "lon": -76.99557716666666, "bike_id": "5a59d1f8730846bcc906195a201f6e6b", "type": "electric_scooter", "name": "5a59d1f8730846bcc906195a201f6e6b"}, {"is_disabled": 0, "is_reserved": 0, "fusion_lat": 0.0, "lat": 38.89634216666666, "fusion_lon": 0.0, "rental_uris": {"ios": "https://dc.lft.to/lastmile_qr_scan", "android": "https://dc.lft.to/lastmile_qr_scan"}, "lon": -77.0284395, "bike_id": "9c279f09d07b9c10151c38de73297350", "type": "electric_scooter", "name": "9c279f09d07b9c10151c38de73297350"}, {"is_disabled": 0, "is_reserved": 0, "fusion_lat": 0.0, "lat": 38.9018315, "fusion_lon": 0.0, "rental_uris": {"ios": "https://dc.lft.to/lastmile_qr_scan", "android": "https://dc.lft.to/lastmile_qr_scan"}, "lon": -76.99961733333333, "bike_id": "7c0b358813f731aacca4eb1277726f9d", "type": "electric_scooter", "name": "7c0b358813f731aacca4eb1277726f9d"}, {"is_disabled": 0, "is_reserved": 0, "fusion_lat": 0.0, "lat": 38.942169666666665, "fusion_lon": 0.0, "rental_uris": {"ios": "https://dc.lft.to/lastmile_qr_scan", "android": "https://dc.lft.to/lastmile_qr_scan"}, "lon": -76.96132966666667, "bike_id": "7297c357d8f8edb40fe729a990130c50", "type": "electric_bike", "name": "7297c357d8f8edb40fe729a990130c50"}, {"is_disabled": 0, "is_reserved": 0, "fusion_lat": 0.0, "lat": 38.9275685, "fusion_lon": 0.0, "rental_uris": {"ios": "https://dc.lft.to/lastmile_qr_scan", "android": "https://dc.lft.to/lastmile_qr_scan"}, "lon": -77.07051183333333, "bike_id": "49a85a2747f8b76641180f82564e98fb", "type": "electric_scooter", "name": "49a85a2747f8b76641180f82564e98fb"}, {"is_disabled": 0, "is_reserved": 0, "fusion_lat": 0.0, "lat": 38.9366655, "fusion_lon": 0.0, "rental_uris": {"ios": "https://dc.lft.to/lastmile_qr_scan", "android": "https://dc.lft.to/lastmile_qr_scan"}, "lon": -77.03631733333333, "bike_id": "e9dceff84988b93ffe3e05c7a2f3dc47", "type": "electric_scooter", "name": "e9dceff84988b93ffe3e05c7a2f3dc47"}, {"is_disabled": 0, "is_reserved": 0, "fusion_lat": 0.0, "lat": 38.91414316666667, "fusion_lon": 0.0, "rental_uris": {"ios": "https://dc.lft.to/lastmile_qr_scan", "android": "https://dc.lft.to/lastmile_qr_scan"}, "lon": -77.03168116666667, "bike_id": "7831ced383d3ef3fd851c27dea49aae9", "type": "electric_scooter", "name": "7831ced383d3ef3fd851c27dea49aae9"}, {"is_disabled": 0, "is_reserved": 0, "fusion_lat": 0.0, "lat": 38.92410616666667, "fusion_lon": 0.0, "rental_uris": {"ios": "https://dc.lft.to/lastmile_qr_scan", "android": "https://dc.lft.to/lastmile_qr_scan"}, "lon": -77.02040583333333, "bike_id": "af2158163d217dc6456437e842c9e3a4", "type": "electric_scooter", "name": "af2158163d217dc6456437e842c9e3a4"}, {"is_disabled": 0, "is_reserved": 0, "fusion_lat": 0.0, "lat": 38.89220783333333, "fusion_lon": 0.0, "rental_uris": {"ios": "https://dc.lft.to/lastmile_qr_scan", "android": "https://dc.lft.to/lastmile_qr_scan"}, "lon": -77.022191, "bike_id": "94a1102845e19000c87a903985332496", "type": "electric_scooter", "name": "94a1102845e19000c87a903985332496"}, {"is_disabled": 0, "is_reserved": 0, "fusion_lat": 0.0, "lat": 38.90180766666667, "fusion_lon": 0.0, "rental_uris": {"ios": "https://dc.lft.to/lastmile_qr_scan", "android": "https://dc.lft.to/lastmile_qr_scan"}, "lon": -76.99959666666666, "bike_id": "a26560f0a270b6e81ddbbfbf953cf300", "type": "electric_scooter", "name": "a26560f0a270b6e81ddbbfbf953cf300"}, {"is_disabled": 0, "is_reserved": 0, "fusion_lat": 0.0, "lat": 38.9045035, "fusion_lon": 0.0, "rental_uris": {"ios": "https://dc.lft.to/lastmile_qr_scan", "android": "https://dc.lft.to/lastmile_qr_scan"}, "lon": -77.06524033333334, "bike_id": "375fc493d8798a6d9a4fb5f6b8b3f7c6", "type": "electric_scooter", "name": "375fc493d8798a6d9a4fb5f6b8b3f7c6"}, {"is_disabled": 0, "is_reserved": 0, "fusion_lat": 0.0, "lat": 38.88492083333333, "fusion_lon": 0.0, "rental_uris": {"ios": "https://dc.lft.to/lastmile_qr_scan", "android": "https://dc.lft.to/lastmile_qr_scan"}, "lon": -77.02616766666667, "bike_id": "e82d2307087e0c2e2417f4749abf584b", "type": "electric_scooter", "name": "e82d2307087e0c2e2417f4749abf584b"}, {"is_disabled": 0, "is_reserved": 0, "fusion_lat": 0.0, "lat": 38.900398, "fusion_lon": 0.0, "rental_uris": {"ios": "https://dc.lft.to/lastmile_qr_scan", "android": "https://dc.lft.to/lastmile_qr_scan"}, "lon": -77.03667616666667, "bike_id": "3dab40ccf299ae31f9063813c563fa19", "type": "electric_scooter", "name": "3dab40ccf299ae31f9063813c563fa19"}, {"is_disabled": 0, "is_reserved": 0, "fusion_lat": 0.0, "lat": 38.90866483333333, "fusion_lon": 0.0, "rental_uris": {"ios": "https://dc.lft.to/lastmile_qr_scan", "android": "https://dc.lft.to/lastmile_qr_scan"}, "lon": -76.99937316666667, "bike_id": "b04d30a59a67ec0173a4e2ba132195a8", "type": "electric_scooter", "name": "b04d30a59a67ec0173a4e2ba132195a8"}, {"is_disabled": 0, "is_reserved": 0, "fusion_lat": 0.0, "lat": 38.900119, "fusion_lon": 0.0, "rental_uris": {"ios": "https://dc.lft.to/lastmile_qr_scan", "android": "https://dc.lft.to/lastmile_qr_scan"}, "lon": -77.00395666666667, "bike_id": "26e94204d21f2d1466e62cba2d971e0c", "type": "electric_scooter", "name": "26e94204d21f2d1466e62cba2d971e0c"}, {"is_disabled": 0, "is_reserved": 0, "fusion_lat": 0.0, "lat": 38.894482833333335, "fusion_lon": 0.0, "rental_uris": {"ios": "https://dc.lft.to/lastmile_qr_scan", "android": "https://dc.lft.to/lastmile_qr_scan"}, "lon": -76.97733283333334, "bike_id": "dca1c8f1d658cd66235e276b10a2a2d8", "type": "electric_scooter", "name": "dca1c8f1d658cd66235e276b10a2a2d8"}, {"is_disabled": 0, "is_reserved": 0, "fusion_lat": 0.0, "lat": 38.9232005, "fusion_lon": 0.0, "rental_uris": {"ios": "https://dc.lft.to/lastmile_qr_scan", "android": "https://dc.lft.to/lastmile_qr_scan"}, "lon": -77.019531, "bike_id": "dbe3a785787342b84ed0355321382ed5", "type": "electric_scooter", "name": "dbe3a785787342b84ed0355321382ed5"}, {"is_disabled": 0, "is_reserved": 0, "fusion_lat": 0.0, "lat": 38.9523895, "fusion_lon": 0.0, "rental_uris": {"ios": "https://dc.lft.to/lastmile_qr_scan", "android": "https://dc.lft.to/lastmile_qr_scan"}, "lon": -76.979543, "bike_id": "50c701b2b5e578224f1e207bb9042037", "type": "electric_bike", "name": "50c701b2b5e578224f1e207bb9042037"}, {"is_disabled": 0, "is_reserved": 0, "fusion_lat": 0.0, "lat": 38.923232, "fusion_lon": 0.0, "rental_uris": {"ios": "https://dc.lft.to/lastmile_qr_scan", "android": "https://dc.lft.to/lastmile_qr_scan"}, "lon": -77.045083, "bike_id": "6448d11729fe1607b3e1526d4f05d587", "type": "electric_scooter", "name": "6448d11729fe1607b3e1526d4f05d587"}, {"is_disabled": 0, "is_reserved": 0, "fusion_lat": 0.0, "lat": 38.906276166666665, "fusion_lon": 0.0, "rental_uris": {"ios": "https://dc.lft.to/lastmile_qr_scan", "android": "https://dc.lft.to/lastmile_qr_scan"}, "lon": -77.06898133333334, "bike_id": "3786e247ceae852966544a1926dc0ce9", "type": "electric_scooter", "name": "3786e247ceae852966544a1926dc0ce9"}, {"is_disabled": 0, "is_reserved": 0, "fusion_lat": 0.0, "lat": 38.92108566666667, "fusion_lon": 0.0, "rental_uris": {"ios": "https://dc.lft.to/lastmile_qr_scan", "android": "https://dc.lft.to/lastmile_qr_scan"}, "lon": -77.03042566666667, "bike_id": "275c745f93270f0e5df17058365b7f6f", "type": "electric_scooter", "name": "275c745f93270f0e5df17058365b7f6f"}, {"is_disabled": 0, "is_reserved": 0, "fusion_lat": 0.0, "lat": 38.950705166666665, "fusion_lon": 0.0, "rental_uris": {"ios": "https://dc.lft.to/lastmile_qr_scan", "android": "https://dc.lft.to/lastmile_qr_scan"}, "lon": -77.065371, "bike_id": "14680c9a30fb3634107ffcc1db5533db", "type": "electric_scooter", "name": "14680c9a30fb3634107ffcc1db5533db"}, {"is_disabled": 0, "is_reserved": 0, "fusion_lat": 0.0, "lat": 38.917256333333334, "fusion_lon": 0.0, "rental_uris": {"ios": "https://dc.lft.to/lastmile_qr_scan", "android": "https://dc.lft.to/lastmile_qr_scan"}, "lon": -77.02504366666666, "bike_id": "f163cafebc3f3d6ae63767b9e4ee0744", "type": "electric_scooter", "name": "f163cafebc3f3d6ae63767b9e4ee0744"}, {"is_disabled": 0, "is_reserved": 0, "fusion_lat": 0.0, "lat": 38.93065883333333, "fusion_lon": 0.0, "rental_uris": {"ios": "https://dc.lft.to/lastmile_qr_scan", "android": "https://dc.lft.to/lastmile_qr_scan"}, "lon": -77.023323, "bike_id": "8260c485c2216e0eb8e0f4a5c59b7a91", "type": "electric_scooter", "name": "8260c485c2216e0eb8e0f4a5c59b7a91"}, {"is_disabled": 0, "is_reserved": 0, "fusion_lat": 0.0, "lat": 38.88112433333333, "fusion_lon": 0.0, "rental_uris": {"ios": "https://dc.lft.to/lastmile_qr_scan", "android": "https://dc.lft.to/lastmile_qr_scan"}, "lon": -77.02635366666667, "bike_id": "d0c1a6ef71ac429245b5bf304f149a9a", "type": "electric_scooter", "name": "d0c1a6ef71ac429245b5bf304f149a9a"}, {"is_disabled": 0, "is_reserved": 0, "fusion_lat": 0.0, "lat": 38.898382833333336, "fusion_lon": 0.0, "rental_uris": {"ios": "https://dc.lft.to/lastmile_qr_scan", "android": "https://dc.lft.to/lastmile_qr_scan"}, "lon": -76.99027033333333, "bike_id": "882ba385ae27244b0409290952e3bdc8", "type": "electric_scooter", "name": "882ba385ae27244b0409290952e3bdc8"}, {"is_disabled": 0, "is_reserved": 0, "fusion_lat": 0.0, "lat": 38.922196666666665, "fusion_lon": 0.0, "rental_uris": {"ios": "https://dc.lft.to/lastmile_qr_scan", "android": "https://dc.lft.to/lastmile_qr_scan"}, "lon": -77.0433565, "bike_id": "2bbc1dc856b70a9548f11b4950fde047", "type": "electric_scooter", "name": "2bbc1dc856b70a9548f11b4950fde047"}, {"is_disabled": 0, "is_reserved": 0, "fusion_lat": 0.0, "lat": 38.92021066666667, "fusion_lon": 0.0, "rental_uris": {"ios": "https://dc.lft.to/lastmile_qr_scan", "android": "https://dc.lft.to/lastmile_qr_scan"}, "lon": -77.03121316666666, "bike_id": "f7de6eb55048ec16988367e2a29abfdc", "type": "electric_scooter", "name": "f7de6eb55048ec16988367e2a29abfdc"}, {"is_disabled": 0, "is_reserved": 0, "fusion_lat": 0.0, "lat": 38.899571333333334, "fusion_lon": 0.0, "rental_uris": {"ios": "https://dc.lft.to/lastmile_qr_scan", "android": "https://dc.lft.to/lastmile_qr_scan"}, "lon": -77.04752616666667, "bike_id": "1ae73baf4cc0f2c407337b048352c6b2", "type": "electric_scooter", "name": "1ae73baf4cc0f2c407337b048352c6b2"}, {"is_disabled": 0, "is_reserved": 0, "fusion_lat": 0.0, "lat": 38.91092483333333, "fusion_lon": 0.0, "rental_uris": {"ios": "https://dc.lft.to/lastmile_qr_scan", "android": "https://dc.lft.to/lastmile_qr_scan"}, "lon": -77.02178883333333, "bike_id": "8c85767254d6a42fba50ab0c7cffec31", "type": "electric_scooter", "name": "8c85767254d6a42fba50ab0c7cffec31"}, {"is_disabled": 0, "is_reserved": 0, "fusion_lat": 0.0, "lat": 38.8757265, "fusion_lon": 0.0, "rental_uris": {"ios": "https://dc.lft.to/lastmile_qr_scan", "android": "https://dc.lft.to/lastmile_qr_scan"}, "lon": -77.00605533333334, "bike_id": "10b84f440cf222ff6d07461bba457c03", "type": "electric_scooter", "name": "10b84f440cf222ff6d07461bba457c03"}, {"is_disabled": 0, "is_reserved": 0, "fusion_lat": 0.0, "lat": 38.89273016666667, "fusion_lon": 0.0, "rental_uris": {"ios": "https://dc.lft.to/lastmile_qr_scan", "android": "https://dc.lft.to/lastmile_qr_scan"}, "lon": -77.04654516666666, "bike_id": "d47d3c7a6caa528cdaf3ddd9fef00f64", "type": "electric_scooter", "name": "d47d3c7a6caa528cdaf3ddd9fef00f64"}, {"is_disabled": 0, "is_reserved": 0, "fusion_lat": 0.0, "lat": 38.89501966666667, "fusion_lon": 0.0, "rental_uris": {"ios": "https://dc.lft.to/lastmile_qr_scan", "android": "https://dc.lft.to/lastmile_qr_scan"}, "lon": -77.02291916666667, "bike_id": "d1d1222faf38eab3b2d57493a7785c42", "type": "electric_scooter", "name": "d1d1222faf38eab3b2d57493a7785c42"}, {"is_disabled": 0, "is_reserved": 0, "fusion_lat": 0.0, "lat": 38.929884333333334, "fusion_lon": 0.0, "rental_uris": {"ios": "https://dc.lft.to/lastmile_qr_scan", "android": "https://dc.lft.to/lastmile_qr_scan"}, "lon": -77.03472316666667, "bike_id": "d233b33c231f81f767e2ad746ac42b45", "type": "electric_scooter", "name": "d233b33c231f81f767e2ad746ac42b45"}, {"is_disabled": 0, "is_reserved": 0, "fusion_lat": 0.0, "lat": 38.8744515, "fusion_lon": 0.0, "rental_uris": {"ios": "https://dc.lft.to/lastmile_qr_scan", "android": "https://dc.lft.to/lastmile_qr_scan"}, "lon": -77.002788, "bike_id": "c3296621d3cb5d3908090537de41dd91", "type": "electric_scooter", "name": "c3296621d3cb5d3908090537de41dd91"}, {"is_disabled": 0, "is_reserved": 0, "fusion_lat": 0.0, "lat": 38.892200833333334, "fusion_lon": 0.0, "rental_uris": {"ios": "https://dc.lft.to/lastmile_qr_scan", "android": "https://dc.lft.to/lastmile_qr_scan"}, "lon": -77.02657516666666, "bike_id": "6f2be9416c05169665e9fd1c89936299", "type": "electric_scooter", "name": "6f2be9416c05169665e9fd1c89936299"}, {"is_disabled": 0, "is_reserved": 0, "fusion_lat": 0.0, "lat": 38.844734833333334, "fusion_lon": 0.0, "rental_uris": {"ios": "https://dc.lft.to/lastmile_qr_scan", "android": "https://dc.lft.to/lastmile_qr_scan"}, "lon": -76.99594116666667, "bike_id": "265283ac05083ba702d696051663233f", "type": "electric_bike", "name": "265283ac05083ba702d696051663233f"}, {"is_disabled": 0, "is_reserved": 0, "fusion_lat": 0.0, "lat": 38.89837333333333, "fusion_lon": 0.0, "rental_uris": {"ios": "https://dc.lft.to/lastmile_qr_scan", "android": "https://dc.lft.to/lastmile_qr_scan"}, "lon": -76.9427945, "bike_id": "aaf8bd47ef83ec7a3f44157681ac5435", "type": "electric_bike", "name": "aaf8bd47ef83ec7a3f44157681ac5435"}, {"is_disabled": 0, "is_reserved": 0, "fusion_lat": 0.0, "lat": 38.87697716666667, "fusion_lon": 0.0, "rental_uris": {"ios": "https://dc.lft.to/lastmile_qr_scan", "android": "https://dc.lft.to/lastmile_qr_scan"}, "lon": -76.9961665, "bike_id": "8619ebecd6469cb4f9f58bf2683b30f6", "type": "electric_scooter", "name": "8619ebecd6469cb4f9f58bf2683b30f6"}, {"is_disabled": 0, "is_reserved": 0, "fusion_lat": 0.0, "lat": 38.9387275, "fusion_lon": 0.0, "rental_uris": {"ios": "https://dc.lft.to/lastmile_qr_scan", "android": "https://dc.lft.to/lastmile_qr_scan"}, "lon": -77.02925333333333, "bike_id": "0399de22bb7dc4bd1ae023290319768b", "type": "electric_scooter", "name": "0399de22bb7dc4bd1ae023290319768b"}, {"is_disabled": 0, "is_reserved": 0, "fusion_lat": 0.0, "lat": 38.881166666666665, "fusion_lon": 0.0, "rental_uris": {"ios": "https://dc.lft.to/lastmile_qr_scan", "android": "https://dc.lft.to/lastmile_qr_scan"}, "lon": -77.01667083333334, "bike_id": "70306684ee7bf0ef3fbcc806bae128f5", "type": "electric_bike", "name": "70306684ee7bf0ef3fbcc806bae128f5"}, {"is_disabled": 0, "is_reserved": 0, "fusion_lat": 0.0, "lat": 38.92218916666667, "fusion_lon": 0.0, "rental_uris": {"ios": "https://dc.lft.to/lastmile_qr_scan", "android": "https://dc.lft.to/lastmile_qr_scan"}, "lon": -77.03892933333333, "bike_id": "fa8ac340392239299206de4715e83cd5", "type": "electric_scooter", "name": "fa8ac340392239299206de4715e83cd5"}, {"is_disabled": 0, "is_reserved": 0, "fusion_lat": 0.0, "lat": 38.957403666666664, "fusion_lon": 0.0, "rental_uris": {"ios": "https://dc.lft.to/lastmile_qr_scan", "android": "https://dc.lft.to/lastmile_qr_scan"}, "lon": -77.02321416666666, "bike_id": "b3319a00af337b62dd4efcb95fd12ad3", "type": "electric_scooter", "name": "b3319a00af337b62dd4efcb95fd12ad3"}, {"is_disabled": 0, "is_reserved": 0, "fusion_lat": 0.0, "lat": 38.875686, "fusion_lon": 0.0, "rental_uris": {"ios": "https://dc.lft.to/lastmile_qr_scan", "android": "https://dc.lft.to/lastmile_qr_scan"}, "lon": -77.00602266666667, "bike_id": "5ff74044355801e4837dde586d85bb4a", "type": "electric_scooter", "name": "5ff74044355801e4837dde586d85bb4a"}, {"is_disabled": 0, "is_reserved": 0, "fusion_lat": 0.0, "lat": 38.92613, "fusion_lon": 0.0, "rental_uris": {"ios": "https://dc.lft.to/lastmile_qr_scan", "android": "https://dc.lft.to/lastmile_qr_scan"}, "lon": -77.00649833333334, "bike_id": "b3de86d52db73f6a393ca69b23366553", "type": "electric_scooter", "name": "b3de86d52db73f6a393ca69b23366553"}, {"is_disabled": 0, "is_reserved": 0, "fusion_lat": 0.0, "lat": 38.912566166666664, "fusion_lon": 0.0, "rental_uris": {"ios": "https://dc.lft.to/lastmile_qr_scan", "android": "https://dc.lft.to/lastmile_qr_scan"}, "lon": -77.047919, "bike_id": "31909e8a4ec244c5a71f51a3e273b461", "type": "electric_scooter", "name": "31909e8a4ec244c5a71f51a3e273b461"}, {"is_disabled": 0, "is_reserved": 0, "fusion_lat": 0.0, "lat": 38.9003775, "fusion_lon": 0.0, "rental_uris": {"ios": "https://dc.lft.to/lastmile_qr_scan", "android": "https://dc.lft.to/lastmile_qr_scan"}, "lon": -76.99028516666667, "bike_id": "efbb4be77880967450f76bee5f7ed41b", "type": "electric_bike", "name": "efbb4be77880967450f76bee5f7ed41b"}, {"is_disabled": 0, "is_reserved": 0, "fusion_lat": 0.0, "lat": 38.901698333333336, "fusion_lon": 0.0, "rental_uris": {"ios": "https://dc.lft.to/lastmile_qr_scan", "android": "https://dc.lft.to/lastmile_qr_scan"}, "lon": -77.00213116666667, "bike_id": "2d85bc93f6f883fec907bc881624217a", "type": "electric_scooter", "name": "2d85bc93f6f883fec907bc881624217a"}, {"is_disabled": 0, "is_reserved": 0, "fusion_lat": 0.0, "lat": 38.93984666666667, "fusion_lon": 0.0, "rental_uris": {"ios": "https://dc.lft.to/lastmile_qr_scan", "android": "https://dc.lft.to/lastmile_qr_scan"},