{"data": {"bikes": [{"type": "electric_scooter", "rental_uris": {"ios": "https://dc.lft.to/lastmile_qr_scan", "android": "https://dc.lft.to/lastmile_qr_scan"}, "lon": -76.98701666666666, "fusion_lon": 0.0, "is_disabled": 0, "lat": 38.90699883333333, "bike_id": "91d05a1fcb9ff32e266f8834f900a9c2", "name": "91d05a1fcb9ff32e266f8834f900a9c2", "is_reserved": 0, "fusion_lat": 0.0}, {"type": "electric_scooter", "rental_uris": {"ios": "https://dc.lft.to/lastmile_qr_scan", "android": "https://dc.lft.to/lastmile_qr_scan"}, "lon": -77.02965783333333, "fusion_lon": 0.0, "is_disabled": 0, "lat": 38.92586883333333, "bike_id": "be5680b0dddfb632ab8be696a1b3282a", "name": "be5680b0dddfb632ab8be696a1b3282a", "is_reserved": 0, "fusion_lat": 0.0}, {"type": "electric_scooter", "rental_uris": {"ios": "https://dc.lft.to/lastmile_qr_scan", "android": "https://dc.lft.to/lastmile_qr_scan"}, "lon": -77.043927, "fusion_lon": 0.0, "is_disabled": 0, "lat": 38.91069533333334, "bike_id": "edfcc064a5548968a11d86981f073730", "name": "edfcc064a5548968a11d86981f073730", "is_reserved": 0, "fusion_lat": 0.0}, {"type": "electric_bike", "rental_uris": {"ios": "https://dc.lft.to/lastmile_qr_scan", "android": "https://dc.lft.to/lastmile_qr_scan"}, "lon": -76.94790316666666, "fusion_lon": 0.0, "is_disabled": 0, "lat": 38.89400766666667, "bike_id": "cf2e936a75b4036a830f09eadd5246e6", "name": "cf2e936a75b4036a830f09eadd5246e6", "is_reserved": 0, "fusion_lat": 0.0}, {"type": "electric_bike", "rental_uris": {"ios": "https://dc.lft.to/lastmile_qr_scan", "android": "https://dc.lft.to/lastmile_qr_scan"}, "lon": -76.97831266666667, "fusion_lon": 0.0, "is_disabled": 0, "lat": 38.870685333333334, "bike_id": "6f8ec03710d1f370b263da281e0be35f", "name": "6f8ec03710d1f370b263da281e0be35f", "is_reserved": 0, "fusion_lat": 0.0}, {"type": "electric_scooter", "rental_uris": {"ios": "https://dc.lft.to/lastmile_qr_scan", "android": "https://dc.lft.to/lastmile_qr_scan"}, "lon": -76.95416883333333, "fusion_lon": 0.0, "is_disabled": 0, "lat": 38.890625166666666, "bike_id": "8d14c270df9c2d38dd4ab3de1ad7b407", "name": "8d14c270df9c2d38dd4ab3de1ad7b407", "is_reserved": 0, "fusion_lat": 0.0}, {"type": "electric_bike", "rental_uris": {"ios": "https://dc.lft.to/lastmile_qr_scan", "android": "https://dc.lft.to/lastmile_qr_scan"}, "lon": -76.99018216666667, "fusion_lon": 0.0, "is_disabled": 0, "lat": 38.9547575, "bike_id": "aae3aadba733d09efe7b158435103125", "name": "aae3aadba733d09efe7b158435103125", "is_reserved": 0, "fusion_lat": 0.0}, {"type": "electric_scooter", "rental_uris": {"ios": "https://dc.lft.to/lastmile_qr_scan", "android": "https://dc.lft.to/lastmile_qr_scan"}, "lon": -77.03802066666667, "fusion_lon": 0.0, "is_disabled": 0, "lat": 38.906883666666666, "bike_id": "921627551504fc557b0600288e03a003", "name": "921627551504fc557b0600288e03a003", "is_reserved": 0, "fusion_lat": 0.0}, {"type": "electric_scooter", "rental_uris": {"ios": "https://dc.lft.to/lastmile_qr_scan", "android": "https://dc.lft.to/lastmile_qr_scan"}, "lon": -77.01436866666667, "fusion_lon": 0.0, "is_disabled": 0, "lat": 38.914533666666664, "bike_id": "5dcd33709b0ad4f45a08e86ed20201e2", "name": "5dcd33709b0ad4f45a08e86ed20201e2", "is_reserved": 0, "fusion_lat": 0.0}, {"type": "electric_scooter", "rental_uris": {"ios": "https://dc.lft.to/lastmile_qr_scan", "android": "https://dc.lft.to/lastmile_qr_scan"}, "lon": -77.02227066666667, "fusion_lon": 0.0, "is_disabled": 0, "lat": 38.9125575, "bike_id": "b1fe326a05901bad00179117681b8460", "name": "b1fe326a05901bad00179117681b8460", "is_reserved": 0, "fusion_lat": 0.0}, {"type": "electric_bike", "rental_uris": {"ios": "https://dc.lft.to/lastmile_qr_scan", "android": "https://dc.lft.to/lastmile_qr_scan"}, "lon": -76.96260066666666, "fusion_lon": 0.0, "is_disabled": 0, "lat": 38.88245, "bike_id": "d233a22d996bb5cd6534aa7b5e236585", "name": "d233a22d996bb5cd6534aa7b5e236585", "is_reserved": 0, "fusion_lat": 0.0}, {"type": "electric_scooter", "rental_uris": {"ios": "https://dc.lft.to/lastmile_qr_scan", "android": "https://dc.lft.to/lastmile_qr_scan"}, "lon": -77.03971583333333, "fusion_lon": 0.0, "is_disabled": 0, "lat": 38.8962935, "bike_id": "28bcba4d7ffa93957a2a458a17c93a71", "name": "28bcba4d7ffa93957a2a458a17c93a71", "is_reserved": 0, "fusion_lat": 0.0}, {"type": "electric_scooter", "rental_uris": {"ios": "https://dc.lft.to/lastmile_qr_scan", "android": "https://dc.lft.to/lastmile_qr_scan"}, "lon": -76.989275, "fusion_lon": 0.0, "is_disabled": 0, "lat": 38.840726333333336, "bike_id": "d33f4b45fe38ac872c153fe095a66618", "name": "d33f4b45fe38ac872c153fe095a66618", "is_reserved": 0, "fusion_lat": 0.0}, {"type": "electric_scooter", "rental_uris": {"ios": "https://dc.lft.to/lastmile_qr_scan", "android": "https://dc.lft.to/lastmile_qr_scan"}, "lon": -77.02759133333333, "fusion_lon": 0.0, "is_disabled": 0, "lat": 38.89748916666667, "bike_id": "39feeb05c7ef32433a2047d4a9b4ee54", "name": "39feeb05c7ef32433a2047d4a9b4ee54", "is_reserved": 0, "fusion_lat": 0.0}, {"type": "electric_scooter", "rental_uris": {"ios": "https://dc.lft.to/lastmile_qr_scan", "android": "https://dc.lft.to/lastmile_qr_scan"}, "lon": -77.00391633333334, "fusion_lon": 0.0, "is_disabled": 0, "lat": 38.91064516666667, "bike_id": "9b8d73db3cbfb9b76959468cbde96de2", "name": "9b8d73db3cbfb9b76959468cbde96de2", "is_reserved": 0, "fusion_lat": 0.0}, {"type": "electric_scooter", "rental_uris": {"ios": "https://dc.lft.to/lastmile_qr_scan", "android": "https://dc.lft.to/lastmile_qr_scan"}, "lon": -77.0271035, "fusion_lon": 0.0, "is_disabled": 0, "lat": 38.928791, "bike_id": "df494c0555177223600d2ea514cc1e86", "name": "df494c0555177223600d2ea514cc1e86", "is_reserved": 0, "fusion_lat": 0.0}, {"type": "electric_scooter", "rental_uris": {"ios": "https://dc.lft.to/lastmile_qr_scan", "android": "https://dc.lft.to/lastmile_qr_scan"}, "lon": -77.03724483333333, "fusion_lon": 0.0, "is_disabled": 0, "lat": 38.9171115, "bike_id": "aa3f96b01c63cda71088b0d000fb8ac4", "name": "aa3f96b01c63cda71088b0d000fb8ac4", "is_reserved": 0, "fusion_lat": 0.0}, {"type": "electric_scooter", "rental_uris": {"ios": "https://dc.lft.to/lastmile_qr_scan", "android": "https://dc.lft.to/lastmile_qr_scan"}, "lon": -77.04240616666667, "fusion_lon": 0.0, "is_disabled": 0, "lat": 38.922189833333334, "bike_id": "7b94235a11bf430046938a3c30ca6931", "name": "7b94235a11bf430046938a3c30ca6931", "is_reserved": 0, "fusion_lat": 0.0}, {"type": "electric_scooter", "rental_uris": {"ios": "https://dc.lft.to/lastmile_qr_scan", "android": "https://dc.lft.to/lastmile_qr_scan"}, "lon": -77.02488116666666, "fusion_lon": 0.0, "is_disabled": 0, "lat": 38.93880166666667, "bike_id": "0bc5299f16570426b1cab5251367079a", "name": "0bc5299f16570426b1cab5251367079a", "is_reserved": 0, "fusion_lat": 0.0}, {"type": "electric_scooter", "rental_uris": {"ios": "https://dc.lft.to/lastmile_qr_scan", "android": "https://dc.lft.to/lastmile_qr_scan"}, "lon": -77.02233766666667, "fusion_lon": 0.0, "is_disabled": 0, "lat": 38.912651833333335, "bike_id": "fcf02567be63e08ceb796dbd0d25a1ae", "name": "fcf02567be63e08ceb796dbd0d25a1ae", "is_reserved": 0, "fusion_lat": 0.0}, {"type": "electric_scooter", "rental_uris": {"ios": "https://dc.lft.to/lastmile_qr_scan", "android": "https://dc.lft.to/lastmile_qr_scan"}, "lon": -77.027175, "fusion_lon": 0.0, "is_disabled": 0, "lat": 38.907302333333334, "bike_id": "58c9913a7d6212ec4a2bc057bbe7f304", "name": "58c9913a7d6212ec4a2bc057bbe7f304", "is_reserved": 0, "fusion_lat": 0.0}, {"type": "electric_scooter", "rental_uris": {"ios": "https://dc.lft.to/lastmile_qr_scan", "android": "https://dc.lft.to/lastmile_qr_scan"}, "lon": -77.043313, "fusion_lon": 0.0, "is_disabled": 0, "lat": 38.892216833333336, "bike_id": "33fd49a64f4e7fd6e854ba46ba48f44f", "name": "33fd49a64f4e7fd6e854ba46ba48f44f", "is_reserved": 0, "fusion_lat": 0.0}, {"type": "electric_scooter", "rental_uris": {"ios": "https://dc.lft.to/lastmile_qr_scan", "android": "https://dc.lft.to/lastmile_qr_scan"}, "lon": -77.03439383333334, "fusion_lon": 0.0, "is_disabled": 0, "lat": 38.918370833333334, "bike_id": "c2e703b29370ae39f4e5dc6d79dda334", "name": "c2e703b29370ae39f4e5dc6d79dda334", "is_reserved": 0, "fusion_lat": 0.0}, {"type": "electric_bike", "rental_uris": {"ios": "https://dc.lft.to/lastmile_qr_scan", "android": "https://dc.lft.to/lastmile_qr_scan"}, "lon": -76.92334466666667, "fusion_lon": 0.0, "is_disabled": 0, "lat": 38.871057, "bike_id": "68ffd9451afa0d14c829731958560dfb", "name": "68ffd9451afa0d14c829731958560dfb", "is_reserved": 0, "fusion_lat": 0.0}, {"type": "electric_scooter", "rental_uris": {"ios": "https://dc.lft.to/lastmile_qr_scan", "android": "https://dc.lft.to/lastmile_qr_scan"}, "lon": -76.98779333333333, "fusion_lon": 0.0, "is_disabled": 0, "lat": 38.89820666666667, "bike_id": "f2876cf3af7f0bacbb0d232dec99f2ae", "name": "f2876cf3af7f0bacbb0d232dec99f2ae", "is_reserved": 0, "fusion_lat": 0.0}, {"type": "electric_scooter", "rental_uris": {"ios": "https://dc.lft.to/lastmile_qr_scan", "android": "https://dc.lft.to/lastmile_qr_scan"}, "lon": -77.0283145, "fusion_lon": 0.0, "is_disabled": 0, "lat": 38.931882, "bike_id": "882c5a21e74cf5a38421efdf03a002fb", "name": "882c5a21e74cf5a38421efdf03a002fb", "is_reserved": 0, "fusion_lat": 0.0}, {"type": "electric_scooter", "rental_uris": {"ios": "https://dc.lft.to/lastmile_qr_scan", "android": "https://dc.lft.to/lastmile_qr_scan"}, "lon": -77.03464866666667, "fusion_lon": 0.0, "is_disabled": 0, "lat": 38.90738416666667, "bike_id": "cc633b3b12bcd22d2c83f727c66518f2", "name": "cc633b3b12bcd22d2c83f727c66518f2", "is_reserved": 0, "fusion_lat": 0.0}, {"type": "electric_scooter", "rental_uris": {"ios": "https://dc.lft.to/lastmile_qr_scan", "android": "https://dc.lft.to/lastmile_qr_scan"}, "lon": -77.04283733333334, "fusion_lon": 0.0, "is_disabled": 0, "lat": 38.90386916666667, "bike_id": "7d35800bf5bf6fa5d4791bf3bc1c911d", "name": "7d35800bf5bf6fa5d4791bf3bc1c911d", "is_reserved": 0, "fusion_lat": 0.0}, {"type": "electric_scooter", "rental_uris": {"ios": "https://dc.lft.to/lastmile_qr_scan", "android": "https://dc.lft.to/lastmile_qr_scan"}, "lon": -77.01208766666667, "fusion_lon": 0.0, "is_disabled": 0, "lat": 38.893284333333334, "bike_id": "27a564521cf09f5ad0dd61c99aabe30b", "name": "27a564521cf09f5ad0dd61c99aabe30b", "is_reserved": 0, "fusion_lat": 0.0}, {"type": "electric_scooter", "rental_uris": {"ios": "https://dc.lft.to/lastmile_qr_scan", "android": "https://dc.lft.to/lastmile_qr_scan"}, "lon": -77.038415, "fusion_lon": 0.0, "is_disabled": 0, "lat": 38.92319283333333, "bike_id": "76864caa1161e630676be66cb522309b", "name": "76864caa1161e630676be66cb522309b", "is_reserved": 0, "fusion_lat": 0.0}, {"type": "electric_scooter", "rental_uris": {"ios": "https://dc.lft.to/lastmile_qr_scan", "android": "https://dc.lft.to/lastmile_qr_scan"}, "lon": -77.04465683333333, "fusion_lon": 0.0, "is_disabled": 0, "lat": 38.903506166666666, "bike_id": "99bbc91d578fe1f324c4a4902da31b09", "name": "99bbc91d578fe1f324c4a4902da31b09", "is_reserved": 0, "fusion_lat": 0.0}, {"type": "electric_scooter", "rental_uris": {"ios": "https://dc.lft.to/lastmile_qr_scan", "android": "https://dc.lft.to/lastmile_qr_scan"}, "lon": -77.0415145, "fusion_lon": 0.0, "is_disabled": 0, "lat": 38.926454166666666, "bike_id": "6980fafb999fdc3a40e6b635805c7b9a", "name": "6980fafb999fdc3a40e6b635805c7b9a", "is_reserved": 0, "fusion_lat": 0.0}, {"type": "electric_scooter", "rental_uris": {"ios": "https://dc.lft.to/lastmile_qr_scan", "android": "https://dc.lft.to/lastmile_qr_scan"}, "lon": -77.04254616666667, "fusion_lon": 0.0, "is_disabled": 0, "lat": 38.92196416666667, "bike_id": "f51cbfc702247c25e9db42a306c2ea8c", "name": "f51cbfc702247c25e9db42a306c2ea8c", "is_reserved": 0, "fusion_lat": 0.0}, {"type": "electric_bike", "rental_uris": {"ios": "https://dc.lft.to/lastmile_qr_scan", "android": "https://dc.lft.to/lastmile_qr_scan"}, "lon": -77.0996495, "fusion_lon": 0.0, "is_disabled": 0, "lat": 38.9335185, "bike_id": "17abb582e6ac897604d1fa06d0a18c2a", "name": "17abb582e6ac897604d1fa06d0a18c2a", "is_reserved": 0, "fusion_lat": 0.0}, {"type": "electric_scooter", "rental_uris": {"ios": "https://dc.lft.to/lastmile_qr_scan", "android": "https://dc.lft.to/lastmile_qr_scan"}, "lon": -77.05129583333333, "fusion_lon": 0.0, "is_disabled": 0, "lat": 38.92364416666667, "bike_id": "b913ecc7436d75e46606a274309e5e7b", "name": "b913ecc7436d75e46606a274309e5e7b", "is_reserved": 0, "fusion_lat": 0.0}, {"type": "electric_scooter", "rental_uris": {"ios": "https://dc.lft.to/lastmile_qr_scan", "android": "https://dc.lft.to/lastmile_qr_scan"}, "lon": -77.02408483333333, "fusion_lon": 0.0, "is_disabled": 0, "lat": 38.91745366666667, "bike_id": "823d7185e0d96a87454dbaa4bf5382db", "name": "823d7185e0d96a87454dbaa4bf5382db", "is_reserved": 0, "fusion_lat": 0.0}, {"type": "electric_scooter", "rental_uris": {"ios": "https://dc.lft.to/lastmile_qr_scan", "android": "https://dc.lft.to/lastmile_qr_scan"}, "lon": -77.02195816666666, "fusion_lon": 0.0, "is_disabled": 0, "lat": 38.91011533333333, "bike_id": "f9f74e85de2c76e8da6455bc549634a6", "name": "f9f74e85de2c76e8da6455bc549634a6", "is_reserved": 0, "fusion_lat": 0.0}, {"type": "electric_scooter", "rental_uris": {"ios": "https://dc.lft.to/lastmile_qr_scan", "android": "https://dc.lft.to/lastmile_qr_scan"}, "lon": -77.03190316666667, "fusion_lon": 0.0, "is_disabled": 0, "lat": 38.919232, "bike_id": "a11f9cdcd5479209fc6ff41c3c1bef33", "name": "a11f9cdcd5479209fc6ff41c3c1bef33", "is_reserved": 0, "fusion_lat": 0.0}, {"type": "electric_bike", "rental_uris": {"ios": "https://dc.lft.to/lastmile_qr_scan", "android": "https://dc.lft.to/lastmile_qr_scan"}, "lon": -77.032205, "fusion_lon": 0.0, "is_disabled": 0, "lat": 38.915491333333335, "bike_id": "1a6efeb2f37b54823f1a1519c9f2ec33", "name": "1a6efeb2f37b54823f1a1519c9f2ec33", "is_reserved": 0, "fusion_lat": 0.0}, {"type": "electric_scooter", "rental_uris": {"ios": "https://dc.lft.to/lastmile_qr_scan", "android": "https://dc.lft.to/lastmile_qr_scan"}, "lon": -77.02142933333333, "fusion_lon": 0.0, "is_disabled": 0, "lat": 38.92588166666667, "bike_id": "f39f1b590c09c77a3217e1e82a733ba3", "name": "f39f1b590c09c77a3217e1e82a733ba3", "is_reserved": 0, "fusion_lat": 0.0}, {"type": "electric_scooter", "rental_uris": {"ios": "https://dc.lft.to/lastmile_qr_scan", "android": "https://dc.lft.to/lastmile_qr_scan"}, "lon": -77.03252766666667, "fusion_lon": 0.0, "is_disabled": 0, "lat": 38.92782116666667, "bike_id": "9afbfbc5db153929969d116931b07c6a", "name": "9afbfbc5db153929969d116931b07c6a", "is_reserved": 0, "fusion_lat": 0.0}, {"type": "electric_scooter", "rental_uris": {"ios": "https://dc.lft.to/lastmile_qr_scan", "android": "https://dc.lft.to/lastmile_qr_scan"}, "lon": -77.048737, "fusion_lon": 0.0, "is_disabled": 0, "lat": 38.902222, "bike_id": "3fafcf223a077bee2d42958b95955b07", "name": "3fafcf223a077bee2d42958b95955b07", "is_reserved": 0, "fusion_lat": 0.0}, {"type": "electric_scooter", "rental_uris": {"ios": "https://dc.lft.to/lastmile_qr_scan", "android": "https://dc.lft.to/lastmile_qr_scan"}, "lon": -77.041285, "fusion_lon": 0.0, "is_disabled": 0, "lat": 38.93397266666667, "bike_id": "ff11652ebb2639667adf5d8002cb8163", "name": "ff11652ebb2639667adf5d8002cb8163", "is_reserved": 0, "fusion_lat": 0.0}, {"type": "electric_scooter", "rental_uris": {"ios": "https://dc.lft.to/lastmile_qr_scan", "android": "https://dc.lft.to/lastmile_qr_scan"}, "lon": -77.07275583333333, "fusion_lon": 0.0, "is_disabled": 0, "lat": 38.934884, "bike_id": "b80246315937fe1699ca718683657d30", "name": "b80246315937fe1699ca718683657d30", "is_reserved": 0, "fusion_lat": 0.0}, {"type": "electric_scooter", "rental_uris": {"ios": "https://dc.lft.to/lastmile_qr_scan", "android": "https://dc.lft.to/lastmile_qr_scan"}, "lon": -77.03834783333333, "fusion_lon": 0.0, "is_disabled": 0, "lat": 38.90971283333333, "bike_id": "a51d97d2561fd863337d032af71dd075", "name": "a51d97d2561fd863337d032af71dd075", "is_reserved": 0, "fusion_lat": 0.0}, {"type": "electric_bike", "rental_uris": {"ios": "https://dc.lft.to/lastmile_qr_scan", "android": "https://dc.lft.to/lastmile_qr_scan"}, "lon": -77.04488016666667, "fusion_lon": 0.0, "is_disabled": 0, "lat": 38.8429095, "bike_id": "a8750bee51f6f3bff1b36c401779a76b", "name": "a8750bee51f6f3bff1b36c401779a76b", "is_reserved": 0, "fusion_lat": 0.0}, {"type": "electric_scooter", "rental_uris": {"ios": "https://dc.lft.to/lastmile_qr_scan", "android": "https://dc.lft.to/lastmile_qr_scan"}, "lon": -77.03975883333334, "fusion_lon": 0.0, "is_disabled": 0, "lat": 38.898691, "bike_id": "75baf04eef1fb0dc2c534e2b522e43aa", "name": "75baf04eef1fb0dc2c534e2b522e43aa", "is_reserved": 0, "fusion_lat": 0.0}, {"type": "electric_scooter", "rental_uris": {"ios": "https://dc.lft.to/lastmile_qr_scan", "android": "https://dc.lft.to/lastmile_qr_scan"}, "lon": -77.08289416666666, "fusion_lon": 0.0, "is_disabled": 0, "lat": 38.9609175, "bike_id": "a6f3f02358627b5d1acbed02adc5af6c", "name": "a6f3f02358627b5d1acbed02adc5af6c", "is_reserved": 0, "fusion_lat": 0.0}, {"type": "electric_scooter", "rental_uris": {"ios": "https://dc.lft.to/lastmile_qr_scan", "android": "https://dc.lft.to/lastmile_qr_scan"}, "lon": -77.03315033333334, "fusion_lon": 0.0, "is_disabled": 0, "lat": 38.90333433333333, "bike_id": "45fdd4ecb0025f9af08aa159df64a3a2", "name": "45fdd4ecb0025f9af08aa159df64a3a2", "is_reserved": 0, "fusion_lat": 0.0}, {"type": "electric_scooter", "rental_uris": {"ios": "https://dc.lft.to/lastmile_qr_scan", "android": "https://dc.lft.to/lastmile_qr_scan"}, "lon": -76.99848616666667, "fusion_lon": 0.0, "is_disabled": 0, "lat": 38.900158, "bike_id": "2c55dc3d51139ef362e44510e84da76b", "name": "2c55dc3d51139ef362e44510e84da76b", "is_reserved": 0, "fusion_lat": 0.0}, {"type": "electric_scooter", "rental_uris": {"ios": "https://dc.lft.to/lastmile_qr_scan", "android": "https://dc.lft.to/lastmile_qr_scan"}, "lon": -77.015626, "fusion_lon": 0.0, "is_disabled": 0, "lat": 38.879884, "bike_id": "8f400c3aae049fff815c8561420759d8", "name": "8f400c3aae049fff815c8561420759d8", "is_reserved": 0, "fusion_lat": 0.0}, {"type": "electric_bike", "rental_uris": {"ios": "https://dc.lft.to/lastmile_qr_scan", "android": "https://dc.lft.to/lastmile_qr_scan"}, "lon": -77.11611983333333, "fusion_lon": 0.0, "is_disabled": 0, "lat": 38.85484733333333, "bike_id": "58468906dceb26f558550159992034e3", "name": "58468906dceb26f558550159992034e3", "is_reserved": 0, "fusion_lat": 0.0}, {"type": "electric_scooter", "rental_uris": {"ios": "https://dc.lft.to/lastmile_qr_scan", "android": "https://dc.lft.to/lastmile_qr_scan"}, "lon": -77.03462683333333, "fusion_lon": 0.0, "is_disabled": 0, "lat": 38.935434, "bike_id": "a4f5380fd8cfd44bf2a925a0914214c3", "name": "a4f5380fd8cfd44bf2a925a0914214c3", "is_reserved": 0, "fusion_lat": 0.0}, {"type": "electric_scooter", "rental_uris": {"ios": "https://dc.lft.to/lastmile_qr_scan", "android": "https://dc.lft.to/lastmile_qr_scan"}, "lon": -77.03441133333334, "fusion_lon": 0.0, "is_disabled": 0, "lat": 38.917949666666665, "bike_id": "0eeb682283bd38174ae57d85515ebbd2", "name": "0eeb682283bd38174ae57d85515ebbd2", "is_reserved": 0, "fusion_lat": 0.0}, {"type": "electric_scooter", "rental_uris": {"ios": "https://dc.lft.to/lastmile_qr_scan", "android": "https://dc.lft.to/lastmile_qr_scan"}, "lon": -77.03650816666666, "fusion_lon": 0.0, "is_disabled": 0, "lat": 38.916108666666666, "bike_id": "1a5318f5dd3db6af9eaad3de545888e8", "name": "1a5318f5dd3db6af9eaad3de545888e8", "is_reserved": 0, "fusion_lat": 0.0}, {"type": "electric_scooter", "rental_uris": {"ios": "https://dc.lft.to/lastmile_qr_scan", "android": "https://dc.lft.to/lastmile_qr_scan"}, "lon": -77.0215065, "fusion_lon": 0.0, "is_disabled": 0, "lat": 38.88652483333333, "bike_id": "6e39ccc1e253d954e6556fb518c01bc5", "name": "6e39ccc1e253d954e6556fb518c01bc5", "is_reserved": 0, "fusion_lat": 0.0}, {"type": "electric_bike", "rental_uris": {"ios": "https://dc.lft.to/lastmile_qr_scan", "android": "https://dc.lft.to/lastmile_qr_scan"}, "lon": -76.9887335, "fusion_lon": 0.0, "is_disabled": 0, "lat": 38.92142466666667, "bike_id": "6875b25aaa81bd75148c1750fa60fbb4", "name": "6875b25aaa81bd75148c1750fa60fbb4", "is_reserved": 0, "fusion_lat": 0.0}, {"type": "electric_scooter", "rental_uris": {"ios": "https://dc.lft.to/lastmile_qr_scan", "android": "https://dc.lft.to/lastmile_qr_scan"}, "lon": -77.02694533333333, "fusion_lon": 0.0, "is_disabled": 0, "lat": 38.91124, "bike_id": "16e539df4d5105ccd459e1aa7cf6b7ab", "name": "16e539df4d5105ccd459e1aa7cf6b7ab", "is_reserved": 0, "fusion_lat": 0.0}, {"type": "electric_scooter", "rental_uris": {"ios": "https://dc.lft.to/lastmile_qr_scan", "android": "https://dc.lft.to/lastmile_qr_scan"}, "lon": -77.00763416666666, "fusion_lon": 0.0, "is_disabled": 0, "lat": 38.90713383333333, "bike_id": "d9c3e4301e54bf9e158e154a289d33e1", "name": "d9c3e4301e54bf9e158e154a289d33e1", "is_reserved": 0, "fusion_lat": 0.0}, {"type": "electric_bike", "rental_uris": {"ios": "https://dc.lft.to/lastmile_qr_scan", "android": "https://dc.lft.to/lastmile_qr_scan"}, "lon": -77.1203725, "fusion_lon": 0.0, "is_disabled": 0, "lat": 38.85483466666667, "bike_id": "3841b4dddc7eb30233195914e21b71e3", "name": "3841b4dddc7eb30233195914e21b71e3", "is_reserved": 0, "fusion_lat": 0.0}, {"type": "electric_scooter", "rental_uris": {"ios": "https://dc.lft.to/lastmile_qr_scan", "android": "https://dc.lft.to/lastmile_qr_scan"}, "lon": -77.041624, "fusion_lon": 0.0, "is_disabled": 0, "lat": 38.934129666666664, "bike_id": "15e5348d4ed976019f179e06d80cb7b9", "name": "15e5348d4ed976019f179e06d80cb7b9", "is_reserved": 0, "fusion_lat": 0.0}, {"type": "electric_scooter", "rental_uris": {"ios": "https://dc.lft.to/lastmile_qr_scan", "android": "https://dc.lft.to/lastmile_qr_scan"}, "lon": -77.05133733333334, "fusion_lon": 0.0, "is_disabled": 0, "lat": 38.90504716666667, "bike_id": "c548aa24ef4c706baa08d8b1579b4e90", "name": "c548aa24ef4c706baa08d8b1579b4e90", "is_reserved": 0, "fusion_lat": 0.0}, {"type": "electric_scooter", "rental_uris": {"ios": "https://dc.lft.to/lastmile_qr_scan", "android": "https://dc.lft.to/lastmile_qr_scan"}, "lon": -77.03741916666667, "fusion_lon": 0.0, "is_disabled": 0, "lat": 38.92856033333333, "bike_id": "b4983b33ca5670703f8a3d310f5bbb6d", "name": "b4983b33ca5670703f8a3d310f5bbb6d", "is_reserved": 0, "fusion_lat": 0.0}, {"type": "electric_scooter", "rental_uris": {"ios": "https://dc.lft.to/lastmile_qr_scan", "android": "https://dc.lft.to/lastmile_qr_scan"}, "lon": -77.04015283333334, "fusion_lon": 0.0, "is_disabled": 0, "lat": 38.941934833333335, "bike_id": "277bd866917b685b887d2886f40567dc", "name": "277bd866917b685b887d2886f40567dc", "is_reserved": 0, "fusion_lat": 0.0}, {"type": "electric_scooter", "rental_uris": {"ios": "https://dc.lft.to/lastmile_qr_scan", "android": "https://dc.lft.to/lastmile_qr_scan"}, "lon": -77.03170883333334, "fusion_lon": 0.0, "is_disabled": 0, "lat": 38.89209366666667, "bike_id": "71aa110e6f645fc0d6ff608a597401b2", "name": "71aa110e6f645fc0d6ff608a597401b2", "is_reserved": 0, "fusion_lat": 0.0}, {"type": "electric_scooter", "rental_uris": {"ios": "https://dc.lft.to/lastmile_qr_scan", "android": "https://dc.lft.to/lastmile_qr_scan"}, "lon": -77.048744, "fusion_lon": 0.0, "is_disabled": 0, "lat": 38.90972816666667, "bike_id": "c13329da012cec32caa678325cc61169", "name": "c13329da012cec32caa678325cc61169", "is_reserved": 0, "fusion_lat": 0.0}, {"type": "electric_scooter", "rental_uris": {"ios": "https://dc.lft.to/lastmile_qr_scan", "android": "https://dc.lft.to/lastmile_qr_scan"}, "lon": -76.9900715, "fusion_lon": 0.0, "is_disabled": 0, "lat": 38.90006983333333, "bike_id": "9a27c30884af565450705a7189636b48", "name": "9a27c30884af565450705a7189636b48", "is_reserved": 0, "fusion_lat": 0.0}, {"type": "electric_scooter", "rental_uris": {"ios": "https://dc.lft.to/lastmile_qr_scan", "android": "https://dc.lft.to/lastmile_qr_scan"}, "lon": -77.022826, "fusion_lon": 0.0, "is_disabled": 0, "lat": 38.9168785, "bike_id": "eace38f132b1add432474d799462ae79", "name": "eace38f132b1add432474d799462ae79", "is_reserved": 0, "fusion_lat": 0.0}, {"type": "electric_scooter", "rental_uris": {"ios": "https://dc.lft.to/lastmile_qr_scan", "android": "https://dc.lft.to/lastmile_qr_scan"}, "lon": -77.0269285, "fusion_lon": 0.0, "is_disabled": 0, "lat": 38.89754633333333, "bike_id": "159a2df5d3430373694ab64d462b459b", "name": "159a2df5d3430373694ab64d462b459b", "is_reserved": 0, "fusion_lat": 0.0}, {"type": "electric_scooter", "rental_uris": {"ios": "https://dc.lft.to/lastmile_qr_scan", "android": "https://dc.lft.to/lastmile_qr_scan"}, "lon": -77.04015883333334, "fusion_lon": 0.0, "is_disabled": 0, "lat": 38.922178833333334, "bike_id": "a815c2674b01532ba4ce77fa88990b4c", "name": "a815c2674b01532ba4ce77fa88990b4c", "is_reserved": 0, "fusion_lat": 0.0}, {"type": "electric_scooter", "rental_uris": {"ios": "https://dc.lft.to/lastmile_qr_scan", "android": "https://dc.lft.to/lastmile_qr_scan"}, "lon": -77.02485283333333, "fusion_lon": 0.0, "is_disabled": 0, "lat": 38.938822, "bike_id": "c4d41ec3dec6c30fe231c576916b1f7a", "name": "c4d41ec3dec6c30fe231c576916b1f7a", "is_reserved": 0, "fusion_lat": 0.0}, {"type": "electric_scooter", "rental_uris": {"ios": "https://dc.lft.to/lastmile_qr_scan", "android": "https://dc.lft.to/lastmile_qr_scan"}, "lon": -77.0452045, "fusion_lon": 0.0, "is_disabled": 0, "lat": 38.9331445, "bike_id": "4b1103837c8db9eb8463c3ea15d64b90", "name": "4b1103837c8db9eb8463c3ea15d64b90", "is_reserved": 0, "fusion_lat": 0.0}, {"type": "electric_scooter", "rental_uris": {"ios": "https://dc.lft.to/lastmile_qr_scan", "android": "https://dc.lft.to/lastmile_qr_scan"}, "lon": -77.00586533333333, "fusion_lon": 0.0, "is_disabled": 0, "lat": 38.905797, "bike_id": "d3b56e8940c827b74eb58d20120a37b1", "name": "d3b56e8940c827b74eb58d20120a37b1", "is_reserved": 0, "fusion_lat": 0.0}, {"type": "electric_bike", "rental_uris": {"ios": "https://dc.lft.to/lastmile_qr_scan", "android": "https://dc.lft.to/lastmile_qr_scan"}, "lon": -76.98107383333334, "fusion_lon": 0.0, "is_disabled": 0, "lat": 38.87729566666667, "bike_id": "def1794e540193db36544cca98f9d8d6", "name": "def1794e540193db36544cca98f9d8d6", "is_reserved": 0, "fusion_lat": 0.0}, {"type": "electric_scooter", "rental_uris": {"ios": "https://dc.lft.to/lastmile_qr_scan", "android": "https://dc.lft.to/lastmile_qr_scan"}, "lon": -77.0199345, "fusion_lon": 0.0, "is_disabled": 0, "lat": 38.8987945, "bike_id": "6cf34905f83a47289b717cde620ba41a", "name": "6cf34905f83a47289b717cde620ba41a", "is_reserved": 0, "fusion_lat": 0.0}, {"type": "electric_scooter", "rental_uris": {"ios": "https://dc.lft.to/lastmile_qr_scan", "android": "https://dc.lft.to/lastmile_qr_scan"}, "lon": -77.0416995, "fusion_lon": 0.0, "is_disabled": 0, "lat": 38.9151535, "bike_id": "84f7f1fde1bfd460bd542a695d3c6dd5", "name": "84f7f1fde1bfd460bd542a695d3c6dd5", "is_reserved": 0, "fusion_lat": 0.0}, {"type": "electric_scooter", "rental_uris": {"ios": "https://dc.lft.to/lastmile_qr_scan", "android": "https://dc.lft.to/lastmile_qr_scan"}, "lon": -77.00783016666666, "fusion_lon": 0.0, "is_disabled": 0, "lat": 38.906087166666666, "bike_id": "ce4b34f34c69ada761d3b8622598a0b9", "name": "ce4b34f34c69ada761d3b8622598a0b9", "is_reserved": 0, "fusion_lat": 0.0}, {"type": "electric_scooter", "rental_uris": {"ios": "https://dc.lft.to/lastmile_qr_scan", "android": "https://dc.lft.to/lastmile_qr_scan"}, "lon": -77.0259245, "fusion_lon": 0.0, "is_disabled": 0, "lat": 38.941953, "bike_id": "2a4dfc4d79487e27961fe28d8c834401", "name": "2a4dfc4d79487e27961fe28d8c834401", "is_reserved": 0, "fusion_lat": 0.0}, {"type": "electric_scooter", "rental_uris": {"ios": "https://dc.lft.to/lastmile_qr_scan", "android": "https://dc.lft.to/lastmile_qr_scan"}, "lon": -77.01620983333333, "fusion_lon": 0.0, "is_disabled": 0, "lat": 38.898142, "bike_id": "1f633d28a3317c0e1a9704fd6cafb208", "name": "1f633d28a3317c0e1a9704fd6cafb208", "is_reserved": 0, "fusion_lat": 0.0}, {"type": "electric_scooter", "rental_uris": {"ios": "https://dc.lft.to/lastmile_qr_scan", "android": "https://dc.lft.to/lastmile_qr_scan"}, "lon": -77.02298916666666, "fusion_lon": 0.0, "is_disabled": 0, "lat": 38.9161415, "bike_id": "aac481ba4799a1b965237b4ce0fd19a3", "name": "aac481ba4799a1b965237b4ce0fd19a3", "is_reserved": 0, "fusion_lat": 0.0}, {"type": "electric_scooter", "rental_uris": {"ios": "https://dc.lft.to/lastmile_qr_scan", "android": "https://dc.lft.to/lastmile_qr_scan"}, "lon": -76.98543599999999, "fusion_lon": 0.0, "is_disabled": 0, "lat": 38.86676083333333, "bike_id": "b5bfb8b1abe7ca5c8e274733740f535f", "name": "b5bfb8b1abe7ca5c8e274733740f535f", "is_reserved": 0, "fusion_lat": 0.0}, {"type": "electric_scooter", "rental_uris": {"ios": "https://dc.lft.to/lastmile_qr_scan", "android": "https://dc.lft.to/lastmile_qr_scan"}, "lon": -77.03445166666667, "fusion_lon": 0.0, "is_disabled": 0, "lat": 38.91845416666666, "bike_id": "8c00576b799300364b211cf7a689546a", "name": "8c00576b799300364b211cf7a689546a", "is_reserved": 0, "fusion_lat": 0.0}, {"type": "electric_scooter", "rental_uris": {"ios": "https://dc.lft.to/lastmile_qr_scan", "android": "https://dc.lft.to/lastmile_qr_scan"}, "lon": -76.983547, "fusion_lon": 0.0, "is_disabled": 0, "lat": 38.91251583333333, "bike_id": "ae453e90129527f0e8536ffd0ef88372", "name": "ae453e90129527f0e8536ffd0ef88372", "is_reserved": 0, "fusion_lat": 0.0}, {"type": "electric_scooter", "rental_uris": {"ios": "https://dc.lft.to/lastmile_qr_scan", "android": "https://dc.lft.to/lastmile_qr_scan"}, "lon": -77.0459005, "fusion_lon": 0.0, "is_disabled": 0, "lat": 38.90862683333334, "bike_id": "7db0312c7a1b44642d6dc535c2759244", "name": "7db0312c7a1b44642d6dc535c2759244", "is_reserved": 0, "fusion_lat": 0.0}, {"type": "electric_scooter", "rental_uris": {"ios": "https://dc.lft.to/lastmile_qr_scan", "android": "https://dc.lft.to/lastmile_qr_scan"}, "lon": -77.03182716666667, "fusion_lon": 0.0, "is_disabled": 0, "lat": 38.913257, "bike_id": "08f723c478efd4e499dc96052f248fb6", "name": "08f723c478efd4e499dc96052f248fb6", "is_reserved": 0, "fusion_lat": 0.0}, {"type": "electric_scooter", "rental_uris": {"ios": "https://dc.lft.to/lastmile_qr_scan", "android": "https://dc.lft.to/lastmile_qr_scan"}, "lon": -77.00597583333334, "fusion_lon": 0.0, "is_disabled": 0, "lat": 38.8367675, "bike_id": "f9f00cd9038e1ccaa5cdf7ce780b66bd", "name": "f9f00cd9038e1ccaa5cdf7ce780b66bd", "is_reserved": 0, "fusion_lat": 0.0}, {"type": "electric_scooter", "rental_uris": {"ios": "https://dc.lft.to/lastmile_qr_scan", "android": "https://dc.lft.to/lastmile_qr_scan"}, "lon": -77.051349, "fusion_lon": 0.0, "is_disabled": 0, "lat": 38.923665666666665, "bike_id": "a3124c4fc9575fa6d44bebf5644a0987", "name": "a3124c4fc9575fa6d44bebf5644a0987", "is_reserved": 0, "fusion_lat": 0.0}, {"type": "electric_scooter", "rental_uris": {"ios": "https://dc.lft.to/lastmile_qr_scan", "android": "https://dc.lft.to/lastmile_qr_scan"}, "lon": -77.02807633333333, "fusion_lon": 0.0, "is_disabled": 0, "lat": 38.95082516666667, "bike_id": "75a44348675d9b77075c53e882fc901c", "name": "75a44348675d9b77075c53e882fc901c", "is_reserved": 0, "fusion_lat": 0.0}, {"type": "electric_bike", "rental_uris": {"ios": "https://dc.lft.to/lastmile_qr_scan", "android": "https://dc.lft.to/lastmile_qr_scan"}, "lon": -77.01711483333334, "fusion_lon": 0.0, "is_disabled": 0, "lat": 38.9142685, "bike_id": "83b66b8ecc6f9a69ec6b9ae4cb40f229", "name": "83b66b8ecc6f9a69ec6b9ae4cb40f229", "is_reserved": 0, "fusion_lat": 0.0}, {"type": "electric_scooter", "rental_uris": {"ios": "https://dc.lft.to/lastmile_qr_scan", "android": "https://dc.lft.to/lastmile_qr_scan"}, "lon": -77.05583183333333, "fusion_lon": 0.0, "is_disabled": 0, "lat": 38.9104715, "bike_id": "6926d402627f2da327dd89776d2267a9", "name": "6926d402627f2da327dd89776d2267a9", "is_reserved": 0, "fusion_lat": 0.0}, {"type": "electric_scooter", "rental_uris": {"ios": "https://dc.lft.to/lastmile_qr_scan", "android": "https://dc.lft.to/lastmile_qr_scan"}, "lon": -77.02216683333333, "fusion_lon": 0.0, "is_disabled": 0, "lat": 38.912502, "bike_id": "20f7accf8725e07dbf3618c7a39bc909", "name": "20f7accf8725e07dbf3618c7a39bc909", "is_reserved": 0, "fusion_lat": 0.0}, {"type": "electric_scooter", "rental_uris": {"ios": "https://dc.lft.to/lastmile_qr_scan", "android": "https://dc.lft.to/lastmile_qr_scan"}, "lon": -77.04509133333333, "fusion_lon": 0.0, "is_disabled": 0, "lat": 38.91281, "bike_id": "926172f08ed12375f15ffe77d1aa2c4c", "name": "926172f08ed12375f15ffe77d1aa2c4c", "is_reserved": 0, "fusion_lat": 0.0}, {"type": "electric_scooter", "rental_uris": {"ios": "https://dc.lft.to/lastmile_qr_scan", "android": "https://dc.lft.to/lastmile_qr_scan"}, "lon": -76.99142533333334, "fusion_lon": 0.0, "is_disabled": 0, "lat": 38.85948166666667, "bike_id": "ec266666ded0ebf9b81b11f56f72cd6e", "name": "ec266666ded0ebf9b81b11f56f72cd6e", "is_reserved": 0, "fusion_lat": 0.0}, {"type": "electric_scooter", "rental_uris": {"ios": "https://dc.lft.to/lastmile_qr_scan", "android": "https://dc.lft.to/lastmile_qr_scan"}, "lon": -77.03150416666666, "fusion_lon": 0.0, "is_disabled": 0, "lat": 38.927843, "bike_id": "c57a02f4f1663fba57863b5f0a486ff9", "name": "c57a02f4f1663fba57863b5f0a486ff9", "is_reserved": 0, "fusion_lat": 0.0}, {"type": "electric_scooter", "rental_uris": {"ios": "https://dc.lft.to/lastmile_qr_scan", "android": "https://dc.lft.to/lastmile_qr_scan"}, "lon": -77.03174216666666, "fusion_lon": 0.0, "is_disabled": 0, "lat": 38.91549083333334, "bike_id": "cf0e1a4141ef6fc3ad71248e4e9d6a6e", "name": "cf0e1a4141ef6fc3ad71248e4e9d6a6e", "is_reserved": 0, "fusion_lat": 0.0}, {"type": "electric_scooter", "rental_uris": {"ios": "https://dc.lft.to/lastmile_qr_scan", "android": "https://dc.lft.to/lastmile_qr_scan"}, "lon": -77.01971533333334, "fusion_lon": 0.0, "is_disabled": 0, "lat": 38.90241116666667, "bike_id": "66722f63692665c38caddd6c25068dc0", "name": "66722f63692665c38caddd6c25068dc0", "is_reserved": 0, "fusion_lat": 0.0}, {"type": "electric_scooter", "rental_uris": {"ios": "https://dc.lft.to/lastmile_qr_scan", "android": "https://dc.lft.to/lastmile_qr_scan"}, "lon": -77.04336433333333, "fusion_lon": 0.0, "is_disabled": 0, "lat": 38.89224766666667, "bike_id": "20917eec4241131ba3650648f6ae37de", "name": "20917eec4241131ba3650648f6ae37de", "is_reserved": 0, "fusion_lat": 0.0}, {"type": "electric_scooter", "rental_uris": {"ios": "https://dc.lft.to/lastmile_qr_scan", "android": "https://dc.lft.to/lastmile_qr_scan"}, "lon": -76.99850233333333, "fusion_lon": 0.0, "is_disabled": 0, "lat": 38.901549833333334, "bike_id": "3837341dc2fa1d6a88567042c361cdee", "name": "3837341dc2fa1d6a88567042c361cdee", "is_reserved": 0, "fusion_lat": 0.0}, {"type": "electric_scooter", "rental_uris": {"ios": "https://dc.lft.to/lastmile_qr_scan", "android": "https://dc.lft.to/lastmile_qr_scan"}, "lon": -77.02185083333333, "fusion_lon": 0.0, "is_disabled": 0, "lat": 38.91744383333333, "bike_id": "5968bd337aa7590c1d9440c05246c505", "name": "5968bd337aa7590c1d9440c05246c505", "is_reserved": 0, "fusion_lat": 0.0}, {"type": "electric_scooter", "rental_uris": {"ios": "https://dc.lft.to/lastmile_qr_scan", "android": "https://dc.lft.to/lastmile_qr_scan"}, "lon": -77.07237483333333, "fusion_lon": 0.0, "is_disabled": 0, "lat": 38.89897933333334, "bike_id": "006a85661e849c807dd1e23d339092ba", "name": "006a85661e849c807dd1e23d339092ba", "is_reserved": 0, "fusion_lat": 0.0}, {"type": "electric_scooter", "rental_uris": {"ios": "https://dc.lft.to/lastmile_qr_scan", "android": "https://dc.lft.to/lastmile_qr_scan"}, "lon": -77.04551283333333, "fusion_lon": 0.0, "is_disabled": 0, "lat": 38.9126715, "bike_id": "72c19c7b92a3fb54402e78ba44ae909a", "name": "72c19c7b92a3fb54402e78ba44ae909a", "is_reserved": 0, "fusion_lat": 0.0}, {"type": "electric_scooter", "rental_uris": {"ios": "https://dc.lft.to/lastmile_qr_scan", "android": "https://dc.lft.to/lastmile_qr_scan"}, "lon": -77.02538183333333, "fusion_lon": 0.0, "is_disabled": 0, "lat": 38.9236795, "bike_id": "588beb36d489f6762e88ff6ddeb96553", "name": "588beb36d489f6762e88ff6ddeb96553", "is_reserved": 0, "fusion_lat": 0.0}, {"type": "electric_scooter", "rental_uris": {"ios": "https://dc.lft.to/lastmile_qr_scan", "android": "https://dc.lft.to/lastmile_qr_scan"}, "lon": -77.03441916666667, "fusion_lon": 0.0, "is_disabled": 0, "lat": 38.908075333333336, "bike_id": "2a6db2b4a340bd0e18632bff6e4c91b3", "name": "2a6db2b4a340bd0e18632bff6e4c91b3", "is_reserved": 0, "fusion_lat": 0.0}, {"type": "electric_scooter", "rental_uris": {"ios": "https://dc.lft.to/lastmile_qr_scan", "android": "https://dc.lft.to/lastmile_qr_scan"}, "lon": -77.02179333333333, "fusion_lon": 0.0, "is_disabled": 0, "lat": 38.91481383333333, "bike_id": "cdd7567372380c591b592e76b47cdec8", "name": "cdd7567372380c591b592e76b47cdec8", "is_reserved": 0, "fusion_lat": 0.0}, {"type": "electric_scooter", "rental_uris": {"ios": "https://dc.lft.to/lastmile_qr_scan", "android": "https://dc.lft.to/lastmile_qr_scan"}, "lon": -77.0153845, "fusion_lon": 0.0, "is_disabled": 0, "lat": 38.891644, "bike_id": "161b088b50c314644936875d2d5890e6", "name": "161b088b50c314644936875d2d5890e6", "is_reserved": 0, "fusion_lat": 0.0}, {"type": "electric_scooter", "rental_uris": {"ios": "https://dc.lft.to/lastmile_qr_scan", "android": "https://dc.lft.to/lastmile_qr_scan"}, "lon": -77.0219595, "fusion_lon": 0.0, "is_disabled": 0, "lat": 38.93291466666667, "bike_id": "9301c22963ff1db2db1f3b6d57f44bf2", "name": "9301c22963ff1db2db1f3b6d57f44bf2", "is_reserved": 0, "fusion_lat": 0.0}, {"type": "electric_scooter", "rental_uris": {"ios": "https://dc.lft.to/lastmile_qr_scan", "android": "https://dc.lft.to/lastmile_qr_scan"}, "lon": -77.0233465, "fusion_lon": 0.0, "is_disabled": 0, "lat": 38.92301833333333, "bike_id": "ab468c11ff30751684c16f905495a3bf", "name": "ab468c11ff30751684c16f905495a3bf", "is_reserved": 0, "fusion_lat": 0.0}, {"type": "electric_scooter", "rental_uris": {"ios": "https://dc.lft.to/lastmile_qr_scan", "android": "https://dc.lft.to/lastmile_qr_scan"}, "lon": -77.0423255, "fusion_lon": 0.0, "is_disabled": 0, "lat": 38.921990666666666, "bike_id": "e799cbb4606267a4b6c144f45bd17458", "name": "e799cbb4606267a4b6c144f45bd17458", "is_reserved": 0, "fusion_lat": 0.0}, {"type": "electric_scooter", "rental_uris": {"ios": "https://dc.lft.to/lastmile_qr_scan", "android": "https://dc.lft.to/lastmile_qr_scan"}, "lon": -77.05276916666666, "fusion_lon": 0.0, "is_disabled": 0, "lat": 38.92540433333333, "bike_id": "00ab6886e1fa9b8f2cbc7fca8a10c130", "name": "00ab6886e1fa9b8f2cbc7fca8a10c130", "is_reserved": 0, "fusion_lat": 0.0}, {"type": "electric_scooter", "rental_uris": {"ios": "https://dc.lft.to/lastmile_qr_scan", "android": "https://dc.lft.to/lastmile_qr_scan"}, "lon": -77.02694216666667, "fusion_lon": 0.0, "is_disabled": 0, "lat": 38.911248, "bike_id": "25e0c9cf562c0be39b343ba593a978cf", "name": "25e0c9cf562c0be39b343ba593a978cf", "is_reserved": 0, "fusion_lat": 0.0}, {"type": "electric_scooter", "rental_uris": {"ios": "https://dc.lft.to/lastmile_qr_scan", "android": "https://dc.lft.to/lastmile_qr_scan"}, "lon": -76.960127, "fusion_lon": 0.0, "is_disabled": 0, "lat": 38.880176, "bike_id": "967ea4022a999736cbd6281cdfad7fe1", "name": "967ea4022a999736cbd6281cdfad7fe1", "is_reserved": 0, "fusion_lat": 0.0}, {"type": "electric_scooter", "rental_uris": {"ios": "https://dc.lft.to/lastmile_qr_scan", "android": "https://dc.lft.to/lastmile_qr_scan"}, "lon": -77.03088733333334, "fusion_lon": 0.0, "is_disabled": 0, "lat": 38.938606666666665, "bike_id": "f9420ccf84e319c40e6b5ed4b651941f", "name": "f9420ccf84e319c40e6b5ed4b651941f", "is_reserved": 0, "fusion_lat": 0.0}, {"type": "electric_scooter", "rental_uris": {"ios": "https://dc.lft.to/lastmile_qr_scan", "android": "https://dc.lft.to/lastmile_qr_scan"}, "lon": -77.05133483333333, "fusion_lon": 0.0, "is_disabled": 0, "lat": 38.923649, "bike_id": "e5162c5d1bbd5cbfba04e001505eb26f", "name": "e5162c5d1bbd5cbfba04e001505eb26f", "is_reserved": 0, "fusion_lat": 0.0}, {"type": "electric_scooter", "rental_uris": {"ios": "https://dc.lft.to/lastmile_qr_scan", "android": "https://dc.lft.to/lastmile_qr_scan"}, "lon": -76.9888965, "fusion_lon": 0.0, "is_disabled": 0, "lat": 38.86642416666667, "bike_id": "9d239faadd0a474b9ee97eead634c3be", "name": "9d239faadd0a474b9ee97eead634c3be", "is_reserved": 0, "fusion_lat": 0.0}, {"type": "electric_scooter", "rental_uris": {"ios": "https://dc.lft.to/lastmile_qr_scan", "android": "https://dc.lft.to/lastmile_qr_scan"}, "lon": -77.028128, "fusion_lon": 0.0, "is_disabled": 0, "lat": 38.89569733333333, "bike_id": "0cd795c3def8b5e9f63100dfb321157d", "name": "0cd795c3def8b5e9f63100dfb321157d", "is_reserved": 0, "fusion_lat": 0.0}, {"type": "electric_scooter", "rental_uris": {"ios": "https://dc.lft.to/lastmile_qr_scan", "android": "https://dc.lft.to/lastmile_qr_scan"}, "lon": -77.0207965, "fusion_lon": 0.0, "is_disabled": 0, "lat": 38.875665166666664, "bike_id": "72560039649824a53b7b5bb6c5e1f62d", "name": "72560039649824a53b7b5bb6c5e1f62d", "is_reserved": 0, "fusion_lat": 0.0}, {"type": "electric_scooter", "rental_uris": {"ios": "https://dc.lft.to/lastmile_qr_scan", "android": "https://dc.lft.to/lastmile_qr_scan"}, "lon": -77.07304116666667, "fusion_lon": 0.0, "is_disabled": 0, "lat": 38.9214725, "bike_id": "3b7c6e5fc5a0e29e7a9c3de02ac568a9", "name": "3b7c6e5fc5a0e29e7a9c3de02ac568a9", "is_reserved": 0, "fusion_lat": 0.0}, {"type": "electric_scooter", "rental_uris": {"ios": "https://dc.lft.to/lastmile_qr_scan", "android": "https://dc.lft.to/lastmile_qr_scan"}, "lon": -77.0488025, "fusion_lon": 0.0, "is_disabled": 0, "lat": 38.91332233333333, "bike_id": "bd0f6124b3a6a3b5f471f00236ad72eb", "name": "bd0f6124b3a6a3b5f471f00236ad72eb", "is_reserved": 0, "fusion_lat": 0.0}, {"type": "electric_bike", "rental_uris": {"ios": "https://dc.lft.to/lastmile_qr_scan", "android": "https://dc.lft.to/lastmile_qr_scan"}, "lon": -77.09486316666667, "fusion_lon": 0.0, "is_disabled": 0, "lat": 39.03046833333333, "bike_id": "a6dd939286028780d9ece61c36f94f12", "name": "a6dd939286028780d9ece61c36f94f12", "is_reserved": 0, "fusion_lat": 0.0}, {"type": "electric_scooter", "rental_uris": {"ios": "https://dc.lft.to/lastmile_qr_scan", "android": "https://dc.lft.to/lastmile_qr_scan"}, "lon": -77.04745083333333, "fusion_lon": 0.0, "is_disabled": 0, "lat": 38.90192833333333, "bike_id": "a248b0705befc475ad6b333cc233fc05", "name": "a248b0705befc475ad6b333cc233fc05", "is_reserved": 0, "fusion_lat": 0.0}, {"type": "electric_scooter", "rental_uris": {"ios": "https://dc.lft.to/lastmile_qr_scan", "android": "https://dc.lft.to/lastmile_qr_scan"}, "lon": -77.05267866666667, "fusion_lon": 0.0, "is_disabled": 0, "lat": 38.899678333333334, "bike_id": "3541950bffa225d36457972ca5454c4f", "name": "3541950bffa225d36457972ca5454c4f", "is_reserved": 0, "fusion_lat": 0.0}, {"type": "electric_scooter", "rental_uris": {"ios": "https://dc.lft.to/lastmile_qr_scan", "android": "https://dc.lft.to/lastmile_qr_scan"}, "lon": -77.0446195, "fusion_lon": 0.0, "is_disabled": 0, "lat": 38.911150166666665, "bike_id": "64a1c5466de91ea4a9e96628aabe7bf9", "name": "64a1c5466de91ea4a9e96628aabe7bf9", "is_reserved": 0, "fusion_lat": 0.0}, {"type": "electric_scooter", "rental_uris": {"ios": "https://dc.lft.to/lastmile_qr_scan", "android": "https://dc.lft.to/lastmile_qr_scan"}, "lon": -76.97239783333333, "fusion_lon": 0.0, "is_disabled": 0, "lat": 38.854586833333336, "bike_id": "0b8f930ce424151b9a7c83844889e57d", "name": "0b8f930ce424151b9a7c83844889e57d", "is_reserved": 0, "fusion_lat": 0.0}, {"type": "electric_scooter", "rental_uris": {"ios": "https://dc.lft.to/lastmile_qr_scan", "android": "https://dc.lft.to/lastmile_qr_scan"}, "lon": -77.05021133333334, "fusion_lon": 0.0, "is_disabled": 0, "lat": 38.90311333333333, "bike_id": "5e014221644e8df8339b3e737ff7116a", "name": "5e014221644e8df8339b3e737ff7116a", "is_reserved": 0, "fusion_lat": 0.0}, {"type": "electric_scooter", "rental_uris": {"ios": "https://dc.lft.to/lastmile_qr_scan", "android": "https://dc.lft.to/lastmile_qr_scan"}, "lon": -76.97331416666667, "fusion_lon": 0.0, "is_disabled": 0, "lat": 38.9040705, "bike_id": "a6270d1c700fc388d5d272de95ca690e", "name": "a6270d1c700fc388d5d272de95ca690e", "is_reserved": 0, "fusion_lat": 0.0}, {"type": "electric_scooter", "rental_uris": {"ios": "https://dc.lft.to/lastmile_qr_scan", "android": "https://dc.lft.to/lastmile_qr_scan"}, "lon": -77.00062283333334, "fusion_lon": 0.0, "is_disabled": 0, "lat": 38.90566583333333, "bike_id": "fabbd190eb9c234e25426dc8a9f0057f", "name": "fabbd190eb9c234e25426dc8a9f0057f", "is_reserved": 0, "fusion_lat": 0.0}, {"type": "electric_scooter", "rental_uris": {"ios": "https://dc.lft.to/lastmile_qr_scan", "android": "https://dc.lft.to/lastmile_qr_scan"}, "lon": -77.04041016666666, "fusion_lon": 0.0, "is_disabled": 0, "lat": 38.9038695, "bike_id": "3fe03ce3fbfebe4c4e857cc2998ee896", "name": "3fe03ce3fbfebe4c4e857cc2998ee896", "is_reserved": 0, "fusion_lat": 0.0}, {"type": "electric_scooter", "rental_uris": {"ios": "https://dc.lft.to/lastmile_qr_scan", "android": "https://dc.lft.to/lastmile_qr_scan"}, "lon": -77.0436435, "fusion_lon": 0.0, "is_disabled": 0, "lat": 38.902249, "bike_id": "a92c2fcd825c16426686862f1937d732", "name": "a92c2fcd825c16426686862f1937d732", "is_reserved": 0, "fusion_lat": 0.0}, {"type": "electric_scooter", "rental_uris": {"ios": "https://dc.lft.to/lastmile_qr_scan", "android": "https://dc.lft.to/lastmile_qr_scan"}, "lon": -77.00681583333333, "fusion_lon": 0.0, "is_disabled": 0, "lat": 38.88512166666667, "bike_id": "3a6da7bc660810fc2d5a3b49b80420c7", "name": "3a6da7bc660810fc2d5a3b49b80420c7", "is_reserved": 0, "fusion_lat": 0.0}, {"type": "electric_scooter", "rental_uris": {"ios": "https://dc.lft.to/lastmile_qr_scan", "android": "https://dc.lft.to/lastmile_qr_scan"}, "lon": -76.99390433333333, "fusion_lon": 0.0, "is_disabled": 0, "lat": 38.910076, "bike_id": "9b35bc01dc6604d471d02439582bf088", "name": "9b35bc01dc6604d471d02439582bf088", "is_reserved": 0, "fusion_lat": 0.0}, {"type": "electric_scooter", "rental_uris": {"ios": "https://dc.lft.to/lastmile_qr_scan", "android": "https://dc.lft.to/lastmile_qr_scan"}, "lon": -77.068919, "fusion_lon": 0.0, "is_disabled": 0, "lat": 38.90415866666667, "bike_id": "29cd4b78542c1ecfdf417b5eb3414956", "name": "29cd4b78542c1ecfdf417b5eb3414956", "is_reserved": 0, "fusion_lat": 0.0}, {"type": "electric_scooter", "rental_uris": {"ios": "https://dc.lft.to/lastmile_qr_scan", "android": "https://dc.lft.to/lastmile_qr_scan"}, "lon": -77.02183883333333, "fusion_lon": 0.0, "is_disabled": 0, "lat": 38.9156905, "bike_id": "6d553607ab8cabeeaa5d3900bd1579ff", "name": "6d553607ab8cabeeaa5d3900bd1579ff", "is_reserved": 0, "fusion_lat": 0.0}, {"type": "electric_scooter", "rental_uris": {"ios": "https://dc.lft.to/lastmile_qr_scan", "android": "https://dc.lft.to/lastmile_qr_scan"}, "lon": -77.03633383333333, "fusion_lon": 0.0, "is_disabled": 0, "lat": 38.93283483333333, "bike_id": "d59a455491e93522fb4da1852245c474", "name": "d59a455491e93522fb4da1852245c474", "is_reserved": 0, "fusion_lat": 0.0}, {"type": "electric_scooter", "rental_uris": {"ios": "https://dc.lft.to/lastmile_qr_scan", "android": "https://dc.lft.to/lastmile_qr_scan"}, "lon": -76.93526633333333, "fusion_lon": 0.0, "is_disabled": 0, "lat": 38.878893833333336, "bike_id": "b3b200b36955b3b04594c004bfeac76f", "name": "b3b200b36955b3b04594c004bfeac76f", "is_reserved": 0, "fusion_lat": 0.0}, {"type": "electric_scooter", "rental_uris": {"ios": "https://dc.lft.to/lastmile_qr_scan", "android": "https://dc.lft.to/lastmile_qr_scan"}, "lon": -77.03248416666666, "fusion_lon": 0.0, "is_disabled": 0, "lat": 38.899230333333335, "bike_id": "af96ee7f8f47bc7744db78b6613c89f7", "name": "af96ee7f8f47bc7744db78b6613c89f7", "is_reserved": 0, "fusion_lat": 0.0}, {"type": "electric_scooter", "rental_uris": {"ios": "https://dc.lft.to/lastmile_qr_scan", "android": "https://dc.lft.to/lastmile_qr_scan"}, "lon": -77.03531616666666, "fusion_lon": 0.0, "is_disabled": 0, "lat": 38.9182115, "bike_id": "52eba0f2e05523603f5b6e88ecc7559e", "name": "52eba0f2e05523603f5b6e88ecc7559e", "is_reserved": 0, "fusion_lat": 0.0}, {"type": "electric_scooter", "rental_uris": {"ios": "https://dc.lft.to/lastmile_qr_scan", "android": "https://dc.lft.to/lastmile_qr_scan"}, "lon": -77.010641, "fusion_lon": 0.0, "is_disabled": 0, "lat": 38.896060166666665, "bike_id": "d066b7a2709b7a1806d86c4562d357a3", "name": "d066b7a2709b7a1806d86c4562d357a3", "is_reserved": 0, "fusion_lat": 0.0}, {"type": "electric_scooter", "rental_uris": {"ios": "https://dc.lft.to/lastmile_qr_scan", "android": "https://dc.lft.to/lastmile_qr_scan"}, "lon": -77.03852466666666, "fusion_lon": 0.0, "is_disabled": 0, "lat": 38.91687016666667, "bike_id": "4fa6b2fbb375d80d1274e7b0a529d59e", "name": "4fa6b2fbb375d80d1274e7b0a529d59e", "is_reserved": 0, "fusion_lat": 0.0}, {"type": "electric_scooter", "rental_uris": {"ios": "https://dc.lft.to/lastmile_qr_scan", "android": "https://dc.lft.to/lastmile_qr_scan"}, "lon": -77.03654716666667, "fusion_lon": 0.0, "is_disabled": 0, "lat": 38.92074566666667, "bike_id": "82887acd8df4d25b71fc2782f8686688", "name": "82887acd8df4d25b71fc2782f8686688", "is_reserved": 0, "fusion_lat": 0.0}, {"type": "electric_scooter", "rental_uris": {"ios": "https://dc.lft.to/lastmile_qr_scan", "android": "https://dc.lft.to/lastmile_qr_scan"}, "lon": -77.041993, "fusion_lon": 0.0, "is_disabled": 0, "lat": 38.8921925, "bike_id": "fdf37ea59b64fb3081a85222f987d4a2", "name": "fdf37ea59b64fb3081a85222f987d4a2", "is_reserved": 0, "fusion_lat": 0.0}, {"type": "electric_scooter", "rental_uris": {"ios": "https://dc.lft.to/lastmile_qr_scan", "android": "https://dc.lft.to/lastmile_qr_scan"}, "lon": -77.01739016666667, "fusion_lon": 0.0, "is_disabled": 0, "lat": 38.92100216666667, "bike_id": "f9ae42ec6c4846e6492924e8262353c3", "name": "f9ae42ec6c4846e6492924e8262353c3", "is_reserved": 0, "fusion_lat": 0.0}, {"type": "electric_scooter", "rental_uris": {"ios": "https://dc.lft.to/lastmile_qr_scan", "android": "https://dc.lft.to/lastmile_qr_scan"}, "lon": -77.03868766666666, "fusion_lon": 0.0, "is_disabled": 0, "lat": 38.91458633333333, "bike_id": "d266526779a69330880acc7add407a4e", "name": "d266526779a69330880acc7add407a4e", "is_reserved": 0, "fusion_lat": 0.0}, {"type": "electric_scooter", "rental_uris": {"ios": "https://dc.lft.to/lastmile_qr_scan", "android": "https://dc.lft.to/lastmile_qr_scan"}, "lon": -77.03190183333334, "fusion_lon": 0.0, "is_disabled": 0, "lat": 38.91739283333333, "bike_id": "a222fb61ef3752aa2c23913c6db7fe87", "name": "a222fb61ef3752aa2c23913c6db7fe87", "is_reserved": 0, "fusion_lat": 0.0}, {"type": "electric_scooter", "rental_uris": {"ios": "https://dc.lft.to/lastmile_qr_scan", "android": "https://dc.lft.to/lastmile_qr_scan"}, "lon": -77.02130983333333, "fusion_lon": 0.0, "is_disabled": 0, "lat": 38.88739783333333, "bike_id": "2ab042f61ac37ee57545e3fa57082c3b", "name": "2ab042f61ac37ee57545e3fa57082c3b", "is_reserved": 0, "fusion_lat": 0.0}, {"type": "electric_scooter", "rental_uris": {"ios": "https://dc.lft.to/lastmile_qr_scan", "android": "https://dc.lft.to/lastmile_qr_scan"}, "lon": -77.03240266666667, "fusion_lon": 0.0, "is_disabled": 0, "lat": 38.9087885, "bike_id": "470d13ace7d224e67fac8a79c4bb77af", "name": "470d13ace7d224e67fac8a79c4bb77af", "is_reserved": 0, "fusion_lat": 0.0}, {"type": "electric_scooter", "rental_uris": {"ios": "https://dc.lft.to/lastmile_qr_scan", "android": "https://dc.lft.to/lastmile_qr_scan"}, "lon": -76.99909216666667, "fusion_lon": 0.0, "is_disabled": 0, "lat": 38.948221333333336, "bike_id": "f3dcc1fe14a1bc6f4f536897a7791a55", "name": "f3dcc1fe14a1bc6f4f536897a7791a55", "is_reserved": 0, "fusion_lat": 0.0}, {"type": "electric_scooter", "rental_uris": {"ios": "https://dc.lft.to/lastmile_qr_scan", "android": "https://dc.lft.to/lastmile_qr_scan"}, "lon": -77.06028883333333, "fusion_lon": 0.0, "is_disabled": 0, "lat": 38.944527, "bike_id": "5d8fe823e093e95d26f1a6584debb97b", "name": "5d8fe823e093e95d26f1a6584debb97b", "is_reserved": 0, "fusion_lat": 0.0}, {"type": "electric_scooter", "rental_uris": {"ios": "https://dc.lft.to/lastmile_qr_scan", "android": "https://dc.lft.to/lastmile_qr_scan"}, "lon": -77.02591966666667, "fusion_lon": 0.0, "is_disabled": 0, "lat": 38.94196383333333, "bike_id": "29df7e5879a27b1e16d5272e24ce38b1", "name": "29df7e5879a27b1e16d5272e24ce38b1", "is_reserved": 0, "fusion_lat": 0.0}, {"type": "electric_scooter", "rental_uris": {"ios": "https://dc.lft.to/lastmile_qr_scan", "android": "https://dc.lft.to/lastmile_qr_scan"}, "lon": -77.02185616666667, "fusion_lon": 0.0, "is_disabled": 0, "lat": 38.91480466666667, "bike_id": "5be5a9ba66a1aaf510ff9a9d659281b1", "name": "5be5a9ba66a1aaf510ff9a9d659281b1", "is_reserved": 0, "fusion_lat": 0.0}, {"type": "electric_scooter", "rental_uris": {"ios": "https://dc.lft.to/lastmile_qr_scan", "android": "https://dc.lft.to/lastmile_qr_scan"}, "lon": -77.06051883333333, "fusion_lon": 0.0, "is_disabled": 0, "lat": 38.902283, "bike_id": "0b3f84772c6d6e4749629a4d64c9ce09", "name": "0b3f84772c6d6e4749629a4d64c9ce09", "is_reserved": 0, "fusion_lat": 0.0}, {"type": "electric_scooter", "rental_uris": {"ios": "https://dc.lft.to/lastmile_qr_scan", "android": "https://dc.lft.to/lastmile_qr_scan"}, "lon": -76.93611283333334, "fusion_lon": 0.0, "is_disabled": 0, "lat": 38.8968, "bike_id": "0647256849c361a4b3394540be1b444b", "name": "0647256849c361a4b3394540be1b444b", "is_reserved": 0, "fusion_lat": 0.0}, {"type": "electric_scooter", "rental_uris": {"ios": "https://dc.lft.to/lastmile_qr_scan", "android": "https://dc.lft.to/lastmile_qr_scan"}, "lon": -77.02732083333333, "fusion_lon": 0.0, "is_disabled": 0, "lat": 38.9013155, "bike_id": "c9f265957fb7a93fef2b566ecc5420c8", "name": "c9f265957fb7a93fef2b566ecc5420c8", "is_reserved": 0, "fusion_lat": 0.0}, {"type": "electric_scooter", "rental_uris": {"ios": "https://dc.lft.to/lastmile_qr_scan", "android": "https://dc.lft.to/lastmile_qr_scan"}, "lon": -77.052231, "fusion_lon": 0.0, "is_disabled": 0, "lat": 38.924920166666666, "bike_id": "4fb2be0d794121058290c410a6793784", "name": "4fb2be0d794121058290c410a6793784", "is_reserved": 0, "fusion_lat": 0.0}, {"type": "electric_scooter", "rental_uris": {"ios": "https://dc.lft.to/lastmile_qr_scan", "android": "https://dc.lft.to/lastmile_qr_scan"}, "lon": -77.04773833333333, "fusion_lon": 0.0, "is_disabled": 0, "lat": 38.9177315, "bike_id": "01505418a0c366ae076616121914a0de", "name": "01505418a0c366ae076616121914a0de", "is_reserved": 0, "fusion_lat": 0.0}, {"type": "electric_scooter", "rental_uris": {"ios": "https://dc.lft.to/lastmile_qr_scan", "android": "https://dc.lft.to/lastmile_qr_scan"}, "lon": -77.05022266666667, "fusion_lon": 0.0, "is_disabled": 0, "lat": 38.89647816666667, "bike_id": "c0f13620b6a6b2b4296735f3e0b5855a", "name": "c0f13620b6a6b2b4296735f3e0b5855a", "is_reserved": 0, "fusion_lat": 0.0}, {"type": "electric_bike", "rental_uris": {"ios": "https://dc.lft.to/lastmile_qr_scan", "android": "https://dc.lft.to/lastmile_qr_scan"}, "lon": -76.937016, "fusion_lon": 0.0, "is_disabled": 0, "lat": 38.87142933333333, "bike_id": "1793fbc301123f49c03f52046483caa8", "name": "1793fbc301123f49c03f52046483caa8", "is_reserved": 0, "fusion_lat": 0.0}, {"type": "electric_scooter", "rental_uris": {"ios": "https://dc.lft.to/lastmile_qr_scan", "android": "https://dc.lft.to/lastmile_qr_scan"}, "lon": -77.03013166666666, "fusion_lon": 0.0, "is_disabled": 0, "lat": 38.92245, "bike_id": "2d5dc6f3d5eb7cfbb711fb8e58a1b84c", "name": "2d5dc6f3d5eb7cfbb711fb8e58a1b84c", "is_reserved": 0, "fusion_lat": 0.0}, {"type": "electric_scooter", "rental_uris": {"ios": "https://dc.lft.to/lastmile_qr_scan", "android": "https://dc.lft.to/lastmile_qr_scan"}, "lon": -77.0337315, "fusion_lon": 0.0, "is_disabled": 0, "lat": 38.8922415, "bike_id": "04b7306431c84204c0110c019b70d44c", "name": "04b7306431c84204c0110c019b70d44c", "is_reserved": 0, "fusion_lat": 0.0}, {"type": "electric_scooter", "rental_uris": {"ios": "https://dc.lft.to/lastmile_qr_scan", "android": "https://dc.lft.to/lastmile_qr_scan"}, "lon": -77.02333133333333, "fusion_lon": 0.0, "is_disabled": 0, "lat": 38.916672166666665, "bike_id": "3abc8137fec6778d4fe408f9d9bd340d", "name": "3abc8137fec6778d4fe408f9d9bd340d", "is_reserved": 0, "fusion_lat": 0.0}, {"type": "electric_scooter", "rental_uris": {"ios": "https://dc.lft.to/lastmile_qr_scan", "android": "https://dc.lft.to/lastmile_qr_scan"}, "lon": -77.0388925, "fusion_lon": 0.0, "is_disabled": 0, "lat": 38.90480266666667, "bike_id": "bcbe7951b9347538df44f9619ec7318f", "name": "bcbe7951b9347538df44f9619ec7318f", "is_reserved": 0, "fusion_lat": 0.0}, {"type": "electric_scooter", "rental_uris": {"ios": "https://dc.lft.to/lastmile_qr_scan", "android": "https://dc.lft.to/lastmile_qr_scan"}, "lon": -76.93178033333334, "fusion_lon": 0.0, "is_disabled": 0, "lat": 38.8988355, "bike_id": "d9fa7182b671c0f934a1a36bb1cfd973", "name": "d9fa7182b671c0f934a1a36bb1cfd973", "is_reserved": 0, "fusion_lat": 0.0}, {"type": "electric_scooter", "rental_uris": {"ios": "https://dc.lft.to/lastmile_qr_scan", "android": "https://dc.lft.to/lastmile_qr_scan"}, "lon": -76.99778333333333, "fusion_lon": 0.0, "is_disabled": 0, "lat": 38.84422433333334, "bike_id": "5a5db8bd885e6f8097015de20acb8c3e", "name": "5a5db8bd885e6f8097015de20acb8c3e", "is_reserved": 0, "fusion_lat": 0.0}, {"type": "electric_scooter", "rental_uris": {"ios": "https://dc.lft.to/lastmile_qr_scan", "android": "https://dc.lft.to/lastmile_qr_scan"}, "lon": -77.0223595, "fusion_lon": 0.0, "is_disabled": 0, "lat": 38.961339333333335, "bike_id": "7bfb226b7ec9d2c5a39e82456c2890b2", "name": "7bfb226b7ec9d2c5a39e82456c2890b2", "is_reserved": 0, "fusion_lat": 0.0}, {"type": "electric_scooter", "rental_uris": {"ios": "https://dc.lft.to/lastmile_qr_scan", "android": "https://dc.lft.to/lastmile_qr_scan"}, "lon": -76.95754766666667, "fusion_lon": 0.0, "is_disabled": 0, "lat": 38.884276666666665, "bike_id": "39bc3315f963b32f8cdd30bd76face17", "name": "39bc3315f963b32f8cdd30bd76face17", "is_reserved": 0, "fusion_lat": 0.0}, {"type": "electric_bike", "rental_uris": {"ios": "https://dc.lft.to/lastmile_qr_scan", "android": "https://dc.lft.to/lastmile_qr_scan"}, "lon": -76.970969, "fusion_lon": 0.0, "is_disabled": 0, "lat": 38.85707216666667, "bike_id": "85233602f01f5c14c54a52930e917906", "name": "85233602f01f5c14c54a52930e917906", "is_reserved": 0, "fusion_lat": 0.0}, {"type": "electric_scooter", "rental_uris": {"ios": "https://dc.lft.to/lastmile_qr_scan", "android": "https://dc.lft.to/lastmile_qr_scan"}, "lon": -76.99596616666666, "fusion_lon": 0.0, "is_disabled": 0, "lat": 38.926115, "bike_id": "4740215d250235ab2fb68059f9511c95", "name": "4740215d250235ab2fb68059f9511c95", "is_reserved": 0, "fusion_lat": 0.0}, {"type": "electric_scooter", "rental_uris": {"ios": "https://dc.lft.to/lastmile_qr_scan", "android": "https://dc.lft.to/lastmile_qr_scan"}, "lon": -77.03200216666667, "fusion_lon": 0.0, "is_disabled": 0, "lat": 38.909446333333335, "bike_id": "f6ef3e150e39910b0bf4a5ab9492b2fb", "name": "f6ef3e150e39910b0bf4a5ab9492b2fb", "is_reserved": 0, "fusion_lat": 0.0}, {"type": "electric_scooter", "rental_uris": {"ios": "https://dc.lft.to/lastmile_qr_scan", "android": "https://dc.lft.to/lastmile_qr_scan"}, "lon": -77.0280395, "fusion_lon": 0.0, "is_disabled": 0, "lat": 38.899327, "bike_id": "8eafe578116a59d1b04a891c87c99739", "name": "8eafe578116a59d1b04a891c87c99739", "is_reserved": 0, "fusion_lat": 0.0}, {"type": "electric_scooter", "rental_uris": {"ios": "https://dc.lft.to/lastmile_qr_scan", "android": "https://dc.lft.to/lastmile_qr_scan"}, "lon": -77.04140783333334, "fusion_lon": 0.0, "is_disabled": 0, "lat": 38.916829166666666, "bike_id": "e217bec90e3f19c8625de623b95c67f2", "name": "e217bec90e3f19c8625de623b95c67f2", "is_reserved": 0, "fusion_lat": 0.0}, {"type": "electric_scooter", "rental_uris": {"ios": "https://dc.lft.to/lastmile_qr_scan", "android": "https://dc.lft.to/lastmile_qr_scan"}, "lon": -76.98692516666667, "fusion_lon": 0.0, "is_disabled": 0, "lat": 38.86622833333333, "bike_id": "e47928f66aaf1a6ff55f604993b7aec6", "name": "e47928f66aaf1a6ff55f604993b7aec6", "is_reserved": 0, "fusion_lat": 0.0}, {"type": "electric_scooter", "rental_uris": {"ios": "https://dc.lft.to/lastmile_qr_scan", "android": "https://dc.lft.to/lastmile_qr_scan"}, "lon": -77.0435545, "fusion_lon": 0.0, "is_disabled": 0, "lat": 38.905137333333336, "bike_id": "d9e482f2e3b5f4df75b4e79f8413b78d", "name": "d9e482f2e3b5f4df75b4e79f8413b78d", "is_reserved": 0, "fusion_lat": 0.0}, {"type": "electric_scooter", "rental_uris": {"ios": "https://dc.lft.to/lastmile_qr_scan", "android": "https://dc.lft.to/lastmile_qr_scan"}, "lon": -77.04196433333334, "fusion_lon": 0.0, "is_disabled": 0, "lat": 38.90520266666667, "bike_id": "bad6735246fc056bfc4d55307cda9f49", "name": "bad6735246fc056bfc4d55307cda9f49", "is_reserved": 0, "fusion_lat": 0.0}, {"type": "electric_bike", "rental_uris": {"ios": "https://dc.lft.to/lastmile_qr_scan", "android": "https://dc.lft.to/lastmile_qr_scan"}, "lon": -76.98845066666667, "fusion_lon": 0.0, "is_disabled": 0, "lat": 38.8427035, "bike_id": "56cde952c2998e99c67fabf96598cf5a", "name": "56cde952c2998e99c67fabf96598cf5a", "is_reserved": 0, "fusion_lat": 0.0}, {"type": "electric_scooter", "rental_uris": {"ios": "https://dc.lft.to/lastmile_qr_scan", "android": "https://dc.lft.to/lastmile_qr_scan"}, "lon": -77.04196966666666, "fusion_lon": 0.0, "is_disabled": 0, "lat": 38.905220666666665, "bike_id": "9a00c6082000cbd5b8994b4e7d939872", "name": "9a00c6082000cbd5b8994b4e7d939872", "is_reserved": 0, "fusion_lat": 0.0}, {"type": "electric_scooter", "rental_uris": {"ios": "https://dc.lft.to/lastmile_qr_scan", "android": "https://dc.lft.to/lastmile_qr_scan"}, "lon": -77.00370133333334, "fusion_lon": 0.0, "is_disabled": 0, "lat": 38.88265066666666, "bike_id": "8d54544b3ea806100110d9ade7027d46", "name": "8d54544b3ea806100110d9ade7027d46", "is_reserved": 0, "fusion_lat": 0.0}, {"type": "electric_scooter", "rental_uris": {"ios": "https://dc.lft.to/lastmile_qr_scan", "android": "https://dc.lft.to/lastmile_qr_scan"}, "lon": -76.9541575, "fusion_lon": 0.0, "is_disabled": 0, "lat": 38.88995533333333, "bike_id": "3205bfd5e537fc9c83255286429cff3f", "name": "3205bfd5e537fc9c83255286429cff3f", "is_reserved": 0, "fusion_lat": 0.0}, {"type": "electric_scooter", "rental_uris": {"ios": "https://dc.lft.to/lastmile_qr_scan", "android": "https://dc.lft.to/lastmile_qr_scan"}, "lon": -77.0322515, "fusion_lon": 0.0, "is_disabled": 0, "lat": 38.919996, "bike_id": "953f0878793e1711bb234de7183caaba", "name": "953f0878793e1711bb234de7183caaba", "is_reserved": 0, "fusion_lat": 0.0}, {"type": "electric_scooter", "rental_uris": {"ios": "https://dc.lft.to/lastmile_qr_scan", "android": "https://dc.lft.to/lastmile_qr_scan"}, "lon": -77.04004133333333, "fusion_lon": 0.0, "is_disabled": 0, "lat": 38.91563933333333, "bike_id": "e53704bc4f8e36b7b9295511d7ce5227", "name": "e53704bc4f8e36b7b9295511d7ce5227", "is_reserved": 0, "fusion_lat": 0.0}, {"type": "electric_scooter", "rental_uris": {"ios": "https://dc.lft.to/lastmile_qr_scan", "android": "https://dc.lft.to/lastmile_qr_scan"}, "lon": -77.019394, "fusion_lon": 0.0, "is_disabled": 0, "lat": 38.949284166666665, "bike_id": "dcac90ca89cdf92005b080fe9ec9659e", "name": "dcac90ca89cdf92005b080fe9ec9659e", "is_reserved": 0, "fusion_lat": 0.0}, {"type": "electric_scooter", "rental_uris": {"ios": "https://dc.lft.to/lastmile_qr_scan", "android": "https://dc.lft.to/lastmile_qr_scan"}, "lon": -77.02169566666667, "fusion_lon": 0.0, "is_disabled": 0, "lat": 38.89728216666666, "bike_id": "583660d610b246de0dd10228b0050e3b", "name": "583660d610b246de0dd10228b0050e3b", "is_reserved": 0, "fusion_lat": 0.0}, {"type": "electric_scooter", "rental_uris": {"ios": "https://dc.lft.to/lastmile_qr_scan", "android": "https://dc.lft.to/lastmile_qr_scan"}, "lon": -76.94890233333334, "fusion_lon": 0.0, "is_disabled": 0, "lat": 38.8952635, "bike_id": "62f76d39c403e376dd7e393a629a0fd4", "name": "62f76d39c403e376dd7e393a629a0fd4", "is_reserved": 0, "fusion_lat": 0.0}, {"type": "electric_scooter", "rental_uris": {"ios": "https://dc.lft.to/lastmile_qr_scan", "android": "https://dc.lft.to/lastmile_qr_scan"}, "lon": -77.023151, "fusion_lon": 0.0, "is_disabled": 0, "lat": 38.90143783333333, "bike_id": "172749fe4363b9897f538ff8eb05fdb6", "name": "172749fe4363b9897f538ff8eb05fdb6", "is_reserved": 0, "fusion_lat": 0.0}, {"type": "electric_scooter", "rental_uris": {"ios": "https://dc.lft.to/lastmile_qr_scan", "android": "https://dc.lft.to/lastmile_qr_scan"}, "lon": -76.98477766666667, "fusion_lon": 0.0, "is_disabled": 0, "lat": 38.913128, "bike_id": "167080602102549beee717e63cac8d2b", "name": "167080602102549beee717e63cac8d2b", "is_reserved": 0, "fusion_lat": 0.0}, {"type": "electric_scooter", "rental_uris": {"ios": "https://dc.lft.to/lastmile_qr_scan", "android": "https://dc.lft.to/lastmile_qr_scan"}, "lon": -77.0116625, "fusion_lon": 0.0, "is_disabled": 0, "lat": 38.900272333333334, "bike_id": "ac11dac07e05aebf652b48f839a321e2", "name": "ac11dac07e05aebf652b48f839a321e2", "is_reserved": 0, "fusion_lat": 0.0}, {"type": "electric_scooter", "rental_uris": {"ios": "https://dc.lft.to/lastmile_qr_scan", "android": "https://dc.lft.to/lastmile_qr_scan"}, "lon": -77.03097766666667, "fusion_lon": 0.0, "is_disabled": 0, "lat": 38.93855216666667, "bike_id": "d5572b516696aa47e10d9e3188092a59", "name": "d5572b516696aa47e10d9e3188092a59", "is_reserved": 0, "fusion_lat": 0.0}, {"type": "electric_scooter", "rental_uris": {"ios": "https://dc.lft.to/lastmile_qr_scan", "android": "https://dc.lft.to/lastmile_qr_scan"}, "lon": -77.00412483333334, "fusion_lon": 0.0, "is_disabled": 0, "lat": 38.876583833333335, "bike_id": "f92fee4e8af69883ab30bac6c8f69ecf", "name": "f92fee4e8af69883ab30bac6c8f69ecf", "is_reserved": 0, "fusion_lat": 0.0}, {"type": "electric_bike", "rental_uris": {"ios": "https://dc.lft.to/lastmile_qr_scan", "android": "https://dc.lft.to/lastmile_qr_scan"}, "lon": -77.09481333333333, "fusion_lon": 0.0, "is_disabled": 0, "lat": 39.03041433333333, "bike_id": "12287e15cefba6ae242f6bcc579d1150", "name": "12287e15cefba6ae242f6bcc579d1150", "is_reserved": 0, "fusion_lat": 0.0}, {"type": "electric_scooter", "rental_uris": {"ios": "https://dc.lft.to/lastmile_qr_scan", "android": "https://dc.lft.to/lastmile_qr_scan"}, "lon": -77.03460016666666, "fusion_lon": 0.0, "is_disabled": 0, "lat": 38.908567833333336, "bike_id": "c029303a0a9d9a252c0c7120e2c0a4ab", "name": "c029303a0a9d9a252c0c7120e2c0a4ab", "is_reserved": 0, "fusion_lat": 0.0}, {"type": "electric_bike", "rental_uris": {"ios": "https://dc.lft.to/lastmile_qr_scan", "android": "https://dc.lft.to/lastmile_qr_scan"}, "lon": -77.13105933333334, "fusion_lon": 0.0, "is_disabled": 0, "lat": 39.02425983333333, "bike_id": "da81c99d1db91581ba318ec188fc2efe", "name": "da81c99d1db91581ba318ec188fc2efe", "is_reserved": 0, "fusion_lat": 0.0}, {"type": "electric_scooter", "rental_uris": {"ios": "https://dc.lft.to/lastmile_qr_scan", "android": "https://dc.lft.to/lastmile_qr_scan"}, "lon": -77.02195733333333, "fusion_lon": 0.0, "is_disabled": 0, "lat": 38.91123866666667, "bike_id": "71ff35d1988394b3edb1a2e9ed92e1c1", "name": "71ff35d1988394b3edb1a2e9ed92e1c1", "is_reserved": 0, "fusion_lat": 0.0}, {"type": "electric_scooter", "rental_uris": {"ios": "https://dc.lft.to/lastmile_qr_scan", "android": "https://dc.lft.to/lastmile_qr_scan"}, "lon": -76.9773025, "fusion_lon": 0.0, "is_disabled": 0, "lat": 38.8724165, "bike_id": "1d192fbc1972c93ab5f8aaa8760ce903", "name": "1d192fbc1972c93ab5f8aaa8760ce903", "is_reserved": 0, "fusion_lat": 0.0}, {"type": "electric_scooter", "rental_uris": {"ios": "https://dc.lft.to/lastmile_qr_scan", "android": "https://dc.lft.to/lastmile_qr_scan"}, "lon": -77.0272005, "fusion_lon": 0.0, "is_disabled": 0, "lat": 38.924778, "bike_id": "5b39dcb00217f522cab31f8c957951cd", "name": "5b39dcb00217f522cab31f8c957951cd", "is_reserved": 0, "fusion_lat": 0.0}, {"type": "electric_scooter", "rental_uris": {"ios": "https://dc.lft.to/lastmile_qr_scan", "android": "https://dc.lft.to/lastmile_qr_scan"}, "lon": -76.96868116666667, "fusion_lon": 0.0, "is_disabled": 0, "lat": 38.870816166666664, "bike_id": "38f0ea2eaea93a0c4f1e8102100902d4", "name": "38f0ea2eaea93a0c4f1e8102100902d4", "is_reserved": 0, "fusion_lat": 0.0}, {"type": "electric_scooter", "rental_uris": {"ios": "https://dc.lft.to/lastmile_qr_scan", "android": "https://dc.lft.to/lastmile_qr_scan"}, "lon": -77.0252755, "fusion_lon": 0.0, "is_disabled": 0, "lat": 38.920805666666666, "bike_id": "7c773e15540f5415d1a17f267b3fa951", "name": "7c773e15540f5415d1a17f267b3fa951", "is_reserved": 0, "fusion_lat": 0.0}, {"type": "electric_scooter", "rental_uris": {"ios": "https://dc.lft.to/lastmile_qr_scan", "android": "https://dc.lft.to/lastmile_qr_scan"}, "lon": -76.99506366666667, "fusion_lon": 0.0, "is_disabled": 0, "lat": 38.88255633333333, "bike_id": "4f49df88e237b16f42a6c0f46264c25d", "name": "4f49df88e237b16f42a6c0f46264c25d", "is_reserved": 0, "fusion_lat": 0.0}, {"type": "electric_scooter", "rental_uris": {"ios": "https://dc.lft.to/lastmile_qr_scan", "android": "https://dc.lft.to/lastmile_qr_scan"}, "lon": -77.0095965, "fusion_lon": 0.0, "is_disabled": 0, "lat": 38.90787316666667, "bike_id": "2a7a765fe9764629677eb943a2e6745f", "name": "2a7a765fe9764629677eb943a2e6745f", "is_reserved": 0, "fusion_lat": 0.0}, {"type": "electric_scooter", "rental_uris": {"ios": "https://dc.lft.to/lastmile_qr_scan", "android": "https://dc.lft.to/lastmile_qr_scan"}, "lon": -77.0334505, "fusion_lon": 0.0, "is_disabled": 0, "lat": 38.91704816666667, "bike_id": "305de1beca21c3706f01c586f56c0316", "name": "305de1beca21c3706f01c586f56c0316", "is_reserved": 0, "fusion_lat": 0.0}, {"type": "electric_scooter", "rental_uris": {"ios": "https://dc.lft.to/lastmile_qr_scan", "android": "https://dc.lft.to/lastmile_qr_scan"}, "lon": -77.03973, "fusion_lon": 0.0, "is_disabled": 0, "lat": 38.90231933333333, "bike_id": "1abe6f135d5f0698466e2537eda12820", "name": "1abe6f135d5f0698466e2537eda12820", "is_reserved": 0, "fusion_lat": 0.0}, {"type": "electric_scooter", "rental_uris": {"ios": "https://dc.lft.to/lastmile_qr_scan", "android": "https://dc.lft.to/lastmile_qr_scan"}, "lon": -77.01854933333334, "fusion_lon": 0.0, "is_disabled": 0, "lat": 38.9149185, "bike_id": "a5d0e48bf8b7b0f67675f9b9ef591a93", "name": "a5d0e48bf8b7b0f67675f9b9ef591a93", "is_reserved": 0, "fusion_lat": 0.0}, {"type": "electric_scooter", "rental_uris": {"ios": "https://dc.lft.to/lastmile_qr_scan", "android": "https://dc.lft.to/lastmile_qr_scan"}, "lon": -77.04765, "fusion_lon": 0.0, "is_disabled": 0, "lat": 38.908469833333335, "bike_id": "71f48536f36aae3be390d1d4cc520eb7", "name": "71f48536f36aae3be390d1d4cc520eb7", "is_reserved": 0, "fusion_lat": 0.0}, {"type": "electric_scooter", "rental_uris": {"ios": "https://dc.lft.to/lastmile_qr_scan", "android": "https://dc.lft.to/lastmile_qr_scan"}, "lon": -77.03282883333334, "fusion_lon": 0.0, "is_disabled": 0, "lat": 38.92745, "bike_id": "e3f7337cac0f361322a687fe9a99748e", "name": "e3f7337cac0f361322a687fe9a99748e", "is_reserved": 0, "fusion_lat": 0.0}, {"type": "electric_bike", "rental_uris": {"ios": "https://dc.lft.to/lastmile_qr_scan", "android": "https://dc.lft.to/lastmile_qr_scan"}, "lon": -77.22352433333333, "fusion_lon": 0.0, "is_disabled": 0, "lat": 38.9178885, "bike_id": "8af80c4eea3b8520caed398452056566", "name": "8af80c4eea3b8520caed398452056566", "is_reserved": 0, "fusion_lat": 0.0}, {"type": "electric_scooter", "rental_uris": {"ios": "https://dc.lft.to/lastmile_qr_scan", "android": "https://dc.lft.to/lastmile_qr_scan"}, "lon": -76.94209916666667, "fusion_lon": 0.0, "is_disabled": 0, "lat": 38.884173, "bike_id": "0827dddebb4aa2584ea5cf5027d9e867", "name": "0827dddebb4aa2584ea5cf5027d9e867", "is_reserved": 0, "fusion_lat": 0.0}, {"type": "electric_scooter", "rental_uris": {"ios": "https://dc.lft.to/lastmile_qr_scan", "android": "https://dc.lft.to/lastmile_qr_scan"}, "lon": -77.03526383333333, "fusion_lon": 0.0, "is_disabled": 0, "lat": 38.918261666666666, "bike_id": "cb7876ebb4cddf3525f9b527063bb99f", "name": "cb7876ebb4cddf3525f9b527063bb99f", "is_reserved": 0, "fusion_lat": 0.0}, {"type": "electric_scooter", "rental_uris": {"ios": "https://dc.lft.to/lastmile_qr_scan", "android": "https://dc.lft.to/lastmile_qr_scan"}, "lon": -77.06014416666666, "fusion_lon": 0.0, "is_disabled": 0, "lat": 38.902303333333336, "bike_id": "cf0283c310d16c98e0473dddcbbab5a4", "name": "cf0283c310d16c98e0473dddcbbab5a4", "is_reserved": 0, "fusion_lat": 0.0}, {"type": "electric_scooter", "rental_uris": {"ios": "https://dc.lft.to/lastmile_qr_scan", "android": "https://dc.lft.to/lastmile_qr_scan"}, "lon": -77.004162, "fusion_lon": 0.0, "is_disabled": 0, "lat": 38.8765065, "bike_id": "e51f4e8e23195710217c54b5d5ee94c9", "name": "e51f4e8e23195710217c54b5d5ee94c9", "is_reserved": 0, "fusion_lat": 0.0}, {"type": "electric_scooter", "rental_uris": {"ios": "https://dc.lft.to/lastmile_qr_scan", "android": "https://dc.lft.to/lastmile_qr_scan"}, "lon": -77.031949, "fusion_lon": 0.0, "is_disabled": 0, "lat": 38.91815616666667, "bike_id": "6e3a79b74532fd0e7f5f2c850999b1e6", "name": "6e3a79b74532fd0e7f5f2c850999b1e6", "is_reserved": 0, "fusion_lat": 0.0}, {"type": "electric_scooter", "rental_uris": {"ios": "https://dc.lft.to/lastmile_qr_scan", "android": "https://dc.lft.to/lastmile_qr_scan"}, "lon": -77.02189766666666, "fusion_lon": 0.0, "is_disabled": 0, "lat": 38.913925, "bike_id": "249f7aa19c0fa612c0c68ef4946e9567", "name": "249f7aa19c0fa612c0c68ef4946e9567", "is_reserved": 0, "fusion_lat": 0.0}, {"type": "electric_scooter", "rental_uris": {"ios": "https://dc.lft.to/lastmile_qr_scan", "android": "https://dc.lft.to/lastmile_qr_scan"}, "lon": -77.0056455, "fusion_lon": 0.0, "is_disabled": 0, "lat": 38.90227316666667, "bike_id": "45613fd192c239a8a5acc51624bfcdae", "name": "45613fd192c239a8a5acc51624bfcdae", "is_reserved": 0, "fusion_lat": 0.0}, {"type": "electric_scooter", "rental_uris": {"ios": "https://dc.lft.to/lastmile_qr_scan", "android": "https://dc.lft.to/lastmile_qr_scan"}, "lon": -77.03958683333333, "fusion_lon": 0.0, "is_disabled": 0, "lat": 38.913623333333334, "bike_id": "9f775aae6dbe946b6b3bc6f76c3f2c75", "name": "9f775aae6dbe946b6b3bc6f76c3f2c75", "is_reserved": 0, "fusion_lat": 0.0}, {"type": "electric_scooter", "rental_uris": {"ios": "https://dc.lft.to/lastmile_qr_scan", "android": "https://dc.lft.to/lastmile_qr_scan"}, "lon": -77.02832966666666, "fusion_lon": 0.0, "is_disabled": 0, "lat": 38.93183233333333, "bike_id": "6b6d471db17ba381e473b439d4e2f5de", "name": "6b6d471db17ba381e473b439d4e2f5de", "is_reserved": 0, "fusion_lat": 0.0}, {"type": "electric_scooter", "rental_uris": {"ios": "https://dc.lft.to/lastmile_qr_scan", "android": "https://dc.lft.to/lastmile_qr_scan"}, "lon": -77.03661, "fusion_lon": 0.0, "is_disabled": 0, "lat": 38.922778666666666, "bike_id": "b0ad04721fc4161c6641c8526b41b9a9", "name": "b0ad04721fc4161c6641c8526b41b9a9", "is_reserved": 0, "fusion_lat": 0.0}, {"type": "electric_scooter", "rental_uris": {"ios": "https://dc.lft.to/lastmile_qr_scan", "android": "https://dc.lft.to/lastmile_qr_scan"}, "lon": -77.030755, "fusion_lon": 0.0, "is_disabled": 0, "lat": 38.922459333333336, "bike_id": "36e59b7d3c67e4f512062db7cebe35a1", "name": "36e59b7d3c67e4f512062db7cebe35a1", "is_reserved": 0, "fusion_lat": 0.0}, {"type": "electric_scooter", "rental_uris": {"ios": "https://dc.lft.to/lastmile_qr_scan", "android": "https://dc.lft.to/lastmile_qr_scan"}, "lon": -77.03245666666666, "fusion_lon": 0.0, "is_disabled": 0, "lat": 38.92799516666667, "bike_id": "4ddbd4019a568d4fe4459d60782d3fdd", "name": "4ddbd4019a568d4fe4459d60782d3fdd", "is_reserved": 0, "fusion_lat": 0.0}, {"type": "electric_scooter", "rental_uris": {"ios": "https://dc.lft.to/lastmile_qr_scan", "android": "https://dc.lft.to/lastmile_qr_scan"}, "lon": -77.03131583333334, "fusion_lon": 0.0, "is_disabled": 0, "lat": 38.91921516666667, "bike_id": "37e3d7a967e12a0ac07440b256ed850a", "name": "37e3d7a967e12a0ac07440b256ed850a", "is_reserved": 0, "fusion_lat": 0.0}, {"type": "electric_scooter", "rental_uris": {"ios": "https://dc.lft.to/lastmile_qr_scan", "android": "https://dc.lft.to/lastmile_qr_scan"}, "lon": -77.026608, "fusion_lon": 0.0, "is_disabled": 0, "lat": 38.91695133333333, "bike_id": "3e66f718d231e3091365375c14051613", "name": "3e66f718d231e3091365375c14051613", "is_reserved": 0, "fusion_lat": 0.0}, {"type": "electric_scooter", "rental_uris": {"ios": "https://dc.lft.to/lastmile_qr_scan", "android": "https://dc.lft.to/lastmile_qr_scan"}, "lon": -77.01116216666667, "fusion_lon": 0.0, "is_disabled": 0, "lat": 38.920293666666666, "bike_id": "e78dee789afd7f65bc8cda778f85f4fd", "name": "e78dee789afd7f65bc8cda778f85f4fd", "is_reserved": 0, "fusion_lat": 0.0}, {"type": "electric_scooter", "rental_uris": {"ios": "https://dc.lft.to/lastmile_qr_scan", "android": "https://dc.lft.to/lastmile_qr_scan"}, "lon": -77.00183133333333, "fusion_lon": 0.0, "is_disabled": 0, "lat": 38.90020466666667, "bike_id": "b96c56d931af908a1eb985440264972b", "name": "b96c56d931af908a1eb985440264972b", "is_reserved": 0, "fusion_lat": 0.0}, {"type": "electric_scooter", "rental_uris": {"ios": "https://dc.lft.to/lastmile_qr_scan", "android": "https://dc.lft.to/lastmile_qr_scan"}, "lon": -77.03223416666667, "fusion_lon": 0.0, "is_disabled": 0, "lat": 38.90964533333333, "bike_id": "389f26f5fbc29da14ecb1d06b7d48264", "name": "389f26f5fbc29da14ecb1d06b7d48264", "is_reserved": 0, "fusion_lat": 0.0}, {"type": "electric_scooter", "rental_uris": {"ios": "https://dc.lft.to/lastmile_qr_scan", "android": "https://dc.lft.to/lastmile_qr_scan"}, "lon": -77.03735316666666, "fusion_lon": 0.0, "is_disabled": 0, "lat": 38.911203, "bike_id": "c1419427d68e54df8d1ad7949705e7cf", "name": "c1419427d68e54df8d1ad7949705e7cf", "is_reserved": 0, "fusion_lat": 0.0}, {"type": "electric_scooter", "rental_uris": {"ios": "https://dc.lft.to/lastmile_qr_scan", "android": "https://dc.lft.to/lastmile_qr_scan"}, "lon": -77.0320805, "fusion_lon": 0.0, "is_disabled": 0, "lat": 38.902787000000004, "bike_id": "6dcda15547d04964684adc9d87e4afc7", "name": "6dcda15547d04964684adc9d87e4afc7", "is_reserved": 0, "fusion_lat": 0.0}, {"type": "electric_scooter", "rental_uris": {"ios": "https://dc.lft.to/lastmile_qr_scan", "android": "https://dc.lft.to/lastmile_qr_scan"}, "lon": -77.02128266666666, "fusion_lon": 0.0, "is_disabled": 0, "lat": 38.88741733333333, "bike_id": "657b3f1191983c633f5bb03f7a78e564", "name": "657b3f1191983c633f5bb03f7a78e564", "is_reserved": 0, "fusion_lat": 0.0}, {"type": "electric_scooter", "rental_uris": {"ios": "https://dc.lft.to/lastmile_qr_scan", "android": "https://dc.lft.to/lastmile_qr_scan"}, "lon": -77.01915016666666, "fusion_lon": 0.0, "is_disabled": 0, "lat": 38.9236645, "bike_id": "500d8ae427dfb3fe18ac63e02fdfa814", "name": "500d8ae427dfb3fe18ac63e02fdfa814", "is_reserved": 0, "fusion_lat": 0.0}, {"type": "electric_scooter", "rental_uris": {"ios": "https://dc.lft.to/lastmile_qr_scan", "android": "https://dc.lft.to/lastmile_qr_scan"}, "lon": -77.04035916666666, "fusion_lon": 0.0, "is_disabled": 0, "lat": 38.92440216666667, "bike_id": "a881dc4de554904c2b8648557c32b901", "name": "a881dc4de554904c2b8648557c32b901", "is_reserved": 0, "fusion_lat": 0.0}, {"type": "electric_scooter", "rental_uris": {"ios": "https://dc.lft.to/lastmile_qr_scan", "android": "https://dc.lft.to/lastmile_qr_scan"}, "lon": -76.927061, "fusion_lon": 0.0, "is_disabled": 0, "lat": 38.89965316666667, "bike_id": "a53967acbc38faf01356705202d3e09f", "name": "a53967acbc38faf01356705202d3e09f", "is_reserved": 0, "fusion_lat": 0.0}, {"type": "electric_scooter", "rental_uris": {"ios": "https://dc.lft.to/lastmile_qr_scan", "android": "https://dc.lft.to/lastmile_qr_scan"}, "lon": -76.9575145, "fusion_lon": 0.0, "is_disabled": 0, "lat": 38.88429283333333, "bike_id": "e5658f8962fbee002984294b4d7589dc", "name": "e5658f8962fbee002984294b4d7589dc", "is_reserved": 0, "fusion_lat": 0.0}, {"type": "electric_scooter", "rental_uris": {"ios": "https://dc.lft.to/lastmile_qr_scan", "android": "https://dc.lft.to/lastmile_qr_scan"}, "lon": -77.0271165, "fusion_lon": 0.0, "is_disabled": 0, "lat": 38.90733483333333, "bike_id": "a6599c3e0d179257e98f64305ef2b646", "name": "a6599c3e0d179257e98f64305ef2b646", "is_reserved": 0, "fusion_lat": 0.0}, {"type": "electric_scooter", "rental_uris": {"ios": "https://dc.lft.to/lastmile_qr_scan", "android": "https://dc.lft.to/lastmile_qr_scan"}, "lon": -77.02294816666667, "fusion_lon": 0.0, "is_disabled": 0, "lat": 38.916676333333335, "bike_id": "edc65c9372dcc912df251506b7520dc4", "name": "edc65c9372dcc912df251506b7520dc4", "is_reserved": 0, "fusion_lat": 0.0}, {"type": "electric_scooter", "rental_uris": {"ios": "https://dc.lft.to/lastmile_qr_scan", "android": "https://dc.lft.to/lastmile_qr_scan"}, "lon": -77.011982, "fusion_lon": 0.0, "is_disabled": 0, "lat": 38.90314866666667, "bike_id": "e7264133b3444597a7f97594b6ca6308", "name": "e7264133b3444597a7f97594b6ca6308", "is_reserved": 0, "fusion_lat": 0.0}, {"type": "electric_scooter", "rental_uris": {"ios": "https://dc.lft.to/lastmile_qr_scan", "android": "https://dc.lft.to/lastmile_qr_scan"}, "lon": -77.04044233333333, "fusion_lon": 0.0, "is_disabled": 0, "lat": 38.91409266666667, "bike_id": "94fdc81f2798175abe19b83e0e13745a", "name": "94fdc81f2798175abe19b83e0e13745a", "is_reserved": 0, "fusion_lat": 0.0}, {"type": "electric_scooter", "rental_uris": {"ios": "https://dc.lft.to/lastmile_qr_scan", "android": "https://dc.lft.to/lastmile_qr_scan"}, "lon": -77.03188016666667, "fusion_lon": 0.0, "is_disabled": 0, "lat": 38.89968833333333, "bike_id": "81f6cef7c97d43abce5666b45d9fe42f", "name": "81f6cef7c97d43abce5666b45d9fe42f", "is_reserved": 0, "fusion_lat": 0.0}, {"type": "electric_scooter", "rental_uris": {"ios": "https://dc.lft.to/lastmile_qr_scan", "android": "https://dc.lft.to/lastmile_qr_scan"}, "lon": -76.99776583333333, "fusion_lon": 0.0, "is_disabled": 0, "lat": 38.844253, "bike_id": "642bb19293d3bb29da0450aaee855b7a", "name": "642bb19293d3bb29da0450aaee855b7a", "is_reserved": 0, "fusion_lat": 0.0}, {"type": "electric_scooter", "rental_uris": {"ios": "https://dc.lft.to/lastmile_qr_scan", "android": "https://dc.lft.to/lastmile_qr_scan"}, "lon": -77.01325383333334, "fusion_lon": 0.0, "is_disabled": 0, "lat": 38.9060075, "bike_id": "327e1bd1650eafcdcf59e1590012b68c", "name": "327e1bd1650eafcdcf59e1590012b68c", "is_reserved": 0, "fusion_lat": 0.0}, {"type": "electric_scooter", "rental_uris": {"ios": "https://dc.lft.to/lastmile_qr_scan", "android": "https://dc.lft.to/lastmile_qr_scan"}, "lon": -77.04027166666667, "fusion_lon": 0.0, "is_disabled": 0, "lat": 38.92352, "bike_id": "c63429df189007945dbeebca859f4b94", "name": "c63429df189007945dbeebca859f4b94", "is_reserved": 0, "fusion_lat": 0.0}, {"type": "electric_scooter", "rental_uris": {"ios": "https://dc.lft.to/lastmile_qr_scan", "android": "https://dc.lft.to/lastmile_qr_scan"}, "lon": -77.04139883333333, "fusion_lon": 0.0, "is_disabled": 0, "lat": 38.934168166666666, "bike_id": "6fc97eb40594edaeeb66643eab3bca9a", "name": "6fc97eb40594edaeeb66643eab3bca9a", "is_reserved": 0, "fusion_lat": 0.0}, {"type": "electric_scooter", "rental_uris": {"ios": "https://dc.lft.to/lastmile_qr_scan", "android": "https://dc.lft.to/lastmile_qr_scan"}, "lon": -76.96530266666667, "fusion_lon": 0.0, "is_disabled": 0, "lat": 38.87626366666667, "bike_id": "a3f2c709528a5eecc0eb7f2bb1ae5c13", "name": "a3f2c709528a5eecc0eb7f2bb1ae5c13", "is_reserved": 0, "fusion_lat": 0.0}, {"type": "electric_scooter", "rental_uris": {"ios": "https://dc.lft.to/lastmile_qr_scan", "android": "https://dc.lft.to/lastmile_qr_scan"}, "lon": -76.94154383333333, "fusion_lon": 0.0, "is_disabled": 0, "lat": 38.88362016666667, "bike_id": "55025406f0cb9a12cd174d32a3963fe5", "name": "55025406f0cb9a12cd174d32a3963fe5", "is_reserved": 0, "fusion_lat": 0.0}, {"type": "electric_scooter", "rental_uris": {"ios": "https://dc.lft.to/lastmile_qr_scan", "android": "https://dc.lft.to/lastmile_qr_scan"}, "lon": -77.078869, "fusion_lon": 0.0, "is_disabled": 0, "lat": 38.9206305, "bike_id": "bb6706e2535304a987630bce42eee84d", "name": "bb6706e2535304a987630bce42eee84d", "is_reserved": 0, "fusion_lat": 0.0}, {"type": "electric_scooter", "rental_uris": {"ios": "https://dc.lft.to/lastmile_qr_scan", "android": "https://dc.lft.to/lastmile_qr_scan"}, "lon": -77.05857433333334, "fusion_lon": 0.0, "is_disabled": 0, "lat": 38.936060499999996, "bike_id": "bf96bbc26157b77504ebf753146cbd81", "name": "bf96bbc26157b77504ebf753146cbd81", "is_reserved": 0, "fusion_lat": 0.0}, {"type": "electric_scooter", "rental_uris": {"ios": "https://dc.lft.to/lastmile_qr_scan", "android": "https://dc.lft.to/lastmile_qr_scan"}, "lon": -77.02632366666667, "fusion_lon": 0.0, "is_disabled": 0, "lat": 38.925419833333336, "bike_id": "f9be84d962d0a4526cc1a827585b2575", "name": "f9be84d962d0a4526cc1a827585b2575", "is_reserved": 0, "fusion_lat": 0.0}, {"type": "electric_bike", "rental_uris": {"ios": "https://dc.lft.to/lastmile_qr_scan", "android": "https://dc.lft.to/lastmile_qr_scan"}, "lon": -76.92490066666667, "fusion_lon": 0.0, "is_disabled": 0, "lat": 38.9587685, "bike_id": "a9a90d3af95f9526a83863f080fbaa95", "name": "a9a90d3af95f9526a83863f080fbaa95", "is_reserved": 0, "fusion_lat": 0.0}, {"type": "electric_scooter", "rental_uris": {"ios": "https://dc.lft.to/lastmile_qr_scan", "android": "https://dc.lft.to/lastmile_qr_scan"}, "lon": -77.032927, "fusion_lon": 0.0, "is_disabled": 0, "lat": 38.93408566666667, "bike_id": "99daf36e822df0c2568841ded92550e6", "name": "99daf36e822df0c2568841ded92550e6", "is_reserved": 0, "fusion_lat": 0.0}, {"type": "electric_scooter", "rental_uris": {"ios": "https://dc.lft.to/lastmile_qr_scan", "android": "https://dc.lft.to/lastmile_qr_scan"}, "lon": -76.99510816666667, "fusion_lon": 0.0, "is_disabled": 0, "lat": 38.883640666666665, "bike_id": "4bcde6c5cc8621357df296ae37ca3fdc", "name": "4bcde6c5cc8621357df296ae37ca3fdc", "is_reserved": 0, "fusion_lat": 0.0}, {"type": "electric_scooter", "rental_uris": {"ios": "https://dc.lft.to/lastmile_qr_scan", "android": "https://dc.lft.to/lastmile_qr_scan"}, "lon": -77.03847533333334, "fusion_lon": 0.0, "is_disabled": 0, "lat": 38.91663533333333, "bike_id": "2e663c631eb7662ae70ac053322e50b4", "name": "2e663c631eb7662ae70ac053322e50b4", "is_reserved": 0, "fusion_lat": 0.0}, {"type": "electric_scooter", "rental_uris": {"ios": "https://dc.lft.to/lastmile_qr_scan", "android": "https://dc.lft.to/lastmile_qr_scan"}, "lon": -77.024261, "fusion_lon": 0.0, "is_disabled": 0, "lat": 38.918573333333335, "bike_id": "f4a5ff5e21bb5f86233e8d594badd011", "name": "f4a5ff5e21bb5f86233e8d594badd011", "is_reserved": 0, "fusion_lat": 0.0}, {"type": "electric_scooter", "rental_uris": {"ios": "https://dc.lft.to/lastmile_qr_scan", "android": "https://dc.lft.to/lastmile_qr_scan"}, "lon": -77.03457116666667, "fusion_lon": 0.0, "is_disabled": 0, "lat": 38.9373865, "bike_id": "b4a94ab9a628c1d53a6bfc1f6652b883", "name": "b4a94ab9a628c1d53a6bfc1f6652b883", "is_reserved": 0, "fusion_lat": 0.0}, {"type": "electric_scooter", "rental_uris": {"ios": "https://dc.lft.to/lastmile_qr_scan", "android": "https://dc.lft.to/lastmile_qr_scan"}, "lon": -77.03645366666667, "fusion_lon": 0.0, "is_disabled": 0, "lat": 38.91727816666667, "bike_id": "9f788d6b3916a91e31183cef2d45969e", "name": "9f788d6b3916a91e31183cef2d45969e", "is_reserved": 0, "fusion_lat": 0.0}, {"type": "electric_scooter", "rental_uris": {"ios": "https://dc.lft.to/lastmile_qr_scan", "android": "https://dc.lft.to/lastmile_qr_scan"}, "lon": -77.03163133333334, "fusion_lon": 0.0, "is_disabled": 0, "lat": 38.91567, "bike_id": "e5677b72e91268123b62540b6a7d3737", "name": "e5677b72e91268123b62540b6a7d3737", "is_reserved": 0, "fusion_lat": 0.0}, {"type": "electric_scooter", "rental_uris": {"ios": "https://dc.lft.to/lastmile_qr_scan", "android": "https://dc.lft.to/lastmile_qr_scan"}, "lon": -77.03479633333333, "fusion_lon": 0.0, "is_disabled": 0, "lat": 38.924785, "bike_id": "25709be2c384ccf97e47e8c8dfb44a54", "name": "25709be2c384ccf97e47e8c8dfb44a54", "is_reserved": 0, "fusion_lat": 0.0}, {"type": "electric_scooter", "rental_uris": {"ios": "https://dc.lft.to/lastmile_qr_scan", "android": "https://dc.lft.to/lastmile_qr_scan"}, "lon": -77.03930933333334, "fusion_lon": 0.0, "is_disabled": 0, "lat": 38.91701066666667, "bike_id": "bc0a47f14427d5c8529085b0f2f31a08", "name": "bc0a47f14427d5c8529085b0f2f31a08", "is_reserved": 0, "fusion_lat": 0.0}, {"type": "electric_scooter", "rental_uris": {"ios": "https://dc.lft.to/lastmile_qr_scan", "android": "https://dc.lft.to/lastmile_qr_scan"}, "lon": -77.04358983333333, "fusion_lon": 0.0, "is_disabled": 0, "lat": 38.910439333333336, "bike_id": "d000b3b02fa779a035d601cde69d83bd", "name": "d000b3b02fa779a035d601cde69d83bd", "is_reserved": 0, "fusion_lat": 0.0}, {"type": "electric_scooter", "rental_uris": {"ios": "https://dc.lft.to/lastmile_qr_scan", "android": "https://dc.lft.to/lastmile_qr_scan"}, "lon": -77.00225816666666, "fusion_lon": 0.0, "is_disabled": 0, "lat": 38.89481033333333, "bike_id": "92d829ac4e9fe103865fd2717f8822ec", "name": "92d829ac4e9fe103865fd2717f8822ec", "is_reserved": 0, "fusion_lat": 0.0}, {"type": "electric_scooter", "rental_uris": {"ios": "https://dc.lft.to/lastmile_qr_scan", "android": "https://dc.lft.to/lastmile_qr_scan"}, "lon": -77.02960766666666, "fusion_lon": 0.0, "is_disabled": 0, "lat": 38.92245883333333, "bike_id": "f026f1e3bb7fd000c7a70dd6e7774ccb", "name": "f026f1e3bb7fd000c7a70dd6e7774ccb", "is_reserved": 0, "fusion_lat": 0.0}, {"type": "electric_scooter", "rental_uris": {"ios": "https://dc.lft.to/lastmile_qr_scan", "android": "https://dc.lft.to/lastmile_qr_scan"}, "lon": -77.03389883333334, "fusion_lon": 0.0, "is_disabled": 0, "lat": 38.909730333333336, "bike_id": "f8aeceaea67f7c1a6c8aef0eabeefb53", "name": "f8aeceaea67f7c1a6c8aef0eabeefb53", "is_reserved": 0, "fusion_lat": 0.0}, {"type": "electric_scooter", "rental_uris": {"ios": "https://dc.lft.to/lastmile_qr_scan", "android": "https://dc.lft.to/lastmile_qr_scan"}, "lon": -77.02223783333334, "fusion_lon": 0.0, "is_disabled": 0, "lat": 38.892145666666664, "bike_id": "a5b47e09c69d18779ad9b8425cea415e", "name": "a5b47e09c69d18779ad9b8425cea415e", "is_reserved": 0, "fusion_lat": 0.0}, {"type": "electric_bike", "rental_uris": {"ios": "https://dc.lft.to/lastmile_qr_scan", "android": "https://dc.lft.to/lastmile_qr_scan"}, "lon": -77.00222483333333, "fusion_lon": 0.0, "is_disabled": 0, "lat": 38.928457, "bike_id": "1f5275cb338b5834698c8c4c2230222d", "name": "1f5275cb338b5834698c8c4c2230222d", "is_reserved": 0, "fusion_lat": 0.0}, {"type": "electric_scooter", "rental_uris": {"ios": "https://dc.lft.to/lastmile_qr_scan", "android": "https://dc.lft.to/lastmile_qr_scan"}, "lon": -77.0345485, "fusion_lon": 0.0, "is_disabled": 0, "lat": 38.93742133333333, "bike_id": "7605a46e70f27c2380baf571b5589f83", "name": "7605a46e70f27c2380baf571b5589f83", "is_reserved": 0, "fusion_lat": 0.0}, {"type": "electric_scooter", "rental_uris": {"ios": "https://dc.lft.to/lastmile_qr_scan", "android": "https://dc.lft.to/lastmile_qr_scan"}, "lon": -77.0314875, "fusion_lon": 0.0, "is_disabled": 0, "lat": 38.8874745, "bike_id": "6a36015db32a8b5071e16c3f75cbad84", "name": "6a36015db32a8b5071e16c3f75cbad84", "is_reserved": 0, "fusion_lat": 0.0}, {"type": "electric_scooter", "rental_uris": {"ios": "https://dc.lft.to/lastmile_qr_scan", "android": "https://dc.lft.to/lastmile_qr_scan"}, "lon": -76.99904566666666, "fusion_lon": 0.0, "is_disabled": 0, "lat": 38.90752033333333, "bike_id": "cc090bf66c47c817c30061b5e7c86b17", "name": "cc090bf66c47c817c30061b5e7c86b17", "is_reserved": 0, "fusion_lat": 0.0}, {"type": "electric_scooter", "rental_uris": {"ios": "https://dc.lft.to/lastmile_qr_scan", "android": "https://dc.lft.to/lastmile_qr_scan"}, "lon": -77.00095083333333, "fusion_lon": 0.0, "is_disabled": 0, "lat": 38.9123945, "bike_id": "98e6581b90557f4ea4a5c7df21d8d951", "name": "98e6581b90557f4ea4a5c7df21d8d951", "is_reserved": 0, "fusion_lat": 0.0}, {"type": "electric_scooter", "rental_uris": {"ios": "https://dc.lft.to/lastmile_qr_scan", "android": "https://dc.lft.to/lastmile_qr_scan"}, "lon": -77.0385635, "fusion_lon": 0.0, "is_disabled": 0, "lat": 38.93231683333333, "bike_id": "b0dbdb194943ec905f7e635b1f14fd27", "name": "b0dbdb194943ec905f7e635b1f14fd27", "is_reserved": 0, "fusion_lat": 0.0}, {"type": "electric_scooter", "rental_uris": {"ios": "https://dc.lft.to/lastmile_qr_scan", "android": "https://dc.lft.to/lastmile_qr_scan"}, "lon": -77.0625505, "fusion_lon": 0.0, "is_disabled": 0, "lat": 38.944295, "bike_id": "515d463e344988f8e8fc77fea7bf849e", "name": "515d463e344988f8e8fc77fea7bf849e", "is_reserved": 0, "fusion_lat": 0.0}, {"type": "electric_scooter", "rental_uris": {"ios": "https://dc.lft.to/lastmile_qr_scan", "android": "https://dc.lft.to/lastmile_qr_scan"}, "lon": -77.03339566666666, "fusion_lon": 0.0, "is_disabled": 0, "lat": 38.91699883333333, "bike_id": "0b8db74973bdb7eeaf4db7a4e4f66f51", "name": "0b8db74973bdb7eeaf4db7a4e4f66f51", "is_reserved": 0, "fusion_lat": 0.0}, {"type": "electric_scooter", "rental_uris": {"ios": "https://dc.lft.to/lastmile_qr_scan", "android": "https://dc.lft.to/lastmile_qr_scan"}, "lon": -77.03068133333333, "fusion_lon": 0.0, "is_disabled": 0, "lat": 38.905707, "bike_id": "212374f9a3de6db28fab04b4456acd59", "name": "212374f9a3de6db28fab04b4456acd59", "is_reserved": 0, "fusion_lat": 0.0}, {"type": "electric_scooter", "rental_uris": {"ios": "https://dc.lft.to/lastmile_qr_scan", "android": "https://dc.lft.to/lastmile_qr_scan"}, "lon": -77.024928, "fusion_lon": 0.0, "is_disabled": 0, "lat": 38.930956, "bike_id": "a891d50ef63f945650b126ac1794ce6d", "name": "a891d50ef63f945650b126ac1794ce6d", "is_reserved": 0, "fusion_lat": 0.0}, {"type": "electric_scooter", "rental_uris": {"ios": "https://dc.lft.to/lastmile_qr_scan", "android": "https://dc.lft.to/lastmile_qr_scan"}, "lon": -77.02697583333334, "fusion_lon": 0.0, "is_disabled": 0, "lat": 38.90675816666667, "bike_id": "9ff867b1a57863c27f6294ef4dfc2e9b", "name": "9ff867b1a57863c27f6294ef4dfc2e9b", "is_reserved": 0, "fusion_lat": 0.0}, {"type": "electric_scooter", "rental_uris": {"ios": "https://dc.lft.to/lastmile_qr_scan", "android": "https://dc.lft.to/lastmile_qr_scan"}, "lon": -77.0121885, "fusion_lon": 0.0, "is_disabled": 0, "lat": 38.919748, "bike_id": "7a7bcdad98f20663533d2f3df86930c6", "name": "7a7bcdad98f20663533d2f3df86930c6", "is_reserved": 0, "fusion_lat": 0.0}, {"type": "electric_scooter", "rental_uris": {"ios": "https://dc.lft.to/lastmile_qr_scan", "android": "https://dc.lft.to/lastmile_qr_scan"}, "lon": -77.02973516666667, "fusion_lon": 0.0, "is_disabled": 0, "lat": 38.916828833333334, "bike_id": "6f99b756434f77926ca93e0a9e7343a7", "name": "6f99b756434f77926ca93e0a9e7343a7", "is_reserved": 0, "fusion_lat": 0.0}, {"type": "electric_scooter", "rental_uris": {"ios": "https://dc.lft.to/lastmile_qr_scan", "android": "https://dc.lft.to/lastmile_qr_scan"}, "lon": -77.00209, "fusion_lon": 0.0, "is_disabled": 0, "lat": 38.89496483333333, "bike_id": "95242c0a59d78ead6308468b5907b502", "name": "95242c0a59d78ead6308468b5907b502", "is_reserved": 0, "fusion_lat": 0.0}, {"type": "electric_scooter", "rental_uris": {"ios": "https://dc.lft.to/lastmile_qr_scan", "android": "https://dc.lft.to/lastmile_qr_scan"}, "lon": -77.032735, "fusion_lon": 0.0, "is_disabled": 0, "lat": 38.93395016666667, "bike_id": "a1bf9b1c44ca1cc5ab972ca7b4cbb995", "name": "a1bf9b1c44ca1cc5ab972ca7b4cbb995", "is_reserved": 0, "fusion_lat": 0.0}, {"type": "electric_scooter", "rental_uris": {"ios": "https://dc.lft.to/lastmile_qr_scan", "android": "https://dc.lft.to/lastmile_qr_scan"}, "lon": -77.03315966666666, "fusion_lon": 0.0, "is_disabled": 0, "lat": 38.959557333333336, "bike_id": "979c40ede3c0709c1b5784f350c0863c", "name": "979c40ede3c0709c1b5784f350c0863c", "is_reserved": 0, "fusion_lat": 0.0}, {"type": "electric_scooter", "rental_uris": {"ios": "https://dc.lft.to/lastmile_qr_scan", "android": "https://dc.lft.to/lastmile_qr_scan"}, "lon": -77.03666533333333, "fusion_lon": 0.0, "is_disabled": 0, "lat": 38.918194666666665, "bike_id": "bfe8f700ceeeab72fd56d379990e926b", "name": "bfe8f700ceeeab72fd56d379990e926b", "is_reserved": 0, "fusion_lat": 0.0}, {"type": "electric_scooter", "rental_uris": {"ios": "https://dc.lft.to/lastmile_qr_scan", "android": "https://dc.lft.to/lastmile_qr_scan"}, "lon": -77.07008416666666, "fusion_lon": 0.0, "is_disabled": 0, "lat": 38.905938166666665, "bike_id": "8783371ab6b54cd7c3878b67ad94ac30", "name": "8783371ab6b54cd7c3878b67ad94ac30", "is_reserved": 0, "fusion_lat": 0.0}, {"type": "electric_scooter", "rental_uris": {"ios": "https://dc.lft.to/lastmile_qr_scan", "android": "https://dc.lft.to/lastmile_qr_scan"}, "lon": -77.03259183333333, "fusion_lon": 0.0, "is_disabled": 0, "lat": 38.91329066666667, "bike_id": "be20058ef3b056d8e9f898b03b0ea3b7", "name": "be20058ef3b056d8e9f898b03b0ea3b7", "is_reserved": 0, "fusion_lat": 0.0}, {"type": "electric_scooter", "rental_uris": {"ios": "https://dc.lft.to/lastmile_qr_scan", "android": "https://dc.lft.to/lastmile_qr_scan"}, "lon": -77.03517216666667, "fusion_lon": 0.0, "is_disabled": 0, "lat": 38.9223385, "bike_id": "a263e4fe7a373e0ef873db8a3e8fa779", "name": "a263e4fe7a373e0ef873db8a3e8fa779", "is_reserved": 0, "fusion_lat": 0.0}, {"type": "electric_scooter", "rental_uris": {"ios": "https://dc.lft.to/lastmile_qr_scan", "android": "https://dc.lft.to/lastmile_qr_scan"}, "lon": -77.046861, "fusion_lon": 0.0, "is_disabled": 0, "lat": 38.8922365, "bike_id": "c7114aaf904f5eb0b002f2f130d2d1a5", "name": "c7114aaf904f5eb0b002f2f130d2d1a5", "is_reserved": 0, "fusion_lat": 0.0}, {"type": "electric_scooter", "rental_uris": {"ios": "https://dc.lft.to/lastmile_qr_scan", "android": "https://dc.lft.to/lastmile_qr_scan"}, "lon": -77.04805966666666, "fusion_lon": 0.0, "is_disabled": 0, "lat": 38.919156, "bike_id": "48ac1ebb1e21ba1d0baf9c3e95f6e777", "name": "48ac1ebb1e21ba1d0baf9c3e95f6e777", "is_reserved": 0, "fusion_lat": 0.0}, {"type": "electric_bike", "rental_uris": {"ios": "https://dc.lft.to/lastmile_qr_scan", "android": "https://dc.lft.to/lastmile_qr_scan"}, "lon": -77.1009415, "fusion_lon": 0.0, "is_disabled": 0, "lat": 38.95956783333333, "bike_id": "1e12d922c98e6f9d94ef1544cefa4120", "name": "1e12d922c98e6f9d94ef1544cefa4120", "is_reserved": 0, "fusion_lat": 0.0}, {"type": "electric_scooter", "rental_uris": {"ios": "https://dc.lft.to/lastmile_qr_scan", "android": "https://dc.lft.to/lastmile_qr_scan"}, "lon": -77.036215, "fusion_lon": 0.0, "is_disabled": 0, "lat": 38.93678716666667, "bike_id": "0efeffbca889efb4e6f17cd0184cd604", "name": "0efeffbca889efb4e6f17cd0184cd604", "is_reserved": 0, "fusion_lat": 0.0}, {"type": "electric_scooter", "rental_uris": {"ios": "https://dc.lft.to/lastmile_qr_scan", "android": "https://dc.lft.to/lastmile_qr_scan"}, "lon": -77.02163083333333, "fusion_lon": 0.0, "is_disabled": 0, "lat": 38.924979, "bike_id": "aa6633c7a12448f2ede0a6edbcfbf981", "name": "aa6633c7a12448f2ede0a6edbcfbf981", "is_reserved": 0, "fusion_lat": 0.0}, {"type": "electric_bike", "rental_uris": {"ios": "https://dc.lft.to/lastmile_qr_scan", "android": "https://dc.lft.to/lastmile_qr_scan"}, "lon": -76.98949083333333, "fusion_lon": 0.0, "is_disabled": 0, "lat": 38.867057, "bike_id": "0e8127ca287ba6cebb30fb886ad88aaf", "name": "0e8127ca287ba6cebb30fb886ad88aaf", "is_reserved": 0, "fusion_lat": 0.0}, {"type": "electric_scooter", "rental_uris": {"ios": "https://dc.lft.to/lastmile_qr_scan", "android": "https://dc.lft.to/lastmile_qr_scan"}, "lon": -77.03694533333334, "fusion_lon": 0.0, "is_disabled": 0, "lat": 38.936596, "bike_id": "a6bff1749bd4b2dc62b894efd925290a", "name": "a6bff1749bd4b2dc62b894efd925290a", "is_reserved": 0, "fusion_lat": 0.0},