{"data": {"bikes": [{"name": "149b25c448bdedbb283a7e585c03cca6", "lon": -77.04429966666666, "lat": 38.9213215, "type": "electric_scooter", "fusion_lon": 0.0, "is_reserved": 0, "bike_id": "149b25c448bdedbb283a7e585c03cca6", "fusion_lat": 0.0, "is_disabled": 0, "rental_uris": {"ios": "https://dc.lft.to/lastmile_qr_scan", "android": "https://dc.lft.to/lastmile_qr_scan"}}, {"name": "77aa8f95da05223d00dbb79b0db7e655", "lon": -77.0408575, "lat": 38.925469166666666, "type": "electric_scooter", "fusion_lon": 0.0, "is_reserved": 0, "bike_id": "77aa8f95da05223d00dbb79b0db7e655", "fusion_lat": 0.0, "is_disabled": 0, "rental_uris": {"ios": "https://dc.lft.to/lastmile_qr_scan", "android": "https://dc.lft.to/lastmile_qr_scan"}}, {"name": "7bed94b8de8f171a537cb96b90283c56", "lon": -77.04874883333333, "lat": 38.892720833333335, "type": "electric_scooter", "fusion_lon": 0.0, "is_reserved": 0, "bike_id": "7bed94b8de8f171a537cb96b90283c56", "fusion_lat": 0.0, "is_disabled": 0, "rental_uris": {"ios": "https://dc.lft.to/lastmile_qr_scan", "android": "https://dc.lft.to/lastmile_qr_scan"}}, {"name": "b6465caa49dac7f454ebaca8019feae5", "lon": -77.02814066666667, "lat": 38.9650675, "type": "electric_bike", "fusion_lon": 0.0, "is_reserved": 0, "bike_id": "b6465caa49dac7f454ebaca8019feae5", "fusion_lat": 0.0, "is_disabled": 0, "rental_uris": {"ios": "https://dc.lft.to/lastmile_qr_scan", "android": "https://dc.lft.to/lastmile_qr_scan"}}, {"name": "09e3a1013f56d554b75f840a95fe3ff2", "lon": -77.0461235, "lat": 38.923302666666665, "type": "electric_scooter", "fusion_lon": 0.0, "is_reserved": 0, "bike_id": "09e3a1013f56d554b75f840a95fe3ff2", "fusion_lat": 0.0, "is_disabled": 0, "rental_uris": {"ios": "https://dc.lft.to/lastmile_qr_scan", "android": "https://dc.lft.to/lastmile_qr_scan"}}, {"name": "e45bb6b136ce31a9a416d0e6eaaff7e6", "lon": -77.11566416666666, "lat": 38.99334566666667, "type": "electric_bike", "fusion_lon": 0.0, "is_reserved": 0, "bike_id": "e45bb6b136ce31a9a416d0e6eaaff7e6", "fusion_lat": 0.0, "is_disabled": 0, "rental_uris": {"ios": "https://dc.lft.to/lastmile_qr_scan", "android": "https://dc.lft.to/lastmile_qr_scan"}}, {"name": "8daca76c47fca14735139720b71b9e40", "lon": -76.9888245, "lat": 38.866712, "type": "electric_scooter", "fusion_lon": 0.0, "is_reserved": 0, "bike_id": "8daca76c47fca14735139720b71b9e40", "fusion_lat": 0.0, "is_disabled": 0, "rental_uris": {"ios": "https://dc.lft.to/lastmile_qr_scan", "android": "https://dc.lft.to/lastmile_qr_scan"}}, {"name": "dc2f7e75e66a193f089bb182eb2668b3", "lon": -77.0493255, "lat": 38.909984, "type": "electric_scooter", "fusion_lon": 0.0, "is_reserved": 0, "bike_id": "dc2f7e75e66a193f089bb182eb2668b3", "fusion_lat": 0.0, "is_disabled": 0, "rental_uris": {"ios": "https://dc.lft.to/lastmile_qr_scan", "android": "https://dc.lft.to/lastmile_qr_scan"}}, {"name": "142debacf13f3731d97970f04061bfac", "lon": -77.04653483333334, "lat": 38.91363, "type": "electric_scooter", "fusion_lon": 0.0, "is_reserved": 0, "bike_id": "142debacf13f3731d97970f04061bfac", "fusion_lat": 0.0, "is_disabled": 0, "rental_uris": {"ios": "https://dc.lft.to/lastmile_qr_scan", "android": "https://dc.lft.to/lastmile_qr_scan"}}, {"name": "f55eb3436091cba0660edd84c685c9f0", "lon": -77.01967783333333, "lat": 38.956539166666666, "type": "electric_scooter", "fusion_lon": 0.0, "is_reserved": 0, "bike_id": "f55eb3436091cba0660edd84c685c9f0", "fusion_lat": 0.0, "is_disabled": 0, "rental_uris": {"ios": "https://dc.lft.to/lastmile_qr_scan", "android": "https://dc.lft.to/lastmile_qr_scan"}}, {"name": "2f79285cab1038483970e61a78ccd980", "lon": -77.01295916666666, "lat": 38.894800333333336, "type": "electric_scooter", "fusion_lon": 0.0, "is_reserved": 0, "bike_id": "2f79285cab1038483970e61a78ccd980", "fusion_lat": 0.0, "is_disabled": 0, "rental_uris": {"ios": "https://dc.lft.to/lastmile_qr_scan", "android": "https://dc.lft.to/lastmile_qr_scan"}}, {"name": "d3db37a0896bfab4a6fdb4e63c33c4c7", "lon": -77.0296845, "lat": 38.90521783333333, "type": "electric_scooter", "fusion_lon": 0.0, "is_reserved": 0, "bike_id": "d3db37a0896bfab4a6fdb4e63c33c4c7", "fusion_lat": 0.0, "is_disabled": 0, "rental_uris": {"ios": "https://dc.lft.to/lastmile_qr_scan", "android": "https://dc.lft.to/lastmile_qr_scan"}}, {"name": "c3bc9cc889bd1acfa4c932571026c285", "lon": -77.0290445, "lat": 38.91703733333333, "type": "electric_scooter", "fusion_lon": 0.0, "is_reserved": 0, "bike_id": "c3bc9cc889bd1acfa4c932571026c285", "fusion_lat": 0.0, "is_disabled": 0, "rental_uris": {"ios": "https://dc.lft.to/lastmile_qr_scan", "android": "https://dc.lft.to/lastmile_qr_scan"}}, {"name": "34938a7742e9a93730785dbab11fd6c7", "lon": -77.03034283333334, "lat": 38.89765933333334, "type": "electric_scooter", "fusion_lon": 0.0, "is_reserved": 0, "bike_id": "34938a7742e9a93730785dbab11fd6c7", "fusion_lat": 0.0, "is_disabled": 0, "rental_uris": {"ios": "https://dc.lft.to/lastmile_qr_scan", "android": "https://dc.lft.to/lastmile_qr_scan"}}, {"name": "55a69e78865ec7147c39b01c597d2677", "lon": -77.04074416666667, "lat": 38.917901, "type": "electric_scooter", "fusion_lon": 0.0, "is_reserved": 0, "bike_id": "55a69e78865ec7147c39b01c597d2677", "fusion_lat": 0.0, "is_disabled": 0, "rental_uris": {"ios": "https://dc.lft.to/lastmile_qr_scan", "android": "https://dc.lft.to/lastmile_qr_scan"}}, {"name": "b09fdc2aae2036eff8b8e9ce767aa9c2", "lon": -76.99271283333333, "lat": 38.886449, "type": "electric_scooter", "fusion_lon": 0.0, "is_reserved": 0, "bike_id": "b09fdc2aae2036eff8b8e9ce767aa9c2", "fusion_lat": 0.0, "is_disabled": 0, "rental_uris": {"ios": "https://dc.lft.to/lastmile_qr_scan", "android": "https://dc.lft.to/lastmile_qr_scan"}}, {"name": "8f592aae022f7344e1b266f717a4462c", "lon": -77.01628066666666, "lat": 38.901749, "type": "electric_scooter", "fusion_lon": 0.0, "is_reserved": 0, "bike_id": "8f592aae022f7344e1b266f717a4462c", "fusion_lat": 0.0, "is_disabled": 0, "rental_uris": {"ios": "https://dc.lft.to/lastmile_qr_scan", "android": "https://dc.lft.to/lastmile_qr_scan"}}, {"name": "38fc96caaf2cb67e3a8784295aec1584", "lon": -77.02395266666667, "lat": 38.896315333333334, "type": "electric_scooter", "fusion_lon": 0.0, "is_reserved": 0, "bike_id": "38fc96caaf2cb67e3a8784295aec1584", "fusion_lat": 0.0, "is_disabled": 0, "rental_uris": {"ios": "https://dc.lft.to/lastmile_qr_scan", "android": "https://dc.lft.to/lastmile_qr_scan"}}, {"name": "2ba140530439fec21c36b3f5a2f57bcf", "lon": -77.0320655, "lat": 38.913615166666666, "type": "electric_scooter", "fusion_lon": 0.0, "is_reserved": 0, "bike_id": "2ba140530439fec21c36b3f5a2f57bcf", "fusion_lat": 0.0, "is_disabled": 0, "rental_uris": {"ios": "https://dc.lft.to/lastmile_qr_scan", "android": "https://dc.lft.to/lastmile_qr_scan"}}, {"name": "717265105d930ae275f4af23bf793323", "lon": -77.02953, "lat": 38.89929033333333, "type": "electric_scooter", "fusion_lon": 0.0, "is_reserved": 0, "bike_id": "717265105d930ae275f4af23bf793323", "fusion_lat": 0.0, "is_disabled": 0, "rental_uris": {"ios": "https://dc.lft.to/lastmile_qr_scan", "android": "https://dc.lft.to/lastmile_qr_scan"}}, {"name": "e73d4d010fe65e2bef4030e4f7f8d4c6", "lon": -76.98885733333333, "lat": 38.86655866666667, "type": "electric_scooter", "fusion_lon": 0.0, "is_reserved": 0, "bike_id": "e73d4d010fe65e2bef4030e4f7f8d4c6", "fusion_lat": 0.0, "is_disabled": 0, "rental_uris": {"ios": "https://dc.lft.to/lastmile_qr_scan", "android": "https://dc.lft.to/lastmile_qr_scan"}}, {"name": "ba76eeeb105f4988dfda2e6512ca5bea", "lon": -76.93753416666667, "lat": 38.890435333333336, "type": "electric_scooter", "fusion_lon": 0.0, "is_reserved": 0, "bike_id": "ba76eeeb105f4988dfda2e6512ca5bea", "fusion_lat": 0.0, "is_disabled": 0, "rental_uris": {"ios": "https://dc.lft.to/lastmile_qr_scan", "android": "https://dc.lft.to/lastmile_qr_scan"}}, {"name": "2802075b7b54254c5eb21dc065d584d9", "lon": -77.04802366666667, "lat": 38.89221466666667, "type": "electric_scooter", "fusion_lon": 0.0, "is_reserved": 0, "bike_id": "2802075b7b54254c5eb21dc065d584d9", "fusion_lat": 0.0, "is_disabled": 0, "rental_uris": {"ios": "https://dc.lft.to/lastmile_qr_scan", "android": "https://dc.lft.to/lastmile_qr_scan"}}, {"name": "b92e9653b980a1bc315bedfb92970f2a", "lon": -77.0431895, "lat": 38.9265735, "type": "electric_scooter", "fusion_lon": 0.0, "is_reserved": 0, "bike_id": "b92e9653b980a1bc315bedfb92970f2a", "fusion_lat": 0.0, "is_disabled": 0, "rental_uris": {"ios": "https://dc.lft.to/lastmile_qr_scan", "android": "https://dc.lft.to/lastmile_qr_scan"}}, {"name": "e8c92a670e004961cf6ae99920ec300f", "lon": -76.94805483333333, "lat": 38.861934, "type": "electric_bike", "fusion_lon": 0.0, "is_reserved": 0, "bike_id": "e8c92a670e004961cf6ae99920ec300f", "fusion_lat": 0.0, "is_disabled": 0, "rental_uris": {"ios": "https://dc.lft.to/lastmile_qr_scan", "android": "https://dc.lft.to/lastmile_qr_scan"}}, {"name": "4aa3940e899627a870c904c3342a7e3a", "lon": -77.02898183333333, "lat": 38.88745266666667, "type": "electric_scooter", "fusion_lon": 0.0, "is_reserved": 0, "bike_id": "4aa3940e899627a870c904c3342a7e3a", "fusion_lat": 0.0, "is_disabled": 0, "rental_uris": {"ios": "https://dc.lft.to/lastmile_qr_scan", "android": "https://dc.lft.to/lastmile_qr_scan"}}, {"name": "bf8751cfb9320e002a9a835209134cab", "lon": -77.035517, "lat": 38.907863, "type": "electric_scooter", "fusion_lon": 0.0, "is_reserved": 0, "bike_id": "bf8751cfb9320e002a9a835209134cab", "fusion_lat": 0.0, "is_disabled": 0, "rental_uris": {"ios": "https://dc.lft.to/lastmile_qr_scan", "android": "https://dc.lft.to/lastmile_qr_scan"}}, {"name": "f97d1d01236de446658e88dc31337166", "lon": -77.04124283333333, "lat": 38.921671833333335, "type": "electric_scooter", "fusion_lon": 0.0, "is_reserved": 0, "bike_id": "f97d1d01236de446658e88dc31337166", "fusion_lat": 0.0, "is_disabled": 0, "rental_uris": {"ios": "https://dc.lft.to/lastmile_qr_scan", "android": "https://dc.lft.to/lastmile_qr_scan"}}, {"name": "17fc632cd7fa172704e512f3a3709f51", "lon": -77.003387, "lat": 38.8899105, "type": "electric_scooter", "fusion_lon": 0.0, "is_reserved": 0, "bike_id": "17fc632cd7fa172704e512f3a3709f51", "fusion_lat": 0.0, "is_disabled": 0, "rental_uris": {"ios": "https://dc.lft.to/lastmile_qr_scan", "android": "https://dc.lft.to/lastmile_qr_scan"}}, {"name": "0eac7c3df1afa9896261e19ab5fc517a", "lon": -77.03128783333334, "lat": 38.91565533333333, "type": "electric_scooter", "fusion_lon": 0.0, "is_reserved": 0, "bike_id": "0eac7c3df1afa9896261e19ab5fc517a", "fusion_lat": 0.0, "is_disabled": 0, "rental_uris": {"ios": "https://dc.lft.to/lastmile_qr_scan", "android": "https://dc.lft.to/lastmile_qr_scan"}}, {"name": "9d2ee2575ce8f79c69848dd58dda68f1", "lon": -77.041848, "lat": 38.89225666666667, "type": "electric_scooter", "fusion_lon": 0.0, "is_reserved": 0, "bike_id": "9d2ee2575ce8f79c69848dd58dda68f1", "fusion_lat": 0.0, "is_disabled": 0, "rental_uris": {"ios": "https://dc.lft.to/lastmile_qr_scan", "android": "https://dc.lft.to/lastmile_qr_scan"}}, {"name": "590056aae911a73b45830bf43c8cbe80", "lon": -76.98837866666666, "lat": 38.900338, "type": "electric_scooter", "fusion_lon": 0.0, "is_reserved": 0, "bike_id": "590056aae911a73b45830bf43c8cbe80", "fusion_lat": 0.0, "is_disabled": 0, "rental_uris": {"ios": "https://dc.lft.to/lastmile_qr_scan", "android": "https://dc.lft.to/lastmile_qr_scan"}}, {"name": "02e2a4ee22c79544f57a28b7c010ed67", "lon": -77.02374066666667, "lat": 38.90219366666667, "type": "electric_scooter", "fusion_lon": 0.0, "is_reserved": 0, "bike_id": "02e2a4ee22c79544f57a28b7c010ed67", "fusion_lat": 0.0, "is_disabled": 0, "rental_uris": {"ios": "https://dc.lft.to/lastmile_qr_scan", "android": "https://dc.lft.to/lastmile_qr_scan"}}, {"name": "4762d09b6bae3f9f3176ac94cbcce281", "lon": -77.09469566666667, "lat": 38.88625566666666, "type": "electric_bike", "fusion_lon": 0.0, "is_reserved": 0, "bike_id": "4762d09b6bae3f9f3176ac94cbcce281", "fusion_lat": 0.0, "is_disabled": 0, "rental_uris": {"ios": "https://dc.lft.to/lastmile_qr_scan", "android": "https://dc.lft.to/lastmile_qr_scan"}}, {"name": "aa09dfa855ea0e80209f0b695bda24c9", "lon": -77.05002283333333, "lat": 38.892333666666666, "type": "electric_scooter", "fusion_lon": 0.0, "is_reserved": 0, "bike_id": "aa09dfa855ea0e80209f0b695bda24c9", "fusion_lat": 0.0, "is_disabled": 0, "rental_uris": {"ios": "https://dc.lft.to/lastmile_qr_scan", "android": "https://dc.lft.to/lastmile_qr_scan"}}, {"name": "f53185b4b447eba9d450036fb9824d8c", "lon": -77.01760216666666, "lat": 38.8768555, "type": "electric_scooter", "fusion_lon": 0.0, "is_reserved": 0, "bike_id": "f53185b4b447eba9d450036fb9824d8c", "fusion_lat": 0.0, "is_disabled": 0, "rental_uris": {"ios": "https://dc.lft.to/lastmile_qr_scan", "android": "https://dc.lft.to/lastmile_qr_scan"}}, {"name": "24f0dfc2354a8c3721304d526316ad20", "lon": -77.0326215, "lat": 38.92945433333333, "type": "electric_scooter", "fusion_lon": 0.0, "is_reserved": 0, "bike_id": "24f0dfc2354a8c3721304d526316ad20", "fusion_lat": 0.0, "is_disabled": 0, "rental_uris": {"ios": "https://dc.lft.to/lastmile_qr_scan", "android": "https://dc.lft.to/lastmile_qr_scan"}}, {"name": "be7467b81e4df26cd5ad532113dc4dea", "lon": -77.038401, "lat": 38.921604333333335, "type": "electric_scooter", "fusion_lon": 0.0, "is_reserved": 0, "bike_id": "be7467b81e4df26cd5ad532113dc4dea", "fusion_lat": 0.0, "is_disabled": 0, "rental_uris": {"ios": "https://dc.lft.to/lastmile_qr_scan", "android": "https://dc.lft.to/lastmile_qr_scan"}}, {"name": "dac24506744c48a703ff7aaff3bcc815", "lon": -76.99313133333334, "lat": 38.900067166666666, "type": "electric_scooter", "fusion_lon": 0.0, "is_reserved": 0, "bike_id": "dac24506744c48a703ff7aaff3bcc815", "fusion_lat": 0.0, "is_disabled": 0, "rental_uris": {"ios": "https://dc.lft.to/lastmile_qr_scan", "android": "https://dc.lft.to/lastmile_qr_scan"}}, {"name": "4d204d6638f9772b959e8a297c38a9fe", "lon": -77.03840833333334, "lat": 38.914458833333335, "type": "electric_scooter", "fusion_lon": 0.0, "is_reserved": 0, "bike_id": "4d204d6638f9772b959e8a297c38a9fe", "fusion_lat": 0.0, "is_disabled": 0, "rental_uris": {"ios": "https://dc.lft.to/lastmile_qr_scan", "android": "https://dc.lft.to/lastmile_qr_scan"}}, {"name": "de31959d1f5607be1643216bfefa142c", "lon": -77.02693116666667, "lat": 38.9024915, "type": "electric_scooter", "fusion_lon": 0.0, "is_reserved": 0, "bike_id": "de31959d1f5607be1643216bfefa142c", "fusion_lat": 0.0, "is_disabled": 0, "rental_uris": {"ios": "https://dc.lft.to/lastmile_qr_scan", "android": "https://dc.lft.to/lastmile_qr_scan"}}, {"name": "a567f0a2ed87b51c9bc63a4e7206ce28", "lon": -77.01405533333333, "lat": 38.88744766666667, "type": "electric_scooter", "fusion_lon": 0.0, "is_reserved": 0, "bike_id": "a567f0a2ed87b51c9bc63a4e7206ce28", "fusion_lat": 0.0, "is_disabled": 0, "rental_uris": {"ios": "https://dc.lft.to/lastmile_qr_scan", "android": "https://dc.lft.to/lastmile_qr_scan"}}, {"name": "75a68aa925a6faeadfdb2c95a0d65c96", "lon": -77.03667266666666, "lat": 38.903819666666664, "type": "electric_scooter", "fusion_lon": 0.0, "is_reserved": 0, "bike_id": "75a68aa925a6faeadfdb2c95a0d65c96", "fusion_lat": 0.0, "is_disabled": 0, "rental_uris": {"ios": "https://dc.lft.to/lastmile_qr_scan", "android": "https://dc.lft.to/lastmile_qr_scan"}}, {"name": "6314f29efd69c90bbd2f9e85396d74e0", "lon": -77.04481983333334, "lat": 38.9224065, "type": "electric_scooter", "fusion_lon": 0.0, "is_reserved": 0, "bike_id": "6314f29efd69c90bbd2f9e85396d74e0", "fusion_lat": 0.0, "is_disabled": 0, "rental_uris": {"ios": "https://dc.lft.to/lastmile_qr_scan", "android": "https://dc.lft.to/lastmile_qr_scan"}}, {"name": "8b25b875bebe7b0c9573164fb4b51a28", "lon": -76.93735633333333, "lat": 38.890175166666666, "type": "electric_scooter", "fusion_lon": 0.0, "is_reserved": 0, "bike_id": "8b25b875bebe7b0c9573164fb4b51a28", "fusion_lat": 0.0, "is_disabled": 0, "rental_uris": {"ios": "https://dc.lft.to/lastmile_qr_scan", "android": "https://dc.lft.to/lastmile_qr_scan"}}, {"name": "4696308f4c67194a4da56a06e5d607f1", "lon": -76.9990395, "lat": 38.948176833333335, "type": "electric_scooter", "fusion_lon": 0.0, "is_reserved": 0, "bike_id": "4696308f4c67194a4da56a06e5d607f1", "fusion_lat": 0.0, "is_disabled": 0, "rental_uris": {"ios": "https://dc.lft.to/lastmile_qr_scan", "android": "https://dc.lft.to/lastmile_qr_scan"}}, {"name": "53cc01c70fd8316e5d0e10d7b059b01f", "lon": -77.02953216666667, "lat": 38.899409166666665, "type": "electric_scooter", "fusion_lon": 0.0, "is_reserved": 0, "bike_id": "53cc01c70fd8316e5d0e10d7b059b01f", "fusion_lat": 0.0, "is_disabled": 0, "rental_uris": {"ios": "https://dc.lft.to/lastmile_qr_scan", "android": "https://dc.lft.to/lastmile_qr_scan"}}, {"name": "e0976dabc5073b094df1353ef2253089", "lon": -77.0271755, "lat": 38.924592, "type": "electric_scooter", "fusion_lon": 0.0, "is_reserved": 0, "bike_id": "e0976dabc5073b094df1353ef2253089", "fusion_lat": 0.0, "is_disabled": 0, "rental_uris": {"ios": "https://dc.lft.to/lastmile_qr_scan", "android": "https://dc.lft.to/lastmile_qr_scan"}}, {"name": "31f0372abbf133cc3966e55ddec7722c", "lon": -77.02286, "lat": 38.9160355, "type": "electric_scooter", "fusion_lon": 0.0, "is_reserved": 0, "bike_id": "31f0372abbf133cc3966e55ddec7722c", "fusion_lat": 0.0, "is_disabled": 0, "rental_uris": {"ios": "https://dc.lft.to/lastmile_qr_scan", "android": "https://dc.lft.to/lastmile_qr_scan"}}, {"name": "81c0f90b45519ae3e194a71bf90837ac", "lon": -77.0239675, "lat": 38.927558833333336, "type": "electric_bike", "fusion_lon": 0.0, "is_reserved": 0, "bike_id": "81c0f90b45519ae3e194a71bf90837ac", "fusion_lat": 0.0, "is_disabled": 0, "rental_uris": {"ios": "https://dc.lft.to/lastmile_qr_scan", "android": "https://dc.lft.to/lastmile_qr_scan"}}, {"name": "70716d703daed9073e4263347719a82a", "lon": -77.01836866666666, "lat": 38.90961933333333, "type": "electric_scooter", "fusion_lon": 0.0, "is_reserved": 0, "bike_id": "70716d703daed9073e4263347719a82a", "fusion_lat": 0.0, "is_disabled": 0, "rental_uris": {"ios": "https://dc.lft.to/lastmile_qr_scan", "android": "https://dc.lft.to/lastmile_qr_scan"}}, {"name": "6feb5cf0fb847d27d24cd95c581aaed3", "lon": -77.1106045, "lat": 38.870806333333334, "type": "electric_bike", "fusion_lon": 0.0, "is_reserved": 0, "bike_id": "6feb5cf0fb847d27d24cd95c581aaed3", "fusion_lat": 0.0, "is_disabled": 0, "rental_uris": {"ios": "https://dc.lft.to/lastmile_qr_scan", "android": "https://dc.lft.to/lastmile_qr_scan"}}, {"name": "ab5a35e006fe6121694206031e389885", "lon": -77.1161415, "lat": 38.85492516666667, "type": "electric_bike", "fusion_lon": 0.0, "is_reserved": 0, "bike_id": "ab5a35e006fe6121694206031e389885", "fusion_lat": 0.0, "is_disabled": 0, "rental_uris": {"ios": "https://dc.lft.to/lastmile_qr_scan", "android": "https://dc.lft.to/lastmile_qr_scan"}}, {"name": "77527fa5826dfe98b1b44094ce8a4192", "lon": -77.03637966666666, "lat": 38.92747583333333, "type": "electric_scooter", "fusion_lon": 0.0, "is_reserved": 0, "bike_id": "77527fa5826dfe98b1b44094ce8a4192", "fusion_lat": 0.0, "is_disabled": 0, "rental_uris": {"ios": "https://dc.lft.to/lastmile_qr_scan", "android": "https://dc.lft.to/lastmile_qr_scan"}}, {"name": "93b5370a7b9858fc9f72ac348f2bd7ac", "lon": -76.931971, "lat": 38.8988205, "type": "electric_scooter", "fusion_lon": 0.0, "is_reserved": 0, "bike_id": "93b5370a7b9858fc9f72ac348f2bd7ac", "fusion_lat": 0.0, "is_disabled": 0, "rental_uris": {"ios": "https://dc.lft.to/lastmile_qr_scan", "android": "https://dc.lft.to/lastmile_qr_scan"}}, {"name": "0b901bfe1bc7b2fd69499ef51e958451", "lon": -76.99625016666667, "lat": 38.90089866666667, "type": "electric_scooter", "fusion_lon": 0.0, "is_reserved": 0, "bike_id": "0b901bfe1bc7b2fd69499ef51e958451", "fusion_lat": 0.0, "is_disabled": 0, "rental_uris": {"ios": "https://dc.lft.to/lastmile_qr_scan", "android": "https://dc.lft.to/lastmile_qr_scan"}}, {"name": "cbba17b995db788c376b6fcf3c28ac9b", "lon": -77.04085333333333, "lat": 38.923852, "type": "electric_scooter", "fusion_lon": 0.0, "is_reserved": 0, "bike_id": "cbba17b995db788c376b6fcf3c28ac9b", "fusion_lat": 0.0, "is_disabled": 0, "rental_uris": {"ios": "https://dc.lft.to/lastmile_qr_scan", "android": "https://dc.lft.to/lastmile_qr_scan"}}, {"name": "7e2111d7236f7c72bc49f0ab7164a7dc", "lon": -77.02714283333333, "lat": 38.928799833333336, "type": "electric_scooter", "fusion_lon": 0.0, "is_reserved": 0, "bike_id": "7e2111d7236f7c72bc49f0ab7164a7dc", "fusion_lat": 0.0, "is_disabled": 0, "rental_uris": {"ios": "https://dc.lft.to/lastmile_qr_scan", "android": "https://dc.lft.to/lastmile_qr_scan"}}, {"name": "8614d5db0a98361c4abfe3efd8fc6d56", "lon": -77.12731983333333, "lat": 38.89561033333333, "type": "electric_bike", "fusion_lon": 0.0, "is_reserved": 0, "bike_id": "8614d5db0a98361c4abfe3efd8fc6d56", "fusion_lat": 0.0, "is_disabled": 0, "rental_uris": {"ios": "https://dc.lft.to/lastmile_qr_scan", "android": "https://dc.lft.to/lastmile_qr_scan"}}, {"name": "8bcd960c72a666c01f24add013b9c1be", "lon": -77.02378183333333, "lat": 38.916442333333336, "type": "electric_scooter", "fusion_lon": 0.0, "is_reserved": 0, "bike_id": "8bcd960c72a666c01f24add013b9c1be", "fusion_lat": 0.0, "is_disabled": 0, "rental_uris": {"ios": "https://dc.lft.to/lastmile_qr_scan", "android": "https://dc.lft.to/lastmile_qr_scan"}}, {"name": "d8e1aee0cc50c62d49ebb36a0a1d1981", "lon": -77.03626166666666, "lat": 38.932969166666666, "type": "electric_bike", "fusion_lon": 0.0, "is_reserved": 0, "bike_id": "d8e1aee0cc50c62d49ebb36a0a1d1981", "fusion_lat": 0.0, "is_disabled": 0, "rental_uris": {"ios": "https://dc.lft.to/lastmile_qr_scan", "android": "https://dc.lft.to/lastmile_qr_scan"}}, {"name": "1746cd9b1233d6509382c4498879e94c", "lon": -77.0641035, "lat": 38.91301716666667, "type": "electric_scooter", "fusion_lon": 0.0, "is_reserved": 0, "bike_id": "1746cd9b1233d6509382c4498879e94c", "fusion_lat": 0.0, "is_disabled": 0, "rental_uris": {"ios": "https://dc.lft.to/lastmile_qr_scan", "android": "https://dc.lft.to/lastmile_qr_scan"}}, {"name": "7a26b15435e66e86e77fad9b5cc13ca5", "lon": -76.94585783333333, "lat": 38.93746433333333, "type": "electric_bike", "fusion_lon": 0.0, "is_reserved": 0, "bike_id": "7a26b15435e66e86e77fad9b5cc13ca5", "fusion_lat": 0.0, "is_disabled": 0, "rental_uris": {"ios": "https://dc.lft.to/lastmile_qr_scan", "android": "https://dc.lft.to/lastmile_qr_scan"}}, {"name": "14315940a799b43bf43bbb6a52947d43", "lon": -77.03863016666666, "lat": 38.916924333333334, "type": "electric_scooter", "fusion_lon": 0.0, "is_reserved": 0, "bike_id": "14315940a799b43bf43bbb6a52947d43", "fusion_lat": 0.0, "is_disabled": 0, "rental_uris": {"ios": "https://dc.lft.to/lastmile_qr_scan", "android": "https://dc.lft.to/lastmile_qr_scan"}}, {"name": "b8604d3861215d6f6d1c31540ed70b7f", "lon": -77.03816166666667, "lat": 38.906861666666664, "type": "electric_scooter", "fusion_lon": 0.0, "is_reserved": 0, "bike_id": "b8604d3861215d6f6d1c31540ed70b7f", "fusion_lat": 0.0, "is_disabled": 0, "rental_uris": {"ios": "https://dc.lft.to/lastmile_qr_scan", "android": "https://dc.lft.to/lastmile_qr_scan"}}, {"name": "9a9e398fe85e60e4fc71ecfc71c65c73", "lon": -77.034517, "lat": 38.9095585, "type": "electric_scooter", "fusion_lon": 0.0, "is_reserved": 0, "bike_id": "9a9e398fe85e60e4fc71ecfc71c65c73", "fusion_lat": 0.0, "is_disabled": 0, "rental_uris": {"ios": "https://dc.lft.to/lastmile_qr_scan", "android": "https://dc.lft.to/lastmile_qr_scan"}}, {"name": "9be861284ccf0b9692cea359a5ca5c5f", "lon": -76.987132, "lat": 38.86706866666667, "type": "electric_scooter", "fusion_lon": 0.0, "is_reserved": 0, "bike_id": "9be861284ccf0b9692cea359a5ca5c5f", "fusion_lat": 0.0, "is_disabled": 0, "rental_uris": {"ios": "https://dc.lft.to/lastmile_qr_scan", "android": "https://dc.lft.to/lastmile_qr_scan"}}, {"name": "6bf0bf5c570b15042b52399f89d1a920", "lon": -77.028466, "lat": 38.91706116666667, "type": "electric_scooter", "fusion_lon": 0.0, "is_reserved": 0, "bike_id": "6bf0bf5c570b15042b52399f89d1a920", "fusion_lat": 0.0, "is_disabled": 0, "rental_uris": {"ios": "https://dc.lft.to/lastmile_qr_scan", "android": "https://dc.lft.to/lastmile_qr_scan"}}, {"name": "1912d0425cf80f9c4f13874ff8ac8075", "lon": -76.975343, "lat": 38.903298, "type": "electric_bike", "fusion_lon": 0.0, "is_reserved": 0, "bike_id": "1912d0425cf80f9c4f13874ff8ac8075", "fusion_lat": 0.0, "is_disabled": 0, "rental_uris": {"ios": "https://dc.lft.to/lastmile_qr_scan", "android": "https://dc.lft.to/lastmile_qr_scan"}}, {"name": "74a1f94b7f3813a0066e404f0a02c8ca", "lon": -77.06696366666667, "lat": 38.831797, "type": "electric_bike", "fusion_lon": 0.0, "is_reserved": 0, "bike_id": "74a1f94b7f3813a0066e404f0a02c8ca", "fusion_lat": 0.0, "is_disabled": 0, "rental_uris": {"ios": "https://dc.lft.to/lastmile_qr_scan", "android": "https://dc.lft.to/lastmile_qr_scan"}}, {"name": "3331d2faf3096de85508ee09d21c7ca7", "lon": -77.04414733333333, "lat": 38.92123333333333, "type": "electric_scooter", "fusion_lon": 0.0, "is_reserved": 0, "bike_id": "3331d2faf3096de85508ee09d21c7ca7", "fusion_lat": 0.0, "is_disabled": 0, "rental_uris": {"ios": "https://dc.lft.to/lastmile_qr_scan", "android": "https://dc.lft.to/lastmile_qr_scan"}}, {"name": "67831749ddc9490f27c12143f21cb505", "lon": -77.03500933333333, "lat": 38.92480233333333, "type": "electric_scooter", "fusion_lon": 0.0, "is_reserved": 0, "bike_id": "67831749ddc9490f27c12143f21cb505", "fusion_lat": 0.0, "is_disabled": 0, "rental_uris": {"ios": "https://dc.lft.to/lastmile_qr_scan", "android": "https://dc.lft.to/lastmile_qr_scan"}}, {"name": "5668688dfc667cf665568be8429f5149", "lon": -77.023891, "lat": 38.886789, "type": "electric_scooter", "fusion_lon": 0.0, "is_reserved": 0, "bike_id": "5668688dfc667cf665568be8429f5149", "fusion_lat": 0.0, "is_disabled": 0, "rental_uris": {"ios": "https://dc.lft.to/lastmile_qr_scan", "android": "https://dc.lft.to/lastmile_qr_scan"}}, {"name": "21a2d5801ca6cd8790cd412aa338fa0b", "lon": -77.04848283333334, "lat": 38.916109166666665, "type": "electric_scooter", "fusion_lon": 0.0, "is_reserved": 0, "bike_id": "21a2d5801ca6cd8790cd412aa338fa0b", "fusion_lat": 0.0, "is_disabled": 0, "rental_uris": {"ios": "https://dc.lft.to/lastmile_qr_scan", "android": "https://dc.lft.to/lastmile_qr_scan"}}, {"name": "35d6e700ec6383ff31fc788d82c9d28d", "lon": -77.03526933333333, "lat": 38.906720166666666, "type": "electric_scooter", "fusion_lon": 0.0, "is_reserved": 0, "bike_id": "35d6e700ec6383ff31fc788d82c9d28d", "fusion_lat": 0.0, "is_disabled": 0, "rental_uris": {"ios": "https://dc.lft.to/lastmile_qr_scan", "android": "https://dc.lft.to/lastmile_qr_scan"}}, {"name": "e8cb65d37b7134b560a93889ff843d88", "lon": -76.91914383333334, "lat": 38.885792, "type": "electric_scooter", "fusion_lon": 0.0, "is_reserved": 0, "bike_id": "e8cb65d37b7134b560a93889ff843d88", "fusion_lat": 0.0, "is_disabled": 0, "rental_uris": {"ios": "https://dc.lft.to/lastmile_qr_scan", "android": "https://dc.lft.to/lastmile_qr_scan"}}, {"name": "0426ecacbb6d4f0155659a97a0762fa2", "lon": -77.03620583333333, "lat": 38.932529833333334, "type": "electric_scooter", "fusion_lon": 0.0, "is_reserved": 0, "bike_id": "0426ecacbb6d4f0155659a97a0762fa2", "fusion_lat": 0.0, "is_disabled": 0, "rental_uris": {"ios": "https://dc.lft.to/lastmile_qr_scan", "android": "https://dc.lft.to/lastmile_qr_scan"}}, {"name": "855cbae5400fffbc58a6edff1ee177ce", "lon": -77.057212, "lat": 38.906344833333335, "type": "electric_scooter", "fusion_lon": 0.0, "is_reserved": 0, "bike_id": "855cbae5400fffbc58a6edff1ee177ce", "fusion_lat": 0.0, "is_disabled": 0, "rental_uris": {"ios": "https://dc.lft.to/lastmile_qr_scan", "android": "https://dc.lft.to/lastmile_qr_scan"}}, {"name": "4a39a99df8fe9bee8d13da099b961d78", "lon": -77.02773866666666, "lat": 38.91698783333333, "type": "electric_scooter", "fusion_lon": 0.0, "is_reserved": 0, "bike_id": "4a39a99df8fe9bee8d13da099b961d78", "fusion_lat": 0.0, "is_disabled": 0, "rental_uris": {"ios": "https://dc.lft.to/lastmile_qr_scan", "android": "https://dc.lft.to/lastmile_qr_scan"}}, {"name": "c731597dc8542f2baca3c565a040be14", "lon": -77.0036565, "lat": 38.91555016666667, "type": "electric_scooter", "fusion_lon": 0.0, "is_reserved": 0, "bike_id": "c731597dc8542f2baca3c565a040be14", "fusion_lat": 0.0, "is_disabled": 0, "rental_uris": {"ios": "https://dc.lft.to/lastmile_qr_scan", "android": "https://dc.lft.to/lastmile_qr_scan"}}, {"name": "060309fcc6fac5bfff2f07d2eb9aed3e", "lon": -76.9800705, "lat": 38.853168, "type": "electric_scooter", "fusion_lon": 0.0, "is_reserved": 0, "bike_id": "060309fcc6fac5bfff2f07d2eb9aed3e", "fusion_lat": 0.0, "is_disabled": 0, "rental_uris": {"ios": "https://dc.lft.to/lastmile_qr_scan", "android": "https://dc.lft.to/lastmile_qr_scan"}}, {"name": "f5c333ff21abbf16d83bf8e3d4c7f3c0", "lon": -77.02387133333333, "lat": 38.916618, "type": "electric_scooter", "fusion_lon": 0.0, "is_reserved": 0, "bike_id": "f5c333ff21abbf16d83bf8e3d4c7f3c0", "fusion_lat": 0.0, "is_disabled": 0, "rental_uris": {"ios": "https://dc.lft.to/lastmile_qr_scan", "android": "https://dc.lft.to/lastmile_qr_scan"}}, {"name": "2bdbe0a89e4edc3f2913a29ce6cb65de", "lon": -77.02329516666667, "lat": 38.927010333333335, "type": "electric_scooter", "fusion_lon": 0.0, "is_reserved": 0, "bike_id": "2bdbe0a89e4edc3f2913a29ce6cb65de", "fusion_lat": 0.0, "is_disabled": 0, "rental_uris": {"ios": "https://dc.lft.to/lastmile_qr_scan", "android": "https://dc.lft.to/lastmile_qr_scan"}}, {"name": "41a1c8bb6e8aae7505dfffab519c2477", "lon": -77.0282615, "lat": 38.9140515, "type": "electric_scooter", "fusion_lon": 0.0, "is_reserved": 0, "bike_id": "41a1c8bb6e8aae7505dfffab519c2477", "fusion_lat": 0.0, "is_disabled": 0, "rental_uris": {"ios": "https://dc.lft.to/lastmile_qr_scan", "android": "https://dc.lft.to/lastmile_qr_scan"}}, {"name": "582261fe498be6697e5d8eb989c09718", "lon": -77.01750133333333, "lat": 38.917147, "type": "electric_scooter", "fusion_lon": 0.0, "is_reserved": 0, "bike_id": "582261fe498be6697e5d8eb989c09718", "fusion_lat": 0.0, "is_disabled": 0, "rental_uris": {"ios": "https://dc.lft.to/lastmile_qr_scan", "android": "https://dc.lft.to/lastmile_qr_scan"}}, {"name": "e46ab8e68813336b7c1e9d683a43d746", "lon": -76.982877, "lat": 38.89985633333333, "type": "electric_scooter", "fusion_lon": 0.0, "is_reserved": 0, "bike_id": "e46ab8e68813336b7c1e9d683a43d746", "fusion_lat": 0.0, "is_disabled": 0, "rental_uris": {"ios": "https://dc.lft.to/lastmile_qr_scan", "android": "https://dc.lft.to/lastmile_qr_scan"}}, {"name": "8e97d5cc333b3b3eb3c2909ded2b7702", "lon": -77.02514983333333, "lat": 38.92070283333334, "type": "electric_scooter", "fusion_lon": 0.0, "is_reserved": 0, "bike_id": "8e97d5cc333b3b3eb3c2909ded2b7702", "fusion_lat": 0.0, "is_disabled": 0, "rental_uris": {"ios": "https://dc.lft.to/lastmile_qr_scan", "android": "https://dc.lft.to/lastmile_qr_scan"}}, {"name": "2110b66af31f0af22d451f1180d33621", "lon": -77.0251035, "lat": 38.90417766666667, "type": "electric_scooter", "fusion_lon": 0.0, "is_reserved": 0, "bike_id": "2110b66af31f0af22d451f1180d33621", "fusion_lat": 0.0, "is_disabled": 0, "rental_uris": {"ios": "https://dc.lft.to/lastmile_qr_scan", "android": "https://dc.lft.to/lastmile_qr_scan"}}, {"name": "a3a12a505540f14c38b43318f0358544", "lon": -76.99876533333334, "lat": 38.901255166666665, "type": "electric_scooter", "fusion_lon": 0.0, "is_reserved": 0, "bike_id": "a3a12a505540f14c38b43318f0358544", "fusion_lat": 0.0, "is_disabled": 0, "rental_uris": {"ios": "https://dc.lft.to/lastmile_qr_scan", "android": "https://dc.lft.to/lastmile_qr_scan"}}, {"name": "d0d43f5bbc4b612fe87e83b74a53a616", "lon": -77.05235316666666, "lat": 38.924656166666665, "type": "electric_scooter", "fusion_lon": 0.0, "is_reserved": 0, "bike_id": "d0d43f5bbc4b612fe87e83b74a53a616", "fusion_lat": 0.0, "is_disabled": 0, "rental_uris": {"ios": "https://dc.lft.to/lastmile_qr_scan", "android": "https://dc.lft.to/lastmile_qr_scan"}}, {"name": "b7e0acd87aea15ec864645d14ac6509b", "lon": -77.03392416666667, "lat": 38.91920983333333, "type": "electric_scooter", "fusion_lon": 0.0, "is_reserved": 0, "bike_id": "b7e0acd87aea15ec864645d14ac6509b", "fusion_lat": 0.0, "is_disabled": 0, "rental_uris": {"ios": "https://dc.lft.to/lastmile_qr_scan", "android": "https://dc.lft.to/lastmile_qr_scan"}}, {"name": "e05d49c82b60bc468cf9b591bd9b5379", "lon": -77.03839966666666, "lat": 38.91208316666667, "type": "electric_scooter", "fusion_lon": 0.0, "is_reserved": 0, "bike_id": "e05d49c82b60bc468cf9b591bd9b5379", "fusion_lat": 0.0, "is_disabled": 0, "rental_uris": {"ios": "https://dc.lft.to/lastmile_qr_scan", "android": "https://dc.lft.to/lastmile_qr_scan"}}, {"name": "ee8bfc75e59ed5d3a729738f63ef1e90", "lon": -77.03865533333334, "lat": 38.910449166666666, "type": "electric_scooter", "fusion_lon": 0.0, "is_reserved": 0, "bike_id": "ee8bfc75e59ed5d3a729738f63ef1e90", "fusion_lat": 0.0, "is_disabled": 0, "rental_uris": {"ios": "https://dc.lft.to/lastmile_qr_scan", "android": "https://dc.lft.to/lastmile_qr_scan"}}, {"name": "d5f0f501fa8b50ea88f82be1903d5706", "lon": -77.06927866666666, "lat": 38.907767, "type": "electric_scooter", "fusion_lon": 0.0, "is_reserved": 0, "bike_id": "d5f0f501fa8b50ea88f82be1903d5706", "fusion_lat": 0.0, "is_disabled": 0, "rental_uris": {"ios": "https://dc.lft.to/lastmile_qr_scan", "android": "https://dc.lft.to/lastmile_qr_scan"}}, {"name": "0076e53b1a29654bda6b189d276ed17b", "lon": -77.05040366666667, "lat": 38.92360933333333, "type": "electric_scooter", "fusion_lon": 0.0, "is_reserved": 0, "bike_id": "0076e53b1a29654bda6b189d276ed17b", "fusion_lat": 0.0, "is_disabled": 0, "rental_uris": {"ios": "https://dc.lft.to/lastmile_qr_scan", "android": "https://dc.lft.to/lastmile_qr_scan"}}, {"name": "20b080afcba4300ce23da1d857fad856", "lon": -76.99906866666667, "lat": 38.94691916666667, "type": "electric_scooter", "fusion_lon": 0.0, "is_reserved": 0, "bike_id": "20b080afcba4300ce23da1d857fad856", "fusion_lat": 0.0, "is_disabled": 0, "rental_uris": {"ios": "https://dc.lft.to/lastmile_qr_scan", "android": "https://dc.lft.to/lastmile_qr_scan"}}, {"name": "99135eab0f91656dd42c3bcfe12f1b0a", "lon": -77.04435, "lat": 38.9218355, "type": "electric_scooter", "fusion_lon": 0.0, "is_reserved": 0, "bike_id": "99135eab0f91656dd42c3bcfe12f1b0a", "fusion_lat": 0.0, "is_disabled": 0, "rental_uris": {"ios": "https://dc.lft.to/lastmile_qr_scan", "android": "https://dc.lft.to/lastmile_qr_scan"}}, {"name": "191b7aaa992b487c65e7d9dbe67bb72b", "lon": -77.021022, "lat": 38.92151366666667, "type": "electric_scooter", "fusion_lon": 0.0, "is_reserved": 0, "bike_id": "191b7aaa992b487c65e7d9dbe67bb72b", "fusion_lat": 0.0, "is_disabled": 0, "rental_uris": {"ios": "https://dc.lft.to/lastmile_qr_scan", "android": "https://dc.lft.to/lastmile_qr_scan"}}, {"name": "a87631ff42b403ab52b5dcb8d8fcae2e", "lon": -77.0234785, "lat": 38.94613533333333, "type": "electric_scooter", "fusion_lon": 0.0, "is_reserved": 0, "bike_id": "a87631ff42b403ab52b5dcb8d8fcae2e", "fusion_lat": 0.0, "is_disabled": 0, "rental_uris": {"ios": "https://dc.lft.to/lastmile_qr_scan", "android": "https://dc.lft.to/lastmile_qr_scan"}}, {"name": "9031c2cb83883427816abee77540dbbc", "lon": -76.993295, "lat": 38.85985766666667, "type": "electric_scooter", "fusion_lon": 0.0, "is_reserved": 0, "bike_id": "9031c2cb83883427816abee77540dbbc", "fusion_lat": 0.0, "is_disabled": 0, "rental_uris": {"ios": "https://dc.lft.to/lastmile_qr_scan", "android": "https://dc.lft.to/lastmile_qr_scan"}}, {"name": "44c3d66cd8d8d72eae29e5e7c78b3b62", "lon": -77.0332835, "lat": 38.913200833333335, "type": "electric_scooter", "fusion_lon": 0.0, "is_reserved": 0, "bike_id": "44c3d66cd8d8d72eae29e5e7c78b3b62", "fusion_lat": 0.0, "is_disabled": 0, "rental_uris": {"ios": "https://dc.lft.to/lastmile_qr_scan", "android": "https://dc.lft.to/lastmile_qr_scan"}}, {"name": "6a92ae885b168c95549778efc307807f", "lon": -77.02320033333334, "lat": 38.9178615, "type": "electric_scooter", "fusion_lon": 0.0, "is_reserved": 0, "bike_id": "6a92ae885b168c95549778efc307807f", "fusion_lat": 0.0, "is_disabled": 0, "rental_uris": {"ios": "https://dc.lft.to/lastmile_qr_scan", "android": "https://dc.lft.to/lastmile_qr_scan"}}, {"name": "eabf9193d80aa7e76f3528bff841a416", "lon": -77.03722283333333, "lat": 38.91693083333333, "type": "electric_scooter", "fusion_lon": 0.0, "is_reserved": 0, "bike_id": "eabf9193d80aa7e76f3528bff841a416", "fusion_lat": 0.0, "is_disabled": 0, "rental_uris": {"ios": "https://dc.lft.to/lastmile_qr_scan", "android": "https://dc.lft.to/lastmile_qr_scan"}}, {"name": "a00c2dc847a8624848f0f02e9ace8e95", "lon": -77.0110275, "lat": 38.8730355, "type": "electric_bike", "fusion_lon": 0.0, "is_reserved": 0, "bike_id": "a00c2dc847a8624848f0f02e9ace8e95", "fusion_lat": 0.0, "is_disabled": 0, "rental_uris": {"ios": "https://dc.lft.to/lastmile_qr_scan", "android": "https://dc.lft.to/lastmile_qr_scan"}}, {"name": "a6e488a988810b879e889994a006830e", "lon": -77.094902, "lat": 39.0305535, "type": "electric_bike", "fusion_lon": 0.0, "is_reserved": 0, "bike_id": "a6e488a988810b879e889994a006830e", "fusion_lat": 0.0, "is_disabled": 0, "rental_uris": {"ios": "https://dc.lft.to/lastmile_qr_scan", "android": "https://dc.lft.to/lastmile_qr_scan"}}, {"name": "f19d5ff6504a330230e1bc4f34dbf4d2", "lon": -76.974832, "lat": 38.90349716666667, "type": "electric_scooter", "fusion_lon": 0.0, "is_reserved": 0, "bike_id": "f19d5ff6504a330230e1bc4f34dbf4d2", "fusion_lat": 0.0, "is_disabled": 0, "rental_uris": {"ios": "https://dc.lft.to/lastmile_qr_scan", "android": "https://dc.lft.to/lastmile_qr_scan"}}, {"name": "2c8288a87e4191e3bb386960a53f9e7e", "lon": -77.02886666666667, "lat": 39.037446, "type": "electric_scooter", "fusion_lon": 0.0, "is_reserved": 0, "bike_id": "2c8288a87e4191e3bb386960a53f9e7e", "fusion_lat": 0.0, "is_disabled": 0, "rental_uris": {"ios": "https://dc.lft.to/lastmile_qr_scan", "android": "https://dc.lft.to/lastmile_qr_scan"}}, {"name": "1387d3077695ede77bcab93b69d1f6c7", "lon": -77.02077316666667, "lat": 38.87572816666667, "type": "electric_scooter", "fusion_lon": 0.0, "is_reserved": 0, "bike_id": "1387d3077695ede77bcab93b69d1f6c7", "fusion_lat": 0.0, "is_disabled": 0, "rental_uris": {"ios": "https://dc.lft.to/lastmile_qr_scan", "android": "https://dc.lft.to/lastmile_qr_scan"}}, {"name": "060a30eb21ddbc5de8da3009d3b1cc52", "lon": -77.05813016666667, "lat": 38.93513933333333, "type": "electric_scooter", "fusion_lon": 0.0, "is_reserved": 0, "bike_id": "060a30eb21ddbc5de8da3009d3b1cc52", "fusion_lat": 0.0, "is_disabled": 0, "rental_uris": {"ios": "https://dc.lft.to/lastmile_qr_scan", "android": "https://dc.lft.to/lastmile_qr_scan"}}, {"name": "86020634395d07a53af5d7db4b538ad8", "lon": -77.02338216666666, "lat": 38.9247875, "type": "electric_scooter", "fusion_lon": 0.0, "is_reserved": 0, "bike_id": "86020634395d07a53af5d7db4b538ad8", "fusion_lat": 0.0, "is_disabled": 0, "rental_uris": {"ios": "https://dc.lft.to/lastmile_qr_scan", "android": "https://dc.lft.to/lastmile_qr_scan"}}, {"name": "fb8d50ea662229236b4bfb43a8031412", "lon": -76.98836983333334, "lat": 38.900365666666666, "type": "electric_scooter", "fusion_lon": 0.0, "is_reserved": 0, "bike_id": "fb8d50ea662229236b4bfb43a8031412", "fusion_lat": 0.0, "is_disabled": 0, "rental_uris": {"ios": "https://dc.lft.to/lastmile_qr_scan", "android": "https://dc.lft.to/lastmile_qr_scan"}}, {"name": "8558ff573b5a547d9854904e050ce142", "lon": -77.01187216666666, "lat": 38.90030933333333, "type": "electric_scooter", "fusion_lon": 0.0, "is_reserved": 0, "bike_id": "8558ff573b5a547d9854904e050ce142", "fusion_lat": 0.0, "is_disabled": 0, "rental_uris": {"ios": "https://dc.lft.to/lastmile_qr_scan", "android": "https://dc.lft.to/lastmile_qr_scan"}}, {"name": "a950c8fef32c5d24f982f492422712e6", "lon": -77.0488045, "lat": 38.915802166666666, "type": "electric_scooter", "fusion_lon": 0.0, "is_reserved": 0, "bike_id": "a950c8fef32c5d24f982f492422712e6", "fusion_lat": 0.0, "is_disabled": 0, "rental_uris": {"ios": "https://dc.lft.to/lastmile_qr_scan", "android": "https://dc.lft.to/lastmile_qr_scan"}}, {"name": "6cac7228f0458113a59e2282ae673cec", "lon": -76.97432616666667, "lat": 38.904522, "type": "electric_scooter", "fusion_lon": 0.0, "is_reserved": 0, "bike_id": "6cac7228f0458113a59e2282ae673cec", "fusion_lat": 0.0, "is_disabled": 0, "rental_uris": {"ios": "https://dc.lft.to/lastmile_qr_scan", "android": "https://dc.lft.to/lastmile_qr_scan"}}, {"name": "4a036295459c0e05b2342fd73ca0a833", "lon": -76.99878683333333, "lat": 38.90038083333334, "type": "electric_scooter", "fusion_lon": 0.0, "is_reserved": 0, "bike_id": "4a036295459c0e05b2342fd73ca0a833", "fusion_lat": 0.0, "is_disabled": 0, "rental_uris": {"ios": "https://dc.lft.to/lastmile_qr_scan", "android": "https://dc.lft.to/lastmile_qr_scan"}}, {"name": "9017740bb99c5299b058509405edf355", "lon": -77.027031, "lat": 38.908751, "type": "electric_scooter", "fusion_lon": 0.0, "is_reserved": 0, "bike_id": "9017740bb99c5299b058509405edf355", "fusion_lat": 0.0, "is_disabled": 0, "rental_uris": {"ios": "https://dc.lft.to/lastmile_qr_scan", "android": "https://dc.lft.to/lastmile_qr_scan"}}, {"name": "27cf330639fb77fa8f2a6302f6514368", "lon": -77.0054175, "lat": 38.9155615, "type": "electric_scooter", "fusion_lon": 0.0, "is_reserved": 0, "bike_id": "27cf330639fb77fa8f2a6302f6514368", "fusion_lat": 0.0, "is_disabled": 0, "rental_uris": {"ios": "https://dc.lft.to/lastmile_qr_scan", "android": "https://dc.lft.to/lastmile_qr_scan"}}, {"name": "b70b387e9d3b3436e9429955aa3c0f0c", "lon": -77.027706, "lat": 38.954275333333335, "type": "electric_scooter", "fusion_lon": 0.0, "is_reserved": 0, "bike_id": "b70b387e9d3b3436e9429955aa3c0f0c", "fusion_lat": 0.0, "is_disabled": 0, "rental_uris": {"ios": "https://dc.lft.to/lastmile_qr_scan", "android": "https://dc.lft.to/lastmile_qr_scan"}}, {"name": "2f28c541eab60175714f7d4c68aa25d7", "lon": -77.02826783333333, "lat": 38.88732866666667, "type": "electric_scooter", "fusion_lon": 0.0, "is_reserved": 0, "bike_id": "2f28c541eab60175714f7d4c68aa25d7", "fusion_lat": 0.0, "is_disabled": 0, "rental_uris": {"ios": "https://dc.lft.to/lastmile_qr_scan", "android": "https://dc.lft.to/lastmile_qr_scan"}}, {"name": "c9947f64d5c2570b1eb103a0b800e73d", "lon": -77.04622666666667, "lat": 38.902442, "type": "electric_scooter", "fusion_lon": 0.0, "is_reserved": 0, "bike_id": "c9947f64d5c2570b1eb103a0b800e73d", "fusion_lat": 0.0, "is_disabled": 0, "rental_uris": {"ios": "https://dc.lft.to/lastmile_qr_scan", "android": "https://dc.lft.to/lastmile_qr_scan"}}, {"name": "741cd414e91feb170d26134a73c804fe", "lon": -77.04769216666666, "lat": 38.917673666666666, "type": "electric_scooter", "fusion_lon": 0.0, "is_reserved": 0, "bike_id": "741cd414e91feb170d26134a73c804fe", "fusion_lat": 0.0, "is_disabled": 0, "rental_uris": {"ios": "https://dc.lft.to/lastmile_qr_scan", "android": "https://dc.lft.to/lastmile_qr_scan"}}, {"name": "7ea989bf2992e3c5b1a8e30af1a42aa2", "lon": -77.05861833333333, "lat": 38.936037, "type": "electric_scooter", "fusion_lon": 0.0, "is_reserved": 0, "bike_id": "7ea989bf2992e3c5b1a8e30af1a42aa2", "fusion_lat": 0.0, "is_disabled": 0, "rental_uris": {"ios": "https://dc.lft.to/lastmile_qr_scan", "android": "https://dc.lft.to/lastmile_qr_scan"}}, {"name": "73588100dce23a97cd4322d9e06c7af0", "lon": -76.925349, "lat": 38.959319, "type": "electric_bike", "fusion_lon": 0.0, "is_reserved": 0, "bike_id": "73588100dce23a97cd4322d9e06c7af0", "fusion_lat": 0.0, "is_disabled": 0, "rental_uris": {"ios": "https://dc.lft.to/lastmile_qr_scan", "android": "https://dc.lft.to/lastmile_qr_scan"}}, {"name": "3dabdbcbe15f34352ad03570dc84d193", "lon": -76.9899415, "lat": 38.8638985, "type": "electric_bike", "fusion_lon": 0.0, "is_reserved": 0, "bike_id": "3dabdbcbe15f34352ad03570dc84d193", "fusion_lat": 0.0, "is_disabled": 0, "rental_uris": {"ios": "https://dc.lft.to/lastmile_qr_scan", "android": "https://dc.lft.to/lastmile_qr_scan"}}, {"name": "88c18f06e950e5eeb795890b774267d7", "lon": -77.03301133333333, "lat": 38.956373166666665, "type": "electric_scooter", "fusion_lon": 0.0, "is_reserved": 0, "bike_id": "88c18f06e950e5eeb795890b774267d7", "fusion_lat": 0.0, "is_disabled": 0, "rental_uris": {"ios": "https://dc.lft.to/lastmile_qr_scan", "android": "https://dc.lft.to/lastmile_qr_scan"}}, {"name": "93d42d13f011fd49b04ed7ac6838d5e9", "lon": -76.99092183333333, "lat": 38.86237783333333, "type": "electric_bike", "fusion_lon": 0.0, "is_reserved": 0, "bike_id": "93d42d13f011fd49b04ed7ac6838d5e9", "fusion_lat": 0.0, "is_disabled": 0, "rental_uris": {"ios": "https://dc.lft.to/lastmile_qr_scan", "android": "https://dc.lft.to/lastmile_qr_scan"}}, {"name": "1c4aed9c60f0a0567de881efafb9b03f", "lon": -77.02965033333334, "lat": 38.9053325, "type": "electric_scooter", "fusion_lon": 0.0, "is_reserved": 0, "bike_id": "1c4aed9c60f0a0567de881efafb9b03f", "fusion_lat": 0.0, "is_disabled": 0, "rental_uris": {"ios": "https://dc.lft.to/lastmile_qr_scan", "android": "https://dc.lft.to/lastmile_qr_scan"}}, {"name": "f5e70bf3370dc1fc473dbd15d1a42c29", "lon": -77.073082, "lat": 38.921647166666666, "type": "electric_scooter", "fusion_lon": 0.0, "is_reserved": 0, "bike_id": "f5e70bf3370dc1fc473dbd15d1a42c29", "fusion_lat": 0.0, "is_disabled": 0, "rental_uris": {"ios": "https://dc.lft.to/lastmile_qr_scan", "android": "https://dc.lft.to/lastmile_qr_scan"}}, {"name": "520ef538c3143d16fd1a065bd3fa56d9", "lon": -77.07471366666667, "lat": 38.920637666666664, "type": "electric_bike", "fusion_lon": 0.0, "is_reserved": 0, "bike_id": "520ef538c3143d16fd1a065bd3fa56d9", "fusion_lat": 0.0, "is_disabled": 0, "rental_uris": {"ios": "https://dc.lft.to/lastmile_qr_scan", "android": "https://dc.lft.to/lastmile_qr_scan"}}, {"name": "4b1481f897a1d0b9046af0ab57462ab8", "lon": -77.02623316666667, "lat": 38.896829333333336, "type": "electric_scooter", "fusion_lon": 0.0, "is_reserved": 0, "bike_id": "4b1481f897a1d0b9046af0ab57462ab8", "fusion_lat": 0.0, "is_disabled": 0, "rental_uris": {"ios": "https://dc.lft.to/lastmile_qr_scan", "android": "https://dc.lft.to/lastmile_qr_scan"}}, {"name": "209cebbfc40e9184359452a3ff07f4ea", "lon": -77.04679283333333, "lat": 38.89510833333333, "type": "electric_scooter", "fusion_lon": 0.0, "is_reserved": 0, "bike_id": "209cebbfc40e9184359452a3ff07f4ea", "fusion_lat": 0.0, "is_disabled": 0, "rental_uris": {"ios": "https://dc.lft.to/lastmile_qr_scan", "android": "https://dc.lft.to/lastmile_qr_scan"}}, {"name": "01f75f40c5ebbc4f2df3c4e8b773cb9d", "lon": -76.94635566666666, "lat": 38.898444833333336, "type": "electric_scooter", "fusion_lon": 0.0, "is_reserved": 0, "bike_id": "01f75f40c5ebbc4f2df3c4e8b773cb9d", "fusion_lat": 0.0, "is_disabled": 0, "rental_uris": {"ios": "https://dc.lft.to/lastmile_qr_scan", "android": "https://dc.lft.to/lastmile_qr_scan"}}, {"name": "47b9addcb3b679d42dc19674e0c2f7c8", "lon": -77.02422083333333, "lat": 38.920871, "type": "electric_scooter", "fusion_lon": 0.0, "is_reserved": 0, "bike_id": "47b9addcb3b679d42dc19674e0c2f7c8", "fusion_lat": 0.0, "is_disabled": 0, "rental_uris": {"ios": "https://dc.lft.to/lastmile_qr_scan", "android": "https://dc.lft.to/lastmile_qr_scan"}}, {"name": "5d810e58d7ccefd15991e2fb190e406b", "lon": -77.0338685, "lat": 38.921524833333336, "type": "electric_scooter", "fusion_lon": 0.0, "is_reserved": 0, "bike_id": "5d810e58d7ccefd15991e2fb190e406b", "fusion_lat": 0.0, "is_disabled": 0, "rental_uris": {"ios": "https://dc.lft.to/lastmile_qr_scan", "android": "https://dc.lft.to/lastmile_qr_scan"}}, {"name": "6a8452213c64baf4618dcc8a2ab7449f", "lon": -76.98397216666666, "lat": 38.8669655, "type": "electric_scooter", "fusion_lon": 0.0, "is_reserved": 0, "bike_id": "6a8452213c64baf4618dcc8a2ab7449f", "fusion_lat": 0.0, "is_disabled": 0, "rental_uris": {"ios": "https://dc.lft.to/lastmile_qr_scan", "android": "https://dc.lft.to/lastmile_qr_scan"}}, {"name": "1a08ff7547367d85b972d757d17d3a57", "lon": -77.02844616666667, "lat": 38.93274783333333, "type": "electric_scooter", "fusion_lon": 0.0, "is_reserved": 0, "bike_id": "1a08ff7547367d85b972d757d17d3a57", "fusion_lat": 0.0, "is_disabled": 0, "rental_uris": {"ios": "https://dc.lft.to/lastmile_qr_scan", "android": "https://dc.lft.to/lastmile_qr_scan"}}, {"name": "ac20c693dee4ce15f85f771a8191a73c", "lon": -77.04049133333334, "lat": 38.904485333333334, "type": "electric_scooter", "fusion_lon": 0.0, "is_reserved": 0, "bike_id": "ac20c693dee4ce15f85f771a8191a73c", "fusion_lat": 0.0, "is_disabled": 0, "rental_uris": {"ios": "https://dc.lft.to/lastmile_qr_scan", "android": "https://dc.lft.to/lastmile_qr_scan"}}, {"name": "31417b0403d294978142bb45af5c1bf2", "lon": -76.9361565, "lat": 38.886710666666666, "type": "electric_scooter", "fusion_lon": 0.0, "is_reserved": 0, "bike_id": "31417b0403d294978142bb45af5c1bf2", "fusion_lat": 0.0, "is_disabled": 0, "rental_uris": {"ios": "https://dc.lft.to/lastmile_qr_scan", "android": "https://dc.lft.to/lastmile_qr_scan"}}, {"name": "e721196c68a6791408734f7c007ef9a2", "lon": -77.0379205, "lat": 38.932184166666666, "type": "electric_scooter", "fusion_lon": 0.0, "is_reserved": 0, "bike_id": "e721196c68a6791408734f7c007ef9a2", "fusion_lat": 0.0, "is_disabled": 0, "rental_uris": {"ios": "https://dc.lft.to/lastmile_qr_scan", "android": "https://dc.lft.to/lastmile_qr_scan"}}, {"name": "59bf3cc0aea62238245a08ec9c95c88f", "lon": -77.0003815, "lat": 38.924644666666666, "type": "electric_scooter", "fusion_lon": 0.0, "is_reserved": 0, "bike_id": "59bf3cc0aea62238245a08ec9c95c88f", "fusion_lat": 0.0, "is_disabled": 0, "rental_uris": {"ios": "https://dc.lft.to/lastmile_qr_scan", "android": "https://dc.lft.to/lastmile_qr_scan"}}, {"name": "2c38fa19394ba1f76ee7db9d966c8f33", "lon": -77.04554883333333, "lat": 38.92421983333333, "type": "electric_scooter", "fusion_lon": 0.0, "is_reserved": 0, "bike_id": "2c38fa19394ba1f76ee7db9d966c8f33", "fusion_lat": 0.0, "is_disabled": 0, "rental_uris": {"ios": "https://dc.lft.to/lastmile_qr_scan", "android": "https://dc.lft.to/lastmile_qr_scan"}}, {"name": "6e3261b282c579e7b643c49cb00c7bdb", "lon": -77.038603, "lat": 38.91621033333333, "type": "electric_scooter", "fusion_lon": 0.0, "is_reserved": 0, "bike_id": "6e3261b282c579e7b643c49cb00c7bdb", "fusion_lat": 0.0, "is_disabled": 0, "rental_uris": {"ios": "https://dc.lft.to/lastmile_qr_scan", "android": "https://dc.lft.to/lastmile_qr_scan"}}, {"name": "d0f4ff413a213b670f513b47e7276806", "lon": -77.00636466666667, "lat": 38.8327515, "type": "electric_scooter", "fusion_lon": 0.0, "is_reserved": 0, "bike_id": "d0f4ff413a213b670f513b47e7276806", "fusion_lat": 0.0, "is_disabled": 0, "rental_uris": {"ios": "https://dc.lft.to/lastmile_qr_scan", "android": "https://dc.lft.to/lastmile_qr_scan"}}, {"name": "4faceb6c54c4ef82506f839e7830ebee", "lon": -77.04360683333333, "lat": 38.902244833333334, "type": "electric_scooter", "fusion_lon": 0.0, "is_reserved": 0, "bike_id": "4faceb6c54c4ef82506f839e7830ebee", "fusion_lat": 0.0, "is_disabled": 0, "rental_uris": {"ios": "https://dc.lft.to/lastmile_qr_scan", "android": "https://dc.lft.to/lastmile_qr_scan"}}, {"name": "86b2f2b76463af7ba3af110d35e1f88f", "lon": -77.0237085, "lat": 38.892200833333334, "type": "electric_scooter", "fusion_lon": 0.0, "is_reserved": 0, "bike_id": "86b2f2b76463af7ba3af110d35e1f88f", "fusion_lat": 0.0, "is_disabled": 0, "rental_uris": {"ios": "https://dc.lft.to/lastmile_qr_scan", "android": "https://dc.lft.to/lastmile_qr_scan"}}, {"name": "48e5a7571dbdedb661ae781960156bc7", "lon": -77.03365033333333, "lat": 38.907204666666665, "type": "electric_scooter", "fusion_lon": 0.0, "is_reserved": 0, "bike_id": "48e5a7571dbdedb661ae781960156bc7", "fusion_lat": 0.0, "is_disabled": 0, "rental_uris": {"ios": "https://dc.lft.to/lastmile_qr_scan", "android": "https://dc.lft.to/lastmile_qr_scan"}}, {"name": "e4332c577e2a402dc27b642b619a364b", "lon": -77.03480316666666, "lat": 38.907271, "type": "electric_scooter", "fusion_lon": 0.0, "is_reserved": 0, "bike_id": "e4332c577e2a402dc27b642b619a364b", "fusion_lat": 0.0, "is_disabled": 0, "rental_uris": {"ios": "https://dc.lft.to/lastmile_qr_scan", "android": "https://dc.lft.to/lastmile_qr_scan"}}, {"name": "74001b594f71e60a7c0f0c792c6e8b70", "lon": -76.96540216666666, "lat": 38.918502333333336, "type": "electric_scooter", "fusion_lon": 0.0, "is_reserved": 0, "bike_id": "74001b594f71e60a7c0f0c792c6e8b70", "fusion_lat": 0.0, "is_disabled": 0, "rental_uris": {"ios": "https://dc.lft.to/lastmile_qr_scan", "android": "https://dc.lft.to/lastmile_qr_scan"}}, {"name": "5d8188039fe5de4e84fa9ee8dad218ad", "lon": -77.048004, "lat": 38.90451566666667, "type": "electric_scooter", "fusion_lon": 0.0, "is_reserved": 0, "bike_id": "5d8188039fe5de4e84fa9ee8dad218ad", "fusion_lat": 0.0, "is_disabled": 0, "rental_uris": {"ios": "https://dc.lft.to/lastmile_qr_scan", "android": "https://dc.lft.to/lastmile_qr_scan"}}, {"name": "c9cc2f827a5eda090eed0fdfae810e63", "lon": -77.08576166666667, "lat": 38.87423716666667, "type": "electric_bike", "fusion_lon": 0.0, "is_reserved": 0, "bike_id": "c9cc2f827a5eda090eed0fdfae810e63", "fusion_lat": 0.0, "is_disabled": 0, "rental_uris": {"ios": "https://dc.lft.to/lastmile_qr_scan", "android": "https://dc.lft.to/lastmile_qr_scan"}}, {"name": "c9f94fac6dd1880d7a8329db88178524", "lon": -77.05016583333334, "lat": 38.90070333333333, "type": "electric_scooter", "fusion_lon": 0.0, "is_reserved": 0, "bike_id": "c9f94fac6dd1880d7a8329db88178524", "fusion_lat": 0.0, "is_disabled": 0, "rental_uris": {"ios": "https://dc.lft.to/lastmile_qr_scan", "android": "https://dc.lft.to/lastmile_qr_scan"}}, {"name": "599034e4f568c609ea791b43567d5b51", "lon": -77.00214866666667, "lat": 38.911103, "type": "electric_scooter", "fusion_lon": 0.0, "is_reserved": 0, "bike_id": "599034e4f568c609ea791b43567d5b51", "fusion_lat": 0.0, "is_disabled": 0, "rental_uris": {"ios": "https://dc.lft.to/lastmile_qr_scan", "android": "https://dc.lft.to/lastmile_qr_scan"}}, {"name": "8b0277c22b4dd34758d2deefb1814aa9", "lon": -77.05553883333333, "lat": 38.90769483333333, "type": "electric_scooter", "fusion_lon": 0.0, "is_reserved": 0, "bike_id": "8b0277c22b4dd34758d2deefb1814aa9", "fusion_lat": 0.0, "is_disabled": 0, "rental_uris": {"ios": "https://dc.lft.to/lastmile_qr_scan", "android": "https://dc.lft.to/lastmile_qr_scan"}}, {"name": "d822c836d8bde105ed3040bfece7ff44", "lon": -77.10131966666667, "lat": 38.852095, "type": "electric_bike", "fusion_lon": 0.0, "is_reserved": 0, "bike_id": "d822c836d8bde105ed3040bfece7ff44", "fusion_lat": 0.0, "is_disabled": 0, "rental_uris": {"ios": "https://dc.lft.to/lastmile_qr_scan", "android": "https://dc.lft.to/lastmile_qr_scan"}}, {"name": "6338998c3308f52ace161ba8c5bedb30", "lon": -77.047672, "lat": 38.917581166666665, "type": "electric_scooter", "fusion_lon": 0.0, "is_reserved": 0, "bike_id": "6338998c3308f52ace161ba8c5bedb30", "fusion_lat": 0.0, "is_disabled": 0, "rental_uris": {"ios": "https://dc.lft.to/lastmile_qr_scan", "android": "https://dc.lft.to/lastmile_qr_scan"}}, {"name": "278148bb4da738f635614b6ad159c11a", "lon": -77.033255, "lat": 38.94718, "type": "electric_scooter", "fusion_lon": 0.0, "is_reserved": 0, "bike_id": "278148bb4da738f635614b6ad159c11a", "fusion_lat": 0.0, "is_disabled": 0, "rental_uris": {"ios": "https://dc.lft.to/lastmile_qr_scan", "android": "https://dc.lft.to/lastmile_qr_scan"}}, {"name": "ad111ac1c1c79c1f841cee6af9192148", "lon": -76.97332216666666, "lat": 38.904140166666664, "type": "electric_scooter", "fusion_lon": 0.0, "is_reserved": 0, "bike_id": "ad111ac1c1c79c1f841cee6af9192148", "fusion_lat": 0.0, "is_disabled": 0, "rental_uris": {"ios": "https://dc.lft.to/lastmile_qr_scan", "android": "https://dc.lft.to/lastmile_qr_scan"}}, {"name": "f23eb210aa85bde73ca11e560182adad", "lon": -77.017928, "lat": 38.87716733333333, "type": "electric_scooter", "fusion_lon": 0.0, "is_reserved": 0, "bike_id": "f23eb210aa85bde73ca11e560182adad", "fusion_lat": 0.0, "is_disabled": 0, "rental_uris": {"ios": "https://dc.lft.to/lastmile_qr_scan", "android": "https://dc.lft.to/lastmile_qr_scan"}}, {"name": "fdb0f630451c4a943cf8e52a4de5ade0", "lon": -77.00722983333333, "lat": 38.900335, "type": "electric_scooter", "fusion_lon": 0.0, "is_reserved": 0, "bike_id": "fdb0f630451c4a943cf8e52a4de5ade0", "fusion_lat": 0.0, "is_disabled": 0, "rental_uris": {"ios": "https://dc.lft.to/lastmile_qr_scan", "android": "https://dc.lft.to/lastmile_qr_scan"}}, {"name": "ffbd21c14b47772a0ec148db828488cb", "lon": -76.93184233333334, "lat": 38.898788, "type": "electric_scooter", "fusion_lon": 0.0, "is_reserved": 0, "bike_id": "ffbd21c14b47772a0ec148db828488cb", "fusion_lat": 0.0, "is_disabled": 0, "rental_uris": {"ios": "https://dc.lft.to/lastmile_qr_scan", "android": "https://dc.lft.to/lastmile_qr_scan"}}, {"name": "4afecad4b19f5250494b0ae15032b4ad", "lon": -77.0038355, "lat": 38.923617, "type": "electric_scooter", "fusion_lon": 0.0, "is_reserved": 0, "bike_id": "4afecad4b19f5250494b0ae15032b4ad", "fusion_lat": 0.0, "is_disabled": 0, "rental_uris": {"ios": "https://dc.lft.to/lastmile_qr_scan", "android": "https://dc.lft.to/lastmile_qr_scan"}}, {"name": "6f75b94c3c5e9a0086a1eb60736abf89", "lon": -76.996551, "lat": 38.9883085, "type": "electric_bike", "fusion_lon": 0.0, "is_reserved": 0, "bike_id": "6f75b94c3c5e9a0086a1eb60736abf89", "fusion_lat": 0.0, "is_disabled": 0, "rental_uris": {"ios": "https://dc.lft.to/lastmile_qr_scan", "android": "https://dc.lft.to/lastmile_qr_scan"}}, {"name": "8fc7c9ca816a59b3e70118601e33bd90", "lon": -77.01832883333333, "lat": 38.94203483333333, "type": "electric_scooter", "fusion_lon": 0.0, "is_reserved": 0, "bike_id": "8fc7c9ca816a59b3e70118601e33bd90", "fusion_lat": 0.0, "is_disabled": 0, "rental_uris": {"ios": "https://dc.lft.to/lastmile_qr_scan", "android": "https://dc.lft.to/lastmile_qr_scan"}}, {"name": "8230729e8c4558e8ba415bf9fed7f7f7", "lon": -77.03267533333333, "lat": 38.93284, "type": "electric_scooter", "fusion_lon": 0.0, "is_reserved": 0, "bike_id": "8230729e8c4558e8ba415bf9fed7f7f7", "fusion_lat": 0.0, "is_disabled": 0, "rental_uris": {"ios": "https://dc.lft.to/lastmile_qr_scan", "android": "https://dc.lft.to/lastmile_qr_scan"}}, {"name": "09fefd7076cff5274f67d523c471845b", "lon": -77.03742966666667, "lat": 38.9269565, "type": "electric_scooter", "fusion_lon": 0.0, "is_reserved": 0, "bike_id": "09fefd7076cff5274f67d523c471845b", "fusion_lat": 0.0, "is_disabled": 0, "rental_uris": {"ios": "https://dc.lft.to/lastmile_qr_scan", "android": "https://dc.lft.to/lastmile_qr_scan"}}, {"name": "6c74ab6bd8bc925bbd668dc56eae6467", "lon": -77.03906716666667, "lat": 38.9182995, "type": "electric_scooter", "fusion_lon": 0.0, "is_reserved": 0, "bike_id": "6c74ab6bd8bc925bbd668dc56eae6467", "fusion_lat": 0.0, "is_disabled": 0, "rental_uris": {"ios": "https://dc.lft.to/lastmile_qr_scan", "android": "https://dc.lft.to/lastmile_qr_scan"}}, {"name": "83ec10b362f802666db56c2cc69fec38", "lon": -77.03142433333333, "lat": 38.91938916666667, "type": "electric_scooter", "fusion_lon": 0.0, "is_reserved": 0, "bike_id": "83ec10b362f802666db56c2cc69fec38", "fusion_lat": 0.0, "is_disabled": 0, "rental_uris": {"ios": "https://dc.lft.to/lastmile_qr_scan", "android": "https://dc.lft.to/lastmile_qr_scan"}}, {"name": "8e76d905612a37c04a4a430e308b858f", "lon": -76.983854, "lat": 38.915519333333336, "type": "electric_scooter", "fusion_lon": 0.0, "is_reserved": 0, "bike_id": "8e76d905612a37c04a4a430e308b858f", "fusion_lat": 0.0, "is_disabled": 0, "rental_uris": {"ios": "https://dc.lft.to/lastmile_qr_scan", "android": "https://dc.lft.to/lastmile_qr_scan"}}, {"name": "496c385d378a5f0439ef9c4536734794", "lon": -77.06091333333333, "lat": 38.9116515, "type": "electric_scooter", "fusion_lon": 0.0, "is_reserved": 0, "bike_id": "496c385d378a5f0439ef9c4536734794", "fusion_lat": 0.0, "is_disabled": 0, "rental_uris": {"ios": "https://dc.lft.to/lastmile_qr_scan", "android": "https://dc.lft.to/lastmile_qr_scan"}}, {"name": "17e9c5b1d9404166e03d39bedd5ad599", "lon": -77.01973233333334, "lat": 38.885870833333335, "type": "electric_scooter", "fusion_lon": 0.0, "is_reserved": 0, "bike_id": "17e9c5b1d9404166e03d39bedd5ad599", "fusion_lat": 0.0, "is_disabled": 0, "rental_uris": {"ios": "https://dc.lft.to/lastmile_qr_scan", "android": "https://dc.lft.to/lastmile_qr_scan"}}, {"name": "5f4dc21cca4ebe7b60feee92054a631e", "lon": -77.0361425, "lat": 38.923359166666664, "type": "electric_scooter", "fusion_lon": 0.0, "is_reserved": 0, "bike_id": "5f4dc21cca4ebe7b60feee92054a631e", "fusion_lat": 0.0, "is_disabled": 0, "rental_uris": {"ios": "https://dc.lft.to/lastmile_qr_scan", "android": "https://dc.lft.to/lastmile_qr_scan"}}, {"name": "9daff35762f3e8e813a1edfb6c4d0ee6", "lon": -77.04518266666666, "lat": 38.89223616666666, "type": "electric_scooter", "fusion_lon": 0.0, "is_reserved": 0, "bike_id": "9daff35762f3e8e813a1edfb6c4d0ee6", "fusion_lat": 0.0, "is_disabled": 0, "rental_uris": {"ios": "https://dc.lft.to/lastmile_qr_scan", "android": "https://dc.lft.to/lastmile_qr_scan"}}, {"name": "77d44ee1049c9163396d840f749b417c", "lon": -77.02736366666667, "lat": 38.92766816666666, "type": "electric_scooter", "fusion_lon": 0.0, "is_reserved": 0, "bike_id": "77d44ee1049c9163396d840f749b417c", "fusion_lat": 0.0, "is_disabled": 0, "rental_uris": {"ios": "https://dc.lft.to/lastmile_qr_scan", "android": "https://dc.lft.to/lastmile_qr_scan"}}, {"name": "ca445648c780a59f99b4015cd14881ed", "lon": -77.00565766666666, "lat": 38.885070666666664, "type": "electric_scooter", "fusion_lon": 0.0, "is_reserved": 0, "bike_id": "ca445648c780a59f99b4015cd14881ed", "fusion_lat": 0.0, "is_disabled": 0, "rental_uris": {"ios": "https://dc.lft.to/lastmile_qr_scan", "android": "https://dc.lft.to/lastmile_qr_scan"}}, {"name": "403c375d0dba641fcc95ac46786a4076", "lon": -77.03837883333334, "lat": 38.9111915, "type": "electric_scooter", "fusion_lon": 0.0, "is_reserved": 0, "bike_id": "403c375d0dba641fcc95ac46786a4076", "fusion_lat": 0.0, "is_disabled": 0, "rental_uris": {"ios": "https://dc.lft.to/lastmile_qr_scan", "android": "https://dc.lft.to/lastmile_qr_scan"}}, {"name": "64f8ac71722c41c9aafcde3895830ebe", "lon": -77.03263183333334, "lat": 38.9372065, "type": "electric_scooter", "fusion_lon": 0.0, "is_reserved": 0, "bike_id": "64f8ac71722c41c9aafcde3895830ebe", "fusion_lat": 0.0, "is_disabled": 0, "rental_uris": {"ios": "https://dc.lft.to/lastmile_qr_scan", "android": "https://dc.lft.to/lastmile_qr_scan"}}, {"name": "5150ea92924d73503012205f061d29c4", "lon": -77.01135516666666, "lat": 38.88041533333333, "type": "electric_scooter", "fusion_lon": 0.0, "is_reserved": 0, "bike_id": "5150ea92924d73503012205f061d29c4", "fusion_lat": 0.0, "is_disabled": 0, "rental_uris": {"ios": "https://dc.lft.to/lastmile_qr_scan", "android": "https://dc.lft.to/lastmile_qr_scan"}}, {"name": "0420336ed133a6663f05c5e5531fc809", "lon": -77.05051383333333, "lat": 38.90090283333333, "type": "electric_scooter", "fusion_lon": 0.0, "is_reserved": 0, "bike_id": "0420336ed133a6663f05c5e5531fc809", "fusion_lat": 0.0, "is_disabled": 0, "rental_uris": {"ios": "https://dc.lft.to/lastmile_qr_scan", "android": "https://dc.lft.to/lastmile_qr_scan"}}, {"name": "b8d11a352698aa0a3ee029e6dbbae4b7", "lon": -77.03986733333333, "lat": 38.91755833333333, "type": "electric_scooter", "fusion_lon": 0.0, "is_reserved": 0, "bike_id": "b8d11a352698aa0a3ee029e6dbbae4b7", "fusion_lat": 0.0, "is_disabled": 0, "rental_uris": {"ios": "https://dc.lft.to/lastmile_qr_scan", "android": "https://dc.lft.to/lastmile_qr_scan"}}, {"name": "e3f63866102c98c5b9b88ef5a3d03fae", "lon": -76.98669433333333, "lat": 38.90255366666667, "type": "electric_scooter", "fusion_lon": 0.0, "is_reserved": 0, "bike_id": "e3f63866102c98c5b9b88ef5a3d03fae", "fusion_lat": 0.0, "is_disabled": 0, "rental_uris": {"ios": "https://dc.lft.to/lastmile_qr_scan", "android": "https://dc.lft.to/lastmile_qr_scan"}}, {"name": "527348f674dd92dc6f2dde2407ff269f", "lon": -77.04149183333334, "lat": 38.9229815, "type": "electric_bike", "fusion_lon": 0.0, "is_reserved": 0, "bike_id": "527348f674dd92dc6f2dde2407ff269f", "fusion_lat": 0.0, "is_disabled": 0, "rental_uris": {"ios": "https://dc.lft.to/lastmile_qr_scan", "android": "https://dc.lft.to/lastmile_qr_scan"}}, {"name": "ac5478b6e82c203275cd8d944050e6e2", "lon": -77.00049466666667, "lat": 38.87658033333334, "type": "electric_scooter", "fusion_lon": 0.0, "is_reserved": 0, "bike_id": "ac5478b6e82c203275cd8d944050e6e2", "fusion_lat": 0.0, "is_disabled": 0, "rental_uris": {"ios": "https://dc.lft.to/lastmile_qr_scan", "android": "https://dc.lft.to/lastmile_qr_scan"}}, {"name": "5f33e6723901ced9e740a2bf75324f38", "lon": -77.00801633333333, "lat": 38.8971865, "type": "electric_scooter", "fusion_lon": 0.0, "is_reserved": 0, "bike_id": "5f33e6723901ced9e740a2bf75324f38", "fusion_lat": 0.0, "is_disabled": 0, "rental_uris": {"ios": "https://dc.lft.to/lastmile_qr_scan", "android": "https://dc.lft.to/lastmile_qr_scan"}}, {"name": "43b83c40ceca270e3f0dcdb098e2757d", "lon": -77.13473916666666, "lat": 38.853510166666666, "type": "electric_bike", "fusion_lon": 0.0, "is_reserved": 0, "bike_id": "43b83c40ceca270e3f0dcdb098e2757d", "fusion_lat": 0.0, "is_disabled": 0, "rental_uris": {"ios": "https://dc.lft.to/lastmile_qr_scan", "android": "https://dc.lft.to/lastmile_qr_scan"}}, {"name": "667b73806504de589ebadc926dd44431", "lon": -77.0271675, "lat": 38.906891333333334, "type": "electric_scooter", "fusion_lon": 0.0, "is_reserved": 0, "bike_id": "667b73806504de589ebadc926dd44431", "fusion_lat": 0.0, "is_disabled": 0, "rental_uris": {"ios": "https://dc.lft.to/lastmile_qr_scan", "android": "https://dc.lft.to/lastmile_qr_scan"}}, {"name": "b5471f6ff61364070fcd5c65656743f6", "lon": -76.992969, "lat": 38.934793166666665, "type": "electric_scooter", "fusion_lon": 0.0, "is_reserved": 0, "bike_id": "b5471f6ff61364070fcd5c65656743f6", "fusion_lat": 0.0, "is_disabled": 0, "rental_uris": {"ios": "https://dc.lft.to/lastmile_qr_scan", "android": "https://dc.lft.to/lastmile_qr_scan"}}, {"name": "4876eba06e2ba4a8dd0015b7c87876e1", "lon": -77.03593666666667, "lat": 38.91623966666667, "type": "electric_scooter", "fusion_lon": 0.0, "is_reserved": 0, "bike_id": "4876eba06e2ba4a8dd0015b7c87876e1", "fusion_lat": 0.0, "is_disabled": 0, "rental_uris": {"ios": "https://dc.lft.to/lastmile_qr_scan", "android": "https://dc.lft.to/lastmile_qr_scan"}}, {"name": "9cfc9cc566bfa685c6dd75cebd364a38", "lon": -77.03074016666666, "lat": 38.897216666666665, "type": "electric_scooter", "fusion_lon": 0.0, "is_reserved": 0, "bike_id": "9cfc9cc566bfa685c6dd75cebd364a38", "fusion_lat": 0.0, "is_disabled": 0, "rental_uris": {"ios": "https://dc.lft.to/lastmile_qr_scan", "android": "https://dc.lft.to/lastmile_qr_scan"}}, {"name": "85ae686fc273157ec0adebee669491ad", "lon": -77.0111255, "lat": 38.89538666666667, "type": "electric_scooter", "fusion_lon": 0.0, "is_reserved": 0, "bike_id": "85ae686fc273157ec0adebee669491ad", "fusion_lat": 0.0, "is_disabled": 0, "rental_uris": {"ios": "https://dc.lft.to/lastmile_qr_scan", "android": "https://dc.lft.to/lastmile_qr_scan"}}, {"name": "b178dd22dcab207c0a4cec96e8fb6b5f", "lon": -77.034023, "lat": 38.931304, "type": "electric_scooter", "fusion_lon": 0.0, "is_reserved": 0, "bike_id": "b178dd22dcab207c0a4cec96e8fb6b5f", "fusion_lat": 0.0, "is_disabled": 0, "rental_uris": {"ios": "https://dc.lft.to/lastmile_qr_scan", "android": "https://dc.lft.to/lastmile_qr_scan"}}, {"name": "5932305b559e9cea1ef1b8c433bf361e", "lon": -77.0321115, "lat": 38.89591516666667, "type": "electric_scooter", "fusion_lon": 0.0, "is_reserved": 0, "bike_id": "5932305b559e9cea1ef1b8c433bf361e", "fusion_lat": 0.0, "is_disabled": 0, "rental_uris": {"ios": "https://dc.lft.to/lastmile_qr_scan", "android": "https://dc.lft.to/lastmile_qr_scan"}}, {"name": "08b7b830edb854e3c9f769309b7983cd", "lon": -77.032558, "lat": 38.90595366666667, "type": "electric_scooter", "fusion_lon": 0.0, "is_reserved": 0, "bike_id": "08b7b830edb854e3c9f769309b7983cd", "fusion_lat": 0.0, "is_disabled": 0, "rental_uris": {"ios": "https://dc.lft.to/lastmile_qr_scan", "android": "https://dc.lft.to/lastmile_qr_scan"}}, {"name": "8d40a6bf3162743270770ed2f0de0041", "lon": -77.037104, "lat": 38.927787333333335, "type": "electric_scooter", "fusion_lon": 0.0, "is_reserved": 0, "bike_id": "8d40a6bf3162743270770ed2f0de0041", "fusion_lat": 0.0, "is_disabled": 0, "rental_uris": {"ios": "https://dc.lft.to/lastmile_qr_scan", "android": "https://dc.lft.to/lastmile_qr_scan"}}, {"name": "a1327fa7a36966ad442d55255581fcf4", "lon": -77.05857166666667, "lat": 38.936078, "type": "electric_scooter", "fusion_lon": 0.0, "is_reserved": 0, "bike_id": "a1327fa7a36966ad442d55255581fcf4", "fusion_lat": 0.0, "is_disabled": 0, "rental_uris": {"ios": "https://dc.lft.to/lastmile_qr_scan", "android": "https://dc.lft.to/lastmile_qr_scan"}}, {"name": "4f6fa3c04e737077e710c4566f2afc45", "lon": -76.98107883333333, "lat": 38.877326333333336, "type": "electric_bike", "fusion_lon": 0.0, "is_reserved": 0, "bike_id": "4f6fa3c04e737077e710c4566f2afc45", "fusion_lat": 0.0, "is_disabled": 0, "rental_uris": {"ios": "https://dc.lft.to/lastmile_qr_scan", "android": "https://dc.lft.to/lastmile_qr_scan"}}, {"name": "7c96f79a05696b26df416ff78dad47c0", "lon": -77.00599, "lat": 38.87540933333333, "type": "electric_scooter", "fusion_lon": 0.0, "is_reserved": 0, "bike_id": "7c96f79a05696b26df416ff78dad47c0", "fusion_lat": 0.0, "is_disabled": 0, "rental_uris": {"ios": "https://dc.lft.to/lastmile_qr_scan", "android": "https://dc.lft.to/lastmile_qr_scan"}}, {"name": "42ae8c94afb6afc6acd9ecdaf9108b1a", "lon": -76.9935165, "lat": 38.91484333333333, "type": "electric_scooter", "fusion_lon": 0.0, "is_reserved": 0, "bike_id": "42ae8c94afb6afc6acd9ecdaf9108b1a", "fusion_lat": 0.0, "is_disabled": 0, "rental_uris": {"ios": "https://dc.lft.to/lastmile_qr_scan", "android": "https://dc.lft.to/lastmile_qr_scan"}}, {"name": "e17515294a50a2507ddf5170e30b0200", "lon": -77.03270883333333, "lat": 38.938827333333336, "type": "electric_scooter", "fusion_lon": 0.0, "is_reserved": 0, "bike_id": "e17515294a50a2507ddf5170e30b0200", "fusion_lat": 0.0, "is_disabled": 0, "rental_uris": {"ios": "https://dc.lft.to/lastmile_qr_scan", "android": "https://dc.lft.to/lastmile_qr_scan"}}, {"name": "761b618142069294bac7ae6a036c3427", "lon": -77.04125316666666, "lat": 38.916335833333335, "type": "electric_scooter", "fusion_lon": 0.0, "is_reserved": 0, "bike_id": "761b618142069294bac7ae6a036c3427", "fusion_lat": 0.0, "is_disabled": 0, "rental_uris": {"ios": "https://dc.lft.to/lastmile_qr_scan", "android": "https://dc.lft.to/lastmile_qr_scan"}}, {"name": "4c0a45c4ce643dffdc08081ea5475de9", "lon": -77.0459645, "lat": 38.9191435, "type": "electric_scooter", "fusion_lon": 0.0, "is_reserved": 0, "bike_id": "4c0a45c4ce643dffdc08081ea5475de9", "fusion_lat": 0.0, "is_disabled": 0, "rental_uris": {"ios": "https://dc.lft.to/lastmile_qr_scan", "android": "https://dc.lft.to/lastmile_qr_scan"}}, {"name": "e315d1dd5d4e4cfe55a478ebff170af9", "lon": -77.024374, "lat": 38.90279833333334, "type": "electric_scooter", "fusion_lon": 0.0, "is_reserved": 0, "bike_id": "e315d1dd5d4e4cfe55a478ebff170af9", "fusion_lat": 0.0, "is_disabled": 0, "rental_uris": {"ios": "https://dc.lft.to/lastmile_qr_scan", "android": "https://dc.lft.to/lastmile_qr_scan"}}, {"name": "5186ad639ca7fe51eeb818881ce0bbc6", "lon": -77.02722066666666, "lat": 38.949578833333334, "type": "electric_scooter", "fusion_lon": 0.0, "is_reserved": 0, "bike_id": "5186ad639ca7fe51eeb818881ce0bbc6", "fusion_lat": 0.0, "is_disabled": 0, "rental_uris": {"ios": "https://dc.lft.to/lastmile_qr_scan", "android": "https://dc.lft.to/lastmile_qr_scan"}}, {"name": "51b5aa96d5ddf1540769ced639985f50", "lon": -77.075862, "lat": 38.93863833333333, "type": "electric_scooter", "fusion_lon": 0.0, "is_reserved": 0, "bike_id": "51b5aa96d5ddf1540769ced639985f50", "fusion_lat": 0.0, "is_disabled": 0, "rental_uris": {"ios": "https://dc.lft.to/lastmile_qr_scan", "android": "https://dc.lft.to/lastmile_qr_scan"}}, {"name": "c37f5918b22be97cf89a1fd851d63899", "lon": -76.98894016666667, "lat": 38.904743333333336, "type": "electric_scooter", "fusion_lon": 0.0, "is_reserved": 0, "bike_id": "c37f5918b22be97cf89a1fd851d63899", "fusion_lat": 0.0, "is_disabled": 0, "rental_uris": {"ios": "https://dc.lft.to/lastmile_qr_scan", "android": "https://dc.lft.to/lastmile_qr_scan"}}, {"name": "c21b9afeb7e2a235bfa37da09e2a70ba", "lon": -77.023867, "lat": 38.908452, "type": "electric_scooter", "fusion_lon": 0.0, "is_reserved": 0, "bike_id": "c21b9afeb7e2a235bfa37da09e2a70ba", "fusion_lat": 0.0, "is_disabled": 0, "rental_uris": {"ios": "https://dc.lft.to/lastmile_qr_scan", "android": "https://dc.lft.to/lastmile_qr_scan"}}, {"name": "419860f8d145d8cecc4c42245e51ee6c", "lon": -77.03102816666667, "lat": 38.904544333333334, "type": "electric_scooter", "fusion_lon": 0.0, "is_reserved": 0, "bike_id": "419860f8d145d8cecc4c42245e51ee6c", "fusion_lat": 0.0, "is_disabled": 0, "rental_uris": {"ios": "https://dc.lft.to/lastmile_qr_scan", "android": "https://dc.lft.to/lastmile_qr_scan"}}, {"name": "f542d33108242ffe75678c0be0901ef1", "lon": -76.99877216666667, "lat": 38.900291833333334, "type": "electric_scooter", "fusion_lon": 0.0, "is_reserved": 0, "bike_id": "f542d33108242ffe75678c0be0901ef1", "fusion_lat": 0.0, "is_disabled": 0, "rental_uris": {"ios": "https://dc.lft.to/lastmile_qr_scan", "android": "https://dc.lft.to/lastmile_qr_scan"}}, {"name": "5ec0553b1e051e3b5292563e205b06d2", "lon": -77.03177733333334, "lat": 38.907741333333334, "type": "electric_scooter", "fusion_lon": 0.0, "is_reserved": 0, "bike_id": "5ec0553b1e051e3b5292563e205b06d2", "fusion_lat": 0.0, "is_disabled": 0, "rental_uris": {"ios": "https://dc.lft.to/lastmile_qr_scan", "android": "https://dc.lft.to/lastmile_qr_scan"}}, {"name": "41719649e84b9ffcb2ae53d0c97a4e2d", "lon": -76.988183, "lat": 38.900687833333336, "type": "electric_scooter", "fusion_lon": 0.0, "is_reserved": 0, "bike_id": "41719649e84b9ffcb2ae53d0c97a4e2d", "fusion_lat": 0.0, "is_disabled": 0, "rental_uris": {"ios": "https://dc.lft.to/lastmile_qr_scan", "android": "https://dc.lft.to/lastmile_qr_scan"}}, {"name": "df36f8a61ca293205506c0c86b23eb0c", "lon": -76.985572, "lat": 38.8994805, "type": "electric_scooter", "fusion_lon": 0.0, "is_reserved": 0, "bike_id": "df36f8a61ca293205506c0c86b23eb0c", "fusion_lat": 0.0, "is_disabled": 0, "rental_uris": {"ios": "https://dc.lft.to/lastmile_qr_scan", "android": "https://dc.lft.to/lastmile_qr_scan"}}, {"name": "dc1b11c72cf698fb91546e03dd689638", "lon": -77.01601266666667, "lat": 38.94934383333333, "type": "electric_scooter", "fusion_lon": 0.0, "is_reserved": 0, "bike_id": "dc1b11c72cf698fb91546e03dd689638", "fusion_lat": 0.0, "is_disabled": 0, "rental_uris": {"ios": "https://dc.lft.to/lastmile_qr_scan", "android": "https://dc.lft.to/lastmile_qr_scan"}}, {"name": "2bf0c8e09d635da2fad1a24cc3e10ffc", "lon": -77.05258583333334, "lat": 38.923788, "type": "electric_scooter", "fusion_lon": 0.0, "is_reserved": 0, "bike_id": "2bf0c8e09d635da2fad1a24cc3e10ffc", "fusion_lat": 0.0, "is_disabled": 0, "rental_uris": {"ios": "https://dc.lft.to/lastmile_qr_scan", "android": "https://dc.lft.to/lastmile_qr_scan"}}, {"name": "820a1bdc032d7d0ab1bcfa9838ffb72d", "lon": -77.027965, "lat": 38.954082, "type": "electric_scooter", "fusion_lon": 0.0, "is_reserved": 0, "bike_id": "820a1bdc032d7d0ab1bcfa9838ffb72d", "fusion_lat": 0.0, "is_disabled": 0, "rental_uris": {"ios": "https://dc.lft.to/lastmile_qr_scan", "android": "https://dc.lft.to/lastmile_qr_scan"}}, {"name": "ea35f2a2a81177cb60b593ee31fbb701", "lon": -77.03974916666667, "lat": 38.89350683333333, "type": "electric_scooter", "fusion_lon": 0.0, "is_reserved": 0, "bike_id": "ea35f2a2a81177cb60b593ee31fbb701", "fusion_lat": 0.0, "is_disabled": 0, "rental_uris": {"ios": "https://dc.lft.to/lastmile_qr_scan", "android": "https://dc.lft.to/lastmile_qr_scan"}}, {"name": "6b8cf270a2453e9f918afbcc6371d65e", "lon": -77.020991, "lat": 38.921741833333336, "type": "electric_scooter", "fusion_lon": 0.0, "is_reserved": 0, "bike_id": "6b8cf270a2453e9f918afbcc6371d65e", "fusion_lat": 0.0, "is_disabled": 0, "rental_uris": {"ios": "https://dc.lft.to/lastmile_qr_scan", "android": "https://dc.lft.to/lastmile_qr_scan"}}, {"name": "9d44065035dc2cdfa0e7cec06bcb888e", "lon": -77.05121883333334, "lat": 38.923534333333336, "type": "electric_scooter", "fusion_lon": 0.0, "is_reserved": 0, "bike_id": "9d44065035dc2cdfa0e7cec06bcb888e", "fusion_lat": 0.0, "is_disabled": 0, "rental_uris": {"ios": "https://dc.lft.to/lastmile_qr_scan", "android": "https://dc.lft.to/lastmile_qr_scan"}}, {"name": "a19482ec1053d0ec7cae40e0544871e7", "lon": -76.9838005, "lat": 38.91558066666666, "type": "electric_scooter", "fusion_lon": 0.0, "is_reserved": 0, "bike_id": "a19482ec1053d0ec7cae40e0544871e7", "fusion_lat": 0.0, "is_disabled": 0, "rental_uris": {"ios": "https://dc.lft.to/lastmile_qr_scan", "android": "https://dc.lft.to/lastmile_qr_scan"}}, {"name": "d4528402976216c90ea695ea7ce90dd7", "lon": -77.05236733333334, "lat": 38.9236115, "type": "electric_scooter", "fusion_lon": 0.0, "is_reserved": 0, "bike_id": "d4528402976216c90ea695ea7ce90dd7", "fusion_lat": 0.0, "is_disabled": 0, "rental_uris": {"ios": "https://dc.lft.to/lastmile_qr_scan", "android": "https://dc.lft.to/lastmile_qr_scan"}}, {"name": "895ae08e2a1f730493c434fae9768b59", "lon": -77.03051883333333, "lat": 38.926683, "type": "electric_scooter", "fusion_lon": 0.0, "is_reserved": 0, "bike_id": "895ae08e2a1f730493c434fae9768b59", "fusion_lat": 0.0, "is_disabled": 0, "rental_uris": {"ios": "https://dc.lft.to/lastmile_qr_scan", "android": "https://dc.lft.to/lastmile_qr_scan"}}, {"name": "7d7ba8fc0dce0c569f5de4092db5eee6", "lon": -77.04186583333333, "lat": 38.89290716666667, "type": "electric_scooter", "fusion_lon": 0.0, "is_reserved": 0, "bike_id": "7d7ba8fc0dce0c569f5de4092db5eee6", "fusion_lat": 0.0, "is_disabled": 0, "rental_uris": {"ios": "https://dc.lft.to/lastmile_qr_scan", "android": "https://dc.lft.to/lastmile_qr_scan"}}, {"name": "06cfdaba3f37928104e293d71cdc8da7", "lon": -77.0291575, "lat": 38.89856133333333, "type": "electric_scooter", "fusion_lon": 0.0, "is_reserved": 0, "bike_id": "06cfdaba3f37928104e293d71cdc8da7", "fusion_lat": 0.0, "is_disabled": 0, "rental_uris": {"ios": "https://dc.lft.to/lastmile_qr_scan", "android": "https://dc.lft.to/lastmile_qr_scan"}}, {"name": "49433df2dce12bf627dd48bcad3bd160", "lon": -77.022987, "lat": 38.928107833333335, "type": "electric_scooter", "fusion_lon": 0.0, "is_reserved": 0, "bike_id": "49433df2dce12bf627dd48bcad3bd160", "fusion_lat": 0.0, "is_disabled": 0, "rental_uris": {"ios": "https://dc.lft.to/lastmile_qr_scan", "android": "https://dc.lft.to/lastmile_qr_scan"}}, {"name": "df3317cbfa199d03b86976c9658a5d89", "lon": -77.05670666666667, "lat": 38.928645, "type": "electric_bike", "fusion_lon": 0.0, "is_reserved": 0, "bike_id": "df3317cbfa199d03b86976c9658a5d89", "fusion_lat": 0.0, "is_disabled": 0, "rental_uris": {"ios": "https://dc.lft.to/lastmile_qr_scan", "android": "https://dc.lft.to/lastmile_qr_scan"}}, {"name": "6e9d5d011489cb060fd69f33470c8ca5", "lon": -77.047448, "lat": 38.909529666666664, "type": "electric_scooter", "fusion_lon": 0.0, "is_reserved": 0, "bike_id": "6e9d5d011489cb060fd69f33470c8ca5", "fusion_lat": 0.0, "is_disabled": 0, "rental_uris": {"ios": "https://dc.lft.to/lastmile_qr_scan", "android": "https://dc.lft.to/lastmile_qr_scan"}}, {"name": "e9dca77e82d293ab33a99cb68491f094", "lon": -77.02728066666667, "lat": 38.895056833333335, "type": "electric_scooter", "fusion_lon": 0.0, "is_reserved": 0, "bike_id": "e9dca77e82d293ab33a99cb68491f094", "fusion_lat": 0.0, "is_disabled": 0, "rental_uris": {"ios": "https://dc.lft.to/lastmile_qr_scan", "android": "https://dc.lft.to/lastmile_qr_scan"}}, {"name": "dbdde29898e2bf7b7aab4063719ea449", "lon": -77.03439316666666, "lat": 38.909789333333336, "type": "electric_scooter", "fusion_lon": 0.0, "is_reserved": 0, "bike_id": "dbdde29898e2bf7b7aab4063719ea449", "fusion_lat": 0.0, "is_disabled": 0, "rental_uris": {"ios": "https://dc.lft.to/lastmile_qr_scan", "android": "https://dc.lft.to/lastmile_qr_scan"}}, {"name": "573c62e7b31e4112d2574277e5b8266f", "lon": -77.01031166666667, "lat": 38.91703916666667, "type": "electric_scooter", "fusion_lon": 0.0, "is_reserved": 0, "bike_id": "573c62e7b31e4112d2574277e5b8266f", "fusion_lat": 0.0, "is_disabled": 0, "rental_uris": {"ios": "https://dc.lft.to/lastmile_qr_scan", "android": "https://dc.lft.to/lastmile_qr_scan"}}, {"name": "440fc7734673cc90b828ec6397ba4a35", "lon": -77.03997433333333, "lat": 38.91764783333333, "type": "electric_scooter", "fusion_lon": 0.0, "is_reserved": 0, "bike_id": "440fc7734673cc90b828ec6397ba4a35", "fusion_lat": 0.0, "is_disabled": 0, "rental_uris": {"ios": "https://dc.lft.to/lastmile_qr_scan", "android": "https://dc.lft.to/lastmile_qr_scan"}}, {"name": "45d6c8ecba6402a1c1d2c7e9511a3636", "lon": -77.0223315, "lat": 38.910106, "type": "electric_scooter", "fusion_lon": 0.0, "is_reserved": 0, "bike_id": "45d6c8ecba6402a1c1d2c7e9511a3636", "fusion_lat": 0.0, "is_disabled": 0, "rental_uris": {"ios": "https://dc.lft.to/lastmile_qr_scan", "android": "https://dc.lft.to/lastmile_qr_scan"}}, {"name": "b3b28e279e63312218d02de508a06a4d", "lon": -77.03196783333334, "lat": 38.921112, "type": "electric_scooter", "fusion_lon": 0.0, "is_reserved": 0, "bike_id": "b3b28e279e63312218d02de508a06a4d", "fusion_lat": 0.0, "is_disabled": 0, "rental_uris": {"ios": "https://dc.lft.to/lastmile_qr_scan", "android": "https://dc.lft.to/lastmile_qr_scan"}}, {"name": "84158c4e01e6c8b42aa2a0e46c7dca4d", "lon": -77.04271033333333, "lat": 38.908823, "type": "electric_scooter", "fusion_lon": 0.0, "is_reserved": 0, "bike_id": "84158c4e01e6c8b42aa2a0e46c7dca4d", "fusion_lat": 0.0, "is_disabled": 0, "rental_uris": {"ios": "https://dc.lft.to/lastmile_qr_scan", "android": "https://dc.lft.to/lastmile_qr_scan"}}, {"name": "ce4931c64090e9a4fa535c7c734cdf59", "lon": -76.99128816666666, "lat": 38.86204733333334, "type": "electric_scooter", "fusion_lon": 0.0, "is_reserved": 0, "bike_id": "ce4931c64090e9a4fa535c7c734cdf59", "fusion_lat": 0.0, "is_disabled": 0, "rental_uris": {"ios": "https://dc.lft.to/lastmile_qr_scan", "android": "https://dc.lft.to/lastmile_qr_scan"}}, {"name": "8440ca9f61b60e95528bfe650d7a81e0", "lon": -77.038458, "lat": 38.9121165, "type": "electric_scooter", "fusion_lon": 0.0, "is_reserved": 0, "bike_id": "8440ca9f61b60e95528bfe650d7a81e0", "fusion_lat": 0.0, "is_disabled": 0, "rental_uris": {"ios": "https://dc.lft.to/lastmile_qr_scan", "android": "https://dc.lft.to/lastmile_qr_scan"}}, {"name": "6707b2aa851de3019cb1bc8281f1eae5", "lon": -77.02642516666667, "lat": 38.88356516666666, "type": "electric_scooter", "fusion_lon": 0.0, "is_reserved": 0, "bike_id": "6707b2aa851de3019cb1bc8281f1eae5", "fusion_lat": 0.0, "is_disabled": 0, "rental_uris": {"ios": "https://dc.lft.to/lastmile_qr_scan", "android": "https://dc.lft.to/lastmile_qr_scan"}}, {"name": "8ee219eb916511e0106ff0cdb561ffa8", "lon": -77.04030666666667, "lat": 38.91291366666667, "type": "electric_scooter", "fusion_lon": 0.0, "is_reserved": 0, "bike_id": "8ee219eb916511e0106ff0cdb561ffa8", "fusion_lat": 0.0, "is_disabled": 0, "rental_uris": {"ios": "https://dc.lft.to/lastmile_qr_scan", "android": "https://dc.lft.to/lastmile_qr_scan"}}, {"name": "a95b6f75be58b4467eaa0b0bc765a333", "lon": -76.9964395, "lat": 38.92571183333333, "type": "electric_scooter", "fusion_lon": 0.0, "is_reserved": 0, "bike_id": "a95b6f75be58b4467eaa0b0bc765a333", "fusion_lat": 0.0, "is_disabled": 0, "rental_uris": {"ios": "https://dc.lft.to/lastmile_qr_scan", "android": "https://dc.lft.to/lastmile_qr_scan"}}, {"name": "f04b1d92e5584ee1304e3843be3b8283", "lon": -77.02530933333334, "lat": 38.9318605, "type": "electric_scooter", "fusion_lon": 0.0, "is_reserved": 0, "bike_id": "f04b1d92e5584ee1304e3843be3b8283", "fusion_lat": 0.0, "is_disabled": 0, "rental_uris": {"ios": "https://dc.lft.to/lastmile_qr_scan", "android": "https://dc.lft.to/lastmile_qr_scan"}}, {"name": "16a23b8c46edb2bf053414b7fff7bc62", "lon": -77.022268, "lat": 38.89221366666666, "type": "electric_scooter", "fusion_lon": 0.0, "is_reserved": 0, "bike_id": "16a23b8c46edb2bf053414b7fff7bc62", "fusion_lat": 0.0, "is_disabled": 0, "rental_uris": {"ios": "https://dc.lft.to/lastmile_qr_scan", "android": "https://dc.lft.to/lastmile_qr_scan"}}, {"name": "be2d7cb89e0158855cd8dded4bc4be57", "lon": -77.03782083333333, "lat": 38.91694233333333, "type": "electric_scooter", "fusion_lon": 0.0, "is_reserved": 0, "bike_id": "be2d7cb89e0158855cd8dded4bc4be57", "fusion_lat": 0.0, "is_disabled": 0, "rental_uris": {"ios": "https://dc.lft.to/lastmile_qr_scan", "android": "https://dc.lft.to/lastmile_qr_scan"}}, {"name": "4fa4cf7a107b2fcdec436cfc411229f3", "lon": -77.01793016666667, "lat": 38.9011735, "type": "electric_scooter", "fusion_lon": 0.0, "is_reserved": 0, "bike_id": "4fa4cf7a107b2fcdec436cfc411229f3", "fusion_lat": 0.0, "is_disabled": 0, "rental_uris": {"ios": "https://dc.lft.to/lastmile_qr_scan", "android": "https://dc.lft.to/lastmile_qr_scan"}}, {"name": "d668b20e9335598e39609e8f761b8d4e", "lon": -77.0225645, "lat": 38.92737566666667, "type": "electric_scooter", "fusion_lon": 0.0, "is_reserved": 0, "bike_id": "d668b20e9335598e39609e8f761b8d4e", "fusion_lat": 0.0, "is_disabled": 0, "rental_uris": {"ios": "https://dc.lft.to/lastmile_qr_scan", "android": "https://dc.lft.to/lastmile_qr_scan"}}, {"name": "3a7604bdfc425d632f128a410fcd906b", "lon": -77.00091566666667, "lat": 38.91639833333333, "type": "electric_scooter", "fusion_lon": 0.0, "is_reserved": 0, "bike_id": "3a7604bdfc425d632f128a410fcd906b", "fusion_lat": 0.0, "is_disabled": 0, "rental_uris": {"ios": "https://dc.lft.to/lastmile_qr_scan", "android": "https://dc.lft.to/lastmile_qr_scan"}}, {"name": "4ef7f0608fa6bfbffc4dd97d6cb61645", "lon": -77.0157035, "lat": 38.916765833333336, "type": "electric_scooter", "fusion_lon": 0.0, "is_reserved": 0, "bike_id": "4ef7f0608fa6bfbffc4dd97d6cb61645", "fusion_lat": 0.0, "is_disabled": 0, "rental_uris": {"ios": "https://dc.lft.to/lastmile_qr_scan", "android": "https://dc.lft.to/lastmile_qr_scan"}}, {"name": "a5ece1e55aa5e45b543c846d186206eb", "lon": -76.9820495, "lat": 38.98512483333333, "type": "electric_bike", "fusion_lon": 0.0, "is_reserved": 0, "bike_id": "a5ece1e55aa5e45b543c846d186206eb", "fusion_lat": 0.0, "is_disabled": 0, "rental_uris": {"ios": "https://dc.lft.to/lastmile_qr_scan", "android": "https://dc.lft.to/lastmile_qr_scan"}}, {"name": "b5c2cf659cb5b1a5057aef70caccec7b", "lon": -77.00442733333334, "lat": 38.9110675, "type": "electric_scooter", "fusion_lon": 0.0, "is_reserved": 0, "bike_id": "b5c2cf659cb5b1a5057aef70caccec7b", "fusion_lat": 0.0, "is_disabled": 0, "rental_uris": {"ios": "https://dc.lft.to/lastmile_qr_scan", "android": "https://dc.lft.to/lastmile_qr_scan"}}, {"name": "b70a4d3d308c790ee07f7b0d9eb35443", "lon": -76.9976335, "lat": 38.887782333333334, "type": "electric_scooter", "fusion_lon": 0.0, "is_reserved": 0, "bike_id": "b70a4d3d308c790ee07f7b0d9eb35443", "fusion_lat": 0.0, "is_disabled": 0, "rental_uris": {"ios": "https://dc.lft.to/lastmile_qr_scan", "android": "https://dc.lft.to/lastmile_qr_scan"}}, {"name": "144a1569cd6131608a2c4021ad798c7e", "lon": -77.0315675, "lat": 38.9279305, "type": "electric_scooter", "fusion_lon": 0.0, "is_reserved": 0, "bike_id": "144a1569cd6131608a2c4021ad798c7e", "fusion_lat": 0.0, "is_disabled": 0, "rental_uris": {"ios": "https://dc.lft.to/lastmile_qr_scan", "android": "https://dc.lft.to/lastmile_qr_scan"}}, {"name": "b30fd0929102b65e84fbed827f93afac", "lon": -77.0175375, "lat": 38.90256083333333, "type": "electric_scooter", "fusion_lon": 0.0, "is_reserved": 0, "bike_id": "b30fd0929102b65e84fbed827f93afac", "fusion_lat": 0.0, "is_disabled": 0, "rental_uris": {"ios": "https://dc.lft.to/lastmile_qr_scan", "android": "https://dc.lft.to/lastmile_qr_scan"}}, {"name": "ce009edf4e9be605762bb4917229b946", "lon": -77.0351535, "lat": 38.931094, "type": "electric_bike", "fusion_lon": 0.0, "is_reserved": 0, "bike_id": "ce009edf4e9be605762bb4917229b946", "fusion_lat": 0.0, "is_disabled": 0, "rental_uris": {"ios": "https://dc.lft.to/lastmile_qr_scan", "android": "https://dc.lft.to/lastmile_qr_scan"}}, {"name": "8b0f0cd72eb4c6fa18ac2a2344f5cf2f", "lon": -77.024176, "lat": 38.914192166666666, "type": "electric_bike", "fusion_lon": 0.0, "is_reserved": 0, "bike_id": "8b0f0cd72eb4c6fa18ac2a2344f5cf2f", "fusion_lat": 0.0, "is_disabled": 0, "rental_uris": {"ios": "https://dc.lft.to/lastmile_qr_scan", "android": "https://dc.lft.to/lastmile_qr_scan"}}, {"name": "b9de4e20bc7c39fbfaebb533f8388330", "lon": -77.0460035, "lat": 38.923327666666665, "type": "electric_scooter", "fusion_lon": 0.0, "is_reserved": 0, "bike_id": "b9de4e20bc7c39fbfaebb533f8388330", "fusion_lat": 0.0, "is_disabled": 0, "rental_uris": {"ios": "https://dc.lft.to/lastmile_qr_scan", "android": "https://dc.lft.to/lastmile_qr_scan"}}, {"name": "3c0de162502bb61a8b9b2f70b63e9c22", "lon": -76.94686483333334, "lat": 38.88629916666667, "type": "electric_scooter", "fusion_lon": 0.0, "is_reserved": 0, "bike_id": "3c0de162502bb61a8b9b2f70b63e9c22", "fusion_lat": 0.0, "is_disabled": 0, "rental_uris": {"ios": "https://dc.lft.to/lastmile_qr_scan", "android": "https://dc.lft.to/lastmile_qr_scan"}}, {"name": "848c2e8383f216fb6cbd50a0e5e104c6", "lon": -77.041849, "lat": 38.89223333333333, "type": "electric_scooter", "fusion_lon": 0.0, "is_reserved": 0, "bike_id": "848c2e8383f216fb6cbd50a0e5e104c6", "fusion_lat": 0.0, "is_disabled": 0, "rental_uris": {"ios": "https://dc.lft.to/lastmile_qr_scan", "android": "https://dc.lft.to/lastmile_qr_scan"}}, {"name": "2d6f62c8502c64e284909c03a0fab49a", "lon": -77.02332033333333, "lat": 38.89731366666667, "type": "electric_scooter", "fusion_lon": 0.0, "is_reserved": 0, "bike_id": "2d6f62c8502c64e284909c03a0fab49a", "fusion_lat": 0.0, "is_disabled": 0, "rental_uris": {"ios": "https://dc.lft.to/lastmile_qr_scan", "android": "https://dc.lft.to/lastmile_qr_scan"}}, {"name": "351e868998ffbaac6cc2308d0cb4b1fc", "lon": -77.0123185, "lat": 38.916837, "type": "electric_scooter", "fusion_lon": 0.0, "is_reserved": 0, "bike_id": "351e868998ffbaac6cc2308d0cb4b1fc", "fusion_lat": 0.0, "is_disabled": 0, "rental_uris": {"ios": "https://dc.lft.to/lastmile_qr_scan", "android": "https://dc.lft.to/lastmile_qr_scan"}}, {"name": "bc16700be16d6e3aaf5c0b48612823ed", "lon": -77.01467966666667, "lat": 38.919222833333336, "type": "electric_scooter", "fusion_lon": 0.0, "is_reserved": 0, "bike_id": "bc16700be16d6e3aaf5c0b48612823ed", "fusion_lat": 0.0, "is_disabled": 0, "rental_uris": {"ios": "https://dc.lft.to/lastmile_qr_scan", "android": "https://dc.lft.to/lastmile_qr_scan"}}, {"name": "26c5fbf171af1881970ddcb4d7e79d89", "lon": -77.03248466666666, "lat": 38.915678166666666, "type": "electric_scooter", "fusion_lon": 0.0, "is_reserved": 0, "bike_id": "26c5fbf171af1881970ddcb4d7e79d89", "fusion_lat": 0.0, "is_disabled": 0, "rental_uris": {"ios": "https://dc.lft.to/lastmile_qr_scan", "android": "https://dc.lft.to/lastmile_qr_scan"}}, {"name": "f5749c09ef38c760b7a60cb4148696d3", "lon": -76.94945066666666, "lat": 38.89494833333333, "type": "electric_scooter", "fusion_lon": 0.0, "is_reserved": 0, "bike_id": "f5749c09ef38c760b7a60cb4148696d3", "fusion_lat": 0.0, "is_disabled": 0, "rental_uris": {"ios": "https://dc.lft.to/lastmile_qr_scan", "android": "https://dc.lft.to/lastmile_qr_scan"}}, {"name": "eba523c46cda313b3dfce46bc7222d2e", "lon": -77.03504283333334, "lat": 38.96386916666667, "type": "electric_scooter", "fusion_lon": 0.0, "is_reserved": 0, "bike_id": "eba523c46cda313b3dfce46bc7222d2e", "fusion_lat": 0.0, "is_disabled": 0, "rental_uris": {"ios": "https://dc.lft.to/lastmile_qr_scan", "android": "https://dc.lft.to/lastmile_qr_scan"}}, {"name": "4081f3c45b09ed337bb5fa190a53abd8", "lon": -77.11228266666667, "lat": 38.81267833333333, "type": "electric_bike", "fusion_lon": 0.0, "is_reserved": 0, "bike_id": "4081f3c45b09ed337bb5fa190a53abd8", "fusion_lat": 0.0, "is_disabled": 0, "rental_uris": {"ios": "https://dc.lft.to/lastmile_qr_scan", "android": "https://dc.lft.to/lastmile_qr_scan"}}, {"name": "4b184e16917b94adaa8496f50fcf64fd", "lon": -77.02393333333333, "lat": 38.9200145, "type": "electric_scooter", "fusion_lon": 0.0, "is_reserved": 0, "bike_id": "4b184e16917b94adaa8496f50fcf64fd", "fusion_lat": 0.0, "is_disabled": 0, "rental_uris": {"ios": "https://dc.lft.to/lastmile_qr_scan", "android": "https://dc.lft.to/lastmile_qr_scan"}}, {"name": "efedd87675087983454343a6ac075fac", "lon": -77.0326855, "lat": 38.93407216666667, "type": "electric_scooter", "fusion_lon": 0.0, "is_reserved": 0, "bike_id": "efedd87675087983454343a6ac075fac", "fusion_lat": 0.0, "is_disabled": 0, "rental_uris": {"ios": "https://dc.lft.to/lastmile_qr_scan", "android": "https://dc.lft.to/lastmile_qr_scan"}}, {"name": "3527c3e329b549f05986913a795ddee0", "lon": -76.97811233333333, "lat": 38.89452516666667, "type": "electric_scooter", "fusion_lon": 0.0, "is_reserved": 0, "bike_id": "3527c3e329b549f05986913a795ddee0", "fusion_lat": 0.0, "is_disabled": 0, "rental_uris": {"ios": "https://dc.lft.to/lastmile_qr_scan", "android": "https://dc.lft.to/lastmile_qr_scan"}}, {"name": "cfd87743dc1be699bfe57406c51aa95e", "lon": -77.04102733333333, "lat": 38.917773, "type": "electric_scooter", "fusion_lon": 0.0, "is_reserved": 0, "bike_id": "cfd87743dc1be699bfe57406c51aa95e", "fusion_lat": 0.0, "is_disabled": 0, "rental_uris": {"ios": "https://dc.lft.to/lastmile_qr_scan", "android": "https://dc.lft.to/lastmile_qr_scan"}}, {"name": "e1be22a6c225cac210c6c556705364ab", "lon": -77.01778183333333, "lat": 38.98273533333333, "type": "electric_bike", "fusion_lon": 0.0, "is_reserved": 0, "bike_id": "e1be22a6c225cac210c6c556705364ab", "fusion_lat": 0.0, "is_disabled": 0, "rental_uris": {"ios": "https://dc.lft.to/lastmile_qr_scan", "android": "https://dc.lft.to/lastmile_qr_scan"}}, {"name": "3d05ee7487941e77f8493b46dac9a193", "lon": -77.02007033333334, "lat": 38.924142, "type": "electric_scooter", "fusion_lon": 0.0, "is_reserved": 0, "bike_id": "3d05ee7487941e77f8493b46dac9a193", "fusion_lat": 0.0, "is_disabled": 0, "rental_uris": {"ios": "https://dc.lft.to/lastmile_qr_scan", "android": "https://dc.lft.to/lastmile_qr_scan"}}, {"name": "6a8e6669157be90bdf0c627e5b4ab0dd", "lon": -77.0236645, "lat": 38.90224, "type": "electric_scooter", "fusion_lon": 0.0, "is_reserved": 0, "bike_id": "6a8e6669157be90bdf0c627e5b4ab0dd", "fusion_lat": 0.0, "is_disabled": 0, "rental_uris": {"ios": "https://dc.lft.to/lastmile_qr_scan", "android": "https://dc.lft.to/lastmile_qr_scan"}}, {"name": "f398bc72ce66bb3a95f20516d596b4a9", "lon": -76.98972683333334, "lat": 38.882234, "type": "electric_bike", "fusion_lon": 0.0, "is_reserved": 0, "bike_id": "f398bc72ce66bb3a95f20516d596b4a9", "fusion_lat": 0.0, "is_disabled": 0, "rental_uris": {"ios": "https://dc.lft.to/lastmile_qr_scan", "android": "https://dc.lft.to/lastmile_qr_scan"}}, {"name": "b26914c32ed04ffea7188998fe02645a", "lon": -77.008854, "lat": 38.91474566666667, "type": "electric_scooter", "fusion_lon": 0.0, "is_reserved": 0, "bike_id": "b26914c32ed04ffea7188998fe02645a", "fusion_lat": 0.0, "is_disabled": 0, "rental_uris": {"ios": "https://dc.lft.to/lastmile_qr_scan", "android": "https://dc.lft.to/lastmile_qr_scan"}}, {"name": "098269e392d42a7238aafdc4baf6d13b", "lon": -77.118553, "lat": 38.877337, "type": "electric_bike", "fusion_lon": 0.0, "is_reserved": 0, "bike_id": "098269e392d42a7238aafdc4baf6d13b", "fusion_lat": 0.0, "is_disabled": 0, "rental_uris": {"ios": "https://dc.lft.to/lastmile_qr_scan", "android": "https://dc.lft.to/lastmile_qr_scan"}}, {"name": "3804aa0f07d17b56472155a747e53fa6", "lon": -76.93545983333334, "lat": 38.9518835, "type": "electric_bike", "fusion_lon": 0.0, "is_reserved": 0, "bike_id": "3804aa0f07d17b56472155a747e53fa6", "fusion_lat": 0.0, "is_disabled": 0, "rental_uris": {"ios": "https://dc.lft.to/lastmile_qr_scan", "android": "https://dc.lft.to/lastmile_qr_scan"}}, {"name": "7556f15077bff8a4a489ca0cd0efdfdd", "lon": -77.00214733333334, "lat": 38.924547833333335, "type": "electric_scooter", "fusion_lon": 0.0, "is_reserved": 0, "bike_id": "7556f15077bff8a4a489ca0cd0efdfdd", "fusion_lat": 0.0, "is_disabled": 0, "rental_uris": {"ios": "https://dc.lft.to/lastmile_qr_scan", "android": "https://dc.lft.to/lastmile_qr_scan"}}, {"name": "4238c4892498656f2f91b1e1716eb2d6", "lon": -77.02413283333334, "lat": 38.920735, "type": "electric_scooter", "fusion_lon": 0.0, "is_reserved": 0, "bike_id": "4238c4892498656f2f91b1e1716eb2d6", "fusion_lat": 0.0, "is_disabled": 0, "rental_uris": {"ios": "https://dc.lft.to/lastmile_qr_scan", "android": "https://dc.lft.to/lastmile_qr_scan"}}, {"name": "4270cb5a060d1501ad84a487b2f74fb5", "lon": -77.03844216666667, "lat": 38.9163905, "type": "electric_scooter", "fusion_lon": 0.0, "is_reserved": 0, "bike_id": "4270cb5a060d1501ad84a487b2f74fb5", "fusion_lat": 0.0, "is_disabled": 0, "rental_uris": {"ios": "https://dc.lft.to/lastmile_qr_scan", "android": "https://dc.lft.to/lastmile_qr_scan"}}, {"name": "101d344fd553dce31777ee6370907ba8", "lon": -77.04692666666666, "lat": 38.89225666666667, "type": "electric_scooter", "fusion_lon": 0.0, "is_reserved": 0, "bike_id": "101d344fd553dce31777ee6370907ba8", "fusion_lat": 0.0, "is_disabled": 0, "rental_uris": {"ios": "https://dc.lft.to/lastmile_qr_scan", "android": "https://dc.lft.to/lastmile_qr_scan"}}, {"name": "cfe5a1dc5ae6dbab1302fd9ef2589460", "lon": -76.99872216666667, "lat": 38.900263833333334, "type": "electric_scooter", "fusion_lon": 0.0, "is_reserved": 0, "bike_id": "cfe5a1dc5ae6dbab1302fd9ef2589460", "fusion_lat": 0.0, "is_disabled": 0, "rental_uris": {"ios": "https://dc.lft.to/lastmile_qr_scan", "android": "https://dc.lft.to/lastmile_qr_scan"}}, {"name": "cd37d3d2aafbed566052c7d93aa70f30", "lon": -77.01359483333333, "lat": 38.869682833333336, "type": "electric_scooter", "fusion_lon": 0.0, "is_reserved": 0, "bike_id": "cd37d3d2aafbed566052c7d93aa70f30", "fusion_lat": 0.0, "is_disabled": 0, "rental_uris": {"ios": "https://dc.lft.to/lastmile_qr_scan", "android": "https://dc.lft.to/lastmile_qr_scan"}}, {"name": "104bebff11dda37c5915f101c1d17e97", "lon": -77.02611416666667, "lat": 38.896783666666664, "type": "electric_scooter", "fusion_lon": 0.0, "is_reserved": 0, "bike_id": "104bebff11dda37c5915f101c1d17e97", "fusion_lat": 0.0, "is_disabled": 0, "rental_uris": {"ios": "https://dc.lft.to/lastmile_qr_scan", "android": "https://dc.lft.to/lastmile_qr_scan"}}, {"name": "71ec09a9577c3abb367d9d952c3df43d", "lon": -77.035238, "lat": 38.90668566666667, "type": "electric_scooter", "fusion_lon": 0.0, "is_reserved": 0, "bike_id": "71ec09a9577c3abb367d9d952c3df43d", "fusion_lat": 0.0, "is_disabled": 0, "rental_uris": {"ios": "https://dc.lft.to/lastmile_qr_scan", "android": "https://dc.lft.to/lastmile_qr_scan"}}, {"name": "a71487df9acdd79a5b9e294970626949", "lon": -77.00205833333334, "lat": 38.902431, "type": "electric_scooter", "fusion_lon": 0.0, "is_reserved": 0, "bike_id": "a71487df9acdd79a5b9e294970626949", "fusion_lat": 0.0, "is_disabled": 0, "rental_uris": {"ios": "https://dc.lft.to/lastmile_qr_scan", "android": "https://dc.lft.to/lastmile_qr_scan"}}, {"name": "c41df85cb9755c37a96cea2520ead27c", "lon": -77.0430655, "lat": 38.90781233333333, "type": "electric_scooter", "fusion_lon": 0.0, "is_reserved": 0, "bike_id": "c41df85cb9755c37a96cea2520ead27c", "fusion_lat": 0.0, "is_disabled": 0, "rental_uris": {"ios": "https://dc.lft.to/lastmile_qr_scan", "android": "https://dc.lft.to/lastmile_qr_scan"}}, {"name": "86e6819d83e5d32693a793999304edd6", "lon": -77.09805916666667, "lat": 38.85025516666666, "type": "electric_bike", "fusion_lon": 0.0, "is_reserved": 0, "bike_id": "86e6819d83e5d32693a793999304edd6", "fusion_lat": 0.0, "is_disabled": 0, "rental_uris": {"ios": "https://dc.lft.to/lastmile_qr_scan", "android": "https://dc.lft.to/lastmile_qr_scan"}},