{"data": {"bikes": [{"lat": 38.927628, "is_disabled": 0, "type": "electric_scooter", "lon": -77.02320466666667, "bike_id": "99bc6bf29c1b7569164ca4d2fc852d69", "fusion_lat": 0.0, "name": "99bc6bf29c1b7569164ca4d2fc852d69", "is_reserved": 0, "rental_uris": {"android": "https://dc.lft.to/lastmile_qr_scan", "ios": "https://dc.lft.to/lastmile_qr_scan"}, "fusion_lon": 0.0}, {"lat": 38.8665785, "is_disabled": 0, "type": "electric_scooter", "lon": -76.9888405, "bike_id": "08b3b54817fd59851c70866bcc292ec9", "fusion_lat": 0.0, "name": "08b3b54817fd59851c70866bcc292ec9", "is_reserved": 0, "rental_uris": {"android": "https://dc.lft.to/lastmile_qr_scan", "ios": "https://dc.lft.to/lastmile_qr_scan"}, "fusion_lon": 0.0}, {"lat": 38.907359, "is_disabled": 0, "type": "electric_scooter", "lon": -77.04283466666666, "bike_id": "0ebb62bbf5b08dc5a8b4f8935f6e868c", "fusion_lat": 0.0, "name": "0ebb62bbf5b08dc5a8b4f8935f6e868c", "is_reserved": 0, "rental_uris": {"android": "https://dc.lft.to/lastmile_qr_scan", "ios": "https://dc.lft.to/lastmile_qr_scan"}, "fusion_lon": 0.0}, {"lat": 38.90173716666666, "is_disabled": 0, "type": "electric_scooter", "lon": -77.0258325, "bike_id": "fe68e794d7525ad191bf2cae722abc51", "fusion_lat": 0.0, "name": "fe68e794d7525ad191bf2cae722abc51", "is_reserved": 0, "rental_uris": {"android": "https://dc.lft.to/lastmile_qr_scan", "ios": "https://dc.lft.to/lastmile_qr_scan"}, "fusion_lon": 0.0}, {"lat": 38.973692666666665, "is_disabled": 0, "type": "electric_scooter", "lon": -77.01852433333333, "bike_id": "37f2fb6646b6cc8b28b1e7f801b46ce8", "fusion_lat": 0.0, "name": "37f2fb6646b6cc8b28b1e7f801b46ce8", "is_reserved": 0, "rental_uris": {"android": "https://dc.lft.to/lastmile_qr_scan", "ios": "https://dc.lft.to/lastmile_qr_scan"}, "fusion_lon": 0.0}, {"lat": 38.93991466666667, "is_disabled": 0, "type": "electric_scooter", "lon": -77.07177316666667, "bike_id": "065787bda9c99ca89056de6492f29006", "fusion_lat": 0.0, "name": "065787bda9c99ca89056de6492f29006", "is_reserved": 0, "rental_uris": {"android": "https://dc.lft.to/lastmile_qr_scan", "ios": "https://dc.lft.to/lastmile_qr_scan"}, "fusion_lon": 0.0}, {"lat": 38.9256665, "is_disabled": 0, "type": "electric_scooter", "lon": -77.05759133333333, "bike_id": "ac62af0d7faa876da9a499ef0614b72e", "fusion_lat": 0.0, "name": "ac62af0d7faa876da9a499ef0614b72e", "is_reserved": 0, "rental_uris": {"android": "https://dc.lft.to/lastmile_qr_scan", "ios": "https://dc.lft.to/lastmile_qr_scan"}, "fusion_lon": 0.0}, {"lat": 38.897344333333336, "is_disabled": 0, "type": "electric_scooter", "lon": -77.04532233333333, "bike_id": "f379c51262a9abef7835753abad304a8", "fusion_lat": 0.0, "name": "f379c51262a9abef7835753abad304a8", "is_reserved": 0, "rental_uris": {"android": "https://dc.lft.to/lastmile_qr_scan", "ios": "https://dc.lft.to/lastmile_qr_scan"}, "fusion_lon": 0.0}, {"lat": 38.89904383333333, "is_disabled": 0, "type": "electric_scooter", "lon": -76.933509, "bike_id": "cb2b62d82f75f4b2d9f52649c934b03a", "fusion_lat": 0.0, "name": "cb2b62d82f75f4b2d9f52649c934b03a", "is_reserved": 0, "rental_uris": {"android": "https://dc.lft.to/lastmile_qr_scan", "ios": "https://dc.lft.to/lastmile_qr_scan"}, "fusion_lon": 0.0}, {"lat": 38.91785383333333, "is_disabled": 0, "type": "electric_scooter", "lon": -77.04336683333334, "bike_id": "d81305954fed3cc8469c91424fe3d2c4", "fusion_lat": 0.0, "name": "d81305954fed3cc8469c91424fe3d2c4", "is_reserved": 0, "rental_uris": {"android": "https://dc.lft.to/lastmile_qr_scan", "ios": "https://dc.lft.to/lastmile_qr_scan"}, "fusion_lon": 0.0}, {"lat": 38.880006333333334, "is_disabled": 0, "type": "electric_scooter", "lon": -76.98538566666667, "bike_id": "6aeec84e68371b9829f3b62738fd512a", "fusion_lat": 0.0, "name": "6aeec84e68371b9829f3b62738fd512a", "is_reserved": 0, "rental_uris": {"android": "https://dc.lft.to/lastmile_qr_scan", "ios": "https://dc.lft.to/lastmile_qr_scan"}, "fusion_lon": 0.0}, {"lat": 38.93257916666666, "is_disabled": 0, "type": "electric_scooter", "lon": -77.03270966666666, "bike_id": "a9d54cfd7ec2810b946bde280c9cda70", "fusion_lat": 0.0, "name": "a9d54cfd7ec2810b946bde280c9cda70", "is_reserved": 0, "rental_uris": {"android": "https://dc.lft.to/lastmile_qr_scan", "ios": "https://dc.lft.to/lastmile_qr_scan"}, "fusion_lon": 0.0}, {"lat": 38.892661833333335, "is_disabled": 0, "type": "electric_scooter", "lon": -76.94158516666667, "bike_id": "b25aee0ee9765ca2efec9afabb480805", "fusion_lat": 0.0, "name": "b25aee0ee9765ca2efec9afabb480805", "is_reserved": 0, "rental_uris": {"android": "https://dc.lft.to/lastmile_qr_scan", "ios": "https://dc.lft.to/lastmile_qr_scan"}, "fusion_lon": 0.0}, {"lat": 38.914534833333335, "is_disabled": 0, "type": "electric_scooter", "lon": -77.0320465, "bike_id": "053d903faf617929e4fdd58cc02fa5a5", "fusion_lat": 0.0, "name": "053d903faf617929e4fdd58cc02fa5a5", "is_reserved": 0, "rental_uris": {"android": "https://dc.lft.to/lastmile_qr_scan", "ios": "https://dc.lft.to/lastmile_qr_scan"}, "fusion_lon": 0.0}, {"lat": 38.806807, "is_disabled": 0, "type": "electric_bike", "lon": -77.08119866666667, "bike_id": "20af5d666804d02fffbcf39a97151ef3", "fusion_lat": 0.0, "name": "20af5d666804d02fffbcf39a97151ef3", "is_reserved": 0, "rental_uris": {"android": "https://dc.lft.to/lastmile_qr_scan", "ios": "https://dc.lft.to/lastmile_qr_scan"}, "fusion_lon": 0.0}, {"lat": 38.904210166666665, "is_disabled": 0, "type": "electric_scooter", "lon": -77.0208395, "bike_id": "fb49b78c90a12898f98bc1fe892d23be", "fusion_lat": 0.0, "name": "fb49b78c90a12898f98bc1fe892d23be", "is_reserved": 0, "rental_uris": {"android": "https://dc.lft.to/lastmile_qr_scan", "ios": "https://dc.lft.to/lastmile_qr_scan"}, "fusion_lon": 0.0}, {"lat": 38.85811533333333, "is_disabled": 0, "type": "electric_scooter", "lon": -76.98990133333334, "bike_id": "34fe7e69d15deb82ccfcbb19ae293262", "fusion_lat": 0.0, "name": "34fe7e69d15deb82ccfcbb19ae293262", "is_reserved": 0, "rental_uris": {"android": "https://dc.lft.to/lastmile_qr_scan", "ios": "https://dc.lft.to/lastmile_qr_scan"}, "fusion_lon": 0.0}, {"lat": 38.89794333333333, "is_disabled": 0, "type": "electric_scooter", "lon": -77.03207316666666, "bike_id": "0e42ab0fa7c64fe93b419352d1fb87a7", "fusion_lat": 0.0, "name": "0e42ab0fa7c64fe93b419352d1fb87a7", "is_reserved": 0, "rental_uris": {"android": "https://dc.lft.to/lastmile_qr_scan", "ios": "https://dc.lft.to/lastmile_qr_scan"}, "fusion_lon": 0.0}, {"lat": 38.916808, "is_disabled": 0, "type": "electric_scooter", "lon": -77.02967583333333, "bike_id": "beb895526f954ccbbee9c0e0f1bf9d03", "fusion_lat": 0.0, "name": "beb895526f954ccbbee9c0e0f1bf9d03", "is_reserved": 0, "rental_uris": {"android": "https://dc.lft.to/lastmile_qr_scan", "ios": "https://dc.lft.to/lastmile_qr_scan"}, "fusion_lon": 0.0}, {"lat": 38.9197615, "is_disabled": 0, "type": "electric_scooter", "lon": -77.0239295, "bike_id": "d6aaa0d3b35cff75f99c3b8023f3987b", "fusion_lat": 0.0, "name": "d6aaa0d3b35cff75f99c3b8023f3987b", "is_reserved": 0, "rental_uris": {"android": "https://dc.lft.to/lastmile_qr_scan", "ios": "https://dc.lft.to/lastmile_qr_scan"}, "fusion_lon": 0.0}, {"lat": 38.905189666666665, "is_disabled": 0, "type": "electric_scooter", "lon": -77.02704466666667, "bike_id": "6d48c9b22b7da59c76c6e7569c3e28cb", "fusion_lat": 0.0, "name": "6d48c9b22b7da59c76c6e7569c3e28cb", "is_reserved": 0, "rental_uris": {"android": "https://dc.lft.to/lastmile_qr_scan", "ios": "https://dc.lft.to/lastmile_qr_scan"}, "fusion_lon": 0.0}, {"lat": 38.84429383333333, "is_disabled": 0, "type": "electric_scooter", "lon": -76.99776783333333, "bike_id": "3b8826e7ca15850b226202a47ec8bd3d", "fusion_lat": 0.0, "name": "3b8826e7ca15850b226202a47ec8bd3d", "is_reserved": 0, "rental_uris": {"android": "https://dc.lft.to/lastmile_qr_scan", "ios": "https://dc.lft.to/lastmile_qr_scan"}, "fusion_lon": 0.0}, {"lat": 38.86429233333333, "is_disabled": 0, "type": "electric_scooter", "lon": -77.0135495, "bike_id": "1b87d2fcab4946d8be70e9d9050e6b58", "fusion_lat": 0.0, "name": "1b87d2fcab4946d8be70e9d9050e6b58", "is_reserved": 0, "rental_uris": {"android": "https://dc.lft.to/lastmile_qr_scan", "ios": "https://dc.lft.to/lastmile_qr_scan"}, "fusion_lon": 0.0}, {"lat": 38.9126445, "is_disabled": 0, "type": "electric_scooter", "lon": -77.03237483333334, "bike_id": "91e8ad98a6ad53f77a091e0380a2dc6d", "fusion_lat": 0.0, "name": "91e8ad98a6ad53f77a091e0380a2dc6d", "is_reserved": 0, "rental_uris": {"android": "https://dc.lft.to/lastmile_qr_scan", "ios": "https://dc.lft.to/lastmile_qr_scan"}, "fusion_lon": 0.0}, {"lat": 38.9075085, "is_disabled": 0, "type": "electric_scooter", "lon": -77.04151233333333, "bike_id": "cd4924af8fe8ca1fd7bea457c2d4e278", "fusion_lat": 0.0, "name": "cd4924af8fe8ca1fd7bea457c2d4e278", "is_reserved": 0, "rental_uris": {"android": "https://dc.lft.to/lastmile_qr_scan", "ios": "https://dc.lft.to/lastmile_qr_scan"}, "fusion_lon": 0.0}, {"lat": 38.9376065, "is_disabled": 0, "type": "electric_scooter", "lon": -77.036327, "bike_id": "ad4530b62bbeadede9abd092514ac12a", "fusion_lat": 0.0, "name": "ad4530b62bbeadede9abd092514ac12a", "is_reserved": 0, "rental_uris": {"android": "https://dc.lft.to/lastmile_qr_scan", "ios": "https://dc.lft.to/lastmile_qr_scan"}, "fusion_lon": 0.0}, {"lat": 38.900341, "is_disabled": 0, "type": "electric_scooter", "lon": -76.99627983333333, "bike_id": "a6b6fa9a66258176a5a1b216cbd2afe7", "fusion_lat": 0.0, "name": "a6b6fa9a66258176a5a1b216cbd2afe7", "is_reserved": 0, "rental_uris": {"android": "https://dc.lft.to/lastmile_qr_scan", "ios": "https://dc.lft.to/lastmile_qr_scan"}, "fusion_lon": 0.0}, {"lat": 38.973264, "is_disabled": 0, "type": "electric_bike", "lon": -77.02147166666667, "bike_id": "b530051e71d13671a2c5b11c7ccd19e7", "fusion_lat": 0.0, "name": "b530051e71d13671a2c5b11c7ccd19e7", "is_reserved": 0, "rental_uris": {"android": "https://dc.lft.to/lastmile_qr_scan", "ios": "https://dc.lft.to/lastmile_qr_scan"}, "fusion_lon": 0.0}, {"lat": 38.93656266666667, "is_disabled": 0, "type": "electric_bike", "lon": -76.95219716666666, "bike_id": "f358b084156ca9a4fe41ccc26a288264", "fusion_lat": 0.0, "name": "f358b084156ca9a4fe41ccc26a288264", "is_reserved": 0, "rental_uris": {"android": "https://dc.lft.to/lastmile_qr_scan", "ios": "https://dc.lft.to/lastmile_qr_scan"}, "fusion_lon": 0.0}, {"lat": 38.9190085, "is_disabled": 0, "type": "electric_scooter", "lon": -77.0392835, "bike_id": "2a69a68a4f5e6c2d43088b217bb4551c", "fusion_lat": 0.0, "name": "2a69a68a4f5e6c2d43088b217bb4551c", "is_reserved": 0, "rental_uris": {"android": "https://dc.lft.to/lastmile_qr_scan", "ios": "https://dc.lft.to/lastmile_qr_scan"}, "fusion_lon": 0.0}, {"lat": 38.922434, "is_disabled": 0, "type": "electric_scooter", "lon": -77.04269233333333, "bike_id": "3aaf212cf34828b63b788a04cbfdf292", "fusion_lat": 0.0, "name": "3aaf212cf34828b63b788a04cbfdf292", "is_reserved": 0, "rental_uris": {"android": "https://dc.lft.to/lastmile_qr_scan", "ios": "https://dc.lft.to/lastmile_qr_scan"}, "fusion_lon": 0.0}, {"lat": 38.91656116666667, "is_disabled": 0, "type": "electric_scooter", "lon": -76.98232616666667, "bike_id": "d2358db907e702ef91bec163e16e0443", "fusion_lat": 0.0, "name": "d2358db907e702ef91bec163e16e0443", "is_reserved": 0, "rental_uris": {"android": "https://dc.lft.to/lastmile_qr_scan", "ios": "https://dc.lft.to/lastmile_qr_scan"}, "fusion_lon": 0.0}, {"lat": 38.851896833333335, "is_disabled": 0, "type": "electric_scooter", "lon": -76.97620616666667, "bike_id": "bc44ba654205ce09457e33eee53e96bc", "fusion_lat": 0.0, "name": "bc44ba654205ce09457e33eee53e96bc", "is_reserved": 0, "rental_uris": {"android": "https://dc.lft.to/lastmile_qr_scan", "ios": "https://dc.lft.to/lastmile_qr_scan"}, "fusion_lon": 0.0}, {"lat": 39.034340666666665, "is_disabled": 0, "type": "electric_bike", "lon": -77.04308333333333, "bike_id": "e3578e4ad67837c10ef6d19aa8ff5db6", "fusion_lat": 0.0, "name": "e3578e4ad67837c10ef6d19aa8ff5db6", "is_reserved": 0, "rental_uris": {"android": "https://dc.lft.to/lastmile_qr_scan", "ios": "https://dc.lft.to/lastmile_qr_scan"}, "fusion_lon": 0.0}, {"lat": 38.89223583333333, "is_disabled": 0, "type": "electric_scooter", "lon": -77.0480195, "bike_id": "dca3f44618dd45c303c5eb435fd6dff3", "fusion_lat": 0.0, "name": "dca3f44618dd45c303c5eb435fd6dff3", "is_reserved": 0, "rental_uris": {"android": "https://dc.lft.to/lastmile_qr_scan", "ios": "https://dc.lft.to/lastmile_qr_scan"}, "fusion_lon": 0.0}, {"lat": 38.916913, "is_disabled": 0, "type": "electric_scooter", "lon": -77.0251515, "bike_id": "7c07c763811e4efc01f6db8f2c1323e9", "fusion_lat": 0.0, "name": "7c07c763811e4efc01f6db8f2c1323e9", "is_reserved": 0, "rental_uris": {"android": "https://dc.lft.to/lastmile_qr_scan", "ios": "https://dc.lft.to/lastmile_qr_scan"}, "fusion_lon": 0.0}, {"lat": 38.88767433333334, "is_disabled": 0, "type": "electric_scooter", "lon": -76.95578716666667, "bike_id": "e61c32c74a030855a32bf846274aaebf", "fusion_lat": 0.0, "name": "e61c32c74a030855a32bf846274aaebf", "is_reserved": 0, "rental_uris": {"android": "https://dc.lft.to/lastmile_qr_scan", "ios": "https://dc.lft.to/lastmile_qr_scan"}, "fusion_lon": 0.0}, {"lat": 38.877975, "is_disabled": 0, "type": "electric_bike", "lon": -77.02369783333333, "bike_id": "c564534bf04f61ffa830652814086611", "fusion_lat": 0.0, "name": "c564534bf04f61ffa830652814086611", "is_reserved": 0, "rental_uris": {"android": "https://dc.lft.to/lastmile_qr_scan", "ios": "https://dc.lft.to/lastmile_qr_scan"}, "fusion_lon": 0.0}, {"lat": 38.897567, "is_disabled": 0, "type": "electric_scooter", "lon": -77.02685733333334, "bike_id": "f278b699207d9b85ed11496cbda36964", "fusion_lat": 0.0, "name": "f278b699207d9b85ed11496cbda36964", "is_reserved": 0, "rental_uris": {"android": "https://dc.lft.to/lastmile_qr_scan", "ios": "https://dc.lft.to/lastmile_qr_scan"}, "fusion_lon": 0.0}, {"lat": 38.92335116666667, "is_disabled": 0, "type": "electric_scooter", "lon": -77.0434745, "bike_id": "6f031703d077fe407532f50cbc3c414c", "fusion_lat": 0.0, "name": "6f031703d077fe407532f50cbc3c414c", "is_reserved": 0, "rental_uris": {"android": "https://dc.lft.to/lastmile_qr_scan", "ios": "https://dc.lft.to/lastmile_qr_scan"}, "fusion_lon": 0.0}, {"lat": 38.91120166666666, "is_disabled": 0, "type": "electric_scooter", "lon": -77.02218383333333, "bike_id": "b8783eee45ea8db2fcdd2f2126ec2229", "fusion_lat": 0.0, "name": "b8783eee45ea8db2fcdd2f2126ec2229", "is_reserved": 0, "rental_uris": {"android": "https://dc.lft.to/lastmile_qr_scan", "ios": "https://dc.lft.to/lastmile_qr_scan"}, "fusion_lon": 0.0}, {"lat": 38.920764166666665, "is_disabled": 0, "type": "electric_scooter", "lon": -77.02418783333333, "bike_id": "2a992d4b056f361ccac7f59d45b772be", "fusion_lat": 0.0, "name": "2a992d4b056f361ccac7f59d45b772be", "is_reserved": 0, "rental_uris": {"android": "https://dc.lft.to/lastmile_qr_scan", "ios": "https://dc.lft.to/lastmile_qr_scan"}, "fusion_lon": 0.0}, {"lat": 38.90974416666667, "is_disabled": 0, "type": "electric_scooter", "lon": -77.0338705, "bike_id": "5d42506c22bd6a500728b4cb19fa56fc", "fusion_lat": 0.0, "name": "5d42506c22bd6a500728b4cb19fa56fc", "is_reserved": 0, "rental_uris": {"android": "https://dc.lft.to/lastmile_qr_scan", "ios": "https://dc.lft.to/lastmile_qr_scan"}, "fusion_lon": 0.0}, {"lat": 38.90455, "is_disabled": 0, "type": "electric_scooter", "lon": -76.994603, "bike_id": "1087bfd638113e8a341df6ac4fbf4310", "fusion_lat": 0.0, "name": "1087bfd638113e8a341df6ac4fbf4310", "is_reserved": 0, "rental_uris": {"android": "https://dc.lft.to/lastmile_qr_scan", "ios": "https://dc.lft.to/lastmile_qr_scan"}, "fusion_lon": 0.0}, {"lat": 38.90000833333333, "is_disabled": 0, "type": "electric_scooter", "lon": -77.02160633333334, "bike_id": "5ddb28dee4fcc27f3c6c7f0e70dfb450", "fusion_lat": 0.0, "name": "5ddb28dee4fcc27f3c6c7f0e70dfb450", "is_reserved": 0, "rental_uris": {"android": "https://dc.lft.to/lastmile_qr_scan", "ios": "https://dc.lft.to/lastmile_qr_scan"}, "fusion_lon": 0.0}, {"lat": 38.92786366666667, "is_disabled": 0, "type": "electric_bike", "lon": -76.97221083333334, "bike_id": "47494fbfebaaaeab1783b85bdbf8f354", "fusion_lat": 0.0, "name": "47494fbfebaaaeab1783b85bdbf8f354", "is_reserved": 0, "rental_uris": {"android": "https://dc.lft.to/lastmile_qr_scan", "ios": "https://dc.lft.to/lastmile_qr_scan"}, "fusion_lon": 0.0}, {"lat": 38.924463833333334, "is_disabled": 0, "type": "electric_scooter", "lon": -77.02035966666666, "bike_id": "b8691642f8a743eb6804cdd7ee223acb", "fusion_lat": 0.0, "name": "b8691642f8a743eb6804cdd7ee223acb", "is_reserved": 0, "rental_uris": {"android": "https://dc.lft.to/lastmile_qr_scan", "ios": "https://dc.lft.to/lastmile_qr_scan"}, "fusion_lon": 0.0}, {"lat": 38.97836133333333, "is_disabled": 0, "type": "electric_bike", "lon": -77.02645966666667, "bike_id": "56ff3de075bb6721d4d19cecc9d5ac7a", "fusion_lat": 0.0, "name": "56ff3de075bb6721d4d19cecc9d5ac7a", "is_reserved": 0, "rental_uris": {"android": "https://dc.lft.to/lastmile_qr_scan", "ios": "https://dc.lft.to/lastmile_qr_scan"}, "fusion_lon": 0.0}, {"lat": 38.943153833333334, "is_disabled": 0, "type": "electric_scooter", "lon": -77.05927883333334, "bike_id": "08f8a83f9a9b870bba8fbe1d83a69a8a", "fusion_lat": 0.0, "name": "08f8a83f9a9b870bba8fbe1d83a69a8a", "is_reserved": 0, "rental_uris": {"android": "https://dc.lft.to/lastmile_qr_scan", "ios": "https://dc.lft.to/lastmile_qr_scan"}, "fusion_lon": 0.0}, {"lat": 38.901420333333334, "is_disabled": 0, "type": "electric_scooter", "lon": -77.04433383333334, "bike_id": "00e23f43a59505e2ed7ca7f4b5a87b7a", "fusion_lat": 0.0, "name": "00e23f43a59505e2ed7ca7f4b5a87b7a", "is_reserved": 0, "rental_uris": {"android": "https://dc.lft.to/lastmile_qr_scan", "ios": "https://dc.lft.to/lastmile_qr_scan"}, "fusion_lon": 0.0}, {"lat": 38.86725083333333, "is_disabled": 0, "type": "electric_scooter", "lon": -77.010137, "bike_id": "330f0a5eec2d90c09c9b5f5a90e2d75c", "fusion_lat": 0.0, "name": "330f0a5eec2d90c09c9b5f5a90e2d75c", "is_reserved": 0, "rental_uris": {"android": "https://dc.lft.to/lastmile_qr_scan", "ios": "https://dc.lft.to/lastmile_qr_scan"}, "fusion_lon": 0.0}, {"lat": 38.90978, "is_disabled": 0, "type": "electric_scooter", "lon": -77.03377566666667, "bike_id": "12b5f8c11b8992eeb2f1ee7e1a1e8ef5", "fusion_lat": 0.0, "name": "12b5f8c11b8992eeb2f1ee7e1a1e8ef5", "is_reserved": 0, "rental_uris": {"android": "https://dc.lft.to/lastmile_qr_scan", "ios": "https://dc.lft.to/lastmile_qr_scan"}, "fusion_lon": 0.0}, {"lat": 38.92366483333333, "is_disabled": 0, "type": "electric_scooter", "lon": -77.04029033333333, "bike_id": "4e2093d1cfdc800a3d90af0962034381", "fusion_lat": 0.0, "name": "4e2093d1cfdc800a3d90af0962034381", "is_reserved": 0, "rental_uris": {"android": "https://dc.lft.to/lastmile_qr_scan", "ios": "https://dc.lft.to/lastmile_qr_scan"}, "fusion_lon": 0.0}, {"lat": 38.8609595, "is_disabled": 0, "type": "electric_scooter", "lon": -76.98375266666666, "bike_id": "89c0f9e84f5a6656faeb290d55d40a9f", "fusion_lat": 0.0, "name": "89c0f9e84f5a6656faeb290d55d40a9f", "is_reserved": 0, "rental_uris": {"android": "https://dc.lft.to/lastmile_qr_scan", "ios": "https://dc.lft.to/lastmile_qr_scan"}, "fusion_lon": 0.0}, {"lat": 38.849665, "is_disabled": 0, "type": "electric_bike", "lon": -77.10036233333334, "bike_id": "c4d6e72da33bdd6a11abd2dcf7dd61c8", "fusion_lat": 0.0, "name": "c4d6e72da33bdd6a11abd2dcf7dd61c8", "is_reserved": 0, "rental_uris": {"android": "https://dc.lft.to/lastmile_qr_scan", "ios": "https://dc.lft.to/lastmile_qr_scan"}, "fusion_lon": 0.0}, {"lat": 38.863852333333334, "is_disabled": 0, "type": "electric_scooter", "lon": -76.99250633333334, "bike_id": "12332d76504589c8e90ad2bdb5ce9cb0", "fusion_lat": 0.0, "name": "12332d76504589c8e90ad2bdb5ce9cb0", "is_reserved": 0, "rental_uris": {"android": "https://dc.lft.to/lastmile_qr_scan", "ios": "https://dc.lft.to/lastmile_qr_scan"}, "fusion_lon": 0.0}, {"lat": 38.91260233333333, "is_disabled": 0, "type": "electric_scooter", "lon": -77.03242183333333, "bike_id": "2c26aaa78d147f9f66b0dab658aeb035", "fusion_lat": 0.0, "name": "2c26aaa78d147f9f66b0dab658aeb035", "is_reserved": 0, "rental_uris": {"android": "https://dc.lft.to/lastmile_qr_scan", "ios": "https://dc.lft.to/lastmile_qr_scan"}, "fusion_lon": 0.0}, {"lat": 38.92486666666667, "is_disabled": 0, "type": "electric_scooter", "lon": -77.05212533333334, "bike_id": "04aa6aea54f26a945ad457369ff97c5d", "fusion_lat": 0.0, "name": "04aa6aea54f26a945ad457369ff97c5d", "is_reserved": 0, "rental_uris": {"android": "https://dc.lft.to/lastmile_qr_scan", "ios": "https://dc.lft.to/lastmile_qr_scan"}, "fusion_lon": 0.0}, {"lat": 38.91953216666667, "is_disabled": 0, "type": "electric_scooter", "lon": -77.0249425, "bike_id": "d2c4d669939265519181a6ef7fff8f98", "fusion_lat": 0.0, "name": "d2c4d669939265519181a6ef7fff8f98", "is_reserved": 0, "rental_uris": {"android": "https://dc.lft.to/lastmile_qr_scan", "ios": "https://dc.lft.to/lastmile_qr_scan"}, "fusion_lon": 0.0}, {"lat": 38.9136245, "is_disabled": 0, "type": "electric_scooter", "lon": -77.06917166666666, "bike_id": "49201d4c702a9c0adf8ac5d776e8b673", "fusion_lat": 0.0, "name": "49201d4c702a9c0adf8ac5d776e8b673", "is_reserved": 0, "rental_uris": {"android": "https://dc.lft.to/lastmile_qr_scan", "ios": "https://dc.lft.to/lastmile_qr_scan"}, "fusion_lon": 0.0}, {"lat": 38.866514, "is_disabled": 0, "type": "electric_scooter", "lon": -76.98888016666666, "bike_id": "8c041213058c4d60fa9cbe4d2c8aeff1", "fusion_lat": 0.0, "name": "8c041213058c4d60fa9cbe4d2c8aeff1", "is_reserved": 0, "rental_uris": {"android": "https://dc.lft.to/lastmile_qr_scan", "ios": "https://dc.lft.to/lastmile_qr_scan"}, "fusion_lon": 0.0}, {"lat": 38.90534533333334, "is_disabled": 0, "type": "electric_scooter", "lon": -77.03866733333334, "bike_id": "c606172ae52f72a1a2097cc68ac0d639", "fusion_lat": 0.0, "name": "c606172ae52f72a1a2097cc68ac0d639", "is_reserved": 0, "rental_uris": {"android": "https://dc.lft.to/lastmile_qr_scan", "ios": "https://dc.lft.to/lastmile_qr_scan"}, "fusion_lon": 0.0}, {"lat": 38.9231605, "is_disabled": 0, "type": "electric_scooter", "lon": -77.03959016666667, "bike_id": "8baf7ec027940314b680fa6ece759da4", "fusion_lat": 0.0, "name": "8baf7ec027940314b680fa6ece759da4", "is_reserved": 0, "rental_uris": {"android": "https://dc.lft.to/lastmile_qr_scan", "ios": "https://dc.lft.to/lastmile_qr_scan"}, "fusion_lon": 0.0}, {"lat": 38.8691795, "is_disabled": 0, "type": "electric_scooter", "lon": -76.9829665, "bike_id": "7424b383019a4c6e3ac6ac9db9af26e2", "fusion_lat": 0.0, "name": "7424b383019a4c6e3ac6ac9db9af26e2", "is_reserved": 0, "rental_uris": {"android": "https://dc.lft.to/lastmile_qr_scan", "ios": "https://dc.lft.to/lastmile_qr_scan"}, "fusion_lon": 0.0}, {"lat": 38.92070533333333, "is_disabled": 0, "type": "electric_scooter", "lon": -77.04379733333333, "bike_id": "cd9f5e0cde7ec4b855d0987a3dfb407b", "fusion_lat": 0.0, "name": "cd9f5e0cde7ec4b855d0987a3dfb407b", "is_reserved": 0, "rental_uris": {"android": "https://dc.lft.to/lastmile_qr_scan", "ios": "https://dc.lft.to/lastmile_qr_scan"}, "fusion_lon": 0.0}, {"lat": 38.91449766666667, "is_disabled": 0, "type": "electric_scooter", "lon": -77.03211133333333, "bike_id": "f6f6b5e7360fd8450ceca22cf2f51871", "fusion_lat": 0.0, "name": "f6f6b5e7360fd8450ceca22cf2f51871", "is_reserved": 0, "rental_uris": {"android": "https://dc.lft.to/lastmile_qr_scan", "ios": "https://dc.lft.to/lastmile_qr_scan"}, "fusion_lon": 0.0}, {"lat": 38.907264833333336, "is_disabled": 0, "type": "electric_scooter", "lon": -77.04167916666667, "bike_id": "ff96ad95411ff68ea6a8a0f17a3cd900", "fusion_lat": 0.0, "name": "ff96ad95411ff68ea6a8a0f17a3cd900", "is_reserved": 0, "rental_uris": {"android": "https://dc.lft.to/lastmile_qr_scan", "ios": "https://dc.lft.to/lastmile_qr_scan"}, "fusion_lon": 0.0}, {"lat": 38.986586, "is_disabled": 0, "type": "electric_bike", "lon": -77.05634516666667, "bike_id": "319627924a8a45731197464a3ca68ab1", "fusion_lat": 0.0, "name": "319627924a8a45731197464a3ca68ab1", "is_reserved": 0, "rental_uris": {"android": "https://dc.lft.to/lastmile_qr_scan", "ios": "https://dc.lft.to/lastmile_qr_scan"}, "fusion_lon": 0.0}, {"lat": 38.903016, "is_disabled": 0, "type": "electric_scooter", "lon": -77.00047783333333, "bike_id": "c0ea347fc86b663e4d29b517d04ca0f6", "fusion_lat": 0.0, "name": "c0ea347fc86b663e4d29b517d04ca0f6", "is_reserved": 0, "rental_uris": {"android": "https://dc.lft.to/lastmile_qr_scan", "ios": "https://dc.lft.to/lastmile_qr_scan"}, "fusion_lon": 0.0}, {"lat": 38.913704, "is_disabled": 0, "type": "electric_scooter", "lon": -77.03444383333333, "bike_id": "8917aba9df3eb99c22150a284119277e", "fusion_lat": 0.0, "name": "8917aba9df3eb99c22150a284119277e", "is_reserved": 0, "rental_uris": {"android": "https://dc.lft.to/lastmile_qr_scan", "ios": "https://dc.lft.to/lastmile_qr_scan"}, "fusion_lon": 0.0}, {"lat": 38.844233833333334, "is_disabled": 0, "type": "electric_scooter", "lon": -76.99778766666667, "bike_id": "645d8e42a0dcd20da638d5c6891089e2", "fusion_lat": 0.0, "name": "645d8e42a0dcd20da638d5c6891089e2", "is_reserved": 0, "rental_uris": {"android": "https://dc.lft.to/lastmile_qr_scan", "ios": "https://dc.lft.to/lastmile_qr_scan"}, "fusion_lon": 0.0}, {"lat": 38.914949166666666, "is_disabled": 0, "type": "electric_scooter", "lon": -77.01221583333333, "bike_id": "3d503b9ceb2f21a880a6953eb6eac5ee", "fusion_lat": 0.0, "name": "3d503b9ceb2f21a880a6953eb6eac5ee", "is_reserved": 0, "rental_uris": {"android": "https://dc.lft.to/lastmile_qr_scan", "ios": "https://dc.lft.to/lastmile_qr_scan"}, "fusion_lon": 0.0}, {"lat": 38.906807666666666, "is_disabled": 0, "type": "electric_scooter", "lon": -77.062698, "bike_id": "3c70984cc1e08576b66c4d7595369c19", "fusion_lat": 0.0, "name": "3c70984cc1e08576b66c4d7595369c19", "is_reserved": 0, "rental_uris": {"android": "https://dc.lft.to/lastmile_qr_scan", "ios": "https://dc.lft.to/lastmile_qr_scan"}, "fusion_lon": 0.0}, {"lat": 38.90597183333333, "is_disabled": 0, "type": "electric_scooter", "lon": -77.06271933333333, "bike_id": "a7a6434955f4563aa2a35f0ded772aba", "fusion_lat": 0.0, "name": "a7a6434955f4563aa2a35f0ded772aba", "is_reserved": 0, "rental_uris": {"android": "https://dc.lft.to/lastmile_qr_scan", "ios": "https://dc.lft.to/lastmile_qr_scan"}, "fusion_lon": 0.0}, {"lat": 38.9319715, "is_disabled": 0, "type": "electric_scooter", "lon": -77.02352683333334, "bike_id": "87eed97f8f37c6f93c4a08ad12b01a12", "fusion_lat": 0.0, "name": "87eed97f8f37c6f93c4a08ad12b01a12", "is_reserved": 0, "rental_uris": {"android": "https://dc.lft.to/lastmile_qr_scan", "ios": "https://dc.lft.to/lastmile_qr_scan"}, "fusion_lon": 0.0}, {"lat": 38.95405983333333, "is_disabled": 0, "type": "electric_scooter", "lon": -77.02749283333333, "bike_id": "97d9584ee936cb47472dda441fe98401", "fusion_lat": 0.0, "name": "97d9584ee936cb47472dda441fe98401", "is_reserved": 0, "rental_uris": {"android": "https://dc.lft.to/lastmile_qr_scan", "ios": "https://dc.lft.to/lastmile_qr_scan"}, "fusion_lon": 0.0}, {"lat": 38.91707666666667, "is_disabled": 0, "type": "electric_scooter", "lon": -77.0350235, "bike_id": "e3d81bb0d9040acc12cc5eb40dd53c72", "fusion_lat": 0.0, "name": "e3d81bb0d9040acc12cc5eb40dd53c72", "is_reserved": 0, "rental_uris": {"android": "https://dc.lft.to/lastmile_qr_scan", "ios": "https://dc.lft.to/lastmile_qr_scan"}, "fusion_lon": 0.0}, {"lat": 38.92870216666667, "is_disabled": 0, "type": "electric_scooter", "lon": -77.03220316666666, "bike_id": "4d82cf3c89d30df52ad971a034e76310", "fusion_lat": 0.0, "name": "4d82cf3c89d30df52ad971a034e76310", "is_reserved": 0, "rental_uris": {"android": "https://dc.lft.to/lastmile_qr_scan", "ios": "https://dc.lft.to/lastmile_qr_scan"}, "fusion_lon": 0.0}, {"lat": 38.93038166666667, "is_disabled": 0, "type": "electric_scooter", "lon": -77.02639966666666, "bike_id": "a48abc31e30615a9c9da781fd28f1c30", "fusion_lat": 0.0, "name": "a48abc31e30615a9c9da781fd28f1c30", "is_reserved": 0, "rental_uris": {"android": "https://dc.lft.to/lastmile_qr_scan", "ios": "https://dc.lft.to/lastmile_qr_scan"}, "fusion_lon": 0.0}, {"lat": 38.909504, "is_disabled": 0, "type": "electric_scooter", "lon": -77.0405755, "bike_id": "c565d6f4ebfd4e1ae43f5c3757d8bc8c", "fusion_lat": 0.0, "name": "c565d6f4ebfd4e1ae43f5c3757d8bc8c", "is_reserved": 0, "rental_uris": {"android": "https://dc.lft.to/lastmile_qr_scan", "ios": "https://dc.lft.to/lastmile_qr_scan"}, "fusion_lon": 0.0}, {"lat": 38.90955, "is_disabled": 0, "type": "electric_scooter", "lon": -77.03171283333333, "bike_id": "181a95094850461dfa027c9c12caf00c", "fusion_lat": 0.0, "name": "181a95094850461dfa027c9c12caf00c", "is_reserved": 0, "rental_uris": {"android": "https://dc.lft.to/lastmile_qr_scan", "ios": "https://dc.lft.to/lastmile_qr_scan"}, "fusion_lon": 0.0}, {"lat": 38.90785266666666, "is_disabled": 0, "type": "electric_scooter", "lon": -77.06402633333333, "bike_id": "97f38e58f942a580503fc1c2e74dd6b9", "fusion_lat": 0.0, "name": "97f38e58f942a580503fc1c2e74dd6b9", "is_reserved": 0, "rental_uris": {"android": "https://dc.lft.to/lastmile_qr_scan", "ios": "https://dc.lft.to/lastmile_qr_scan"}, "fusion_lon": 0.0}, {"lat": 38.80267633333333, "is_disabled": 0, "type": "electric_bike", "lon": -77.08111533333333, "bike_id": "f6a4e176dfa1bf4b6262b774a024b85d", "fusion_lat": 0.0, "name": "f6a4e176dfa1bf4b6262b774a024b85d", "is_reserved": 0, "rental_uris": {"android": "https://dc.lft.to/lastmile_qr_scan", "ios": "https://dc.lft.to/lastmile_qr_scan"}, "fusion_lon": 0.0}, {"lat": 38.899001166666665, "is_disabled": 0, "type": "electric_scooter", "lon": -76.98423316666667, "bike_id": "1a5098514e602e3c4838edac38783ec4", "fusion_lat": 0.0, "name": "1a5098514e602e3c4838edac38783ec4", "is_reserved": 0, "rental_uris": {"android": "https://dc.lft.to/lastmile_qr_scan", "ios": "https://dc.lft.to/lastmile_qr_scan"}, "fusion_lon": 0.0}, {"lat": 38.90740616666667, "is_disabled": 0, "type": "electric_scooter", "lon": -77.00005166666666, "bike_id": "ba718e9ac746c4b4ea61511c7b1cd5e2", "fusion_lat": 0.0, "name": "ba718e9ac746c4b4ea61511c7b1cd5e2", "is_reserved": 0, "rental_uris": {"android": "https://dc.lft.to/lastmile_qr_scan", "ios": "https://dc.lft.to/lastmile_qr_scan"}, "fusion_lon": 0.0}, {"lat": 38.89739333333333, "is_disabled": 0, "type": "electric_scooter", "lon": -76.94725383333333, "bike_id": "0b14e6e0fbf3c7dcae80e435a8b1e555", "fusion_lat": 0.0, "name": "0b14e6e0fbf3c7dcae80e435a8b1e555", "is_reserved": 0, "rental_uris": {"android": "https://dc.lft.to/lastmile_qr_scan", "ios": "https://dc.lft.to/lastmile_qr_scan"}, "fusion_lon": 0.0}, {"lat": 38.90869283333333, "is_disabled": 0, "type": "electric_scooter", "lon": -77.04407383333333, "bike_id": "62f3ff884319c42959bfe0142a1a6fb1", "fusion_lat": 0.0, "name": "62f3ff884319c42959bfe0142a1a6fb1", "is_reserved": 0, "rental_uris": {"android": "https://dc.lft.to/lastmile_qr_scan", "ios": "https://dc.lft.to/lastmile_qr_scan"}, "fusion_lon": 0.0}, {"lat": 38.919675166666664, "is_disabled": 0, "type": "electric_scooter", "lon": -77.02494983333334, "bike_id": "2d6d10f229e47909616efd0b104a1348", "fusion_lat": 0.0, "name": "2d6d10f229e47909616efd0b104a1348", "is_reserved": 0, "rental_uris": {"android": "https://dc.lft.to/lastmile_qr_scan", "ios": "https://dc.lft.to/lastmile_qr_scan"}, "fusion_lon": 0.0}, {"lat": 38.88213066666667, "is_disabled": 0, "type": "electric_scooter", "lon": -76.99038366666667, "bike_id": "68e6572fbebb5455c8f6cb591a14e548", "fusion_lat": 0.0, "name": "68e6572fbebb5455c8f6cb591a14e548", "is_reserved": 0, "rental_uris": {"android": "https://dc.lft.to/lastmile_qr_scan", "ios": "https://dc.lft.to/lastmile_qr_scan"}, "fusion_lon": 0.0}, {"lat": 38.907387666666665, "is_disabled": 0, "type": "electric_scooter", "lon": -77.03452066666667, "bike_id": "16491b19bb08513461bd44dff62b2dc6", "fusion_lat": 0.0, "name": "16491b19bb08513461bd44dff62b2dc6", "is_reserved": 0, "rental_uris": {"android": "https://dc.lft.to/lastmile_qr_scan", "ios": "https://dc.lft.to/lastmile_qr_scan"}, "fusion_lon": 0.0}, {"lat": 38.91408216666667, "is_disabled": 0, "type": "electric_scooter", "lon": -77.03556583333334, "bike_id": "add63464ad7790b337acd11fc1401a3d", "fusion_lat": 0.0, "name": "add63464ad7790b337acd11fc1401a3d", "is_reserved": 0, "rental_uris": {"android": "https://dc.lft.to/lastmile_qr_scan", "ios": "https://dc.lft.to/lastmile_qr_scan"}, "fusion_lon": 0.0}, {"lat": 38.90122616666667, "is_disabled": 0, "type": "electric_scooter", "lon": -77.01809933333334, "bike_id": "fe5e44886164a7c9436c8957f145db60", "fusion_lat": 0.0, "name": "fe5e44886164a7c9436c8957f145db60", "is_reserved": 0, "rental_uris": {"android": "https://dc.lft.to/lastmile_qr_scan", "ios": "https://dc.lft.to/lastmile_qr_scan"}, "fusion_lon": 0.0}, {"lat": 38.89674733333333, "is_disabled": 0, "type": "electric_scooter", "lon": -77.00515616666667, "bike_id": "3575cbe9ef138d3401d6926216ede837", "fusion_lat": 0.0, "name": "3575cbe9ef138d3401d6926216ede837", "is_reserved": 0, "rental_uris": {"android": "https://dc.lft.to/lastmile_qr_scan", "ios": "https://dc.lft.to/lastmile_qr_scan"}, "fusion_lon": 0.0}, {"lat": 38.904105, "is_disabled": 0, "type": "electric_scooter", "lon": -76.9929705, "bike_id": "4a1ab66cfae92732dbe55d78b351204c", "fusion_lat": 0.0, "name": "4a1ab66cfae92732dbe55d78b351204c", "is_reserved": 0, "rental_uris": {"android": "https://dc.lft.to/lastmile_qr_scan", "ios": "https://dc.lft.to/lastmile_qr_scan"}, "fusion_lon": 0.0}, {"lat": 38.919227, "is_disabled": 0, "type": "electric_scooter", "lon": -77.03130816666666, "bike_id": "64078692a5eab2644b80f1c81799bd23", "fusion_lat": 0.0, "name": "64078692a5eab2644b80f1c81799bd23", "is_reserved": 0, "rental_uris": {"android": "https://dc.lft.to/lastmile_qr_scan", "ios": "https://dc.lft.to/lastmile_qr_scan"}, "fusion_lon": 0.0}, {"lat": 38.822494166666665, "is_disabled": 0, "type": "electric_scooter", "lon": -76.99987533333334, "bike_id": "329a75a7279ce05ec2a391e273f906c2", "fusion_lat": 0.0, "name": "329a75a7279ce05ec2a391e273f906c2", "is_reserved": 0, "rental_uris": {"android": "https://dc.lft.to/lastmile_qr_scan", "ios": "https://dc.lft.to/lastmile_qr_scan"}, "fusion_lon": 0.0}, {"lat": 38.895842, "is_disabled": 0, "type": "electric_bike", "lon": -77.1268685, "bike_id": "36c49b67b64d09dc3fe4ac5135b3c683", "fusion_lat": 0.0, "name": "36c49b67b64d09dc3fe4ac5135b3c683", "is_reserved": 0, "rental_uris": {"android": "https://dc.lft.to/lastmile_qr_scan", "ios": "https://dc.lft.to/lastmile_qr_scan"}, "fusion_lon": 0.0}, {"lat": 38.919105, "is_disabled": 0, "type": "electric_scooter", "lon": -77.0462995, "bike_id": "ccb0dee3101fe63fc0dc46c9b7e8f15a", "fusion_lat": 0.0, "name": "ccb0dee3101fe63fc0dc46c9b7e8f15a", "is_reserved": 0, "rental_uris": {"android": "https://dc.lft.to/lastmile_qr_scan", "ios": "https://dc.lft.to/lastmile_qr_scan"}, "fusion_lon": 0.0}, {"lat": 38.86519716666667, "is_disabled": 0, "type": "electric_scooter", "lon": -76.99026383333333, "bike_id": "e96fce42e700239eb3ae22848dd5eb18", "fusion_lat": 0.0, "name": "e96fce42e700239eb3ae22848dd5eb18", "is_reserved": 0, "rental_uris": {"android": "https://dc.lft.to/lastmile_qr_scan", "ios": "https://dc.lft.to/lastmile_qr_scan"}, "fusion_lon": 0.0}, {"lat": 38.90088683333333, "is_disabled": 0, "type": "electric_scooter", "lon": -77.02037916666667, "bike_id": "2499ebb27b925d395071734d994434e2", "fusion_lat": 0.0, "name": "2499ebb27b925d395071734d994434e2", "is_reserved": 0, "rental_uris": {"android": "https://dc.lft.to/lastmile_qr_scan", "ios": "https://dc.lft.to/lastmile_qr_scan"}, "fusion_lon": 0.0}, {"lat": 38.933598333333336, "is_disabled": 0, "type": "electric_bike", "lon": -77.099578, "bike_id": "6f78d04155ab22e4b258f6bf3bbf04e6", "fusion_lat": 0.0, "name": "6f78d04155ab22e4b258f6bf3bbf04e6", "is_reserved": 0, "rental_uris": {"android": "https://dc.lft.to/lastmile_qr_scan", "ios": "https://dc.lft.to/lastmile_qr_scan"}, "fusion_lon": 0.0}, {"lat": 38.909595, "is_disabled": 0, "type": "electric_scooter", "lon": -77.047589, "bike_id": "9aa689dfa170490198355a45fb692fd1", "fusion_lat": 0.0, "name": "9aa689dfa170490198355a45fb692fd1", "is_reserved": 0, "rental_uris": {"android": "https://dc.lft.to/lastmile_qr_scan", "ios": "https://dc.lft.to/lastmile_qr_scan"}, "fusion_lon": 0.0}, {"lat": 38.90761833333333, "is_disabled": 0, "type": "electric_scooter", "lon": -77.06071433333334, "bike_id": "00bd54fc0f4b36c09ef59d8ed218f4e6", "fusion_lat": 0.0, "name": "00bd54fc0f4b36c09ef59d8ed218f4e6", "is_reserved": 0, "rental_uris": {"android": "https://dc.lft.to/lastmile_qr_scan", "ios": "https://dc.lft.to/lastmile_qr_scan"}, "fusion_lon": 0.0}, {"lat": 38.94245083333333, "is_disabled": 0, "type": "electric_scooter", "lon": -77.03582283333333, "bike_id": "ae77d5eca46ee7df8df880bfa7d1541e", "fusion_lat": 0.0, "name": "ae77d5eca46ee7df8df880bfa7d1541e", "is_reserved": 0, "rental_uris": {"android": "https://dc.lft.to/lastmile_qr_scan", "ios": "https://dc.lft.to/lastmile_qr_scan"}, "fusion_lon": 0.0}, {"lat": 38.929827, "is_disabled": 0, "type": "electric_scooter", "lon": -77.03832266666667, "bike_id": "afec94ff38b7e91c72b65722701643b2", "fusion_lat": 0.0, "name": "afec94ff38b7e91c72b65722701643b2", "is_reserved": 0, "rental_uris": {"android": "https://dc.lft.to/lastmile_qr_scan", "ios": "https://dc.lft.to/lastmile_qr_scan"}, "fusion_lon": 0.0}, {"lat": 38.917083833333336, "is_disabled": 0, "type": "electric_scooter", "lon": -77.04025816666666, "bike_id": "b328a2cd9d3ead13e8da64786a6ebf55", "fusion_lat": 0.0, "name": "b328a2cd9d3ead13e8da64786a6ebf55", "is_reserved": 0, "rental_uris": {"android": "https://dc.lft.to/lastmile_qr_scan", "ios": "https://dc.lft.to/lastmile_qr_scan"}, "fusion_lon": 0.0}, {"lat": 38.8955715, "is_disabled": 0, "type": "electric_scooter", "lon": -77.00366266666667, "bike_id": "d92798fd38678317948963191be256b2", "fusion_lat": 0.0, "name": "d92798fd38678317948963191be256b2", "is_reserved": 0, "rental_uris": {"android": "https://dc.lft.to/lastmile_qr_scan", "ios": "https://dc.lft.to/lastmile_qr_scan"}, "fusion_lon": 0.0}, {"lat": 38.89496916666667, "is_disabled": 0, "type": "electric_scooter", "lon": -77.0021595, "bike_id": "6dd4a3328e59fd3d1e61d20d88ba5d4f", "fusion_lat": 0.0, "name": "6dd4a3328e59fd3d1e61d20d88ba5d4f", "is_reserved": 0, "rental_uris": {"android": "https://dc.lft.to/lastmile_qr_scan", "ios": "https://dc.lft.to/lastmile_qr_scan"}, "fusion_lon": 0.0}, {"lat": 38.90501916666667, "is_disabled": 0, "type": "electric_scooter", "lon": -77.044847, "bike_id": "efd76e23f5c95f9c93fd3c3dddaaac7c", "fusion_lat": 0.0, "name": "efd76e23f5c95f9c93fd3c3dddaaac7c", "is_reserved": 0, "rental_uris": {"android": "https://dc.lft.to/lastmile_qr_scan", "ios": "https://dc.lft.to/lastmile_qr_scan"}, "fusion_lon": 0.0}, {"lat": 38.94228366666667, "is_disabled": 0, "type": "electric_scooter", "lon": -77.0251675, "bike_id": "b2c9e4102a482f3dfe4f55b9cef2b834", "fusion_lat": 0.0, "name": "b2c9e4102a482f3dfe4f55b9cef2b834", "is_reserved": 0, "rental_uris": {"android": "https://dc.lft.to/lastmile_qr_scan", "ios": "https://dc.lft.to/lastmile_qr_scan"}, "fusion_lon": 0.0}, {"lat": 38.89242483333334, "is_disabled": 0, "type": "electric_scooter", "lon": -77.0395775, "bike_id": "e37a02d09245571bc170cc6519bff678", "fusion_lat": 0.0, "name": "e37a02d09245571bc170cc6519bff678", "is_reserved": 0, "rental_uris": {"android": "https://dc.lft.to/lastmile_qr_scan", "ios": "https://dc.lft.to/lastmile_qr_scan"}, "fusion_lon": 0.0}, {"lat": 38.91404166666667, "is_disabled": 0, "type": "electric_scooter", "lon": -77.03185983333333, "bike_id": "88fcbdf7f94fc70b85092763a789378c", "fusion_lat": 0.0, "name": "88fcbdf7f94fc70b85092763a789378c", "is_reserved": 0, "rental_uris": {"android": "https://dc.lft.to/lastmile_qr_scan", "ios": "https://dc.lft.to/lastmile_qr_scan"}, "fusion_lon": 0.0}, {"lat": 38.915466, "is_disabled": 0, "type": "electric_scooter", "lon": -77.029522, "bike_id": "353d39cc0368c4653f45ffb318baf970", "fusion_lat": 0.0, "name": "353d39cc0368c4653f45ffb318baf970", "is_reserved": 0, "rental_uris": {"android": "https://dc.lft.to/lastmile_qr_scan", "ios": "https://dc.lft.to/lastmile_qr_scan"}, "fusion_lon": 0.0}, {"lat": 38.904122, "is_disabled": 0, "type": "electric_scooter", "lon": -77.02396716666667, "bike_id": "7d81f41822c1e880e7ed9f3005200a31", "fusion_lat": 0.0, "name": "7d81f41822c1e880e7ed9f3005200a31", "is_reserved": 0, "rental_uris": {"android": "https://dc.lft.to/lastmile_qr_scan", "ios": "https://dc.lft.to/lastmile_qr_scan"}, "fusion_lon": 0.0}, {"lat": 38.919825833333334, "is_disabled": 0, "type": "electric_scooter", "lon": -77.025065, "bike_id": "2a512e3800e16c0437d50fc6024ca75b", "fusion_lat": 0.0, "name": "2a512e3800e16c0437d50fc6024ca75b", "is_reserved": 0, "rental_uris": {"android": "https://dc.lft.to/lastmile_qr_scan", "ios": "https://dc.lft.to/lastmile_qr_scan"}, "fusion_lon": 0.0}, {"lat": 38.88261716666667, "is_disabled": 0, "type": "electric_scooter", "lon": -76.98818166666666, "bike_id": "04fb74f226cab7e0c79845f52721a8b8", "fusion_lat": 0.0, "name": "04fb74f226cab7e0c79845f52721a8b8", "is_reserved": 0, "rental_uris": {"android": "https://dc.lft.to/lastmile_qr_scan", "ios": "https://dc.lft.to/lastmile_qr_scan"}, "fusion_lon": 0.0}, {"lat": 38.92364, "is_disabled": 0, "type": "electric_scooter", "lon": -77.040332, "bike_id": "79c0c3422a2b7e4ea4485b2dd3e04151", "fusion_lat": 0.0, "name": "79c0c3422a2b7e4ea4485b2dd3e04151", "is_reserved": 0, "rental_uris": {"android": "https://dc.lft.to/lastmile_qr_scan", "ios": "https://dc.lft.to/lastmile_qr_scan"}, "fusion_lon": 0.0}, {"lat": 38.884914333333334, "is_disabled": 0, "type": "electric_scooter", "lon": -77.00708083333333, "bike_id": "bff555cb9f7bebb974e6c6f49358f559", "fusion_lat": 0.0, "name": "bff555cb9f7bebb974e6c6f49358f559", "is_reserved": 0, "rental_uris": {"android": "https://dc.lft.to/lastmile_qr_scan", "ios": "https://dc.lft.to/lastmile_qr_scan"}, "fusion_lon": 0.0}, {"lat": 38.84935566666667, "is_disabled": 0, "type": "electric_bike", "lon": -77.10015066666666, "bike_id": "4578d26abfc4350c9135a346c653b469", "fusion_lat": 0.0, "name": "4578d26abfc4350c9135a346c653b469", "is_reserved": 0, "rental_uris": {"android": "https://dc.lft.to/lastmile_qr_scan", "ios": "https://dc.lft.to/lastmile_qr_scan"}, "fusion_lon": 0.0}, {"lat": 38.91186366666667, "is_disabled": 0, "type": "electric_scooter", "lon": -77.00211083333333, "bike_id": "5c7224ec95cd713aeb511c00187333f0", "fusion_lat": 0.0, "name": "5c7224ec95cd713aeb511c00187333f0", "is_reserved": 0, "rental_uris": {"android": "https://dc.lft.to/lastmile_qr_scan", "ios": "https://dc.lft.to/lastmile_qr_scan"}, "fusion_lon": 0.0}, {"lat": 38.92145216666667, "is_disabled": 0, "type": "electric_scooter", "lon": -77.01039383333334, "bike_id": "58cc199b898a6d8c4d553f7a1b334dff", "fusion_lat": 0.0, "name": "58cc199b898a6d8c4d553f7a1b334dff", "is_reserved": 0, "rental_uris": {"android": "https://dc.lft.to/lastmile_qr_scan", "ios": "https://dc.lft.to/lastmile_qr_scan"}, "fusion_lon": 0.0}, {"lat": 38.866321, "is_disabled": 0, "type": "electric_scooter", "lon": -76.98695516666666, "bike_id": "19095655c91b94785716e84b9b1b4793", "fusion_lat": 0.0, "name": "19095655c91b94785716e84b9b1b4793", "is_reserved": 0, "rental_uris": {"android": "https://dc.lft.to/lastmile_qr_scan", "ios": "https://dc.lft.to/lastmile_qr_scan"}, "fusion_lon": 0.0}, {"lat": 38.88766283333333, "is_disabled": 0, "type": "electric_scooter", "lon": -76.9559875, "bike_id": "885415548bff0f8ebffd7bade5f64b0a", "fusion_lat": 0.0, "name": "885415548bff0f8ebffd7bade5f64b0a", "is_reserved": 0, "rental_uris": {"android": "https://dc.lft.to/lastmile_qr_scan", "ios": "https://dc.lft.to/lastmile_qr_scan"}, "fusion_lon": 0.0}, {"lat": 38.842827666666665, "is_disabled": 0, "type": "electric_bike", "lon": -76.9883855, "bike_id": "140b35430277bec33e4e860b3f6bad45", "fusion_lat": 0.0, "name": "140b35430277bec33e4e860b3f6bad45", "is_reserved": 0, "rental_uris": {"android": "https://dc.lft.to/lastmile_qr_scan", "ios": "https://dc.lft.to/lastmile_qr_scan"}, "fusion_lon": 0.0}, {"lat": 38.84299266666667, "is_disabled": 0, "type": "electric_scooter", "lon": -76.999466, "bike_id": "2a52d8b0fe5414d60505885d3f94f3b4", "fusion_lat": 0.0, "name": "2a52d8b0fe5414d60505885d3f94f3b4", "is_reserved": 0, "rental_uris": {"android": "https://dc.lft.to/lastmile_qr_scan", "ios": "https://dc.lft.to/lastmile_qr_scan"}, "fusion_lon": 0.0}, {"lat": 38.9024045, "is_disabled": 0, "type": "electric_scooter", "lon": -77.00197633333333, "bike_id": "a0bfe0f57225aa3f788b88e849faa2cb", "fusion_lat": 0.0, "name": "a0bfe0f57225aa3f788b88e849faa2cb", "is_reserved": 0, "rental_uris": {"android": "https://dc.lft.to/lastmile_qr_scan", "ios": "https://dc.lft.to/lastmile_qr_scan"}, "fusion_lon": 0.0}, {"lat": 38.91766116666667, "is_disabled": 0, "type": "electric_scooter", "lon": -77.03991033333334, "bike_id": "5017f7a62ce7a2ed7ab89ddca12bfd46", "fusion_lat": 0.0, "name": "5017f7a62ce7a2ed7ab89ddca12bfd46", "is_reserved": 0, "rental_uris": {"android": "https://dc.lft.to/lastmile_qr_scan", "ios": "https://dc.lft.to/lastmile_qr_scan"}, "fusion_lon": 0.0}, {"lat": 38.93322666666667, "is_disabled": 0, "type": "electric_scooter", "lon": -77.04401883333334, "bike_id": "9838320865aa3b420e95f661947eaaab", "fusion_lat": 0.0, "name": "9838320865aa3b420e95f661947eaaab", "is_reserved": 0, "rental_uris": {"android": "https://dc.lft.to/lastmile_qr_scan", "ios": "https://dc.lft.to/lastmile_qr_scan"}, "fusion_lon": 0.0}, {"lat": 38.9187265, "is_disabled": 0, "type": "electric_scooter", "lon": -77.03579566666667, "bike_id": "fe7b50a6e6408337e5f03e89b2f13b6b", "fusion_lat": 0.0, "name": "fe7b50a6e6408337e5f03e89b2f13b6b", "is_reserved": 0, "rental_uris": {"android": "https://dc.lft.to/lastmile_qr_scan", "ios": "https://dc.lft.to/lastmile_qr_scan"}, "fusion_lon": 0.0}, {"lat": 38.80228733333333, "is_disabled": 0, "type": "electric_bike", "lon": -77.079167, "bike_id": "79f5d5535d8e0504cfd6e1e71c83dcd4", "fusion_lat": 0.0, "name": "79f5d5535d8e0504cfd6e1e71c83dcd4", "is_reserved": 0, "rental_uris": {"android": "https://dc.lft.to/lastmile_qr_scan", "ios": "https://dc.lft.to/lastmile_qr_scan"}, "fusion_lon": 0.0}, {"lat": 38.90015983333333, "is_disabled": 0, "type": "electric_scooter", "lon": -77.02173166666667, "bike_id": "03f5471b213c5afd403d40f912f2184a", "fusion_lat": 0.0, "name": "03f5471b213c5afd403d40f912f2184a", "is_reserved": 0, "rental_uris": {"android": "https://dc.lft.to/lastmile_qr_scan", "ios": "https://dc.lft.to/lastmile_qr_scan"}, "fusion_lon": 0.0}, {"lat": 38.9211495, "is_disabled": 0, "type": "electric_scooter", "lon": -77.04676583333334, "bike_id": "609dd98bf2b60cd199ff8419ba2eb484", "fusion_lat": 0.0, "name": "609dd98bf2b60cd199ff8419ba2eb484", "is_reserved": 0, "rental_uris": {"android": "https://dc.lft.to/lastmile_qr_scan", "ios": "https://dc.lft.to/lastmile_qr_scan"}, "fusion_lon": 0.0}, {"lat": 38.899611166666666, "is_disabled": 0, "type": "electric_scooter", "lon": -77.05200933333333, "bike_id": "c2253cb5b4cce0ba91b4d314aed5a385", "fusion_lat": 0.0, "name": "c2253cb5b4cce0ba91b4d314aed5a385", "is_reserved": 0, "rental_uris": {"android": "https://dc.lft.to/lastmile_qr_scan", "ios": "https://dc.lft.to/lastmile_qr_scan"}, "fusion_lon": 0.0}, {"lat": 38.87690033333333, "is_disabled": 0, "type": "electric_scooter", "lon": -77.017561, "bike_id": "99749f4d3d45403b563e863819b5887b", "fusion_lat": 0.0, "name": "99749f4d3d45403b563e863819b5887b", "is_reserved": 0, "rental_uris": {"android": "https://dc.lft.to/lastmile_qr_scan", "ios": "https://dc.lft.to/lastmile_qr_scan"}, "fusion_lon": 0.0}, {"lat": 38.92053683333334, "is_disabled": 0, "type": "electric_scooter", "lon": -77.03294366666667, "bike_id": "0a2117d3d092127cc568a64bb1f736fb", "fusion_lat": 0.0, "name": "0a2117d3d092127cc568a64bb1f736fb", "is_reserved": 0, "rental_uris": {"android": "https://dc.lft.to/lastmile_qr_scan", "ios": "https://dc.lft.to/lastmile_qr_scan"}, "fusion_lon": 0.0}, {"lat": 38.8892775, "is_disabled": 0, "type": "electric_scooter", "lon": -76.97372416666667, "bike_id": "3dfc44cfd8cfa48d049ed818f608f654", "fusion_lat": 0.0, "name": "3dfc44cfd8cfa48d049ed818f608f654", "is_reserved": 0, "rental_uris": {"android": "https://dc.lft.to/lastmile_qr_scan", "ios": "https://dc.lft.to/lastmile_qr_scan"}, "fusion_lon": 0.0}, {"lat": 38.91816216666667, "is_disabled": 0, "type": "electric_scooter", "lon": -77.036371, "bike_id": "f738ea67c28290cfa4ccaf85e9b9d55c", "fusion_lat": 0.0, "name": "f738ea67c28290cfa4ccaf85e9b9d55c", "is_reserved": 0, "rental_uris": {"android": "https://dc.lft.to/lastmile_qr_scan", "ios": "https://dc.lft.to/lastmile_qr_scan"}, "fusion_lon": 0.0}, {"lat": 38.906373, "is_disabled": 0, "type": "electric_scooter", "lon": -77.06288433333333, "bike_id": "53405f54fe90f7e2f00e6242749fa092", "fusion_lat": 0.0, "name": "53405f54fe90f7e2f00e6242749fa092", "is_reserved": 0, "rental_uris": {"android": "https://dc.lft.to/lastmile_qr_scan", "ios": "https://dc.lft.to/lastmile_qr_scan"}, "fusion_lon": 0.0}, {"lat": 38.861612666666666, "is_disabled": 0, "type": "electric_bike", "lon": -77.13093566666667, "bike_id": "0ff5a910c34247d50c0820906554d190", "fusion_lat": 0.0, "name": "0ff5a910c34247d50c0820906554d190", "is_reserved": 0, "rental_uris": {"android": "https://dc.lft.to/lastmile_qr_scan", "ios": "https://dc.lft.to/lastmile_qr_scan"}, "fusion_lon": 0.0}, {"lat": 38.895543333333336, "is_disabled": 0, "type": "electric_scooter", "lon": -77.00367233333333, "bike_id": "bd173e159cd51d8fcfbf60f37748615b", "fusion_lat": 0.0, "name": "bd173e159cd51d8fcfbf60f37748615b", "is_reserved": 0, "rental_uris": {"android": "https://dc.lft.to/lastmile_qr_scan", "ios": "https://dc.lft.to/lastmile_qr_scan"}, "fusion_lon": 0.0}, {"lat": 38.9162435, "is_disabled": 0, "type": "electric_scooter", "lon": -77.01438183333333, "bike_id": "b570f32ab919d772e1cd635934a840b2", "fusion_lat": 0.0, "name": "b570f32ab919d772e1cd635934a840b2", "is_reserved": 0, "rental_uris": {"android": "https://dc.lft.to/lastmile_qr_scan", "ios": "https://dc.lft.to/lastmile_qr_scan"}, "fusion_lon": 0.0}, {"lat": 38.935052666666664, "is_disabled": 0, "type": "electric_scooter", "lon": -77.03674083333334, "bike_id": "4f58214472d888dcc5af7a803b6b541a", "fusion_lat": 0.0, "name": "4f58214472d888dcc5af7a803b6b541a", "is_reserved": 0, "rental_uris": {"android": "https://dc.lft.to/lastmile_qr_scan", "ios": "https://dc.lft.to/lastmile_qr_scan"}, "fusion_lon": 0.0}, {"lat": 38.9279295, "is_disabled": 0, "type": "electric_scooter", "lon": -77.053543, "bike_id": "ece0a6bea72f4feda21d390d749f876a", "fusion_lat": 0.0, "name": "ece0a6bea72f4feda21d390d749f876a", "is_reserved": 0, "rental_uris": {"android": "https://dc.lft.to/lastmile_qr_scan", "ios": "https://dc.lft.to/lastmile_qr_scan"}, "fusion_lon": 0.0}, {"lat": 38.917869833333334, "is_disabled": 0, "type": "electric_scooter", "lon": -77.02260066666666, "bike_id": "0319a5bc90de0c0d5066eafdb099c293", "fusion_lat": 0.0, "name": "0319a5bc90de0c0d5066eafdb099c293", "is_reserved": 0, "rental_uris": {"android": "https://dc.lft.to/lastmile_qr_scan", "ios": "https://dc.lft.to/lastmile_qr_scan"}, "fusion_lon": 0.0}, {"lat": 38.903998, "is_disabled": 0, "type": "electric_scooter", "lon": -77.0651305, "bike_id": "1b9eaa0127b199285148146e7d04cba0", "fusion_lat": 0.0, "name": "1b9eaa0127b199285148146e7d04cba0", "is_reserved": 0, "rental_uris": {"android": "https://dc.lft.to/lastmile_qr_scan", "ios": "https://dc.lft.to/lastmile_qr_scan"}, "fusion_lon": 0.0}, {"lat": 38.911133, "is_disabled": 0, "type": "electric_scooter", "lon": -77.0481775, "bike_id": "558b6dc6bb9cb0752df52b0d8afd47ea", "fusion_lat": 0.0, "name": "558b6dc6bb9cb0752df52b0d8afd47ea", "is_reserved": 0, "rental_uris": {"android": "https://dc.lft.to/lastmile_qr_scan", "ios": "https://dc.lft.to/lastmile_qr_scan"}, "fusion_lon": 0.0}, {"lat": 38.916605833333335, "is_disabled": 0, "type": "electric_scooter", "lon": -77.043907, "bike_id": "5debb49448adef90cbc3eade94d0030f", "fusion_lat": 0.0, "name": "5debb49448adef90cbc3eade94d0030f", "is_reserved": 0, "rental_uris": {"android": "https://dc.lft.to/lastmile_qr_scan", "ios": "https://dc.lft.to/lastmile_qr_scan"}, "fusion_lon": 0.0}, {"lat": 38.92537033333333, "is_disabled": 0, "type": "electric_scooter", "lon": -77.05242316666667, "bike_id": "2bab6d4205d4ba0502821f0cd9c242d5", "fusion_lat": 0.0, "name": "2bab6d4205d4ba0502821f0cd9c242d5", "is_reserved": 0, "rental_uris": {"android": "https://dc.lft.to/lastmile_qr_scan", "ios": "https://dc.lft.to/lastmile_qr_scan"}, "fusion_lon": 0.0}, {"lat": 38.929685, "is_disabled": 0, "type": "electric_scooter", "lon": -77.027879, "bike_id": "630ade4ef3bbb4ca29468cc129820f08", "fusion_lat": 0.0, "name": "630ade4ef3bbb4ca29468cc129820f08", "is_reserved": 0, "rental_uris": {"android": "https://dc.lft.to/lastmile_qr_scan", "ios": "https://dc.lft.to/lastmile_qr_scan"}, "fusion_lon": 0.0}, {"lat": 38.939618833333334, "is_disabled": 0, "type": "electric_scooter", "lon": -77.027502, "bike_id": "76f228f7f243c770a2d8bd1157e14a53", "fusion_lat": 0.0, "name": "76f228f7f243c770a2d8bd1157e14a53", "is_reserved": 0, "rental_uris": {"android": "https://dc.lft.to/lastmile_qr_scan", "ios": "https://dc.lft.to/lastmile_qr_scan"}, "fusion_lon": 0.0}, {"lat": 38.900752, "is_disabled": 0, "type": "electric_scooter", "lon": -77.02584316666666, "bike_id": "aef903275e23e1efe9ee3b6b48c80fc6", "fusion_lat": 0.0, "name": "aef903275e23e1efe9ee3b6b48c80fc6", "is_reserved": 0, "rental_uris": {"android": "https://dc.lft.to/lastmile_qr_scan", "ios": "https://dc.lft.to/lastmile_qr_scan"}, "fusion_lon": 0.0}, {"lat": 38.89832333333333, "is_disabled": 0, "type": "electric_scooter", "lon": -77.02914016666666, "bike_id": "72b49b28f81eb8ab31d29169c0279656", "fusion_lat": 0.0, "name": "72b49b28f81eb8ab31d29169c0279656", "is_reserved": 0, "rental_uris": {"android": "https://dc.lft.to/lastmile_qr_scan", "ios": "https://dc.lft.to/lastmile_qr_scan"}, "fusion_lon": 0.0}, {"lat": 38.92755733333333, "is_disabled": 0, "type": "electric_scooter", "lon": -77.00594083333333, "bike_id": "1f93ec737dd87729de14b8eda24ac88c", "fusion_lat": 0.0, "name": "1f93ec737dd87729de14b8eda24ac88c", "is_reserved": 0, "rental_uris": {"android": "https://dc.lft.to/lastmile_qr_scan", "ios": "https://dc.lft.to/lastmile_qr_scan"}, "fusion_lon": 0.0}, {"lat": 38.88492933333333, "is_disabled": 0, "type": "electric_scooter", "lon": -77.00724533333333, "bike_id": "7ddb7b4ac5c50666cf45e3822f5d774c", "fusion_lat": 0.0, "name": "7ddb7b4ac5c50666cf45e3822f5d774c", "is_reserved": 0, "rental_uris": {"android": "https://dc.lft.to/lastmile_qr_scan", "ios": "https://dc.lft.to/lastmile_qr_scan"}, "fusion_lon": 0.0}, {"lat": 38.90012183333333, "is_disabled": 0, "type": "electric_scooter", "lon": -76.92229233333333, "bike_id": "990b57c8556c276036a856d4f0a1afe4", "fusion_lat": 0.0, "name": "990b57c8556c276036a856d4f0a1afe4", "is_reserved": 0, "rental_uris": {"android": "https://dc.lft.to/lastmile_qr_scan", "ios": "https://dc.lft.to/lastmile_qr_scan"}, "fusion_lon": 0.0}, {"lat": 38.906920166666666, "is_disabled": 0, "type": "electric_scooter", "lon": -77.03521183333334, "bike_id": "cc4bd51349a5947d47d6892f869df4b9", "fusion_lat": 0.0, "name": "cc4bd51349a5947d47d6892f869df4b9", "is_reserved": 0, "rental_uris": {"android": "https://dc.lft.to/lastmile_qr_scan", "ios": "https://dc.lft.to/lastmile_qr_scan"}, "fusion_lon": 0.0}, {"lat": 38.918947, "is_disabled": 0, "type": "electric_scooter", "lon": -77.02442766666667, "bike_id": "6b889c34ebd694d5768c166ef4138b4f", "fusion_lat": 0.0, "name": "6b889c34ebd694d5768c166ef4138b4f", "is_reserved": 0, "rental_uris": {"android": "https://dc.lft.to/lastmile_qr_scan", "ios": "https://dc.lft.to/lastmile_qr_scan"}, "fusion_lon": 0.0}, {"lat": 38.91557916666667, "is_disabled": 0, "type": "electric_scooter", "lon": -77.02046066666666, "bike_id": "a2a18b588b0704f4c1c5d3adbfe38b5d", "fusion_lat": 0.0, "name": "a2a18b588b0704f4c1c5d3adbfe38b5d", "is_reserved": 0, "rental_uris": {"android": "https://dc.lft.to/lastmile_qr_scan", "ios": "https://dc.lft.to/lastmile_qr_scan"}, "fusion_lon": 0.0}, {"lat": 38.84376133333333, "is_disabled": 0, "type": "electric_bike", "lon": -77.089957, "bike_id": "864dbc73dce878f4afd66c2472302b8b", "fusion_lat": 0.0, "name": "864dbc73dce878f4afd66c2472302b8b", "is_reserved": 0, "rental_uris": {"android": "https://dc.lft.to/lastmile_qr_scan", "ios": "https://dc.lft.to/lastmile_qr_scan"}, "fusion_lon": 0.0}, {"lat": 38.91563566666667, "is_disabled": 0, "type": "electric_scooter", "lon": -77.0315205, "bike_id": "730f0dab2cadbcc5591543a268107be2", "fusion_lat": 0.0, "name": "730f0dab2cadbcc5591543a268107be2", "is_reserved": 0, "rental_uris": {"android": "https://dc.lft.to/lastmile_qr_scan", "ios": "https://dc.lft.to/lastmile_qr_scan"}, "fusion_lon": 0.0}, {"lat": 38.90108566666667, "is_disabled": 0, "type": "electric_scooter", "lon": -77.05902133333333, "bike_id": "423b83b100f1f903a5387bd0406d48e9", "fusion_lat": 0.0, "name": "423b83b100f1f903a5387bd0406d48e9", "is_reserved": 0, "rental_uris": {"android": "https://dc.lft.to/lastmile_qr_scan", "ios": "https://dc.lft.to/lastmile_qr_scan"}, "fusion_lon": 0.0}, {"lat": 38.912578333333336, "is_disabled": 0, "type": "electric_scooter", "lon": -77.03161316666667, "bike_id": "338c73b8f8e2fa6c49bda34b1bf57b7c", "fusion_lat": 0.0, "name": "338c73b8f8e2fa6c49bda34b1bf57b7c", "is_reserved": 0, "rental_uris": {"android": "https://dc.lft.to/lastmile_qr_scan", "ios": "https://dc.lft.to/lastmile_qr_scan"}, "fusion_lon": 0.0}, {"lat": 38.8989665, "is_disabled": 0, "type": "electric_scooter", "lon": -77.07233883333333, "bike_id": "78b26a734f0eee877abe440bfad6ae40", "fusion_lat": 0.0, "name": "78b26a734f0eee877abe440bfad6ae40", "is_reserved": 0, "rental_uris": {"android": "https://dc.lft.to/lastmile_qr_scan", "ios": "https://dc.lft.to/lastmile_qr_scan"}, "fusion_lon": 0.0}, {"lat": 38.9169115, "is_disabled": 0, "type": "electric_scooter", "lon": -77.04595466666666, "bike_id": "d96f2a5774811fc2133eb6bb14d5a50f", "fusion_lat": 0.0, "name": "d96f2a5774811fc2133eb6bb14d5a50f", "is_reserved": 0, "rental_uris": {"android": "https://dc.lft.to/lastmile_qr_scan", "ios": "https://dc.lft.to/lastmile_qr_scan"}, "fusion_lon": 0.0}, {"lat": 38.92299783333333, "is_disabled": 0, "type": "electric_scooter", "lon": -77.02333899999999, "bike_id": "5c37cc9d9001a2295b6a97d63c866499", "fusion_lat": 0.0, "name": "5c37cc9d9001a2295b6a97d63c866499", "is_reserved": 0, "rental_uris": {"android": "https://dc.lft.to/lastmile_qr_scan", "ios": "https://dc.lft.to/lastmile_qr_scan"}, "fusion_lon": 0.0}, {"lat": 38.9124645, "is_disabled": 0, "type": "electric_scooter", "lon": -77.04659783333334, "bike_id": "e770252fea729224c66c6d9787cf0880", "fusion_lat": 0.0, "name": "e770252fea729224c66c6d9787cf0880", "is_reserved": 0, "rental_uris": {"android": "https://dc.lft.to/lastmile_qr_scan", "ios": "https://dc.lft.to/lastmile_qr_scan"}, "fusion_lon": 0.0}, {"lat": 38.8763875, "is_disabled": 0, "type": "electric_scooter", "lon": -77.00917116666666, "bike_id": "d75a5726a6d05b65865ad656c186aff8", "fusion_lat": 0.0, "name": "d75a5726a6d05b65865ad656c186aff8", "is_reserved": 0, "rental_uris": {"android": "https://dc.lft.to/lastmile_qr_scan", "ios": "https://dc.lft.to/lastmile_qr_scan"}, "fusion_lon": 0.0}, {"lat": 38.89917283333333, "is_disabled": 0, "type": "electric_scooter", "lon": -76.93379866666666, "bike_id": "4a7f3fb4de83c45b56b32e4ebe1edab2", "fusion_lat": 0.0, "name": "4a7f3fb4de83c45b56b32e4ebe1edab2", "is_reserved": 0, "rental_uris": {"android": "https://dc.lft.to/lastmile_qr_scan", "ios": "https://dc.lft.to/lastmile_qr_scan"}, "fusion_lon": 0.0}, {"lat": 38.863455, "is_disabled": 0, "type": "electric_scooter", "lon": -76.99001616666666, "bike_id": "ca545cbd2298caed79eed6465b634815", "fusion_lat": 0.0, "name": "ca545cbd2298caed79eed6465b634815", "is_reserved": 0, "rental_uris": {"android": "https://dc.lft.to/lastmile_qr_scan", "ios": "https://dc.lft.to/lastmile_qr_scan"}, "fusion_lon": 0.0}, {"lat": 38.926757333333335, "is_disabled": 0, "type": "electric_scooter", "lon": -77.0511485, "bike_id": "09988e09dacf6e68197c666c363c6b88", "fusion_lat": 0.0, "name": "09988e09dacf6e68197c666c363c6b88", "is_reserved": 0, "rental_uris": {"android": "https://dc.lft.to/lastmile_qr_scan", "ios": "https://dc.lft.to/lastmile_qr_scan"}, "fusion_lon": 0.0}, {"lat": 38.95552883333333, "is_disabled": 0, "type": "electric_bike", "lon": -76.93543133333333, "bike_id": "a99d726a69949ac632bc6c8f9865867f", "fusion_lat": 0.0, "name": "a99d726a69949ac632bc6c8f9865867f", "is_reserved": 0, "rental_uris": {"android": "https://dc.lft.to/lastmile_qr_scan", "ios": "https://dc.lft.to/lastmile_qr_scan"}, "fusion_lon": 0.0}, {"lat": 38.876479333333336, "is_disabled": 0, "type": "electric_scooter", "lon": -77.005807, "bike_id": "887bc6727c6d653dba86eda9cccd6a6f", "fusion_lat": 0.0, "name": "887bc6727c6d653dba86eda9cccd6a6f", "is_reserved": 0, "rental_uris": {"android": "https://dc.lft.to/lastmile_qr_scan", "ios": "https://dc.lft.to/lastmile_qr_scan"}, "fusion_lon": 0.0}, {"lat": 38.90957983333333, "is_disabled": 0, "type": "electric_scooter", "lon": -77.047913, "bike_id": "30dcb654ce9c990ffc72cfb5e0e0b46d", "fusion_lat": 0.0, "name": "30dcb654ce9c990ffc72cfb5e0e0b46d", "is_reserved": 0, "rental_uris": {"android": "https://dc.lft.to/lastmile_qr_scan", "ios": "https://dc.lft.to/lastmile_qr_scan"}, "fusion_lon": 0.0}, {"lat": 38.84292416666667, "is_disabled": 0, "type": "electric_scooter", "lon": -76.99948516666667, "bike_id": "dd5def9d40867587b7cf163e0e90ee24", "fusion_lat": 0.0, "name": "dd5def9d40867587b7cf163e0e90ee24", "is_reserved": 0, "rental_uris": {"android": "https://dc.lft.to/lastmile_qr_scan", "ios": "https://dc.lft.to/lastmile_qr_scan"}, "fusion_lon": 0.0}, {"lat": 38.91552566666667, "is_disabled": 0, "type": "electric_scooter", "lon": -77.02426666666666, "bike_id": "3daf04298997d1f02db9e5289cf3ced3", "fusion_lat": 0.0, "name": "3daf04298997d1f02db9e5289cf3ced3", "is_reserved": 0, "rental_uris": {"android": "https://dc.lft.to/lastmile_qr_scan", "ios": "https://dc.lft.to/lastmile_qr_scan"}, "fusion_lon": 0.0}, {"lat": 38.91268783333334, "is_disabled": 0, "type": "electric_scooter", "lon": -77.01307516666667, "bike_id": "a78bd645d76b897741d71a5fe3bcc47d", "fusion_lat": 0.0, "name": "a78bd645d76b897741d71a5fe3bcc47d", "is_reserved": 0, "rental_uris": {"android": "https://dc.lft.to/lastmile_qr_scan", "ios": "https://dc.lft.to/lastmile_qr_scan"}, "fusion_lon": 0.0}, {"lat": 38.958817, "is_disabled": 0, "type": "electric_scooter", "lon": -77.02732483333334, "bike_id": "9ff082889f65faa856e3dc07ec39958e", "fusion_lat": 0.0, "name": "9ff082889f65faa856e3dc07ec39958e", "is_reserved": 0, "rental_uris": {"android": "https://dc.lft.to/lastmile_qr_scan", "ios": "https://dc.lft.to/lastmile_qr_scan"}, "fusion_lon": 0.0}, {"lat": 38.92689283333333, "is_disabled": 0, "type": "electric_scooter", "lon": -77.03733166666666, "bike_id": "67027fa409b462d12bd774889af09853", "fusion_lat": 0.0, "name": "67027fa409b462d12bd774889af09853", "is_reserved": 0, "rental_uris": {"android": "https://dc.lft.to/lastmile_qr_scan", "ios": "https://dc.lft.to/lastmile_qr_scan"}, "fusion_lon": 0.0}, {"lat": 38.954957, "is_disabled": 0, "type": "electric_scooter", "lon": -77.06566533333333, "bike_id": "b1096dd5721f14ce409725aba06ea368", "fusion_lat": 0.0, "name": "b1096dd5721f14ce409725aba06ea368", "is_reserved": 0, "rental_uris": {"android": "https://dc.lft.to/lastmile_qr_scan", "ios": "https://dc.lft.to/lastmile_qr_scan"}, "fusion_lon": 0.0}, {"lat": 38.89950133333333, "is_disabled": 0, "type": "electric_scooter", "lon": -77.01604583333334, "bike_id": "21a6593926ff34a0c80c7a07974765fa", "fusion_lat": 0.0, "name": "21a6593926ff34a0c80c7a07974765fa", "is_reserved": 0, "rental_uris": {"android": "https://dc.lft.to/lastmile_qr_scan", "ios": "https://dc.lft.to/lastmile_qr_scan"}, "fusion_lon": 0.0}, {"lat": 38.904565833333336, "is_disabled": 0, "type": "electric_scooter", "lon": -77.06008, "bike_id": "f0965c56e2cf9931aab58e7c5d7ca0b1", "fusion_lat": 0.0, "name": "f0965c56e2cf9931aab58e7c5d7ca0b1", "is_reserved": 0, "rental_uris": {"android": "https://dc.lft.to/lastmile_qr_scan", "ios": "https://dc.lft.to/lastmile_qr_scan"}, "fusion_lon": 0.0}, {"lat": 38.9052615, "is_disabled": 0, "type": "electric_scooter", "lon": -77.0614665, "bike_id": "2df860d7139873a27a1e9b7818e633db", "fusion_lat": 0.0, "name": "2df860d7139873a27a1e9b7818e633db", "is_reserved": 0, "rental_uris": {"android": "https://dc.lft.to/lastmile_qr_scan", "ios": "https://dc.lft.to/lastmile_qr_scan"}, "fusion_lon": 0.0}, {"lat": 38.90264666666667, "is_disabled": 0, "type": "electric_scooter", "lon": -77.01761916666666, "bike_id": "51aa61bd9d3015aaa77750e402f53822", "fusion_lat": 0.0, "name": "51aa61bd9d3015aaa77750e402f53822", "is_reserved": 0, "rental_uris": {"android": "https://dc.lft.to/lastmile_qr_scan", "ios": "https://dc.lft.to/lastmile_qr_scan"}, "fusion_lon": 0.0}, {"lat": 38.922474666666666, "is_disabled": 0, "type": "electric_scooter", "lon": -77.03082466666666, "bike_id": "8ef6386f3f066a1012ce8024f61202be", "fusion_lat": 0.0, "name": "8ef6386f3f066a1012ce8024f61202be", "is_reserved": 0, "rental_uris": {"android": "https://dc.lft.to/lastmile_qr_scan", "ios": "https://dc.lft.to/lastmile_qr_scan"}, "fusion_lon": 0.0}, {"lat": 38.920070833333334, "is_disabled": 0, "type": "electric_scooter", "lon": -76.99298766666666, "bike_id": "4e39715f2b9f33eed554e3ade7741e1a", "fusion_lat": 0.0, "name": "4e39715f2b9f33eed554e3ade7741e1a", "is_reserved": 0, "rental_uris": {"android": "https://dc.lft.to/lastmile_qr_scan", "ios": "https://dc.lft.to/lastmile_qr_scan"}, "fusion_lon": 0.0}, {"lat": 38.881252833333335, "is_disabled": 0, "type": "electric_scooter", "lon": -76.995114, "bike_id": "34f67294a6d3e000bf228b6256bcf49d", "fusion_lat": 0.0, "name": "34f67294a6d3e000bf228b6256bcf49d", "is_reserved": 0, "rental_uris": {"android": "https://dc.lft.to/lastmile_qr_scan", "ios": "https://dc.lft.to/lastmile_qr_scan"}, "fusion_lon": 0.0}, {"lat": 38.89987516666667, "is_disabled": 0, "type": "electric_scooter", "lon": -77.03991016666667, "bike_id": "db8a93f9815aa042e63cdf232871f86e", "fusion_lat": 0.0, "name": "db8a93f9815aa042e63cdf232871f86e", "is_reserved": 0, "rental_uris": {"android": "https://dc.lft.to/lastmile_qr_scan", "ios": "https://dc.lft.to/lastmile_qr_scan"}, "fusion_lon": 0.0}, {"lat": 38.8869345, "is_disabled": 0, "type": "electric_scooter", "lon": -77.017664, "bike_id": "e339f99a32d4832dd8deeaac3fa9d683", "fusion_lat": 0.0, "name": "e339f99a32d4832dd8deeaac3fa9d683", "is_reserved": 0, "rental_uris": {"android": "https://dc.lft.to/lastmile_qr_scan", "ios": "https://dc.lft.to/lastmile_qr_scan"}, "fusion_lon": 0.0}, {"lat": 38.90361383333333, "is_disabled": 0, "type": "electric_scooter", "lon": -77.02207116666666, "bike_id": "38216ed6bf3afba33a4419ebb19f016f", "fusion_lat": 0.0, "name": "38216ed6bf3afba33a4419ebb19f016f", "is_reserved": 0, "rental_uris": {"android": "https://dc.lft.to/lastmile_qr_scan", "ios": "https://dc.lft.to/lastmile_qr_scan"}, "fusion_lon": 0.0}, {"lat": 38.88390583333333, "is_disabled": 0, "type": "electric_scooter", "lon": -77.01887866666667, "bike_id": "6d233fde61f5b90929acf14527f4bd6c", "fusion_lat": 0.0, "name": "6d233fde61f5b90929acf14527f4bd6c", "is_reserved": 0, "rental_uris": {"android": "https://dc.lft.to/lastmile_qr_scan", "ios": "https://dc.lft.to/lastmile_qr_scan"}, "fusion_lon": 0.0}, {"lat": 38.9224625, "is_disabled": 0, "type": "electric_scooter", "lon": -77.021832, "bike_id": "8cced0df0ba47d7f728521ac4b7810c6", "fusion_lat": 0.0, "name": "8cced0df0ba47d7f728521ac4b7810c6", "is_reserved": 0, "rental_uris": {"android": "https://dc.lft.to/lastmile_qr_scan", "ios": "https://dc.lft.to/lastmile_qr_scan"}, "fusion_lon": 0.0}, {"lat": 38.876878166666664, "is_disabled": 0, "type": "electric_scooter", "lon": -77.01753933333333, "bike_id": "70298f0a6f5089ef4952bc37eb937e52", "fusion_lat": 0.0, "name": "70298f0a6f5089ef4952bc37eb937e52", "is_reserved": 0, "rental_uris": {"android": "https://dc.lft.to/lastmile_qr_scan", "ios": "https://dc.lft.to/lastmile_qr_scan"}, "fusion_lon": 0.0}, {"lat": 38.91708333333333, "is_disabled": 0, "type": "electric_scooter", "lon": -77.02491066666667, "bike_id": "7f717ac400f1708b712aa07c06441659", "fusion_lat": 0.0, "name": "7f717ac400f1708b712aa07c06441659", "is_reserved": 0, "rental_uris": {"android": "https://dc.lft.to/lastmile_qr_scan", "ios": "https://dc.lft.to/lastmile_qr_scan"}, "fusion_lon": 0.0}, {"lat": 38.86899233333333, "is_disabled": 0, "type": "electric_scooter", "lon": -76.98310416666666, "bike_id": "bb1ac36342c06f61af3d5e3bdf771036", "fusion_lat": 0.0, "name": "bb1ac36342c06f61af3d5e3bdf771036", "is_reserved": 0, "rental_uris": {"android": "https://dc.lft.to/lastmile_qr_scan", "ios": "https://dc.lft.to/lastmile_qr_scan"}, "fusion_lon": 0.0}, {"lat": 38.90070766666667, "is_disabled": 0, "type": "electric_scooter", "lon": -77.02591116666666, "bike_id": "3bc86539f28c3640e63ca735084481f0", "fusion_lat": 0.0, "name": "3bc86539f28c3640e63ca735084481f0", "is_reserved": 0, "rental_uris": {"android": "https://dc.lft.to/lastmile_qr_scan", "ios": "https://dc.lft.to/lastmile_qr_scan"}, "fusion_lon": 0.0}, {"lat": 38.887383, "is_disabled": 0, "type": "electric_scooter", "lon": -77.01536166666666, "bike_id": "5e06350872af02a3014d80a75f906587", "fusion_lat": 0.0, "name": "5e06350872af02a3014d80a75f906587", "is_reserved": 0, "rental_uris": {"android": "https://dc.lft.to/lastmile_qr_scan", "ios": "https://dc.lft.to/lastmile_qr_scan"}, "fusion_lon": 0.0}, {"lat": 38.90271283333333, "is_disabled": 0, "type": "electric_scooter", "lon": -77.03864966666667, "bike_id": "bf9358d07b42d2624d7ddba0cd602dfd", "fusion_lat": 0.0, "name": "bf9358d07b42d2624d7ddba0cd602dfd", "is_reserved": 0, "rental_uris": {"android": "https://dc.lft.to/lastmile_qr_scan", "ios": "https://dc.lft.to/lastmile_qr_scan"}, "fusion_lon": 0.0}, {"lat": 38.899717, "is_disabled": 0, "type": "electric_scooter", "lon": -76.92657616666666, "bike_id": "407f79aceee5cb07e1249bcc613be6a4", "fusion_lat": 0.0, "name": "407f79aceee5cb07e1249bcc613be6a4", "is_reserved": 0, "rental_uris": {"android": "https://dc.lft.to/lastmile_qr_scan", "ios": "https://dc.lft.to/lastmile_qr_scan"}, "fusion_lon": 0.0}, {"lat": 38.91791883333333, "is_disabled": 0, "type": "electric_scooter", "lon": -77.04023566666666, "bike_id": "c3e53f3ef40ab0dcd9f647fb305af4a7", "fusion_lat": 0.0, "name": "c3e53f3ef40ab0dcd9f647fb305af4a7", "is_reserved": 0, "rental_uris": {"android": "https://dc.lft.to/lastmile_qr_scan", "ios": "https://dc.lft.to/lastmile_qr_scan"}, "fusion_lon": 0.0}, {"lat": 38.921532166666665, "is_disabled": 0, "type": "electric_scooter", "lon": -77.035024, "bike_id": "48a1b14767c9eca1cb891ff7649d61e9", "fusion_lat": 0.0, "name": "48a1b14767c9eca1cb891ff7649d61e9", "is_reserved": 0, "rental_uris": {"android": "https://dc.lft.to/lastmile_qr_scan", "ios": "https://dc.lft.to/lastmile_qr_scan"}, "fusion_lon": 0.0}, {"lat": 38.90484, "is_disabled": 0, "type": "electric_scooter", "lon": -77.04865016666666, "bike_id": "b5c3d08515a3e019d65a951220d07a6d", "fusion_lat": 0.0, "name": "b5c3d08515a3e019d65a951220d07a6d", "is_reserved": 0, "rental_uris": {"android": "https://dc.lft.to/lastmile_qr_scan", "ios": "https://dc.lft.to/lastmile_qr_scan"}, "fusion_lon": 0.0}, {"lat": 39.052044, "is_disabled": 0, "type": "electric_bike", "lon": -77.10913783333334, "bike_id": "52bafe93d09fb0cf4774dad547df4e4a", "fusion_lat": 0.0, "name": "52bafe93d09fb0cf4774dad547df4e4a", "is_reserved": 0, "rental_uris": {"android": "https://dc.lft.to/lastmile_qr_scan", "ios": "https://dc.lft.to/lastmile_qr_scan"}, "fusion_lon": 0.0}, {"lat": 38.912625, "is_disabled": 0, "type": "electric_scooter", "lon": -77.03749483333333, "bike_id": "8cec99d2b5e7c23f75af7511d7f32010", "fusion_lat": 0.0, "name": "8cec99d2b5e7c23f75af7511d7f32010", "is_reserved": 0, "rental_uris": {"android": "https://dc.lft.to/lastmile_qr_scan", "ios": "https://dc.lft.to/lastmile_qr_scan"}, "fusion_lon": 0.0}, {"lat": 38.9124975, "is_disabled": 0, "type": "electric_scooter", "lon": -77.03204416666667, "bike_id": "5d1d68dd886418b645be926e55b041d3", "fusion_lat": 0.0, "name": "5d1d68dd886418b645be926e55b041d3", "is_reserved": 0, "rental_uris": {"android": "https://dc.lft.to/lastmile_qr_scan", "ios": "https://dc.lft.to/lastmile_qr_scan"}, "fusion_lon": 0.0}, {"lat": 38.9000635, "is_disabled": 0, "type": "electric_scooter", "lon": -77.04486233333333, "bike_id": "b073afd5f19474c7de3a9af5b4af2c1a", "fusion_lat": 0.0, "name": "b073afd5f19474c7de3a9af5b4af2c1a", "is_reserved": 0, "rental_uris": {"android": "https://dc.lft.to/lastmile_qr_scan", "ios": "https://dc.lft.to/lastmile_qr_scan"}, "fusion_lon": 0.0}, {"lat": 38.91669666666667, "is_disabled": 0, "type": "electric_scooter", "lon": -77.006638, "bike_id": "070e4836244b2990815afc03526e7302", "fusion_lat": 0.0, "name": "070e4836244b2990815afc03526e7302", "is_reserved": 0, "rental_uris": {"android": "https://dc.lft.to/lastmile_qr_scan", "ios": "https://dc.lft.to/lastmile_qr_scan"}, "fusion_lon": 0.0}, {"lat": 38.92535683333333, "is_disabled": 0, "type": "electric_scooter", "lon": -77.0075645, "bike_id": "43d1cf7da5d15c47358887d9ce0a3a60", "fusion_lat": 0.0, "name": "43d1cf7da5d15c47358887d9ce0a3a60", "is_reserved": 0, "rental_uris": {"android": "https://dc.lft.to/lastmile_qr_scan", "ios": "https://dc.lft.to/lastmile_qr_scan"}, "fusion_lon": 0.0}, {"lat": 38.9942245, "is_disabled": 0, "type": "electric_bike", "lon": -77.03170916666667, "bike_id": "6f6b6ab0e5b4b2e15d87320a3e4c821d", "fusion_lat": 0.0, "name": "6f6b6ab0e5b4b2e15d87320a3e4c821d", "is_reserved": 0, "rental_uris": {"android": "https://dc.lft.to/lastmile_qr_scan", "ios": "https://dc.lft.to/lastmile_qr_scan"}, "fusion_lon": 0.0}, {"lat": 38.9165775, "is_disabled": 0, "type": "electric_scooter", "lon": -77.047716, "bike_id": "0c4643b27b02e922661ca1f309ea85d2", "fusion_lat": 0.0, "name": "0c4643b27b02e922661ca1f309ea85d2", "is_reserved": 0, "rental_uris": {"android": "https://dc.lft.to/lastmile_qr_scan", "ios": "https://dc.lft.to/lastmile_qr_scan"}, "fusion_lon": 0.0}, {"lat": 38.84296166666667, "is_disabled": 0, "type": "electric_scooter", "lon": -76.99947433333334, "bike_id": "bd3aa90648bce991fc81340b306bc916", "fusion_lat": 0.0, "name": "bd3aa90648bce991fc81340b306bc916", "is_reserved": 0, "rental_uris": {"android": "https://dc.lft.to/lastmile_qr_scan", "ios": "https://dc.lft.to/lastmile_qr_scan"}, "fusion_lon": 0.0}, {"lat": 38.919918833333334, "is_disabled": 0, "type": "electric_scooter", "lon": -77.01778633333333, "bike_id": "1abc88ab2c30992ac892a9135e69fc41", "fusion_lat": 0.0, "name": "1abc88ab2c30992ac892a9135e69fc41", "is_reserved": 0, "rental_uris": {"android": "https://dc.lft.to/lastmile_qr_scan", "ios": "https://dc.lft.to/lastmile_qr_scan"}, "fusion_lon": 0.0}, {"lat": 38.90158916666667, "is_disabled": 0, "type": "electric_scooter", "lon": -76.9803965, "bike_id": "c355ba64323f97e21329607e5de5ceee", "fusion_lat": 0.0, "name": "c355ba64323f97e21329607e5de5ceee", "is_reserved": 0, "rental_uris": {"android": "https://dc.lft.to/lastmile_qr_scan", "ios": "https://dc.lft.to/lastmile_qr_scan"}, "fusion_lon": 0.0}, {"lat": 38.900138166666665, "is_disabled": 0, "type": "electric_scooter", "lon": -77.01198466666666, "bike_id": "fdc126e58228f2d49129f08d01239c58", "fusion_lat": 0.0, "name": "fdc126e58228f2d49129f08d01239c58", "is_reserved": 0, "rental_uris": {"android": "https://dc.lft.to/lastmile_qr_scan", "ios": "https://dc.lft.to/lastmile_qr_scan"}, "fusion_lon": 0.0}, {"lat": 38.884927, "is_disabled": 0, "type": "electric_scooter", "lon": -77.00709833333333, "bike_id": "1cb6b7b7c0c74819da0f2a134dbb223b", "fusion_lat": 0.0, "name": "1cb6b7b7c0c74819da0f2a134dbb223b", "is_reserved": 0, "rental_uris": {"android": "https://dc.lft.to/lastmile_qr_scan", "ios": "https://dc.lft.to/lastmile_qr_scan"}, "fusion_lon": 0.0}, {"lat": 38.92859216666667, "is_disabled": 0, "type": "electric_scooter", "lon": -77.0309835, "bike_id": "b041cb9d630699a42b84e45bd536882e", "fusion_lat": 0.0, "name": "b041cb9d630699a42b84e45bd536882e", "is_reserved": 0, "rental_uris": {"android": "https://dc.lft.to/lastmile_qr_scan", "ios": "https://dc.lft.to/lastmile_qr_scan"}, "fusion_lon": 0.0}, {"lat": 38.9257535, "is_disabled": 0, "type": "electric_scooter", "lon": -76.98608583333333, "bike_id": "162772e51b6d6e5a51c61b626fa5f661", "fusion_lat": 0.0, "name": "162772e51b6d6e5a51c61b626fa5f661", "is_reserved": 0, "rental_uris": {"android": "https://dc.lft.to/lastmile_qr_scan", "ios": "https://dc.lft.to/lastmile_qr_scan"}, "fusion_lon": 0.0}, {"lat": 38.874035166666665, "is_disabled": 0, "type": "electric_scooter", "lon": -77.014552, "bike_id": "54b5cfb35e8c18d0bc64fef323ca978a", "fusion_lat": 0.0, "name": "54b5cfb35e8c18d0bc64fef323ca978a", "is_reserved": 0, "rental_uris": {"android": "https://dc.lft.to/lastmile_qr_scan", "ios": "https://dc.lft.to/lastmile_qr_scan"}, "fusion_lon": 0.0}, {"lat": 38.878284, "is_disabled": 0, "type": "electric_scooter", "lon": -77.00816766666667, "bike_id": "a9ad8565939070cab51c7b634b9cbb45", "fusion_lat": 0.0, "name": "a9ad8565939070cab51c7b634b9cbb45", "is_reserved": 0, "rental_uris": {"android": "https://dc.lft.to/lastmile_qr_scan", "ios": "https://dc.lft.to/lastmile_qr_scan"}, "fusion_lon": 0.0}, {"lat": 38.949128, "is_disabled": 0, "type": "electric_scooter", "lon": -77.0662435, "bike_id": "5e5c908d281c36a983d47fcbe4db6cb6", "fusion_lat": 0.0, "name": "5e5c908d281c36a983d47fcbe4db6cb6", "is_reserved": 0, "rental_uris": {"android": "https://dc.lft.to/lastmile_qr_scan", "ios": "https://dc.lft.to/lastmile_qr_scan"}, "fusion_lon": 0.0}, {"lat": 38.8863335, "is_disabled": 0, "type": "electric_scooter", "lon": -77.0228755, "bike_id": "618d8c49aec058765ecb3174561b996d", "fusion_lat": 0.0, "name": "618d8c49aec058765ecb3174561b996d", "is_reserved": 0, "rental_uris": {"android": "https://dc.lft.to/lastmile_qr_scan", "ios": "https://dc.lft.to/lastmile_qr_scan"}, "fusion_lon": 0.0}, {"lat": 38.89913583333333, "is_disabled": 0, "type": "electric_scooter", "lon": -76.98560983333333, "bike_id": "47861d5afec85e436e4c3b1aabb3e532", "fusion_lat": 0.0, "name": "47861d5afec85e436e4c3b1aabb3e532", "is_reserved": 0, "rental_uris": {"android": "https://dc.lft.to/lastmile_qr_scan", "ios": "https://dc.lft.to/lastmile_qr_scan"}, "fusion_lon": 0.0}, {"lat": 38.896256666666666, "is_disabled": 0, "type": "electric_scooter", "lon": -76.95670133333333, "bike_id": "1e887bbac3c7b48bba1b2534af87ff0e", "fusion_lat": 0.0, "name": "1e887bbac3c7b48bba1b2534af87ff0e", "is_reserved": 0, "rental_uris": {"android": "https://dc.lft.to/lastmile_qr_scan", "ios": "https://dc.lft.to/lastmile_qr_scan"}, "fusion_lon": 0.0}, {"lat": 38.921003, "is_disabled": 0, "type": "electric_scooter", "lon": -77.031687, "bike_id": "1075de422b51fc7eb4b667617096079c", "fusion_lat": 0.0, "name": "1075de422b51fc7eb4b667617096079c", "is_reserved": 0, "rental_uris": {"android": "https://dc.lft.to/lastmile_qr_scan", "ios": "https://dc.lft.to/lastmile_qr_scan"}, "fusion_lon": 0.0}, {"lat": 38.89552416666667, "is_disabled": 0, "type": "electric_scooter", "lon": -77.00364666666667, "bike_id": "360e95c7045e650ee1c88adf41b1e140", "fusion_lat": 0.0, "name": "360e95c7045e650ee1c88adf41b1e140", "is_reserved": 0, "rental_uris": {"android": "https://dc.lft.to/lastmile_qr_scan", "ios": "https://dc.lft.to/lastmile_qr_scan"}, "fusion_lon": 0.0}, {"lat": 38.8838455, "is_disabled": 0, "type": "electric_scooter", "lon": -77.04606516666666, "bike_id": "8757496b3d1697dd3fe126f93307339c", "fusion_lat": 0.0, "name": "8757496b3d1697dd3fe126f93307339c", "is_reserved": 0, "rental_uris": {"android": "https://dc.lft.to/lastmile_qr_scan", "ios": "https://dc.lft.to/lastmile_qr_scan"}, "fusion_lon": 0.0}, {"lat": 38.900020833333336, "is_disabled": 0, "type": "electric_scooter", "lon": -77.03318433333334, "bike_id": "2f3fbbeea89370da855f4fc7e9af5bbb", "fusion_lat": 0.0, "name": "2f3fbbeea89370da855f4fc7e9af5bbb", "is_reserved": 0, "rental_uris": {"android": "https://dc.lft.to/lastmile_qr_scan", "ios": "https://dc.lft.to/lastmile_qr_scan"}, "fusion_lon": 0.0}, {"lat": 38.87240766666667, "is_disabled": 0, "type": "electric_scooter", "lon": -77.012024, "bike_id": "d69cd0268ed61b2feb1d62a7cc7a4002", "fusion_lat": 0.0, "name": "d69cd0268ed61b2feb1d62a7cc7a4002", "is_reserved": 0, "rental_uris": {"android": "https://dc.lft.to/lastmile_qr_scan", "ios": "https://dc.lft.to/lastmile_qr_scan"}, "fusion_lon": 0.0}, {"lat": 38.91835833333333, "is_disabled": 0, "type": "electric_scooter", "lon": -77.0318795, "bike_id": "2379a2b7b2a862cc825e71937a809317", "fusion_lat": 0.0, "name": "2379a2b7b2a862cc825e71937a809317", "is_reserved": 0, "rental_uris": {"android": "https://dc.lft.to/lastmile_qr_scan", "ios": "https://dc.lft.to/lastmile_qr_scan"}, "fusion_lon": 0.0}, {"lat": 38.938617666666666, "is_disabled": 0, "type": "electric_scooter", "lon": -77.03199866666667, "bike_id": "79e25ce2d9c8f8459f07859d26c88b22", "fusion_lat": 0.0, "name": "79e25ce2d9c8f8459f07859d26c88b22", "is_reserved": 0, "rental_uris": {"android": "https://dc.lft.to/lastmile_qr_scan", "ios": "https://dc.lft.to/lastmile_qr_scan"}, "fusion_lon": 0.0}, {"lat": 38.922944, "is_disabled": 0, "type": "electric_scooter", "lon": -77.04252816666667, "bike_id": "8b15bba483f132a0ec7da9ac2aba2bb1", "fusion_lat": 0.0, "name": "8b15bba483f132a0ec7da9ac2aba2bb1", "is_reserved": 0, "rental_uris": {"android": "https://dc.lft.to/lastmile_qr_scan", "ios": "https://dc.lft.to/lastmile_qr_scan"}, "fusion_lon": 0.0}, {"lat": 38.962051, "is_disabled": 0, "type": "electric_bike", "lon": -77.0351235, "bike_id": "2bb646ed48825817669209adb40204cc", "fusion_lat": 0.0, "name": "2bb646ed48825817669209adb40204cc", "is_reserved": 0, "rental_uris": {"android": "https://dc.lft.to/lastmile_qr_scan", "ios": "https://dc.lft.to/lastmile_qr_scan"}, "fusion_lon": 0.0}, {"lat": 38.919887333333335, "is_disabled": 0, "type": "electric_scooter", "lon": -77.041614, "bike_id": "887bc994a521252a8119c9967688e499", "fusion_lat": 0.0, "name": "887bc994a521252a8119c9967688e499", "is_reserved": 0, "rental_uris": {"android": "https://dc.lft.to/lastmile_qr_scan", "ios": "https://dc.lft.to/lastmile_qr_scan"}, "fusion_lon": 0.0}, {"lat": 38.90136433333333, "is_disabled": 0, "type": "electric_scooter", "lon": -77.0031885, "bike_id": "4a08e9762d3bdac9a0acd9b1c4248796", "fusion_lat": 0.0, "name": "4a08e9762d3bdac9a0acd9b1c4248796", "is_reserved": 0, "rental_uris": {"android": "https://dc.lft.to/lastmile_qr_scan", "ios": "https://dc.lft.to/lastmile_qr_scan"}, "fusion_lon": 0.0}, {"lat": 38.844329333333334, "is_disabled": 0, "type": "electric_scooter", "lon": -76.9977935, "bike_id": "4c7d421fc90c11b78b4643dbdb7b3581", "fusion_lat": 0.0, "name": "4c7d421fc90c11b78b4643dbdb7b3581", "is_reserved": 0, "rental_uris": {"android": "https://dc.lft.to/lastmile_qr_scan", "ios": "https://dc.lft.to/lastmile_qr_scan"}, "fusion_lon": 0.0}, {"lat": 38.93223783333333, "is_disabled": 0, "type": "electric_scooter", "lon": -77.02380733333334, "bike_id": "8fa9a8dddeb8ecde55806e5222a0859d", "fusion_lat": 0.0, "name": "8fa9a8dddeb8ecde55806e5222a0859d", "is_reserved": 0, "rental_uris": {"android": "https://dc.lft.to/lastmile_qr_scan", "ios": "https://dc.lft.to/lastmile_qr_scan"}, "fusion_lon": 0.0}, {"lat": 38.92043666666667, "is_disabled": 0, "type": "electric_scooter", "lon": -77.0420485, "bike_id": "9eacac6aa640f6f67361bdb4aa1a9a92", "fusion_lat": 0.0, "name": "9eacac6aa640f6f67361bdb4aa1a9a92", "is_reserved": 0, "rental_uris": {"android": "https://dc.lft.to/lastmile_qr_scan", "ios": "https://dc.lft.to/lastmile_qr_scan"}, "fusion_lon": 0.0}, {"lat": 38.876895166666664, "is_disabled": 0, "type": "electric_scooter", "lon": -77.004001, "bike_id": "2de7e6a52fa3fbcb1866b03035d270e7", "fusion_lat": 0.0, "name": "2de7e6a52fa3fbcb1866b03035d270e7", "is_reserved": 0, "rental_uris": {"android": "https://dc.lft.to/lastmile_qr_scan", "ios": "https://dc.lft.to/lastmile_qr_scan"}, "fusion_lon": 0.0}, {"lat": 38.91415833333333, "is_disabled": 0, "type": "electric_scooter", "lon": -77.0316445, "bike_id": "a881c6b4b61baa11c464f401265d1861", "fusion_lat": 0.0, "name": "a881c6b4b61baa11c464f401265d1861", "is_reserved": 0, "rental_uris": {"android": "https://dc.lft.to/lastmile_qr_scan", "ios": "https://dc.lft.to/lastmile_qr_scan"}, "fusion_lon": 0.0}, {"lat": 38.93118616666667, "is_disabled": 0, "type": "electric_scooter", "lon": -77.02084816666667, "bike_id": "a2bdd7885bc6f97d0a2432884e0fd386", "fusion_lat": 0.0, "name": "a2bdd7885bc6f97d0a2432884e0fd386", "is_reserved": 0, "rental_uris": {"android": "https://dc.lft.to/lastmile_qr_scan", "ios": "https://dc.lft.to/lastmile_qr_scan"}, "fusion_lon": 0.0}, {"lat": 38.804978166666665, "is_disabled": 0, "type": "electric_bike", "lon": -77.04128783333333, "bike_id": "26ec6b88881e92e567c9154a44603c63", "fusion_lat": 0.0, "name": "26ec6b88881e92e567c9154a44603c63", "is_reserved": 0, "rental_uris": {"android": "https://dc.lft.to/lastmile_qr_scan", "ios": "https://dc.lft.to/lastmile_qr_scan"}, "fusion_lon": 0.0}, {"lat": 38.91702033333333, "is_disabled": 0, "type": "electric_scooter", "lon": -77.01102883333333, "bike_id": "519d9b1e33f6b98c7339d1bbdd0a7b4f", "fusion_lat": 0.0, "name": "519d9b1e33f6b98c7339d1bbdd0a7b4f", "is_reserved": 0, "rental_uris": {"android": "https://dc.lft.to/lastmile_qr_scan", "ios": "https://dc.lft.to/lastmile_qr_scan"}, "fusion_lon": 0.0}, {"lat": 38.95330966666667, "is_disabled": 0, "type": "electric_bike", "lon": -76.98817183333334, "bike_id": "41ca8b677f53168e98365ea244e82039", "fusion_lat": 0.0, "name": "41ca8b677f53168e98365ea244e82039", "is_reserved": 0, "rental_uris": {"android": "https://dc.lft.to/lastmile_qr_scan", "ios": "https://dc.lft.to/lastmile_qr_scan"}, "fusion_lon": 0.0}, {"lat": 38.91818083333333, "is_disabled": 0, "type": "electric_scooter", "lon": -77.03075533333333, "bike_id": "e17d01f92ca9db49b3faf86de1eb12b8", "fusion_lat": 0.0, "name": "e17d01f92ca9db49b3faf86de1eb12b8", "is_reserved": 0, "rental_uris": {"android": "https://dc.lft.to/lastmile_qr_scan", "ios": "https://dc.lft.to/lastmile_qr_scan"}, "fusion_lon": 0.0}, {"lat": 38.86614866666667, "is_disabled": 0, "type": "electric_scooter", "lon": -76.98644666666667, "bike_id": "61c8ce5c04fc8dfec55d37971bfb2f9a", "fusion_lat": 0.0, "name": "61c8ce5c04fc8dfec55d37971bfb2f9a", "is_reserved": 0, "rental_uris": {"android": "https://dc.lft.to/lastmile_qr_scan", "ios": "https://dc.lft.to/lastmile_qr_scan"}, "fusion_lon": 0.0}, {"lat": 38.918748, "is_disabled": 0, "type": "electric_scooter", "lon": -77.04474566666667, "bike_id": "bd16702ec5d465cdeabe31045e53f354", "fusion_lat": 0.0, "name": "bd16702ec5d465cdeabe31045e53f354", "is_reserved": 0, "rental_uris": {"android": "https://dc.lft.to/lastmile_qr_scan", "ios": "https://dc.lft.to/lastmile_qr_scan"}, "fusion_lon": 0.0}, {"lat": 38.9064645, "is_disabled": 0, "type": "electric_scooter", "lon": -76.990257, "bike_id": "3ab826aef57eb3bd73cb142ee73037c7", "fusion_lat": 0.0, "name": "3ab826aef57eb3bd73cb142ee73037c7", "is_reserved": 0, "rental_uris": {"android": "https://dc.lft.to/lastmile_qr_scan", "ios": "https://dc.lft.to/lastmile_qr_scan"}, "fusion_lon": 0.0}, {"lat": 38.91553783333333, "is_disabled": 0, "type": "electric_scooter", "lon": -77.03243316666666, "bike_id": "036b4acb75e40246ec483261e698061f", "fusion_lat": 0.0, "name": "036b4acb75e40246ec483261e698061f", "is_reserved": 0, "rental_uris": {"android": "https://dc.lft.to/lastmile_qr_scan", "ios": "https://dc.lft.to/lastmile_qr_scan"}, "fusion_lon": 0.0}, {"lat": 38.852107833333335, "is_disabled": 0, "type": "electric_bike", "lon": -76.99575366666667, "bike_id": "3c4ce9cd20c7db47a653014b7b1ffc2c", "fusion_lat": 0.0, "name": "3c4ce9cd20c7db47a653014b7b1ffc2c", "is_reserved": 0, "rental_uris": {"android": "https://dc.lft.to/lastmile_qr_scan", "ios": "https://dc.lft.to/lastmile_qr_scan"}, "fusion_lon": 0.0}, {"lat": 38.89909733333333, "is_disabled": 0, "type": "electric_scooter", "lon": -76.9334485, "bike_id": "e1e71b95f5db3d7d5cc0572c2d307279", "fusion_lat": 0.0, "name": "e1e71b95f5db3d7d5cc0572c2d307279", "is_reserved": 0, "rental_uris": {"android": "https://dc.lft.to/lastmile_qr_scan", "ios": "https://dc.lft.to/lastmile_qr_scan"}, "fusion_lon": 0.0}, {"lat": 38.922818, "is_disabled": 0, "type": "electric_scooter", "lon": -77.0424275, "bike_id": "7363f70613b9d5d59921d9b6e629c178", "fusion_lat": 0.0, "name": "7363f70613b9d5d59921d9b6e629c178", "is_reserved": 0, "rental_uris": {"android": "https://dc.lft.to/lastmile_qr_scan", "ios": "https://dc.lft.to/lastmile_qr_scan"}, "fusion_lon": 0.0}, {"lat": 38.906205, "is_disabled": 0, "type": "electric_scooter", "lon": -76.98984633333333, "bike_id": "5d0509414a78ac743b2ba1b568890b0f", "fusion_lat": 0.0, "name": "5d0509414a78ac743b2ba1b568890b0f", "is_reserved": 0, "rental_uris": {"android": "https://dc.lft.to/lastmile_qr_scan", "ios": "https://dc.lft.to/lastmile_qr_scan"}, "fusion_lon": 0.0}, {"lat": 38.85907, "is_disabled": 0, "type": "electric_scooter", "lon": -76.991472, "bike_id": "ab18c1265cecb8e0c7ab2168314459ad", "fusion_lat": 0.0, "name": "ab18c1265cecb8e0c7ab2168314459ad", "is_reserved": 0, "rental_uris": {"android": "https://dc.lft.to/lastmile_qr_scan", "ios": "https://dc.lft.to/lastmile_qr_scan"}, "fusion_lon": 0.0}, {"lat": 38.89843066666667, "is_disabled": 0, "type": "electric_scooter", "lon": -77.02261033333333, "bike_id": "b240193171cbaac17e7c621de2421c52", "fusion_lat": 0.0, "name": "b240193171cbaac17e7c621de2421c52", "is_reserved": 0, "rental_uris": {"android": "https://dc.lft.to/lastmile_qr_scan", "ios": "https://dc.lft.to/lastmile_qr_scan"}, "fusion_lon": 0.0}, {"lat": 38.8916765, "is_disabled": 0, "type": "electric_bike", "lon": -77.03386133333333, "bike_id": "428983f2e9cf0ee398cdb4d984a121ea", "fusion_lat": 0.0, "name": "428983f2e9cf0ee398cdb4d984a121ea", "is_reserved": 0, "rental_uris": {"android": "https://dc.lft.to/lastmile_qr_scan", "ios": "https://dc.lft.to/lastmile_qr_scan"}, "fusion_lon": 0.0}, {"lat": 38.91573266666666, "is_disabled": 0, "type": "electric_scooter", "lon": -77.03212833333333, "bike_id": "b49a83a949ae25bbd0b267ee880e6d01", "fusion_lat": 0.0, "name": "b49a83a949ae25bbd0b267ee880e6d01", "is_reserved": 0, "rental_uris": {"android": "https://dc.lft.to/lastmile_qr_scan", "ios": "https://dc.lft.to/lastmile_qr_scan"}, "fusion_lon": 0.0}, {"lat": 38.89437733333333, "is_disabled": 0, "type": "electric_scooter", "lon": -77.032076, "bike_id": "7da647e8fbee54fcd2e1e7c7e8fdfc17", "fusion_lat": 0.0, "name": "7da647e8fbee54fcd2e1e7c7e8fdfc17", "is_reserved": 0, "rental_uris": {"android": "https://dc.lft.to/lastmile_qr_scan", "ios": "https://dc.lft.to/lastmile_qr_scan"}, "fusion_lon": 0.0}, {"lat": 38.9274705, "is_disabled": 0, "type": "electric_scooter", "lon": -77.02537583333333, "bike_id": "2bd5326948d64e379464bb4e4d72ccab", "fusion_lat": 0.0, "name": "2bd5326948d64e379464bb4e4d72ccab", "is_reserved": 0, "rental_uris": {"android": "https://dc.lft.to/lastmile_qr_scan", "ios": "https://dc.lft.to/lastmile_qr_scan"}, "fusion_lon": 0.0}, {"lat": 38.905748, "is_disabled": 0, "type": "electric_scooter", "lon": -76.98170033333334, "bike_id": "d070d581d032f080530435b93cb58c3c", "fusion_lat": 0.0, "name": "d070d581d032f080530435b93cb58c3c", "is_reserved": 0, "rental_uris": {"android": "https://dc.lft.to/lastmile_qr_scan", "ios": "https://dc.lft.to/lastmile_qr_scan"}, "fusion_lon": 0.0}, {"lat": 38.936895, "is_disabled": 0, "type": "electric_scooter", "lon": -77.059892, "bike_id": "4909d89b1708b08ecbed373f2e6f1b11", "fusion_lat": 0.0, "name": "4909d89b1708b08ecbed373f2e6f1b11", "is_reserved": 0, "rental_uris": {"android": "https://dc.lft.to/lastmile_qr_scan", "ios": "https://dc.lft.to/lastmile_qr_scan"}, "fusion_lon": 0.0}, {"lat": 38.930522, "is_disabled": 0, "type": "electric_scooter", "lon": -77.041857, "bike_id": "145c44ae0563e4a9ee47471add0be773", "fusion_lat": 0.0, "name": "145c44ae0563e4a9ee47471add0be773", "is_reserved": 0, "rental_uris": {"android": "https://dc.lft.to/lastmile_qr_scan", "ios": "https://dc.lft.to/lastmile_qr_scan"}, "fusion_lon": 0.0}, {"lat": 38.908570833333336, "is_disabled": 0, "type": "electric_scooter", "lon": -76.9916555, "bike_id": "6619ecfd095d993005cbdbea4d8455f5", "fusion_lat": 0.0, "name": "6619ecfd095d993005cbdbea4d8455f5", "is_reserved": 0, "rental_uris": {"android": "https://dc.lft.to/lastmile_qr_scan", "ios": "https://dc.lft.to/lastmile_qr_scan"}, "fusion_lon": 0.0}, {"lat": 38.905764166666664, "is_disabled": 0, "type": "electric_scooter", "lon": -77.06276883333334, "bike_id": "ee266487eec4b8ac89bfb3103b58be9f", "fusion_lat": 0.0, "name": "ee266487eec4b8ac89bfb3103b58be9f", "is_reserved": 0, "rental_uris": {"android": "https://dc.lft.to/lastmile_qr_scan", "ios": "https://dc.lft.to/lastmile_qr_scan"}, "fusion_lon": 0.0}, {"lat": 38.89121266666667, "is_disabled": 0, "type": "electric_scooter", "lon": -76.94384733333334, "bike_id": "3d694fc10c0a546228834925845e39e0", "fusion_lat": 0.0, "name": "3d694fc10c0a546228834925845e39e0", "is_reserved": 0, "rental_uris": {"android": "https://dc.lft.to/lastmile_qr_scan", "ios": "https://dc.lft.to/lastmile_qr_scan"}, "fusion_lon": 0.0}, {"lat": 38.90045383333333, "is_disabled": 0, "type": "electric_scooter", "lon": -76.99374533333334, "bike_id": "50874030fd307f64e9f70bfae2bf328b", "fusion_lat": 0.0, "name": "50874030fd307f64e9f70bfae2bf328b", "is_reserved": 0, "rental_uris": {"android": "https://dc.lft.to/lastmile_qr_scan", "ios": "https://dc.lft.to/lastmile_qr_scan"}, "fusion_lon": 0.0}, {"lat": 38.936813, "is_disabled": 0, "type": "electric_scooter", "lon": -77.036251, "bike_id": "3b545ffd13460484c16dfe83bc9b5228", "fusion_lat": 0.0, "name": "3b545ffd13460484c16dfe83bc9b5228", "is_reserved": 0, "rental_uris": {"android": "https://dc.lft.to/lastmile_qr_scan", "ios": "https://dc.lft.to/lastmile_qr_scan"}, "fusion_lon": 0.0}, {"lat": 38.913377833333335, "is_disabled": 0, "type": "electric_scooter", "lon": -77.00223616666666, "bike_id": "ad48b1d09dd35b5cc5c21b352910cf68", "fusion_lat": 0.0, "name": "ad48b1d09dd35b5cc5c21b352910cf68", "is_reserved": 0, "rental_uris": {"android": "https://dc.lft.to/lastmile_qr_scan", "ios": "https://dc.lft.to/lastmile_qr_scan"}, "fusion_lon": 0.0}, {"lat": 38.91012583333333, "is_disabled": 0, "type": "electric_scooter", "lon": -76.99391066666666, "bike_id": "bfbca4538deab34319d28752ab36df0a", "fusion_lat": 0.0, "name": "bfbca4538deab34319d28752ab36df0a", "is_reserved": 0, "rental_uris": {"android": "https://dc.lft.to/lastmile_qr_scan", "ios": "https://dc.lft.to/lastmile_qr_scan"}, "fusion_lon": 0.0}, {"lat": 38.89230366666666, "is_disabled": 0, "type": "electric_scooter", "lon": -77.03333983333333, "bike_id": "b3206f97a405df47d85f2ea963ebda84", "fusion_lat": 0.0, "name": "b3206f97a405df47d85f2ea963ebda84", "is_reserved": 0, "rental_uris": {"android": "https://dc.lft.to/lastmile_qr_scan", "ios": "https://dc.lft.to/lastmile_qr_scan"}, "fusion_lon": 0.0}, {"lat": 38.91349683333333, "is_disabled": 0, "type": "electric_scooter", "lon": -77.03181766666667, "bike_id": "7a4c9cdc05ea504638fd86390393ad2d", "fusion_lat": 0.0, "name": "7a4c9cdc05ea504638fd86390393ad2d", "is_reserved": 0, "rental_uris": {"android": "https://dc.lft.to/lastmile_qr_scan", "ios": "https://dc.lft.to/lastmile_qr_scan"}, "fusion_lon": 0.0}, {"lat": 38.9239465, "is_disabled": 0, "type": "electric_scooter", "lon": -77.0006975, "bike_id": "56b1ce80c8aa33be8eeeb3c7c034db95", "fusion_lat": 0.0, "name": "56b1ce80c8aa33be8eeeb3c7c034db95", "is_reserved": 0, "rental_uris": {"android": "https://dc.lft.to/lastmile_qr_scan", "ios": "https://dc.lft.to/lastmile_qr_scan"}, "fusion_lon": 0.0}, {"lat": 38.908307666666666, "is_disabled": 0, "type": "electric_scooter", "lon": -76.99698133333334, "bike_id": "dd8e58bc38f4e354e493a0dec7d4dd0e", "fusion_lat": 0.0, "name": "dd8e58bc38f4e354e493a0dec7d4dd0e", "is_reserved": 0, "rental_uris": {"android": "https://dc.lft.to/lastmile_qr_scan", "ios": "https://dc.lft.to/lastmile_qr_scan"}, "fusion_lon": 0.0}, {"lat": 38.91826433333333, "is_disabled": 0, "type": "electric_scooter", "lon": -77.03439883333333, "bike_id": "a28f427fb601336afdac9a9c9ff9d1c2", "fusion_lat": 0.0, "name": "a28f427fb601336afdac9a9c9ff9d1c2", "is_reserved": 0, "rental_uris": {"android": "https://dc.lft.to/lastmile_qr_scan", "ios": "https://dc.lft.to/lastmile_qr_scan"}, "fusion_lon": 0.0}, {"lat": 38.92095366666667, "is_disabled": 0, "type": "electric_scooter", "lon": -77.025107, "bike_id": "bdea0aebec5763add77f0d43385aa515", "fusion_lat": 0.0, "name": "bdea0aebec5763add77f0d43385aa515", "is_reserved": 0, "rental_uris": {"android": "https://dc.lft.to/lastmile_qr_scan", "ios": "https://dc.lft.to/lastmile_qr_scan"}, "fusion_lon": 0.0}, {"lat": 38.9234765, "is_disabled": 0, "type": "electric_scooter", "lon": -77.01897383333333, "bike_id": "204ccf533f8bcab94464b9daf10f460c", "fusion_lat": 0.0, "name": "204ccf533f8bcab94464b9daf10f460c", "is_reserved": 0, "rental_uris": {"android": "https://dc.lft.to/lastmile_qr_scan", "ios": "https://dc.lft.to/lastmile_qr_scan"}, "fusion_lon": 0.0}, {"lat": 38.8950735, "is_disabled": 0, "type": "electric_scooter", "lon": -77.03960466666666, "bike_id": "1e83816bd2fc4718c75f5086209f1a8e", "fusion_lat": 0.0, "name": "1e83816bd2fc4718c75f5086209f1a8e", "is_reserved": 0, "rental_uris": {"android": "https://dc.lft.to/lastmile_qr_scan", "ios": "https://dc.lft.to/lastmile_qr_scan"}, "fusion_lon": 0.0}, {"lat": 38.897638, "is_disabled": 0, "type": "electric_scooter", "lon": -77.031811, "bike_id": "0eef2fa3db2d9b1ff4518607cf5f73ce", "fusion_lat": 0.0, "name": "0eef2fa3db2d9b1ff4518607cf5f73ce", "is_reserved": 0, "rental_uris": {"android": "https://dc.lft.to/lastmile_qr_scan", "ios": "https://dc.lft.to/lastmile_qr_scan"}, "fusion_lon": 0.0}, {"lat": 38.858008166666664, "is_disabled": 0, "type": "electric_scooter", "lon": -76.98722166666667, "bike_id": "c570af2fc18bbdd2cf86614461876648", "fusion_lat": 0.0, "name": "c570af2fc18bbdd2cf86614461876648", "is_reserved": 0, "rental_uris": {"android": "https://dc.lft.to/lastmile_qr_scan", "ios": "https://dc.lft.to/lastmile_qr_scan"}, "fusion_lon": 0.0}, {"lat": 38.92246466666667, "is_disabled": 0, "type": "electric_scooter", "lon": -77.0425095, "bike_id": "f3b67aecf1290ee58c4c93b225cc9675", "fusion_lat": 0.0, "name": "f3b67aecf1290ee58c4c93b225cc9675", "is_reserved": 0, "rental_uris": {"android": "https://dc.lft.to/lastmile_qr_scan", "ios": "https://dc.lft.to/lastmile_qr_scan"}, "fusion_lon": 0.0}, {"lat": 38.8834285, "is_disabled": 0, "type": "electric_scooter", "lon": -77.03146066666666, "bike_id": "29e050c5e83f463f2ddbbaed26088b62", "fusion_lat": 0.0, "name": "29e050c5e83f463f2ddbbaed26088b62", "is_reserved": 0, "rental_uris": {"android": "https://dc.lft.to/lastmile_qr_scan", "ios": "https://dc.lft.to/lastmile_qr_scan"}, "fusion_lon": 0.0}, {"lat": 38.9111195, "is_disabled": 0, "type": "electric_scooter", "lon": -77.02158316666667, "bike_id": "60376daf9afd9c2f9593df899c7c69bd", "fusion_lat": 0.0, "name": "60376daf9afd9c2f9593df899c7c69bd", "is_reserved": 0, "rental_uris": {"android": "https://dc.lft.to/lastmile_qr_scan", "ios": "https://dc.lft.to/lastmile_qr_scan"}, "fusion_lon": 0.0}, {"lat": 38.8988705, "is_disabled": 0, "type": "electric_scooter", "lon": -77.04037266666667, "bike_id": "b3c250bbdbd000816b197dfc4ff429a5", "fusion_lat": 0.0, "name": "b3c250bbdbd000816b197dfc4ff429a5", "is_reserved": 0, "rental_uris": {"android": "https://dc.lft.to/lastmile_qr_scan", "ios": "https://dc.lft.to/lastmile_qr_scan"}, "fusion_lon": 0.0}, {"lat": 38.90279233333333, "is_disabled": 0, "type": "electric_scooter", "lon": -77.04688533333334, "bike_id": "2125d19fe7b78e6a1cb06144e2056508", "fusion_lat": 0.0, "name": "2125d19fe7b78e6a1cb06144e2056508", "is_reserved": 0, "rental_uris": {"android": "https://dc.lft.to/lastmile_qr_scan", "ios": "https://dc.lft.to/lastmile_qr_scan"}, "fusion_lon": 0.0},