{"data": {"bikes": [{"lat": 38.95070183333333, "is_disabled": 0, "type": "electric_scooter", "lon": -77.06653883333334, "bike_id": "8b6b63ff5cef8bdb9f4375538d1002bd", "fusion_lat": 0.0, "name": "8b6b63ff5cef8bdb9f4375538d1002bd", "is_reserved": 0, "rental_uris": {"android": "https://dc.lft.to/lastmile_qr_scan", "ios": "https://dc.lft.to/lastmile_qr_scan"}, "fusion_lon": 0.0}, {"lat": 38.905696166666665, "is_disabled": 0, "type": "electric_scooter", "lon": -77.0220975, "bike_id": "b43807f15fb8f6a2c32cd6f4628b8c79", "fusion_lat": 0.0, "name": "b43807f15fb8f6a2c32cd6f4628b8c79", "is_reserved": 0, "rental_uris": {"android": "https://dc.lft.to/lastmile_qr_scan", "ios": "https://dc.lft.to/lastmile_qr_scan"}, "fusion_lon": 0.0}, {"lat": 38.90033116666667, "is_disabled": 0, "type": "electric_scooter", "lon": -77.02702583333334, "bike_id": "6c6cf6276b62ceca3188a344db315af2", "fusion_lat": 0.0, "name": "6c6cf6276b62ceca3188a344db315af2", "is_reserved": 0, "rental_uris": {"android": "https://dc.lft.to/lastmile_qr_scan", "ios": "https://dc.lft.to/lastmile_qr_scan"}, "fusion_lon": 0.0}, {"lat": 38.89240866666667, "is_disabled": 0, "type": "electric_scooter", "lon": -77.03958266666666, "bike_id": "a047553202b2e222ef59d4950672c7f9", "fusion_lat": 0.0, "name": "a047553202b2e222ef59d4950672c7f9", "is_reserved": 0, "rental_uris": {"android": "https://dc.lft.to/lastmile_qr_scan", "ios": "https://dc.lft.to/lastmile_qr_scan"}, "fusion_lon": 0.0}, {"lat": 38.901386, "is_disabled": 0, "type": "electric_scooter", "lon": -77.01808383333334, "bike_id": "d76fdda8abf09f78b211a15d87c00fdb", "fusion_lat": 0.0, "name": "d76fdda8abf09f78b211a15d87c00fdb", "is_reserved": 0, "rental_uris": {"android": "https://dc.lft.to/lastmile_qr_scan", "ios": "https://dc.lft.to/lastmile_qr_scan"}, "fusion_lon": 0.0}, {"lat": 38.928945166666665, "is_disabled": 0, "type": "electric_scooter", "lon": -77.03325266666667, "bike_id": "09db30d82c4c9c41a25fd45a1027281f", "fusion_lat": 0.0, "name": "09db30d82c4c9c41a25fd45a1027281f", "is_reserved": 0, "rental_uris": {"android": "https://dc.lft.to/lastmile_qr_scan", "ios": "https://dc.lft.to/lastmile_qr_scan"}, "fusion_lon": 0.0}, {"lat": 38.940962999999996, "is_disabled": 0, "type": "electric_scooter", "lon": -77.03279466666666, "bike_id": "b863c5ab791b7b5b4d27f8aedb57c76f", "fusion_lat": 0.0, "name": "b863c5ab791b7b5b4d27f8aedb57c76f", "is_reserved": 0, "rental_uris": {"android": "https://dc.lft.to/lastmile_qr_scan", "ios": "https://dc.lft.to/lastmile_qr_scan"}, "fusion_lon": 0.0}, {"lat": 38.8762635, "is_disabled": 0, "type": "electric_scooter", "lon": -76.9652585, "bike_id": "e960069c8e12b941ad9ac4b1fa74ccf0", "fusion_lat": 0.0, "name": "e960069c8e12b941ad9ac4b1fa74ccf0", "is_reserved": 0, "rental_uris": {"android": "https://dc.lft.to/lastmile_qr_scan", "ios": "https://dc.lft.to/lastmile_qr_scan"}, "fusion_lon": 0.0}, {"lat": 38.9250995, "is_disabled": 0, "type": "electric_scooter", "lon": -77.02358733333334, "bike_id": "03bfb6d2edd3ec1ada8ed4e39b7f1138", "fusion_lat": 0.0, "name": "03bfb6d2edd3ec1ada8ed4e39b7f1138", "is_reserved": 0, "rental_uris": {"android": "https://dc.lft.to/lastmile_qr_scan", "ios": "https://dc.lft.to/lastmile_qr_scan"}, "fusion_lon": 0.0}, {"lat": 38.9073795, "is_disabled": 0, "type": "electric_scooter", "lon": -77.04781533333333, "bike_id": "af21e8c9dc5c543cb36aa764759a4f4a", "fusion_lat": 0.0, "name": "af21e8c9dc5c543cb36aa764759a4f4a", "is_reserved": 0, "rental_uris": {"android": "https://dc.lft.to/lastmile_qr_scan", "ios": "https://dc.lft.to/lastmile_qr_scan"}, "fusion_lon": 0.0}, {"lat": 38.84294333333333, "is_disabled": 0, "type": "electric_scooter", "lon": -76.99947166666666, "bike_id": "e6ce43785ffdde2bc0191e32c0be8676", "fusion_lat": 0.0, "name": "e6ce43785ffdde2bc0191e32c0be8676", "is_reserved": 0, "rental_uris": {"android": "https://dc.lft.to/lastmile_qr_scan", "ios": "https://dc.lft.to/lastmile_qr_scan"}, "fusion_lon": 0.0}, {"lat": 38.90070266666667, "is_disabled": 0, "type": "electric_scooter", "lon": -77.04389683333333, "bike_id": "c4dfaba0a187d7c82e99930b9eb1c2bc", "fusion_lat": 0.0, "name": "c4dfaba0a187d7c82e99930b9eb1c2bc", "is_reserved": 0, "rental_uris": {"android": "https://dc.lft.to/lastmile_qr_scan", "ios": "https://dc.lft.to/lastmile_qr_scan"}, "fusion_lon": 0.0}, {"lat": 38.8981985, "is_disabled": 0, "type": "electric_scooter", "lon": -77.024308, "bike_id": "5490b8a912cc5f044539dd6a2e40a5ed", "fusion_lat": 0.0, "name": "5490b8a912cc5f044539dd6a2e40a5ed", "is_reserved": 0, "rental_uris": {"android": "https://dc.lft.to/lastmile_qr_scan", "ios": "https://dc.lft.to/lastmile_qr_scan"}, "fusion_lon": 0.0}, {"lat": 38.8599245, "is_disabled": 0, "type": "electric_scooter", "lon": -76.9854215, "bike_id": "b737874fde01eb12f807e80605ed5fe2", "fusion_lat": 0.0, "name": "b737874fde01eb12f807e80605ed5fe2", "is_reserved": 0, "rental_uris": {"android": "https://dc.lft.to/lastmile_qr_scan", "ios": "https://dc.lft.to/lastmile_qr_scan"}, "fusion_lon": 0.0}, {"lat": 38.912239, "is_disabled": 0, "type": "electric_scooter", "lon": -77.03439433333334, "bike_id": "3d510b162f5bc663967ed53f9f04e7eb", "fusion_lat": 0.0, "name": "3d510b162f5bc663967ed53f9f04e7eb", "is_reserved": 0, "rental_uris": {"android": "https://dc.lft.to/lastmile_qr_scan", "ios": "https://dc.lft.to/lastmile_qr_scan"}, "fusion_lon": 0.0}, {"lat": 38.90027116666667, "is_disabled": 0, "type": "electric_scooter", "lon": -77.00227883333334, "bike_id": "91bec088914fcb2e88cc0f343f884a26", "fusion_lat": 0.0, "name": "91bec088914fcb2e88cc0f343f884a26", "is_reserved": 0, "rental_uris": {"android": "https://dc.lft.to/lastmile_qr_scan", "ios": "https://dc.lft.to/lastmile_qr_scan"}, "fusion_lon": 0.0}, {"lat": 38.918199666666666, "is_disabled": 0, "type": "electric_scooter", "lon": -77.02475966666667, "bike_id": "b61a4dc5c88318cc2e60a59b07ee3e18", "fusion_lat": 0.0, "name": "b61a4dc5c88318cc2e60a59b07ee3e18", "is_reserved": 0, "rental_uris": {"android": "https://dc.lft.to/lastmile_qr_scan", "ios": "https://dc.lft.to/lastmile_qr_scan"}, "fusion_lon": 0.0}, {"lat": 38.90972033333333, "is_disabled": 0, "type": "electric_scooter", "lon": -77.03864, "bike_id": "9b4fa7e9c3edc587d72a1477bff32908", "fusion_lat": 0.0, "name": "9b4fa7e9c3edc587d72a1477bff32908", "is_reserved": 0, "rental_uris": {"android": "https://dc.lft.to/lastmile_qr_scan", "ios": "https://dc.lft.to/lastmile_qr_scan"}, "fusion_lon": 0.0}, {"lat": 38.8873375, "is_disabled": 0, "type": "electric_scooter", "lon": -77.02075216666667, "bike_id": "05a7e18d9e615a1ccd22c0de1204c952", "fusion_lat": 0.0, "name": "05a7e18d9e615a1ccd22c0de1204c952", "is_reserved": 0, "rental_uris": {"android": "https://dc.lft.to/lastmile_qr_scan", "ios": "https://dc.lft.to/lastmile_qr_scan"}, "fusion_lon": 0.0}, {"lat": 38.9347755, "is_disabled": 0, "type": "electric_scooter", "lon": -77.03393166666666, "bike_id": "f725a9f641716f5e19537f4677283860", "fusion_lat": 0.0, "name": "f725a9f641716f5e19537f4677283860", "is_reserved": 0, "rental_uris": {"android": "https://dc.lft.to/lastmile_qr_scan", "ios": "https://dc.lft.to/lastmile_qr_scan"}, "fusion_lon": 0.0}, {"lat": 38.853165, "is_disabled": 0, "type": "electric_scooter", "lon": -76.98025533333333, "bike_id": "cc2de9566da08d53a00274a0f8f186b1", "fusion_lat": 0.0, "name": "cc2de9566da08d53a00274a0f8f186b1", "is_reserved": 0, "rental_uris": {"android": "https://dc.lft.to/lastmile_qr_scan", "ios": "https://dc.lft.to/lastmile_qr_scan"}, "fusion_lon": 0.0}, {"lat": 38.92778283333333, "is_disabled": 0, "type": "electric_scooter", "lon": -77.03269816666666, "bike_id": "dca5d42b520f4755118e667f5a6e9e66", "fusion_lat": 0.0, "name": "dca5d42b520f4755118e667f5a6e9e66", "is_reserved": 0, "rental_uris": {"android": "https://dc.lft.to/lastmile_qr_scan", "ios": "https://dc.lft.to/lastmile_qr_scan"}, "fusion_lon": 0.0}, {"lat": 38.92750383333333, "is_disabled": 0, "type": "electric_scooter", "lon": -76.99622833333333, "bike_id": "a3ac70195466b2d0f24685c358f6d35b", "fusion_lat": 0.0, "name": "a3ac70195466b2d0f24685c358f6d35b", "is_reserved": 0, "rental_uris": {"android": "https://dc.lft.to/lastmile_qr_scan", "ios": "https://dc.lft.to/lastmile_qr_scan"}, "fusion_lon": 0.0}, {"lat": 38.91999033333333, "is_disabled": 0, "type": "electric_scooter", "lon": -77.02402866666667, "bike_id": "9f5d3aea90b5002df2b39490828578a8", "fusion_lat": 0.0, "name": "9f5d3aea90b5002df2b39490828578a8", "is_reserved": 0, "rental_uris": {"android": "https://dc.lft.to/lastmile_qr_scan", "ios": "https://dc.lft.to/lastmile_qr_scan"}, "fusion_lon": 0.0}, {"lat": 38.87402866666667, "is_disabled": 0, "type": "electric_scooter", "lon": -77.014539, "bike_id": "fc1586cb0b1d4d5c2c245e1f41ca8d30", "fusion_lat": 0.0, "name": "fc1586cb0b1d4d5c2c245e1f41ca8d30", "is_reserved": 0, "rental_uris": {"android": "https://dc.lft.to/lastmile_qr_scan", "ios": "https://dc.lft.to/lastmile_qr_scan"}, "fusion_lon": 0.0}, {"lat": 38.901381666666666, "is_disabled": 0, "type": "electric_scooter", "lon": -77.00347133333334, "bike_id": "25338da8f0c8688d774e169d2eda3da1", "fusion_lat": 0.0, "name": "25338da8f0c8688d774e169d2eda3da1", "is_reserved": 0, "rental_uris": {"android": "https://dc.lft.to/lastmile_qr_scan", "ios": "https://dc.lft.to/lastmile_qr_scan"}, "fusion_lon": 0.0}, {"lat": 38.907055166666666, "is_disabled": 0, "type": "electric_scooter", "lon": -77.02979716666667, "bike_id": "df0eb1b6d724f032410fcfb02bb9beab", "fusion_lat": 0.0, "name": "df0eb1b6d724f032410fcfb02bb9beab", "is_reserved": 0, "rental_uris": {"android": "https://dc.lft.to/lastmile_qr_scan", "ios": "https://dc.lft.to/lastmile_qr_scan"}, "fusion_lon": 0.0}, {"lat": 38.872296666666664, "is_disabled": 0, "type": "electric_scooter", "lon": -77.01192516666667, "bike_id": "455ba3d08f6581e6a290606d2bc5b254", "fusion_lat": 0.0, "name": "455ba3d08f6581e6a290606d2bc5b254", "is_reserved": 0, "rental_uris": {"android": "https://dc.lft.to/lastmile_qr_scan", "ios": "https://dc.lft.to/lastmile_qr_scan"}, "fusion_lon": 0.0}, {"lat": 38.93740733333333, "is_disabled": 0, "type": "electric_scooter", "lon": -77.034958, "bike_id": "951ccda9eda06bb19107a94fa547a17b", "fusion_lat": 0.0, "name": "951ccda9eda06bb19107a94fa547a17b", "is_reserved": 0, "rental_uris": {"android": "https://dc.lft.to/lastmile_qr_scan", "ios": "https://dc.lft.to/lastmile_qr_scan"}, "fusion_lon": 0.0}, {"lat": 38.881193833333334, "is_disabled": 0, "type": "electric_scooter", "lon": -77.01983816666667, "bike_id": "587303311b99d0b067aba890a69d30c5", "fusion_lat": 0.0, "name": "587303311b99d0b067aba890a69d30c5", "is_reserved": 0, "rental_uris": {"android": "https://dc.lft.to/lastmile_qr_scan", "ios": "https://dc.lft.to/lastmile_qr_scan"}, "fusion_lon": 0.0}, {"lat": 38.896088166666665, "is_disabled": 0, "type": "electric_scooter", "lon": -76.95657366666667, "bike_id": "848ced78a442e91e8ac756d78488072e", "fusion_lat": 0.0, "name": "848ced78a442e91e8ac756d78488072e", "is_reserved": 0, "rental_uris": {"android": "https://dc.lft.to/lastmile_qr_scan", "ios": "https://dc.lft.to/lastmile_qr_scan"}, "fusion_lon": 0.0}, {"lat": 38.92611566666667, "is_disabled": 0, "type": "electric_scooter", "lon": -77.04406, "bike_id": "12ed07dbb05ee3bd7911d39c2ca19709", "fusion_lat": 0.0, "name": "12ed07dbb05ee3bd7911d39c2ca19709", "is_reserved": 0, "rental_uris": {"android": "https://dc.lft.to/lastmile_qr_scan", "ios": "https://dc.lft.to/lastmile_qr_scan"}, "fusion_lon": 0.0}, {"lat": 38.9096385, "is_disabled": 0, "type": "electric_scooter", "lon": -77.03208483333333, "bike_id": "a00f4687e06f0bb813720074c5e181ae", "fusion_lat": 0.0, "name": "a00f4687e06f0bb813720074c5e181ae", "is_reserved": 0, "rental_uris": {"android": "https://dc.lft.to/lastmile_qr_scan", "ios": "https://dc.lft.to/lastmile_qr_scan"}, "fusion_lon": 0.0}, {"lat": 38.8691365, "is_disabled": 0, "type": "electric_bike", "lon": -77.131812, "bike_id": "4cc2bf5ad5d7139fe17fc8a6e17bd091", "fusion_lat": 0.0, "name": "4cc2bf5ad5d7139fe17fc8a6e17bd091", "is_reserved": 0, "rental_uris": {"android": "https://dc.lft.to/lastmile_qr_scan", "ios": "https://dc.lft.to/lastmile_qr_scan"}, "fusion_lon": 0.0}, {"lat": 38.903774166666665, "is_disabled": 0, "type": "electric_scooter", "lon": -77.02578133333333, "bike_id": "5ba887f32ea73d6602369cc1c5ee1ca7", "fusion_lat": 0.0, "name": "5ba887f32ea73d6602369cc1c5ee1ca7", "is_reserved": 0, "rental_uris": {"android": "https://dc.lft.to/lastmile_qr_scan", "ios": "https://dc.lft.to/lastmile_qr_scan"}, "fusion_lon": 0.0}, {"lat": 38.932863166666664, "is_disabled": 0, "type": "electric_scooter", "lon": -77.039736, "bike_id": "2518f44b362a3bcabdefbb14e7df84eb", "fusion_lat": 0.0, "name": "2518f44b362a3bcabdefbb14e7df84eb", "is_reserved": 0, "rental_uris": {"android": "https://dc.lft.to/lastmile_qr_scan", "ios": "https://dc.lft.to/lastmile_qr_scan"}, "fusion_lon": 0.0}, {"lat": 38.9247955, "is_disabled": 0, "type": "electric_scooter", "lon": -77.052152, "bike_id": "82ef8ed94cf718aa05752f3225883fd5", "fusion_lat": 0.0, "name": "82ef8ed94cf718aa05752f3225883fd5", "is_reserved": 0, "rental_uris": {"android": "https://dc.lft.to/lastmile_qr_scan", "ios": "https://dc.lft.to/lastmile_qr_scan"}, "fusion_lon": 0.0}, {"lat": 38.890420666666664, "is_disabled": 0, "type": "electric_scooter", "lon": -76.9513785, "bike_id": "8dfa0b6b5023dd25374f076970b04f05", "fusion_lat": 0.0, "name": "8dfa0b6b5023dd25374f076970b04f05", "is_reserved": 0, "rental_uris": {"android": "https://dc.lft.to/lastmile_qr_scan", "ios": "https://dc.lft.to/lastmile_qr_scan"}, "fusion_lon": 0.0}, {"lat": 38.8963155, "is_disabled": 0, "type": "electric_scooter", "lon": -77.02961333333333, "bike_id": "255220995a5ae2403e686c64c836244f", "fusion_lat": 0.0, "name": "255220995a5ae2403e686c64c836244f", "is_reserved": 0, "rental_uris": {"android": "https://dc.lft.to/lastmile_qr_scan", "ios": "https://dc.lft.to/lastmile_qr_scan"}, "fusion_lon": 0.0}, {"lat": 38.9317125, "is_disabled": 0, "type": "electric_scooter", "lon": -77.028169, "bike_id": "2e39d58ab0bf1a11da5c331c20a6fc17", "fusion_lat": 0.0, "name": "2e39d58ab0bf1a11da5c331c20a6fc17", "is_reserved": 0, "rental_uris": {"android": "https://dc.lft.to/lastmile_qr_scan", "ios": "https://dc.lft.to/lastmile_qr_scan"}, "fusion_lon": 0.0}, {"lat": 38.895122666666666, "is_disabled": 0, "type": "electric_scooter", "lon": -77.0228175, "bike_id": "a00c547a47ce08877f442c7aa0776a25", "fusion_lat": 0.0, "name": "a00c547a47ce08877f442c7aa0776a25", "is_reserved": 0, "rental_uris": {"android": "https://dc.lft.to/lastmile_qr_scan", "ios": "https://dc.lft.to/lastmile_qr_scan"}, "fusion_lon": 0.0}, {"lat": 38.9052955, "is_disabled": 0, "type": "electric_scooter", "lon": -77.03412466666667, "bike_id": "0d5fe33e7e21e170784708693747b31e", "fusion_lat": 0.0, "name": "0d5fe33e7e21e170784708693747b31e", "is_reserved": 0, "rental_uris": {"android": "https://dc.lft.to/lastmile_qr_scan", "ios": "https://dc.lft.to/lastmile_qr_scan"}, "fusion_lon": 0.0}, {"lat": 38.911674833333336, "is_disabled": 0, "type": "electric_scooter", "lon": -77.0414405, "bike_id": "a98c081e62eb06740e9dcfc0da0738b7", "fusion_lat": 0.0, "name": "a98c081e62eb06740e9dcfc0da0738b7", "is_reserved": 0, "rental_uris": {"android": "https://dc.lft.to/lastmile_qr_scan", "ios": "https://dc.lft.to/lastmile_qr_scan"}, "fusion_lon": 0.0}, {"lat": 38.90535116666667, "is_disabled": 0, "type": "electric_scooter", "lon": -77.03410866666667, "bike_id": "32eabae8b88511c05e2b714aa2409816", "fusion_lat": 0.0, "name": "32eabae8b88511c05e2b714aa2409816", "is_reserved": 0, "rental_uris": {"android": "https://dc.lft.to/lastmile_qr_scan", "ios": "https://dc.lft.to/lastmile_qr_scan"}, "fusion_lon": 0.0}, {"lat": 38.93280466666667, "is_disabled": 0, "type": "electric_scooter", "lon": -77.03631266666666, "bike_id": "17abd6685b3f89ec40964b7838759fd8", "fusion_lat": 0.0, "name": "17abd6685b3f89ec40964b7838759fd8", "is_reserved": 0, "rental_uris": {"android": "https://dc.lft.to/lastmile_qr_scan", "ios": "https://dc.lft.to/lastmile_qr_scan"}, "fusion_lon": 0.0}, {"lat": 38.92009483333333, "is_disabled": 0, "type": "electric_scooter", "lon": -77.03233883333333, "bike_id": "080af5b18ed8e70d57390c3fc431846f", "fusion_lat": 0.0, "name": "080af5b18ed8e70d57390c3fc431846f", "is_reserved": 0, "rental_uris": {"android": "https://dc.lft.to/lastmile_qr_scan", "ios": "https://dc.lft.to/lastmile_qr_scan"}, "fusion_lon": 0.0}, {"lat": 38.846567, "is_disabled": 0, "type": "electric_bike", "lon": -76.97931083333333, "bike_id": "6bfc643bdc5ff2eebcd7660c8ac37793", "fusion_lat": 0.0, "name": "6bfc643bdc5ff2eebcd7660c8ac37793", "is_reserved": 0, "rental_uris": {"android": "https://dc.lft.to/lastmile_qr_scan", "ios": "https://dc.lft.to/lastmile_qr_scan"}, "fusion_lon": 0.0}, {"lat": 38.91046383333333, "is_disabled": 0, "type": "electric_scooter", "lon": -77.01509583333333, "bike_id": "f07adbd7ca07a1e9b39536fb5a86b01b", "fusion_lat": 0.0, "name": "f07adbd7ca07a1e9b39536fb5a86b01b", "is_reserved": 0, "rental_uris": {"android": "https://dc.lft.to/lastmile_qr_scan", "ios": "https://dc.lft.to/lastmile_qr_scan"}, "fusion_lon": 0.0}, {"lat": 38.909529, "is_disabled": 0, "type": "electric_scooter", "lon": -77.04790083333333, "bike_id": "442a62670afd9ccb47a67f4f14a13473", "fusion_lat": 0.0, "name": "442a62670afd9ccb47a67f4f14a13473", "is_reserved": 0, "rental_uris": {"android": "https://dc.lft.to/lastmile_qr_scan", "ios": "https://dc.lft.to/lastmile_qr_scan"}, "fusion_lon": 0.0}, {"lat": 38.92944, "is_disabled": 0, "type": "electric_scooter", "lon": -77.01897533333333, "bike_id": "2ae265b68b491a30b157adb47f2fa619", "fusion_lat": 0.0, "name": "2ae265b68b491a30b157adb47f2fa619", "is_reserved": 0, "rental_uris": {"android": "https://dc.lft.to/lastmile_qr_scan", "ios": "https://dc.lft.to/lastmile_qr_scan"}, "fusion_lon": 0.0}, {"lat": 38.903829333333334, "is_disabled": 0, "type": "electric_scooter", "lon": -77.05384716666667, "bike_id": "bee887c06a413cd0fa41ec357e59b257", "fusion_lat": 0.0, "name": "bee887c06a413cd0fa41ec357e59b257", "is_reserved": 0, "rental_uris": {"android": "https://dc.lft.to/lastmile_qr_scan", "ios": "https://dc.lft.to/lastmile_qr_scan"}, "fusion_lon": 0.0}, {"lat": 38.9001145, "is_disabled": 0, "type": "electric_scooter", "lon": -77.04481366666667, "bike_id": "45f9fb16f3dd20fb9d56fe7120ba1af6", "fusion_lat": 0.0, "name": "45f9fb16f3dd20fb9d56fe7120ba1af6", "is_reserved": 0, "rental_uris": {"android": "https://dc.lft.to/lastmile_qr_scan", "ios": "https://dc.lft.to/lastmile_qr_scan"}, "fusion_lon": 0.0}, {"lat": 38.90900716666667, "is_disabled": 0, "type": "electric_scooter", "lon": -77.03657816666667, "bike_id": "e0eb0a77fbb0e91b89f4b0b322f24563", "fusion_lat": 0.0, "name": "e0eb0a77fbb0e91b89f4b0b322f24563", "is_reserved": 0, "rental_uris": {"android": "https://dc.lft.to/lastmile_qr_scan", "ios": "https://dc.lft.to/lastmile_qr_scan"}, "fusion_lon": 0.0}, {"lat": 38.919744666666666, "is_disabled": 0, "type": "electric_scooter", "lon": -77.01352466666667, "bike_id": "f91c81c27908e2652e3c518c15dab1d8", "fusion_lat": 0.0, "name": "f91c81c27908e2652e3c518c15dab1d8", "is_reserved": 0, "rental_uris": {"android": "https://dc.lft.to/lastmile_qr_scan", "ios": "https://dc.lft.to/lastmile_qr_scan"}, "fusion_lon": 0.0}, {"lat": 38.915568, "is_disabled": 0, "type": "electric_scooter", "lon": -77.03242033333333, "bike_id": "14fd08236bfe8d39ae795538da3ae9e1", "fusion_lat": 0.0, "name": "14fd08236bfe8d39ae795538da3ae9e1", "is_reserved": 0, "rental_uris": {"android": "https://dc.lft.to/lastmile_qr_scan", "ios": "https://dc.lft.to/lastmile_qr_scan"}, "fusion_lon": 0.0}, {"lat": 38.9178625, "is_disabled": 0, "type": "electric_scooter", "lon": -77.02307583333334, "bike_id": "dcf2874123d27e5d84a18f66c8a2b7bd", "fusion_lat": 0.0, "name": "dcf2874123d27e5d84a18f66c8a2b7bd", "is_reserved": 0, "rental_uris": {"android": "https://dc.lft.to/lastmile_qr_scan", "ios": "https://dc.lft.to/lastmile_qr_scan"}, "fusion_lon": 0.0}, {"lat": 38.90079816666667, "is_disabled": 0, "type": "electric_scooter", "lon": -77.02595616666666, "bike_id": "f44a2f7f83533015d138cdf2b0b465cd", "fusion_lat": 0.0, "name": "f44a2f7f83533015d138cdf2b0b465cd", "is_reserved": 0, "rental_uris": {"android": "https://dc.lft.to/lastmile_qr_scan", "ios": "https://dc.lft.to/lastmile_qr_scan"}, "fusion_lon": 0.0}, {"lat": 39.052060166666664, "is_disabled": 0, "type": "electric_bike", "lon": -77.10920316666666, "bike_id": "64937e777f79540fbf6cf3041a591617", "fusion_lat": 0.0, "name": "64937e777f79540fbf6cf3041a591617", "is_reserved": 0, "rental_uris": {"android": "https://dc.lft.to/lastmile_qr_scan", "ios": "https://dc.lft.to/lastmile_qr_scan"}, "fusion_lon": 0.0}, {"lat": 38.917485, "is_disabled": 0, "type": "electric_scooter", "lon": -77.03661066666666, "bike_id": "450b95ec317d3578ef309c9e537138b8", "fusion_lat": 0.0, "name": "450b95ec317d3578ef309c9e537138b8", "is_reserved": 0, "rental_uris": {"android": "https://dc.lft.to/lastmile_qr_scan", "ios": "https://dc.lft.to/lastmile_qr_scan"}, "fusion_lon": 0.0}, {"lat": 38.892208, "is_disabled": 0, "type": "electric_scooter", "lon": -77.04365483333333, "bike_id": "be1406f25b737fc69fa14b575a6d5b24", "fusion_lat": 0.0, "name": "be1406f25b737fc69fa14b575a6d5b24", "is_reserved": 0, "rental_uris": {"android": "https://dc.lft.to/lastmile_qr_scan", "ios": "https://dc.lft.to/lastmile_qr_scan"}, "fusion_lon": 0.0}, {"lat": 38.89006533333333, "is_disabled": 0, "type": "electric_scooter", "lon": -76.93748983333333, "bike_id": "f57046f4041d346ee1d22dfe0394001b", "fusion_lat": 0.0, "name": "f57046f4041d346ee1d22dfe0394001b", "is_reserved": 0, "rental_uris": {"android": "https://dc.lft.to/lastmile_qr_scan", "ios": "https://dc.lft.to/lastmile_qr_scan"}, "fusion_lon": 0.0}, {"lat": 38.945056, "is_disabled": 0, "type": "electric_bike", "lon": -77.00673783333333, "bike_id": "524d239eb790cfd6d73cc725050319b0", "fusion_lat": 0.0, "name": "524d239eb790cfd6d73cc725050319b0", "is_reserved": 0, "rental_uris": {"android": "https://dc.lft.to/lastmile_qr_scan", "ios": "https://dc.lft.to/lastmile_qr_scan"}, "fusion_lon": 0.0}, {"lat": 38.928339333333334, "is_disabled": 0, "type": "electric_scooter", "lon": -76.998532, "bike_id": "f42964aabc48a1e23f7eb520f7407eaf", "fusion_lat": 0.0, "name": "f42964aabc48a1e23f7eb520f7407eaf", "is_reserved": 0, "rental_uris": {"android": "https://dc.lft.to/lastmile_qr_scan", "ios": "https://dc.lft.to/lastmile_qr_scan"}, "fusion_lon": 0.0}, {"lat": 38.936127666666664, "is_disabled": 0, "type": "electric_scooter", "lon": -77.05752433333333, "bike_id": "d66e3dc01a5bdc3b2b0147039b4500db", "fusion_lat": 0.0, "name": "d66e3dc01a5bdc3b2b0147039b4500db", "is_reserved": 0, "rental_uris": {"android": "https://dc.lft.to/lastmile_qr_scan", "ios": "https://dc.lft.to/lastmile_qr_scan"}, "fusion_lon": 0.0}, {"lat": 38.89921916666667, "is_disabled": 0, "type": "electric_scooter", "lon": -77.05420633333334, "bike_id": "64899e58b02f5be82f675710c2406d86", "fusion_lat": 0.0, "name": "64899e58b02f5be82f675710c2406d86", "is_reserved": 0, "rental_uris": {"android": "https://dc.lft.to/lastmile_qr_scan", "ios": "https://dc.lft.to/lastmile_qr_scan"}, "fusion_lon": 0.0}, {"lat": 38.905753, "is_disabled": 0, "type": "electric_scooter", "lon": -77.0344705, "bike_id": "2014ea3cf6ea487550ff946739291a8e", "fusion_lat": 0.0, "name": "2014ea3cf6ea487550ff946739291a8e", "is_reserved": 0, "rental_uris": {"android": "https://dc.lft.to/lastmile_qr_scan", "ios": "https://dc.lft.to/lastmile_qr_scan"}, "fusion_lon": 0.0}, {"lat": 38.943250666666664, "is_disabled": 0, "type": "electric_scooter", "lon": -77.07379716666667, "bike_id": "b013cb9a33e2ad948545fc07985c7f03", "fusion_lat": 0.0, "name": "b013cb9a33e2ad948545fc07985c7f03", "is_reserved": 0, "rental_uris": {"android": "https://dc.lft.to/lastmile_qr_scan", "ios": "https://dc.lft.to/lastmile_qr_scan"}, "fusion_lon": 0.0}, {"lat": 38.89386833333333, "is_disabled": 0, "type": "electric_scooter", "lon": -77.02168816666666, "bike_id": "3110667782567e8b86de7bdcc92196e4", "fusion_lat": 0.0, "name": "3110667782567e8b86de7bdcc92196e4", "is_reserved": 0, "rental_uris": {"android": "https://dc.lft.to/lastmile_qr_scan", "ios": "https://dc.lft.to/lastmile_qr_scan"}, "fusion_lon": 0.0}, {"lat": 38.957790333333335, "is_disabled": 0, "type": "electric_scooter", "lon": -77.02468666666667, "bike_id": "4c5665ffd8d0dbef54e685748b18ea2c", "fusion_lat": 0.0, "name": "4c5665ffd8d0dbef54e685748b18ea2c", "is_reserved": 0, "rental_uris": {"android": "https://dc.lft.to/lastmile_qr_scan", "ios": "https://dc.lft.to/lastmile_qr_scan"}, "fusion_lon": 0.0}, {"lat": 38.9268015, "is_disabled": 0, "type": "electric_scooter", "lon": -77.05108383333334, "bike_id": "03ca2bbe0236985e69c1fce5b13b5ee7", "fusion_lat": 0.0, "name": "03ca2bbe0236985e69c1fce5b13b5ee7", "is_reserved": 0, "rental_uris": {"android": "https://dc.lft.to/lastmile_qr_scan", "ios": "https://dc.lft.to/lastmile_qr_scan"}, "fusion_lon": 0.0}, {"lat": 38.8991535, "is_disabled": 0, "type": "electric_scooter", "lon": -76.93383916666667, "bike_id": "0d442af41414122cb0353e3866f7ec6e", "fusion_lat": 0.0, "name": "0d442af41414122cb0353e3866f7ec6e", "is_reserved": 0, "rental_uris": {"android": "https://dc.lft.to/lastmile_qr_scan", "ios": "https://dc.lft.to/lastmile_qr_scan"}, "fusion_lon": 0.0}, {"lat": 38.9064025, "is_disabled": 0, "type": "electric_scooter", "lon": -77.03848666666667, "bike_id": "09700c3981ba8b4de2efa6e74e76cc90", "fusion_lat": 0.0, "name": "09700c3981ba8b4de2efa6e74e76cc90", "is_reserved": 0, "rental_uris": {"android": "https://dc.lft.to/lastmile_qr_scan", "ios": "https://dc.lft.to/lastmile_qr_scan"}, "fusion_lon": 0.0}, {"lat": 38.90217483333333, "is_disabled": 0, "type": "electric_scooter", "lon": -77.01637583333333, "bike_id": "ae045ff82a55ddbbe508a4450edcddc5", "fusion_lat": 0.0, "name": "ae045ff82a55ddbbe508a4450edcddc5", "is_reserved": 0, "rental_uris": {"android": "https://dc.lft.to/lastmile_qr_scan", "ios": "https://dc.lft.to/lastmile_qr_scan"}, "fusion_lon": 0.0}, {"lat": 38.955511666666666, "is_disabled": 0, "type": "electric_bike", "lon": -76.93544116666666, "bike_id": "cc2139fabe8f2f87c440881cc9b3893a", "fusion_lat": 0.0, "name": "cc2139fabe8f2f87c440881cc9b3893a", "is_reserved": 0, "rental_uris": {"android": "https://dc.lft.to/lastmile_qr_scan", "ios": "https://dc.lft.to/lastmile_qr_scan"}, "fusion_lon": 0.0}, {"lat": 38.842927333333336, "is_disabled": 0, "type": "electric_scooter", "lon": -76.99949733333334, "bike_id": "e991d54f69ca309314f924f488e1ad31", "fusion_lat": 0.0, "name": "e991d54f69ca309314f924f488e1ad31", "is_reserved": 0, "rental_uris": {"android": "https://dc.lft.to/lastmile_qr_scan", "ios": "https://dc.lft.to/lastmile_qr_scan"}, "fusion_lon": 0.0}, {"lat": 38.93705033333333, "is_disabled": 0, "type": "electric_bike", "lon": -77.02535133333333, "bike_id": "a9a2c71c54a5f661a75bca2c4d7aff68", "fusion_lat": 0.0, "name": "a9a2c71c54a5f661a75bca2c4d7aff68", "is_reserved": 0, "rental_uris": {"android": "https://dc.lft.to/lastmile_qr_scan", "ios": "https://dc.lft.to/lastmile_qr_scan"}, "fusion_lon": 0.0}, {"lat": 38.86346, "is_disabled": 0, "type": "electric_scooter", "lon": -76.99008966666666, "bike_id": "3b56e104eb37594225720e92c322aa0c", "fusion_lat": 0.0, "name": "3b56e104eb37594225720e92c322aa0c", "is_reserved": 0, "rental_uris": {"android": "https://dc.lft.to/lastmile_qr_scan", "ios": "https://dc.lft.to/lastmile_qr_scan"}, "fusion_lon": 0.0}, {"lat": 38.881284, "is_disabled": 0, "type": "electric_bike", "lon": -77.02708983333333, "bike_id": "1629f1aa9066f80d13de987599220df8", "fusion_lat": 0.0, "name": "1629f1aa9066f80d13de987599220df8", "is_reserved": 0, "rental_uris": {"android": "https://dc.lft.to/lastmile_qr_scan", "ios": "https://dc.lft.to/lastmile_qr_scan"}, "fusion_lon": 0.0}, {"lat": 38.912692, "is_disabled": 0, "type": "electric_scooter", "lon": -77.01308616666667, "bike_id": "8e4ff537b6384f67f5d97720492db7a7", "fusion_lat": 0.0, "name": "8e4ff537b6384f67f5d97720492db7a7", "is_reserved": 0, "rental_uris": {"android": "https://dc.lft.to/lastmile_qr_scan", "ios": "https://dc.lft.to/lastmile_qr_scan"}, "fusion_lon": 0.0}, {"lat": 38.911190833333336, "is_disabled": 0, "type": "electric_scooter", "lon": -77.0383075, "bike_id": "fd2aaefeeb9aed7e54b22b4494a3909c", "fusion_lat": 0.0, "name": "fd2aaefeeb9aed7e54b22b4494a3909c", "is_reserved": 0, "rental_uris": {"android": "https://dc.lft.to/lastmile_qr_scan", "ios": "https://dc.lft.to/lastmile_qr_scan"}, "fusion_lon": 0.0}, {"lat": 38.896817666666664, "is_disabled": 0, "type": "electric_scooter", "lon": -77.019679, "bike_id": "185826b0b1febd90d8f8a59b19799895", "fusion_lat": 0.0, "name": "185826b0b1febd90d8f8a59b19799895", "is_reserved": 0, "rental_uris": {"android": "https://dc.lft.to/lastmile_qr_scan", "ios": "https://dc.lft.to/lastmile_qr_scan"}, "fusion_lon": 0.0}, {"lat": 38.88422116666667, "is_disabled": 0, "type": "electric_scooter", "lon": -77.03048066666666, "bike_id": "4672585a35218aabe6cc3d50ee24af6d", "fusion_lat": 0.0, "name": "4672585a35218aabe6cc3d50ee24af6d", "is_reserved": 0, "rental_uris": {"android": "https://dc.lft.to/lastmile_qr_scan", "ios": "https://dc.lft.to/lastmile_qr_scan"}, "fusion_lon": 0.0}, {"lat": 39.01594016666667, "is_disabled": 0, "type": "electric_bike", "lon": -77.0442905, "bike_id": "ad0be69d8f00ce78035e176697f03f2d", "fusion_lat": 0.0, "name": "ad0be69d8f00ce78035e176697f03f2d", "is_reserved": 0, "rental_uris": {"android": "https://dc.lft.to/lastmile_qr_scan", "ios": "https://dc.lft.to/lastmile_qr_scan"}, "fusion_lon": 0.0}, {"lat": 38.90148, "is_disabled": 0, "type": "electric_scooter", "lon": -77.01810866666666, "bike_id": "92b127e8417b61930a94d7d20428efe7", "fusion_lat": 0.0, "name": "92b127e8417b61930a94d7d20428efe7", "is_reserved": 0, "rental_uris": {"android": "https://dc.lft.to/lastmile_qr_scan", "ios": "https://dc.lft.to/lastmile_qr_scan"}, "fusion_lon": 0.0}, {"lat": 38.910799, "is_disabled": 0, "type": "electric_scooter", "lon": -77.07642066666666, "bike_id": "7ee8b01b23ad580c46299abf33792627", "fusion_lat": 0.0, "name": "7ee8b01b23ad580c46299abf33792627", "is_reserved": 0, "rental_uris": {"android": "https://dc.lft.to/lastmile_qr_scan", "ios": "https://dc.lft.to/lastmile_qr_scan"}, "fusion_lon": 0.0}, {"lat": 38.948053333333334, "is_disabled": 0, "type": "electric_scooter", "lon": -77.07909383333333, "bike_id": "e2f5ed6cf3c90d8ed3291317557930e8", "fusion_lat": 0.0, "name": "e2f5ed6cf3c90d8ed3291317557930e8", "is_reserved": 0, "rental_uris": {"android": "https://dc.lft.to/lastmile_qr_scan", "ios": "https://dc.lft.to/lastmile_qr_scan"}, "fusion_lon": 0.0}, {"lat": 38.89121883333333, "is_disabled": 0, "type": "electric_scooter", "lon": -76.94092216666667, "bike_id": "9e8b4ce154ea1d3b9c395b0eb42206d9", "fusion_lat": 0.0, "name": "9e8b4ce154ea1d3b9c395b0eb42206d9", "is_reserved": 0, "rental_uris": {"android": "https://dc.lft.to/lastmile_qr_scan", "ios": "https://dc.lft.to/lastmile_qr_scan"}, "fusion_lon": 0.0}, {"lat": 38.900084, "is_disabled": 0, "type": "electric_scooter", "lon": -76.99856566666666, "bike_id": "9a3886c4659bbcc873bc02886872be2e", "fusion_lat": 0.0, "name": "9a3886c4659bbcc873bc02886872be2e", "is_reserved": 0, "rental_uris": {"android": "https://dc.lft.to/lastmile_qr_scan", "ios": "https://dc.lft.to/lastmile_qr_scan"}, "fusion_lon": 0.0}, {"lat": 38.90459116666667, "is_disabled": 0, "type": "electric_scooter", "lon": -77.03230983333333, "bike_id": "dbe9e2b535149961e49bd5f4c3116401", "fusion_lat": 0.0, "name": "dbe9e2b535149961e49bd5f4c3116401", "is_reserved": 0, "rental_uris": {"android": "https://dc.lft.to/lastmile_qr_scan", "ios": "https://dc.lft.to/lastmile_qr_scan"}, "fusion_lon": 0.0}, {"lat": 38.93544583333333, "is_disabled": 0, "type": "electric_scooter", "lon": -77.0341705, "bike_id": "8f2ca4b2c602723214bc8251fb3495ae", "fusion_lat": 0.0, "name": "8f2ca4b2c602723214bc8251fb3495ae", "is_reserved": 0, "rental_uris": {"android": "https://dc.lft.to/lastmile_qr_scan", "ios": "https://dc.lft.to/lastmile_qr_scan"}, "fusion_lon": 0.0}, {"lat": 38.9051335, "is_disabled": 0, "type": "electric_scooter", "lon": -77.06879583333334, "bike_id": "eadb00af7128965f5b8e2a3fbce96401", "fusion_lat": 0.0, "name": "eadb00af7128965f5b8e2a3fbce96401", "is_reserved": 0, "rental_uris": {"android": "https://dc.lft.to/lastmile_qr_scan", "ios": "https://dc.lft.to/lastmile_qr_scan"}, "fusion_lon": 0.0}, {"lat": 38.933367, "is_disabled": 0, "type": "electric_scooter", "lon": -77.057142, "bike_id": "f423feef2059f731e14c54a303192a4f", "fusion_lat": 0.0, "name": "f423feef2059f731e14c54a303192a4f", "is_reserved": 0, "rental_uris": {"android": "https://dc.lft.to/lastmile_qr_scan", "ios": "https://dc.lft.to/lastmile_qr_scan"}, "fusion_lon": 0.0}, {"lat": 38.91125366666667, "is_disabled": 0, "type": "electric_scooter", "lon": -77.02198516666667, "bike_id": "6b12912299e883bb7ec02c38f0675aab", "fusion_lat": 0.0, "name": "6b12912299e883bb7ec02c38f0675aab", "is_reserved": 0, "rental_uris": {"android": "https://dc.lft.to/lastmile_qr_scan", "ios": "https://dc.lft.to/lastmile_qr_scan"}, "fusion_lon": 0.0}, {"lat": 38.91970766666667, "is_disabled": 0, "type": "electric_scooter", "lon": -77.0431535, "bike_id": "3c9bf30c4c8a7306291b6c8edf36d062", "fusion_lat": 0.0, "name": "3c9bf30c4c8a7306291b6c8edf36d062", "is_reserved": 0, "rental_uris": {"android": "https://dc.lft.to/lastmile_qr_scan", "ios": "https://dc.lft.to/lastmile_qr_scan"}, "fusion_lon": 0.0}, {"lat": 38.93888533333333, "is_disabled": 0, "type": "electric_scooter", "lon": -77.0282375, "bike_id": "7a997161b338def6b0edca76c8bc5609", "fusion_lat": 0.0, "name": "7a997161b338def6b0edca76c8bc5609", "is_reserved": 0, "rental_uris": {"android": "https://dc.lft.to/lastmile_qr_scan", "ios": "https://dc.lft.to/lastmile_qr_scan"}, "fusion_lon": 0.0}, {"lat": 38.873389, "is_disabled": 0, "type": "electric_scooter", "lon": -76.99166483333333, "bike_id": "b1f8ed8145809ecd384c0258892fddf1", "fusion_lat": 0.0, "name": "b1f8ed8145809ecd384c0258892fddf1", "is_reserved": 0, "rental_uris": {"android": "https://dc.lft.to/lastmile_qr_scan", "ios": "https://dc.lft.to/lastmile_qr_scan"}, "fusion_lon": 0.0}, {"lat": 38.900406, "is_disabled": 0, "type": "electric_scooter", "lon": -77.02696266666666, "bike_id": "91d8e74e6e3bdadbd06c16df3cae1a23", "fusion_lat": 0.0, "name": "91d8e74e6e3bdadbd06c16df3cae1a23", "is_reserved": 0, "rental_uris": {"android": "https://dc.lft.to/lastmile_qr_scan", "ios": "https://dc.lft.to/lastmile_qr_scan"}, "fusion_lon": 0.0}, {"lat": 38.9443805, "is_disabled": 0, "type": "electric_scooter", "lon": -77.06354616666667, "bike_id": "f7481de5d7478c7962938780d3815c46", "fusion_lat": 0.0, "name": "f7481de5d7478c7962938780d3815c46", "is_reserved": 0, "rental_uris": {"android": "https://dc.lft.to/lastmile_qr_scan", "ios": "https://dc.lft.to/lastmile_qr_scan"}, "fusion_lon": 0.0}, {"lat": 38.91552216666667, "is_disabled": 0, "type": "electric_scooter", "lon": -77.04155283333333, "bike_id": "4040b618fc19936888d1af18c66e5a6e", "fusion_lat": 0.0, "name": "4040b618fc19936888d1af18c66e5a6e", "is_reserved": 0, "rental_uris": {"android": "https://dc.lft.to/lastmile_qr_scan", "ios": "https://dc.lft.to/lastmile_qr_scan"}, "fusion_lon": 0.0}, {"lat": 38.90492016666666, "is_disabled": 0, "type": "electric_scooter", "lon": -77.01995466666666, "bike_id": "8a5d2f6b120cd7373b138751ee6f5b23", "fusion_lat": 0.0, "name": "8a5d2f6b120cd7373b138751ee6f5b23", "is_reserved": 0, "rental_uris": {"android": "https://dc.lft.to/lastmile_qr_scan", "ios": "https://dc.lft.to/lastmile_qr_scan"}, "fusion_lon": 0.0}, {"lat": 38.909137, "is_disabled": 0, "type": "electric_scooter", "lon": -77.03643966666667, "bike_id": "ffa2247b8e3cdfa8c7298711f2b51b6a", "fusion_lat": 0.0, "name": "ffa2247b8e3cdfa8c7298711f2b51b6a", "is_reserved": 0, "rental_uris": {"android": "https://dc.lft.to/lastmile_qr_scan", "ios": "https://dc.lft.to/lastmile_qr_scan"}, "fusion_lon": 0.0}, {"lat": 38.883792666666665, "is_disabled": 0, "type": "electric_scooter", "lon": -77.018935, "bike_id": "8928e6c7eb732dca2b58f85f3c8d25f7", "fusion_lat": 0.0, "name": "8928e6c7eb732dca2b58f85f3c8d25f7", "is_reserved": 0, "rental_uris": {"android": "https://dc.lft.to/lastmile_qr_scan", "ios": "https://dc.lft.to/lastmile_qr_scan"}, "fusion_lon": 0.0}, {"lat": 38.904902666666665, "is_disabled": 0, "type": "electric_scooter", "lon": -76.987086, "bike_id": "ca17e383477319d56fe1af0c003f9ca1", "fusion_lat": 0.0, "name": "ca17e383477319d56fe1af0c003f9ca1", "is_reserved": 0, "rental_uris": {"android": "https://dc.lft.to/lastmile_qr_scan", "ios": "https://dc.lft.to/lastmile_qr_scan"}, "fusion_lon": 0.0}, {"lat": 38.911621833333335, "is_disabled": 0, "type": "electric_scooter", "lon": -77.0414795, "bike_id": "e7c740eec63d78669d755ee1c3f5a084", "fusion_lat": 0.0, "name": "e7c740eec63d78669d755ee1c3f5a084", "is_reserved": 0, "rental_uris": {"android": "https://dc.lft.to/lastmile_qr_scan", "ios": "https://dc.lft.to/lastmile_qr_scan"}, "fusion_lon": 0.0}, {"lat": 38.91239, "is_disabled": 0, "type": "electric_scooter", "lon": -77.00205416666667, "bike_id": "b6f2f817b3f74ff3d072306c40378993", "fusion_lat": 0.0, "name": "b6f2f817b3f74ff3d072306c40378993", "is_reserved": 0, "rental_uris": {"android": "https://dc.lft.to/lastmile_qr_scan", "ios": "https://dc.lft.to/lastmile_qr_scan"}, "fusion_lon": 0.0}, {"lat": 38.868848666666665, "is_disabled": 0, "type": "electric_scooter", "lon": -76.983151, "bike_id": "912ce46617f2995e1eccf3bd653d4b60", "fusion_lat": 0.0, "name": "912ce46617f2995e1eccf3bd653d4b60", "is_reserved": 0, "rental_uris": {"android": "https://dc.lft.to/lastmile_qr_scan", "ios": "https://dc.lft.to/lastmile_qr_scan"}, "fusion_lon": 0.0}, {"lat": 38.933454, "is_disabled": 0, "type": "electric_scooter", "lon": -77.05700716666666, "bike_id": "412ec90dfd7fc834f71b8fd99f402724", "fusion_lat": 0.0, "name": "412ec90dfd7fc834f71b8fd99f402724", "is_reserved": 0, "rental_uris": {"android": "https://dc.lft.to/lastmile_qr_scan", "ios": "https://dc.lft.to/lastmile_qr_scan"}, "fusion_lon": 0.0}, {"lat": 38.920047833333335, "is_disabled": 0, "type": "electric_scooter", "lon": -77.031788, "bike_id": "5aa655fc6683fec7dc1fda1c56d3a04d", "fusion_lat": 0.0, "name": "5aa655fc6683fec7dc1fda1c56d3a04d", "is_reserved": 0, "rental_uris": {"android": "https://dc.lft.to/lastmile_qr_scan", "ios": "https://dc.lft.to/lastmile_qr_scan"}, "fusion_lon": 0.0}, {"lat": 38.896122166666665, "is_disabled": 0, "type": "electric_scooter", "lon": -76.9559865, "bike_id": "42875a977f209e693c025fe081dd0acc", "fusion_lat": 0.0, "name": "42875a977f209e693c025fe081dd0acc", "is_reserved": 0, "rental_uris": {"android": "https://dc.lft.to/lastmile_qr_scan", "ios": "https://dc.lft.to/lastmile_qr_scan"}, "fusion_lon": 0.0}, {"lat": 38.91900583333333, "is_disabled": 0, "type": "electric_scooter", "lon": -77.03906783333333, "bike_id": "85d3f7dc9c0e4c9379d18aeeaeb15b04", "fusion_lat": 0.0, "name": "85d3f7dc9c0e4c9379d18aeeaeb15b04", "is_reserved": 0, "rental_uris": {"android": "https://dc.lft.to/lastmile_qr_scan", "ios": "https://dc.lft.to/lastmile_qr_scan"}, "fusion_lon": 0.0}, {"lat": 38.902614166666666, "is_disabled": 0, "type": "electric_scooter", "lon": -77.01755183333333, "bike_id": "eb2ad1314525d3fcf0dd5c29717323c5", "fusion_lat": 0.0, "name": "eb2ad1314525d3fcf0dd5c29717323c5", "is_reserved": 0, "rental_uris": {"android": "https://dc.lft.to/lastmile_qr_scan", "ios": "https://dc.lft.to/lastmile_qr_scan"}, "fusion_lon": 0.0}, {"lat": 38.917092333333336, "is_disabled": 0, "type": "electric_scooter", "lon": -77.03866733333334, "bike_id": "d28ac67e1e6a0f883ebc0fbe5e6868c2", "fusion_lat": 0.0, "name": "d28ac67e1e6a0f883ebc0fbe5e6868c2", "is_reserved": 0, "rental_uris": {"android": "https://dc.lft.to/lastmile_qr_scan", "ios": "https://dc.lft.to/lastmile_qr_scan"}, "fusion_lon": 0.0}, {"lat": 38.913936, "is_disabled": 0, "type": "electric_scooter", "lon": -77.03064516666667, "bike_id": "0ae3cb96f30abea8e8a8d7a0c3c71d12", "fusion_lat": 0.0, "name": "0ae3cb96f30abea8e8a8d7a0c3c71d12", "is_reserved": 0, "rental_uris": {"android": "https://dc.lft.to/lastmile_qr_scan", "ios": "https://dc.lft.to/lastmile_qr_scan"}, "fusion_lon": 0.0}, {"lat": 38.902323333333335, "is_disabled": 0, "type": "electric_scooter", "lon": -77.0470435, "bike_id": "b40c3c4e7d78ea36155f1ce42f756382", "fusion_lat": 0.0, "name": "b40c3c4e7d78ea36155f1ce42f756382", "is_reserved": 0, "rental_uris": {"android": "https://dc.lft.to/lastmile_qr_scan", "ios": "https://dc.lft.to/lastmile_qr_scan"}, "fusion_lon": 0.0}, {"lat": 38.90450233333333, "is_disabled": 0, "type": "electric_scooter", "lon": -77.00778516666666, "bike_id": "a388ad721a8e76ea6d485a30f47750c7", "fusion_lat": 0.0, "name": "a388ad721a8e76ea6d485a30f47750c7", "is_reserved": 0, "rental_uris": {"android": "https://dc.lft.to/lastmile_qr_scan", "ios": "https://dc.lft.to/lastmile_qr_scan"}, "fusion_lon": 0.0}, {"lat": 38.910536666666665, "is_disabled": 0, "type": "electric_scooter", "lon": -77.045723, "bike_id": "374d29a5e38f2f602635f3db00141a4f", "fusion_lat": 0.0, "name": "374d29a5e38f2f602635f3db00141a4f", "is_reserved": 0, "rental_uris": {"android": "https://dc.lft.to/lastmile_qr_scan", "ios": "https://dc.lft.to/lastmile_qr_scan"}, "fusion_lon": 0.0}, {"lat": 38.9013985, "is_disabled": 0, "type": "electric_scooter", "lon": -77.0418045, "bike_id": "3983e44c47125fa8313c16290baaf1f9", "fusion_lat": 0.0, "name": "3983e44c47125fa8313c16290baaf1f9", "is_reserved": 0, "rental_uris": {"android": "https://dc.lft.to/lastmile_qr_scan", "ios": "https://dc.lft.to/lastmile_qr_scan"}, "fusion_lon": 0.0}, {"lat": 38.924243, "is_disabled": 0, "type": "electric_scooter", "lon": -77.03552683333334, "bike_id": "3388252c370598a19c1791ae2ba49ecd", "fusion_lat": 0.0, "name": "3388252c370598a19c1791ae2ba49ecd", "is_reserved": 0, "rental_uris": {"android": "https://dc.lft.to/lastmile_qr_scan", "ios": "https://dc.lft.to/lastmile_qr_scan"}, "fusion_lon": 0.0}, {"lat": 38.8866075, "is_disabled": 0, "type": "electric_bike", "lon": -77.16233416666667, "bike_id": "92e28fb7829b4fb0139ff5f3662ed100", "fusion_lat": 0.0, "name": "92e28fb7829b4fb0139ff5f3662ed100", "is_reserved": 0, "rental_uris": {"android": "https://dc.lft.to/lastmile_qr_scan", "ios": "https://dc.lft.to/lastmile_qr_scan"}, "fusion_lon": 0.0}, {"lat": 38.900090166666665, "is_disabled": 0, "type": "electric_scooter", "lon": -76.99869166666667, "bike_id": "029fe76ad8b99ffcb4c3c2f1447584a9", "fusion_lat": 0.0, "name": "029fe76ad8b99ffcb4c3c2f1447584a9", "is_reserved": 0, "rental_uris": {"android": "https://dc.lft.to/lastmile_qr_scan", "ios": "https://dc.lft.to/lastmile_qr_scan"}, "fusion_lon": 0.0}, {"lat": 38.94273866666666, "is_disabled": 0, "type": "electric_scooter", "lon": -77.03255866666667, "bike_id": "e0b7f1122e58d119da46b63f3a09de9e", "fusion_lat": 0.0, "name": "e0b7f1122e58d119da46b63f3a09de9e", "is_reserved": 0, "rental_uris": {"android": "https://dc.lft.to/lastmile_qr_scan", "ios": "https://dc.lft.to/lastmile_qr_scan"}, "fusion_lon": 0.0}, {"lat": 38.926305666666664, "is_disabled": 0, "type": "electric_scooter", "lon": -77.036137, "bike_id": "5a5a46f332f241f70210bf794972947d", "fusion_lat": 0.0, "name": "5a5a46f332f241f70210bf794972947d", "is_reserved": 0, "rental_uris": {"android": "https://dc.lft.to/lastmile_qr_scan", "ios": "https://dc.lft.to/lastmile_qr_scan"}, "fusion_lon": 0.0}, {"lat": 38.8885985, "is_disabled": 0, "type": "electric_scooter", "lon": -76.97738733333334, "bike_id": "a902e6368e11992bae0f532a4a6f84e4", "fusion_lat": 0.0, "name": "a902e6368e11992bae0f532a4a6f84e4", "is_reserved": 0, "rental_uris": {"android": "https://dc.lft.to/lastmile_qr_scan", "ios": "https://dc.lft.to/lastmile_qr_scan"}, "fusion_lon": 0.0}, {"lat": 38.855169, "is_disabled": 0, "type": "electric_bike", "lon": -76.98422, "bike_id": "900fe94bcffab5b0ab02d1dd7369f1c5", "fusion_lat": 0.0, "name": "900fe94bcffab5b0ab02d1dd7369f1c5", "is_reserved": 0, "rental_uris": {"android": "https://dc.lft.to/lastmile_qr_scan", "ios": "https://dc.lft.to/lastmile_qr_scan"}, "fusion_lon": 0.0}, {"lat": 38.856834, "is_disabled": 0, "type": "electric_scooter", "lon": -76.981624, "bike_id": "0e5990d83c5802d9d0c583ac61561347", "fusion_lat": 0.0, "name": "0e5990d83c5802d9d0c583ac61561347", "is_reserved": 0, "rental_uris": {"android": "https://dc.lft.to/lastmile_qr_scan", "ios": "https://dc.lft.to/lastmile_qr_scan"}, "fusion_lon": 0.0}, {"lat": 38.9383915, "is_disabled": 0, "type": "electric_scooter", "lon": -77.02592433333334, "bike_id": "98553816a7d8bd9aa0905dd356888f90", "fusion_lat": 0.0, "name": "98553816a7d8bd9aa0905dd356888f90", "is_reserved": 0, "rental_uris": {"android": "https://dc.lft.to/lastmile_qr_scan", "ios": "https://dc.lft.to/lastmile_qr_scan"}, "fusion_lon": 0.0}, {"lat": 38.938215166666666, "is_disabled": 0, "type": "electric_bike", "lon": -77.02646716666666, "bike_id": "f4a1e49dc31dfe9c3aadacab84ac6842", "fusion_lat": 0.0, "name": "f4a1e49dc31dfe9c3aadacab84ac6842", "is_reserved": 0, "rental_uris": {"android": "https://dc.lft.to/lastmile_qr_scan", "ios": "https://dc.lft.to/lastmile_qr_scan"}, "fusion_lon": 0.0}, {"lat": 38.90563266666667, "is_disabled": 0, "type": "electric_scooter", "lon": -77.06271816666667, "bike_id": "e702180d4236434d2291008eb38ab911", "fusion_lat": 0.0, "name": "e702180d4236434d2291008eb38ab911", "is_reserved": 0, "rental_uris": {"android": "https://dc.lft.to/lastmile_qr_scan", "ios": "https://dc.lft.to/lastmile_qr_scan"}, "fusion_lon": 0.0}, {"lat": 38.8372725, "is_disabled": 0, "type": "electric_bike", "lon": -76.9975615, "bike_id": "029383be2258338225421ee0c057457c", "fusion_lat": 0.0, "name": "029383be2258338225421ee0c057457c", "is_reserved": 0, "rental_uris": {"android": "https://dc.lft.to/lastmile_qr_scan", "ios": "https://dc.lft.to/lastmile_qr_scan"}, "fusion_lon": 0.0}, {"lat": 38.88994366666667, "is_disabled": 0, "type": "electric_scooter", "lon": -76.955683, "bike_id": "01e1e48a8c299b3afa3b177b328dac97", "fusion_lat": 0.0, "name": "01e1e48a8c299b3afa3b177b328dac97", "is_reserved": 0, "rental_uris": {"android": "https://dc.lft.to/lastmile_qr_scan", "ios": "https://dc.lft.to/lastmile_qr_scan"}, "fusion_lon": 0.0}, {"lat": 38.93419266666667, "is_disabled": 0, "type": "electric_scooter", "lon": -77.04138066666667, "bike_id": "7a50a7034d13b8a2d48bc1a279c338ac", "fusion_lat": 0.0, "name": "7a50a7034d13b8a2d48bc1a279c338ac", "is_reserved": 0, "rental_uris": {"android": "https://dc.lft.to/lastmile_qr_scan", "ios": "https://dc.lft.to/lastmile_qr_scan"}, "fusion_lon": 0.0}, {"lat": 38.916138333333336, "is_disabled": 0, "type": "electric_scooter", "lon": -77.02548566666667, "bike_id": "4f0c18c80f7d81b652055bbd0265593e", "fusion_lat": 0.0, "name": "4f0c18c80f7d81b652055bbd0265593e", "is_reserved": 0, "rental_uris": {"android": "https://dc.lft.to/lastmile_qr_scan", "ios": "https://dc.lft.to/lastmile_qr_scan"}, "fusion_lon": 0.0}, {"lat": 38.906740166666665, "is_disabled": 0, "type": "electric_scooter", "lon": -77.0717545, "bike_id": "67c5685c3d633ee36f034b6e6b109fde", "fusion_lat": 0.0, "name": "67c5685c3d633ee36f034b6e6b109fde", "is_reserved": 0, "rental_uris": {"android": "https://dc.lft.to/lastmile_qr_scan", "ios": "https://dc.lft.to/lastmile_qr_scan"}, "fusion_lon": 0.0}, {"lat": 38.88616533333333, "is_disabled": 0, "type": "electric_scooter", "lon": -77.00355216666667, "bike_id": "0b84fe57492819c69596d68340ad881f", "fusion_lat": 0.0, "name": "0b84fe57492819c69596d68340ad881f", "is_reserved": 0, "rental_uris": {"android": "https://dc.lft.to/lastmile_qr_scan", "ios": "https://dc.lft.to/lastmile_qr_scan"}, "fusion_lon": 0.0}, {"lat": 38.933566, "is_disabled": 0, "type": "electric_scooter", "lon": -77.07376916666666, "bike_id": "0ded5e4b3c90ff1ecb92d2cf9d1b0608", "fusion_lat": 0.0, "name": "0ded5e4b3c90ff1ecb92d2cf9d1b0608", "is_reserved": 0, "rental_uris": {"android": "https://dc.lft.to/lastmile_qr_scan", "ios": "https://dc.lft.to/lastmile_qr_scan"}, "fusion_lon": 0.0}, {"lat": 38.89981866666667, "is_disabled": 0, "type": "electric_bike", "lon": -76.98543633333334, "bike_id": "831ba1afb7579f2a3767aab372a5bf59", "fusion_lat": 0.0, "name": "831ba1afb7579f2a3767aab372a5bf59", "is_reserved": 0, "rental_uris": {"android": "https://dc.lft.to/lastmile_qr_scan", "ios": "https://dc.lft.to/lastmile_qr_scan"}, "fusion_lon": 0.0}, {"lat": 38.92320433333333, "is_disabled": 0, "type": "electric_scooter", "lon": -77.02961333333333, "bike_id": "d9e252470a736010eb8c4ca9e718a026", "fusion_lat": 0.0, "name": "d9e252470a736010eb8c4ca9e718a026", "is_reserved": 0, "rental_uris": {"android": "https://dc.lft.to/lastmile_qr_scan", "ios": "https://dc.lft.to/lastmile_qr_scan"}, "fusion_lon": 0.0}, {"lat": 38.929268, "is_disabled": 0, "type": "electric_scooter", "lon": -77.0325505, "bike_id": "64cbcb06a1fd6c778f1e63e603b63c97", "fusion_lat": 0.0, "name": "64cbcb06a1fd6c778f1e63e603b63c97", "is_reserved": 0, "rental_uris": {"android": "https://dc.lft.to/lastmile_qr_scan", "ios": "https://dc.lft.to/lastmile_qr_scan"}, "fusion_lon": 0.0}, {"lat": 38.93823483333333, "is_disabled": 0, "type": "electric_scooter", "lon": -77.06043983333333, "bike_id": "2e41e7301c540633f6ac0edc7efc7b4e", "fusion_lat": 0.0, "name": "2e41e7301c540633f6ac0edc7efc7b4e", "is_reserved": 0, "rental_uris": {"android": "https://dc.lft.to/lastmile_qr_scan", "ios": "https://dc.lft.to/lastmile_qr_scan"}, "fusion_lon": 0.0}, {"lat": 38.898385, "is_disabled": 0, "type": "electric_scooter", "lon": -76.931026, "bike_id": "e9101e86dd97a579907b49aa354006ea", "fusion_lat": 0.0, "name": "e9101e86dd97a579907b49aa354006ea", "is_reserved": 0, "rental_uris": {"android": "https://dc.lft.to/lastmile_qr_scan", "ios": "https://dc.lft.to/lastmile_qr_scan"}, "fusion_lon": 0.0}, {"lat": 38.89245566666666, "is_disabled": 0, "type": "electric_scooter", "lon": -77.0488975, "bike_id": "d9196d53bca75dfd41f04d537006ae6f", "fusion_lat": 0.0, "name": "d9196d53bca75dfd41f04d537006ae6f", "is_reserved": 0, "rental_uris": {"android": "https://dc.lft.to/lastmile_qr_scan", "ios": "https://dc.lft.to/lastmile_qr_scan"}, "fusion_lon": 0.0}, {"lat": 38.9022525, "is_disabled": 0, "type": "electric_scooter", "lon": -77.0534645, "bike_id": "8bda9919287abe79628e1cf8a43f76fa", "fusion_lat": 0.0, "name": "8bda9919287abe79628e1cf8a43f76fa", "is_reserved": 0, "rental_uris": {"android": "https://dc.lft.to/lastmile_qr_scan", "ios": "https://dc.lft.to/lastmile_qr_scan"}, "fusion_lon": 0.0}, {"lat": 38.9660275, "is_disabled": 0, "type": "electric_bike", "lon": -76.983359, "bike_id": "01b88e524fd4bbd2339573f29d959a46", "fusion_lat": 0.0, "name": "01b88e524fd4bbd2339573f29d959a46", "is_reserved": 0, "rental_uris": {"android": "https://dc.lft.to/lastmile_qr_scan", "ios": "https://dc.lft.to/lastmile_qr_scan"}, "fusion_lon": 0.0}, {"lat": 38.926639333333334, "is_disabled": 0, "type": "electric_scooter", "lon": -77.0559365, "bike_id": "810e1c00942e4ed0bd1ad5088f6d7165", "fusion_lat": 0.0, "name": "810e1c00942e4ed0bd1ad5088f6d7165", "is_reserved": 0, "rental_uris": {"android": "https://dc.lft.to/lastmile_qr_scan", "ios": "https://dc.lft.to/lastmile_qr_scan"}, "fusion_lon": 0.0}, {"lat": 38.92058016666667, "is_disabled": 0, "type": "electric_scooter", "lon": -77.0334455, "bike_id": "bdb2c4e7e8fe13dce64c239250530e2f", "fusion_lat": 0.0, "name": "bdb2c4e7e8fe13dce64c239250530e2f", "is_reserved": 0, "rental_uris": {"android": "https://dc.lft.to/lastmile_qr_scan", "ios": "https://dc.lft.to/lastmile_qr_scan"}, "fusion_lon": 0.0}, {"lat": 38.89556783333333, "is_disabled": 0, "type": "electric_scooter", "lon": -76.9336805, "bike_id": "f04bd272bb47c2e32f69d1ea96eaec1b", "fusion_lat": 0.0, "name": "f04bd272bb47c2e32f69d1ea96eaec1b", "is_reserved": 0, "rental_uris": {"android": "https://dc.lft.to/lastmile_qr_scan", "ios": "https://dc.lft.to/lastmile_qr_scan"}, "fusion_lon": 0.0}, {"lat": 38.90456833333333, "is_disabled": 0, "type": "electric_scooter", "lon": -77.00778183333334, "bike_id": "4608f5750f4edc37577d3a8b6886daff", "fusion_lat": 0.0, "name": "4608f5750f4edc37577d3a8b6886daff", "is_reserved": 0, "rental_uris": {"android": "https://dc.lft.to/lastmile_qr_scan", "ios": "https://dc.lft.to/lastmile_qr_scan"}, "fusion_lon": 0.0}, {"lat": 38.919652, "is_disabled": 0, "type": "electric_scooter", "lon": -77.039596, "bike_id": "598c93630273c0c944993173c79e460f", "fusion_lat": 0.0, "name": "598c93630273c0c944993173c79e460f", "is_reserved": 0, "rental_uris": {"android": "https://dc.lft.to/lastmile_qr_scan", "ios": "https://dc.lft.to/lastmile_qr_scan"}, "fusion_lon": 0.0}, {"lat": 38.79303616666667, "is_disabled": 0, "type": "electric_bike", "lon": -77.0492475, "bike_id": "7456c3ece87246b69dd750cfaae18e45", "fusion_lat": 0.0, "name": "7456c3ece87246b69dd750cfaae18e45", "is_reserved": 0, "rental_uris": {"android": "https://dc.lft.to/lastmile_qr_scan", "ios": "https://dc.lft.to/lastmile_qr_scan"}, "fusion_lon": 0.0}, {"lat": 38.902545333333336, "is_disabled": 0, "type": "electric_scooter", "lon": -77.03451983333333, "bike_id": "2a48ffad407a6bed38c3910ac7511922", "fusion_lat": 0.0, "name": "2a48ffad407a6bed38c3910ac7511922", "is_reserved": 0, "rental_uris": {"android": "https://dc.lft.to/lastmile_qr_scan", "ios": "https://dc.lft.to/lastmile_qr_scan"}, "fusion_lon": 0.0}, {"lat": 38.90459216666667, "is_disabled": 0, "type": "electric_scooter", "lon": -77.01786333333334, "bike_id": "2a5d46a5dfb696ce4679aebf3043d6ad", "fusion_lat": 0.0, "name": "2a5d46a5dfb696ce4679aebf3043d6ad", "is_reserved": 0, "rental_uris": {"android": "https://dc.lft.to/lastmile_qr_scan", "ios": "https://dc.lft.to/lastmile_qr_scan"}, "fusion_lon": 0.0}, {"lat": 38.90417033333333, "is_disabled": 0, "type": "electric_scooter", "lon": -77.04362633333334, "bike_id": "8b35f15f010a5ca76a42cbb1ac069620", "fusion_lat": 0.0, "name": "8b35f15f010a5ca76a42cbb1ac069620", "is_reserved": 0, "rental_uris": {"android": "https://dc.lft.to/lastmile_qr_scan", "ios": "https://dc.lft.to/lastmile_qr_scan"}, "fusion_lon": 0.0}, {"lat": 38.903633166666665, "is_disabled": 0, "type": "electric_scooter", "lon": -76.97651466666667, "bike_id": "c6b467f9ff34de04d423290eafe4505f", "fusion_lat": 0.0, "name": "c6b467f9ff34de04d423290eafe4505f", "is_reserved": 0, "rental_uris": {"android": "https://dc.lft.to/lastmile_qr_scan", "ios": "https://dc.lft.to/lastmile_qr_scan"}, "fusion_lon": 0.0}, {"lat": 38.880087333333336, "is_disabled": 0, "type": "electric_scooter", "lon": -76.93130066666667, "bike_id": "9ba2e2c5b3fc0ca872a5ea581de3d444", "fusion_lat": 0.0, "name": "9ba2e2c5b3fc0ca872a5ea581de3d444", "is_reserved": 0, "rental_uris": {"android": "https://dc.lft.to/lastmile_qr_scan", "ios": "https://dc.lft.to/lastmile_qr_scan"}, "fusion_lon": 0.0}, {"lat": 38.90200883333333, "is_disabled": 0, "type": "electric_scooter", "lon": -76.98844566666666, "bike_id": "d125cc8dbc9c557da0ead7ba60b02eb4", "fusion_lat": 0.0, "name": "d125cc8dbc9c557da0ead7ba60b02eb4", "is_reserved": 0, "rental_uris": {"android": "https://dc.lft.to/lastmile_qr_scan", "ios": "https://dc.lft.to/lastmile_qr_scan"}, "fusion_lon": 0.0}, {"lat": 38.946507, "is_disabled": 0, "type": "electric_scooter", "lon": -77.06487783333333, "bike_id": "de405b7507a8fe749dfd6fd90d053418", "fusion_lat": 0.0, "name": "de405b7507a8fe749dfd6fd90d053418", "is_reserved": 0, "rental_uris": {"android": "https://dc.lft.to/lastmile_qr_scan", "ios": "https://dc.lft.to/lastmile_qr_scan"}, "fusion_lon": 0.0}, {"lat": 38.915986833333335, "is_disabled": 0, "type": "electric_scooter", "lon": -77.023898, "bike_id": "defe76089d59f225d420c2817eaee64c", "fusion_lat": 0.0, "name": "defe76089d59f225d420c2817eaee64c", "is_reserved": 0, "rental_uris": {"android": "https://dc.lft.to/lastmile_qr_scan", "ios": "https://dc.lft.to/lastmile_qr_scan"}, "fusion_lon": 0.0}, {"lat": 38.965564666666666, "is_disabled": 0, "type": "electric_bike", "lon": -77.02298666666667, "bike_id": "8aaeeffbc9a074f58edb87b4b961af6c", "fusion_lat": 0.0, "name": "8aaeeffbc9a074f58edb87b4b961af6c", "is_reserved": 0, "rental_uris": {"android": "https://dc.lft.to/lastmile_qr_scan", "ios": "https://dc.lft.to/lastmile_qr_scan"}, "fusion_lon": 0.0}, {"lat": 38.908683333333336, "is_disabled": 0, "type": "electric_scooter", "lon": -77.046572, "bike_id": "8ee65dd373d5b217413ca39a30536816", "fusion_lat": 0.0, "name": "8ee65dd373d5b217413ca39a30536816", "is_reserved": 0, "rental_uris": {"android": "https://dc.lft.to/lastmile_qr_scan", "ios": "https://dc.lft.to/lastmile_qr_scan"}, "fusion_lon": 0.0}, {"lat": 38.919871, "is_disabled": 0, "type": "electric_scooter", "lon": -76.973058, "bike_id": "da352bdba204a0fce86e6e6a7456d076", "fusion_lat": 0.0, "name": "da352bdba204a0fce86e6e6a7456d076", "is_reserved": 0, "rental_uris": {"android": "https://dc.lft.to/lastmile_qr_scan", "ios": "https://dc.lft.to/lastmile_qr_scan"}, "fusion_lon": 0.0}, {"lat": 38.95008266666667, "is_disabled": 0, "type": "electric_scooter", "lon": -77.01567416666667, "bike_id": "fee8c8e39a90adec8f66defe5c393a17", "fusion_lat": 0.0, "name": "fee8c8e39a90adec8f66defe5c393a17", "is_reserved": 0, "rental_uris": {"android": "https://dc.lft.to/lastmile_qr_scan", "ios": "https://dc.lft.to/lastmile_qr_scan"}, "fusion_lon": 0.0}, {"lat": 38.92426966666667, "is_disabled": 0, "type": "electric_scooter", "lon": -77.05183666666667, "bike_id": "be319192bddeb46484d6808bb327abbc", "fusion_lat": 0.0, "name": "be319192bddeb46484d6808bb327abbc", "is_reserved": 0, "rental_uris": {"android": "https://dc.lft.to/lastmile_qr_scan", "ios": "https://dc.lft.to/lastmile_qr_scan"}, "fusion_lon": 0.0}, {"lat": 38.942019333333334, "is_disabled": 0, "type": "electric_scooter", "lon": -77.018289, "bike_id": "85e4c503beee872c6fa0abd9479b58e6", "fusion_lat": 0.0, "name": "85e4c503beee872c6fa0abd9479b58e6", "is_reserved": 0, "rental_uris": {"android": "https://dc.lft.to/lastmile_qr_scan", "ios": "https://dc.lft.to/lastmile_qr_scan"}, "fusion_lon": 0.0}, {"lat": 38.9204585, "is_disabled": 0, "type": "electric_scooter", "lon": -77.03294066666666, "bike_id": "dc130513eb85d353b5140dce3846d436", "fusion_lat": 0.0, "name": "dc130513eb85d353b5140dce3846d436", "is_reserved": 0, "rental_uris": {"android": "https://dc.lft.to/lastmile_qr_scan", "ios": "https://dc.lft.to/lastmile_qr_scan"}, "fusion_lon": 0.0}, {"lat": 38.9178055, "is_disabled": 0, "type": "electric_scooter", "lon": -77.02263033333334, "bike_id": "46ee1673fd2447e8bf3a8fef585134a4", "fusion_lat": 0.0, "name": "46ee1673fd2447e8bf3a8fef585134a4", "is_reserved": 0, "rental_uris": {"android": "https://dc.lft.to/lastmile_qr_scan", "ios": "https://dc.lft.to/lastmile_qr_scan"}, "fusion_lon": 0.0}, {"lat": 38.887470666666665, "is_disabled": 0, "type": "electric_scooter", "lon": -77.0149105, "bike_id": "84f5fea0ec5f3cc8f090fc3d4bb9237c", "fusion_lat": 0.0, "name": "84f5fea0ec5f3cc8f090fc3d4bb9237c", "is_reserved": 0, "rental_uris": {"android": "https://dc.lft.to/lastmile_qr_scan", "ios": "https://dc.lft.to/lastmile_qr_scan"}, "fusion_lon": 0.0}, {"lat": 38.88928633333333, "is_disabled": 0, "type": "electric_scooter", "lon": -76.97375466666666, "bike_id": "6aedf77e779d43c38007e4ba74fea930", "fusion_lat": 0.0, "name": "6aedf77e779d43c38007e4ba74fea930", "is_reserved": 0, "rental_uris": {"android": "https://dc.lft.to/lastmile_qr_scan", "ios": "https://dc.lft.to/lastmile_qr_scan"}, "fusion_lon": 0.0}, {"lat": 38.90636883333333, "is_disabled": 0, "type": "electric_scooter", "lon": -77.06279983333333, "bike_id": "c9421828f98a9d2ea6224b13c61cea52", "fusion_lat": 0.0, "name": "c9421828f98a9d2ea6224b13c61cea52", "is_reserved": 0, "rental_uris": {"android": "https://dc.lft.to/lastmile_qr_scan", "ios": "https://dc.lft.to/lastmile_qr_scan"}, "fusion_lon": 0.0}, {"lat": 38.9097135, "is_disabled": 0, "type": "electric_scooter", "lon": -77.03422166666667, "bike_id": "b2edb9e3246bab9f2a934aa1defda2b3", "fusion_lat": 0.0, "name": "b2edb9e3246bab9f2a934aa1defda2b3", "is_reserved": 0, "rental_uris": {"android": "https://dc.lft.to/lastmile_qr_scan", "ios": "https://dc.lft.to/lastmile_qr_scan"}, "fusion_lon": 0.0}, {"lat": 38.966993333333335, "is_disabled": 0, "type": "electric_bike", "lon": -77.10222516666667, "bike_id": "3072ab8bb4f3313dba386b8dcace10cf", "fusion_lat": 0.0, "name": "3072ab8bb4f3313dba386b8dcace10cf", "is_reserved": 0, "rental_uris": {"android": "https://dc.lft.to/lastmile_qr_scan", "ios": "https://dc.lft.to/lastmile_qr_scan"}, "fusion_lon": 0.0}, {"lat": 38.861569, "is_disabled": 0, "type": "electric_bike", "lon": -77.13093383333333, "bike_id": "5b3c4f5704be8584da7742f5a076706e", "fusion_lat": 0.0, "name": "5b3c4f5704be8584da7742f5a076706e", "is_reserved": 0, "rental_uris": {"android": "https://dc.lft.to/lastmile_qr_scan", "ios": "https://dc.lft.to/lastmile_qr_scan"}, "fusion_lon": 0.0}, {"lat": 38.90266716666667, "is_disabled": 0, "type": "electric_scooter", "lon": -77.01768766666666, "bike_id": "e66f1613d8fc641f8e0c9bf60c0460dc", "fusion_lat": 0.0, "name": "e66f1613d8fc641f8e0c9bf60c0460dc", "is_reserved": 0, "rental_uris": {"android": "https://dc.lft.to/lastmile_qr_scan", "ios": "https://dc.lft.to/lastmile_qr_scan"}, "fusion_lon": 0.0}, {"lat": 38.91052166666667, "is_disabled": 0, "type": "electric_scooter", "lon": -77.04239616666666, "bike_id": "067332b91dbeaeaa5c7e428bdce3dadf", "fusion_lat": 0.0, "name": "067332b91dbeaeaa5c7e428bdce3dadf", "is_reserved": 0, "rental_uris": {"android": "https://dc.lft.to/lastmile_qr_scan", "ios": "https://dc.lft.to/lastmile_qr_scan"}, "fusion_lon": 0.0}, {"lat": 38.91416066666667, "is_disabled": 0, "type": "electric_scooter", "lon": -77.022322, "bike_id": "ac31807c9ab77ad31bb582680980dad1", "fusion_lat": 0.0, "name": "ac31807c9ab77ad31bb582680980dad1", "is_reserved": 0, "rental_uris": {"android": "https://dc.lft.to/lastmile_qr_scan", "ios": "https://dc.lft.to/lastmile_qr_scan"}, "fusion_lon": 0.0}, {"lat": 38.914524166666666, "is_disabled": 0, "type": "electric_scooter", "lon": -77.04587533333333, "bike_id": "071c4e236b03189adc2737bc4fda4bf8", "fusion_lat": 0.0, "name": "071c4e236b03189adc2737bc4fda4bf8", "is_reserved": 0, "rental_uris": {"android": "https://dc.lft.to/lastmile_qr_scan", "ios": "https://dc.lft.to/lastmile_qr_scan"}, "fusion_lon": 0.0}, {"lat": 38.926758166666666, "is_disabled": 0, "type": "electric_scooter", "lon": -77.02782216666667, "bike_id": "5b9a65ab5db018856ed0bff4753e0807", "fusion_lat": 0.0, "name": "5b9a65ab5db018856ed0bff4753e0807", "is_reserved": 0, "rental_uris": {"android": "https://dc.lft.to/lastmile_qr_scan", "ios": "https://dc.lft.to/lastmile_qr_scan"}, "fusion_lon": 0.0}, {"lat": 38.910482, "is_disabled": 0, "type": "electric_scooter", "lon": -77.02682316666667, "bike_id": "0d07a4f3cb158c559c5f14bbde5a2b61", "fusion_lat": 0.0, "name": "0d07a4f3cb158c559c5f14bbde5a2b61", "is_reserved": 0, "rental_uris": {"android": "https://dc.lft.to/lastmile_qr_scan", "ios": "https://dc.lft.to/lastmile_qr_scan"}, "fusion_lon": 0.0}, {"lat": 38.90061733333334, "is_disabled": 0, "type": "electric_scooter", "lon": -76.933869, "bike_id": "c3fbc5649831471696876f4864063783", "fusion_lat": 0.0, "name": "c3fbc5649831471696876f4864063783", "is_reserved": 0, "rental_uris": {"android": "https://dc.lft.to/lastmile_qr_scan", "ios": "https://dc.lft.to/lastmile_qr_scan"}, "fusion_lon": 0.0}, {"lat": 38.999964, "is_disabled": 0, "type": "electric_bike", "lon": -76.9249705, "bike_id": "4da3ae6c5e10c8c635f8e73dda5acb39", "fusion_lat": 0.0, "name": "4da3ae6c5e10c8c635f8e73dda5acb39", "is_reserved": 0, "rental_uris": {"android": "https://dc.lft.to/lastmile_qr_scan", "ios": "https://dc.lft.to/lastmile_qr_scan"}, "fusion_lon": 0.0}, {"lat": 38.919382, "is_disabled": 0, "type": "electric_scooter", "lon": -77.08135216666666, "bike_id": "f83d479a029c2030530202a44f8ea1bb", "fusion_lat": 0.0, "name": "f83d479a029c2030530202a44f8ea1bb", "is_reserved": 0, "rental_uris": {"android": "https://dc.lft.to/lastmile_qr_scan", "ios": "https://dc.lft.to/lastmile_qr_scan"}, "fusion_lon": 0.0}, {"lat": 38.9169185, "is_disabled": 0, "type": "electric_scooter", "lon": -77.02951533333334, "bike_id": "ae74b8867b10dbe662605a5ae0a326fa", "fusion_lat": 0.0, "name": "ae74b8867b10dbe662605a5ae0a326fa", "is_reserved": 0, "rental_uris": {"android": "https://dc.lft.to/lastmile_qr_scan", "ios": "https://dc.lft.to/lastmile_qr_scan"}, "fusion_lon": 0.0}, {"lat": 38.9191625, "is_disabled": 0, "type": "electric_scooter", "lon": -77.03393066666666, "bike_id": "b9afb751c7e61d948dfe4cd34ffad145", "fusion_lat": 0.0, "name": "b9afb751c7e61d948dfe4cd34ffad145", "is_reserved": 0, "rental_uris": {"android": "https://dc.lft.to/lastmile_qr_scan", "ios": "https://dc.lft.to/lastmile_qr_scan"}, "fusion_lon": 0.0}, {"lat": 38.9365505, "is_disabled": 0, "type": "electric_scooter", "lon": -77.02391516666667, "bike_id": "bc434c8dc5eac99fca76f12cdd31be31", "fusion_lat": 0.0, "name": "bc434c8dc5eac99fca76f12cdd31be31", "is_reserved": 0, "rental_uris": {"android": "https://dc.lft.to/lastmile_qr_scan", "ios": "https://dc.lft.to/lastmile_qr_scan"}, "fusion_lon": 0.0}, {"lat": 38.931870833333335, "is_disabled": 0, "type": "electric_scooter", "lon": -77.02830616666667, "bike_id": "69199ba854f9ad10371dceb900bcaea6", "fusion_lat": 0.0, "name": "69199ba854f9ad10371dceb900bcaea6", "is_reserved": 0, "rental_uris": {"android": "https://dc.lft.to/lastmile_qr_scan", "ios": "https://dc.lft.to/lastmile_qr_scan"}, "fusion_lon": 0.0}, {"lat": 38.900782166666666, "is_disabled": 0, "type": "electric_scooter", "lon": -77.049853, "bike_id": "7cd9e4a9cff559bff1b5badf265f4e13", "fusion_lat": 0.0, "name": "7cd9e4a9cff559bff1b5badf265f4e13", "is_reserved": 0, "rental_uris": {"android": "https://dc.lft.to/lastmile_qr_scan", "ios": "https://dc.lft.to/lastmile_qr_scan"}, "fusion_lon": 0.0}, {"lat": 38.891009, "is_disabled": 0, "type": "electric_scooter", "lon": -76.95237583333333, "bike_id": "fe002563e312f6f921de0d0c6e125b14", "fusion_lat": 0.0, "name": "fe002563e312f6f921de0d0c6e125b14", "is_reserved": 0, "rental_uris": {"android": "https://dc.lft.to/lastmile_qr_scan", "ios": "https://dc.lft.to/lastmile_qr_scan"}, "fusion_lon": 0.0}, {"lat": 38.94293583333334, "is_disabled": 0, "type": "electric_scooter", "lon": -77.07704383333333, "bike_id": "fb8b4b339155de51b9f01356eeab3d33", "fusion_lat": 0.0, "name": "fb8b4b339155de51b9f01356eeab3d33", "is_reserved": 0, "rental_uris": {"android": "https://dc.lft.to/lastmile_qr_scan", "ios": "https://dc.lft.to/lastmile_qr_scan"}, "fusion_lon": 0.0}, {"lat": 38.8971975, "is_disabled": 0, "type": "electric_scooter", "lon": -77.02125483333333, "bike_id": "e6348daf245f034b2a6015f6ff7f1adf", "fusion_lat": 0.0, "name": "e6348daf245f034b2a6015f6ff7f1adf", "is_reserved": 0, "rental_uris": {"android": "https://dc.lft.to/lastmile_qr_scan", "ios": "https://dc.lft.to/lastmile_qr_scan"}, "fusion_lon": 0.0}, {"lat": 38.918868, "is_disabled": 0, "type": "electric_scooter", "lon": -77.04125616666667, "bike_id": "6c1b7b088cb9de21a585e8d381c948e1", "fusion_lat": 0.0, "name": "6c1b7b088cb9de21a585e8d381c948e1", "is_reserved": 0, "rental_uris": {"android": "https://dc.lft.to/lastmile_qr_scan", "ios": "https://dc.lft.to/lastmile_qr_scan"}, "fusion_lon": 0.0}, {"lat": 38.919738333333335, "is_disabled": 0, "type": "electric_scooter", "lon": -77.023889, "bike_id": "2e34d132c78bbc49c1756bf0c3b71185", "fusion_lat": 0.0, "name": "2e34d132c78bbc49c1756bf0c3b71185", "is_reserved": 0, "rental_uris": {"android": "https://dc.lft.to/lastmile_qr_scan", "ios": "https://dc.lft.to/lastmile_qr_scan"}, "fusion_lon": 0.0}, {"lat": 38.9178405, "is_disabled": 0, "type": "electric_scooter", "lon": -77.022624, "bike_id": "bb08579c37b1151af56c276d30238d3e", "fusion_lat": 0.0, "name": "bb08579c37b1151af56c276d30238d3e", "is_reserved": 0, "rental_uris": {"android": "https://dc.lft.to/lastmile_qr_scan", "ios": "https://dc.lft.to/lastmile_qr_scan"}, "fusion_lon": 0.0}, {"lat": 38.90728883333333, "is_disabled": 0, "type": "electric_scooter", "lon": -77.03170066666667, "bike_id": "9fd3d7ab4ffb2e43d62fc7d31f866957", "fusion_lat": 0.0, "name": "9fd3d7ab4ffb2e43d62fc7d31f866957", "is_reserved": 0, "rental_uris": {"android": "https://dc.lft.to/lastmile_qr_scan", "ios": "https://dc.lft.to/lastmile_qr_scan"}, "fusion_lon": 0.0}, {"lat": 38.916938, "is_disabled": 0, "type": "electric_scooter", "lon": -77.0312915, "bike_id": "8585d4aef34392e5776b5a1c455dd6bd", "fusion_lat": 0.0, "name": "8585d4aef34392e5776b5a1c455dd6bd", "is_reserved": 0, "rental_uris": {"android": "https://dc.lft.to/lastmile_qr_scan", "ios": "https://dc.lft.to/lastmile_qr_scan"}, "fusion_lon": 0.0}, {"lat": 38.9097165, "is_disabled": 0, "type": "electric_scooter", "lon": -77.02268916666667, "bike_id": "30bce8de9062201b22939e7e191895d6", "fusion_lat": 0.0, "name": "30bce8de9062201b22939e7e191895d6", "is_reserved": 0, "rental_uris": {"android": "https://dc.lft.to/lastmile_qr_scan", "ios": "https://dc.lft.to/lastmile_qr_scan"}, "fusion_lon": 0.0}, {"lat": 38.902679666666664, "is_disabled": 0, "type": "electric_scooter", "lon": -76.97406716666667, "bike_id": "30513a8751c79776efb22b9ada1ffd8b", "fusion_lat": 0.0, "name": "30513a8751c79776efb22b9ada1ffd8b", "is_reserved": 0, "rental_uris": {"android": "https://dc.lft.to/lastmile_qr_scan", "ios": "https://dc.lft.to/lastmile_qr_scan"}, "fusion_lon": 0.0}, {"lat": 38.87067433333333, "is_disabled": 0, "type": "electric_scooter", "lon": -77.00839066666667, "bike_id": "362e04f62f9f8a4991d9c5a112b32375", "fusion_lat": 0.0, "name": "362e04f62f9f8a4991d9c5a112b32375", "is_reserved": 0, "rental_uris": {"android": "https://dc.lft.to/lastmile_qr_scan", "ios": "https://dc.lft.to/lastmile_qr_scan"}, "fusion_lon": 0.0}, {"lat": 38.874695, "is_disabled": 0, "type": "electric_scooter", "lon": -77.009393, "bike_id": "b2fe1a2905030388ca80cab96dcab06f", "fusion_lat": 0.0, "name": "b2fe1a2905030388ca80cab96dcab06f", "is_reserved": 0, "rental_uris": {"android": "https://dc.lft.to/lastmile_qr_scan", "ios": "https://dc.lft.to/lastmile_qr_scan"}, "fusion_lon": 0.0}, {"lat": 38.91820633333333, "is_disabled": 0, "type": "electric_scooter", "lon": -77.01275366666667, "bike_id": "e5baa5ed85e82bf5110618daf7abccee", "fusion_lat": 0.0, "name": "e5baa5ed85e82bf5110618daf7abccee", "is_reserved": 0, "rental_uris": {"android": "https://dc.lft.to/lastmile_qr_scan", "ios": "https://dc.lft.to/lastmile_qr_scan"}, "fusion_lon": 0.0}, {"lat": 39.03418033333333, "is_disabled": 0, "type": "electric_bike", "lon": -77.04300716666667, "bike_id": "149437f6ceae1df0d4e9ba7d8bce2b53", "fusion_lat": 0.0, "name": "149437f6ceae1df0d4e9ba7d8bce2b53", "is_reserved": 0, "rental_uris": {"android": "https://dc.lft.to/lastmile_qr_scan", "ios": "https://dc.lft.to/lastmile_qr_scan"}, "fusion_lon": 0.0}, {"lat": 38.906606333333336, "is_disabled": 0, "type": "electric_scooter", "lon": -77.0345345, "bike_id": "01eeccff5f75f4d21375526bcb9cfa22", "fusion_lat": 0.0, "name": "01eeccff5f75f4d21375526bcb9cfa22", "is_reserved": 0, "rental_uris": {"android": "https://dc.lft.to/lastmile_qr_scan", "ios": "https://dc.lft.to/lastmile_qr_scan"}, "fusion_lon": 0.0}, {"lat": 38.90955733333333, "is_disabled": 0, "type": "electric_scooter", "lon": -77.04031266666667, "bike_id": "bdebecb939a5494c5afdfeda559eb31e", "fusion_lat": 0.0, "name": "bdebecb939a5494c5afdfeda559eb31e", "is_reserved": 0, "rental_uris": {"android": "https://dc.lft.to/lastmile_qr_scan", "ios": "https://dc.lft.to/lastmile_qr_scan"}, "fusion_lon": 0.0}, {"lat": 38.887442666666665, "is_disabled": 0, "type": "electric_scooter", "lon": -77.02833933333334, "bike_id": "ba044d61693d5c10dbcc591bb025eef9", "fusion_lat": 0.0, "name": "ba044d61693d5c10dbcc591bb025eef9", "is_reserved": 0, "rental_uris": {"android": "https://dc.lft.to/lastmile_qr_scan", "ios": "https://dc.lft.to/lastmile_qr_scan"}, "fusion_lon": 0.0}, {"lat": 38.92794766666667, "is_disabled": 0, "type": "electric_scooter", "lon": -77.026023, "bike_id": "016f33e134107a5a67b64d893fd8e91c", "fusion_lat": 0.0, "name": "016f33e134107a5a67b64d893fd8e91c", "is_reserved": 0, "rental_uris": {"android": "https://dc.lft.to/lastmile_qr_scan", "ios": "https://dc.lft.to/lastmile_qr_scan"}, "fusion_lon": 0.0}, {"lat": 38.9154215, "is_disabled": 0, "type": "electric_scooter", "lon": -77.022043, "bike_id": "eb5ca078058dd964803f506749258fd0", "fusion_lat": 0.0, "name": "eb5ca078058dd964803f506749258fd0", "is_reserved": 0, "rental_uris": {"android": "https://dc.lft.to/lastmile_qr_scan", "ios": "https://dc.lft.to/lastmile_qr_scan"}, "fusion_lon": 0.0}, {"lat": 38.881207333333336, "is_disabled": 0, "type": "electric_scooter", "lon": -77.00103816666666, "bike_id": "57b74907f190843a257b550639462c84", "fusion_lat": 0.0, "name": "57b74907f190843a257b550639462c84", "is_reserved": 0, "rental_uris": {"android": "https://dc.lft.to/lastmile_qr_scan", "ios": "https://dc.lft.to/lastmile_qr_scan"}, "fusion_lon": 0.0}, {"lat": 38.924358833333336, "is_disabled": 0, "type": "electric_scooter", "lon": -77.03402566666666, "bike_id": "a8a749e8d7610ba01a29d0b121d4c95f", "fusion_lat": 0.0, "name": "a8a749e8d7610ba01a29d0b121d4c95f", "is_reserved": 0, "rental_uris": {"android": "https://dc.lft.to/lastmile_qr_scan", "ios": "https://dc.lft.to/lastmile_qr_scan"}, "fusion_lon": 0.0}, {"lat": 38.97320533333333, "is_disabled": 0, "type": "electric_bike", "lon": -77.02148483333333, "bike_id": "169d765b4cec667e33ba16cd6c7b2184", "fusion_lat": 0.0, "name": "169d765b4cec667e33ba16cd6c7b2184", "is_reserved": 0, "rental_uris": {"android": "https://dc.lft.to/lastmile_qr_scan", "ios": "https://dc.lft.to/lastmile_qr_scan"}, "fusion_lon": 0.0}, {"lat": 38.885117, "is_disabled": 0, "type": "electric_scooter", "lon": -77.00572083333333, "bike_id": "b4669bf8b714424b6073fea0114c80a0", "fusion_lat": 0.0, "name": "b4669bf8b714424b6073fea0114c80a0", "is_reserved": 0, "rental_uris": {"android": "https://dc.lft.to/lastmile_qr_scan", "ios": "https://dc.lft.to/lastmile_qr_scan"}, "fusion_lon": 0.0}, {"lat": 38.9144165, "is_disabled": 0, "type": "electric_scooter", "lon": -77.01224316666666, "bike_id": "ff7d0b435915f33f47205d2bba5ef563", "fusion_lat": 0.0, "name": "ff7d0b435915f33f47205d2bba5ef563", "is_reserved": 0, "rental_uris": {"android": "https://dc.lft.to/lastmile_qr_scan", "ios": "https://dc.lft.to/lastmile_qr_scan"}, "fusion_lon": 0.0}, {"lat": 38.9003015, "is_disabled": 0, "type": "electric_scooter", "lon": -76.99612583333334, "bike_id": "2fc7b8543480c80d3debefef43ea6fc1", "fusion_lat": 0.0, "name": "2fc7b8543480c80d3debefef43ea6fc1", "is_reserved": 0, "rental_uris": {"android": "https://dc.lft.to/lastmile_qr_scan", "ios": "https://dc.lft.to/lastmile_qr_scan"}, "fusion_lon": 0.0}, {"lat": 38.897672166666666, "is_disabled": 0, "type": "electric_scooter", "lon": -77.03205716666666, "bike_id": "0d9eb43ace91192afec18396469f7cd8", "fusion_lat": 0.0, "name": "0d9eb43ace91192afec18396469f7cd8", "is_reserved": 0, "rental_uris": {"android": "https://dc.lft.to/lastmile_qr_scan", "ios": "https://dc.lft.to/lastmile_qr_scan"}, "fusion_lon": 0.0}, {"lat": 38.902727, "is_disabled": 0, "type": "electric_scooter", "lon": -77.03376633333333, "bike_id": "0fd2fcb8b67e5e2e565202128af2e352", "fusion_lat": 0.0, "name": "0fd2fcb8b67e5e2e565202128af2e352", "is_reserved": 0, "rental_uris": {"android": "https://dc.lft.to/lastmile_qr_scan", "ios": "https://dc.lft.to/lastmile_qr_scan"}, "fusion_lon": 0.0}, {"lat": 38.905729, "is_disabled": 0, "type": "electric_scooter", "lon": -77.048761, "bike_id": "4111988cb5f44be89f83375aa305700e", "fusion_lat": 0.0, "name": "4111988cb5f44be89f83375aa305700e", "is_reserved": 0, "rental_uris": {"android": "https://dc.lft.to/lastmile_qr_scan", "ios": "https://dc.lft.to/lastmile_qr_scan"}, "fusion_lon": 0.0}, {"lat": 38.844251666666665, "is_disabled": 0, "type": "electric_scooter", "lon": -76.99777466666667, "bike_id": "edb12a42fb4c75a64b1ea429b0c1b9e6", "fusion_lat": 0.0, "name": "edb12a42fb4c75a64b1ea429b0c1b9e6", "is_reserved": 0, "rental_uris": {"android": "https://dc.lft.to/lastmile_qr_scan", "ios": "https://dc.lft.to/lastmile_qr_scan"}, "fusion_lon": 0.0}, {"lat": 38.91183983333333, "is_disabled": 0, "type": "electric_scooter", "lon": -77.03835, "bike_id": "6a76d06c988047baf7035662750f8c50", "fusion_lat": 0.0, "name": "6a76d06c988047baf7035662750f8c50", "is_reserved": 0, "rental_uris": {"android": "https://dc.lft.to/lastmile_qr_scan", "ios": "https://dc.lft.to/lastmile_qr_scan"}, "fusion_lon": 0.0}, {"lat": 38.91114183333333, "is_disabled": 0, "type": "electric_scooter", "lon": -77.04497366666666, "bike_id": "0cd7c6a47fa3bd7c99d4503aae0cf469", "fusion_lat": 0.0, "name": "0cd7c6a47fa3bd7c99d4503aae0cf469", "is_reserved": 0, "rental_uris": {"android": "https://dc.lft.to/lastmile_qr_scan", "ios": "https://dc.lft.to/lastmile_qr_scan"}, "fusion_lon": 0.0}, {"lat": 38.93479283333333, "is_disabled": 0, "type": "electric_scooter", "lon": -77.036035, "bike_id": "837a73c9adb908b6ea2e7940ca907a7c", "fusion_lat": 0.0, "name": "837a73c9adb908b6ea2e7940ca907a7c", "is_reserved": 0, "rental_uris": {"android": "https://dc.lft.to/lastmile_qr_scan", "ios": "https://dc.lft.to/lastmile_qr_scan"}, "fusion_lon": 0.0}, {"lat": 38.9365795, "is_disabled": 0, "type": "electric_bike", "lon": -76.95216533333334, "bike_id": "0f61bc5522c8379c3bc54360273dea21", "fusion_lat": 0.0, "name": "0f61bc5522c8379c3bc54360273dea21", "is_reserved": 0, "rental_uris": {"android": "https://dc.lft.to/lastmile_qr_scan", "ios": "https://dc.lft.to/lastmile_qr_scan"}, "fusion_lon": 0.0}, {"lat": 38.91983416666667, "is_disabled": 0, "type": "electric_scooter", "lon": -77.02377116666666, "bike_id": "c0cac899b48f512c608355f5b747955b", "fusion_lat": 0.0, "name": "c0cac899b48f512c608355f5b747955b", "is_reserved": 0, "rental_uris": {"android": "https://dc.lft.to/lastmile_qr_scan", "ios": "https://dc.lft.to/lastmile_qr_scan"}, "fusion_lon": 0.0}, {"lat": 38.915672, "is_disabled": 0, "type": "electric_scooter", "lon": -77.04670733333333, "bike_id": "2adca05a8eb1b6e24c5a3e1df88dee79", "fusion_lat": 0.0, "name": "2adca05a8eb1b6e24c5a3e1df88dee79", "is_reserved": 0, "rental_uris": {"android": "https://dc.lft.to/lastmile_qr_scan", "ios": "https://dc.lft.to/lastmile_qr_scan"}, "fusion_lon": 0.0}, {"lat": 38.95533483333333, "is_disabled": 0, "type": "electric_bike", "lon": -77.01783266666666, "bike_id": "1b2d4dc44893251aceae251e91859e84", "fusion_lat": 0.0, "name": "1b2d4dc44893251aceae251e91859e84", "is_reserved": 0, "rental_uris": {"android": "https://dc.lft.to/lastmile_qr_scan", "ios": "https://dc.lft.to/lastmile_qr_scan"}, "fusion_lon": 0.0}, {"lat": 38.90214783333333, "is_disabled": 0, "type": "electric_scooter", "lon": -76.94591416666667, "bike_id": "843d15794e249d90dca0a153a43489df", "fusion_lat": 0.0, "name": "843d15794e249d90dca0a153a43489df", "is_reserved": 0, "rental_uris": {"android": "https://dc.lft.to/lastmile_qr_scan", "ios": "https://dc.lft.to/lastmile_qr_scan"}, "fusion_lon": 0.0}, {"lat": 38.930122833333336, "is_disabled": 0, "type": "electric_bike", "lon": -77.21649466666666, "bike_id": "25ed9c02e3efcd20cdcbf537550c6d9a", "fusion_lat": 0.0, "name": "25ed9c02e3efcd20cdcbf537550c6d9a", "is_reserved": 0, "rental_uris": {"android": "https://dc.lft.to/lastmile_qr_scan", "ios": "https://dc.lft.to/lastmile_qr_scan"}, "fusion_lon": 0.0}, {"lat": 38.8977285, "is_disabled": 0, "type": "electric_scooter", "lon": -77.04353533333334, "bike_id": "645d506f1633ed34f96db23edb03a529", "fusion_lat": 0.0, "name": "645d506f1633ed34f96db23edb03a529", "is_reserved": 0, "rental_uris": {"android": "https://dc.lft.to/lastmile_qr_scan", "ios": "https://dc.lft.to/lastmile_qr_scan"}, "fusion_lon": 0.0}, {"lat": 38.9561295, "is_disabled": 0, "type": "electric_scooter", "lon": -77.02778883333333, "bike_id": "44ad2f83d5d877e3709742aaec28f2fe", "fusion_lat": 0.0, "name": "44ad2f83d5d877e3709742aaec28f2fe", "is_reserved": 0, "rental_uris": {"android": "https://dc.lft.to/lastmile_qr_scan", "ios": "https://dc.lft.to/lastmile_qr_scan"}, "fusion_lon": 0.0}, {"lat": 38.917758166666665, "is_disabled": 0, "type": "electric_scooter", "lon": -77.02311083333333, "bike_id": "40d1aea2179b95c331d86bc218390dd8", "fusion_lat": 0.0, "name": "40d1aea2179b95c331d86bc218390dd8", "is_reserved": 0, "rental_uris": {"android": "https://dc.lft.to/lastmile_qr_scan", "ios": "https://dc.lft.to/lastmile_qr_scan"}, "fusion_lon": 0.0}, {"lat": 38.9627955, "is_disabled": 0, "type": "electric_bike", "lon": -77.0325625, "bike_id": "157f35caa8fe6e1347409494338f8f43", "fusion_lat": 0.0, "name": "157f35caa8fe6e1347409494338f8f43", "is_reserved": 0, "rental_uris": {"android": "https://dc.lft.to/lastmile_qr_scan", "ios": "https://dc.lft.to/lastmile_qr_scan"}, "fusion_lon": 0.0}, {"lat": 38.923250833333334, "is_disabled": 0, "type": "electric_bike", "lon": -77.05671616666666, "bike_id": "5d70b4b6d505cc216d80c7da32eb7de4", "fusion_lat": 0.0, "name": "5d70b4b6d505cc216d80c7da32eb7de4", "is_reserved": 0, "rental_uris": {"android": "https://dc.lft.to/lastmile_qr_scan", "ios": "https://dc.lft.to/lastmile_qr_scan"}, "fusion_lon": 0.0}, {"lat": 38.91315066666667, "is_disabled": 0, "type": "electric_scooter", "lon": -77.03649066666667, "bike_id": "3599a8864062be2c40ca938da8a6ec3f", "fusion_lat": 0.0, "name": "3599a8864062be2c40ca938da8a6ec3f", "is_reserved": 0, "rental_uris": {"android": "https://dc.lft.to/lastmile_qr_scan", "ios": "https://dc.lft.to/lastmile_qr_scan"}, "fusion_lon": 0.0}, {"lat": 38.898497166666665, "is_disabled": 0, "type": "electric_scooter", "lon": -76.99033666666666, "bike_id": "770749ca7549c07f72d82a2be50d3b13", "fusion_lat": 0.0, "name": "770749ca7549c07f72d82a2be50d3b13", "is_reserved": 0, "rental_uris": {"android": "https://dc.lft.to/lastmile_qr_scan", "ios": "https://dc.lft.to/lastmile_qr_scan"}, "fusion_lon": 0.0}, {"lat": 38.918171, "is_disabled": 0, "type": "electric_scooter", "lon": -77.02474, "bike_id": "75338a24dfc5ad0401677aa22a5dd777", "fusion_lat": 0.0, "name": "75338a24dfc5ad0401677aa22a5dd777", "is_reserved": 0, "rental_uris": {"android": "https://dc.lft.to/lastmile_qr_scan", "ios": "https://dc.lft.to/lastmile_qr_scan"}, "fusion_lon": 0.0}, {"lat": 38.896633, "is_disabled": 0, "type": "electric_scooter", "lon": -77.02314783333334, "bike_id": "ca77c16dc9454cd759ea6a724726fdca", "fusion_lat": 0.0, "name": "ca77c16dc9454cd759ea6a724726fdca", "is_reserved": 0, "rental_uris": {"android": "https://dc.lft.to/lastmile_qr_scan", "ios": "https://dc.lft.to/lastmile_qr_scan"}, "fusion_lon": 0.0}, {"lat": 38.9172895, "is_disabled": 0, "type": "electric_scooter", "lon": -77.02405133333333, "bike_id": "33a311ceb76e74e4b0bade201af723b4", "fusion_lat": 0.0, "name": "33a311ceb76e74e4b0bade201af723b4", "is_reserved": 0, "rental_uris": {"android": "https://dc.lft.to/lastmile_qr_scan", "ios": "https://dc.lft.to/lastmile_qr_scan"}, "fusion_lon": 0.0}, {"lat": 38.928155, "is_disabled": 0, "type": "electric_scooter", "lon": -77.04313383333333, "bike_id": "031726381c8289e12cf6c4ceea7f8359", "fusion_lat": 0.0, "name": "031726381c8289e12cf6c4ceea7f8359", "is_reserved": 0, "rental_uris": {"android": "https://dc.lft.to/lastmile_qr_scan", "ios": "https://dc.lft.to/lastmile_qr_scan"}, "fusion_lon": 0.0}, {"lat": 38.8550735, "is_disabled": 0, "type": "electric_bike", "lon": -77.12027366666666, "bike_id": "d5f5c28d9b8e4641815cb5f0071b47f8", "fusion_lat": 0.0, "name": "d5f5c28d9b8e4641815cb5f0071b47f8", "is_reserved": 0, "rental_uris": {"android": "https://dc.lft.to/lastmile_qr_scan", "ios": "https://dc.lft.to/lastmile_qr_scan"}, "fusion_lon": 0.0}, {"lat": 38.90958966666667, "is_disabled": 0, "type": "electric_scooter", "lon": -77.02381283333334, "bike_id": "304f507c5673098cf911596e7f4c2b82", "fusion_lat": 0.0, "name": "304f507c5673098cf911596e7f4c2b82", "is_reserved": 0, "rental_uris": {"android": "https://dc.lft.to/lastmile_qr_scan", "ios": "https://dc.lft.to/lastmile_qr_scan"}, "fusion_lon": 0.0}, {"lat": 38.8977095, "is_disabled": 0, "type": "electric_scooter", "lon": -77.02586633333334, "bike_id": "4740cc94d487c94885b4d3a258c87198", "fusion_lat": 0.0, "name": "4740cc94d487c94885b4d3a258c87198", "is_reserved": 0, "rental_uris": {"android": "https://dc.lft.to/lastmile_qr_scan", "ios": "https://dc.lft.to/lastmile_qr_scan"}, "fusion_lon": 0.0}, {"lat": 39.0037995, "is_disabled": 0, "type": "electric_bike", "lon": -77.01287966666666, "bike_id": "e5a209ca58749a4331c68db8fc393c13", "fusion_lat": 0.0, "name": "e5a209ca58749a4331c68db8fc393c13", "is_reserved": 0, "rental_uris": {"android": "https://dc.lft.to/lastmile_qr_scan", "ios": "https://dc.lft.to/lastmile_qr_scan"}, "fusion_lon": 0.0}, {"lat": 38.95663416666667, "is_disabled": 0, "type": "electric_bike", "lon": -77.011548, "bike_id": "919fbc1917a48358d51b82eb43233fd4", "fusion_lat": 0.0, "name": "919fbc1917a48358d51b82eb43233fd4", "is_reserved": 0, "rental_uris": {"android": "https://dc.lft.to/lastmile_qr_scan", "ios": "https://dc.lft.to/lastmile_qr_scan"}, "fusion_lon": 0.0}, {"lat": 38.88093416666667, "is_disabled": 0, "type": "electric_scooter", "lon": -76.99246883333333, "bike_id": "533912df0721b382d04a9e87b92f8375", "fusion_lat": 0.0, "name": "533912df0721b382d04a9e87b92f8375", "is_reserved": 0, "rental_uris": {"android": "https://dc.lft.to/lastmile_qr_scan", "ios": "https://dc.lft.to/lastmile_qr_scan"}, "fusion_lon": 0.0}, {"lat": 38.96602716666666, "is_disabled": 0, "type": "electric_scooter", "lon": -77.02317433333333, "bike_id": "d0ab12360fdbe3cad6658f0a47225500", "fusion_lat": 0.0, "name": "d0ab12360fdbe3cad6658f0a47225500", "is_reserved": 0, "rental_uris": {"android": "https://dc.lft.to/lastmile_qr_scan", "ios": "https://dc.lft.to/lastmile_qr_scan"}, "fusion_lon": 0.0}, {"lat": 38.984293666666666, "is_disabled": 0, "type": "electric_scooter", "lon": -77.02675933333333, "bike_id": "e653e40621392ba0c4dbe2561cf98498", "fusion_lat": 0.0, "name": "e653e40621392ba0c4dbe2561cf98498", "is_reserved": 0, "rental_uris": {"android": "https://dc.lft.to/lastmile_qr_scan", "ios": "https://dc.lft.to/lastmile_qr_scan"}, "fusion_lon": 0.0}, {"lat": 38.93897033333333, "is_disabled": 0, "type": "electric_scooter", "lon": -77.0331925, "bike_id": "8e0da3a1d27454f3d48bf9d67eb28b7f", "fusion_lat": 0.0, "name": "8e0da3a1d27454f3d48bf9d67eb28b7f", "is_reserved": 0, "rental_uris": {"android": "https://dc.lft.to/lastmile_qr_scan", "ios": "https://dc.lft.to/lastmile_qr_scan"}, "fusion_lon": 0.0}, {"lat": 38.9225325, "is_disabled": 0, "type": "electric_scooter", "lon": -77.01976266666667, "bike_id": "909fe2b57fcd6cd51750b658294ff71d", "fusion_lat": 0.0, "name": "909fe2b57fcd6cd51750b658294ff71d", "is_reserved": 0, "rental_uris": {"android": "https://dc.lft.to/lastmile_qr_scan", "ios": "https://dc.lft.to/lastmile_qr_scan"}, "fusion_lon": 0.0}, {"lat": 38.900753, "is_disabled": 0, "type": "electric_scooter", "lon": -77.00743616666666, "bike_id": "f84397b3745fb0ad24b312ddf9cc4177", "fusion_lat": 0.0, "name": "f84397b3745fb0ad24b312ddf9cc4177", "is_reserved": 0, "rental_uris": {"android": "https://dc.lft.to/lastmile_qr_scan", "ios": "https://dc.lft.to/lastmile_qr_scan"}, "fusion_lon": 0.0}, {"lat": 38.931884333333336, "is_disabled": 0, "type": "electric_scooter", "lon": -77.02564933333333, "bike_id": "f3f14258addda90fcb67424c32a4c992", "fusion_lat": 0.0, "name": "f3f14258addda90fcb67424c32a4c992", "is_reserved": 0, "rental_uris": {"android": "https://dc.lft.to/lastmile_qr_scan", "ios": "https://dc.lft.to/lastmile_qr_scan"}, "fusion_lon": 0.0}, {"lat": 38.827882, "is_disabled": 0, "type": "electric_bike", "lon": -77.009172, "bike_id": "071b2e9b4ca8ab284bd39c7ea33e9047", "fusion_lat": 0.0, "name": "071b2e9b4ca8ab284bd39c7ea33e9047", "is_reserved": 0, "rental_uris": {"android": "https://dc.lft.to/lastmile_qr_scan", "ios": "https://dc.lft.to/lastmile_qr_scan"}, "fusion_lon": 0.0}, {"lat": 38.90952583333333, "is_disabled": 0, "type": "electric_scooter", "lon": -77.04803083333333, "bike_id": "313f1660798e1c6710fb73acd066afc0", "fusion_lat": 0.0, "name": "313f1660798e1c6710fb73acd066afc0", "is_reserved": 0, "rental_uris": {"android": "https://dc.lft.to/lastmile_qr_scan", "ios": "https://dc.lft.to/lastmile_qr_scan"}, "fusion_lon": 0.0}, {"lat": 38.88363016666667, "is_disabled": 0, "type": "electric_scooter", "lon": -76.99505683333334, "bike_id": "b70982aed2dfee5bd8acee925ba252a0", "fusion_lat": 0.0, "name": "b70982aed2dfee5bd8acee925ba252a0", "is_reserved": 0, "rental_uris": {"android": "https://dc.lft.to/lastmile_qr_scan", "ios": "https://dc.lft.to/lastmile_qr_scan"}, "fusion_lon": 0.0}, {"lat": 38.90975433333333, "is_disabled": 0, "type": "electric_scooter", "lon": -77.03862383333333, "bike_id": "2bec2183f278c19aef819a35544b29b9", "fusion_lat": 0.0, "name": "2bec2183f278c19aef819a35544b29b9", "is_reserved": 0, "rental_uris": {"android": "https://dc.lft.to/lastmile_qr_scan", "ios": "https://dc.lft.to/lastmile_qr_scan"}, "fusion_lon": 0.0}, {"lat": 38.89630966666667, "is_disabled": 0, "type": "electric_scooter", "lon": -77.03302566666666, "bike_id": "74ce117f88d2c54a9bfb73d9c034aed4", "fusion_lat": 0.0, "name": "74ce117f88d2c54a9bfb73d9c034aed4", "is_reserved": 0, "rental_uris": {"android": "https://dc.lft.to/lastmile_qr_scan", "ios": "https://dc.lft.to/lastmile_qr_scan"}, "fusion_lon": 0.0}, {"lat": 38.89729533333333, "is_disabled": 0, "type": "electric_scooter", "lon": -77.028023, "bike_id": "382a2ec867b2d6c41f1918d816cd3021", "fusion_lat": 0.0, "name": "382a2ec867b2d6c41f1918d816cd3021", "is_reserved": 0, "rental_uris": {"android": "https://dc.lft.to/lastmile_qr_scan", "ios": "https://dc.lft.to/lastmile_qr_scan"}, "fusion_lon": 0.0}, {"lat": 38.88794466666667, "is_disabled": 0, "type": "electric_scooter", "lon": -76.933635, "bike_id": "da94809e9cf5b81f7ef118cb92bffa89", "fusion_lat": 0.0, "name": "da94809e9cf5b81f7ef118cb92bffa89", "is_reserved": 0, "rental_uris": {"android": "https://dc.lft.to/lastmile_qr_scan", "ios": "https://dc.lft.to/lastmile_qr_scan"}, "fusion_lon": 0.0}, {"lat": 38.86093833333334, "is_disabled": 0, "type": "electric_scooter", "lon": -76.9837925, "bike_id": "25f06f31d5669ddd03d0c5c36c591d69", "fusion_lat": 0.0, "name": "25f06f31d5669ddd03d0c5c36c591d69", "is_reserved": 0, "rental_uris": {"android": "https://dc.lft.to/lastmile_qr_scan", "ios": "https://dc.lft.to/lastmile_qr_scan"}, "fusion_lon": 0.0}, {"lat": 38.832361666666664, "is_disabled": 0, "type": "electric_bike", "lon": -76.9462675, "bike_id": "72d814727568d9ae9355b0d92087edbd", "fusion_lat": 0.0, "name": "72d814727568d9ae9355b0d92087edbd", "is_reserved": 0, "rental_uris": {"android": "https://dc.lft.to/lastmile_qr_scan", "ios": "https://dc.lft.to/lastmile_qr_scan"}, "fusion_lon": 0.0}, {"lat": 38.9244375, "is_disabled": 0, "type": "electric_scooter", "lon": -77.020327, "bike_id": "b302aedd96da09750c3556f2bf8126a6", "fusion_lat": 0.0, "name": "b302aedd96da09750c3556f2bf8126a6", "is_reserved": 0, "rental_uris": {"android": "https://dc.lft.to/lastmile_qr_scan", "ios": "https://dc.lft.to/lastmile_qr_scan"}, "fusion_lon": 0.0}, {"lat": 38.90006666666667, "is_disabled": 0, "type": "electric_scooter", "lon": -76.998736, "bike_id": "8de64fb0f4c7ab3665f0d60aa7f75dd3", "fusion_lat": 0.0, "name": "8de64fb0f4c7ab3665f0d60aa7f75dd3", "is_reserved": 0, "rental_uris": {"android": "https://dc.lft.to/lastmile_qr_scan", "ios": "https://dc.lft.to/lastmile_qr_scan"}, "fusion_lon": 0.0}, {"lat": 38.943033, "is_disabled": 0, "type": "electric_scooter", "lon": -77.05933516666667, "bike_id": "43271cd7938b438fc08beec51f35ae2f", "fusion_lat": 0.0, "name": "43271cd7938b438fc08beec51f35ae2f", "is_reserved": 0, "rental_uris": {"android": "https://dc.lft.to/lastmile_qr_scan", "ios": "https://dc.lft.to/lastmile_qr_scan"}, "fusion_lon": 0.0}, {"lat": 38.863839166666665, "is_disabled": 0, "type": "electric_scooter", "lon": -76.99246683333334, "bike_id": "969f1e9ce140c02b3ca064425cf72394", "fusion_lat": 0.0, "name": "969f1e9ce140c02b3ca064425cf72394", "is_reserved": 0, "rental_uris": {"android": "https://dc.lft.to/lastmile_qr_scan", "ios": "https://dc.lft.to/lastmile_qr_scan"}, "fusion_lon": 0.0}, {"lat": 38.90638383333334, "is_disabled": 0, "type": "electric_scooter", "lon": -76.97948383333333, "bike_id": "00034d700c4396e35ae12368c213bee8", "fusion_lat": 0.0, "name": "00034d700c4396e35ae12368c213bee8", "is_reserved": 0, "rental_uris": {"android": "https://dc.lft.to/lastmile_qr_scan", "ios": "https://dc.lft.to/lastmile_qr_scan"}, "fusion_lon": 0.0}, {"lat": 38.97834066666667, "is_disabled": 0, "type": "electric_bike", "lon": -77.02644566666666, "bike_id": "f5886707190f918234558f75dbb27a86", "fusion_lat": 0.0, "name": "f5886707190f918234558f75dbb27a86", "is_reserved": 0, "rental_uris": {"android": "https://dc.lft.to/lastmile_qr_scan", "ios": "https://dc.lft.to/lastmile_qr_scan"}, "fusion_lon": 0.0}, {"lat": 38.916801666666665, "is_disabled": 0, "type": "electric_scooter", "lon": -77.02303633333334, "bike_id": "b0995bb08335f9357b411dec7a24df88", "fusion_lat": 0.0, "name": "b0995bb08335f9357b411dec7a24df88", "is_reserved": 0, "rental_uris": {"android": "https://dc.lft.to/lastmile_qr_scan", "ios": "https://dc.lft.to/lastmile_qr_scan"}, "fusion_lon": 0.0}, {"lat": 38.855076, "is_disabled": 0, "type": "electric_bike", "lon": -77.12055416666666, "bike_id": "0411838c419470dd40dda96eee5cc262", "fusion_lat": 0.0, "name": "0411838c419470dd40dda96eee5cc262", "is_reserved": 0, "rental_uris": {"android": "https://dc.lft.to/lastmile_qr_scan", "ios": "https://dc.lft.to/lastmile_qr_scan"}, "fusion_lon": 0.0}, {"lat": 38.913198, "is_disabled": 0, "type": "electric_scooter", "lon": -77.014983, "bike_id": "d5348d372293e82fb3c6ea7500b73c35", "fusion_lat": 0.0, "name": "d5348d372293e82fb3c6ea7500b73c35", "is_reserved": 0, "rental_uris": {"android": "https://dc.lft.to/lastmile_qr_scan", "ios": "https://dc.lft.to/lastmile_qr_scan"}, "fusion_lon": 0.0}, {"lat": 38.90007266666667, "is_disabled": 0, "type": "electric_scooter", "lon": -76.99217383333334, "bike_id": "2424c8b3cdab1daf33988245edcda70f", "fusion_lat": 0.0, "name": "2424c8b3cdab1daf33988245edcda70f", "is_reserved": 0, "rental_uris": {"android": "https://dc.lft.to/lastmile_qr_scan", "ios": "https://dc.lft.to/lastmile_qr_scan"}, "fusion_lon": 0.0}, {"lat": 38.91707983333333, "is_disabled": 0, "type": "electric_scooter", "lon": -77.03220933333333, "bike_id": "3b3464f95a8db4e7daf1c7382c0001a7", "fusion_lat": 0.0, "name": "3b3464f95a8db4e7daf1c7382c0001a7", "is_reserved": 0, "rental_uris": {"android": "https://dc.lft.to/lastmile_qr_scan", "ios": "https://dc.lft.to/lastmile_qr_scan"}, "fusion_lon": 0.0}, {"lat": 38.869132, "is_disabled": 0, "type": "electric_scooter", "lon": -76.98304166666667, "bike_id": "c47e92725c05e68cacc2d9025e6ea1b6", "fusion_lat": 0.0, "name": "c47e92725c05e68cacc2d9025e6ea1b6", "is_reserved": 0, "rental_uris": {"android": "https://dc.lft.to/lastmile_qr_scan", "ios": "https://dc.lft.to/lastmile_qr_scan"}, "fusion_lon": 0.0}, {"lat": 38.88421116666667, "is_disabled": 0, "type": "electric_scooter", "lon": -77.00019433333334, "bike_id": "b7933b999aa821e4d605f5af744fd826", "fusion_lat": 0.0, "name": "b7933b999aa821e4d605f5af744fd826", "is_reserved": 0, "rental_uris": {"android": "https://dc.lft.to/lastmile_qr_scan", "ios": "https://dc.lft.to/lastmile_qr_scan"}, "fusion_lon": 0.0}, {"lat": 38.91323766666667, "is_disabled": 0, "type": "electric_scooter", "lon": -77.03125966666667, "bike_id": "b78a0059b5e6e5a44e8b230c6f99ca7a", "fusion_lat": 0.0, "name": "b78a0059b5e6e5a44e8b230c6f99ca7a", "is_reserved": 0, "rental_uris": {"android": "https://dc.lft.to/lastmile_qr_scan", "ios": "https://dc.lft.to/lastmile_qr_scan"}, "fusion_lon": 0.0}, {"lat": 38.98648816666667, "is_disabled": 0, "type": "electric_bike", "lon": -77.05638766666667, "bike_id": "3db34f63ae1aa6a4f6a32a8bae22330c", "fusion_lat": 0.0, "name": "3db34f63ae1aa6a4f6a32a8bae22330c", "is_reserved": 0, "rental_uris": {"android": "https://dc.lft.to/lastmile_qr_scan", "ios": "https://dc.lft.to/lastmile_qr_scan"}, "fusion_lon": 0.0}, {"lat": 38.928793166666665, "is_disabled": 0, "type": "electric_scooter", "lon": -77.03334283333334, "bike_id": "4f103ccf6f5ac947273723553aebf5d4", "fusion_lat": 0.0, "name": "4f103ccf6f5ac947273723553aebf5d4", "is_reserved": 0, "rental_uris": {"android": "https://dc.lft.to/lastmile_qr_scan", "ios": "https://dc.lft.to/lastmile_qr_scan"}, "fusion_lon": 0.0}, {"lat": 38.87803483333333, "is_disabled": 0, "type": "electric_bike", "lon": -76.96072283333334, "bike_id": "bdc49e2249dfe5dc0d9ec7e94454c9ae", "fusion_lat": 0.0, "name": "bdc49e2249dfe5dc0d9ec7e94454c9ae", "is_reserved": 0, "rental_uris": {"android": "https://dc.lft.to/lastmile_qr_scan", "ios": "https://dc.lft.to/lastmile_qr_scan"}, "fusion_lon": 0.0}, {"lat": 38.844213333333336, "is_disabled": 0, "type": "electric_scooter", "lon": -76.997784, "bike_id": "9fb7c5fc4f165c62e0bcee2af8ace437", "fusion_lat": 0.0, "name": "9fb7c5fc4f165c62e0bcee2af8ace437", "is_reserved": 0, "rental_uris": {"android": "https://dc.lft.to/lastmile_qr_scan", "ios": "https://dc.lft.to/lastmile_qr_scan"}, "fusion_lon": 0.0}, {"lat": 38.905889333333334, "is_disabled": 0, "type": "electric_scooter", "lon": -77.06519166666666, "bike_id": "d2f44cea5a80a4e481db1021dabcb087", "fusion_lat": 0.0, "name": "d2f44cea5a80a4e481db1021dabcb087", "is_reserved": 0, "rental_uris": {"android": "https://dc.lft.to/lastmile_qr_scan", "ios": "https://dc.lft.to/lastmile_qr_scan"}, "fusion_lon": 0.0}, {"lat": 38.906633666666664, "is_disabled": 0, "type": "electric_scooter", "lon": -77.02945183333334, "bike_id": "4a14cccc768c16d0d1cde209305c1c36", "fusion_lat": 0.0, "name": "4a14cccc768c16d0d1cde209305c1c36", "is_reserved": 0, "rental_uris": {"android": "https://dc.lft.to/lastmile_qr_scan", "ios": "https://dc.lft.to/lastmile_qr_scan"}, "fusion_lon": 0.0}, {"lat": 38.9197265, "is_disabled": 0, "type": "electric_scooter", "lon": -77.04148316666667, "bike_id": "0709d0a4c649143ccd83afe90b04ac4c", "fusion_lat": 0.0, "name": "0709d0a4c649143ccd83afe90b04ac4c", "is_reserved": 0, "rental_uris": {"android": "https://dc.lft.to/lastmile_qr_scan", "ios": "https://dc.lft.to/lastmile_qr_scan"}, "fusion_lon": 0.0}, {"lat": 38.9161585, "is_disabled": 0, "type": "electric_scooter", "lon": -77.02958766666667, "bike_id": "a171b8a3570955e9178520a010b672c6", "fusion_lat": 0.0, "name": "a171b8a3570955e9178520a010b672c6", "is_reserved": 0, "rental_uris": {"android": "https://dc.lft.to/lastmile_qr_scan", "ios": "https://dc.lft.to/lastmile_qr_scan"}, "fusion_lon": 0.0}, {"lat": 38.922508, "is_disabled": 0, "type": "electric_scooter", "lon": -77.02726033333333, "bike_id": "d04eec19451abfc325ac5c42f4386f3f", "fusion_lat": 0.0, "name": "d04eec19451abfc325ac5c42f4386f3f", "is_reserved": 0, "rental_uris": {"android": "https://dc.lft.to/lastmile_qr_scan", "ios": "https://dc.lft.to/lastmile_qr_scan"}, "fusion_lon": 0.0}, {"lat": 38.91028816666667, "is_disabled": 0, "type": "electric_scooter", "lon": -76.99810866666667, "bike_id": "557a4876beea3c376a3b9f659a58b553", "fusion_lat": 0.0, "name": "557a4876beea3c376a3b9f659a58b553", "is_reserved": 0, "rental_uris": {"android": "https://dc.lft.to/lastmile_qr_scan", "ios": "https://dc.lft.to/lastmile_qr_scan"}, "fusion_lon": 0.0}, {"lat": 38.9580805, "is_disabled": 0, "type": "electric_scooter", "lon": -77.03164683333334, "bike_id": "9e39c2e1db3f83390b67104d1e40d477", "fusion_lat": 0.0, "name": "9e39c2e1db3f83390b67104d1e40d477", "is_reserved": 0, "rental_uris": {"android": "https://dc.lft.to/lastmile_qr_scan", "ios": "https://dc.lft.to/lastmile_qr_scan"}, "fusion_lon": 0.0}, {"lat": 38.864492166666665, "is_disabled": 0, "type": "electric_bike", "lon": -76.94545883333333, "bike_id": "435a9b6ef08a73f5123f6b6200ae917c", "fusion_lat": 0.0, "name": "435a9b6ef08a73f5123f6b6200ae917c", "is_reserved": 0, "rental_uris": {"android": "https://dc.lft.to/lastmile_qr_scan", "ios": "https://dc.lft.to/lastmile_qr_scan"}, "fusion_lon": 0.0}, {"lat": 38.854482, "is_disabled": 0, "type": "electric_scooter", "lon": -76.98578016666667, "bike_id": "32886fccc906bbfbd94d1a592363316f", "fusion_lat": 0.0, "name": "32886fccc906bbfbd94d1a592363316f", "is_reserved": 0, "rental_uris": {"android": "https://dc.lft.to/lastmile_qr_scan", "ios": "https://dc.lft.to/lastmile_qr_scan"}, "fusion_lon": 0.0},