{"data": {"bikes": [{"lon": -77.04334933333334, "bike_id": "bb6c9e21db8f2280314324bcabaf8a4a", "lat": 38.922239833333336, "fusion_lon": 0.0, "fusion_lat": 0.0, "type": "electric_scooter", "name": "bb6c9e21db8f2280314324bcabaf8a4a", "is_disabled": 0, "rental_uris": {"ios": "https://dc.lft.to/lastmile_qr_scan", "android": "https://dc.lft.to/lastmile_qr_scan"}, "is_reserved": 0}, {"lon": -77.04652833333333, "bike_id": "e5cae86f2c0102dcd765f7d5e802551a", "lat": 39.0550565, "fusion_lon": 0.0, "fusion_lat": 0.0, "type": "electric_bike", "name": "e5cae86f2c0102dcd765f7d5e802551a", "is_disabled": 0, "rental_uris": {"ios": "https://dc.lft.to/lastmile_qr_scan", "android": "https://dc.lft.to/lastmile_qr_scan"}, "is_reserved": 0}, {"lon": -77.0369855, "bike_id": "8cd6f42be2c37b621f2f9ba19744e8e3", "lat": 38.9264585, "fusion_lon": 0.0, "fusion_lat": 0.0, "type": "electric_scooter", "name": "8cd6f42be2c37b621f2f9ba19744e8e3", "is_disabled": 0, "rental_uris": {"ios": "https://dc.lft.to/lastmile_qr_scan", "android": "https://dc.lft.to/lastmile_qr_scan"}, "is_reserved": 0}, {"lon": -77.01766966666666, "bike_id": "12921730480ce21bf17225bb7dddf6fb", "lat": 38.887415833333336, "fusion_lon": 0.0, "fusion_lat": 0.0, "type": "electric_scooter", "name": "12921730480ce21bf17225bb7dddf6fb", "is_disabled": 0, "rental_uris": {"ios": "https://dc.lft.to/lastmile_qr_scan", "android": "https://dc.lft.to/lastmile_qr_scan"}, "is_reserved": 0}, {"lon": -77.04906283333334, "bike_id": "93ec7ce79729ffaa3aa3d34fc4feb8b3", "lat": 38.888404, "fusion_lon": 0.0, "fusion_lat": 0.0, "type": "electric_scooter", "name": "93ec7ce79729ffaa3aa3d34fc4feb8b3", "is_disabled": 0, "rental_uris": {"ios": "https://dc.lft.to/lastmile_qr_scan", "android": "https://dc.lft.to/lastmile_qr_scan"}, "is_reserved": 0}, {"lon": -77.0557985, "bike_id": "14004e74e3236a30c9cf777a1d394218", "lat": 38.933556333333335, "fusion_lon": 0.0, "fusion_lat": 0.0, "type": "electric_scooter", "name": "14004e74e3236a30c9cf777a1d394218", "is_disabled": 0, "rental_uris": {"ios": "https://dc.lft.to/lastmile_qr_scan", "android": "https://dc.lft.to/lastmile_qr_scan"}, "is_reserved": 0}, {"lon": -77.04171566666666, "bike_id": "20554019b48b25cfd838fb5fcbcaeddd", "lat": 38.9173235, "fusion_lon": 0.0, "fusion_lat": 0.0, "type": "electric_scooter", "name": "20554019b48b25cfd838fb5fcbcaeddd", "is_disabled": 0, "rental_uris": {"ios": "https://dc.lft.to/lastmile_qr_scan", "android": "https://dc.lft.to/lastmile_qr_scan"}, "is_reserved": 0}, {"lon": -76.88402983333333, "bike_id": "9ae25c8cc195031dabd4e60fdd21b3e7", "lat": 38.93169533333333, "fusion_lon": 0.0, "fusion_lat": 0.0, "type": "electric_bike", "name": "9ae25c8cc195031dabd4e60fdd21b3e7", "is_disabled": 0, "rental_uris": {"ios": "https://dc.lft.to/lastmile_qr_scan", "android": "https://dc.lft.to/lastmile_qr_scan"}, "is_reserved": 0}, {"lon": -76.956576, "bike_id": "02e2dc6d5fff0333791b973fdf40abf9", "lat": 38.89625816666667, "fusion_lon": 0.0, "fusion_lat": 0.0, "type": "electric_scooter", "name": "02e2dc6d5fff0333791b973fdf40abf9", "is_disabled": 0, "rental_uris": {"ios": "https://dc.lft.to/lastmile_qr_scan", "android": "https://dc.lft.to/lastmile_qr_scan"}, "is_reserved": 0}, {"lon": -77.01805866666666, "bike_id": "29ce310f9ae78ea63885f8eebacf3a61", "lat": 38.9648485, "fusion_lon": 0.0, "fusion_lat": 0.0, "type": "electric_scooter", "name": "29ce310f9ae78ea63885f8eebacf3a61", "is_disabled": 0, "rental_uris": {"ios": "https://dc.lft.to/lastmile_qr_scan", "android": "https://dc.lft.to/lastmile_qr_scan"}, "is_reserved": 0}, {"lon": -77.03881633333333, "bike_id": "e6e9026ddd1bf264f0e4bb2eadb646db", "lat": 38.948697833333334, "fusion_lon": 0.0, "fusion_lat": 0.0, "type": "electric_scooter", "name": "e6e9026ddd1bf264f0e4bb2eadb646db", "is_disabled": 0, "rental_uris": {"ios": "https://dc.lft.to/lastmile_qr_scan", "android": "https://dc.lft.to/lastmile_qr_scan"}, "is_reserved": 0}, {"lon": -77.02757083333333, "bike_id": "486c578e553c86a0ba817033177aec8b", "lat": 38.96571, "fusion_lon": 0.0, "fusion_lat": 0.0, "type": "electric_bike", "name": "486c578e553c86a0ba817033177aec8b", "is_disabled": 0, "rental_uris": {"ios": "https://dc.lft.to/lastmile_qr_scan", "android": "https://dc.lft.to/lastmile_qr_scan"}, "is_reserved": 0}, {"lon": -77.02968116666666, "bike_id": "ff25d846fac9989c9afdf88b121202fe", "lat": 38.8965935, "fusion_lon": 0.0, "fusion_lat": 0.0, "type": "electric_scooter", "name": "ff25d846fac9989c9afdf88b121202fe", "is_disabled": 0, "rental_uris": {"ios": "https://dc.lft.to/lastmile_qr_scan", "android": "https://dc.lft.to/lastmile_qr_scan"}, "is_reserved": 0}, {"lon": -77.013064, "bike_id": "8cc892a95e7096fde02f068132773097", "lat": 38.9433275, "fusion_lon": 0.0, "fusion_lat": 0.0, "type": "electric_scooter", "name": "8cc892a95e7096fde02f068132773097", "is_disabled": 0, "rental_uris": {"ios": "https://dc.lft.to/lastmile_qr_scan", "android": "https://dc.lft.to/lastmile_qr_scan"}, "is_reserved": 0}, {"lon": -77.03206616666667, "bike_id": "2f0e4e7d1ddb87bda136281062e127a9", "lat": 38.919270833333336, "fusion_lon": 0.0, "fusion_lat": 0.0, "type": "electric_scooter", "name": "2f0e4e7d1ddb87bda136281062e127a9", "is_disabled": 0, "rental_uris": {"ios": "https://dc.lft.to/lastmile_qr_scan", "android": "https://dc.lft.to/lastmile_qr_scan"}, "is_reserved": 0}, {"lon": -77.03439033333333, "bike_id": "95f6d3b144eda0b96b98b4ad1b02b092", "lat": 38.91800583333333, "fusion_lon": 0.0, "fusion_lat": 0.0, "type": "electric_scooter", "name": "95f6d3b144eda0b96b98b4ad1b02b092", "is_disabled": 0, "rental_uris": {"ios": "https://dc.lft.to/lastmile_qr_scan", "android": "https://dc.lft.to/lastmile_qr_scan"}, "is_reserved": 0}, {"lon": -77.048788, "bike_id": "058946593c2f0d8530248033cacc6c0d", "lat": 38.8923275, "fusion_lon": 0.0, "fusion_lat": 0.0, "type": "electric_scooter", "name": "058946593c2f0d8530248033cacc6c0d", "is_disabled": 0, "rental_uris": {"ios": "https://dc.lft.to/lastmile_qr_scan", "android": "https://dc.lft.to/lastmile_qr_scan"}, "is_reserved": 0}, {"lon": -77.00574033333334, "bike_id": "e5f7b619dafe33a009796ad563250061", "lat": 38.83592483333334, "fusion_lon": 0.0, "fusion_lat": 0.0, "type": "electric_scooter", "name": "e5f7b619dafe33a009796ad563250061", "is_disabled": 0, "rental_uris": {"ios": "https://dc.lft.to/lastmile_qr_scan", "android": "https://dc.lft.to/lastmile_qr_scan"}, "is_reserved": 0}, {"lon": -76.993831, "bike_id": "3854c51af9a6914433ca0ad8e4e88140", "lat": 38.97189933333333, "fusion_lon": 0.0, "fusion_lat": 0.0, "type": "electric_bike", "name": "3854c51af9a6914433ca0ad8e4e88140", "is_disabled": 0, "rental_uris": {"ios": "https://dc.lft.to/lastmile_qr_scan", "android": "https://dc.lft.to/lastmile_qr_scan"}, "is_reserved": 0}, {"lon": -77.0443345, "bike_id": "5a99c11e6734eb557c1932300d43bc96", "lat": 38.90961983333333, "fusion_lon": 0.0, "fusion_lat": 0.0, "type": "electric_scooter", "name": "5a99c11e6734eb557c1932300d43bc96", "is_disabled": 0, "rental_uris": {"ios": "https://dc.lft.to/lastmile_qr_scan", "android": "https://dc.lft.to/lastmile_qr_scan"}, "is_reserved": 0}, {"lon": -76.987467, "bike_id": "721eb0cf0022299e2e1c6e323adf53b1", "lat": 38.900324, "fusion_lon": 0.0, "fusion_lat": 0.0, "type": "electric_scooter", "name": "721eb0cf0022299e2e1c6e323adf53b1", "is_disabled": 0, "rental_uris": {"ios": "https://dc.lft.to/lastmile_qr_scan", "android": "https://dc.lft.to/lastmile_qr_scan"}, "is_reserved": 0}, {"lon": -77.07007883333333, "bike_id": "63c4126ddd7a71f651b8e71a585815e8", "lat": 38.958551166666666, "fusion_lon": 0.0, "fusion_lat": 0.0, "type": "electric_scooter", "name": "63c4126ddd7a71f651b8e71a585815e8", "is_disabled": 0, "rental_uris": {"ios": "https://dc.lft.to/lastmile_qr_scan", "android": "https://dc.lft.to/lastmile_qr_scan"}, "is_reserved": 0}, {"lon": -77.02930183333334, "bike_id": "aa1e6f774fcc51a38f852880997b197a", "lat": 38.885919333333334, "fusion_lon": 0.0, "fusion_lat": 0.0, "type": "electric_bike", "name": "aa1e6f774fcc51a38f852880997b197a", "is_disabled": 0, "rental_uris": {"ios": "https://dc.lft.to/lastmile_qr_scan", "android": "https://dc.lft.to/lastmile_qr_scan"}, "is_reserved": 0}, {"lon": -77.039465, "bike_id": "e70df03a25684126807a1f5235271948", "lat": 38.900817333333336, "fusion_lon": 0.0, "fusion_lat": 0.0, "type": "electric_scooter", "name": "e70df03a25684126807a1f5235271948", "is_disabled": 0, "rental_uris": {"ios": "https://dc.lft.to/lastmile_qr_scan", "android": "https://dc.lft.to/lastmile_qr_scan"}, "is_reserved": 0}, {"lon": -77.02894316666666, "bike_id": "bb28a487b662f8893905ca9f98e0122c", "lat": 38.91698433333333, "fusion_lon": 0.0, "fusion_lat": 0.0, "type": "electric_scooter", "name": "bb28a487b662f8893905ca9f98e0122c", "is_disabled": 0, "rental_uris": {"ios": "https://dc.lft.to/lastmile_qr_scan", "android": "https://dc.lft.to/lastmile_qr_scan"}, "is_reserved": 0}, {"lon": -77.052041, "bike_id": "df6ad5ddffe2174bf10a53e8fffba0bc", "lat": 38.899593333333335, "fusion_lon": 0.0, "fusion_lat": 0.0, "type": "electric_scooter", "name": "df6ad5ddffe2174bf10a53e8fffba0bc", "is_disabled": 0, "rental_uris": {"ios": "https://dc.lft.to/lastmile_qr_scan", "android": "https://dc.lft.to/lastmile_qr_scan"}, "is_reserved": 0}, {"lon": -77.0293655, "bike_id": "1122d2a8885b75862625eea9462233c8", "lat": 38.9016655, "fusion_lon": 0.0, "fusion_lat": 0.0, "type": "electric_scooter", "name": "1122d2a8885b75862625eea9462233c8", "is_disabled": 0, "rental_uris": {"ios": "https://dc.lft.to/lastmile_qr_scan", "android": "https://dc.lft.to/lastmile_qr_scan"}, "is_reserved": 0}, {"lon": -77.03222066666666, "bike_id": "d1407442d5ca60791689ca01d8c80c29", "lat": 38.928672666666664, "fusion_lon": 0.0, "fusion_lat": 0.0, "type": "electric_scooter", "name": "d1407442d5ca60791689ca01d8c80c29", "is_disabled": 0, "rental_uris": {"ios": "https://dc.lft.to/lastmile_qr_scan", "android": "https://dc.lft.to/lastmile_qr_scan"}, "is_reserved": 0}, {"lon": -77.0384505, "bike_id": "0c40deda318a3bf066cbef48eb73cf6b", "lat": 38.91016033333333, "fusion_lon": 0.0, "fusion_lat": 0.0, "type": "electric_scooter", "name": "0c40deda318a3bf066cbef48eb73cf6b", "is_disabled": 0, "rental_uris": {"ios": "https://dc.lft.to/lastmile_qr_scan", "android": "https://dc.lft.to/lastmile_qr_scan"}, "is_reserved": 0}, {"lon": -77.00195733333334, "bike_id": "39de3dc55b7bfdb1956a2e7aa62a5b7d", "lat": 38.90237033333333, "fusion_lon": 0.0, "fusion_lat": 0.0, "type": "electric_scooter", "name": "39de3dc55b7bfdb1956a2e7aa62a5b7d", "is_disabled": 0, "rental_uris": {"ios": "https://dc.lft.to/lastmile_qr_scan", "android": "https://dc.lft.to/lastmile_qr_scan"}, "is_reserved": 0}, {"lon": -77.04483166666667, "bike_id": "48acf560c4dc76afbdb3ad6074c151f2", "lat": 38.924255, "fusion_lon": 0.0, "fusion_lat": 0.0, "type": "electric_scooter", "name": "48acf560c4dc76afbdb3ad6074c151f2", "is_disabled": 0, "rental_uris": {"ios": "https://dc.lft.to/lastmile_qr_scan", "android": "https://dc.lft.to/lastmile_qr_scan"}, "is_reserved": 0}, {"lon": -77.03646466666666, "bike_id": "b23689763522573f61fc20dc5a7bf8e0", "lat": 38.9028215, "fusion_lon": 0.0, "fusion_lat": 0.0, "type": "electric_scooter", "name": "b23689763522573f61fc20dc5a7bf8e0", "is_disabled": 0, "rental_uris": {"ios": "https://dc.lft.to/lastmile_qr_scan", "android": "https://dc.lft.to/lastmile_qr_scan"}, "is_reserved": 0}, {"lon": -76.94879333333333, "bike_id": "51fb698ba5c95e2daad2520fb713d068", "lat": 38.89426916666667, "fusion_lon": 0.0, "fusion_lat": 0.0, "type": "electric_scooter", "name": "51fb698ba5c95e2daad2520fb713d068", "is_disabled": 0, "rental_uris": {"ios": "https://dc.lft.to/lastmile_qr_scan", "android": "https://dc.lft.to/lastmile_qr_scan"}, "is_reserved": 0}, {"lon": -77.026963, "bike_id": "066e893380bcf747a3cc3c19725bd419", "lat": 38.90844116666667, "fusion_lon": 0.0, "fusion_lat": 0.0, "type": "electric_scooter", "name": "066e893380bcf747a3cc3c19725bd419", "is_disabled": 0, "rental_uris": {"ios": "https://dc.lft.to/lastmile_qr_scan", "android": "https://dc.lft.to/lastmile_qr_scan"}, "is_reserved": 0}, {"lon": -77.0198515, "bike_id": "510b72d9e17ce9d68dab4f0c0bdedb12", "lat": 38.925506666666664, "fusion_lon": 0.0, "fusion_lat": 0.0, "type": "electric_bike", "name": "510b72d9e17ce9d68dab4f0c0bdedb12", "is_disabled": 0, "rental_uris": {"ios": "https://dc.lft.to/lastmile_qr_scan", "android": "https://dc.lft.to/lastmile_qr_scan"}, "is_reserved": 0}, {"lon": -77.044179, "bike_id": "c60ce49a5df387f610b56afaa3fc2de1", "lat": 38.911362833333335, "fusion_lon": 0.0, "fusion_lat": 0.0, "type": "electric_scooter", "name": "c60ce49a5df387f610b56afaa3fc2de1", "is_disabled": 0, "rental_uris": {"ios": "https://dc.lft.to/lastmile_qr_scan", "android": "https://dc.lft.to/lastmile_qr_scan"}, "is_reserved": 0}, {"lon": -77.04485333333334, "bike_id": "097b9985e93b60853d8ab94424ec1774", "lat": 38.9193725, "fusion_lon": 0.0, "fusion_lat": 0.0, "type": "electric_scooter", "name": "097b9985e93b60853d8ab94424ec1774", "is_disabled": 0, "rental_uris": {"ios": "https://dc.lft.to/lastmile_qr_scan", "android": "https://dc.lft.to/lastmile_qr_scan"}, "is_reserved": 0}, {"lon": -76.941225, "bike_id": "7f83d4ead60171e0e5813317d8388a7d", "lat": 38.908296666666665, "fusion_lon": 0.0, "fusion_lat": 0.0, "type": "electric_scooter", "name": "7f83d4ead60171e0e5813317d8388a7d", "is_disabled": 0, "rental_uris": {"ios": "https://dc.lft.to/lastmile_qr_scan", "android": "https://dc.lft.to/lastmile_qr_scan"}, "is_reserved": 0}, {"lon": -76.99050466666667, "bike_id": "b695f7db572198be0c299fe6572fda6c", "lat": 38.863816, "fusion_lon": 0.0, "fusion_lat": 0.0, "type": "electric_scooter", "name": "b695f7db572198be0c299fe6572fda6c", "is_disabled": 0, "rental_uris": {"ios": "https://dc.lft.to/lastmile_qr_scan", "android": "https://dc.lft.to/lastmile_qr_scan"}, "is_reserved": 0}, {"lon": -77.01222866666667, "bike_id": "6d9e545fb21091daaec4ada407179aae", "lat": 38.913491666666665, "fusion_lon": 0.0, "fusion_lat": 0.0, "type": "electric_scooter", "name": "6d9e545fb21091daaec4ada407179aae", "is_disabled": 0, "rental_uris": {"ios": "https://dc.lft.to/lastmile_qr_scan", "android": "https://dc.lft.to/lastmile_qr_scan"}, "is_reserved": 0}, {"lon": -77.01606316666667, "bike_id": "0587abea612609ab2cd50c8322ee86a8", "lat": 38.91761283333334, "fusion_lon": 0.0, "fusion_lat": 0.0, "type": "electric_scooter", "name": "0587abea612609ab2cd50c8322ee86a8", "is_disabled": 0, "rental_uris": {"ios": "https://dc.lft.to/lastmile_qr_scan", "android": "https://dc.lft.to/lastmile_qr_scan"}, "is_reserved": 0}, {"lon": -77.00014683333333, "bike_id": "2b38e353d4c8c7f2fa41af8fa7a90d2a", "lat": 38.890871, "fusion_lon": 0.0, "fusion_lat": 0.0, "type": "electric_scooter", "name": "2b38e353d4c8c7f2fa41af8fa7a90d2a", "is_disabled": 0, "rental_uris": {"ios": "https://dc.lft.to/lastmile_qr_scan", "android": "https://dc.lft.to/lastmile_qr_scan"}, "is_reserved": 0}, {"lon": -77.02767683333333, "bike_id": "2d6568b00e6d78da2d2e554ec0586a9e", "lat": 38.892205833333335, "fusion_lon": 0.0, "fusion_lat": 0.0, "type": "electric_scooter", "name": "2d6568b00e6d78da2d2e554ec0586a9e", "is_disabled": 0, "rental_uris": {"ios": "https://dc.lft.to/lastmile_qr_scan", "android": "https://dc.lft.to/lastmile_qr_scan"}, "is_reserved": 0}, {"lon": -77.0006785, "bike_id": "afcc0d0b2c44f4f10422e89dded78d97", "lat": 38.90089116666667, "fusion_lon": 0.0, "fusion_lat": 0.0, "type": "electric_scooter", "name": "afcc0d0b2c44f4f10422e89dded78d97", "is_disabled": 0, "rental_uris": {"ios": "https://dc.lft.to/lastmile_qr_scan", "android": "https://dc.lft.to/lastmile_qr_scan"}, "is_reserved": 0}, {"lon": -77.02579083333333, "bike_id": "f41f0f2476f688d371b273fb4ec01c76", "lat": 38.8874045, "fusion_lon": 0.0, "fusion_lat": 0.0, "type": "electric_scooter", "name": "f41f0f2476f688d371b273fb4ec01c76", "is_disabled": 0, "rental_uris": {"ios": "https://dc.lft.to/lastmile_qr_scan", "android": "https://dc.lft.to/lastmile_qr_scan"}, "is_reserved": 0}, {"lon": -77.0244425, "bike_id": "645821f51a83f7bf67db6fcea2686f34", "lat": 38.92597333333333, "fusion_lon": 0.0, "fusion_lat": 0.0, "type": "electric_scooter", "name": "645821f51a83f7bf67db6fcea2686f34", "is_disabled": 0, "rental_uris": {"ios": "https://dc.lft.to/lastmile_qr_scan", "android": "https://dc.lft.to/lastmile_qr_scan"}, "is_reserved": 0}, {"lon": -77.02755066666667, "bike_id": "5a64c39f9cca5ecf8ccf3ff5d0c4f674", "lat": 38.95781383333333, "fusion_lon": 0.0, "fusion_lat": 0.0, "type": "electric_scooter", "name": "5a64c39f9cca5ecf8ccf3ff5d0c4f674", "is_disabled": 0, "rental_uris": {"ios": "https://dc.lft.to/lastmile_qr_scan", "android": "https://dc.lft.to/lastmile_qr_scan"}, "is_reserved": 0}, {"lon": -77.00676266666666, "bike_id": "21028852562fff8ff7d138193042a67c", "lat": 38.8349945, "fusion_lon": 0.0, "fusion_lat": 0.0, "type": "electric_scooter", "name": "21028852562fff8ff7d138193042a67c", "is_disabled": 0, "rental_uris": {"ios": "https://dc.lft.to/lastmile_qr_scan", "android": "https://dc.lft.to/lastmile_qr_scan"}, "is_reserved": 0}, {"lon": -76.99367466666666, "bike_id": "7fc1b24ad764712b4093c9b29a0e2962", "lat": 38.893759333333335, "fusion_lon": 0.0, "fusion_lat": 0.0, "type": "electric_scooter", "name": "7fc1b24ad764712b4093c9b29a0e2962", "is_disabled": 0, "rental_uris": {"ios": "https://dc.lft.to/lastmile_qr_scan", "android": "https://dc.lft.to/lastmile_qr_scan"}, "is_reserved": 0}, {"lon": -77.023034, "bike_id": "b3e69440e37dec2ae747a1b11e02fb6e", "lat": 38.91628516666667, "fusion_lon": 0.0, "fusion_lat": 0.0, "type": "electric_scooter", "name": "b3e69440e37dec2ae747a1b11e02fb6e", "is_disabled": 0, "rental_uris": {"ios": "https://dc.lft.to/lastmile_qr_scan", "android": "https://dc.lft.to/lastmile_qr_scan"}, "is_reserved": 0}, {"lon": -77.041453, "bike_id": "474d6ec18753c7e58387eb74e9dc87af", "lat": 38.919712, "fusion_lon": 0.0, "fusion_lat": 0.0, "type": "electric_scooter", "name": "474d6ec18753c7e58387eb74e9dc87af", "is_disabled": 0, "rental_uris": {"ios": "https://dc.lft.to/lastmile_qr_scan", "android": "https://dc.lft.to/lastmile_qr_scan"}, "is_reserved": 0}, {"lon": -76.98018733333333, "bike_id": "7db683b9a1369745125773f7a4f5c0bd", "lat": 38.8532735, "fusion_lon": 0.0, "fusion_lat": 0.0, "type": "electric_bike", "name": "7db683b9a1369745125773f7a4f5c0bd", "is_disabled": 0, "rental_uris": {"ios": "https://dc.lft.to/lastmile_qr_scan", "android": "https://dc.lft.to/lastmile_qr_scan"}, "is_reserved": 0}, {"lon": -77.079714, "bike_id": "475c1f741792fe2686fc34c5efe5846b", "lat": 38.85727383333333, "fusion_lon": 0.0, "fusion_lat": 0.0, "type": "electric_bike", "name": "475c1f741792fe2686fc34c5efe5846b", "is_disabled": 0, "rental_uris": {"ios": "https://dc.lft.to/lastmile_qr_scan", "android": "https://dc.lft.to/lastmile_qr_scan"}, "is_reserved": 0}, {"lon": -76.99519283333333, "bike_id": "3b4b537a3c426cdb639d35057dce5eeb", "lat": 38.86263983333333, "fusion_lon": 0.0, "fusion_lat": 0.0, "type": "electric_scooter", "name": "3b4b537a3c426cdb639d35057dce5eeb", "is_disabled": 0, "rental_uris": {"ios": "https://dc.lft.to/lastmile_qr_scan", "android": "https://dc.lft.to/lastmile_qr_scan"}, "is_reserved": 0}, {"lon": -76.94877533333333, "bike_id": "55056839e1dde41cac1f64ee17fe3f7a", "lat": 38.895141, "fusion_lon": 0.0, "fusion_lat": 0.0, "type": "electric_scooter", "name": "55056839e1dde41cac1f64ee17fe3f7a", "is_disabled": 0, "rental_uris": {"ios": "https://dc.lft.to/lastmile_qr_scan", "android": "https://dc.lft.to/lastmile_qr_scan"}, "is_reserved": 0}, {"lon": -77.03108383333333, "bike_id": "f969351821a7b108a15f4dd1ba38a134", "lat": 38.91562916666667, "fusion_lon": 0.0, "fusion_lat": 0.0, "type": "electric_scooter", "name": "f969351821a7b108a15f4dd1ba38a134", "is_disabled": 0, "rental_uris": {"ios": "https://dc.lft.to/lastmile_qr_scan", "android": "https://dc.lft.to/lastmile_qr_scan"}, "is_reserved": 0}, {"lon": -76.99073283333334, "bike_id": "1e6e6b9a268f4215edf132bef78e87dc", "lat": 38.8981175, "fusion_lon": 0.0, "fusion_lat": 0.0, "type": "electric_bike", "name": "1e6e6b9a268f4215edf132bef78e87dc", "is_disabled": 0, "rental_uris": {"ios": "https://dc.lft.to/lastmile_qr_scan", "android": "https://dc.lft.to/lastmile_qr_scan"}, "is_reserved": 0}, {"lon": -77.02158833333333, "bike_id": "885265ffcf417b3f27bda8015fe21a1b", "lat": 38.95076683333333, "fusion_lon": 0.0, "fusion_lat": 0.0, "type": "electric_scooter", "name": "885265ffcf417b3f27bda8015fe21a1b", "is_disabled": 0, "rental_uris": {"ios": "https://dc.lft.to/lastmile_qr_scan", "android": "https://dc.lft.to/lastmile_qr_scan"}, "is_reserved": 0}, {"lon": -77.020073, "bike_id": "7d1337274ea69c52890e24429cb55995", "lat": 38.92418583333333, "fusion_lon": 0.0, "fusion_lat": 0.0, "type": "electric_scooter", "name": "7d1337274ea69c52890e24429cb55995", "is_disabled": 0, "rental_uris": {"ios": "https://dc.lft.to/lastmile_qr_scan", "android": "https://dc.lft.to/lastmile_qr_scan"}, "is_reserved": 0}, {"lon": -77.03419366666667, "bike_id": "2f8c0e9c7ebddb2c1761a3f35ab31993", "lat": 38.902464, "fusion_lon": 0.0, "fusion_lat": 0.0, "type": "electric_scooter", "name": "2f8c0e9c7ebddb2c1761a3f35ab31993", "is_disabled": 0, "rental_uris": {"ios": "https://dc.lft.to/lastmile_qr_scan", "android": "https://dc.lft.to/lastmile_qr_scan"}, "is_reserved": 0}, {"lon": -77.03437816666667, "bike_id": "9e9ad1c1dc3525a589a4fc5c1f98a89f", "lat": 38.90987833333333, "fusion_lon": 0.0, "fusion_lat": 0.0, "type": "electric_scooter", "name": "9e9ad1c1dc3525a589a4fc5c1f98a89f", "is_disabled": 0, "rental_uris": {"ios": "https://dc.lft.to/lastmile_qr_scan", "android": "https://dc.lft.to/lastmile_qr_scan"}, "is_reserved": 0}, {"lon": -77.03735883333333, "bike_id": "e5b7f02fabba7c428b49adeaa7abf5e0", "lat": 38.92024833333333, "fusion_lon": 0.0, "fusion_lat": 0.0, "type": "electric_scooter", "name": "e5b7f02fabba7c428b49adeaa7abf5e0", "is_disabled": 0, "rental_uris": {"ios": "https://dc.lft.to/lastmile_qr_scan", "android": "https://dc.lft.to/lastmile_qr_scan"}, "is_reserved": 0}, {"lon": -77.05233333333334, "bike_id": "50f20e8116986652820236d87d11e167", "lat": 38.924688, "fusion_lon": 0.0, "fusion_lat": 0.0, "type": "electric_scooter", "name": "50f20e8116986652820236d87d11e167", "is_disabled": 0, "rental_uris": {"ios": "https://dc.lft.to/lastmile_qr_scan", "android": "https://dc.lft.to/lastmile_qr_scan"}, "is_reserved": 0}, {"lon": -76.99615333333334, "bike_id": "7bc14022aeffb1caa4246b496704ecd7", "lat": 38.88696, "fusion_lon": 0.0, "fusion_lat": 0.0, "type": "electric_scooter", "name": "7bc14022aeffb1caa4246b496704ecd7", "is_disabled": 0, "rental_uris": {"ios": "https://dc.lft.to/lastmile_qr_scan", "android": "https://dc.lft.to/lastmile_qr_scan"}, "is_reserved": 0}, {"lon": -76.98985966666666, "bike_id": "68bf44b13115efa96a17fac1b48bce34", "lat": 38.9336425, "fusion_lon": 0.0, "fusion_lat": 0.0, "type": "electric_scooter", "name": "68bf44b13115efa96a17fac1b48bce34", "is_disabled": 0, "rental_uris": {"ios": "https://dc.lft.to/lastmile_qr_scan", "android": "https://dc.lft.to/lastmile_qr_scan"}, "is_reserved": 0}, {"lon": -77.04376916666666, "bike_id": "47918442674d52d0cf4834c588d3c30f", "lat": 38.920707, "fusion_lon": 0.0, "fusion_lat": 0.0, "type": "electric_scooter", "name": "47918442674d52d0cf4834c588d3c30f", "is_disabled": 0, "rental_uris": {"ios": "https://dc.lft.to/lastmile_qr_scan", "android": "https://dc.lft.to/lastmile_qr_scan"}, "is_reserved": 0}, {"lon": -77.04428566666667, "bike_id": "81ab4c26403554e62e4dad7e9d441852", "lat": 38.921284166666666, "fusion_lon": 0.0, "fusion_lat": 0.0, "type": "electric_scooter", "name": "81ab4c26403554e62e4dad7e9d441852", "is_disabled": 0, "rental_uris": {"ios": "https://dc.lft.to/lastmile_qr_scan", "android": "https://dc.lft.to/lastmile_qr_scan"}, "is_reserved": 0}, {"lon": -77.01636016666667, "bike_id": "6dcad575ff6bebc6e03e2b5ed1636bc9", "lat": 38.928988333333336, "fusion_lon": 0.0, "fusion_lat": 0.0, "type": "electric_scooter", "name": "6dcad575ff6bebc6e03e2b5ed1636bc9", "is_disabled": 0, "rental_uris": {"ios": "https://dc.lft.to/lastmile_qr_scan", "android": "https://dc.lft.to/lastmile_qr_scan"}, "is_reserved": 0}, {"lon": -77.02202, "bike_id": "476e0fd4a45257e817395b230557d21c", "lat": 38.90213383333333, "fusion_lon": 0.0, "fusion_lat": 0.0, "type": "electric_scooter", "name": "476e0fd4a45257e817395b230557d21c", "is_disabled": 0, "rental_uris": {"ios": "https://dc.lft.to/lastmile_qr_scan", "android": "https://dc.lft.to/lastmile_qr_scan"}, "is_reserved": 0}, {"lon": -77.06276983333333, "bike_id": "609666c7d46c964efbd642a857646ea4", "lat": 38.90544966666667, "fusion_lon": 0.0, "fusion_lat": 0.0, "type": "electric_scooter", "name": "609666c7d46c964efbd642a857646ea4", "is_disabled": 0, "rental_uris": {"ios": "https://dc.lft.to/lastmile_qr_scan", "android": "https://dc.lft.to/lastmile_qr_scan"}, "is_reserved": 0}, {"lon": -77.02793666666666, "bike_id": "05146a0bff49fbbead50d64c92831b99", "lat": 38.93020533333333, "fusion_lon": 0.0, "fusion_lat": 0.0, "type": "electric_scooter", "name": "05146a0bff49fbbead50d64c92831b99", "is_disabled": 0, "rental_uris": {"ios": "https://dc.lft.to/lastmile_qr_scan", "android": "https://dc.lft.to/lastmile_qr_scan"}, "is_reserved": 0}, {"lon": -77.03859283333334, "bike_id": "982055de2080517f396a53b57ff99965", "lat": 38.911977666666665, "fusion_lon": 0.0, "fusion_lat": 0.0, "type": "electric_scooter", "name": "982055de2080517f396a53b57ff99965", "is_disabled": 0, "rental_uris": {"ios": "https://dc.lft.to/lastmile_qr_scan", "android": "https://dc.lft.to/lastmile_qr_scan"}, "is_reserved": 0}, {"lon": -77.077614, "bike_id": "63466265938b441af400565b605b23e7", "lat": 38.92559166666667, "fusion_lon": 0.0, "fusion_lat": 0.0, "type": "electric_scooter", "name": "63466265938b441af400565b605b23e7", "is_disabled": 0, "rental_uris": {"ios": "https://dc.lft.to/lastmile_qr_scan", "android": "https://dc.lft.to/lastmile_qr_scan"}, "is_reserved": 0}, {"lon": -77.05813116666667, "bike_id": "6e637842063a5a34b7db049da9df7ade", "lat": 38.935097999999996, "fusion_lon": 0.0, "fusion_lat": 0.0, "type": "electric_scooter", "name": "6e637842063a5a34b7db049da9df7ade", "is_disabled": 0, "rental_uris": {"ios": "https://dc.lft.to/lastmile_qr_scan", "android": "https://dc.lft.to/lastmile_qr_scan"}, "is_reserved": 0}, {"lon": -77.0321245, "bike_id": "f76c5eefd6daf6f30f4ea793554aa8b0", "lat": 38.9083025, "fusion_lon": 0.0, "fusion_lat": 0.0, "type": "electric_scooter", "name": "f76c5eefd6daf6f30f4ea793554aa8b0", "is_disabled": 0, "rental_uris": {"ios": "https://dc.lft.to/lastmile_qr_scan", "android": "https://dc.lft.to/lastmile_qr_scan"}, "is_reserved": 0}, {"lon": -77.0416345, "bike_id": "6891ca1af8788a97defe840ea6dcb624", "lat": 38.9125555, "fusion_lon": 0.0, "fusion_lat": 0.0, "type": "electric_scooter", "name": "6891ca1af8788a97defe840ea6dcb624", "is_disabled": 0, "rental_uris": {"ios": "https://dc.lft.to/lastmile_qr_scan", "android": "https://dc.lft.to/lastmile_qr_scan"}, "is_reserved": 0}, {"lon": -77.03344966666667, "bike_id": "2a5021d414315899fbf6a04a3bf2e1ce", "lat": 38.89899883333333, "fusion_lon": 0.0, "fusion_lat": 0.0, "type": "electric_scooter", "name": "2a5021d414315899fbf6a04a3bf2e1ce", "is_disabled": 0, "rental_uris": {"ios": "https://dc.lft.to/lastmile_qr_scan", "android": "https://dc.lft.to/lastmile_qr_scan"}, "is_reserved": 0}, {"lon": -77.02494783333333, "bike_id": "14c3b41038fa72e5a0079043f2f14bc6", "lat": 38.93095, "fusion_lon": 0.0, "fusion_lat": 0.0, "type": "electric_scooter", "name": "14c3b41038fa72e5a0079043f2f14bc6", "is_disabled": 0, "rental_uris": {"ios": "https://dc.lft.to/lastmile_qr_scan", "android": "https://dc.lft.to/lastmile_qr_scan"}, "is_reserved": 0}, {"lon": -76.93735866666667, "bike_id": "8eb5895e8a720ba5682a3815fbabc799", "lat": 38.890227, "fusion_lon": 0.0, "fusion_lat": 0.0, "type": "electric_scooter", "name": "8eb5895e8a720ba5682a3815fbabc799", "is_disabled": 0, "rental_uris": {"ios": "https://dc.lft.to/lastmile_qr_scan", "android": "https://dc.lft.to/lastmile_qr_scan"}, "is_reserved": 0}, {"lon": -77.03382333333333, "bike_id": "a6c379c0180f8dfbb5af38503c4559ac", "lat": 38.921625666666664, "fusion_lon": 0.0, "fusion_lat": 0.0, "type": "electric_scooter", "name": "a6c379c0180f8dfbb5af38503c4559ac", "is_disabled": 0, "rental_uris": {"ios": "https://dc.lft.to/lastmile_qr_scan", "android": "https://dc.lft.to/lastmile_qr_scan"}, "is_reserved": 0}, {"lon": -77.023309, "bike_id": "121c1319d51ac8c80264df38717272a0", "lat": 38.908666, "fusion_lon": 0.0, "fusion_lat": 0.0, "type": "electric_scooter", "name": "121c1319d51ac8c80264df38717272a0", "is_disabled": 0, "rental_uris": {"ios": "https://dc.lft.to/lastmile_qr_scan", "android": "https://dc.lft.to/lastmile_qr_scan"}, "is_reserved": 0}, {"lon": -77.03278033333333, "bike_id": "d080c791a25f974b046f225aa5abec09", "lat": 38.9291305, "fusion_lon": 0.0, "fusion_lat": 0.0, "type": "electric_scooter", "name": "d080c791a25f974b046f225aa5abec09", "is_disabled": 0, "rental_uris": {"ios": "https://dc.lft.to/lastmile_qr_scan", "android": "https://dc.lft.to/lastmile_qr_scan"}, "is_reserved": 0}, {"lon": -77.003069, "bike_id": "df490a69e47479284807aadad07bed94", "lat": 38.89516416666667, "fusion_lon": 0.0, "fusion_lat": 0.0, "type": "electric_scooter", "name": "df490a69e47479284807aadad07bed94", "is_disabled": 0, "rental_uris": {"ios": "https://dc.lft.to/lastmile_qr_scan", "android": "https://dc.lft.to/lastmile_qr_scan"}, "is_reserved": 0}, {"lon": -77.00956066666667, "bike_id": "47b12483d71c458d7d52b11ef832cb75", "lat": 38.921439166666666, "fusion_lon": 0.0, "fusion_lat": 0.0, "type": "electric_scooter", "name": "47b12483d71c458d7d52b11ef832cb75", "is_disabled": 0, "rental_uris": {"ios": "https://dc.lft.to/lastmile_qr_scan", "android": "https://dc.lft.to/lastmile_qr_scan"}, "is_reserved": 0}, {"lon": -77.00056983333333, "bike_id": "99982ced8e975e8bb7b49fdb51d4e48a", "lat": 38.907076, "fusion_lon": 0.0, "fusion_lat": 0.0, "type": "electric_scooter", "name": "99982ced8e975e8bb7b49fdb51d4e48a", "is_disabled": 0, "rental_uris": {"ios": "https://dc.lft.to/lastmile_qr_scan", "android": "https://dc.lft.to/lastmile_qr_scan"}, "is_reserved": 0}, {"lon": -77.03206866666666, "bike_id": "0e573ef941d73297fbf881b8f4796d39", "lat": 38.91104283333333, "fusion_lon": 0.0, "fusion_lat": 0.0, "type": "electric_scooter", "name": "0e573ef941d73297fbf881b8f4796d39", "is_disabled": 0, "rental_uris": {"ios": "https://dc.lft.to/lastmile_qr_scan", "android": "https://dc.lft.to/lastmile_qr_scan"}, "is_reserved": 0}, {"lon": -76.9979, "bike_id": "4b9429ca9d9009fe90c48b2fa4cade30", "lat": 38.890915166666666, "fusion_lon": 0.0, "fusion_lat": 0.0, "type": "electric_scooter", "name": "4b9429ca9d9009fe90c48b2fa4cade30", "is_disabled": 0, "rental_uris": {"ios": "https://dc.lft.to/lastmile_qr_scan", "android": "https://dc.lft.to/lastmile_qr_scan"}, "is_reserved": 0}, {"lon": -77.00212233333333, "bike_id": "39c752e60033953c1835eecdac26826f", "lat": 38.90042783333333, "fusion_lon": 0.0, "fusion_lat": 0.0, "type": "electric_scooter", "name": "39c752e60033953c1835eecdac26826f", "is_disabled": 0, "rental_uris": {"ios": "https://dc.lft.to/lastmile_qr_scan", "android": "https://dc.lft.to/lastmile_qr_scan"}, "is_reserved": 0}, {"lon": -76.99915566666667, "bike_id": "3087a3f5c76ebf7f1d7813ddf78e9325", "lat": 38.907687, "fusion_lon": 0.0, "fusion_lat": 0.0, "type": "electric_scooter", "name": "3087a3f5c76ebf7f1d7813ddf78e9325", "is_disabled": 0, "rental_uris": {"ios": "https://dc.lft.to/lastmile_qr_scan", "android": "https://dc.lft.to/lastmile_qr_scan"}, "is_reserved": 0}, {"lon": -76.98108866666666, "bike_id": "cbd0aadca37d74fba355f0d4e336fc42", "lat": 38.877344666666666, "fusion_lon": 0.0, "fusion_lat": 0.0, "type": "electric_bike", "name": "cbd0aadca37d74fba355f0d4e336fc42", "is_disabled": 0, "rental_uris": {"ios": "https://dc.lft.to/lastmile_qr_scan", "android": "https://dc.lft.to/lastmile_qr_scan"}, "is_reserved": 0}, {"lon": -77.033448, "bike_id": "32f777715ac8abd072a3e79f8d0133ec", "lat": 38.935105, "fusion_lon": 0.0, "fusion_lat": 0.0, "type": "electric_scooter", "name": "32f777715ac8abd072a3e79f8d0133ec", "is_disabled": 0, "rental_uris": {"ios": "https://dc.lft.to/lastmile_qr_scan", "android": "https://dc.lft.to/lastmile_qr_scan"}, "is_reserved": 0}, {"lon": -76.9992335, "bike_id": "5d0ca8db9cfbefa861856d9b927ed381", "lat": 38.8897805, "fusion_lon": 0.0, "fusion_lat": 0.0, "type": "electric_scooter", "name": "5d0ca8db9cfbefa861856d9b927ed381", "is_disabled": 0, "rental_uris": {"ios": "https://dc.lft.to/lastmile_qr_scan", "android": "https://dc.lft.to/lastmile_qr_scan"}, "is_reserved": 0}, {"lon": -76.9824495, "bike_id": "d3f0ebf4b0e8a5ab5d3878013f05e47d", "lat": 38.864588166666664, "fusion_lon": 0.0, "fusion_lat": 0.0, "type": "electric_scooter", "name": "d3f0ebf4b0e8a5ab5d3878013f05e47d", "is_disabled": 0, "rental_uris": {"ios": "https://dc.lft.to/lastmile_qr_scan", "android": "https://dc.lft.to/lastmile_qr_scan"}, "is_reserved": 0}, {"lon": -77.03666516666667, "bike_id": "f7eb0b06cc4201199bee4f40d02e2174", "lat": 38.93341316666667, "fusion_lon": 0.0, "fusion_lat": 0.0, "type": "electric_scooter", "name": "f7eb0b06cc4201199bee4f40d02e2174", "is_disabled": 0, "rental_uris": {"ios": "https://dc.lft.to/lastmile_qr_scan", "android": "https://dc.lft.to/lastmile_qr_scan"}, "is_reserved": 0}, {"lon": -77.129777, "bike_id": "a4743286580b8c63df197b3997ac4f1f", "lat": 38.799899, "fusion_lon": 0.0, "fusion_lat": 0.0, "type": "electric_bike", "name": "a4743286580b8c63df197b3997ac4f1f", "is_disabled": 0, "rental_uris": {"ios": "https://dc.lft.to/lastmile_qr_scan", "android": "https://dc.lft.to/lastmile_qr_scan"}, "is_reserved": 0}, {"lon": -77.01535333333334, "bike_id": "1599cb8e52aaa5566fd93ec9970eb776", "lat": 38.88872966666667, "fusion_lon": 0.0, "fusion_lat": 0.0, "type": "electric_scooter", "name": "1599cb8e52aaa5566fd93ec9970eb776", "is_disabled": 0, "rental_uris": {"ios": "https://dc.lft.to/lastmile_qr_scan", "android": "https://dc.lft.to/lastmile_qr_scan"}, "is_reserved": 0}, {"lon": -77.02973716666666, "bike_id": "1c098e6a2de9836abf592a01ca583fd0", "lat": 38.89653083333333, "fusion_lon": 0.0, "fusion_lat": 0.0, "type": "electric_scooter", "name": "1c098e6a2de9836abf592a01ca583fd0", "is_disabled": 0, "rental_uris": {"ios": "https://dc.lft.to/lastmile_qr_scan", "android": "https://dc.lft.to/lastmile_qr_scan"}, "is_reserved": 0}, {"lon": -77.04012833333333, "bike_id": "e4b9820032d929a348f84c377e012b75", "lat": 38.91006016666667, "fusion_lon": 0.0, "fusion_lat": 0.0, "type": "electric_scooter", "name": "e4b9820032d929a348f84c377e012b75", "is_disabled": 0, "rental_uris": {"ios": "https://dc.lft.to/lastmile_qr_scan", "android": "https://dc.lft.to/lastmile_qr_scan"}, "is_reserved": 0}, {"lon": -77.07118183333333, "bike_id": "5df3e5feec5f28d60c2d16fa52e1f7f4", "lat": 38.91969783333333, "fusion_lon": 0.0, "fusion_lat": 0.0, "type": "electric_scooter", "name": "5df3e5feec5f28d60c2d16fa52e1f7f4", "is_disabled": 0, "rental_uris": {"ios": "https://dc.lft.to/lastmile_qr_scan", "android": "https://dc.lft.to/lastmile_qr_scan"}, "is_reserved": 0}, {"lon": -77.03803183333333, "bike_id": "3be36d7314911996ee174bce78aea748", "lat": 38.930278333333334, "fusion_lon": 0.0, "fusion_lat": 0.0, "type": "electric_scooter", "name": "3be36d7314911996ee174bce78aea748", "is_disabled": 0, "rental_uris": {"ios": "https://dc.lft.to/lastmile_qr_scan", "android": "https://dc.lft.to/lastmile_qr_scan"}, "is_reserved": 0}, {"lon": -77.03581183333333, "bike_id": "c82dce865e52c6f7fbdaf8bc03bcb283", "lat": 38.934763833333335, "fusion_lon": 0.0, "fusion_lat": 0.0, "type": "electric_scooter", "name": "c82dce865e52c6f7fbdaf8bc03bcb283", "is_disabled": 0, "rental_uris": {"ios": "https://dc.lft.to/lastmile_qr_scan", "android": "https://dc.lft.to/lastmile_qr_scan"}, "is_reserved": 0}, {"lon": -77.03449933333333, "bike_id": "8aeb073e7199a0d95ca32509edff787b", "lat": 38.91818166666667, "fusion_lon": 0.0, "fusion_lat": 0.0, "type": "electric_scooter", "name": "8aeb073e7199a0d95ca32509edff787b", "is_disabled": 0, "rental_uris": {"ios": "https://dc.lft.to/lastmile_qr_scan", "android": "https://dc.lft.to/lastmile_qr_scan"}, "is_reserved": 0}, {"lon": -76.991791, "bike_id": "f837d92b0e4dd36c409d8568a9e55159", "lat": 38.905035, "fusion_lon": 0.0, "fusion_lat": 0.0, "type": "electric_scooter", "name": "f837d92b0e4dd36c409d8568a9e55159", "is_disabled": 0, "rental_uris": {"ios": "https://dc.lft.to/lastmile_qr_scan", "android": "https://dc.lft.to/lastmile_qr_scan"}, "is_reserved": 0}, {"lon": -77.0256775, "bike_id": "d4b330e35f0f5136122dd769de4c56bf", "lat": 38.91480283333333, "fusion_lon": 0.0, "fusion_lat": 0.0, "type": "electric_scooter", "name": "d4b330e35f0f5136122dd769de4c56bf", "is_disabled": 0, "rental_uris": {"ios": "https://dc.lft.to/lastmile_qr_scan", "android": "https://dc.lft.to/lastmile_qr_scan"}, "is_reserved": 0}, {"lon": -76.97816416666667, "bike_id": "4f2e171af976c4b3569ec8845e96c80d", "lat": 38.906664166666665, "fusion_lon": 0.0, "fusion_lat": 0.0, "type": "electric_scooter", "name": "4f2e171af976c4b3569ec8845e96c80d", "is_disabled": 0, "rental_uris": {"ios": "https://dc.lft.to/lastmile_qr_scan", "android": "https://dc.lft.to/lastmile_qr_scan"}, "is_reserved": 0}, {"lon": -77.03516416666666, "bike_id": "c2d2e631a4afc6e986eadc9fc1371144", "lat": 38.92203383333333, "fusion_lon": 0.0, "fusion_lat": 0.0, "type": "electric_scooter", "name": "c2d2e631a4afc6e986eadc9fc1371144", "is_disabled": 0, "rental_uris": {"ios": "https://dc.lft.to/lastmile_qr_scan", "android": "https://dc.lft.to/lastmile_qr_scan"}, "is_reserved": 0}, {"lon": -77.0321645, "bike_id": "5ae3e22b9f07684a893fe443089b5e9c", "lat": 38.89224933333333, "fusion_lon": 0.0, "fusion_lat": 0.0, "type": "electric_scooter", "name": "5ae3e22b9f07684a893fe443089b5e9c", "is_disabled": 0, "rental_uris": {"ios": "https://dc.lft.to/lastmile_qr_scan", "android": "https://dc.lft.to/lastmile_qr_scan"}, "is_reserved": 0}, {"lon": -77.0441195, "bike_id": "0273fcf494298fdfb7f9006159bc6324", "lat": 38.921139, "fusion_lon": 0.0, "fusion_lat": 0.0, "type": "electric_scooter", "name": "0273fcf494298fdfb7f9006159bc6324", "is_disabled": 0, "rental_uris": {"ios": "https://dc.lft.to/lastmile_qr_scan", "android": "https://dc.lft.to/lastmile_qr_scan"}, "is_reserved": 0}, {"lon": -77.047118, "bike_id": "4a69571a0b3384c7320ac5a40b0803db", "lat": 38.905657166666664, "fusion_lon": 0.0, "fusion_lat": 0.0, "type": "electric_scooter", "name": "4a69571a0b3384c7320ac5a40b0803db", "is_disabled": 0, "rental_uris": {"ios": "https://dc.lft.to/lastmile_qr_scan", "android": "https://dc.lft.to/lastmile_qr_scan"}, "is_reserved": 0}, {"lon": -76.89533833333333, "bike_id": "68f7ce762f46f3b5e0daafae5fad5081", "lat": 38.94553483333333, "fusion_lon": 0.0, "fusion_lat": 0.0, "type": "electric_bike", "name": "68f7ce762f46f3b5e0daafae5fad5081", "is_disabled": 0, "rental_uris": {"ios": "https://dc.lft.to/lastmile_qr_scan", "android": "https://dc.lft.to/lastmile_qr_scan"}, "is_reserved": 0}, {"lon": -77.0349155, "bike_id": "62b0cfbfeb5314139756524343910a3d", "lat": 38.9327645, "fusion_lon": 0.0, "fusion_lat": 0.0, "type": "electric_scooter", "name": "62b0cfbfeb5314139756524343910a3d", "is_disabled": 0, "rental_uris": {"ios": "https://dc.lft.to/lastmile_qr_scan", "android": "https://dc.lft.to/lastmile_qr_scan"}, "is_reserved": 0}, {"lon": -77.04861766666667, "bike_id": "cdd92e7fc5977fe44a420599247804bc", "lat": 38.90961866666667, "fusion_lon": 0.0, "fusion_lat": 0.0, "type": "electric_scooter", "name": "cdd92e7fc5977fe44a420599247804bc", "is_disabled": 0, "rental_uris": {"ios": "https://dc.lft.to/lastmile_qr_scan", "android": "https://dc.lft.to/lastmile_qr_scan"}, "is_reserved": 0}, {"lon": -77.01325216666666, "bike_id": "2325565697c12d12cfdc56c638e42e41", "lat": 38.90032683333333, "fusion_lon": 0.0, "fusion_lat": 0.0, "type": "electric_scooter", "name": "2325565697c12d12cfdc56c638e42e41", "is_disabled": 0, "rental_uris": {"ios": "https://dc.lft.to/lastmile_qr_scan", "android": "https://dc.lft.to/lastmile_qr_scan"}, "is_reserved": 0}, {"lon": -77.0021235, "bike_id": "63138f7108f1e44066353137e1da2bc7", "lat": 38.91466333333334, "fusion_lon": 0.0, "fusion_lat": 0.0, "type": "electric_scooter", "name": "63138f7108f1e44066353137e1da2bc7", "is_disabled": 0, "rental_uris": {"ios": "https://dc.lft.to/lastmile_qr_scan", "android": "https://dc.lft.to/lastmile_qr_scan"}, "is_reserved": 0}, {"lon": -77.0296615, "bike_id": "0d3dfcd884eb70bd939f5ca6b167608b", "lat": 38.916650833333335, "fusion_lon": 0.0, "fusion_lat": 0.0, "type": "electric_scooter", "name": "0d3dfcd884eb70bd939f5ca6b167608b", "is_disabled": 0, "rental_uris": {"ios": "https://dc.lft.to/lastmile_qr_scan", "android": "https://dc.lft.to/lastmile_qr_scan"}, "is_reserved": 0}, {"lon": -76.94209183333334, "bike_id": "66d130db59c2831c8a73dd7eb7faa16b", "lat": 38.893151333333336, "fusion_lon": 0.0, "fusion_lat": 0.0, "type": "electric_bike", "name": "66d130db59c2831c8a73dd7eb7faa16b", "is_disabled": 0, "rental_uris": {"ios": "https://dc.lft.to/lastmile_qr_scan", "android": "https://dc.lft.to/lastmile_qr_scan"}, "is_reserved": 0}, {"lon": -77.0448615, "bike_id": "6f087ffb30177c87761713c701384fee", "lat": 38.91373333333333, "fusion_lon": 0.0, "fusion_lat": 0.0, "type": "electric_scooter", "name": "6f087ffb30177c87761713c701384fee", "is_disabled": 0, "rental_uris": {"ios": "https://dc.lft.to/lastmile_qr_scan", "android": "https://dc.lft.to/lastmile_qr_scan"}, "is_reserved": 0}, {"lon": -77.03873033333333, "bike_id": "fbd4ca79b027e593d00277abd5b69f57", "lat": 38.93189916666667, "fusion_lon": 0.0, "fusion_lat": 0.0, "type": "electric_scooter", "name": "fbd4ca79b027e593d00277abd5b69f57", "is_disabled": 0, "rental_uris": {"ios": "https://dc.lft.to/lastmile_qr_scan", "android": "https://dc.lft.to/lastmile_qr_scan"}, "is_reserved": 0}, {"lon": -77.03215183333333, "bike_id": "b21cbd6feb2f4c2f8800919a6b38eb39", "lat": 38.93617166666667, "fusion_lon": 0.0, "fusion_lat": 0.0, "type": "electric_scooter", "name": "b21cbd6feb2f4c2f8800919a6b38eb39", "is_disabled": 0, "rental_uris": {"ios": "https://dc.lft.to/lastmile_qr_scan", "android": "https://dc.lft.to/lastmile_qr_scan"}, "is_reserved": 0}, {"lon": -77.03193383333333, "bike_id": "23aa9d7365c211f62a064d914cb92928", "lat": 38.915781, "fusion_lon": 0.0, "fusion_lat": 0.0, "type": "electric_scooter", "name": "23aa9d7365c211f62a064d914cb92928", "is_disabled": 0, "rental_uris": {"ios": "https://dc.lft.to/lastmile_qr_scan", "android": "https://dc.lft.to/lastmile_qr_scan"}, "is_reserved": 0}, {"lon": -77.0559735, "bike_id": "9b305928e126db2649d9b48d01a46c39", "lat": 38.93701266666667, "fusion_lon": 0.0, "fusion_lat": 0.0, "type": "electric_scooter", "name": "9b305928e126db2649d9b48d01a46c39", "is_disabled": 0, "rental_uris": {"ios": "https://dc.lft.to/lastmile_qr_scan", "android": "https://dc.lft.to/lastmile_qr_scan"}, "is_reserved": 0}, {"lon": -77.04503683333333, "bike_id": "2e68e468bd2c390dc825e362f50af139", "lat": 38.911143833333334, "fusion_lon": 0.0, "fusion_lat": 0.0, "type": "electric_scooter", "name": "2e68e468bd2c390dc825e362f50af139", "is_disabled": 0, "rental_uris": {"ios": "https://dc.lft.to/lastmile_qr_scan", "android": "https://dc.lft.to/lastmile_qr_scan"}, "is_reserved": 0}, {"lon": -77.025179, "bike_id": "66cf5516a6d5182ade9ca2ed875b724d", "lat": 38.91274583333333, "fusion_lon": 0.0, "fusion_lat": 0.0, "type": "electric_scooter", "name": "66cf5516a6d5182ade9ca2ed875b724d", "is_disabled": 0, "rental_uris": {"ios": "https://dc.lft.to/lastmile_qr_scan", "android": "https://dc.lft.to/lastmile_qr_scan"}, "is_reserved": 0}, {"lon": -77.03637916666666, "bike_id": "f351749c2e514abf6261c968992d3c76", "lat": 38.915555, "fusion_lon": 0.0, "fusion_lat": 0.0, "type": "electric_scooter", "name": "f351749c2e514abf6261c968992d3c76", "is_disabled": 0, "rental_uris": {"ios": "https://dc.lft.to/lastmile_qr_scan", "android": "https://dc.lft.to/lastmile_qr_scan"}, "is_reserved": 0}, {"lon": -76.932776, "bike_id": "4c602e8484ddd62bd0b7ec2ccf162904", "lat": 38.95422333333333, "fusion_lon": 0.0, "fusion_lat": 0.0, "type": "electric_bike", "name": "4c602e8484ddd62bd0b7ec2ccf162904", "is_disabled": 0, "rental_uris": {"ios": "https://dc.lft.to/lastmile_qr_scan", "android": "https://dc.lft.to/lastmile_qr_scan"}, "is_reserved": 0}, {"lon": -77.029771, "bike_id": "16126e1ae95d704f6aadda327b5da799", "lat": 38.89651683333334, "fusion_lon": 0.0, "fusion_lat": 0.0, "type": "electric_scooter", "name": "16126e1ae95d704f6aadda327b5da799", "is_disabled": 0, "rental_uris": {"ios": "https://dc.lft.to/lastmile_qr_scan", "android": "https://dc.lft.to/lastmile_qr_scan"}, "is_reserved": 0}, {"lon": -77.035061, "bike_id": "ec700561ebbcd350de77da4c906f2d26", "lat": 38.911885, "fusion_lon": 0.0, "fusion_lat": 0.0, "type": "electric_scooter", "name": "ec700561ebbcd350de77da4c906f2d26", "is_disabled": 0, "rental_uris": {"ios": "https://dc.lft.to/lastmile_qr_scan", "android": "https://dc.lft.to/lastmile_qr_scan"}, "is_reserved": 0}, {"lon": -77.0012065, "bike_id": "8d75643921c1f68179ea795491639b74", "lat": 38.87820816666667, "fusion_lon": 0.0, "fusion_lat": 0.0, "type": "electric_scooter", "name": "8d75643921c1f68179ea795491639b74", "is_disabled": 0, "rental_uris": {"ios": "https://dc.lft.to/lastmile_qr_scan", "android": "https://dc.lft.to/lastmile_qr_scan"}, "is_reserved": 0}, {"lon": -77.02383533333334, "bike_id": "ab13a7e9d97c25253d1c4d07200329f4", "lat": 38.9063325, "fusion_lon": 0.0, "fusion_lat": 0.0, "type": "electric_scooter", "name": "ab13a7e9d97c25253d1c4d07200329f4", "is_disabled": 0, "rental_uris": {"ios": "https://dc.lft.to/lastmile_qr_scan", "android": "https://dc.lft.to/lastmile_qr_scan"}, "is_reserved": 0}, {"lon": -77.00536316666667, "bike_id": "4b8ca60f8e190a5ce1979dbec51f0969", "lat": 38.8754735, "fusion_lon": 0.0, "fusion_lat": 0.0, "type": "electric_scooter", "name": "4b8ca60f8e190a5ce1979dbec51f0969", "is_disabled": 0, "rental_uris": {"ios": "https://dc.lft.to/lastmile_qr_scan", "android": "https://dc.lft.to/lastmile_qr_scan"}, "is_reserved": 0}, {"lon": -77.023864, "bike_id": "85a4aacc4ea145edaabd0188bb0c7e82", "lat": 38.91871183333333, "fusion_lon": 0.0, "fusion_lat": 0.0, "type": "electric_scooter", "name": "85a4aacc4ea145edaabd0188bb0c7e82", "is_disabled": 0, "rental_uris": {"ios": "https://dc.lft.to/lastmile_qr_scan", "android": "https://dc.lft.to/lastmile_qr_scan"}, "is_reserved": 0}, {"lon": -77.02094183333334, "bike_id": "86f810b3730dcc0f98433d64c22cf6d4", "lat": 38.9291655, "fusion_lon": 0.0, "fusion_lat": 0.0, "type": "electric_scooter", "name": "86f810b3730dcc0f98433d64c22cf6d4", "is_disabled": 0, "rental_uris": {"ios": "https://dc.lft.to/lastmile_qr_scan", "android": "https://dc.lft.to/lastmile_qr_scan"}, "is_reserved": 0}, {"lon": -77.05534633333333, "bike_id": "e818b2a666517e908c0c72898c18dee0", "lat": 38.934287, "fusion_lon": 0.0, "fusion_lat": 0.0, "type": "electric_scooter", "name": "e818b2a666517e908c0c72898c18dee0", "is_disabled": 0, "rental_uris": {"ios": "https://dc.lft.to/lastmile_qr_scan", "android": "https://dc.lft.to/lastmile_qr_scan"}, "is_reserved": 0}, {"lon": -77.03199533333333, "bike_id": "639ff996b631c1d25b4a16ba9b1eb198", "lat": 38.91655933333333, "fusion_lon": 0.0, "fusion_lat": 0.0, "type": "electric_scooter", "name": "639ff996b631c1d25b4a16ba9b1eb198", "is_disabled": 0, "rental_uris": {"ios": "https://dc.lft.to/lastmile_qr_scan", "android": "https://dc.lft.to/lastmile_qr_scan"}, "is_reserved": 0}, {"lon": -77.026932, "bike_id": "76aedc6570ed26edadb0b0bd5b1b4e11", "lat": 38.89740583333333, "fusion_lon": 0.0, "fusion_lat": 0.0, "type": "electric_scooter", "name": "76aedc6570ed26edadb0b0bd5b1b4e11", "is_disabled": 0, "rental_uris": {"ios": "https://dc.lft.to/lastmile_qr_scan", "android": "https://dc.lft.to/lastmile_qr_scan"}, "is_reserved": 0}, {"lon": -77.02565833333334, "bike_id": "e39934ef41587a56b0a420a2517c8cda", "lat": 38.88403983333333, "fusion_lon": 0.0, "fusion_lat": 0.0, "type": "electric_scooter", "name": "e39934ef41587a56b0a420a2517c8cda", "is_disabled": 0, "rental_uris": {"ios": "https://dc.lft.to/lastmile_qr_scan", "android": "https://dc.lft.to/lastmile_qr_scan"}, "is_reserved": 0}, {"lon": -77.03405466666666, "bike_id": "4a34733ee5af4a4fdc1e1ef1bb7c40e0", "lat": 38.90976833333333, "fusion_lon": 0.0, "fusion_lat": 0.0, "type": "electric_scooter", "name": "4a34733ee5af4a4fdc1e1ef1bb7c40e0", "is_disabled": 0, "rental_uris": {"ios": "https://dc.lft.to/lastmile_qr_scan", "android": "https://dc.lft.to/lastmile_qr_scan"}, "is_reserved": 0}, {"lon": -76.97388016666666, "bike_id": "bd93ed792aa0d8b039a915a614f913f8", "lat": 38.90558333333333, "fusion_lon": 0.0, "fusion_lat": 0.0, "type": "electric_scooter", "name": "bd93ed792aa0d8b039a915a614f913f8", "is_disabled": 0, "rental_uris": {"ios": "https://dc.lft.to/lastmile_qr_scan", "android": "https://dc.lft.to/lastmile_qr_scan"}, "is_reserved": 0}, {"lon": -77.084569, "bike_id": "52e16171ea9dfa363362353c02a3f4df", "lat": 38.848189166666664, "fusion_lon": 0.0, "fusion_lat": 0.0, "type": "electric_bike", "name": "52e16171ea9dfa363362353c02a3f4df", "is_disabled": 0, "rental_uris": {"ios": "https://dc.lft.to/lastmile_qr_scan", "android": "https://dc.lft.to/lastmile_qr_scan"}, "is_reserved": 0}, {"lon": -77.03428416666667, "bike_id": "dcb672b5d654e1b358dd25730d2e4c1b", "lat": 38.9224275, "fusion_lon": 0.0, "fusion_lat": 0.0, "type": "electric_scooter", "name": "dcb672b5d654e1b358dd25730d2e4c1b", "is_disabled": 0, "rental_uris": {"ios": "https://dc.lft.to/lastmile_qr_scan", "android": "https://dc.lft.to/lastmile_qr_scan"}, "is_reserved": 0}, {"lon": -77.03892533333334, "bike_id": "5073553b1426e6bb105fbb0a5bac0be4", "lat": 38.92355516666667, "fusion_lon": 0.0, "fusion_lat": 0.0, "type": "electric_scooter", "name": "5073553b1426e6bb105fbb0a5bac0be4", "is_disabled": 0, "rental_uris": {"ios": "https://dc.lft.to/lastmile_qr_scan", "android": "https://dc.lft.to/lastmile_qr_scan"}, "is_reserved": 0}, {"lon": -77.03499466666666, "bike_id": "3d4d5620e5e80b540d704b326ade12f8", "lat": 38.93759566666667, "fusion_lon": 0.0, "fusion_lat": 0.0, "type": "electric_scooter", "name": "3d4d5620e5e80b540d704b326ade12f8", "is_disabled": 0, "rental_uris": {"ios": "https://dc.lft.to/lastmile_qr_scan", "android": "https://dc.lft.to/lastmile_qr_scan"}, "is_reserved": 0}, {"lon": -77.0337995, "bike_id": "99dfe6bcebbb6bc064fb1228d2c72f0d", "lat": 38.9097575, "fusion_lon": 0.0, "fusion_lat": 0.0, "type": "electric_scooter", "name": "99dfe6bcebbb6bc064fb1228d2c72f0d", "is_disabled": 0, "rental_uris": {"ios": "https://dc.lft.to/lastmile_qr_scan", "android": "https://dc.lft.to/lastmile_qr_scan"}, "is_reserved": 0}, {"lon": -76.97547, "bike_id": "28041c0e6c5098e11118054bf94cbb18", "lat": 38.9032645, "fusion_lon": 0.0, "fusion_lat": 0.0, "type": "electric_scooter", "name": "28041c0e6c5098e11118054bf94cbb18", "is_disabled": 0, "rental_uris": {"ios": "https://dc.lft.to/lastmile_qr_scan", "android": "https://dc.lft.to/lastmile_qr_scan"}, "is_reserved": 0}, {"lon": -76.9463705, "bike_id": "ba6f035862e80625ef4177a01741c402", "lat": 38.898346, "fusion_lon": 0.0, "fusion_lat": 0.0, "type": "electric_scooter", "name": "ba6f035862e80625ef4177a01741c402", "is_disabled": 0, "rental_uris": {"ios": "https://dc.lft.to/lastmile_qr_scan", "android": "https://dc.lft.to/lastmile_qr_scan"}, "is_reserved": 0}, {"lon": -77.06340116666667, "bike_id": "ae6bda58c6fdbfa7bd8cc3fea83e7ea1", "lat": 38.9068595, "fusion_lon": 0.0, "fusion_lat": 0.0, "type": "electric_scooter", "name": "ae6bda58c6fdbfa7bd8cc3fea83e7ea1", "is_disabled": 0, "rental_uris": {"ios": "https://dc.lft.to/lastmile_qr_scan", "android": "https://dc.lft.to/lastmile_qr_scan"}, "is_reserved": 0}, {"lon": -77.023047, "bike_id": "b45dbdc5e68ddb65f15d759d29d2fd99", "lat": 38.91658666666667, "fusion_lon": 0.0, "fusion_lat": 0.0, "type": "electric_scooter", "name": "b45dbdc5e68ddb65f15d759d29d2fd99", "is_disabled": 0, "rental_uris": {"ios": "https://dc.lft.to/lastmile_qr_scan", "android": "https://dc.lft.to/lastmile_qr_scan"}, "is_reserved": 0}, {"lon": -77.03668583333334, "bike_id": "6b7fab3b4338c961bc974a2b7d92e98e", "lat": 38.91825, "fusion_lon": 0.0, "fusion_lat": 0.0, "type": "electric_scooter", "name": "6b7fab3b4338c961bc974a2b7d92e98e", "is_disabled": 0, "rental_uris": {"ios": "https://dc.lft.to/lastmile_qr_scan", "android": "https://dc.lft.to/lastmile_qr_scan"}, "is_reserved": 0}, {"lon": -77.00582433333334, "bike_id": "e988c13420aebb8a4272b8a9c5e92c58", "lat": 38.830025666666664, "fusion_lon": 0.0, "fusion_lat": 0.0, "type": "electric_scooter", "name": "e988c13420aebb8a4272b8a9c5e92c58", "is_disabled": 0, "rental_uris": {"ios": "https://dc.lft.to/lastmile_qr_scan", "android": "https://dc.lft.to/lastmile_qr_scan"}, "is_reserved": 0}, {"lon": -77.04021233333333, "bike_id": "7a0f0ece112fe0b3b9bbcfd4fb1d2f6c", "lat": 38.91801183333333, "fusion_lon": 0.0, "fusion_lat": 0.0, "type": "electric_scooter", "name": "7a0f0ece112fe0b3b9bbcfd4fb1d2f6c", "is_disabled": 0, "rental_uris": {"ios": "https://dc.lft.to/lastmile_qr_scan", "android": "https://dc.lft.to/lastmile_qr_scan"}, "is_reserved": 0}, {"lon": -77.09463733333334, "bike_id": "49d3b8776b0bc54118d8ac8122f70484", "lat": 38.869424, "fusion_lon": 0.0, "fusion_lat": 0.0, "type": "electric_bike", "name": "49d3b8776b0bc54118d8ac8122f70484", "is_disabled": 0, "rental_uris": {"ios": "https://dc.lft.to/lastmile_qr_scan", "android": "https://dc.lft.to/lastmile_qr_scan"}, "is_reserved": 0}, {"lon": -77.02223283333333, "bike_id": "259120e9f22be59c4d6581f882aca63a", "lat": 38.905499666666664, "fusion_lon": 0.0, "fusion_lat": 0.0, "type": "electric_scooter", "name": "259120e9f22be59c4d6581f882aca63a", "is_disabled": 0, "rental_uris": {"ios": "https://dc.lft.to/lastmile_qr_scan", "android": "https://dc.lft.to/lastmile_qr_scan"}, "is_reserved": 0}, {"lon": -77.038633, "bike_id": "f97f174785f5bef76e02bb0f94b4cf1b", "lat": 38.90972816666667, "fusion_lon": 0.0, "fusion_lat": 0.0, "type": "electric_scooter", "name": "f97f174785f5bef76e02bb0f94b4cf1b", "is_disabled": 0, "rental_uris": {"ios": "https://dc.lft.to/lastmile_qr_scan", "android": "https://dc.lft.to/lastmile_qr_scan"}, "is_reserved": 0}, {"lon": -77.10522766666666, "bike_id": "5b091c42e26699283879bf062e6e61b3", "lat": 38.87378733333333, "fusion_lon": 0.0, "fusion_lat": 0.0, "type": "electric_bike", "name": "5b091c42e26699283879bf062e6e61b3", "is_disabled": 0, "rental_uris": {"ios": "https://dc.lft.to/lastmile_qr_scan", "android": "https://dc.lft.to/lastmile_qr_scan"}, "is_reserved": 0}, {"lon": -76.98799383333333, "bike_id": "0cfbcef8b4632c8f93ca934c86d66dc4", "lat": 38.892408833333334, "fusion_lon": 0.0, "fusion_lat": 0.0, "type": "electric_scooter", "name": "0cfbcef8b4632c8f93ca934c86d66dc4", "is_disabled": 0, "rental_uris": {"ios": "https://dc.lft.to/lastmile_qr_scan", "android": "https://dc.lft.to/lastmile_qr_scan"}, "is_reserved": 0}, {"lon": -77.04112, "bike_id": "072c2e91e7e0086b922d8f7dda079c17", "lat": 38.915528, "fusion_lon": 0.0, "fusion_lat": 0.0, "type": "electric_scooter", "name": "072c2e91e7e0086b922d8f7dda079c17", "is_disabled": 0, "rental_uris": {"ios": "https://dc.lft.to/lastmile_qr_scan", "android": "https://dc.lft.to/lastmile_qr_scan"}, "is_reserved": 0}, {"lon": -77.022905, "bike_id": "aeb31ae9174825390ef6b3681cd18a61", "lat": 38.93296616666667, "fusion_lon": 0.0, "fusion_lat": 0.0, "type": "electric_scooter", "name": "aeb31ae9174825390ef6b3681cd18a61", "is_disabled": 0, "rental_uris": {"ios": "https://dc.lft.to/lastmile_qr_scan", "android": "https://dc.lft.to/lastmile_qr_scan"}, "is_reserved": 0}, {"lon": -77.02364333333334, "bike_id": "4382f15cb33295c4c210f4b10cdc0455", "lat": 38.89625316666667, "fusion_lon": 0.0, "fusion_lat": 0.0, "type": "electric_scooter", "name": "4382f15cb33295c4c210f4b10cdc0455", "is_disabled": 0, "rental_uris": {"ios": "https://dc.lft.to/lastmile_qr_scan", "android": "https://dc.lft.to/lastmile_qr_scan"}, "is_reserved": 0}, {"lon": -77.07817366666667, "bike_id": "751930015a711e26442d6956428f95d9", "lat": 38.9237145, "fusion_lon": 0.0, "fusion_lat": 0.0, "type": "electric_scooter", "name": "751930015a711e26442d6956428f95d9", "is_disabled": 0, "rental_uris": {"ios": "https://dc.lft.to/lastmile_qr_scan", "android": "https://dc.lft.to/lastmile_qr_scan"}, "is_reserved": 0}, {"lon": -77.04353833333333, "bike_id": "0e6310f0b90567a5eab51838a39b9276", "lat": 38.912263333333335, "fusion_lon": 0.0, "fusion_lat": 0.0, "type": "electric_scooter", "name": "0e6310f0b90567a5eab51838a39b9276", "is_disabled": 0, "rental_uris": {"ios": "https://dc.lft.to/lastmile_qr_scan", "android": "https://dc.lft.to/lastmile_qr_scan"}, "is_reserved": 0}, {"lon": -76.99265283333334, "bike_id": "b9f382a9d56db0bbdc73b449bdb0f45f", "lat": 38.903910833333335, "fusion_lon": 0.0, "fusion_lat": 0.0, "type": "electric_scooter", "name": "b9f382a9d56db0bbdc73b449bdb0f45f", "is_disabled": 0, "rental_uris": {"ios": "https://dc.lft.to/lastmile_qr_scan", "android": "https://dc.lft.to/lastmile_qr_scan"}, "is_reserved": 0}, {"lon": -77.03230566666667, "bike_id": "9ed6f761eb279f658417e9c665ac4670", "lat": 38.9299525, "fusion_lon": 0.0, "fusion_lat": 0.0, "type": "electric_scooter", "name": "9ed6f761eb279f658417e9c665ac4670", "is_disabled": 0, "rental_uris": {"ios": "https://dc.lft.to/lastmile_qr_scan", "android": "https://dc.lft.to/lastmile_qr_scan"}, "is_reserved": 0}, {"lon": -77.06291183333333, "bike_id": "2b5acc9efa9c816f5db0938e53d9ebb5", "lat": 38.913237, "fusion_lon": 0.0, "fusion_lat": 0.0, "type": "electric_bike", "name": "2b5acc9efa9c816f5db0938e53d9ebb5", "is_disabled": 0, "rental_uris": {"ios": "https://dc.lft.to/lastmile_qr_scan", "android": "https://dc.lft.to/lastmile_qr_scan"}, "is_reserved": 0}, {"lon": -76.98134566666667, "bike_id": "1788bf794eb3e9d893885dcc75e5c953", "lat": 38.905636666666666, "fusion_lon": 0.0, "fusion_lat": 0.0, "type": "electric_scooter", "name": "1788bf794eb3e9d893885dcc75e5c953", "is_disabled": 0, "rental_uris": {"ios": "https://dc.lft.to/lastmile_qr_scan", "android": "https://dc.lft.to/lastmile_qr_scan"}, "is_reserved": 0}, {"lon": -77.05567916666666, "bike_id": "c9555b50bfb05be4b0c918f495f90bcd", "lat": 38.930420833333336, "fusion_lon": 0.0, "fusion_lat": 0.0, "type": "electric_scooter", "name": "c9555b50bfb05be4b0c918f495f90bcd", "is_disabled": 0, "rental_uris": {"ios": "https://dc.lft.to/lastmile_qr_scan", "android": "https://dc.lft.to/lastmile_qr_scan"}, "is_reserved": 0}, {"lon": -77.033575, "bike_id": "63a67e053d5a3ecf4a2da0ad8f6384c7", "lat": 38.9057385, "fusion_lon": 0.0, "fusion_lat": 0.0, "type": "electric_scooter", "name": "63a67e053d5a3ecf4a2da0ad8f6384c7", "is_disabled": 0, "rental_uris": {"ios": "https://dc.lft.to/lastmile_qr_scan", "android": "https://dc.lft.to/lastmile_qr_scan"}, "is_reserved": 0}, {"lon": -77.02386933333334, "bike_id": "9c18bc14e08faa606d40a555cf66437b", "lat": 38.91148116666667, "fusion_lon": 0.0, "fusion_lat": 0.0, "type": "electric_scooter", "name": "9c18bc14e08faa606d40a555cf66437b", "is_disabled": 0, "rental_uris": {"ios": "https://dc.lft.to/lastmile_qr_scan", "android": "https://dc.lft.to/lastmile_qr_scan"}, "is_reserved": 0}, {"lon": -77.02298366666666, "bike_id": "61768af9c0414b3d015a3613ac319f42", "lat": 38.90899616666667, "fusion_lon": 0.0, "fusion_lat": 0.0, "type": "electric_scooter", "name": "61768af9c0414b3d015a3613ac319f42", "is_disabled": 0, "rental_uris": {"ios": "https://dc.lft.to/lastmile_qr_scan", "android": "https://dc.lft.to/lastmile_qr_scan"}, "is_reserved": 0}, {"lon": -77.0317835, "bike_id": "03f99b2931bad87979224c50a3410587", "lat": 38.88744916666667, "fusion_lon": 0.0, "fusion_lat": 0.0, "type": "electric_scooter", "name": "03f99b2931bad87979224c50a3410587", "is_disabled": 0, "rental_uris": {"ios": "https://dc.lft.to/lastmile_qr_scan", "android": "https://dc.lft.to/lastmile_qr_scan"}, "is_reserved": 0}, {"lon": -77.083335, "bike_id": "67e1c38c02b7e828ac162f355dccdf59", "lat": 38.854429, "fusion_lon": 0.0, "fusion_lat": 0.0, "type": "electric_bike", "name": "67e1c38c02b7e828ac162f355dccdf59", "is_disabled": 0, "rental_uris": {"ios": "https://dc.lft.to/lastmile_qr_scan", "android": "https://dc.lft.to/lastmile_qr_scan"}, "is_reserved": 0}, {"lon": -77.009301, "bike_id": "0d032a3fdce45d370bdffea6e83b8e62", "lat": 38.899867, "fusion_lon": 0.0, "fusion_lat": 0.0, "type": "electric_scooter", "name": "0d032a3fdce45d370bdffea6e83b8e62", "is_disabled": 0, "rental_uris": {"ios": "https://dc.lft.to/lastmile_qr_scan", "android": "https://dc.lft.to/lastmile_qr_scan"}, "is_reserved": 0}, {"lon": -77.02487, "bike_id": "26914a57cdd454551522f1659901b1d4", "lat": 38.904207166666666, "fusion_lon": 0.0, "fusion_lat": 0.0, "type": "electric_scooter", "name": "26914a57cdd454551522f1659901b1d4", "is_disabled": 0, "rental_uris": {"ios": "https://dc.lft.to/lastmile_qr_scan", "android": "https://dc.lft.to/lastmile_qr_scan"}, "is_reserved": 0}, {"lon": -77.02610783333333, "bike_id": "d248c33dbfef621ee0f53c57edd2367b", "lat": 38.9258385, "fusion_lon": 0.0, "fusion_lat": 0.0, "type": "electric_scooter", "name": "d248c33dbfef621ee0f53c57edd2367b", "is_disabled": 0, "rental_uris": {"ios": "https://dc.lft.to/lastmile_qr_scan", "android": "https://dc.lft.to/lastmile_qr_scan"}, "is_reserved": 0}, {"lon": -76.97828216666667, "bike_id": "7ed31d0973f5b76273e7ab8b6c6b3cd9", "lat": 38.8437205, "fusion_lon": 0.0, "fusion_lat": 0.0, "type": "electric_bike", "name": "7ed31d0973f5b76273e7ab8b6c6b3cd9", "is_disabled": 0, "rental_uris": {"ios": "https://dc.lft.to/lastmile_qr_scan", "android": "https://dc.lft.to/lastmile_qr_scan"}, "is_reserved": 0}, {"lon": -77.03857816666667, "bike_id": "22d20a95f728dd68cfefe06f774869ea", "lat": 38.91269366666667, "fusion_lon": 0.0, "fusion_lat": 0.0, "type": "electric_scooter", "name": "22d20a95f728dd68cfefe06f774869ea", "is_disabled": 0, "rental_uris": {"ios": "https://dc.lft.to/lastmile_qr_scan", "android": "https://dc.lft.to/lastmile_qr_scan"}, "is_reserved": 0}, {"lon": -77.01724333333334, "bike_id": "63db0e2087284cfff6bec8a9f1ca18d3", "lat": 38.905624833333334, "fusion_lon": 0.0, "fusion_lat": 0.0, "type": "electric_scooter", "name": "63db0e2087284cfff6bec8a9f1ca18d3", "is_disabled": 0, "rental_uris": {"ios": "https://dc.lft.to/lastmile_qr_scan", "android": "https://dc.lft.to/lastmile_qr_scan"}, "is_reserved": 0}, {"lon": -77.03585916666667, "bike_id": "ab241be8594dbbc3de754d027ac0c08e", "lat": 38.992269666666665, "fusion_lon": 0.0, "fusion_lat": 0.0, "type": "electric_scooter", "name": "ab241be8594dbbc3de754d027ac0c08e", "is_disabled": 0, "rental_uris": {"ios": "https://dc.lft.to/lastmile_qr_scan", "android": "https://dc.lft.to/lastmile_qr_scan"}, "is_reserved": 0}, {"lon": -77.03525316666666, "bike_id": "cd78642aa3002b0ce906706539544116", "lat": 38.92731033333333, "fusion_lon": 0.0, "fusion_lat": 0.0, "type": "electric_scooter", "name": "cd78642aa3002b0ce906706539544116", "is_disabled": 0, "rental_uris": {"ios": "https://dc.lft.to/lastmile_qr_scan", "android": "https://dc.lft.to/lastmile_qr_scan"}, "is_reserved": 0}, {"lon": -77.032099, "bike_id": "d019f21fd536a7b193e81b7466fa22f3", "lat": 38.91506, "fusion_lon": 0.0, "fusion_lat": 0.0, "type": "electric_scooter", "name": "d019f21fd536a7b193e81b7466fa22f3", "is_disabled": 0, "rental_uris": {"ios": "https://dc.lft.to/lastmile_qr_scan", "android": "https://dc.lft.to/lastmile_qr_scan"}, "is_reserved": 0}, {"lon": -76.98081916666666, "bike_id": "bc9b64e9a5ab68c702b9b1b71fe84a2f", "lat": 38.884322, "fusion_lon": 0.0, "fusion_lat": 0.0, "type": "electric_scooter", "name": "bc9b64e9a5ab68c702b9b1b71fe84a2f", "is_disabled": 0, "rental_uris": {"ios": "https://dc.lft.to/lastmile_qr_scan", "android": "https://dc.lft.to/lastmile_qr_scan"}, "is_reserved": 0}, {"lon": -76.983463, "bike_id": "1fea4de8d80fb23b321139ecae2e6d4e", "lat": 38.9029265, "fusion_lon": 0.0, "fusion_lat": 0.0, "type": "electric_scooter", "name": "1fea4de8d80fb23b321139ecae2e6d4e", "is_disabled": 0, "rental_uris": {"ios": "https://dc.lft.to/lastmile_qr_scan", "android": "https://dc.lft.to/lastmile_qr_scan"}, "is_reserved": 0}, {"lon": -77.03215283333333, "bike_id": "f143239e960b5f3b0b8d0f98de756963", "lat": 38.8922185, "fusion_lon": 0.0, "fusion_lat": 0.0, "type": "electric_scooter", "name": "f143239e960b5f3b0b8d0f98de756963", "is_disabled": 0, "rental_uris": {"ios": "https://dc.lft.to/lastmile_qr_scan", "android": "https://dc.lft.to/lastmile_qr_scan"}, "is_reserved": 0}, {"lon": -77.03664866666666, "bike_id": "64cba35266cfec792ff2d7abf12cfebf", "lat": 38.91228533333334, "fusion_lon": 0.0, "fusion_lat": 0.0, "type": "electric_scooter", "name": "64cba35266cfec792ff2d7abf12cfebf", "is_disabled": 0, "rental_uris": {"ios": "https://dc.lft.to/lastmile_qr_scan", "android": "https://dc.lft.to/lastmile_qr_scan"}, "is_reserved": 0}, {"lon": -77.0586185, "bike_id": "2aae87d0bd5114eaa9108c6905cddfc9", "lat": 38.93611, "fusion_lon": 0.0, "fusion_lat": 0.0, "type": "electric_scooter", "name": "2aae87d0bd5114eaa9108c6905cddfc9", "is_disabled": 0, "rental_uris": {"ios": "https://dc.lft.to/lastmile_qr_scan", "android": "https://dc.lft.to/lastmile_qr_scan"}, "is_reserved": 0}, {"lon": -77.02314983333333, "bike_id": "1fa4063af5fce6606be6b3aaf27063ac", "lat": 38.9279225, "fusion_lon": 0.0, "fusion_lat": 0.0, "type": "electric_scooter", "name": "1fa4063af5fce6606be6b3aaf27063ac", "is_disabled": 0, "rental_uris": {"ios": "https://dc.lft.to/lastmile_qr_scan", "android": "https://dc.lft.to/lastmile_qr_scan"}, "is_reserved": 0}, {"lon": -76.97336866666667, "bike_id": "1b4fd584ba1af5f2d37dd5f2fe1dc989", "lat": 38.8652215, "fusion_lon": 0.0, "fusion_lat": 0.0, "type": "electric_bike", "name": "1b4fd584ba1af5f2d37dd5f2fe1dc989", "is_disabled": 0, "rental_uris": {"ios": "https://dc.lft.to/lastmile_qr_scan", "android": "https://dc.lft.to/lastmile_qr_scan"}, "is_reserved": 0}, {"lon": -77.02175866666667, "bike_id": "8386be12fc6b6e542776bd792935fc9e", "lat": 38.893606, "fusion_lon": 0.0, "fusion_lat": 0.0, "type": "electric_scooter", "name": "8386be12fc6b6e542776bd792935fc9e", "is_disabled": 0, "rental_uris": {"ios": "https://dc.lft.to/lastmile_qr_scan", "android": "https://dc.lft.to/lastmile_qr_scan"}, "is_reserved": 0}, {"lon": -77.039083, "bike_id": "3af9c82fe4fa8b6d1e4606dbd5e1b0a3", "lat": 38.918387833333334, "fusion_lon": 0.0, "fusion_lat": 0.0, "type": "electric_scooter", "name": "3af9c82fe4fa8b6d1e4606dbd5e1b0a3", "is_disabled": 0, "rental_uris": {"ios": "https://dc.lft.to/lastmile_qr_scan", "android": "https://dc.lft.to/lastmile_qr_scan"}, "is_reserved": 0}, {"lon": -77.0422985, "bike_id": "82858626ec0fd22b7b4b190ea41777c9", "lat": 38.91345333333334, "fusion_lon": 0.0, "fusion_lat": 0.0, "type": "electric_scooter", "name": "82858626ec0fd22b7b4b190ea41777c9", "is_disabled": 0, "rental_uris": {"ios": "https://dc.lft.to/lastmile_qr_scan", "android": "https://dc.lft.to/lastmile_qr_scan"}, "is_reserved": 0}, {"lon": -77.03546833333333, "bike_id": "b4d7a8b5ad7c13f7ea8279798d9bb7ba", "lat": 38.92507583333333, "fusion_lon": 0.0, "fusion_lat": 0.0, "type": "electric_scooter", "name": "b4d7a8b5ad7c13f7ea8279798d9bb7ba", "is_disabled": 0, "rental_uris": {"ios": "https://dc.lft.to/lastmile_qr_scan", "android": "https://dc.lft.to/lastmile_qr_scan"}, "is_reserved": 0}, {"lon": -77.003899, "bike_id": "f16d61c6b826e60dcc0c1b3573a0fe93", "lat": 38.836157666666665, "fusion_lon": 0.0, "fusion_lat": 0.0, "type": "electric_bike", "name": "f16d61c6b826e60dcc0c1b3573a0fe93", "is_disabled": 0, "rental_uris": {"ios": "https://dc.lft.to/lastmile_qr_scan", "android": "https://dc.lft.to/lastmile_qr_scan"}, "is_reserved": 0}, {"lon": -77.032633, "bike_id": "ecf58fc50896604a153a88bae3d15cb6", "lat": 38.93207866666667, "fusion_lon": 0.0, "fusion_lat": 0.0, "type": "electric_scooter", "name": "ecf58fc50896604a153a88bae3d15cb6", "is_disabled": 0, "rental_uris": {"ios": "https://dc.lft.to/lastmile_qr_scan", "android": "https://dc.lft.to/lastmile_qr_scan"}, "is_reserved": 0}, {"lon": -77.0058765, "bike_id": "20667fd342524520ab57b888a424b5a7", "lat": 38.9059535, "fusion_lon": 0.0, "fusion_lat": 0.0, "type": "electric_bike", "name": "20667fd342524520ab57b888a424b5a7", "is_disabled": 0, "rental_uris": {"ios": "https://dc.lft.to/lastmile_qr_scan", "android": "https://dc.lft.to/lastmile_qr_scan"}, "is_reserved": 0}, {"lon": -76.99292916666667, "bike_id": "25063e55c6f269f787cd956b4cdee4dd", "lat": 38.898880166666665, "fusion_lon": 0.0, "fusion_lat": 0.0, "type": "electric_scooter", "name": "25063e55c6f269f787cd956b4cdee4dd", "is_disabled": 0, "rental_uris": {"ios": "https://dc.lft.to/lastmile_qr_scan", "android": "https://dc.lft.to/lastmile_qr_scan"}, "is_reserved": 0}, {"lon": -77.04420833333333, "bike_id": "a17e3e1498ee1d1df62997459b59a157", "lat": 38.911335333333334, "fusion_lon": 0.0, "fusion_lat": 0.0, "type": "electric_scooter", "name": "a17e3e1498ee1d1df62997459b59a157", "is_disabled": 0, "rental_uris": {"ios": "https://dc.lft.to/lastmile_qr_scan", "android": "https://dc.lft.to/lastmile_qr_scan"}, "is_reserved": 0}, {"lon": -77.0275235, "bike_id": "d50eb6930e2dc0ac1b2269e0aa93d668", "lat": 38.916963833333334, "fusion_lon": 0.0, "fusion_lat": 0.0, "type": "electric_scooter", "name": "d50eb6930e2dc0ac1b2269e0aa93d668", "is_disabled": 0, "rental_uris": {"ios": "https://dc.lft.to/lastmile_qr_scan", "android": "https://dc.lft.to/lastmile_qr_scan"}, "is_reserved": 0}, {"lon": -77.041825, "bike_id": "d41ff25327a6a846a6654cf50f0bc3c2", "lat": 38.905571333333334, "fusion_lon": 0.0, "fusion_lat": 0.0, "type": "electric_scooter", "name": "d41ff25327a6a846a6654cf50f0bc3c2", "is_disabled": 0, "rental_uris": {"ios": "https://dc.lft.to/lastmile_qr_scan", "android": "https://dc.lft.to/lastmile_qr_scan"}, "is_reserved": 0}, {"lon": -77.02168783333333, "bike_id": "5e672e4e59d281fc80eeca489a0b24e1", "lat": 38.929987, "fusion_lon": 0.0, "fusion_lat": 0.0, "type": "electric_scooter", "name": "5e672e4e59d281fc80eeca489a0b24e1", "is_disabled": 0, "rental_uris": {"ios": "https://dc.lft.to/lastmile_qr_scan", "android": "https://dc.lft.to/lastmile_qr_scan"}, "is_reserved": 0}, {"lon": -77.03249766666667, "bike_id": "d6367aea03ee97d5dde2a4fd0716e5a1", "lat": 38.90558466666667, "fusion_lon": 0.0, "fusion_lat": 0.0, "type": "electric_scooter", "name": "d6367aea03ee97d5dde2a4fd0716e5a1", "is_disabled": 0, "rental_uris": {"ios": "https://dc.lft.to/lastmile_qr_scan", "android": "https://dc.lft.to/lastmile_qr_scan"}, "is_reserved": 0}, {"lon": -77.02609583333333, "bike_id": "aa39cfaf6cf7e676843cace637f6c6a1", "lat": 38.93497516666667, "fusion_lon": 0.0, "fusion_lat": 0.0, "type": "electric_scooter", "name": "aa39cfaf6cf7e676843cace637f6c6a1", "is_disabled": 0, "rental_uris": {"ios": "https://dc.lft.to/lastmile_qr_scan", "android": "https://dc.lft.to/lastmile_qr_scan"}, "is_reserved": 0}, {"lon": -77.03141066666667, "bike_id": "31fc750d845af2a0aa914dea5a909014", "lat": 38.932486833333336, "fusion_lon": 0.0, "fusion_lat": 0.0, "type": "electric_scooter", "name": "31fc750d845af2a0aa914dea5a909014", "is_disabled": 0, "rental_uris": {"ios": "https://dc.lft.to/lastmile_qr_scan", "android": "https://dc.lft.to/lastmile_qr_scan"}, "is_reserved": 0}, {"lon": -77.031901, "bike_id": "ed0b3717a8ce218ae88ddf8a4007ac25", "lat": 38.917519, "fusion_lon": 0.0, "fusion_lat": 0.0, "type": "electric_scooter", "name": "ed0b3717a8ce218ae88ddf8a4007ac25", "is_disabled": 0, "rental_uris": {"ios": "https://dc.lft.to/lastmile_qr_scan", "android": "https://dc.lft.to/lastmile_qr_scan"}, "is_reserved": 0}, {"lon": -77.03262866666667, "bike_id": "634f636f8034be8ace8f67c0d5bc9bdd", "lat": 38.93774716666667, "fusion_lon": 0.0, "fusion_lat": 0.0, "type": "electric_scooter", "name": "634f636f8034be8ace8f67c0d5bc9bdd", "is_disabled": 0, "rental_uris": {"ios": "https://dc.lft.to/lastmile_qr_scan", "android": "https://dc.lft.to/lastmile_qr_scan"}, "is_reserved": 0}, {"lon": -77.03582416666667, "bike_id": "34d372d273bc3830ea46b0e43d44d9b4", "lat": 38.91050833333333, "fusion_lon": 0.0, "fusion_lat": 0.0, "type": "electric_scooter", "name": "34d372d273bc3830ea46b0e43d44d9b4", "is_disabled": 0, "rental_uris": {"ios": "https://dc.lft.to/lastmile_qr_scan", "android": "https://dc.lft.to/lastmile_qr_scan"}, "is_reserved": 0}, {"lon": -77.006581, "bike_id": "381e69006548f22b680c4e2c6658c41b", "lat": 38.94464083333333, "fusion_lon": 0.0, "fusion_lat": 0.0, "type": "electric_scooter", "name": "381e69006548f22b680c4e2c6658c41b", "is_disabled": 0, "rental_uris": {"ios": "https://dc.lft.to/lastmile_qr_scan", "android": "https://dc.lft.to/lastmile_qr_scan"}, "is_reserved": 0}, {"lon": -76.98353233333333, "bike_id": "0266aa356093bdc78bc48b6f51270f50", "lat": 38.892132, "fusion_lon": 0.0, "fusion_lat": 0.0, "type": "electric_bike", "name": "0266aa356093bdc78bc48b6f51270f50", "is_disabled": 0, "rental_uris": {"ios": "https://dc.lft.to/lastmile_qr_scan", "android": "https://dc.lft.to/lastmile_qr_scan"}, "is_reserved": 0}, {"lon": -77.03169216666667, "bike_id": "80a914b7a08f217a91768fd7d394dcd0", "lat": 38.93606166666667, "fusion_lon": 0.0, "fusion_lat": 0.0, "type": "electric_scooter", "name": "80a914b7a08f217a91768fd7d394dcd0", "is_disabled": 0, "rental_uris": {"ios": "https://dc.lft.to/lastmile_qr_scan", "android": "https://dc.lft.to/lastmile_qr_scan"}, "is_reserved": 0}, {"lon": -77.034246, "bike_id": "a6a4000aa78d0ddcec52071a72f9a58a", "lat": 38.9101095, "fusion_lon": 0.0, "fusion_lat": 0.0, "type": "electric_scooter", "name": "a6a4000aa78d0ddcec52071a72f9a58a", "is_disabled": 0, "rental_uris": {"ios": "https://dc.lft.to/lastmile_qr_scan", "android": "https://dc.lft.to/lastmile_qr_scan"}, "is_reserved": 0}, {"lon": -76.97737933333333, "bike_id": "923ec0978500b9b254693b53bb7cadd4", "lat": 38.864970666666665, "fusion_lon": 0.0, "fusion_lat": 0.0, "type": "electric_bike", "name": "923ec0978500b9b254693b53bb7cadd4", "is_disabled": 0, "rental_uris": {"ios": "https://dc.lft.to/lastmile_qr_scan", "android": "https://dc.lft.to/lastmile_qr_scan"}, "is_reserved": 0}, {"lon": -77.18560733333334, "bike_id": "e7b31d5d4253af5b854026684d984e3e", "lat": 39.0997815, "fusion_lon": 0.0, "fusion_lat": 0.0, "type": "electric_bike", "name": "e7b31d5d4253af5b854026684d984e3e", "is_disabled": 0, "rental_uris": {"ios": "https://dc.lft.to/lastmile_qr_scan", "android": "https://dc.lft.to/lastmile_qr_scan"}, "is_reserved": 0}, {"lon": -77.02161783333334, "bike_id": "58f60be830507c7d31c12015faeae96d", "lat": 38.926153666666664, "fusion_lon": 0.0, "fusion_lat": 0.0, "type": "electric_scooter", "name": "58f60be830507c7d31c12015faeae96d", "is_disabled": 0, "rental_uris": {"ios": "https://dc.lft.to/lastmile_qr_scan", "android": "https://dc.lft.to/lastmile_qr_scan"}, "is_reserved": 0}, {"lon": -76.9626185, "bike_id": "6b6fb58e6ac5addcc56fa27d8d1a269f", "lat": 38.882491, "fusion_lon": 0.0, "fusion_lat": 0.0, "type": "electric_bike", "name": "6b6fb58e6ac5addcc56fa27d8d1a269f", "is_disabled": 0, "rental_uris": {"ios": "https://dc.lft.to/lastmile_qr_scan", "android": "https://dc.lft.to/lastmile_qr_scan"}, "is_reserved": 0}, {"lon": -77.039134, "bike_id": "50d465c63491cded7c01263f979c0993", "lat": 38.918378, "fusion_lon": 0.0, "fusion_lat": 0.0, "type": "electric_scooter", "name": "50d465c63491cded7c01263f979c0993", "is_disabled": 0, "rental_uris": {"ios": "https://dc.lft.to/lastmile_qr_scan", "android": "https://dc.lft.to/lastmile_qr_scan"}, "is_reserved": 0}, {"lon": -77.028626, "bike_id": "3e11b638bb6867d973589945dcf2c9b5", "lat": 38.90442683333333, "fusion_lon": 0.0, "fusion_lat": 0.0, "type": "electric_scooter", "name": "3e11b638bb6867d973589945dcf2c9b5", "is_disabled": 0, "rental_uris": {"ios": "https://dc.lft.to/lastmile_qr_scan", "android": "https://dc.lft.to/lastmile_qr_scan"}, "is_reserved": 0}, {"lon": -77.03175416666667, "bike_id": "80c14aaf1380f81175adfd4992d47c0a", "lat": 38.88739433333333, "fusion_lon": 0.0, "fusion_lat": 0.0, "type": "electric_scooter", "name": "80c14aaf1380f81175adfd4992d47c0a", "is_disabled": 0, "rental_uris": {"ios": "https://dc.lft.to/lastmile_qr_scan", "android": "https://dc.lft.to/lastmile_qr_scan"}, "is_reserved": 0}, {"lon": -77.0295395, "bike_id": "60d866f1f41a0cfbbff3fa95e8a5a66d", "lat": 38.90658583333333, "fusion_lon": 0.0, "fusion_lat": 0.0, "type": "electric_scooter", "name": "60d866f1f41a0cfbbff3fa95e8a5a66d", "is_disabled": 0, "rental_uris": {"ios": "https://dc.lft.to/lastmile_qr_scan", "android": "https://dc.lft.to/lastmile_qr_scan"}, "is_reserved": 0}, {"lon": -77.04255, "bike_id": "d1d21801c8dbdd145e6578ab008818d7", "lat": 38.91041283333333, "fusion_lon": 0.0, "fusion_lat": 0.0, "type": "electric_scooter", "name": "d1d21801c8dbdd145e6578ab008818d7", "is_disabled": 0, "rental_uris": {"ios": "https://dc.lft.to/lastmile_qr_scan", "android": "https://dc.lft.to/lastmile_qr_scan"}, "is_reserved": 0}, {"lon": -76.93362016666667, "bike_id": "7a8ad985b01b75196bc88fa5c79c7582", "lat": 38.899199333333335, "fusion_lon": 0.0, "fusion_lat": 0.0, "type": "electric_scooter", "name": "7a8ad985b01b75196bc88fa5c79c7582", "is_disabled": 0, "rental_uris": {"ios": "https://dc.lft.to/lastmile_qr_scan", "android": "https://dc.lft.to/lastmile_qr_scan"}, "is_reserved": 0}, {"lon": -77.026899, "bike_id": "832168c013e2bff13cac863419f91d12", "lat": 38.906258666666666, "fusion_lon": 0.0, "fusion_lat": 0.0, "type": "electric_scooter", "name": "832168c013e2bff13cac863419f91d12", "is_disabled": 0, "rental_uris": {"ios": "https://dc.lft.to/lastmile_qr_scan", "android": "https://dc.lft.to/lastmile_qr_scan"}, "is_reserved": 0}, {"lon": -77.03942816666667, "bike_id": "420174df822d942dfb767b149125f881", "lat": 38.9306345, "fusion_lon": 0.0, "fusion_lat": 0.0, "type": "electric_scooter", "name": "420174df822d942dfb767b149125f881", "is_disabled": 0, "rental_uris": {"ios": "https://dc.lft.to/lastmile_qr_scan", "android": "https://dc.lft.to/lastmile_qr_scan"}, "is_reserved": 0}, {"lon": -77.06755566666666, "bike_id": "12ee40a82173d84ac07ff4e5d6c1d934", "lat": 38.90342733333333, "fusion_lon": 0.0, "fusion_lat": 0.0, "type": "electric_scooter", "name": "12ee40a82173d84ac07ff4e5d6c1d934", "is_disabled": 0, "rental_uris": {"ios": "https://dc.lft.to/lastmile_qr_scan", "android": "https://dc.lft.to/lastmile_qr_scan"}, "is_reserved": 0}, {"lon": -76.9978, "bike_id": "fd825a729d35b8cc4d5ad49075254c14", "lat": 38.844252166666664, "fusion_lon": 0.0, "fusion_lat": 0.0, "type": "electric_scooter", "name": "fd825a729d35b8cc4d5ad49075254c14", "is_disabled": 0, "rental_uris": {"ios": "https://dc.lft.to/lastmile_qr_scan", "android": "https://dc.lft.to/lastmile_qr_scan"}, "is_reserved": 0}, {"lon": -77.04486433333334, "bike_id": "549018e497823ffa4e2d6a2a299bead9", "lat": 38.90079466666667, "fusion_lon": 0.0, "fusion_lat": 0.0, "type": "electric_scooter", "name": "549018e497823ffa4e2d6a2a299bead9", "is_disabled": 0, "rental_uris": {"ios": "https://dc.lft.to/lastmile_qr_scan", "android": "https://dc.lft.to/lastmile_qr_scan"}, "is_reserved": 0}, {"lon": -76.98108716666667, "bike_id": "08621f168f93a4226dec8ec9e1ce4239", "lat": 38.90401933333333, "fusion_lon": 0.0, "fusion_lat": 0.0, "type": "electric_scooter", "name": "08621f168f93a4226dec8ec9e1ce4239", "is_disabled": 0, "rental_uris": {"ios": "https://dc.lft.to/lastmile_qr_scan", "android": "https://dc.lft.to/lastmile_qr_scan"}, "is_reserved": 0}, {"lon": -77.02980916666667, "bike_id": "91b62e1077e53c77be1a8e05d64b57a9", "lat": 38.932844833333334, "fusion_lon": 0.0, "fusion_lat": 0.0, "type": "electric_scooter", "name": "91b62e1077e53c77be1a8e05d64b57a9", "is_disabled": 0, "rental_uris": {"ios": "https://dc.lft.to/lastmile_qr_scan", "android": "https://dc.lft.to/lastmile_qr_scan"}, "is_reserved": 0}, {"lon": -77.02476083333333, "bike_id": "acc54c90ab4aad38079b94057bf1b2da", "lat": 38.88351, "fusion_lon": 0.0, "fusion_lat": 0.0, "type": "electric_scooter", "name": "acc54c90ab4aad38079b94057bf1b2da", "is_disabled": 0, "rental_uris": {"ios": "https://dc.lft.to/lastmile_qr_scan", "android": "https://dc.lft.to/lastmile_qr_scan"}, "is_reserved": 0}, {"lon": -77.04806716666667, "bike_id": "08db14de9c6b552a0db387387659e9b4", "lat": 38.91404966666666, "fusion_lon": 0.0, "fusion_lat": 0.0, "type": "electric_scooter", "name": "08db14de9c6b552a0db387387659e9b4", "is_disabled": 0, "rental_uris": {"ios": "https://dc.lft.to/lastmile_qr_scan", "android": "https://dc.lft.to/lastmile_qr_scan"}, "is_reserved": 0}, {"lon": -77.00366966666667, "bike_id": "7b18be8bc547512ee4e359874e250002", "lat": 38.89878266666667, "fusion_lon": 0.0, "fusion_lat": 0.0, "type": "electric_scooter", "name": "7b18be8bc547512ee4e359874e250002", "is_disabled": 0, "rental_uris": {"ios": "https://dc.lft.to/lastmile_qr_scan", "android": "https://dc.lft.to/lastmile_qr_scan"}, "is_reserved": 0}, {"lon": -77.01153733333334, "bike_id": "3ebdd800137ce53fdc4690604303e562", "lat": 38.9569085, "fusion_lon": 0.0, "fusion_lat": 0.0, "type": "electric_scooter", "name": "3ebdd800137ce53fdc4690604303e562", "is_disabled": 0, "rental_uris": {"ios": "https://dc.lft.to/lastmile_qr_scan", "android": "https://dc.lft.to/lastmile_qr_scan"}, "is_reserved": 0}, {"lon": -77.00887566666667, "bike_id": "dd1fc4a5decd3455bcd2c9b822e77a26", "lat": 38.9171455, "fusion_lon": 0.0, "fusion_lat": 0.0, "type": "electric_scooter", "name": "dd1fc4a5decd3455bcd2c9b822e77a26", "is_disabled": 0, "rental_uris": {"ios": "https://dc.lft.to/lastmile_qr_scan", "android": "https://dc.lft.to/lastmile_qr_scan"}, "is_reserved": 0}, {"lon": -77.01833, "bike_id": "f895890a595606fdf8dbeba8f9e4b9b3", "lat": 38.901039833333336, "fusion_lon": 0.0, "fusion_lat": 0.0, "type": "electric_scooter", "name": "f895890a595606fdf8dbeba8f9e4b9b3", "is_disabled": 0, "rental_uris": {"ios": "https://dc.lft.to/lastmile_qr_scan", "android": "https://dc.lft.to/lastmile_qr_scan"}, "is_reserved": 0}, {"lon": -77.002001, "bike_id": "5c76d4b4cf926ce3044173430ab35739", "lat": 38.90044066666667, "fusion_lon": 0.0, "fusion_lat": 0.0, "type": "electric_scooter", "name": "5c76d4b4cf926ce3044173430ab35739", "is_disabled": 0, "rental_uris": {"ios": "https://dc.lft.to/lastmile_qr_scan", "android": "https://dc.lft.to/lastmile_qr_scan"}, "is_reserved": 0}, {"lon": -77.02271316666666, "bike_id": "898d0fa739a87d5315304e8e121bce8f", "lat": 38.907283, "fusion_lon": 0.0, "fusion_lat": 0.0, "type": "electric_scooter", "name": "898d0fa739a87d5315304e8e121bce8f", "is_disabled": 0, "rental_uris": {"ios": "https://dc.lft.to/lastmile_qr_scan", "android": "https://dc.lft.to/lastmile_qr_scan"}, "is_reserved": 0}, {"lon": -77.0321835, "bike_id": "3b023595af3410a1b2541ed45ff69c92", "lat": 38.892204666666665, "fusion_lon": 0.0, "fusion_lat": 0.0, "type": "electric_scooter", "name": "3b023595af3410a1b2541ed45ff69c92", "is_disabled": 0, "rental_uris": {"ios": "https://dc.lft.to/lastmile_qr_scan", "android": "https://dc.lft.to/lastmile_qr_scan"}, "is_reserved": 0}, {"lon": -77.04022133333333, "bike_id": "8aaa0677c74e9aab5237e8166e0c28e3", "lat": 38.90392033333333, "fusion_lon": 0.0, "fusion_lat": 0.0, "type": "electric_scooter", "name": "8aaa0677c74e9aab5237e8166e0c28e3", "is_disabled": 0, "rental_uris": {"ios": "https://dc.lft.to/lastmile_qr_scan", "android": "https://dc.lft.to/lastmile_qr_scan"}, "is_reserved": 0}, {"lon": -77.00100316666666, "bike_id": "26bc6d6c353b3e703880697ff0e288ef", "lat": 38.881255333333335, "fusion_lon": 0.0, "fusion_lat": 0.0, "type": "electric_scooter", "name": "26bc6d6c353b3e703880697ff0e288ef", "is_disabled": 0, "rental_uris": {"ios": "https://dc.lft.to/lastmile_qr_scan", "android": "https://dc.lft.to/lastmile_qr_scan"}, "is_reserved": 0}, {"lon": -77.03396416666666, "bike_id": "5e40013f51a0d6de500ada477f2cefea", "lat": 38.9312585, "fusion_lon": 0.0, "fusion_lat": 0.0, "type": "electric_scooter", "name": "5e40013f51a0d6de500ada477f2cefea", "is_disabled": 0, "rental_uris": {"ios": "https://dc.lft.to/lastmile_qr_scan", "android": "https://dc.lft.to/lastmile_qr_scan"}, "is_reserved": 0}, {"lon": -77.04159783333333, "bike_id": "170e4dc55b608b16db3fd3543e7130a0", "lat": 38.91252633333333, "fusion_lon": 0.0, "fusion_lat": 0.0, "type": "electric_scooter", "name": "170e4dc55b608b16db3fd3543e7130a0", "is_disabled": 0, "rental_uris": {"ios": "https://dc.lft.to/lastmile_qr_scan", "android": "https://dc.lft.to/lastmile_qr_scan"}, "is_reserved": 0}, {"lon": -76.98236483333334, "bike_id": "376eae3b037f68cb35cf835ff6b78023", "lat": 38.888655, "fusion_lon": 0.0, "fusion_lat": 0.0, "type": "electric_scooter", "name": "376eae3b037f68cb35cf835ff6b78023", "is_disabled": 0, "rental_uris": {"ios": "https://dc.lft.to/lastmile_qr_scan", "android": "https://dc.lft.to/lastmile_qr_scan"}, "is_reserved": 0}, {"lon": -77.03355583333334, "bike_id": "12f7bf80b9a32a404ebc36035140ca0e", "lat": 38.92349266666667, "fusion_lon": 0.0, "fusion_lat": 0.0, "type": "electric_scooter", "name": "12f7bf80b9a32a404ebc36035140ca0e", "is_disabled": 0, "rental_uris": {"ios": "https://dc.lft.to/lastmile_qr_scan", "android": "https://dc.lft.to/lastmile_qr_scan"}, "is_reserved": 0}, {"lon": -77.03941433333334, "bike_id": "7281b226cfb50c001faa2719fd957553", "lat": 38.915733333333336, "fusion_lon": 0.0, "fusion_lat": 0.0, "type": "electric_scooter", "name": "7281b226cfb50c001faa2719fd957553", "is_disabled": 0, "rental_uris": {"ios": "https://dc.lft.to/lastmile_qr_scan", "android": "https://dc.lft.to/lastmile_qr_scan"}, "is_reserved": 0}, {"lon": -77.06496783333333, "bike_id": "ece97ec7f02c670954c5df7136bbf266", "lat": 38.929105666666665, "fusion_lon": 0.0, "fusion_lat": 0.0, "type": "electric_scooter", "name": "ece97ec7f02c670954c5df7136bbf266", "is_disabled": 0, "rental_uris": {"ios": "https://dc.lft.to/lastmile_qr_scan", "android": "https://dc.lft.to/lastmile_qr_scan"}, "is_reserved": 0}, {"lon": -77.00367, "bike_id": "7bfbc24f8f0d88d4697edc390886958b", "lat": 38.897274833333334, "fusion_lon": 0.0, "fusion_lat": 0.0, "type": "electric_scooter", "name": "7bfbc24f8f0d88d4697edc390886958b", "is_disabled": 0, "rental_uris": {"ios": "https://dc.lft.to/lastmile_qr_scan", "android": "https://dc.lft.to/lastmile_qr_scan"}, "is_reserved": 0}, {"lon": -77.03219316666667, "bike_id": "d911aba1c5afaefb6c2291545d8526a0", "lat": 38.9125965, "fusion_lon": 0.0, "fusion_lat": 0.0, "type": "electric_scooter", "name": "d911aba1c5afaefb6c2291545d8526a0", "is_disabled": 0, "rental_uris": {"ios": "https://dc.lft.to/lastmile_qr_scan", "android": "https://dc.lft.to/lastmile_qr_scan"}, "is_reserved": 0}, {"lon": -77.02828133333334, "bike_id": "fd17d6c85dac02006a655360f512e3e2", "lat": 38.93277616666666, "fusion_lon": 0.0, "fusion_lat": 0.0, "type": "electric_scooter", "name": "fd17d6c85dac02006a655360f512e3e2", "is_disabled": 0, "rental_uris": {"ios": "https://dc.lft.to/lastmile_qr_scan", "android": "https://dc.lft.to/lastmile_qr_scan"}, "is_reserved": 0}, {"lon": -77.1309995, "bike_id": "1a38e1f2447baa6446e73d1d74322ca7", "lat": 39.0243305, "fusion_lon": 0.0, "fusion_lat": 0.0, "type": "electric_bike", "name": "1a38e1f2447baa6446e73d1d74322ca7", "is_disabled": 0, "rental_uris": {"ios": "https://dc.lft.to/lastmile_qr_scan", "android": "https://dc.lft.to/lastmile_qr_scan"}, "is_reserved": 0}, {"lon": -77.01928016666666, "bike_id": "7bdeb913aa16a0e2934a1fbe37c8a8a6", "lat": 38.92219583333333, "fusion_lon": 0.0, "fusion_lat": 0.0, "type": "electric_scooter", "name": "7bdeb913aa16a0e2934a1fbe37c8a8a6", "is_disabled": 0, "rental_uris": {"ios": "https://dc.lft.to/lastmile_qr_scan", "android": "https://dc.lft.to/lastmile_qr_scan"}, "is_reserved": 0}, {"lon": -77.021129, "bike_id": "959b3c2ce1f8c746b1a7f5c4bcefdf31", "lat": 38.9141625, "fusion_lon": 0.0, "fusion_lat": 0.0, "type": "electric_scooter", "name": "959b3c2ce1f8c746b1a7f5c4bcefdf31", "is_disabled": 0, "rental_uris": {"ios": "https://dc.lft.to/lastmile_qr_scan", "android": "https://dc.lft.to/lastmile_qr_scan"}, "is_reserved": 0}, {"lon": -77.0639585, "bike_id": "bba9bf60bc53df1ae1c2a3cc015553a8", "lat": 38.90826416666667, "fusion_lon": 0.0, "fusion_lat": 0.0, "type": "electric_scooter", "name": "bba9bf60bc53df1ae1c2a3cc015553a8", "is_disabled": 0, "rental_uris": {"ios": "https://dc.lft.to/lastmile_qr_scan", "android": "https://dc.lft.to/lastmile_qr_scan"}, "is_reserved": 0}, {"lon": -77.032689, "bike_id": "0b2f53f4a09eb1f7a481fed4b41c02c0", "lat": 38.925509166666664, "fusion_lon": 0.0, "fusion_lat": 0.0, "type": "electric_scooter", "name": "0b2f53f4a09eb1f7a481fed4b41c02c0", "is_disabled": 0, "rental_uris": {"ios": "https://dc.lft.to/lastmile_qr_scan", "android": "https://dc.lft.to/lastmile_qr_scan"}, "is_reserved": 0}, {"lon": -77.050613, "bike_id": "9e001d876eafba167c6735da93647df9", "lat": 38.900922333333334, "fusion_lon": 0.0, "fusion_lat": 0.0, "type": "electric_scooter", "name": "9e001d876eafba167c6735da93647df9", "is_disabled": 0, "rental_uris": {"ios": "https://dc.lft.to/lastmile_qr_scan", "android": "https://dc.lft.to/lastmile_qr_scan"}, "is_reserved": 0}, {"lon": -76.98003933333334, "bike_id": "1edd82b1287a3b8a955396d5e083db2e", "lat": 38.90101816666667, "fusion_lon": 0.0, "fusion_lat": 0.0, "type": "electric_scooter", "name": "1edd82b1287a3b8a955396d5e083db2e", "is_disabled": 0, "rental_uris": {"ios": "https://dc.lft.to/lastmile_qr_scan", "android": "https://dc.lft.to/lastmile_qr_scan"}, "is_reserved": 0}, {"lon": -77.0341675, "bike_id": "ba0559348c831d5156eb9162c4abc37c", "lat": 38.902477166666664, "fusion_lon": 0.0, "fusion_lat": 0.0, "type": "electric_scooter", "name": "ba0559348c831d5156eb9162c4abc37c", "is_disabled": 0, "rental_uris": {"ios": "https://dc.lft.to/lastmile_qr_scan", "android": "https://dc.lft.to/lastmile_qr_scan"}, "is_reserved": 0}, {"lon": -76.9679125, "bike_id": "26e81845b63af1443201596a93f4b35a", "lat": 38.86847783333333, "fusion_lon": 0.0, "fusion_lat": 0.0, "type": "electric_scooter", "name": "26e81845b63af1443201596a93f4b35a", "is_disabled": 0, "rental_uris": {"ios": "https://dc.lft.to/lastmile_qr_scan", "android": "https://dc.lft.to/lastmile_qr_scan"}, "is_reserved": 0}, {"lon": -76.9809985, "bike_id": "9e5f945be84c67fa296d51962f1a77ec", "lat": 38.89550283333333, "fusion_lon": 0.0, "fusion_lat": 0.0, "type": "electric_scooter", "name": "9e5f945be84c67fa296d51962f1a77ec", "is_disabled": 0, "rental_uris": {"ios": "https://dc.lft.to/lastmile_qr_scan", "android": "https://dc.lft.to/lastmile_qr_scan"}, "is_reserved": 0}, {"lon": -77.03179116666666, "bike_id": "bec17e483b377c6e3c25342bb4083793", "lat": 38.911150666666664, "fusion_lon": 0.0, "fusion_lat": 0.0, "type": "electric_scooter", "name": "bec17e483b377c6e3c25342bb4083793", "is_disabled": 0, "rental_uris": {"ios": "https://dc.lft.to/lastmile_qr_scan", "android": "https://dc.lft.to/lastmile_qr_scan"}, "is_reserved": 0}, {"lon": -76.990498, "bike_id": "be43c74f9f46ffa4d86554104bcb4495", "lat": 38.8875685, "fusion_lon": 0.0, "fusion_lat": 0.0, "type": "electric_scooter", "name": "be43c74f9f46ffa4d86554104bcb4495", "is_disabled": 0, "rental_uris": {"ios": "https://dc.lft.to/lastmile_qr_scan", "android": "https://dc.lft.to/lastmile_qr_scan"}, "is_reserved": 0}, {"lon": -76.96151433333333, "bike_id": "708c8079200fd5be97dd2488873ff768", "lat": 38.88359533333333, "fusion_lon": 0.0, "fusion_lat": 0.0, "type": "electric_scooter", "name": "708c8079200fd5be97dd2488873ff768", "is_disabled": 0, "rental_uris": {"ios": "https://dc.lft.to/lastmile_qr_scan", "android": "https://dc.lft.to/lastmile_qr_scan"}, "is_reserved": 0}, {"lon": -77.00804666666667, "bike_id": "aedcec4fd614342725d01370d6f7c343", "lat": 38.90577533333333, "fusion_lon": 0.0, "fusion_lat": 0.0, "type": "electric_scooter", "name": "aedcec4fd614342725d01370d6f7c343", "is_disabled": 0, "rental_uris": {"ios": "https://dc.lft.to/lastmile_qr_scan", "android": "https://dc.lft.to/lastmile_qr_scan"}, "is_reserved": 0}, {"lon": -77.02886083333334, "bike_id": "dfcc6e69732ef4c1911e66bb66e988a5", "lat": 38.89847966666667, "fusion_lon": 0.0, "fusion_lat": 0.0, "type": "electric_scooter", "name": "dfcc6e69732ef4c1911e66bb66e988a5", "is_disabled": 0, "rental_uris": {"ios": "https://dc.lft.to/lastmile_qr_scan", "android": "https://dc.lft.to/lastmile_qr_scan"}, "is_reserved": 0}, {"lon": -77.02633766666666, "bike_id": "1ff2bf5c10b4626f2656a4fbaacee284", "lat": 38.917125666666664, "fusion_lon": 0.0, "fusion_lat": 0.0, "type": "electric_scooter", "name": "1ff2bf5c10b4626f2656a4fbaacee284", "is_disabled": 0, "rental_uris": {"ios": "https://dc.lft.to/lastmile_qr_scan", "android": "https://dc.lft.to/lastmile_qr_scan"}, "is_reserved": 0}, {"lon": -77.03669633333334, "bike_id": "c754968c4d3244da381996732054fa39", "lat": 38.91825716666666, "fusion_lon": 0.0, "fusion_lat": 0.0, "type": "electric_scooter", "name": "c754968c4d3244da381996732054fa39", "is_disabled": 0, "rental_uris": {"ios": "https://dc.lft.to/lastmile_qr_scan", "android": "https://dc.lft.to/lastmile_qr_scan"}, "is_reserved": 0}, {"lon": -77.03668866666666, "bike_id": "7eb30fcebe024fa3553be1868da417bc", "lat": 38.908492833333334, "fusion_lon": 0.0, "fusion_lat": 0.0, "type": "electric_scooter", "name": "7eb30fcebe024fa3553be1868da417bc", "is_disabled": 0, "rental_uris": {"ios": "https://dc.lft.to/lastmile_qr_scan", "android": "https://dc.lft.to/lastmile_qr_scan"}, "is_reserved": 0}, {"lon": -77.02157533333333, "bike_id": "b765f42ff8ce5dd0f35d3bdb48146e24", "lat": 38.897266, "fusion_lon": 0.0, "fusion_lat": 0.0, "type": "electric_scooter", "name": "b765f42ff8ce5dd0f35d3bdb48146e24", "is_disabled": 0, "rental_uris": {"ios": "https://dc.lft.to/lastmile_qr_scan", "android": "https://dc.lft.to/lastmile_qr_scan"}, "is_reserved": 0}, {"lon": -77.0218995, "bike_id": "b501b592b1dbee896e0600d547ac5ed6", "lat": 38.909532666666664, "fusion_lon": 0.0, "fusion_lat": 0.0, "type": "electric_scooter", "name": "b501b592b1dbee896e0600d547ac5ed6", "is_disabled": 0, "rental_uris": {"ios": "https://dc.lft.to/lastmile_qr_scan", "android": "https://dc.lft.to/lastmile_qr_scan"}, "is_reserved": 0}, {"lon": -77.0240565, "bike_id": "41834eff6023887b66a91e4931e5ab04", "lat": 38.88287583333333, "fusion_lon": 0.0, "fusion_lat": 0.0, "type": "electric_scooter", "name": "41834eff6023887b66a91e4931e5ab04", "is_disabled": 0, "rental_uris": {"ios": "https://dc.lft.to/lastmile_qr_scan", "android": "https://dc.lft.to/lastmile_qr_scan"}, "is_reserved": 0}, {"lon": -76.91592783333333, "bike_id": "c35b79b3b90c5a8d69428ac958916683", "lat": 38.87983466666667, "fusion_lon": 0.0, "fusion_lat": 0.0, "type": "electric_bike", "name": "c35b79b3b90c5a8d69428ac958916683", "is_disabled": 0, "rental_uris": {"ios": "https://dc.lft.to/lastmile_qr_scan", "android": "https://dc.lft.to/lastmile_qr_scan"}, "is_reserved": 0}, {"lon": -76.99510766666667, "bike_id": "2ec1d0af48337d84b7ee4bb970e740a4", "lat": 38.8830665, "fusion_lon": 0.0, "fusion_lat": 0.0, "type": "electric_scooter", "name": "2ec1d0af48337d84b7ee4bb970e740a4", "is_disabled": 0, "rental_uris": {"ios": "https://dc.lft.to/lastmile_qr_scan", "android": "https://dc.lft.to/lastmile_qr_scan"}, "is_reserved": 0}, {"lon": -76.99051216666666, "bike_id": "88ff9e62edc09b6ed5a096d06ac0c231", "lat": 38.88415783333333, "fusion_lon": 0.0, "fusion_lat": 0.0, "type": "electric_scooter", "name": "88ff9e62edc09b6ed5a096d06ac0c231", "is_disabled": 0, "rental_uris": {"ios": "https://dc.lft.to/lastmile_qr_scan", "android": "https://dc.lft.to/lastmile_qr_scan"}, "is_reserved": 0}, {"lon": -77.02170416666667, "bike_id": "967f45af8ae1f732719135b59a2b0a06", "lat": 38.89752133333333, "fusion_lon": 0.0, "fusion_lat": 0.0, "type": "electric_scooter", "name": "967f45af8ae1f732719135b59a2b0a06", "is_disabled": 0, "rental_uris": {"ios": "https://dc.lft.to/lastmile_qr_scan", "android": "https://dc.lft.to/lastmile_qr_scan"}, "is_reserved": 0}, {"lon": -77.02683516666667, "bike_id": "199b39d25ab820de97f16cb35370f5da", "lat": 38.90090283333333, "fusion_lon": 0.0, "fusion_lat": 0.0, "type": "electric_scooter", "name": "199b39d25ab820de97f16cb35370f5da", "is_disabled": 0, "rental_uris": {"ios": "https://dc.lft.to/lastmile_qr_scan", "android": "https://dc.lft.to/lastmile_qr_scan"}, "is_reserved": 0}, {"lon": -76.94881416666666, "bike_id": "b6a0a57b0d0eaa1baec0626e8a81968b", "lat": 38.895102, "fusion_lon": 0.0, "fusion_lat": 0.0, "type": "electric_scooter", "name": "b6a0a57b0d0eaa1baec0626e8a81968b", "is_disabled": 0, "rental_uris": {"ios": "https://dc.lft.to/lastmile_qr_scan", "android": "https://dc.lft.to/lastmile_qr_scan"}, "is_reserved": 0}, {"lon": -77.0327105, "bike_id": "52c469e94efda60a8836381a1188c5ea", "lat": 38.92770733333333, "fusion_lon": 0.0, "fusion_lat": 0.0, "type": "electric_scooter", "name": "52c469e94efda60a8836381a1188c5ea", "is_disabled": 0, "rental_uris": {"ios": "https://dc.lft.to/lastmile_qr_scan", "android": "https://dc.lft.to/lastmile_qr_scan"}, "is_reserved": 0}, {"lon": -77.05862833333333, "bike_id": "d2dba55cb684457bd0def129899a333e", "lat": 38.9361025, "fusion_lon": 0.0, "fusion_lat": 0.0, "type": "electric_scooter", "name": "d2dba55cb684457bd0def129899a333e", "is_disabled": 0, "rental_uris": {"ios": "https://dc.lft.to/lastmile_qr_scan", "android": "https://dc.lft.to/lastmile_qr_scan"}, "is_reserved": 0}, {"lon": -77.08197366666667, "bike_id": "53692962d13e94a387f2733734900cde", "lat": 38.93509383333333, "fusion_lon": 0.0, "fusion_lat": 0.0, "type": "electric_scooter", "name": "53692962d13e94a387f2733734900cde", "is_disabled": 0, "rental_uris": {"ios": "https://dc.lft.to/lastmile_qr_scan", "android": "https://dc.lft.to/lastmile_qr_scan"}, "is_reserved": 0}, {"lon": -76.97328783333333, "bike_id": "ce04a1c73a077e35a77a9a81c0303ce8", "lat": 38.90479883333333, "fusion_lon": 0.0, "fusion_lat": 0.0, "type": "electric_bike", "name": "ce04a1c73a077e35a77a9a81c0303ce8", "is_disabled": 0, "rental_uris": {"ios": "https://dc.lft.to/lastmile_qr_scan", "android": "https://dc.lft.to/lastmile_qr_scan"}, "is_reserved": 0}, {"lon": -77.04227466666667, "bike_id": "552168a7b6aa7370feef03fe48d45dbc", "lat": 38.911045333333334, "fusion_lon": 0.0, "fusion_lat": 0.0, "type": "electric_scooter", "name": "552168a7b6aa7370feef03fe48d45dbc", "is_disabled": 0, "rental_uris": {"ios": "https://dc.lft.to/lastmile_qr_scan", "android": "https://dc.lft.to/lastmile_qr_scan"}, "is_reserved": 0}, {"lon": -77.04247633333334, "bike_id": "4aa332e2899a1c92047ac3a9c1ec5731", "lat": 38.92434216666667, "fusion_lon": 0.0, "fusion_lat": 0.0, "type": "electric_scooter", "name": "4aa332e2899a1c92047ac3a9c1ec5731", "is_disabled": 0, "rental_uris": {"ios": "https://dc.lft.to/lastmile_qr_scan", "android": "https://dc.lft.to/lastmile_qr_scan"}, "is_reserved": 0}, {"lon": -77.03052983333333, "bike_id": "e3be4a4e675dd348a82dfaea6ee73828", "lat": 38.88432533333334, "fusion_lon": 0.0, "fusion_lat": 0.0, "type": "electric_scooter", "name": "e3be4a4e675dd348a82dfaea6ee73828", "is_disabled": 0, "rental_uris": {"ios": "https://dc.lft.to/lastmile_qr_scan", "android": "https://dc.lft.to/lastmile_qr_scan"}, "is_reserved": 0}, {"lon": -77.0417255, "bike_id": "c2201d176ca1287d614541c317c87548", "lat": 38.9231515, "fusion_lon": 0.0, "fusion_lat": 0.0, "type": "electric_scooter", "name": "c2201d176ca1287d614541c317c87548", "is_disabled": 0, "rental_uris": {"ios": "https://dc.lft.to/lastmile_qr_scan", "android": "https://dc.lft.to/lastmile_qr_scan"}, "is_reserved": 0}, {"lon": -76.95749616666667, "bike_id": "6212de3ecfbf669117d54b3615ab0075", "lat": 38.8842885, "fusion_lon": 0.0, "fusion_lat": 0.0, "type": "electric_scooter", "name": "6212de3ecfbf669117d54b3615ab0075", "is_disabled": 0, "rental_uris": {"ios": "https://dc.lft.to/lastmile_qr_scan", "android": "https://dc.lft.to/lastmile_qr_scan"}, "is_reserved": 0}, {"lon": -77.05012566666667, "bike_id": "8b6d78cea8389d1010d6403d4406acdc", "lat": 38.90153766666667, "fusion_lon": 0.0, "fusion_lat": 0.0, "type": "electric_scooter", "name": "8b6d78cea8389d1010d6403d4406acdc", "is_disabled": 0, "rental_uris": {"ios": "https://dc.lft.to/lastmile_qr_scan", "android": "https://dc.lft.to/lastmile_qr_scan"}, "is_reserved": 0},