{"data": {"bikes": [{"is_disabled": 0, "fusion_lat": 0.0, "lat": 38.887101333333334, "type": "electric_scooter", "lon": -77.032317, "is_reserved": 0, "fusion_lon": 0.0, "bike_id": "f292b072928a48a60e08617adf19e7fb", "name": "f292b072928a48a60e08617adf19e7fb", "rental_uris": {"ios": "https://dc.lft.to/lastmile_qr_scan", "android": "https://dc.lft.to/lastmile_qr_scan"}}, {"is_disabled": 0, "fusion_lat": 0.0, "lat": 38.909819, "type": "electric_scooter", "lon": -77.0671755, "is_reserved": 0, "fusion_lon": 0.0, "bike_id": "a4963601df88baa1cb5f4c3bf5221f95", "name": "a4963601df88baa1cb5f4c3bf5221f95", "rental_uris": {"ios": "https://dc.lft.to/lastmile_qr_scan", "android": "https://dc.lft.to/lastmile_qr_scan"}}, {"is_disabled": 0, "fusion_lat": 0.0, "lat": 38.91883, "type": "electric_scooter", "lon": -76.97152483333333, "is_reserved": 0, "fusion_lon": 0.0, "bike_id": "7af00d737747f576838d1519ac3e041c", "name": "7af00d737747f576838d1519ac3e041c", "rental_uris": {"ios": "https://dc.lft.to/lastmile_qr_scan", "android": "https://dc.lft.to/lastmile_qr_scan"}}, {"is_disabled": 0, "fusion_lat": 0.0, "lat": 38.902823833333336, "type": "electric_scooter", "lon": -77.0387, "is_reserved": 0, "fusion_lon": 0.0, "bike_id": "152deddcfa4101d416ca8a90d8e2f7f9", "name": "152deddcfa4101d416ca8a90d8e2f7f9", "rental_uris": {"ios": "https://dc.lft.to/lastmile_qr_scan", "android": "https://dc.lft.to/lastmile_qr_scan"}}, {"is_disabled": 0, "fusion_lat": 0.0, "lat": 38.943262, "type": "electric_scooter", "lon": -77.07391783333334, "is_reserved": 0, "fusion_lon": 0.0, "bike_id": "9efbc415c498a8df9c7da783b9d20f0e", "name": "9efbc415c498a8df9c7da783b9d20f0e", "rental_uris": {"ios": "https://dc.lft.to/lastmile_qr_scan", "android": "https://dc.lft.to/lastmile_qr_scan"}}, {"is_disabled": 0, "fusion_lat": 0.0, "lat": 38.874942833333336, "type": "electric_scooter", "lon": -77.0018705, "is_reserved": 0, "fusion_lon": 0.0, "bike_id": "1e2aea1a1403d2733641578ff0bca1b6", "name": "1e2aea1a1403d2733641578ff0bca1b6", "rental_uris": {"ios": "https://dc.lft.to/lastmile_qr_scan", "android": "https://dc.lft.to/lastmile_qr_scan"}}, {"is_disabled": 0, "fusion_lat": 0.0, "lat": 38.9262055, "type": "electric_scooter", "lon": -77.00563016666666, "is_reserved": 0, "fusion_lon": 0.0, "bike_id": "15fc0d09a0d89c1f006da8b6b9a6eb0f", "name": "15fc0d09a0d89c1f006da8b6b9a6eb0f", "rental_uris": {"ios": "https://dc.lft.to/lastmile_qr_scan", "android": "https://dc.lft.to/lastmile_qr_scan"}}, {"is_disabled": 0, "fusion_lat": 0.0, "lat": 38.899254166666665, "type": "electric_scooter", "lon": -77.05406483333333, "is_reserved": 0, "fusion_lon": 0.0, "bike_id": "037f65b2e0ed216db0072cffd2027769", "name": "037f65b2e0ed216db0072cffd2027769", "rental_uris": {"ios": "https://dc.lft.to/lastmile_qr_scan", "android": "https://dc.lft.to/lastmile_qr_scan"}}, {"is_disabled": 0, "fusion_lat": 0.0, "lat": 38.9460805, "type": "electric_scooter", "lon": -77.035055, "is_reserved": 0, "fusion_lon": 0.0, "bike_id": "479ea878308d3e481a7d64d7159154f0", "name": "479ea878308d3e481a7d64d7159154f0", "rental_uris": {"ios": "https://dc.lft.to/lastmile_qr_scan", "android": "https://dc.lft.to/lastmile_qr_scan"}}, {"is_disabled": 0, "fusion_lat": 0.0, "lat": 38.9085675, "type": "electric_scooter", "lon": -77.02457516666666, "is_reserved": 0, "fusion_lon": 0.0, "bike_id": "652309a13392480a0133438eb9c75ed6", "name": "652309a13392480a0133438eb9c75ed6", "rental_uris": {"ios": "https://dc.lft.to/lastmile_qr_scan", "android": "https://dc.lft.to/lastmile_qr_scan"}}, {"is_disabled": 0, "fusion_lat": 0.0, "lat": 38.86369233333333, "type": "electric_scooter", "lon": -76.9903875, "is_reserved": 0, "fusion_lon": 0.0, "bike_id": "3513f96d004d24a516048f15a6a5c142", "name": "3513f96d004d24a516048f15a6a5c142", "rental_uris": {"ios": "https://dc.lft.to/lastmile_qr_scan", "android": "https://dc.lft.to/lastmile_qr_scan"}}, {"is_disabled": 0, "fusion_lat": 0.0, "lat": 38.9225225, "type": "electric_scooter", "lon": -77.03073116666667, "is_reserved": 0, "fusion_lon": 0.0, "bike_id": "976c0a1b144e6843365ca60bc3baea07", "name": "976c0a1b144e6843365ca60bc3baea07", "rental_uris": {"ios": "https://dc.lft.to/lastmile_qr_scan", "android": "https://dc.lft.to/lastmile_qr_scan"}}, {"is_disabled": 0, "fusion_lat": 0.0, "lat": 38.9364055, "type": "electric_scooter", "lon": -77.0209125, "is_reserved": 0, "fusion_lon": 0.0, "bike_id": "67ef7b0b99b67f5e014f58503ae14491", "name": "67ef7b0b99b67f5e014f58503ae14491", "rental_uris": {"ios": "https://dc.lft.to/lastmile_qr_scan", "android": "https://dc.lft.to/lastmile_qr_scan"}}, {"is_disabled": 0, "fusion_lat": 0.0, "lat": 38.8827945, "type": "electric_scooter", "lon": -77.04157033333334, "is_reserved": 0, "fusion_lon": 0.0, "bike_id": "2bcc7f61a88215f02b2310d77ef8b553", "name": "2bcc7f61a88215f02b2310d77ef8b553", "rental_uris": {"ios": "https://dc.lft.to/lastmile_qr_scan", "android": "https://dc.lft.to/lastmile_qr_scan"}}, {"is_disabled": 0, "fusion_lat": 0.0, "lat": 38.885093166666664, "type": "electric_scooter", "lon": -77.00580016666666, "is_reserved": 0, "fusion_lon": 0.0, "bike_id": "70a0c4f02971de7c6b3275565ff6eb63", "name": "70a0c4f02971de7c6b3275565ff6eb63", "rental_uris": {"ios": "https://dc.lft.to/lastmile_qr_scan", "android": "https://dc.lft.to/lastmile_qr_scan"}}, {"is_disabled": 0, "fusion_lat": 0.0, "lat": 38.905690666666665, "type": "electric_scooter", "lon": -77.02731883333334, "is_reserved": 0, "fusion_lon": 0.0, "bike_id": "74ab64c4fff6e48aaa4fd936e0c08043", "name": "74ab64c4fff6e48aaa4fd936e0c08043", "rental_uris": {"ios": "https://dc.lft.to/lastmile_qr_scan", "android": "https://dc.lft.to/lastmile_qr_scan"}}, {"is_disabled": 0, "fusion_lat": 0.0, "lat": 38.896270666666666, "type": "electric_scooter", "lon": -76.99849966666666, "is_reserved": 0, "fusion_lon": 0.0, "bike_id": "1ad55c4e7b5903a543cf77ec04f656a2", "name": "1ad55c4e7b5903a543cf77ec04f656a2", "rental_uris": {"ios": "https://dc.lft.to/lastmile_qr_scan", "android": "https://dc.lft.to/lastmile_qr_scan"}}, {"is_disabled": 0, "fusion_lat": 0.0, "lat": 38.92364216666667, "type": "electric_scooter", "lon": -77.04141133333333, "is_reserved": 0, "fusion_lon": 0.0, "bike_id": "fee2c6bc8f92b544f72930aeafa123d7", "name": "fee2c6bc8f92b544f72930aeafa123d7", "rental_uris": {"ios": "https://dc.lft.to/lastmile_qr_scan", "android": "https://dc.lft.to/lastmile_qr_scan"}}, {"is_disabled": 0, "fusion_lat": 0.0, "lat": 38.895307833333334, "type": "electric_scooter", "lon": -77.0321835, "is_reserved": 0, "fusion_lon": 0.0, "bike_id": "9cfd8ab7d8b7dffdae1e3e5a8f7dbd56", "name": "9cfd8ab7d8b7dffdae1e3e5a8f7dbd56", "rental_uris": {"ios": "https://dc.lft.to/lastmile_qr_scan", "android": "https://dc.lft.to/lastmile_qr_scan"}}, {"is_disabled": 0, "fusion_lat": 0.0, "lat": 38.91705266666666, "type": "electric_scooter", "lon": -77.03200616666666, "is_reserved": 0, "fusion_lon": 0.0, "bike_id": "836900d0181631bb4e76bdc1c757427c", "name": "836900d0181631bb4e76bdc1c757427c", "rental_uris": {"ios": "https://dc.lft.to/lastmile_qr_scan", "android": "https://dc.lft.to/lastmile_qr_scan"}}, {"is_disabled": 0, "fusion_lat": 0.0, "lat": 39.056310833333335, "type": "electric_bike", "lon": -77.12523733333333, "is_reserved": 0, "fusion_lon": 0.0, "bike_id": "b7cc48bc9633b005853cc8243e4a42f2", "name": "b7cc48bc9633b005853cc8243e4a42f2", "rental_uris": {"ios": "https://dc.lft.to/lastmile_qr_scan", "android": "https://dc.lft.to/lastmile_qr_scan"}}, {"is_disabled": 0, "fusion_lat": 0.0, "lat": 38.910348, "type": "electric_scooter", "lon": -77.03837833333333, "is_reserved": 0, "fusion_lon": 0.0, "bike_id": "6327f4cc472838d3fbf37472a7adfce2", "name": "6327f4cc472838d3fbf37472a7adfce2", "rental_uris": {"ios": "https://dc.lft.to/lastmile_qr_scan", "android": "https://dc.lft.to/lastmile_qr_scan"}}, {"is_disabled": 0, "fusion_lat": 0.0, "lat": 38.92522733333333, "type": "electric_scooter", "lon": -77.038517, "is_reserved": 0, "fusion_lon": 0.0, "bike_id": "4afa69472c2dcbc165040e072fd08cf9", "name": "4afa69472c2dcbc165040e072fd08cf9", "rental_uris": {"ios": "https://dc.lft.to/lastmile_qr_scan", "android": "https://dc.lft.to/lastmile_qr_scan"}}, {"is_disabled": 0, "fusion_lat": 0.0, "lat": 38.95064933333333, "type": "electric_bike", "lon": -77.07783533333334, "is_reserved": 0, "fusion_lon": 0.0, "bike_id": "b368802335c326dd1bd40b89e60886cd", "name": "b368802335c326dd1bd40b89e60886cd", "rental_uris": {"ios": "https://dc.lft.to/lastmile_qr_scan", "android": "https://dc.lft.to/lastmile_qr_scan"}}, {"is_disabled": 0, "fusion_lat": 0.0, "lat": 38.8641625, "type": "electric_scooter", "lon": -77.01352133333333, "is_reserved": 0, "fusion_lon": 0.0, "bike_id": "b65fa6044c4c8baa3320ffe0fb0fcc78", "name": "b65fa6044c4c8baa3320ffe0fb0fcc78", "rental_uris": {"ios": "https://dc.lft.to/lastmile_qr_scan", "android": "https://dc.lft.to/lastmile_qr_scan"}}, {"is_disabled": 0, "fusion_lat": 0.0, "lat": 38.901767166666666, "type": "electric_scooter", "lon": -76.99997483333334, "is_reserved": 0, "fusion_lon": 0.0, "bike_id": "84be7f26301e15f213c38d586b0ae2b6", "name": "84be7f26301e15f213c38d586b0ae2b6", "rental_uris": {"ios": "https://dc.lft.to/lastmile_qr_scan", "android": "https://dc.lft.to/lastmile_qr_scan"}}, {"is_disabled": 0, "fusion_lat": 0.0, "lat": 38.894725666666666, "type": "electric_scooter", "lon": -77.0006105, "is_reserved": 0, "fusion_lon": 0.0, "bike_id": "c07e65f9d759db455944dcc534a57166", "name": "c07e65f9d759db455944dcc534a57166", "rental_uris": {"ios": "https://dc.lft.to/lastmile_qr_scan", "android": "https://dc.lft.to/lastmile_qr_scan"}}, {"is_disabled": 0, "fusion_lat": 0.0, "lat": 38.900205166666666, "type": "electric_scooter", "lon": -76.986845, "is_reserved": 0, "fusion_lon": 0.0, "bike_id": "08b50b32e08a73a21d407216ba1a2372", "name": "08b50b32e08a73a21d407216ba1a2372", "rental_uris": {"ios": "https://dc.lft.to/lastmile_qr_scan", "android": "https://dc.lft.to/lastmile_qr_scan"}}, {"is_disabled": 0, "fusion_lat": 0.0, "lat": 38.9140045, "type": "electric_scooter", "lon": -77.03266083333334, "is_reserved": 0, "fusion_lon": 0.0, "bike_id": "ec630c0652f7ac45ae711615df169572", "name": "ec630c0652f7ac45ae711615df169572", "rental_uris": {"ios": "https://dc.lft.to/lastmile_qr_scan", "android": "https://dc.lft.to/lastmile_qr_scan"}}, {"is_disabled": 0, "fusion_lat": 0.0, "lat": 38.904294166666666, "type": "electric_scooter", "lon": -77.043526, "is_reserved": 0, "fusion_lon": 0.0, "bike_id": "85f8d814401edaae73b6de28bfc6dba2", "name": "85f8d814401edaae73b6de28bfc6dba2", "rental_uris": {"ios": "https://dc.lft.to/lastmile_qr_scan", "android": "https://dc.lft.to/lastmile_qr_scan"}}, {"is_disabled": 0, "fusion_lat": 0.0, "lat": 38.925787666666665, "type": "electric_scooter", "lon": -77.05763133333333, "is_reserved": 0, "fusion_lon": 0.0, "bike_id": "fe5636eae2094533008244f8a40f93ea", "name": "fe5636eae2094533008244f8a40f93ea", "rental_uris": {"ios": "https://dc.lft.to/lastmile_qr_scan", "android": "https://dc.lft.to/lastmile_qr_scan"}}, {"is_disabled": 0, "fusion_lat": 0.0, "lat": 38.88439416666667, "type": "electric_scooter", "lon": -77.0303795, "is_reserved": 0, "fusion_lon": 0.0, "bike_id": "605da6ac3706f6c10585fe5f353324c2", "name": "605da6ac3706f6c10585fe5f353324c2", "rental_uris": {"ios": "https://dc.lft.to/lastmile_qr_scan", "android": "https://dc.lft.to/lastmile_qr_scan"}}, {"is_disabled": 0, "fusion_lat": 0.0, "lat": 38.9034435, "type": "electric_scooter", "lon": -77.0345295, "is_reserved": 0, "fusion_lon": 0.0, "bike_id": "2cc349877a5f61e7d37b56eb1418b20d", "name": "2cc349877a5f61e7d37b56eb1418b20d", "rental_uris": {"ios": "https://dc.lft.to/lastmile_qr_scan", "android": "https://dc.lft.to/lastmile_qr_scan"}}, {"is_disabled": 0, "fusion_lat": 0.0, "lat": 38.919171666666664, "type": "electric_scooter", "lon": -77.03348666666666, "is_reserved": 0, "fusion_lon": 0.0, "bike_id": "bdeba51f40e192e6605080a7da06dfe4", "name": "bdeba51f40e192e6605080a7da06dfe4", "rental_uris": {"ios": "https://dc.lft.to/lastmile_qr_scan", "android": "https://dc.lft.to/lastmile_qr_scan"}}, {"is_disabled": 0, "fusion_lat": 0.0, "lat": 38.86712266666667, "type": "electric_scooter", "lon": -76.98724566666667, "is_reserved": 0, "fusion_lon": 0.0, "bike_id": "a8e946b83c6949d18b18cc2d57bfd1bf", "name": "a8e946b83c6949d18b18cc2d57bfd1bf", "rental_uris": {"ios": "https://dc.lft.to/lastmile_qr_scan", "android": "https://dc.lft.to/lastmile_qr_scan"}}, {"is_disabled": 0, "fusion_lat": 0.0, "lat": 38.90139, "type": "electric_scooter", "lon": -77.00076633333333, "is_reserved": 0, "fusion_lon": 0.0, "bike_id": "6d8d49c8dc98c81e1b946212c6d4e553", "name": "6d8d49c8dc98c81e1b946212c6d4e553", "rental_uris": {"ios": "https://dc.lft.to/lastmile_qr_scan", "android": "https://dc.lft.to/lastmile_qr_scan"}}, {"is_disabled": 0, "fusion_lat": 0.0, "lat": 38.94051183333333, "type": "electric_scooter", "lon": -77.09269566666667, "is_reserved": 0, "fusion_lon": 0.0, "bike_id": "010350ee30f2da79dd543652660a5aeb", "name": "010350ee30f2da79dd543652660a5aeb", "rental_uris": {"ios": "https://dc.lft.to/lastmile_qr_scan", "android": "https://dc.lft.to/lastmile_qr_scan"}}, {"is_disabled": 0, "fusion_lat": 0.0, "lat": 38.8428835, "type": "electric_scooter", "lon": -76.99955633333333, "is_reserved": 0, "fusion_lon": 0.0, "bike_id": "76e8f540767c1c1830a536b0b587451e", "name": "76e8f540767c1c1830a536b0b587451e", "rental_uris": {"ios": "https://dc.lft.to/lastmile_qr_scan", "android": "https://dc.lft.to/lastmile_qr_scan"}}, {"is_disabled": 0, "fusion_lat": 0.0, "lat": 38.900341166666664, "type": "electric_scooter", "lon": -76.9962675, "is_reserved": 0, "fusion_lon": 0.0, "bike_id": "a0ad8b8577232d4aa1135b4fd32d4e62", "name": "a0ad8b8577232d4aa1135b4fd32d4e62", "rental_uris": {"ios": "https://dc.lft.to/lastmile_qr_scan", "android": "https://dc.lft.to/lastmile_qr_scan"}}, {"is_disabled": 0, "fusion_lat": 0.0, "lat": 38.905372666666665, "type": "electric_scooter", "lon": -77.05014, "is_reserved": 0, "fusion_lon": 0.0, "bike_id": "02275e311ee19945ea4cefe32ccd1ca1", "name": "02275e311ee19945ea4cefe32ccd1ca1", "rental_uris": {"ios": "https://dc.lft.to/lastmile_qr_scan", "android": "https://dc.lft.to/lastmile_qr_scan"}}, {"is_disabled": 0, "fusion_lat": 0.0, "lat": 38.974255166666666, "type": "electric_scooter", "lon": -77.01521116666666, "is_reserved": 0, "fusion_lon": 0.0, "bike_id": "771e1502a9ad310d9738ba01d8488cc0", "name": "771e1502a9ad310d9738ba01d8488cc0", "rental_uris": {"ios": "https://dc.lft.to/lastmile_qr_scan", "android": "https://dc.lft.to/lastmile_qr_scan"}}, {"is_disabled": 0, "fusion_lat": 0.0, "lat": 38.91744933333333, "type": "electric_scooter", "lon": -77.007525, "is_reserved": 0, "fusion_lon": 0.0, "bike_id": "2a602455de7744295c0527e79d8a6861", "name": "2a602455de7744295c0527e79d8a6861", "rental_uris": {"ios": "https://dc.lft.to/lastmile_qr_scan", "android": "https://dc.lft.to/lastmile_qr_scan"}}, {"is_disabled": 0, "fusion_lat": 0.0, "lat": 38.903316333333336, "type": "electric_scooter", "lon": -77.0385205, "is_reserved": 0, "fusion_lon": 0.0, "bike_id": "88270fc2909fc79d035aa1619e896a9f", "name": "88270fc2909fc79d035aa1619e896a9f", "rental_uris": {"ios": "https://dc.lft.to/lastmile_qr_scan", "android": "https://dc.lft.to/lastmile_qr_scan"}}, {"is_disabled": 0, "fusion_lat": 0.0, "lat": 38.896224333333336, "type": "electric_scooter", "lon": -77.040543, "is_reserved": 0, "fusion_lon": 0.0, "bike_id": "22f5db045f0c1a47dc2464f5d16fbf69", "name": "22f5db045f0c1a47dc2464f5d16fbf69", "rental_uris": {"ios": "https://dc.lft.to/lastmile_qr_scan", "android": "https://dc.lft.to/lastmile_qr_scan"}}, {"is_disabled": 0, "fusion_lat": 0.0, "lat": 38.9416645, "type": "electric_scooter", "lon": -77.04138316666666, "is_reserved": 0, "fusion_lon": 0.0, "bike_id": "659330e116885296712b98139fb10d75", "name": "659330e116885296712b98139fb10d75", "rental_uris": {"ios": "https://dc.lft.to/lastmile_qr_scan", "android": "https://dc.lft.to/lastmile_qr_scan"}}, {"is_disabled": 0, "fusion_lat": 0.0, "lat": 38.99819083333333, "type": "electric_bike", "lon": -76.88394233333334, "is_reserved": 0, "fusion_lon": 0.0, "bike_id": "c8e6c311f73cd3cca94daa0d10c4da89", "name": "c8e6c311f73cd3cca94daa0d10c4da89", "rental_uris": {"ios": "https://dc.lft.to/lastmile_qr_scan", "android": "https://dc.lft.to/lastmile_qr_scan"}}, {"is_disabled": 0, "fusion_lat": 0.0, "lat": 38.890784333333336, "type": "electric_scooter", "lon": -77.04047366666667, "is_reserved": 0, "fusion_lon": 0.0, "bike_id": "07a4e0e86aafcc5def12d1095a8daa05", "name": "07a4e0e86aafcc5def12d1095a8daa05", "rental_uris": {"ios": "https://dc.lft.to/lastmile_qr_scan", "android": "https://dc.lft.to/lastmile_qr_scan"}}, {"is_disabled": 0, "fusion_lat": 0.0, "lat": 38.906798, "type": "electric_scooter", "lon": -77.063604, "is_reserved": 0, "fusion_lon": 0.0, "bike_id": "5ffbf650e3b9cf81b5d37841e95f4acf", "name": "5ffbf650e3b9cf81b5d37841e95f4acf", "rental_uris": {"ios": "https://dc.lft.to/lastmile_qr_scan", "android": "https://dc.lft.to/lastmile_qr_scan"}}, {"is_disabled": 0, "fusion_lat": 0.0, "lat": 38.911455833333335, "type": "electric_scooter", "lon": -77.021813, "is_reserved": 0, "fusion_lon": 0.0, "bike_id": "b744cee2b3c099cbd62de54b0652c195", "name": "b744cee2b3c099cbd62de54b0652c195", "rental_uris": {"ios": "https://dc.lft.to/lastmile_qr_scan", "android": "https://dc.lft.to/lastmile_qr_scan"}}, {"is_disabled": 0, "fusion_lat": 0.0, "lat": 38.951901, "type": "electric_bike", "lon": -76.96726216666667, "is_reserved": 0, "fusion_lon": 0.0, "bike_id": "dfbc2c61a3772166ddd3a9c09dc73869", "name": "dfbc2c61a3772166ddd3a9c09dc73869", "rental_uris": {"ios": "https://dc.lft.to/lastmile_qr_scan", "android": "https://dc.lft.to/lastmile_qr_scan"}}, {"is_disabled": 0, "fusion_lat": 0.0, "lat": 38.921426333333336, "type": "electric_scooter", "lon": -77.0349475, "is_reserved": 0, "fusion_lon": 0.0, "bike_id": "6ca25d8b1ebfc2bb19a332073b5472de", "name": "6ca25d8b1ebfc2bb19a332073b5472de", "rental_uris": {"ios": "https://dc.lft.to/lastmile_qr_scan", "android": "https://dc.lft.to/lastmile_qr_scan"}}, {"is_disabled": 0, "fusion_lat": 0.0, "lat": 38.928983833333334, "type": "electric_scooter", "lon": -77.05453683333333, "is_reserved": 0, "fusion_lon": 0.0, "bike_id": "5d0ca982245702b91143e3e0d4eda33f", "name": "5d0ca982245702b91143e3e0d4eda33f", "rental_uris": {"ios": "https://dc.lft.to/lastmile_qr_scan", "android": "https://dc.lft.to/lastmile_qr_scan"}}, {"is_disabled": 0, "fusion_lat": 0.0, "lat": 38.863896833333335, "type": "electric_bike", "lon": -76.98998066666667, "is_reserved": 0, "fusion_lon": 0.0, "bike_id": "78df65359f08b4351e1597ba0f8a9c45", "name": "78df65359f08b4351e1597ba0f8a9c45", "rental_uris": {"ios": "https://dc.lft.to/lastmile_qr_scan", "android": "https://dc.lft.to/lastmile_qr_scan"}}, {"is_disabled": 0, "fusion_lat": 0.0, "lat": 38.909784, "type": "electric_scooter", "lon": -77.04878533333333, "is_reserved": 0, "fusion_lon": 0.0, "bike_id": "1f4bedf7d41ca4a97f60bebac2d09d6e", "name": "1f4bedf7d41ca4a97f60bebac2d09d6e", "rental_uris": {"ios": "https://dc.lft.to/lastmile_qr_scan", "android": "https://dc.lft.to/lastmile_qr_scan"}}, {"is_disabled": 0, "fusion_lat": 0.0, "lat": 38.903892, "type": "electric_scooter", "lon": -77.0108175, "is_reserved": 0, "fusion_lon": 0.0, "bike_id": "6fd5418ef868afcbc714ee6ae202b8cc", "name": "6fd5418ef868afcbc714ee6ae202b8cc", "rental_uris": {"ios": "https://dc.lft.to/lastmile_qr_scan", "android": "https://dc.lft.to/lastmile_qr_scan"}}, {"is_disabled": 0, "fusion_lat": 0.0, "lat": 38.90045416666667, "type": "electric_scooter", "lon": -76.99898716666667, "is_reserved": 0, "fusion_lon": 0.0, "bike_id": "7747e37c56c49809b870989c21ca3d44", "name": "7747e37c56c49809b870989c21ca3d44", "rental_uris": {"ios": "https://dc.lft.to/lastmile_qr_scan", "android": "https://dc.lft.to/lastmile_qr_scan"}}, {"is_disabled": 0, "fusion_lat": 0.0, "lat": 38.90519483333333, "type": "electric_scooter", "lon": -76.9884775, "is_reserved": 0, "fusion_lon": 0.0, "bike_id": "8f778ea23eb9917d83453947152e5302", "name": "8f778ea23eb9917d83453947152e5302", "rental_uris": {"ios": "https://dc.lft.to/lastmile_qr_scan", "android": "https://dc.lft.to/lastmile_qr_scan"}}, {"is_disabled": 0, "fusion_lat": 0.0, "lat": 38.8984525, "type": "electric_scooter", "lon": -77.032574, "is_reserved": 0, "fusion_lon": 0.0, "bike_id": "eeb810c009707d9fa5c96b5361f8d13d", "name": "eeb810c009707d9fa5c96b5361f8d13d", "rental_uris": {"ios": "https://dc.lft.to/lastmile_qr_scan", "android": "https://dc.lft.to/lastmile_qr_scan"}}, {"is_disabled": 0, "fusion_lat": 0.0, "lat": 38.873735333333336, "type": "electric_scooter", "lon": -77.000836, "is_reserved": 0, "fusion_lon": 0.0, "bike_id": "9529ea3293ae06675d9cc248ad832718", "name": "9529ea3293ae06675d9cc248ad832718", "rental_uris": {"ios": "https://dc.lft.to/lastmile_qr_scan", "android": "https://dc.lft.to/lastmile_qr_scan"}}, {"is_disabled": 0, "fusion_lat": 0.0, "lat": 38.893280833333336, "type": "electric_scooter", "lon": -76.92994666666667, "is_reserved": 0, "fusion_lon": 0.0, "bike_id": "a1d35606705d6acc63d6812cc0d2a7d1", "name": "a1d35606705d6acc63d6812cc0d2a7d1", "rental_uris": {"ios": "https://dc.lft.to/lastmile_qr_scan", "android": "https://dc.lft.to/lastmile_qr_scan"}}, {"is_disabled": 0, "fusion_lat": 0.0, "lat": 38.90302783333333, "type": "electric_scooter", "lon": -77.051818, "is_reserved": 0, "fusion_lon": 0.0, "bike_id": "af5c85876987a1bce488c45d524997fd", "name": "af5c85876987a1bce488c45d524997fd", "rental_uris": {"ios": "https://dc.lft.to/lastmile_qr_scan", "android": "https://dc.lft.to/lastmile_qr_scan"}}, {"is_disabled": 0, "fusion_lat": 0.0, "lat": 38.9155155, "type": "electric_scooter", "lon": -77.02157933333334, "is_reserved": 0, "fusion_lon": 0.0, "bike_id": "0014951c22fdc8af4e4bfba94e8f709f", "name": "0014951c22fdc8af4e4bfba94e8f709f", "rental_uris": {"ios": "https://dc.lft.to/lastmile_qr_scan", "android": "https://dc.lft.to/lastmile_qr_scan"}}, {"is_disabled": 0, "fusion_lat": 0.0, "lat": 38.91703233333333, "type": "electric_scooter", "lon": -77.03206566666667, "is_reserved": 0, "fusion_lon": 0.0, "bike_id": "913825a875da653caa8adfa326289ff0", "name": "913825a875da653caa8adfa326289ff0", "rental_uris": {"ios": "https://dc.lft.to/lastmile_qr_scan", "android": "https://dc.lft.to/lastmile_qr_scan"}}, {"is_disabled": 0, "fusion_lat": 0.0, "lat": 38.905134, "type": "electric_scooter", "lon": -77.051386, "is_reserved": 0, "fusion_lon": 0.0, "bike_id": "538a0b40ba5318f6c03ddb3cd8000833", "name": "538a0b40ba5318f6c03ddb3cd8000833", "rental_uris": {"ios": "https://dc.lft.to/lastmile_qr_scan", "android": "https://dc.lft.to/lastmile_qr_scan"}}, {"is_disabled": 0, "fusion_lat": 0.0, "lat": 38.9318785, "type": "electric_scooter", "lon": -77.02832016666666, "is_reserved": 0, "fusion_lon": 0.0, "bike_id": "88f8be6845d98c14d6751048ef0f2c9a", "name": "88f8be6845d98c14d6751048ef0f2c9a", "rental_uris": {"ios": "https://dc.lft.to/lastmile_qr_scan", "android": "https://dc.lft.to/lastmile_qr_scan"}}, {"is_disabled": 0, "fusion_lat": 0.0, "lat": 38.908514333333336, "type": "electric_bike", "lon": -77.055441, "is_reserved": 0, "fusion_lon": 0.0, "bike_id": "b5120a362ad6827c39a36f62fcdb56ef", "name": "b5120a362ad6827c39a36f62fcdb56ef", "rental_uris": {"ios": "https://dc.lft.to/lastmile_qr_scan", "android": "https://dc.lft.to/lastmile_qr_scan"}}, {"is_disabled": 0, "fusion_lat": 0.0, "lat": 38.8762735, "type": "electric_scooter", "lon": -76.96530433333334, "is_reserved": 0, "fusion_lon": 0.0, "bike_id": "82a4201d3786f94d50a96a04eec92ab6", "name": "82a4201d3786f94d50a96a04eec92ab6", "rental_uris": {"ios": "https://dc.lft.to/lastmile_qr_scan", "android": "https://dc.lft.to/lastmile_qr_scan"}}, {"is_disabled": 0, "fusion_lat": 0.0, "lat": 38.8972865, "type": "electric_scooter", "lon": -77.05585233333333, "is_reserved": 0, "fusion_lon": 0.0, "bike_id": "693e336f65b373be20f1e26acc547a6f", "name": "693e336f65b373be20f1e26acc547a6f", "rental_uris": {"ios": "https://dc.lft.to/lastmile_qr_scan", "android": "https://dc.lft.to/lastmile_qr_scan"}}, {"is_disabled": 0, "fusion_lat": 0.0, "lat": 38.926703833333335, "type": "electric_scooter", "lon": -76.9954525, "is_reserved": 0, "fusion_lon": 0.0, "bike_id": "27dbedfd7f82fbdebcd8a382ebc4327d", "name": "27dbedfd7f82fbdebcd8a382ebc4327d", "rental_uris": {"ios": "https://dc.lft.to/lastmile_qr_scan", "android": "https://dc.lft.to/lastmile_qr_scan"}}, {"is_disabled": 0, "fusion_lat": 0.0, "lat": 38.90393483333333, "type": "electric_scooter", "lon": -77.04342283333334, "is_reserved": 0, "fusion_lon": 0.0, "bike_id": "2f222b25ca4fff6ccf799336e0e28474", "name": "2f222b25ca4fff6ccf799336e0e28474", "rental_uris": {"ios": "https://dc.lft.to/lastmile_qr_scan", "android": "https://dc.lft.to/lastmile_qr_scan"}}, {"is_disabled": 0, "fusion_lat": 0.0, "lat": 38.866644, "type": "electric_scooter", "lon": -76.989127, "is_reserved": 0, "fusion_lon": 0.0, "bike_id": "7abe42da56445bac7486452cd04ee796", "name": "7abe42da56445bac7486452cd04ee796", "rental_uris": {"ios": "https://dc.lft.to/lastmile_qr_scan", "android": "https://dc.lft.to/lastmile_qr_scan"}}, {"is_disabled": 0, "fusion_lat": 0.0, "lat": 38.889357, "type": "electric_scooter", "lon": -77.015046, "is_reserved": 0, "fusion_lon": 0.0, "bike_id": "8a4c7f3ae4093ff9d6d2d61c82ee6243", "name": "8a4c7f3ae4093ff9d6d2d61c82ee6243", "rental_uris": {"ios": "https://dc.lft.to/lastmile_qr_scan", "android": "https://dc.lft.to/lastmile_qr_scan"}}, {"is_disabled": 0, "fusion_lat": 0.0, "lat": 38.91704383333333, "type": "electric_scooter", "lon": -77.00967216666666, "is_reserved": 0, "fusion_lon": 0.0, "bike_id": "f40a8d0c5e348da612c0ff29b7a2f6a6", "name": "f40a8d0c5e348da612c0ff29b7a2f6a6", "rental_uris": {"ios": "https://dc.lft.to/lastmile_qr_scan", "android": "https://dc.lft.to/lastmile_qr_scan"}}, {"is_disabled": 0, "fusion_lat": 0.0, "lat": 38.910291, "type": "electric_scooter", "lon": -77.04395666666667, "is_reserved": 0, "fusion_lon": 0.0, "bike_id": "3ba63ddb4e0f7b53fbc517954a11f534", "name": "3ba63ddb4e0f7b53fbc517954a11f534", "rental_uris": {"ios": "https://dc.lft.to/lastmile_qr_scan", "android": "https://dc.lft.to/lastmile_qr_scan"}}, {"is_disabled": 0, "fusion_lat": 0.0, "lat": 38.93111316666667, "type": "electric_scooter", "lon": -77.02137033333334, "is_reserved": 0, "fusion_lon": 0.0, "bike_id": "8e9ebde21997d54286cc3de9caf69afa", "name": "8e9ebde21997d54286cc3de9caf69afa", "rental_uris": {"ios": "https://dc.lft.to/lastmile_qr_scan", "android": "https://dc.lft.to/lastmile_qr_scan"}}, {"is_disabled": 0, "fusion_lat": 0.0, "lat": 38.905624, "type": "electric_scooter", "lon": -77.01637783333334, "is_reserved": 0, "fusion_lon": 0.0, "bike_id": "6dd78d20c163bdede2bcb94249462c73", "name": "6dd78d20c163bdede2bcb94249462c73", "rental_uris": {"ios": "https://dc.lft.to/lastmile_qr_scan", "android": "https://dc.lft.to/lastmile_qr_scan"}}, {"is_disabled": 0, "fusion_lat": 0.0, "lat": 38.898331666666664, "type": "electric_scooter", "lon": -76.94637633333333, "is_reserved": 0, "fusion_lon": 0.0, "bike_id": "76f0dd714be399e8f922db4f3eea3178", "name": "76f0dd714be399e8f922db4f3eea3178", "rental_uris": {"ios": "https://dc.lft.to/lastmile_qr_scan", "android": "https://dc.lft.to/lastmile_qr_scan"}}, {"is_disabled": 0, "fusion_lat": 0.0, "lat": 38.8843555, "type": "electric_scooter", "lon": -76.95759016666666, "is_reserved": 0, "fusion_lon": 0.0, "bike_id": "4fbb77a037d71c4cda86fdef5b082d3a", "name": "4fbb77a037d71c4cda86fdef5b082d3a", "rental_uris": {"ios": "https://dc.lft.to/lastmile_qr_scan", "android": "https://dc.lft.to/lastmile_qr_scan"}}, {"is_disabled": 0, "fusion_lat": 0.0, "lat": 38.92361983333333, "type": "electric_scooter", "lon": -77.050562, "is_reserved": 0, "fusion_lon": 0.0, "bike_id": "7eac86296e76455d86562320102578ca", "name": "7eac86296e76455d86562320102578ca", "rental_uris": {"ios": "https://dc.lft.to/lastmile_qr_scan", "android": "https://dc.lft.to/lastmile_qr_scan"}}, {"is_disabled": 0, "fusion_lat": 0.0, "lat": 38.93692583333333, "type": "electric_scooter", "lon": -77.02715666666667, "is_reserved": 0, "fusion_lon": 0.0, "bike_id": "31dcef7bf35e4f11dba9b7638917432b", "name": "31dcef7bf35e4f11dba9b7638917432b", "rental_uris": {"ios": "https://dc.lft.to/lastmile_qr_scan", "android": "https://dc.lft.to/lastmile_qr_scan"}}, {"is_disabled": 0, "fusion_lat": 0.0, "lat": 38.91391183333333, "type": "electric_scooter", "lon": -77.03205083333333, "is_reserved": 0, "fusion_lon": 0.0, "bike_id": "41c0c659af302fc90525cadd0e65c6e9", "name": "41c0c659af302fc90525cadd0e65c6e9", "rental_uris": {"ios": "https://dc.lft.to/lastmile_qr_scan", "android": "https://dc.lft.to/lastmile_qr_scan"}}, {"is_disabled": 0, "fusion_lat": 0.0, "lat": 38.8901835, "type": "electric_scooter", "lon": -76.93696416666667, "is_reserved": 0, "fusion_lon": 0.0, "bike_id": "ae0576448cbbfb71faf456d338666c2a", "name": "ae0576448cbbfb71faf456d338666c2a", "rental_uris": {"ios": "https://dc.lft.to/lastmile_qr_scan", "android": "https://dc.lft.to/lastmile_qr_scan"}}, {"is_disabled": 0, "fusion_lat": 0.0, "lat": 38.8929395, "type": "electric_scooter", "lon": -77.039401, "is_reserved": 0, "fusion_lon": 0.0, "bike_id": "a2da6ff9bf39b9e1b3e391ffc95a3576", "name": "a2da6ff9bf39b9e1b3e391ffc95a3576", "rental_uris": {"ios": "https://dc.lft.to/lastmile_qr_scan", "android": "https://dc.lft.to/lastmile_qr_scan"}}, {"is_disabled": 0, "fusion_lat": 0.0, "lat": 38.902784, "type": "electric_scooter", "lon": -77.06002266666667, "is_reserved": 0, "fusion_lon": 0.0, "bike_id": "e293d64acce5466ed9226da570d59860", "name": "e293d64acce5466ed9226da570d59860", "rental_uris": {"ios": "https://dc.lft.to/lastmile_qr_scan", "android": "https://dc.lft.to/lastmile_qr_scan"}}, {"is_disabled": 0, "fusion_lat": 0.0, "lat": 38.914324666666666, "type": "electric_scooter", "lon": -77.01709066666666, "is_reserved": 0, "fusion_lon": 0.0, "bike_id": "0e2b07f14b282a025eb98f0e491dc17b", "name": "0e2b07f14b282a025eb98f0e491dc17b", "rental_uris": {"ios": "https://dc.lft.to/lastmile_qr_scan", "android": "https://dc.lft.to/lastmile_qr_scan"}}, {"is_disabled": 0, "fusion_lat": 0.0, "lat": 38.92467383333333, "type": "electric_scooter", "lon": -77.03539333333333, "is_reserved": 0, "fusion_lon": 0.0, "bike_id": "8eb5b6af9cb3c31dc4503c61d51fa811", "name": "8eb5b6af9cb3c31dc4503c61d51fa811", "rental_uris": {"ios": "https://dc.lft.to/lastmile_qr_scan", "android": "https://dc.lft.to/lastmile_qr_scan"}}, {"is_disabled": 0, "fusion_lat": 0.0, "lat": 38.964979166666666, "type": "electric_bike", "lon": -77.06491383333334, "is_reserved": 0, "fusion_lon": 0.0, "bike_id": "50660b840e13ce6074d581a3f1f2aa42", "name": "50660b840e13ce6074d581a3f1f2aa42", "rental_uris": {"ios": "https://dc.lft.to/lastmile_qr_scan", "android": "https://dc.lft.to/lastmile_qr_scan"}}, {"is_disabled": 0, "fusion_lat": 0.0, "lat": 38.912346166666666, "type": "electric_scooter", "lon": -77.04514666666667, "is_reserved": 0, "fusion_lon": 0.0, "bike_id": "2f202c4f9d6108560b67401421e9be9f", "name": "2f202c4f9d6108560b67401421e9be9f", "rental_uris": {"ios": "https://dc.lft.to/lastmile_qr_scan", "android": "https://dc.lft.to/lastmile_qr_scan"}}, {"is_disabled": 0, "fusion_lat": 0.0, "lat": 38.92375466666667, "type": "electric_scooter", "lon": -77.05259133333334, "is_reserved": 0, "fusion_lon": 0.0, "bike_id": "a2150b6652eafa0471690ecd62291212", "name": "a2150b6652eafa0471690ecd62291212", "rental_uris": {"ios": "https://dc.lft.to/lastmile_qr_scan", "android": "https://dc.lft.to/lastmile_qr_scan"}}, {"is_disabled": 0, "fusion_lat": 0.0, "lat": 38.905503833333334, "type": "electric_scooter", "lon": -77.05039983333333, "is_reserved": 0, "fusion_lon": 0.0, "bike_id": "45710e43b1468958ce730721ed16459c", "name": "45710e43b1468958ce730721ed16459c", "rental_uris": {"ios": "https://dc.lft.to/lastmile_qr_scan", "android": "https://dc.lft.to/lastmile_qr_scan"}}, {"is_disabled": 0, "fusion_lat": 0.0, "lat": 38.96820616666667, "type": "electric_scooter", "lon": -77.01794, "is_reserved": 0, "fusion_lon": 0.0, "bike_id": "bcb5fecea9f664adaa82ed6f0aee281b", "name": "bcb5fecea9f664adaa82ed6f0aee281b", "rental_uris": {"ios": "https://dc.lft.to/lastmile_qr_scan", "android": "https://dc.lft.to/lastmile_qr_scan"}}, {"is_disabled": 0, "fusion_lat": 0.0, "lat": 38.86959566666667, "type": "electric_scooter", "lon": -77.0137725, "is_reserved": 0, "fusion_lon": 0.0, "bike_id": "331e82aaee5060294ce2dddeaac90cec", "name": "331e82aaee5060294ce2dddeaac90cec", "rental_uris": {"ios": "https://dc.lft.to/lastmile_qr_scan", "android": "https://dc.lft.to/lastmile_qr_scan"}}, {"is_disabled": 0, "fusion_lat": 0.0, "lat": 38.924928, "type": "electric_scooter", "lon": -77.02285733333333, "is_reserved": 0, "fusion_lon": 0.0, "bike_id": "0f66b66c7c488d77c3a1259429e9b09b", "name": "0f66b66c7c488d77c3a1259429e9b09b", "rental_uris": {"ios": "https://dc.lft.to/lastmile_qr_scan", "android": "https://dc.lft.to/lastmile_qr_scan"}}, {"is_disabled": 0, "fusion_lat": 0.0, "lat": 38.90273666666667, "type": "electric_scooter", "lon": -77.06020916666667, "is_reserved": 0, "fusion_lon": 0.0, "bike_id": "641ba26983c591bc7eee624bffc530c7", "name": "641ba26983c591bc7eee624bffc530c7", "rental_uris": {"ios": "https://dc.lft.to/lastmile_qr_scan", "android": "https://dc.lft.to/lastmile_qr_scan"}}, {"is_disabled": 0, "fusion_lat": 0.0, "lat": 38.904594333333335, "type": "electric_scooter", "lon": -76.99505866666667, "is_reserved": 0, "fusion_lon": 0.0, "bike_id": "f5693a02e61b745c93f73dcd9976b6f2", "name": "f5693a02e61b745c93f73dcd9976b6f2", "rental_uris": {"ios": "https://dc.lft.to/lastmile_qr_scan", "android": "https://dc.lft.to/lastmile_qr_scan"}}, {"is_disabled": 0, "fusion_lat": 0.0, "lat": 38.874574833333334, "type": "electric_scooter", "lon": -77.003199, "is_reserved": 0, "fusion_lon": 0.0, "bike_id": "7daf9c0e34a130450737ceaa67ad39fb", "name": "7daf9c0e34a130450737ceaa67ad39fb", "rental_uris": {"ios": "https://dc.lft.to/lastmile_qr_scan", "android": "https://dc.lft.to/lastmile_qr_scan"}}, {"is_disabled": 0, "fusion_lat": 0.0, "lat": 38.8865805, "type": "electric_scooter", "lon": -77.03387583333334, "is_reserved": 0, "fusion_lon": 0.0, "bike_id": "260c47c81fc1154073558fb61ffd146f", "name": "260c47c81fc1154073558fb61ffd146f", "rental_uris": {"ios": "https://dc.lft.to/lastmile_qr_scan", "android": "https://dc.lft.to/lastmile_qr_scan"}}, {"is_disabled": 0, "fusion_lat": 0.0, "lat": 38.8714855, "type": "electric_bike", "lon": -76.936729, "is_reserved": 0, "fusion_lon": 0.0, "bike_id": "46cdd49e0d0667f1b3972412bede5fa6", "name": "46cdd49e0d0667f1b3972412bede5fa6", "rental_uris": {"ios": "https://dc.lft.to/lastmile_qr_scan", "android": "https://dc.lft.to/lastmile_qr_scan"}}, {"is_disabled": 0, "fusion_lat": 0.0, "lat": 38.88315766666667, "type": "electric_scooter", "lon": -77.00937883333333, "is_reserved": 0, "fusion_lon": 0.0, "bike_id": "08fc1631f46f0474814c60ba1b17b76b", "name": "08fc1631f46f0474814c60ba1b17b76b", "rental_uris": {"ios": "https://dc.lft.to/lastmile_qr_scan", "android": "https://dc.lft.to/lastmile_qr_scan"}}, {"is_disabled": 0, "fusion_lat": 0.0, "lat": 38.90982366666667, "type": "electric_scooter", "lon": -77.0384605, "is_reserved": 0, "fusion_lon": 0.0, "bike_id": "88764cbab12786d9eeefd131ad8be468", "name": "88764cbab12786d9eeefd131ad8be468", "rental_uris": {"ios": "https://dc.lft.to/lastmile_qr_scan", "android": "https://dc.lft.to/lastmile_qr_scan"}}, {"is_disabled": 0, "fusion_lat": 0.0, "lat": 38.915153, "type": "electric_scooter", "lon": -77.00073033333334, "is_reserved": 0, "fusion_lon": 0.0, "bike_id": "d0baa618b8924416849152e37b896150", "name": "d0baa618b8924416849152e37b896150", "rental_uris": {"ios": "https://dc.lft.to/lastmile_qr_scan", "android": "https://dc.lft.to/lastmile_qr_scan"}}, {"is_disabled": 0, "fusion_lat": 0.0, "lat": 38.899147, "type": "electric_scooter", "lon": -77.03282966666667, "is_reserved": 0, "fusion_lon": 0.0, "bike_id": "fbf8418889c516ad13b4f337339a0c1c", "name": "fbf8418889c516ad13b4f337339a0c1c", "rental_uris": {"ios": "https://dc.lft.to/lastmile_qr_scan", "android": "https://dc.lft.to/lastmile_qr_scan"}}, {"is_disabled": 0, "fusion_lat": 0.0, "lat": 38.916199166666665, "type": "electric_scooter", "lon": -77.02724416666666, "is_reserved": 0, "fusion_lon": 0.0, "bike_id": "456b7e4c32165962a60534a862ce6347", "name": "456b7e4c32165962a60534a862ce6347", "rental_uris": {"ios": "https://dc.lft.to/lastmile_qr_scan", "android": "https://dc.lft.to/lastmile_qr_scan"}}, {"is_disabled": 0, "fusion_lat": 0.0, "lat": 38.92481983333333, "type": "electric_scooter", "lon": -77.0275895, "is_reserved": 0, "fusion_lon": 0.0, "bike_id": "43560f47881cd1c290c55392025343d9", "name": "43560f47881cd1c290c55392025343d9", "rental_uris": {"ios": "https://dc.lft.to/lastmile_qr_scan", "android": "https://dc.lft.to/lastmile_qr_scan"}}, {"is_disabled": 0, "fusion_lat": 0.0, "lat": 38.900067166666666, "type": "electric_scooter", "lon": -77.00594666666667, "is_reserved": 0, "fusion_lon": 0.0, "bike_id": "445c9b23ed05416baee7a54dc3a652fa", "name": "445c9b23ed05416baee7a54dc3a652fa", "rental_uris": {"ios": "https://dc.lft.to/lastmile_qr_scan", "android": "https://dc.lft.to/lastmile_qr_scan"}}, {"is_disabled": 0, "fusion_lat": 0.0, "lat": 38.93728933333333, "type": "electric_bike", "lon": -77.03317733333333, "is_reserved": 0, "fusion_lon": 0.0, "bike_id": "2cecde2282f408735ef3389fddb73a9c", "name": "2cecde2282f408735ef3389fddb73a9c", "rental_uris": {"ios": "https://dc.lft.to/lastmile_qr_scan", "android": "https://dc.lft.to/lastmile_qr_scan"}}, {"is_disabled": 0, "fusion_lat": 0.0, "lat": 38.903661, "type": "electric_scooter", "lon": -77.03852816666667, "is_reserved": 0, "fusion_lon": 0.0, "bike_id": "09472c2bb37178b5f97f45b891167c52", "name": "09472c2bb37178b5f97f45b891167c52", "rental_uris": {"ios": "https://dc.lft.to/lastmile_qr_scan", "android": "https://dc.lft.to/lastmile_qr_scan"}}, {"is_disabled": 0, "fusion_lat": 0.0, "lat": 38.92480966666667, "type": "electric_scooter", "lon": -77.022294, "is_reserved": 0, "fusion_lon": 0.0, "bike_id": "75a90d124c9c19cab888893e07b1836b", "name": "75a90d124c9c19cab888893e07b1836b", "rental_uris": {"ios": "https://dc.lft.to/lastmile_qr_scan", "android": "https://dc.lft.to/lastmile_qr_scan"}}, {"is_disabled": 0, "fusion_lat": 0.0, "lat": 38.93658216666667, "type": "electric_scooter", "lon": -77.03666583333333, "is_reserved": 0, "fusion_lon": 0.0, "bike_id": "76598efec2d60c28138e75825c9a9397", "name": "76598efec2d60c28138e75825c9a9397", "rental_uris": {"ios": "https://dc.lft.to/lastmile_qr_scan", "android": "https://dc.lft.to/lastmile_qr_scan"}}, {"is_disabled": 0, "fusion_lat": 0.0, "lat": 38.9056135, "type": "electric_scooter", "lon": -77.03834283333333, "is_reserved": 0, "fusion_lon": 0.0, "bike_id": "cceed9f538838f8222e8f4fe00c57ae7", "name": "cceed9f538838f8222e8f4fe00c57ae7", "rental_uris": {"ios": "https://dc.lft.to/lastmile_qr_scan", "android": "https://dc.lft.to/lastmile_qr_scan"}}, {"is_disabled": 0, "fusion_lat": 0.0, "lat": 38.88450483333333, "type": "electric_scooter", "lon": -77.00571916666667, "is_reserved": 0, "fusion_lon": 0.0, "bike_id": "ad0a3b7e18ae686669415e39a9b1aed0", "name": "ad0a3b7e18ae686669415e39a9b1aed0", "rental_uris": {"ios": "https://dc.lft.to/lastmile_qr_scan", "android": "https://dc.lft.to/lastmile_qr_scan"}}, {"is_disabled": 0, "fusion_lat": 0.0, "lat": 38.900647, "type": "electric_scooter", "lon": -76.98457783333333, "is_reserved": 0, "fusion_lon": 0.0, "bike_id": "acf00c87f2ffe95a3649443fa90743c3", "name": "acf00c87f2ffe95a3649443fa90743c3", "rental_uris": {"ios": "https://dc.lft.to/lastmile_qr_scan", "android": "https://dc.lft.to/lastmile_qr_scan"}}, {"is_disabled": 0, "fusion_lat": 0.0, "lat": 38.90134066666667, "type": "electric_scooter", "lon": -76.99810983333333, "is_reserved": 0, "fusion_lon": 0.0, "bike_id": "4e3975f54373bdd2c3491194dbe041f2", "name": "4e3975f54373bdd2c3491194dbe041f2", "rental_uris": {"ios": "https://dc.lft.to/lastmile_qr_scan", "android": "https://dc.lft.to/lastmile_qr_scan"}}, {"is_disabled": 0, "fusion_lat": 0.0, "lat": 38.948929166666666, "type": "electric_bike", "lon": -76.9637665, "is_reserved": 0, "fusion_lon": 0.0, "bike_id": "008ea8211cccd3c7dcdc3ec3f7729e19", "name": "008ea8211cccd3c7dcdc3ec3f7729e19", "rental_uris": {"ios": "https://dc.lft.to/lastmile_qr_scan", "android": "https://dc.lft.to/lastmile_qr_scan"}}, {"is_disabled": 0, "fusion_lat": 0.0, "lat": 38.9027095, "type": "electric_scooter", "lon": -77.03953066666666, "is_reserved": 0, "fusion_lon": 0.0, "bike_id": "67db6a995b38551f6d919f2ff00e02b5", "name": "67db6a995b38551f6d919f2ff00e02b5", "rental_uris": {"ios": "https://dc.lft.to/lastmile_qr_scan", "android": "https://dc.lft.to/lastmile_qr_scan"}}, {"is_disabled": 0, "fusion_lat": 0.0, "lat": 38.892507, "type": "electric_scooter", "lon": -76.943412, "is_reserved": 0, "fusion_lon": 0.0, "bike_id": "a36818e138f74278d8df2a814d554eec", "name": "a36818e138f74278d8df2a814d554eec", "rental_uris": {"ios": "https://dc.lft.to/lastmile_qr_scan", "android": "https://dc.lft.to/lastmile_qr_scan"}}, {"is_disabled": 0, "fusion_lat": 0.0, "lat": 38.95360133333333, "type": "electric_bike", "lon": -76.98098316666666, "is_reserved": 0, "fusion_lon": 0.0, "bike_id": "d6b7ddf0430f0c73071ffb506062f9a8", "name": "d6b7ddf0430f0c73071ffb506062f9a8", "rental_uris": {"ios": "https://dc.lft.to/lastmile_qr_scan", "android": "https://dc.lft.to/lastmile_qr_scan"}}, {"is_disabled": 0, "fusion_lat": 0.0, "lat": 38.896126333333335, "type": "electric_scooter", "lon": -76.99415516666667, "is_reserved": 0, "fusion_lon": 0.0, "bike_id": "0a6d0faa3a19a7d36f509237a3d62948", "name": "0a6d0faa3a19a7d36f509237a3d62948", "rental_uris": {"ios": "https://dc.lft.to/lastmile_qr_scan", "android": "https://dc.lft.to/lastmile_qr_scan"}}, {"is_disabled": 0, "fusion_lat": 0.0, "lat": 38.92314783333333, "type": "electric_scooter", "lon": -77.04129283333333, "is_reserved": 0, "fusion_lon": 0.0, "bike_id": "5e55dfb8ffa7ae0e0add68fe735d642b", "name": "5e55dfb8ffa7ae0e0add68fe735d642b", "rental_uris": {"ios": "https://dc.lft.to/lastmile_qr_scan", "android": "https://dc.lft.to/lastmile_qr_scan"}}, {"is_disabled": 0, "fusion_lat": 0.0, "lat": 38.913343833333336, "type": "electric_scooter", "lon": -77.04814266666666, "is_reserved": 0, "fusion_lon": 0.0, "bike_id": "03ba8ea4c24134a92b2e95665686ee3d", "name": "03ba8ea4c24134a92b2e95665686ee3d", "rental_uris": {"ios": "https://dc.lft.to/lastmile_qr_scan", "android": "https://dc.lft.to/lastmile_qr_scan"}}, {"is_disabled": 0, "fusion_lat": 0.0, "lat": 38.900442, "type": "electric_scooter", "lon": -77.00208916666666, "is_reserved": 0, "fusion_lon": 0.0, "bike_id": "61db620f123f7f1998308867ff96ab71", "name": "61db620f123f7f1998308867ff96ab71", "rental_uris": {"ios": "https://dc.lft.to/lastmile_qr_scan", "android": "https://dc.lft.to/lastmile_qr_scan"}}, {"is_disabled": 0, "fusion_lat": 0.0, "lat": 38.8792415, "type": "electric_scooter", "lon": -76.99253566666667, "is_reserved": 0, "fusion_lon": 0.0, "bike_id": "2d4c22291cd3abd7f055fa498da66e63", "name": "2d4c22291cd3abd7f055fa498da66e63", "rental_uris": {"ios": "https://dc.lft.to/lastmile_qr_scan", "android": "https://dc.lft.to/lastmile_qr_scan"}}, {"is_disabled": 0, "fusion_lat": 0.0, "lat": 38.937968833333336, "type": "electric_scooter", "lon": -77.05998416666667, "is_reserved": 0, "fusion_lon": 0.0, "bike_id": "f0ce4a9f83a3f5e59bb39f73e2a06af5", "name": "f0ce4a9f83a3f5e59bb39f73e2a06af5", "rental_uris": {"ios": "https://dc.lft.to/lastmile_qr_scan", "android": "https://dc.lft.to/lastmile_qr_scan"}}, {"is_disabled": 0, "fusion_lat": 0.0, "lat": 38.91694966666667, "type": "electric_scooter", "lon": -77.01235216666667, "is_reserved": 0, "fusion_lon": 0.0, "bike_id": "58de8e847abb6473d856a3d8fb89cc26", "name": "58de8e847abb6473d856a3d8fb89cc26", "rental_uris": {"ios": "https://dc.lft.to/lastmile_qr_scan", "android": "https://dc.lft.to/lastmile_qr_scan"}}, {"is_disabled": 0, "fusion_lat": 0.0, "lat": 38.92290216666667, "type": "electric_scooter", "lon": -77.041428, "is_reserved": 0, "fusion_lon": 0.0, "bike_id": "2504742932a586a0a651e495fa2f03da", "name": "2504742932a586a0a651e495fa2f03da", "rental_uris": {"ios": "https://dc.lft.to/lastmile_qr_scan", "android": "https://dc.lft.to/lastmile_qr_scan"}}, {"is_disabled": 0, "fusion_lat": 0.0, "lat": 38.892441166666664, "type": "electric_scooter", "lon": -77.03956816666667, "is_reserved": 0, "fusion_lon": 0.0, "bike_id": "b73a95fc392d55c291ea6f03e5a8a4d7", "name": "b73a95fc392d55c291ea6f03e5a8a4d7", "rental_uris": {"ios": "https://dc.lft.to/lastmile_qr_scan", "android": "https://dc.lft.to/lastmile_qr_scan"}}, {"is_disabled": 0, "fusion_lat": 0.0, "lat": 38.91304516666667, "type": "electric_bike", "lon": -77.08288383333333, "is_reserved": 0, "fusion_lon": 0.0, "bike_id": "9e1afe31ad653a63d44008a9c3f8b5d6", "name": "9e1afe31ad653a63d44008a9c3f8b5d6", "rental_uris": {"ios": "https://dc.lft.to/lastmile_qr_scan", "android": "https://dc.lft.to/lastmile_qr_scan"}}, {"is_disabled": 0, "fusion_lat": 0.0, "lat": 38.9125555, "type": "electric_scooter", "lon": -77.022243, "is_reserved": 0, "fusion_lon": 0.0, "bike_id": "39702f6ea4dffbd25d01058b27ed89b7", "name": "39702f6ea4dffbd25d01058b27ed89b7", "rental_uris": {"ios": "https://dc.lft.to/lastmile_qr_scan", "android": "https://dc.lft.to/lastmile_qr_scan"}}, {"is_disabled": 0, "fusion_lat": 0.0, "lat": 38.89619833333333, "type": "electric_scooter", "lon": -77.02787633333334, "is_reserved": 0, "fusion_lon": 0.0, "bike_id": "d9dd8c8196891ab979828b222b64f807", "name": "d9dd8c8196891ab979828b222b64f807", "rental_uris": {"ios": "https://dc.lft.to/lastmile_qr_scan", "android": "https://dc.lft.to/lastmile_qr_scan"}}, {"is_disabled": 0, "fusion_lat": 0.0, "lat": 38.88533416666667, "type": "electric_scooter", "lon": -76.980633, "is_reserved": 0, "fusion_lon": 0.0, "bike_id": "75b6eaea2b80159dc10ac3f29a08ba6a", "name": "75b6eaea2b80159dc10ac3f29a08ba6a", "rental_uris": {"ios": "https://dc.lft.to/lastmile_qr_scan", "android": "https://dc.lft.to/lastmile_qr_scan"}}, {"is_disabled": 0, "fusion_lat": 0.0, "lat": 38.9351555, "type": "electric_bike", "lon": -77.030421, "is_reserved": 0, "fusion_lon": 0.0, "bike_id": "21b2f39ee9d99e602b40005316e5c6b0", "name": "21b2f39ee9d99e602b40005316e5c6b0", "rental_uris": {"ios": "https://dc.lft.to/lastmile_qr_scan", "android": "https://dc.lft.to/lastmile_qr_scan"}}, {"is_disabled": 0, "fusion_lat": 0.0, "lat": 38.909595833333334, "type": "electric_scooter", "lon": -77.014416, "is_reserved": 0, "fusion_lon": 0.0, "bike_id": "eea95c6f11d9310b08e0a3087de8def9", "name": "eea95c6f11d9310b08e0a3087de8def9", "rental_uris": {"ios": "https://dc.lft.to/lastmile_qr_scan", "android": "https://dc.lft.to/lastmile_qr_scan"}}, {"is_disabled": 0, "fusion_lat": 0.0, "lat": 38.93063266666667, "type": "electric_scooter", "lon": -77.0318055, "is_reserved": 0, "fusion_lon": 0.0, "bike_id": "cb905a6a56bf3a5913eee22b164ea537", "name": "cb905a6a56bf3a5913eee22b164ea537", "rental_uris": {"ios": "https://dc.lft.to/lastmile_qr_scan", "android": "https://dc.lft.to/lastmile_qr_scan"}}, {"is_disabled": 0, "fusion_lat": 0.0, "lat": 38.93629816666667, "type": "electric_bike", "lon": -77.03670183333334, "is_reserved": 0, "fusion_lon": 0.0, "bike_id": "c873418493bf86740133e9007655019a", "name": "c873418493bf86740133e9007655019a", "rental_uris": {"ios": "https://dc.lft.to/lastmile_qr_scan", "android": "https://dc.lft.to/lastmile_qr_scan"}}, {"is_disabled": 0, "fusion_lat": 0.0, "lat": 38.941761, "type": "electric_scooter", "lon": -77.023356, "is_reserved": 0, "fusion_lon": 0.0, "bike_id": "48682b9a8cadfa7329f5e9e7ba84b40c", "name": "48682b9a8cadfa7329f5e9e7ba84b40c", "rental_uris": {"ios": "https://dc.lft.to/lastmile_qr_scan", "android": "https://dc.lft.to/lastmile_qr_scan"}}, {"is_disabled": 0, "fusion_lat": 0.0, "lat": 38.862933166666664, "type": "electric_scooter", "lon": -76.99234783333333, "is_reserved": 0, "fusion_lon": 0.0, "bike_id": "f8e5f4ba8609454585b52b2f9b1aba51", "name": "f8e5f4ba8609454585b52b2f9b1aba51", "rental_uris": {"ios": "https://dc.lft.to/lastmile_qr_scan", "android": "https://dc.lft.to/lastmile_qr_scan"}}, {"is_disabled": 0, "fusion_lat": 0.0, "lat": 38.923066666666664, "type": "electric_scooter", "lon": -77.04231683333333, "is_reserved": 0, "fusion_lon": 0.0, "bike_id": "5dc0634e89eceb8bf72253e55a915a04", "name": "5dc0634e89eceb8bf72253e55a915a04", "rental_uris": {"ios": "https://dc.lft.to/lastmile_qr_scan", "android": "https://dc.lft.to/lastmile_qr_scan"}}, {"is_disabled": 0, "fusion_lat": 0.0, "lat": 38.90152783333333, "type": "electric_scooter", "lon": -77.0419085, "is_reserved": 0, "fusion_lon": 0.0, "bike_id": "214143ea507ffb00e795ea5d400f786d", "name": "214143ea507ffb00e795ea5d400f786d", "rental_uris": {"ios": "https://dc.lft.to/lastmile_qr_scan", "android": "https://dc.lft.to/lastmile_qr_scan"}}, {"is_disabled": 0, "fusion_lat": 0.0, "lat": 38.923565833333335, "type": "electric_scooter", "lon": -77.0525035, "is_reserved": 0, "fusion_lon": 0.0, "bike_id": "a2b6d64deacee319c341198b6945038d", "name": "a2b6d64deacee319c341198b6945038d", "rental_uris": {"ios": "https://dc.lft.to/lastmile_qr_scan", "android": "https://dc.lft.to/lastmile_qr_scan"}}, {"is_disabled": 0, "fusion_lat": 0.0, "lat": 38.916781666666665, "type": "electric_scooter", "lon": -77.03853616666666, "is_reserved": 0, "fusion_lon": 0.0, "bike_id": "bae69fd05c6c80618babe16a102a4f33", "name": "bae69fd05c6c80618babe16a102a4f33", "rental_uris": {"ios": "https://dc.lft.to/lastmile_qr_scan", "android": "https://dc.lft.to/lastmile_qr_scan"}}, {"is_disabled": 0, "fusion_lat": 0.0, "lat": 38.920341, "type": "electric_scooter", "lon": -77.04195433333334, "is_reserved": 0, "fusion_lon": 0.0, "bike_id": "65c17298d5075291c18246c796baa902", "name": "65c17298d5075291c18246c796baa902", "rental_uris": {"ios": "https://dc.lft.to/lastmile_qr_scan", "android": "https://dc.lft.to/lastmile_qr_scan"}}, {"is_disabled": 0, "fusion_lat": 0.0, "lat": 38.90190333333334, "type": "electric_scooter", "lon": -76.94193516666667, "is_reserved": 0, "fusion_lon": 0.0, "bike_id": "23dd02916bad3bdd49963bb8a5fe313c", "name": "23dd02916bad3bdd49963bb8a5fe313c", "rental_uris": {"ios": "https://dc.lft.to/lastmile_qr_scan", "android": "https://dc.lft.to/lastmile_qr_scan"}}, {"is_disabled": 0, "fusion_lat": 0.0, "lat": 38.893384, "type": "electric_scooter", "lon": -76.92890683333333, "is_reserved": 0, "fusion_lon": 0.0, "bike_id": "1072ea420a45779827467e1ec3e8c3ea", "name": "1072ea420a45779827467e1ec3e8c3ea", "rental_uris": {"ios": "https://dc.lft.to/lastmile_qr_scan", "android": "https://dc.lft.to/lastmile_qr_scan"}}, {"is_disabled": 0, "fusion_lat": 0.0, "lat": 38.87180583333333, "type": "electric_scooter", "lon": -77.01221533333333, "is_reserved": 0, "fusion_lon": 0.0, "bike_id": "813bbb9dad8f2bc06318abfad34b7c35", "name": "813bbb9dad8f2bc06318abfad34b7c35", "rental_uris": {"ios": "https://dc.lft.to/lastmile_qr_scan", "android": "https://dc.lft.to/lastmile_qr_scan"}}, {"is_disabled": 0, "fusion_lat": 0.0, "lat": 38.87744766666667, "type": "electric_scooter", "lon": -77.01432966666667, "is_reserved": 0, "fusion_lon": 0.0, "bike_id": "41eb97a63cee8ef097c7ea44f8cc7147", "name": "41eb97a63cee8ef097c7ea44f8cc7147", "rental_uris": {"ios": "https://dc.lft.to/lastmile_qr_scan", "android": "https://dc.lft.to/lastmile_qr_scan"}}, {"is_disabled": 0, "fusion_lat": 0.0, "lat": 38.907967, "type": "electric_scooter", "lon": -76.9970215, "is_reserved": 0, "fusion_lon": 0.0, "bike_id": "8963b13f68012599ba2e8af825ff1b6b", "name": "8963b13f68012599ba2e8af825ff1b6b", "rental_uris": {"ios": "https://dc.lft.to/lastmile_qr_scan", "android": "https://dc.lft.to/lastmile_qr_scan"}}, {"is_disabled": 0, "fusion_lat": 0.0, "lat": 38.9171735, "type": "electric_scooter", "lon": -77.038373, "is_reserved": 0, "fusion_lon": 0.0, "bike_id": "52a680ddde89a56fa6047124aa9814d6", "name": "52a680ddde89a56fa6047124aa9814d6", "rental_uris": {"ios": "https://dc.lft.to/lastmile_qr_scan", "android": "https://dc.lft.to/lastmile_qr_scan"}}, {"is_disabled": 0, "fusion_lat": 0.0, "lat": 38.941840666666664, "type": "electric_scooter", "lon": -77.03098666666666, "is_reserved": 0, "fusion_lon": 0.0, "bike_id": "a9bce51a0ad18c5068032540ccb30e03", "name": "a9bce51a0ad18c5068032540ccb30e03", "rental_uris": {"ios": "https://dc.lft.to/lastmile_qr_scan", "android": "https://dc.lft.to/lastmile_qr_scan"}}, {"is_disabled": 0, "fusion_lat": 0.0, "lat": 38.920429166666665, "type": "electric_scooter", "lon": -77.03383583333333, "is_reserved": 0, "fusion_lon": 0.0, "bike_id": "cd860bc9ad8895f8002f33c92a65c28c", "name": "cd860bc9ad8895f8002f33c92a65c28c", "rental_uris": {"ios": "https://dc.lft.to/lastmile_qr_scan", "android": "https://dc.lft.to/lastmile_qr_scan"}}, {"is_disabled": 0, "fusion_lat": 0.0, "lat": 38.9103485, "type": "electric_scooter", "lon": -77.03804566666666, "is_reserved": 0, "fusion_lon": 0.0, "bike_id": "238cb221f3733e0cc6315b59fd62d320", "name": "238cb221f3733e0cc6315b59fd62d320", "rental_uris": {"ios": "https://dc.lft.to/lastmile_qr_scan", "android": "https://dc.lft.to/lastmile_qr_scan"}}, {"is_disabled": 0, "fusion_lat": 0.0, "lat": 38.90145966666667, "type": "electric_scooter", "lon": -77.040475, "is_reserved": 0, "fusion_lon": 0.0, "bike_id": "3fb3f6ed221b14c6a998cd038f5d4d48", "name": "3fb3f6ed221b14c6a998cd038f5d4d48", "rental_uris": {"ios": "https://dc.lft.to/lastmile_qr_scan", "android": "https://dc.lft.to/lastmile_qr_scan"}}, {"is_disabled": 0, "fusion_lat": 0.0, "lat": 38.90103533333333, "type": "electric_scooter", "lon": -77.05144983333334, "is_reserved": 0, "fusion_lon": 0.0, "bike_id": "fb9d8bc432836428ed2b029b9090d5fd", "name": "fb9d8bc432836428ed2b029b9090d5fd", "rental_uris": {"ios": "https://dc.lft.to/lastmile_qr_scan", "android": "https://dc.lft.to/lastmile_qr_scan"}}, {"is_disabled": 0, "fusion_lat": 0.0, "lat": 38.8581, "type": "electric_scooter", "lon": -76.986584, "is_reserved": 0, "fusion_lon": 0.0, "bike_id": "6e4ad6066b3f274912f9f1228902d70b", "name": "6e4ad6066b3f274912f9f1228902d70b", "rental_uris": {"ios": "https://dc.lft.to/lastmile_qr_scan", "android": "https://dc.lft.to/lastmile_qr_scan"}}, {"is_disabled": 0, "fusion_lat": 0.0, "lat": 38.9232365, "type": "electric_scooter", "lon": -77.03907733333334, "is_reserved": 0, "fusion_lon": 0.0, "bike_id": "9a47c2b87e301023201c524ebf6462f1", "name": "9a47c2b87e301023201c524ebf6462f1", "rental_uris": {"ios": "https://dc.lft.to/lastmile_qr_scan", "android": "https://dc.lft.to/lastmile_qr_scan"}}, {"is_disabled": 0, "fusion_lat": 0.0, "lat": 38.907385833333336, "type": "electric_scooter", "lon": -77.0077155, "is_reserved": 0, "fusion_lon": 0.0, "bike_id": "c10d167fc435394fd6cf6ec464d273fe", "name": "c10d167fc435394fd6cf6ec464d273fe", "rental_uris": {"ios": "https://dc.lft.to/lastmile_qr_scan", "android": "https://dc.lft.to/lastmile_qr_scan"}}, {"is_disabled": 0, "fusion_lat": 0.0, "lat": 38.8990555, "type": "electric_scooter", "lon": -76.933623, "is_reserved": 0, "fusion_lon": 0.0, "bike_id": "38e8e07b18d4f25812aa39a784f871e5", "name": "38e8e07b18d4f25812aa39a784f871e5", "rental_uris": {"ios": "https://dc.lft.to/lastmile_qr_scan", "android": "https://dc.lft.to/lastmile_qr_scan"}}, {"is_disabled": 0, "fusion_lat": 0.0, "lat": 38.908710666666664, "type": "electric_scooter", "lon": -77.08598333333333, "is_reserved": 0, "fusion_lon": 0.0, "bike_id": "cef962a0bac1cd00440f2036580c2707", "name": "cef962a0bac1cd00440f2036580c2707", "rental_uris": {"ios": "https://dc.lft.to/lastmile_qr_scan", "android": "https://dc.lft.to/lastmile_qr_scan"}}, {"is_disabled": 0, "fusion_lat": 0.0, "lat": 38.911346333333334, "type": "electric_bike", "lon": -77.06565, "is_reserved": 0, "fusion_lon": 0.0, "bike_id": "628afea6095149406bd58908fc2a6343", "name": "628afea6095149406bd58908fc2a6343", "rental_uris": {"ios": "https://dc.lft.to/lastmile_qr_scan", "android": "https://dc.lft.to/lastmile_qr_scan"}}, {"is_disabled": 0, "fusion_lat": 0.0, "lat": 38.91418633333333, "type": "electric_scooter", "lon": -77.03166866666666, "is_reserved": 0, "fusion_lon": 0.0, "bike_id": "f8879c0035571c98e2d46b4725339b3c", "name": "f8879c0035571c98e2d46b4725339b3c", "rental_uris": {"ios": "https://dc.lft.to/lastmile_qr_scan", "android": "https://dc.lft.to/lastmile_qr_scan"}}, {"is_disabled": 0, "fusion_lat": 0.0, "lat": 38.904219499999996, "type": "electric_scooter", "lon": -77.04873416666666, "is_reserved": 0, "fusion_lon": 0.0, "bike_id": "6ab921a3f305a0a265874c4a275b9b05", "name": "6ab921a3f305a0a265874c4a275b9b05", "rental_uris": {"ios": "https://dc.lft.to/lastmile_qr_scan", "android": "https://dc.lft.to/lastmile_qr_scan"}}, {"is_disabled": 0, "fusion_lat": 0.0, "lat": 38.9056135, "type": "electric_scooter", "lon": -77.038393, "is_reserved": 0, "fusion_lon": 0.0, "bike_id": "08dc3b628fcb7a16e5c2d3f4b442fd5d", "name": "08dc3b628fcb7a16e5c2d3f4b442fd5d", "rental_uris": {"ios": "https://dc.lft.to/lastmile_qr_scan", "android": "https://dc.lft.to/lastmile_qr_scan"}}, {"is_disabled": 0, "fusion_lat": 0.0, "lat": 38.904511, "type": "electric_scooter", "lon": -77.05913716666667, "is_reserved": 0, "fusion_lon": 0.0, "bike_id": "cbbacc1f505cb4b25770ff33b9961999", "name": "cbbacc1f505cb4b25770ff33b9961999", "rental_uris": {"ios": "https://dc.lft.to/lastmile_qr_scan", "android": "https://dc.lft.to/lastmile_qr_scan"}}, {"is_disabled": 0, "fusion_lat": 0.0, "lat": 38.91262533333333, "type": "electric_scooter", "lon": -77.03502166666667, "is_reserved": 0, "fusion_lon": 0.0, "bike_id": "c8802756d1868b83caf5ff86cb405a3b", "name": "c8802756d1868b83caf5ff86cb405a3b", "rental_uris": {"ios": "https://dc.lft.to/lastmile_qr_scan", "android": "https://dc.lft.to/lastmile_qr_scan"}}, {"is_disabled": 0, "fusion_lat": 0.0, "lat": 38.901346833333335, "type": "electric_scooter", "lon": -77.027366, "is_reserved": 0, "fusion_lon": 0.0, "bike_id": "580a48c9ec874f88fac7734a4a71dc5f", "name": "580a48c9ec874f88fac7734a4a71dc5f", "rental_uris": {"ios": "https://dc.lft.to/lastmile_qr_scan", "android": "https://dc.lft.to/lastmile_qr_scan"}}, {"is_disabled": 0, "fusion_lat": 0.0, "lat": 38.866217, "type": "electric_scooter", "lon": -76.98668816666667, "is_reserved": 0, "fusion_lon": 0.0, "bike_id": "44a4a58378ff2c658bd0b8e702469ff7", "name": "44a4a58378ff2c658bd0b8e702469ff7", "rental_uris": {"ios": "https://dc.lft.to/lastmile_qr_scan", "android": "https://dc.lft.to/lastmile_qr_scan"}}, {"is_disabled": 0, "fusion_lat": 0.0, "lat": 38.917394, "type": "electric_scooter", "lon": -77.0345375, "is_reserved": 0, "fusion_lon": 0.0, "bike_id": "27d7ddcfbb99eef08f645e5e6bfef812", "name": "27d7ddcfbb99eef08f645e5e6bfef812", "rental_uris": {"ios": "https://dc.lft.to/lastmile_qr_scan", "android": "https://dc.lft.to/lastmile_qr_scan"}}, {"is_disabled": 0, "fusion_lat": 0.0, "lat": 38.901809666666665, "type": "electric_scooter", "lon": -76.93473333333333, "is_reserved": 0, "fusion_lon": 0.0, "bike_id": "2ac394e27b7e9d933925b685b018c21a", "name": "2ac394e27b7e9d933925b685b018c21a", "rental_uris": {"ios": "https://dc.lft.to/lastmile_qr_scan", "android": "https://dc.lft.to/lastmile_qr_scan"}}, {"is_disabled": 0, "fusion_lat": 0.0, "lat": 38.901379, "type": "electric_scooter", "lon": -76.9785645, "is_reserved": 0, "fusion_lon": 0.0, "bike_id": "10c7c3c51cb4e453d6c7c4b43f5c6269", "name": "10c7c3c51cb4e453d6c7c4b43f5c6269", "rental_uris": {"ios": "https://dc.lft.to/lastmile_qr_scan", "android": "https://dc.lft.to/lastmile_qr_scan"}}, {"is_disabled": 0, "fusion_lat": 0.0, "lat": 38.882664, "type": "electric_scooter", "lon": -76.99516416666667, "is_reserved": 0, "fusion_lon": 0.0, "bike_id": "0d9c2bfe42cc1a280291f7aabd08f88d", "name": "0d9c2bfe42cc1a280291f7aabd08f88d", "rental_uris": {"ios": "https://dc.lft.to/lastmile_qr_scan", "android": "https://dc.lft.to/lastmile_qr_scan"}}, {"is_disabled": 0, "fusion_lat": 0.0, "lat": 38.913427666666664, "type": "electric_scooter", "lon": -77.04838866666667, "is_reserved": 0, "fusion_lon": 0.0, "bike_id": "bd4256ee048e5b204144d248dbf72a7c", "name": "bd4256ee048e5b204144d248dbf72a7c", "rental_uris": {"ios": "https://dc.lft.to/lastmile_qr_scan", "android": "https://dc.lft.to/lastmile_qr_scan"}}, {"is_disabled": 0, "fusion_lat": 0.0, "lat": 38.90969916666667, "type": "electric_scooter", "lon": -77.03192616666666, "is_reserved": 0, "fusion_lon": 0.0, "bike_id": "197530e1cfaa36549d333505dfb90dcf", "name": "197530e1cfaa36549d333505dfb90dcf", "rental_uris": {"ios": "https://dc.lft.to/lastmile_qr_scan", "android": "https://dc.lft.to/lastmile_qr_scan"}}, {"is_disabled": 0, "fusion_lat": 0.0, "lat": 38.892203333333335, "type": "electric_scooter", "lon": -77.04367733333333, "is_reserved": 0, "fusion_lon": 0.0, "bike_id": "b2b0946f25ccbdf863a1356cc1419a4f", "name": "b2b0946f25ccbdf863a1356cc1419a4f", "rental_uris": {"ios": "https://dc.lft.to/lastmile_qr_scan", "android": "https://dc.lft.to/lastmile_qr_scan"}}, {"is_disabled": 0, "fusion_lat": 0.0, "lat": 38.894812333333334, "type": "electric_scooter", "lon": -77.050298, "is_reserved": 0, "fusion_lon": 0.0, "bike_id": "3ee53b1c62fd90266c49c2e18a47e8f2", "name": "3ee53b1c62fd90266c49c2e18a47e8f2", "rental_uris": {"ios": "https://dc.lft.to/lastmile_qr_scan", "android": "https://dc.lft.to/lastmile_qr_scan"}}, {"is_disabled": 0, "fusion_lat": 0.0, "lat": 38.933787, "type": "electric_bike", "lon": -77.03475116666667, "is_reserved": 0, "fusion_lon": 0.0, "bike_id": "8cf5c8f3475db4758853dda020f1f3f4", "name": "8cf5c8f3475db4758853dda020f1f3f4", "rental_uris": {"ios": "https://dc.lft.to/lastmile_qr_scan", "android": "https://dc.lft.to/lastmile_qr_scan"}}, {"is_disabled": 0, "fusion_lat": 0.0, "lat": 38.90276133333333, "type": "electric_scooter", "lon": -77.06019833333333, "is_reserved": 0, "fusion_lon": 0.0, "bike_id": "ca32d2893dff65090b1eae6bdc723cf4", "name": "ca32d2893dff65090b1eae6bdc723cf4", "rental_uris": {"ios": "https://dc.lft.to/lastmile_qr_scan", "android": "https://dc.lft.to/lastmile_qr_scan"}}, {"is_disabled": 0, "fusion_lat": 0.0, "lat": 38.9037205, "type": "electric_scooter", "lon": -77.04236716666666, "is_reserved": 0, "fusion_lon": 0.0, "bike_id": "ef2f9003612974ce8b37c8f2db4e69af", "name": "ef2f9003612974ce8b37c8f2db4e69af", "rental_uris": {"ios": "https://dc.lft.to/lastmile_qr_scan", "android": "https://dc.lft.to/lastmile_qr_scan"}}, {"is_disabled": 0, "fusion_lat": 0.0, "lat": 38.908205833333334, "type": "electric_scooter", "lon": -77.03667233333333, "is_reserved": 0, "fusion_lon": 0.0, "bike_id": "26fa7adbd42dbf7746483add513992d0", "name": "26fa7adbd42dbf7746483add513992d0", "rental_uris": {"ios": "https://dc.lft.to/lastmile_qr_scan", "android": "https://dc.lft.to/lastmile_qr_scan"}}, {"is_disabled": 0, "fusion_lat": 0.0, "lat": 38.920581, "type": "electric_scooter", "lon": -77.03667633333333, "is_reserved": 0, "fusion_lon": 0.0, "bike_id": "e13f4525cca9a2af372aad67842c06ea", "name": "e13f4525cca9a2af372aad67842c06ea", "rental_uris": {"ios": "https://dc.lft.to/lastmile_qr_scan", "android": "https://dc.lft.to/lastmile_qr_scan"}}, {"is_disabled": 0, "fusion_lat": 0.0, "lat": 38.942064333333335, "type": "electric_bike", "lon": -77.01824033333334, "is_reserved": 0, "fusion_lon": 0.0, "bike_id": "766ee53752ca0e8ae48668ca46e02cec", "name": "766ee53752ca0e8ae48668ca46e02cec", "rental_uris": {"ios": "https://dc.lft.to/lastmile_qr_scan", "android": "https://dc.lft.to/lastmile_qr_scan"}}, {"is_disabled": 0, "fusion_lat": 0.0, "lat": 38.86655716666667, "type": "electric_scooter", "lon": -76.9889865, "is_reserved": 0, "fusion_lon": 0.0, "bike_id": "22db55dc48ab510a3762b2221d1d746e", "name": "22db55dc48ab510a3762b2221d1d746e", "rental_uris": {"ios": "https://dc.lft.to/lastmile_qr_scan", "android": "https://dc.lft.to/lastmile_qr_scan"}}, {"is_disabled": 0, "fusion_lat": 0.0, "lat": 38.909527, "type": "electric_scooter", "lon": -77.02497116666666, "is_reserved": 0, "fusion_lon": 0.0, "bike_id": "d16d8a28d4afca3099b56644c8df8fb6", "name": "d16d8a28d4afca3099b56644c8df8fb6", "rental_uris": {"ios": "https://dc.lft.to/lastmile_qr_scan", "android": "https://dc.lft.to/lastmile_qr_scan"}}, {"is_disabled": 0, "fusion_lat": 0.0, "lat": 38.870845333333335, "type": "electric_bike", "lon": -77.13330983333333, "is_reserved": 0, "fusion_lon": 0.0, "bike_id": "2d558fde421256b6f3f5717d3b09b457", "name": "2d558fde421256b6f3f5717d3b09b457", "rental_uris": {"ios": "https://dc.lft.to/lastmile_qr_scan", "android": "https://dc.lft.to/lastmile_qr_scan"}}, {"is_disabled": 0, "fusion_lat": 0.0, "lat": 38.92360333333333, "type": "electric_scooter", "lon": -77.02064066666667, "is_reserved": 0, "fusion_lon": 0.0, "bike_id": "7019d732a3e48c538cc2c083d568e1fb", "name": "7019d732a3e48c538cc2c083d568e1fb", "rental_uris": {"ios": "https://dc.lft.to/lastmile_qr_scan", "android": "https://dc.lft.to/lastmile_qr_scan"}}, {"is_disabled": 0, "fusion_lat": 0.0, "lat": 38.939717333333334, "type": "electric_scooter", "lon": -77.03589616666666, "is_reserved": 0, "fusion_lon": 0.0, "bike_id": "1556e1646a000d3139c5c63c76fe8ade", "name": "1556e1646a000d3139c5c63c76fe8ade", "rental_uris": {"ios": "https://dc.lft.to/lastmile_qr_scan", "android": "https://dc.lft.to/lastmile_qr_scan"}}, {"is_disabled": 0, "fusion_lat": 0.0, "lat": 38.935314, "type": "electric_scooter", "lon": -77.02362616666667, "is_reserved": 0, "fusion_lon": 0.0, "bike_id": "96df77da03154ca08dc844249c927268", "name": "96df77da03154ca08dc844249c927268", "rental_uris": {"ios": "https://dc.lft.to/lastmile_qr_scan", "android": "https://dc.lft.to/lastmile_qr_scan"}}, {"is_disabled": 0, "fusion_lat": 0.0, "lat": 38.89894066666667, "type": "electric_scooter", "lon": -77.007435, "is_reserved": 0, "fusion_lon": 0.0, "bike_id": "1acfcb22bd7c3d39398756727448603a", "name": "1acfcb22bd7c3d39398756727448603a", "rental_uris": {"ios": "https://dc.lft.to/lastmile_qr_scan", "android": "https://dc.lft.to/lastmile_qr_scan"}}, {"is_disabled": 0, "fusion_lat": 0.0, "lat": 38.950867333333335, "type": "electric_scooter", "lon": -77.02836966666666, "is_reserved": 0, "fusion_lon": 0.0, "bike_id": "b2dc7e6326dbdf71b78b1e49d41046db", "name": "b2dc7e6326dbdf71b78b1e49d41046db", "rental_uris": {"ios": "https://dc.lft.to/lastmile_qr_scan", "android": "https://dc.lft.to/lastmile_qr_scan"}}, {"is_disabled": 0, "fusion_lat": 0.0, "lat": 38.820896166666664, "type": "electric_bike", "lon": -77.05367533333333, "is_reserved": 0, "fusion_lon": 0.0, "bike_id": "94584a4113a9a2e2a463782c5d677d45", "name": "94584a4113a9a2e2a463782c5d677d45", "rental_uris": {"ios": "https://dc.lft.to/lastmile_qr_scan", "android": "https://dc.lft.to/lastmile_qr_scan"}}, {"is_disabled": 0, "fusion_lat": 0.0, "lat": 38.9181445, "type": "electric_scooter", "lon": -77.03542283333333, "is_reserved": 0, "fusion_lon": 0.0, "bike_id": "8f7535e9d38d5072b746fa42ab6a6742", "name": "8f7535e9d38d5072b746fa42ab6a6742", "rental_uris": {"ios": "https://dc.lft.to/lastmile_qr_scan", "android": "https://dc.lft.to/lastmile_qr_scan"}}, {"is_disabled": 0, "fusion_lat": 0.0, "lat": 38.92640266666667, "type": "electric_scooter", "lon": -77.01341933333333, "is_reserved": 0, "fusion_lon": 0.0, "bike_id": "c2277cf46d2261de9e03e81ee60ed89b", "name": "c2277cf46d2261de9e03e81ee60ed89b", "rental_uris": {"ios": "https://dc.lft.to/lastmile_qr_scan", "android": "https://dc.lft.to/lastmile_qr_scan"}}, {"is_disabled": 0, "fusion_lat": 0.0, "lat": 38.92191, "type": "electric_scooter", "lon": -77.0425075, "is_reserved": 0, "fusion_lon": 0.0, "bike_id": "bc2edd908490eada583b1c0b382ef027", "name": "bc2edd908490eada583b1c0b382ef027", "rental_uris": {"ios": "https://dc.lft.to/lastmile_qr_scan", "android": "https://dc.lft.to/lastmile_qr_scan"}}, {"is_disabled": 0, "fusion_lat": 0.0, "lat": 38.898603333333334, "type": "electric_scooter", "lon": -77.043659, "is_reserved": 0, "fusion_lon": 0.0, "bike_id": "a402a307a6a5cf7c2d927a583120095c", "name": "a402a307a6a5cf7c2d927a583120095c", "rental_uris": {"ios": "https://dc.lft.to/lastmile_qr_scan", "android": "https://dc.lft.to/lastmile_qr_scan"}}, {"is_disabled": 0, "fusion_lat": 0.0, "lat": 38.89361483333333, "type": "electric_scooter", "lon": -77.03214116666666, "is_reserved": 0, "fusion_lon": 0.0, "bike_id": "376df33e3b6076fbdcea33b57a29dc00", "name": "376df33e3b6076fbdcea33b57a29dc00", "rental_uris": {"ios": "https://dc.lft.to/lastmile_qr_scan", "android": "https://dc.lft.to/lastmile_qr_scan"}}, {"is_disabled": 0, "fusion_lat": 0.0, "lat": 38.934038666666666, "type": "electric_scooter", "lon": -77.03264616666667, "is_reserved": 0, "fusion_lon": 0.0, "bike_id": "07d83ee39725ba315a1a4f8d7d1117d7", "name": "07d83ee39725ba315a1a4f8d7d1117d7", "rental_uris": {"ios": "https://dc.lft.to/lastmile_qr_scan", "android": "https://dc.lft.to/lastmile_qr_scan"}}, {"is_disabled": 0, "fusion_lat": 0.0, "lat": 38.9408305, "type": "electric_scooter", "lon": -77.02717383333334, "is_reserved": 0, "fusion_lon": 0.0, "bike_id": "92914b9a6003dc2bd4e57db3f07579f2", "name": "92914b9a6003dc2bd4e57db3f07579f2", "rental_uris": {"ios": "https://dc.lft.to/lastmile_qr_scan", "android": "https://dc.lft.to/lastmile_qr_scan"}}, {"is_disabled": 0, "fusion_lat": 0.0, "lat": 38.919615, "type": "electric_scooter", "lon": -77.03208816666667, "is_reserved": 0, "fusion_lon": 0.0, "bike_id": "d12686849799755611d27e4153d90fbe", "name": "d12686849799755611d27e4153d90fbe", "rental_uris": {"ios": "https://dc.lft.to/lastmile_qr_scan", "android": "https://dc.lft.to/lastmile_qr_scan"}}, {"is_disabled": 0, "fusion_lat": 0.0, "lat": 38.91948633333333, "type": "electric_scooter", "lon": -77.0319375, "is_reserved": 0, "fusion_lon": 0.0, "bike_id": "d4ef67c1cf6d6bed12090f3ffd6a53b4", "name": "d4ef67c1cf6d6bed12090f3ffd6a53b4", "rental_uris": {"ios": "https://dc.lft.to/lastmile_qr_scan", "android": "https://dc.lft.to/lastmile_qr_scan"}}, {"is_disabled": 0, "fusion_lat": 0.0, "lat": 38.89168816666667, "type": "electric_scooter", "lon": -77.015459, "is_reserved": 0, "fusion_lon": 0.0, "bike_id": "07bb8de7ad30b81c6ea49a3d0b532779", "name": "07bb8de7ad30b81c6ea49a3d0b532779", "rental_uris": {"ios": "https://dc.lft.to/lastmile_qr_scan", "android": "https://dc.lft.to/lastmile_qr_scan"}}, {"is_disabled": 0, "fusion_lat": 0.0, "lat": 38.90175466666667, "type": "electric_scooter", "lon": -77.02493416666667, "is_reserved": 0, "fusion_lon": 0.0, "bike_id": "a3463d5458c7e747c02c4c28b13823b7", "name": "a3463d5458c7e747c02c4c28b13823b7", "rental_uris": {"ios": "https://dc.lft.to/lastmile_qr_scan", "android": "https://dc.lft.to/lastmile_qr_scan"}}, {"is_disabled": 0, "fusion_lat": 0.0, "lat": 38.898253833333335, "type": "electric_scooter", "lon": -77.03305466666667, "is_reserved": 0, "fusion_lon": 0.0, "bike_id": "d1c6f2504a293243021ed99d91f2831a", "name": "d1c6f2504a293243021ed99d91f2831a", "rental_uris": {"ios": "https://dc.lft.to/lastmile_qr_scan", "android": "https://dc.lft.to/lastmile_qr_scan"}}, {"is_disabled": 0, "fusion_lat": 0.0, "lat": 38.88012, "type": "electric_bike", "lon": -77.11035383333333, "is_reserved": 0, "fusion_lon": 0.0, "bike_id": "282603a0ea9874ae6e1745a382555c45", "name": "282603a0ea9874ae6e1745a382555c45", "rental_uris": {"ios": "https://dc.lft.to/lastmile_qr_scan", "android": "https://dc.lft.to/lastmile_qr_scan"}}, {"is_disabled": 0, "fusion_lat": 0.0, "lat": 38.99827033333333, "type": "electric_bike", "lon": -77.02856516666667, "is_reserved": 0, "fusion_lon": 0.0, "bike_id": "c806fa51916d25d34ee1265dc551ba89", "name": "c806fa51916d25d34ee1265dc551ba89", "rental_uris": {"ios": "https://dc.lft.to/lastmile_qr_scan", "android": "https://dc.lft.to/lastmile_qr_scan"}}, {"is_disabled": 0, "fusion_lat": 0.0, "lat": 38.88548816666667, "type": "electric_bike", "lon": -77.1179145, "is_reserved": 0, "fusion_lon": 0.0, "bike_id": "a66ca276e52de29b5994f8c0e171c689", "name": "a66ca276e52de29b5994f8c0e171c689", "rental_uris": {"ios": "https://dc.lft.to/lastmile_qr_scan", "android": "https://dc.lft.to/lastmile_qr_scan"}}, {"is_disabled": 0, "fusion_lat": 0.0, "lat": 38.93304533333333, "type": "electric_bike", "lon": -77.02155283333333, "is_reserved": 0, "fusion_lon": 0.0, "bike_id": "1c9269341d5357680daf25ea6253af24", "name": "1c9269341d5357680daf25ea6253af24", "rental_uris": {"ios": "https://dc.lft.to/lastmile_qr_scan", "android": "https://dc.lft.to/lastmile_qr_scan"}}, {"is_disabled": 0, "fusion_lat": 0.0, "lat": 38.9342815, "type": "electric_scooter", "lon": -76.96509633333334, "is_reserved": 0, "fusion_lon": 0.0, "bike_id": "a12b8d1b95763a9afbbbaf818bf8f1cf", "name": "a12b8d1b95763a9afbbbaf818bf8f1cf", "rental_uris": {"ios": "https://dc.lft.to/lastmile_qr_scan", "android": "https://dc.lft.to/lastmile_qr_scan"}}, {"is_disabled": 0, "fusion_lat": 0.0, "lat": 38.9066655, "type": "electric_scooter", "lon": -77.02730566666666, "is_reserved": 0, "fusion_lon": 0.0, "bike_id": "b0ced3731aea20f847b7e50aaef96c90", "name": "b0ced3731aea20f847b7e50aaef96c90", "rental_uris": {"ios": "https://dc.lft.to/lastmile_qr_scan", "android": "https://dc.lft.to/lastmile_qr_scan"}}, {"is_disabled": 0, "fusion_lat": 0.0, "lat": 38.922085, "type": "electric_scooter", "lon": -77.0367695, "is_reserved": 0, "fusion_lon": 0.0, "bike_id": "e54bc6850e930117ede692ff6a24a6ef", "name": "e54bc6850e930117ede692ff6a24a6ef", "rental_uris": {"ios": "https://dc.lft.to/lastmile_qr_scan", "android": "https://dc.lft.to/lastmile_qr_scan"}}, {"is_disabled": 0, "fusion_lat": 0.0, "lat": 38.900431, "type": "electric_scooter", "lon": -77.00776783333333, "is_reserved": 0, "fusion_lon": 0.0, "bike_id": "81aae6addcc040897cd50af1dbea3d0e", "name": "81aae6addcc040897cd50af1dbea3d0e", "rental_uris": {"ios": "https://dc.lft.to/lastmile_qr_scan", "android": "https://dc.lft.to/lastmile_qr_scan"}}, {"is_disabled": 0, "fusion_lat": 0.0, "lat": 38.90379166666666, "type": "electric_scooter", "lon": -77.04445416666667, "is_reserved": 0, "fusion_lon": 0.0, "bike_id": "74c5942830508369425338b29eebf1d3", "name": "74c5942830508369425338b29eebf1d3", "rental_uris": {"ios": "https://dc.lft.to/lastmile_qr_scan", "android": "https://dc.lft.to/lastmile_qr_scan"}}, {"is_disabled": 0, "fusion_lat": 0.0, "lat": 38.98460133333333, "type": "electric_bike", "lon": -76.95537133333333, "is_reserved": 0, "fusion_lon": 0.0, "bike_id": "3881b09a0a799986e733735b9f970604", "name": "3881b09a0a799986e733735b9f970604", "rental_uris": {"ios": "https://dc.lft.to/lastmile_qr_scan", "android": "https://dc.lft.to/lastmile_qr_scan"}}, {"is_disabled": 0, "fusion_lat": 0.0, "lat": 38.852203833333334, "type": "electric_bike", "lon": -77.12963466666666, "is_reserved": 0, "fusion_lon": 0.0, "bike_id": "1e2d145d6c40d4b5d4314b44c2441805", "name": "1e2d145d6c40d4b5d4314b44c2441805", "rental_uris": {"ios": "https://dc.lft.to/lastmile_qr_scan", "android": "https://dc.lft.to/lastmile_qr_scan"}}, {"is_disabled": 0, "fusion_lat": 0.0, "lat": 38.92789616666666, "type": "electric_scooter", "lon": -77.03150616666667, "is_reserved": 0, "fusion_lon": 0.0, "bike_id": "593b073d74db8947166b74909a4540e1", "name": "593b073d74db8947166b74909a4540e1", "rental_uris": {"ios": "https://dc.lft.to/lastmile_qr_scan", "android": "https://dc.lft.to/lastmile_qr_scan"}}, {"is_disabled": 0, "fusion_lat": 0.0, "lat": 38.865940333333334, "type": "electric_bike", "lon": -76.93235683333333, "is_reserved": 0, "fusion_lon": 0.0, "bike_id": "4be026e66825da8a218189362b3e605d", "name": "4be026e66825da8a218189362b3e605d", "rental_uris": {"ios": "https://dc.lft.to/lastmile_qr_scan", "android": "https://dc.lft.to/lastmile_qr_scan"}}, {"is_disabled": 0, "fusion_lat": 0.0, "lat": 38.892262, "type": "electric_scooter", "lon": -77.046576, "is_reserved": 0, "fusion_lon": 0.0, "bike_id": "9197c093b558cd88bbcecf155801816e", "name": "9197c093b558cd88bbcecf155801816e", "rental_uris": {"ios": "https://dc.lft.to/lastmile_qr_scan", "android": "https://dc.lft.to/lastmile_qr_scan"}}, {"is_disabled": 0, "fusion_lat": 0.0, "lat": 38.921439, "type": "electric_scooter", "lon": -77.01807766666667, "is_reserved": 0, "fusion_lon": 0.0, "bike_id": "737d249733bcc735fcf99208e4067f7f", "name": "737d249733bcc735fcf99208e4067f7f", "rental_uris": {"ios": "https://dc.lft.to/lastmile_qr_scan", "android": "https://dc.lft.to/lastmile_qr_scan"}}, {"is_disabled": 0, "fusion_lat": 0.0, "lat": 38.9859845, "type": "electric_bike", "lon": -77.03752883333334, "is_reserved": 0, "fusion_lon": 0.0, "bike_id": "c4b299876ed5aa6a91f1fe5abe6425f5", "name": "c4b299876ed5aa6a91f1fe5abe6425f5", "rental_uris": {"ios": "https://dc.lft.to/lastmile_qr_scan", "android": "https://dc.lft.to/lastmile_qr_scan"}}, {"is_disabled": 0, "fusion_lat": 0.0, "lat": 38.921719833333334, "type": "electric_scooter", "lon": -77.05137183333333, "is_reserved": 0, "fusion_lon": 0.0, "bike_id": "04eb430da37ecea66560ddff3c9e19e3", "name": "04eb430da37ecea66560ddff3c9e19e3", "rental_uris": {"ios": "https://dc.lft.to/lastmile_qr_scan", "android": "https://dc.lft.to/lastmile_qr_scan"}}, {"is_disabled": 0, "fusion_lat": 0.0, "lat": 38.888206833333335, "type": "electric_scooter", "lon": -76.97714583333334, "is_reserved": 0, "fusion_lon": 0.0, "bike_id": "bebc289813efca2a340140934a085d04", "name": "bebc289813efca2a340140934a085d04", "rental_uris": {"ios": "https://dc.lft.to/lastmile_qr_scan", "android": "https://dc.lft.to/lastmile_qr_scan"}}, {"is_disabled": 0, "fusion_lat": 0.0, "lat": 38.92296833333333, "type": "electric_scooter", "lon": -77.0421655, "is_reserved": 0, "fusion_lon": 0.0, "bike_id": "7966f3f3f039f8cfe635b17bb8596883", "name": "7966f3f3f039f8cfe635b17bb8596883", "rental_uris": {"ios": "https://dc.lft.to/lastmile_qr_scan", "android": "https://dc.lft.to/lastmile_qr_scan"}}, {"is_disabled": 0, "fusion_lat": 0.0, "lat": 38.91779616666667, "type": "electric_scooter", "lon": -77.02283666666666, "is_reserved": 0, "fusion_lon": 0.0, "bike_id": "65bc28fc9a4f00aa238113359466d7a4", "name": "65bc28fc9a4f00aa238113359466d7a4", "rental_uris": {"ios": "https://dc.lft.to/lastmile_qr_scan", "android": "https://dc.lft.to/lastmile_qr_scan"}}, {"is_disabled": 0, "fusion_lat": 0.0, "lat": 38.90286, "type": "electric_scooter", "lon": -77.04061416666667, "is_reserved": 0, "fusion_lon": 0.0, "bike_id": "5f559952f07232c036d04e68a9d0f3b9", "name": "5f559952f07232c036d04e68a9d0f3b9", "rental_uris": {"ios": "https://dc.lft.to/lastmile_qr_scan", "android": "https://dc.lft.to/lastmile_qr_scan"}}, {"is_disabled": 0, "fusion_lat": 0.0, "lat": 38.93880016666667, "type": "electric_scooter", "lon": -77.03280783333334, "is_reserved": 0, "fusion_lon": 0.0, "bike_id": "abafbe2262c669b359a11b1c5106f4a8", "name": "abafbe2262c669b359a11b1c5106f4a8", "rental_uris": {"ios": "https://dc.lft.to/lastmile_qr_scan", "android": "https://dc.lft.to/lastmile_qr_scan"}}, {"is_disabled": 0, "fusion_lat": 0.0, "lat": 38.90041016666667, "type": "electric_scooter", "lon": -76.98828933333333, "is_reserved": 0, "fusion_lon": 0.0, "bike_id": "2d748e9c51e265d821c86f7f45bf91cd", "name": "2d748e9c51e265d821c86f7f45bf91cd", "rental_uris": {"ios": "https://dc.lft.to/lastmile_qr_scan", "android": "https://dc.lft.to/lastmile_qr_scan"}}, {"is_disabled": 0, "fusion_lat": 0.0, "lat": 38.807483833333336, "type": "electric_bike", "lon": -77.09431116666667, "is_reserved": 0, "fusion_lon": 0.0, "bike_id": "35f10ff128776d2316580b7fe3131950", "name": "35f10ff128776d2316580b7fe3131950", "rental_uris": {"ios": "https://dc.lft.to/lastmile_qr_scan", "android": "https://dc.lft.to/lastmile_qr_scan"}}, {"is_disabled": 0, "fusion_lat": 0.0, "lat": 38.90610866666667, "type": "electric_scooter", "lon": -77.06516166666667, "is_reserved": 0, "fusion_lon": 0.0, "bike_id": "758f89cc4879382f0903fcf7a7aa28f3", "name": "758f89cc4879382f0903fcf7a7aa28f3", "rental_uris": {"ios": "https://dc.lft.to/lastmile_qr_scan", "android": "https://dc.lft.to/lastmile_qr_scan"}}, {"is_disabled": 0, "fusion_lat": 0.0, "lat": 38.929997666666665, "type": "electric_scooter", "lon": -77.04431516666666, "is_reserved": 0, "fusion_lon": 0.0, "bike_id": "2c9e0f477e8bb789ff0ed317463f839c", "name": "2c9e0f477e8bb789ff0ed317463f839c", "rental_uris": {"ios": "https://dc.lft.to/lastmile_qr_scan", "android": "https://dc.lft.to/lastmile_qr_scan"}}, {"is_disabled": 0, "fusion_lat": 0.0, "lat": 38.921356333333335, "type": "electric_scooter", "lon": -77.04581366666666, "is_reserved": 0, "fusion_lon": 0.0, "bike_id": "2fb9df1c8ab0c4874b73692cf8506b84", "name": "2fb9df1c8ab0c4874b73692cf8506b84", "rental_uris": {"ios": "https://dc.lft.to/lastmile_qr_scan", "android": "https://dc.lft.to/lastmile_qr_scan"}}, {"is_disabled": 0, "fusion_lat": 0.0, "lat": 38.93008416666667, "type": "electric_scooter", "lon": -77.02351666666667, "is_reserved": 0, "fusion_lon": 0.0, "bike_id": "f34537f824fef2a1935981839c042963", "name": "f34537f824fef2a1935981839c042963", "rental_uris": {"ios": "https://dc.lft.to/lastmile_qr_scan", "android": "https://dc.lft.to/lastmile_qr_scan"}}, {"is_disabled": 0, "fusion_lat": 0.0, "lat": 38.943005, "type": "electric_scooter", "lon": -77.02592133333333, "is_reserved": 0, "fusion_lon": 0.0, "bike_id": "751ccfb087dd37c5c618dffde8de3289", "name": "751ccfb087dd37c5c618dffde8de3289", "rental_uris": {"ios": "https://dc.lft.to/lastmile_qr_scan", "android": "https://dc.lft.to/lastmile_qr_scan"}}, {"is_disabled": 0, "fusion_lat": 0.0, "lat": 38.9054095, "type": "electric_scooter", "lon": -77.02196016666667, "is_reserved": 0, "fusion_lon": 0.0, "bike_id": "dddf26cb4827b69b5361d9ecdd9c01d8", "name": "dddf26cb4827b69b5361d9ecdd9c01d8", "rental_uris": {"ios": "https://dc.lft.to/lastmile_qr_scan", "android": "https://dc.lft.to/lastmile_qr_scan"}}, {"is_disabled": 0, "fusion_lat": 0.0, "lat": 38.94832816666667, "type": "electric_scooter", "lon": -77.02420783333334, "is_reserved": 0, "fusion_lon": 0.0, "bike_id": "7d5eee13428040d27c15d22cb000c428", "name": "7d5eee13428040d27c15d22cb000c428", "rental_uris": {"ios": "https://dc.lft.to/lastmile_qr_scan", "android": "https://dc.lft.to/lastmile_qr_scan"}}, {"is_disabled": 0, "fusion_lat": 0.0, "lat": 38.92401016666667, "type": "electric_scooter", "lon": -77.05269066666666, "is_reserved": 0, "fusion_lon": 0.0, "bike_id": "a4e799575ef260df988a27961bf83d9d", "name": "a4e799575ef260df988a27961bf83d9d", "rental_uris": {"ios": "https://dc.lft.to/lastmile_qr_scan", "android": "https://dc.lft.to/lastmile_qr_scan"}}, {"is_disabled": 0, "fusion_lat": 0.0, "lat": 38.910545666666664, "type": "electric_scooter", "lon": -77.04588516666666, "is_reserved": 0, "fusion_lon": 0.0, "bike_id": "ce0794c774bd3531a9bdfd4961766bcb", "name": "ce0794c774bd3531a9bdfd4961766bcb", "rental_uris": {"ios": "https://dc.lft.to/lastmile_qr_scan", "android": "https://dc.lft.to/lastmile_qr_scan"}}, {"is_disabled": 0, "fusion_lat": 0.0, "lat": 38.9196825, "type": "electric_scooter", "lon": -77.04146966666667, "is_reserved": 0, "fusion_lon": 0.0, "bike_id": "fd70a420b3ad4f0c725d15089e3ee47e", "name": "fd70a420b3ad4f0c725d15089e3ee47e", "rental_uris": {"ios": "https://dc.lft.to/lastmile_qr_scan", "android": "https://dc.lft.to/lastmile_qr_scan"}}, {"is_disabled": 0, "fusion_lat": 0.0, "lat": 38.887248666666665, "type": "electric_scooter", "lon": -77.032279, "is_reserved": 0, "fusion_lon": 0.0, "bike_id": "af7a4420c17ce9cce5cff40c9aab11cf", "name": "af7a4420c17ce9cce5cff40c9aab11cf", "rental_uris": {"ios": "https://dc.lft.to/lastmile_qr_scan", "android": "https://dc.lft.to/lastmile_qr_scan"}}, {"is_disabled": 0, "fusion_lat": 0.0, "lat": 38.92853383333333, "type": "electric_bike", "lon": -77.106823, "is_reserved": 0, "fusion_lon": 0.0, "bike_id": "2dfd086661f3d70858cff149a0d686c9", "name": "2dfd086661f3d70858cff149a0d686c9", "rental_uris": {"ios": "https://dc.lft.to/lastmile_qr_scan", "android": "https://dc.lft.to/lastmile_qr_scan"}}, {"is_disabled": 0, "fusion_lat": 0.0, "lat": 38.898750166666666, "type": "electric_scooter", "lon": -76.93165533333334, "is_reserved": 0, "fusion_lon": 0.0, "bike_id": "b032f59e91477272778a947c517fcc8e", "name": "b032f59e91477272778a947c517fcc8e", "rental_uris": {"ios": "https://dc.lft.to/lastmile_qr_scan", "android": "https://dc.lft.to/lastmile_qr_scan"}}, {"is_disabled": 0, "fusion_lat": 0.0, "lat": 38.93438883333334, "type": "electric_scooter", "lon": -77.07245983333334, "is_reserved": 0, "fusion_lon": 0.0, "bike_id": "32ccff1db4b92669b3fb4fd686aaa7c8", "name": "32ccff1db4b92669b3fb4fd686aaa7c8", "rental_uris": {"ios": "https://dc.lft.to/lastmile_qr_scan", "android": "https://dc.lft.to/lastmile_qr_scan"}}, {"is_disabled": 0, "fusion_lat": 0.0, "lat": 38.92826183333333, "type": "electric_scooter", "lon": -77.01393133333333, "is_reserved": 0, "fusion_lon": 0.0, "bike_id": "5eb125f5b1b32a1adbe92ff0019419ae", "name": "5eb125f5b1b32a1adbe92ff0019419ae", "rental_uris": {"ios": "https://dc.lft.to/lastmile_qr_scan", "android": "https://dc.lft.to/lastmile_qr_scan"}}, {"is_disabled": 0, "fusion_lat": 0.0, "lat": 38.8794425, "type": "electric_scooter", "lon": -77.00511716666666, "is_reserved": 0, "fusion_lon": 0.0, "bike_id": "7582f560ac5d5b5091d3bf383be0354a", "name": "7582f560ac5d5b5091d3bf383be0354a", "rental_uris": {"ios": "https://dc.lft.to/lastmile_qr_scan", "android": "https://dc.lft.to/lastmile_qr_scan"}}, {"is_disabled": 0, "fusion_lat": 0.0, "lat": 38.916949833333334, "type": "electric_scooter", "lon": -77.02324016666667, "is_reserved": 0, "fusion_lon": 0.0, "bike_id": "5aceb77fccde8edab4f1f6456aaf9f42", "name": "5aceb77fccde8edab4f1f6456aaf9f42", "rental_uris": {"ios": "https://dc.lft.to/lastmile_qr_scan", "android": "https://dc.lft.to/lastmile_qr_scan"}}, {"is_disabled": 0, "fusion_lat": 0.0, "lat": 38.860589, "type": "electric_bike", "lon": -77.05642016666667, "is_reserved": 0, "fusion_lon": 0.0, "bike_id": "826861502c0648e2541a89d259882f31", "name": "826861502c0648e2541a89d259882f31", "rental_uris": {"ios": "https://dc.lft.to/lastmile_qr_scan", "android": "https://dc.lft.to/lastmile_qr_scan"}}, {"is_disabled": 0, "fusion_lat": 0.0, "lat": 38.91260833333333, "type": "electric_scooter", "lon": -77.032096, "is_reserved": 0, "fusion_lon": 0.0, "bike_id": "e5a7b83196db8fe08d8e153b6e3324f0", "name": "e5a7b83196db8fe08d8e153b6e3324f0", "rental_uris": {"ios": "https://dc.lft.to/lastmile_qr_scan", "android": "https://dc.lft.to/lastmile_qr_scan"}}, {"is_disabled": 0, "fusion_lat": 0.0, "lat": 38.902915166666666, "type": "electric_scooter", "lon": -77.033341, "is_reserved": 0, "fusion_lon": 0.0, "bike_id": "3e97728a03d61f6a3934a427dbd9f3b7", "name": "3e97728a03d61f6a3934a427dbd9f3b7", "rental_uris": {"ios": "https://dc.lft.to/lastmile_qr_scan", "android": "https://dc.lft.to/lastmile_qr_scan"}}, {"is_disabled": 0, "fusion_lat": 0.0, "lat": 38.90414633333333, "type": "electric_scooter", "lon": -77.020809, "is_reserved": 0, "fusion_lon": 0.0, "bike_id": "157329d94ea2c31f9454d9ccc2168309", "name": "157329d94ea2c31f9454d9ccc2168309", "rental_uris": {"ios": "https://dc.lft.to/lastmile_qr_scan", "android": "https://dc.lft.to/lastmile_qr_scan"}}, {"is_disabled": 0, "fusion_lat": 0.0, "lat": 38.959558, "type": "electric_bike", "lon": -77.10100133333333, "is_reserved": 0, "fusion_lon": 0.0, "bike_id": "39cf744217d5c3e7ee0121ec73568b3a", "name": "39cf744217d5c3e7ee0121ec73568b3a", "rental_uris": {"ios": "https://dc.lft.to/lastmile_qr_scan", "android": "https://dc.lft.to/lastmile_qr_scan"}}, {"is_disabled": 0, "fusion_lat": 0.0, "lat": 38.8962525, "type": "electric_scooter", "lon": -76.98501016666667, "is_reserved": 0, "fusion_lon": 0.0, "bike_id": "1baeb28c0bb6ae92907dbf04a5ab8bd2", "name": "1baeb28c0bb6ae92907dbf04a5ab8bd2", "rental_uris": {"ios": "https://dc.lft.to/lastmile_qr_scan", "android": "https://dc.lft.to/lastmile_qr_scan"}}, {"is_disabled": 0, "fusion_lat": 0.0, "lat": 38.91188533333333, "type": "electric_scooter", "lon": -77.06097866666667, "is_reserved": 0, "fusion_lon": 0.0, "bike_id": "83c224b2e91f5acc2b8a7e594c29d680", "name": "83c224b2e91f5acc2b8a7e594c29d680", "rental_uris": {"ios": "https://dc.lft.to/lastmile_qr_scan", "android": "https://dc.lft.to/lastmile_qr_scan"}}, {"is_disabled": 0, "fusion_lat": 0.0, "lat": 38.9170385, "type": "electric_scooter", "lon": -77.001166, "is_reserved": 0, "fusion_lon": 0.0, "bike_id": "0a0cbfe8e7aedbdcb20621793cb732fd", "name": "0a0cbfe8e7aedbdcb20621793cb732fd", "rental_uris": {"ios": "https://dc.lft.to/lastmile_qr_scan", "android": "https://dc.lft.to/lastmile_qr_scan"}}, {"is_disabled": 0, "fusion_lat": 0.0, "lat": 38.871805, "type": "electric_scooter", "lon": -77.00611083333334, "is_reserved": 0, "fusion_lon": 0.0, "bike_id": "d9dcbacc84ad9f8e7adbf1f55579f917", "name": "d9dcbacc84ad9f8e7adbf1f55579f917", "rental_uris": {"ios": "https://dc.lft.to/lastmile_qr_scan", "android": "https://dc.lft.to/lastmile_qr_scan"}}, {"is_disabled": 0, "fusion_lat": 0.0, "lat": 38.90037566666667, "type": "electric_scooter", "lon": -76.98836333333334, "is_reserved": 0, "fusion_lon": 0.0, "bike_id": "fe4bdb70c28d7dfc6f9f7919e92c9cf3", "name": "fe4bdb70c28d7dfc6f9f7919e92c9cf3", "rental_uris": {"ios": "https://dc.lft.to/lastmile_qr_scan", "android": "https://dc.lft.to/lastmile_qr_scan"}}, {"is_disabled": 0, "fusion_lat": 0.0, "lat": 38.903854333333335, "type": "electric_scooter", "lon": -77.04371183333333, "is_reserved": 0, "fusion_lon": 0.0, "bike_id": "f746c9d3b327c3b8ae6015cea1152719", "name": "f746c9d3b327c3b8ae6015cea1152719", "rental_uris": {"ios": "https://dc.lft.to/lastmile_qr_scan", "android": "https://dc.lft.to/lastmile_qr_scan"}}, {"is_disabled": 0, "fusion_lat": 0.0, "lat": 38.9284905, "type": "electric_scooter", "lon": -77.05437366666666, "is_reserved": 0, "fusion_lon": 0.0, "bike_id": "171d6c499beaaa81116345ff92013e67", "name": "171d6c499beaaa81116345ff92013e67", "rental_uris": {"ios": "https://dc.lft.to/lastmile_qr_scan", "android": "https://dc.lft.to/lastmile_qr_scan"}}, {"is_disabled": 0, "fusion_lat": 0.0, "lat": 38.884970333333335, "type": "electric_scooter", "lon": -77.009031, "is_reserved": 0, "fusion_lon": 0.0, "bike_id": "d34b2ad965ff9f1510697615fef8980a", "name": "d34b2ad965ff9f1510697615fef8980a", "rental_uris": {"ios": "https://dc.lft.to/lastmile_qr_scan", "android": "https://dc.lft.to/lastmile_qr_scan"}}, {"is_disabled": 0, "fusion_lat": 0.0, "lat": 38.92446566666667, "type": "electric_scooter", "lon": -77.04115283333333, "is_reserved": 0, "fusion_lon": 0.0, "bike_id": "0c381adedc37649077bd9bc38f168d9b", "name": "0c381adedc37649077bd9bc38f168d9b", "rental_uris": {"ios": "https://dc.lft.to/lastmile_qr_scan", "android": "https://dc.lft.to/lastmile_qr_scan"}}, {"is_disabled": 0, "fusion_lat": 0.0, "lat": 38.916348666666664, "type": "electric_scooter", "lon": -77.04127916666667, "is_reserved": 0, "fusion_lon": 0.0, "bike_id": "d5a57e9a7e94bc9aa1d64a16c9b88e79", "name": "d5a57e9a7e94bc9aa1d64a16c9b88e79", "rental_uris": {"ios": "https://dc.lft.to/lastmile_qr_scan", "android": "https://dc.lft.to/lastmile_qr_scan"}}, {"is_disabled": 0, "fusion_lat": 0.0, "lat": 38.892458833333336, "type": "electric_scooter", "lon": -77.039607, "is_reserved": 0, "fusion_lon": 0.0, "bike_id": "805fec3948e15108b80a85e15de33f49", "name": "805fec3948e15108b80a85e15de33f49", "rental_uris": {"ios": "https://dc.lft.to/lastmile_qr_scan", "android": "https://dc.lft.to/lastmile_qr_scan"}}, {"is_disabled": 0, "fusion_lat": 0.0, "lat": 38.94473833333333, "type": "electric_bike", "lon": -77.02294083333334, "is_reserved": 0, "fusion_lon": 0.0, "bike_id": "aa515469e93c1b7247bc21062d1ff7ef", "name": "aa515469e93c1b7247bc21062d1ff7ef", "rental_uris": {"ios": "https://dc.lft.to/lastmile_qr_scan", "android": "https://dc.lft.to/lastmile_qr_scan"}}, {"is_disabled": 0, "fusion_lat": 0.0, "lat": 38.92324583333333, "type": "electric_scooter", "lon": -77.0475905, "is_reserved": 0, "fusion_lon": 0.0, "bike_id": "74cde06af75023541be51466b8749bbe", "name": "74cde06af75023541be51466b8749bbe", "rental_uris": {"ios": "https://dc.lft.to/lastmile_qr_scan", "android": "https://dc.lft.to/lastmile_qr_scan"}}, {"is_disabled": 0, "fusion_lat": 0.0, "lat": 38.8960825, "type": "electric_scooter", "lon": -77.04792283333333, "is_reserved": 0, "fusion_lon": 0.0, "bike_id": "f4c2b74ec533073f3f78f89b62cdf5c5", "name": "f4c2b74ec533073f3f78f89b62cdf5c5", "rental_uris": {"ios": "https://dc.lft.to/lastmile_qr_scan", "android": "https://dc.lft.to/lastmile_qr_scan"}}, {"is_disabled": 0, "fusion_lat": 0.0, "lat": 38.86166716666666, "type": "electric_bike", "lon": -76.95070516666667, "is_reserved": 0, "fusion_lon": 0.0, "bike_id": "c1f28d6cca018dabdc36b78ff0a2d533", "name": "c1f28d6cca018dabdc36b78ff0a2d533", "rental_uris": {"ios": "https://dc.lft.to/lastmile_qr_scan", "android": "https://dc.lft.to/lastmile_qr_scan"}}, {"is_disabled": 0, "fusion_lat": 0.0, "lat": 38.9126475, "type": "electric_scooter", "lon": -77.02279066666667, "is_reserved": 0, "fusion_lon": 0.0, "bike_id": "0fc278409b7b378cd184dc957e16790d", "name": "0fc278409b7b378cd184dc957e16790d", "rental_uris": {"ios": "https://dc.lft.to/lastmile_qr_scan", "android": "https://dc.lft.to/lastmile_qr_scan"}}, {"is_disabled": 0, "fusion_lat": 0.0, "lat": 38.90119933333333, "type": "electric_scooter", "lon": -77.044601, "is_reserved": 0, "fusion_lon": 0.0, "bike_id": "74f28d5d1980e1ccb17c49d08dc82885", "name": "74f28d5d1980e1ccb17c49d08dc82885", "rental_uris": {"ios": "https://dc.lft.to/lastmile_qr_scan", "android": "https://dc.lft.to/lastmile_qr_scan"}}, {"is_disabled": 0, "fusion_lat": 0.0, "lat": 38.92376733333333, "type": "electric_scooter", "lon": -77.03543366666666, "is_reserved": 0, "fusion_lon": 0.0, "bike_id": "0dc7452a513bb2750b5bb54fd8a28878", "name": "0dc7452a513bb2750b5bb54fd8a28878", "rental_uris": {"ios": "https://dc.lft.to/lastmile_qr_scan", "android": "https://dc.lft.to/lastmile_qr_scan"}}, {"is_disabled": 0, "fusion_lat": 0.0, "lat": 38.925792333333334, "type": "electric_scooter", "lon": -77.039305, "is_reserved": 0, "fusion_lon": 0.0, "bike_id": "a17976bd35ea04e411cc62d805ec056e", "name": "a17976bd35ea04e411cc62d805ec056e", "rental_uris": {"ios": "https://dc.lft.to/lastmile_qr_scan", "android": "https://dc.lft.to/lastmile_qr_scan"}}, {"is_disabled": 0, "fusion_lat": 0.0, "lat": 38.89780916666667, "type": "electric_scooter", "lon": -77.031851, "is_reserved": 0, "fusion_lon": 0.0, "bike_id": "4be6cf6f98e562d82c32a54215cbc3f7", "name": "4be6cf6f98e562d82c32a54215cbc3f7", "rental_uris": {"ios": "https://dc.lft.to/lastmile_qr_scan", "android": "https://dc.lft.to/lastmile_qr_scan"}}, {"is_disabled": 0, "fusion_lat": 0.0, "lat": 38.9126, "type": "electric_scooter", "lon": -77.04300366666666, "is_reserved": 0, "fusion_lon": 0.0, "bike_id": "295ff8bded8e4f23f15439d67ef8f711", "name": "295ff8bded8e4f23f15439d67ef8f711", "rental_uris": {"ios": "https://dc.lft.to/lastmile_qr_scan", "android": "https://dc.lft.to/lastmile_qr_scan"}}, {"is_disabled": 0, "fusion_lat": 0.0, "lat": 38.8984675, "type": "electric_scooter", "lon": -77.03269533333334, "is_reserved": 0, "fusion_lon": 0.0, "bike_id": "d4db5e66a2d9d752dd5439b5e67805f2", "name": "d4db5e66a2d9d752dd5439b5e67805f2", "rental_uris": {"ios": "https://dc.lft.to/lastmile_qr_scan", "android": "https://dc.lft.to/lastmile_qr_scan"}}, {"is_disabled": 0, "fusion_lat": 0.0, "lat": 38.8833165, "type": "electric_scooter", "lon": -77.017517, "is_reserved": 0, "fusion_lon": 0.0, "bike_id": "6ab11793e035a6c687f7735d7bae80b3", "name": "6ab11793e035a6c687f7735d7bae80b3", "rental_uris": {"ios": "https://dc.lft.to/lastmile_qr_scan", "android": "https://dc.lft.to/lastmile_qr_scan"}}, {"is_disabled": 0, "fusion_lat": 0.0, "lat": 38.924256166666666, "type": "electric_scooter", "lon": -77.045631, "is_reserved": 0, "fusion_lon": 0.0, "bike_id": "abdc00ab4258904e5577e70ebc772101", "name": "abdc00ab4258904e5577e70ebc772101", "rental_uris": {"ios": "https://dc.lft.to/lastmile_qr_scan", "android": "https://dc.lft.to/lastmile_qr_scan"}}, {"is_disabled": 0, "fusion_lat": 0.0, "lat": 38.88577, "type": "electric_scooter", "lon": -77.01544433333333, "is_reserved": 0, "fusion_lon": 0.0, "bike_id": "d38b611acd2a6a57347a664a2a2fc5a8", "name": "d38b611acd2a6a57347a664a2a2fc5a8", "rental_uris": {"ios": "https://dc.lft.to/lastmile_qr_scan", "android": "https://dc.lft.to/lastmile_qr_scan"}}, {"is_disabled": 0, "fusion_lat": 0.0, "lat": 38.916828833333334, "type": "electric_scooter", "lon": -77.02955083333333, "is_reserved": 0, "fusion_lon": 0.0, "bike_id": "c6a4aac0fd79135532ef3b3905ad01df", "name": "c6a4aac0fd79135532ef3b3905ad01df", "rental_uris": {"ios": "https://dc.lft.to/lastmile_qr_scan", "android": "https://dc.lft.to/lastmile_qr_scan"}}, {"is_disabled": 0, "fusion_lat": 0.0, "lat": 38.91705966666667, "type": "electric_scooter", "lon": -77.03095216666667, "is_reserved": 0, "fusion_lon": 0.0, "bike_id": "ba8c8c219c04ca4105f485dd035e1ddb", "name": "ba8c8c219c04ca4105f485dd035e1ddb", "rental_uris": {"ios": "https://dc.lft.to/lastmile_qr_scan", "android": "https://dc.lft.to/lastmile_qr_scan"}}, {"is_disabled": 0, "fusion_lat": 0.0, "lat": 38.90116166666667, "type": "electric_scooter", "lon": -77.043535, "is_reserved": 0, "fusion_lon": 0.0, "bike_id": "925c6a10701a688b67a5817aec1b78c9", "name": "925c6a10701a688b67a5817aec1b78c9", "rental_uris": {"ios": "https://dc.lft.to/lastmile_qr_scan", "android": "https://dc.lft.to/lastmile_qr_scan"}}, {"is_disabled": 0, "fusion_lat": 0.0, "lat": 38.900055333333334, "type": "electric_scooter", "lon": -77.033505, "is_reserved": 0, "fusion_lon": 0.0, "bike_id": "51eee884c427016b7c7a08b9cf3c2ac6", "name": "51eee884c427016b7c7a08b9cf3c2ac6", "rental_uris": {"ios": "https://dc.lft.to/lastmile_qr_scan", "android": "https://dc.lft.to/lastmile_qr_scan"}}, {"is_disabled": 0, "fusion_lat": 0.0, "lat": 38.8846665, "type": "electric_scooter", "lon": -77.02545133333334, "is_reserved": 0, "fusion_lon": 0.0, "bike_id": "223161d1818427d01f43c7a77b9b7dca", "name": "223161d1818427d01f43c7a77b9b7dca", "rental_uris": {"ios": "https://dc.lft.to/lastmile_qr_scan", "android": "https://dc.lft.to/lastmile_qr_scan"}}, {"is_disabled": 0, "fusion_lat": 0.0, "lat": 38.905880833333335, "type": "electric_scooter", "lon": -77.062715, "is_reserved": 0, "fusion_lon": 0.0, "bike_id": "3af13fa47fffd5b876fd68239929a366", "name": "3af13fa47fffd5b876fd68239929a366", "rental_uris": {"ios": "https://dc.lft.to/lastmile_qr_scan", "android": "https://dc.lft.to/lastmile_qr_scan"}}, {"is_disabled": 0, "fusion_lat": 0.0, "lat": 38.90921633333333, "type": "electric_scooter", "lon": -77.04419633333333, "is_reserved": 0, "fusion_lon": 0.0, "bike_id": "5f8dab69d868c2bf24df5f74c1fb20a5", "name": "5f8dab69d868c2bf24df5f74c1fb20a5", "rental_uris": {"ios": "https://dc.lft.to/lastmile_qr_scan", "android": "https://dc.lft.to/lastmile_qr_scan"}}, {"is_disabled": 0, "fusion_lat": 0.0, "lat": 38.94511766666667, "type": "electric_scooter", "lon": -77.03371083333333, "is_reserved": 0, "fusion_lon": 0.0, "bike_id": "17968e29ab9cf46ac9c7992c1c490640", "name": "17968e29ab9cf46ac9c7992c1c490640", "rental_uris": {"ios": "https://dc.lft.to/lastmile_qr_scan", "android": "https://dc.lft.to/lastmile_qr_scan"}}, {"is_disabled": 0, "fusion_lat": 0.0, "lat": 38.907908, "type": "electric_scooter", "lon": -77.04876333333333, "is_reserved": 0, "fusion_lon": 0.0, "bike_id": "f04178bc776ee7b054e094e7190655bf", "name": "f04178bc776ee7b054e094e7190655bf", "rental_uris": {"ios": "https://dc.lft.to/lastmile_qr_scan", "android": "https://dc.lft.to/lastmile_qr_scan"}}, {"is_disabled": 0, "fusion_lat": 0.0, "lat": 38.86418183333333, "type": "electric_scooter", "lon": -76.98047733333334, "is_reserved": 0, "fusion_lon": 0.0, "bike_id": "c0de710ebeb71ff71f10a7f740d5b7f5", "name": "c0de710ebeb71ff71f10a7f740d5b7f5", "rental_uris": {"ios": "https://dc.lft.to/lastmile_qr_scan", "android": "https://dc.lft.to/lastmile_qr_scan"}}, {"is_disabled": 0, "fusion_lat": 0.0, "lat": 38.9244645, "type": "electric_scooter", "lon": -77.02039866666667, "is_reserved": 0, "fusion_lon": 0.0, "bike_id": "c56124cf7ac462059c9ffe7c46a09969", "name": "c56124cf7ac462059c9ffe7c46a09969", "rental_uris": {"ios": "https://dc.lft.to/lastmile_qr_scan", "android": "https://dc.lft.to/lastmile_qr_scan"}},