{"data": {"bikes": [{"bike_id": "7886ad16921a0a113da764149c14cbc3", "type": "electric_scooter", "is_disabled": 0, "lat": 38.90570816666666, "rental_uris": {"ios": "https://dc.lft.to/lastmile_qr_scan", "android": "https://dc.lft.to/lastmile_qr_scan"}, "is_reserved": 0, "fusion_lon": 0.0, "fusion_lat": 0.0, "lon": -77.04456116666667, "name": "7886ad16921a0a113da764149c14cbc3"}, {"bike_id": "a2680d8abf387899cf596e3f30e9122f", "type": "electric_scooter", "is_disabled": 0, "lat": 38.9091515, "rental_uris": {"ios": "https://dc.lft.to/lastmile_qr_scan", "android": "https://dc.lft.to/lastmile_qr_scan"}, "is_reserved": 0, "fusion_lon": 0.0, "fusion_lat": 0.0, "lon": -77.0189085, "name": "a2680d8abf387899cf596e3f30e9122f"}, {"bike_id": "579514ac0069793caec8eb601212ff9d", "type": "electric_scooter", "is_disabled": 0, "lat": 38.9719415, "rental_uris": {"ios": "https://dc.lft.to/lastmile_qr_scan", "android": "https://dc.lft.to/lastmile_qr_scan"}, "is_reserved": 0, "fusion_lon": 0.0, "fusion_lat": 0.0, "lon": -77.0265285, "name": "579514ac0069793caec8eb601212ff9d"}, {"bike_id": "ccb0b0639093927fad279c0cd8260d9a", "type": "electric_scooter", "is_disabled": 0, "lat": 38.866256, "rental_uris": {"ios": "https://dc.lft.to/lastmile_qr_scan", "android": "https://dc.lft.to/lastmile_qr_scan"}, "is_reserved": 0, "fusion_lon": 0.0, "fusion_lat": 0.0, "lon": -76.987176, "name": "ccb0b0639093927fad279c0cd8260d9a"}, {"bike_id": "4b97ad16ee84839d1d41bdb10ca38b22", "type": "electric_scooter", "is_disabled": 0, "lat": 38.8863845, "rental_uris": {"ios": "https://dc.lft.to/lastmile_qr_scan", "android": "https://dc.lft.to/lastmile_qr_scan"}, "is_reserved": 0, "fusion_lon": 0.0, "fusion_lat": 0.0, "lon": -77.02136966666667, "name": "4b97ad16ee84839d1d41bdb10ca38b22"}, {"bike_id": "f83d7954ed01500b72d181a12f690988", "type": "electric_scooter", "is_disabled": 0, "lat": 38.871759, "rental_uris": {"ios": "https://dc.lft.to/lastmile_qr_scan", "android": "https://dc.lft.to/lastmile_qr_scan"}, "is_reserved": 0, "fusion_lon": 0.0, "fusion_lat": 0.0, "lon": -77.00617666666666, "name": "f83d7954ed01500b72d181a12f690988"}, {"bike_id": "be00e1f1427c460f999befe37bcde90d", "type": "electric_scooter", "is_disabled": 0, "lat": 38.90558516666667, "rental_uris": {"ios": "https://dc.lft.to/lastmile_qr_scan", "android": "https://dc.lft.to/lastmile_qr_scan"}, "is_reserved": 0, "fusion_lon": 0.0, "fusion_lat": 0.0, "lon": -77.016363, "name": "be00e1f1427c460f999befe37bcde90d"}, {"bike_id": "d2ada9ab91ff24d1649675eced4b4bcc", "type": "electric_scooter", "is_disabled": 0, "lat": 38.933614166666665, "rental_uris": {"ios": "https://dc.lft.to/lastmile_qr_scan", "android": "https://dc.lft.to/lastmile_qr_scan"}, "is_reserved": 0, "fusion_lon": 0.0, "fusion_lat": 0.0, "lon": -77.08855433333333, "name": "d2ada9ab91ff24d1649675eced4b4bcc"}, {"bike_id": "3b60fd145a46161e90af19f5b6b8a78e", "type": "electric_scooter", "is_disabled": 0, "lat": 38.89756966666667, "rental_uris": {"ios": "https://dc.lft.to/lastmile_qr_scan", "android": "https://dc.lft.to/lastmile_qr_scan"}, "is_reserved": 0, "fusion_lon": 0.0, "fusion_lat": 0.0, "lon": -77.026834, "name": "3b60fd145a46161e90af19f5b6b8a78e"}, {"bike_id": "2c12ca437d7ec80d6e20f0f076fc344c", "type": "electric_bike", "is_disabled": 0, "lat": 38.945041333333336, "rental_uris": {"ios": "https://dc.lft.to/lastmile_qr_scan", "android": "https://dc.lft.to/lastmile_qr_scan"}, "is_reserved": 0, "fusion_lon": 0.0, "fusion_lat": 0.0, "lon": -77.00665666666667, "name": "2c12ca437d7ec80d6e20f0f076fc344c"}, {"bike_id": "5a9a60374d013fe159bc43fe409f79fa", "type": "electric_bike", "is_disabled": 0, "lat": 38.877314, "rental_uris": {"ios": "https://dc.lft.to/lastmile_qr_scan", "android": "https://dc.lft.to/lastmile_qr_scan"}, "is_reserved": 0, "fusion_lon": 0.0, "fusion_lat": 0.0, "lon": -77.0033595, "name": "5a9a60374d013fe159bc43fe409f79fa"}, {"bike_id": "9293cbbe8ef1812da0205e68b279acf9", "type": "electric_scooter", "is_disabled": 0, "lat": 38.9223185, "rental_uris": {"ios": "https://dc.lft.to/lastmile_qr_scan", "android": "https://dc.lft.to/lastmile_qr_scan"}, "is_reserved": 0, "fusion_lon": 0.0, "fusion_lat": 0.0, "lon": -76.9734225, "name": "9293cbbe8ef1812da0205e68b279acf9"}, {"bike_id": "3cd570de007c921491ab16721a1bba32", "type": "electric_bike", "is_disabled": 0, "lat": 38.811695, "rental_uris": {"ios": "https://dc.lft.to/lastmile_qr_scan", "android": "https://dc.lft.to/lastmile_qr_scan"}, "is_reserved": 0, "fusion_lon": 0.0, "fusion_lat": 0.0, "lon": -77.069642, "name": "3cd570de007c921491ab16721a1bba32"}, {"bike_id": "22e05ffc771e362ff7440a871668da26", "type": "electric_bike", "is_disabled": 0, "lat": 38.899963166666666, "rental_uris": {"ios": "https://dc.lft.to/lastmile_qr_scan", "android": "https://dc.lft.to/lastmile_qr_scan"}, "is_reserved": 0, "fusion_lon": 0.0, "fusion_lat": 0.0, "lon": -77.07548916666667, "name": "22e05ffc771e362ff7440a871668da26"}, {"bike_id": "a8997e1ef4f9804f742b2a5ff0150670", "type": "electric_scooter", "is_disabled": 0, "lat": 38.9227315, "rental_uris": {"ios": "https://dc.lft.to/lastmile_qr_scan", "android": "https://dc.lft.to/lastmile_qr_scan"}, "is_reserved": 0, "fusion_lon": 0.0, "fusion_lat": 0.0, "lon": -76.99457716666667, "name": "a8997e1ef4f9804f742b2a5ff0150670"}, {"bike_id": "c1c056d402c3991ab6c21d742d353b2f", "type": "electric_scooter", "is_disabled": 0, "lat": 38.92251816666667, "rental_uris": {"ios": "https://dc.lft.to/lastmile_qr_scan", "android": "https://dc.lft.to/lastmile_qr_scan"}, "is_reserved": 0, "fusion_lon": 0.0, "fusion_lat": 0.0, "lon": -77.03886216666666, "name": "c1c056d402c3991ab6c21d742d353b2f"}, {"bike_id": "caa28186787a920ceb3785988e64636f", "type": "electric_scooter", "is_disabled": 0, "lat": 38.91970383333334, "rental_uris": {"ios": "https://dc.lft.to/lastmile_qr_scan", "android": "https://dc.lft.to/lastmile_qr_scan"}, "is_reserved": 0, "fusion_lon": 0.0, "fusion_lat": 0.0, "lon": -77.04218766666666, "name": "caa28186787a920ceb3785988e64636f"}, {"bike_id": "e85573835ed722d062e54447ad209375", "type": "electric_scooter", "is_disabled": 0, "lat": 38.905539166666664, "rental_uris": {"ios": "https://dc.lft.to/lastmile_qr_scan", "android": "https://dc.lft.to/lastmile_qr_scan"}, "is_reserved": 0, "fusion_lon": 0.0, "fusion_lat": 0.0, "lon": -76.99622433333333, "name": "e85573835ed722d062e54447ad209375"}, {"bike_id": "8b57986f4e514a1d16a50adec8823647", "type": "electric_scooter", "is_disabled": 0, "lat": 38.92482233333333, "rental_uris": {"ios": "https://dc.lft.to/lastmile_qr_scan", "android": "https://dc.lft.to/lastmile_qr_scan"}, "is_reserved": 0, "fusion_lon": 0.0, "fusion_lat": 0.0, "lon": -77.0521105, "name": "8b57986f4e514a1d16a50adec8823647"}, {"bike_id": "404ebc805ff489726cd2e01206e0b18b", "type": "electric_scooter", "is_disabled": 0, "lat": 38.926492, "rental_uris": {"ios": "https://dc.lft.to/lastmile_qr_scan", "android": "https://dc.lft.to/lastmile_qr_scan"}, "is_reserved": 0, "fusion_lon": 0.0, "fusion_lat": 0.0, "lon": -77.0245175, "name": "404ebc805ff489726cd2e01206e0b18b"}, {"bike_id": "e79354c5914e9ddf011bb05a59220d74", "type": "electric_scooter", "is_disabled": 0, "lat": 38.88421966666667, "rental_uris": {"ios": "https://dc.lft.to/lastmile_qr_scan", "android": "https://dc.lft.to/lastmile_qr_scan"}, "is_reserved": 0, "fusion_lon": 0.0, "fusion_lat": 0.0, "lon": -76.95751983333334, "name": "e79354c5914e9ddf011bb05a59220d74"}, {"bike_id": "eb635532ec2fa8c94fe56baf82177e32", "type": "electric_bike", "is_disabled": 0, "lat": 38.804136166666666, "rental_uris": {"ios": "https://dc.lft.to/lastmile_qr_scan", "android": "https://dc.lft.to/lastmile_qr_scan"}, "is_reserved": 0, "fusion_lon": 0.0, "fusion_lat": 0.0, "lon": -77.05553383333333, "name": "eb635532ec2fa8c94fe56baf82177e32"}, {"bike_id": "7585b25cd53ba36e2aba00f11aa95dbd", "type": "electric_scooter", "is_disabled": 0, "lat": 38.905752166666666, "rental_uris": {"ios": "https://dc.lft.to/lastmile_qr_scan", "android": "https://dc.lft.to/lastmile_qr_scan"}, "is_reserved": 0, "fusion_lon": 0.0, "fusion_lat": 0.0, "lon": -77.005987, "name": "7585b25cd53ba36e2aba00f11aa95dbd"}, {"bike_id": "9312282ae35df2e716864e9b05f4c20d", "type": "electric_bike", "is_disabled": 0, "lat": 38.9533395, "rental_uris": {"ios": "https://dc.lft.to/lastmile_qr_scan", "android": "https://dc.lft.to/lastmile_qr_scan"}, "is_reserved": 0, "fusion_lon": 0.0, "fusion_lat": 0.0, "lon": -76.98253216666667, "name": "9312282ae35df2e716864e9b05f4c20d"}, {"bike_id": "c4f2a616890e9aeae39cb07ee23c56df", "type": "electric_scooter", "is_disabled": 0, "lat": 38.90721666666666, "rental_uris": {"ios": "https://dc.lft.to/lastmile_qr_scan", "android": "https://dc.lft.to/lastmile_qr_scan"}, "is_reserved": 0, "fusion_lon": 0.0, "fusion_lat": 0.0, "lon": -77.01021483333334, "name": "c4f2a616890e9aeae39cb07ee23c56df"}, {"bike_id": "ad16070a43cb2cc8bc90a2a67e5de80d", "type": "electric_scooter", "is_disabled": 0, "lat": 38.93470033333333, "rental_uris": {"ios": "https://dc.lft.to/lastmile_qr_scan", "android": "https://dc.lft.to/lastmile_qr_scan"}, "is_reserved": 0, "fusion_lon": 0.0, "fusion_lat": 0.0, "lon": -77.02765466666666, "name": "ad16070a43cb2cc8bc90a2a67e5de80d"}, {"bike_id": "7ae81d74facf72e83567983828c3bbff", "type": "electric_scooter", "is_disabled": 0, "lat": 38.9441665, "rental_uris": {"ios": "https://dc.lft.to/lastmile_qr_scan", "android": "https://dc.lft.to/lastmile_qr_scan"}, "is_reserved": 0, "fusion_lon": 0.0, "fusion_lat": 0.0, "lon": -77.01778316666666, "name": "7ae81d74facf72e83567983828c3bbff"}, {"bike_id": "8c92fe435d91b4722928cfb90b45045c", "type": "electric_scooter", "is_disabled": 0, "lat": 38.86647416666667, "rental_uris": {"ios": "https://dc.lft.to/lastmile_qr_scan", "android": "https://dc.lft.to/lastmile_qr_scan"}, "is_reserved": 0, "fusion_lon": 0.0, "fusion_lat": 0.0, "lon": -76.98813733333333, "name": "8c92fe435d91b4722928cfb90b45045c"}, {"bike_id": "3120e7f1ba86baba90c2d14968b76dde", "type": "electric_bike", "is_disabled": 0, "lat": 38.983583333333335, "rental_uris": {"ios": "https://dc.lft.to/lastmile_qr_scan", "android": "https://dc.lft.to/lastmile_qr_scan"}, "is_reserved": 0, "fusion_lon": 0.0, "fusion_lat": 0.0, "lon": -76.972111, "name": "3120e7f1ba86baba90c2d14968b76dde"}, {"bike_id": "764d970dd0b56d1c4b1de28b0aaeb8b8", "type": "electric_scooter", "is_disabled": 0, "lat": 38.927444, "rental_uris": {"ios": "https://dc.lft.to/lastmile_qr_scan", "android": "https://dc.lft.to/lastmile_qr_scan"}, "is_reserved": 0, "fusion_lon": 0.0, "fusion_lat": 0.0, "lon": -77.02532566666666, "name": "764d970dd0b56d1c4b1de28b0aaeb8b8"}, {"bike_id": "8129ea6b9286eb0f1910f88a7492f17f", "type": "electric_bike", "is_disabled": 0, "lat": 38.93773183333333, "rental_uris": {"ios": "https://dc.lft.to/lastmile_qr_scan", "android": "https://dc.lft.to/lastmile_qr_scan"}, "is_reserved": 0, "fusion_lon": 0.0, "fusion_lat": 0.0, "lon": -77.0187995, "name": "8129ea6b9286eb0f1910f88a7492f17f"}, {"bike_id": "d5bd19aab144716f3eccc95ba71de558", "type": "electric_scooter", "is_disabled": 0, "lat": 38.8668405, "rental_uris": {"ios": "https://dc.lft.to/lastmile_qr_scan", "android": "https://dc.lft.to/lastmile_qr_scan"}, "is_reserved": 0, "fusion_lon": 0.0, "fusion_lat": 0.0, "lon": -76.98588083333334, "name": "d5bd19aab144716f3eccc95ba71de558"}, {"bike_id": "aac3c8d90b718aee6c5d7a0d81f03bf7", "type": "electric_scooter", "is_disabled": 0, "lat": 38.897413, "rental_uris": {"ios": "https://dc.lft.to/lastmile_qr_scan", "android": "https://dc.lft.to/lastmile_qr_scan"}, "is_reserved": 0, "fusion_lon": 0.0, "fusion_lat": 0.0, "lon": -77.04614516666666, "name": "aac3c8d90b718aee6c5d7a0d81f03bf7"}, {"bike_id": "6fabb604b2224b166cc79b518d4c5765", "type": "electric_scooter", "is_disabled": 0, "lat": 38.911834166666665, "rental_uris": {"ios": "https://dc.lft.to/lastmile_qr_scan", "android": "https://dc.lft.to/lastmile_qr_scan"}, "is_reserved": 0, "fusion_lon": 0.0, "fusion_lat": 0.0, "lon": -77.01115016666667, "name": "6fabb604b2224b166cc79b518d4c5765"}, {"bike_id": "7b5c1574eeb17667ad3997033354f76b", "type": "electric_bike", "is_disabled": 0, "lat": 38.85352483333333, "rental_uris": {"ios": "https://dc.lft.to/lastmile_qr_scan", "android": "https://dc.lft.to/lastmile_qr_scan"}, "is_reserved": 0, "fusion_lon": 0.0, "fusion_lat": 0.0, "lon": -77.13468566666667, "name": "7b5c1574eeb17667ad3997033354f76b"}, {"bike_id": "0af50612ce6524eadc7437bd2459704d", "type": "electric_scooter", "is_disabled": 0, "lat": 38.9140335, "rental_uris": {"ios": "https://dc.lft.to/lastmile_qr_scan", "android": "https://dc.lft.to/lastmile_qr_scan"}, "is_reserved": 0, "fusion_lon": 0.0, "fusion_lat": 0.0, "lon": -77.0303045, "name": "0af50612ce6524eadc7437bd2459704d"}, {"bike_id": "edb774be5b6098e6d45300c3d473415d", "type": "electric_scooter", "is_disabled": 0, "lat": 38.9428905, "rental_uris": {"ios": "https://dc.lft.to/lastmile_qr_scan", "android": "https://dc.lft.to/lastmile_qr_scan"}, "is_reserved": 0, "fusion_lon": 0.0, "fusion_lat": 0.0, "lon": -77.02171166666666, "name": "edb774be5b6098e6d45300c3d473415d"}, {"bike_id": "9a3f6904bee77ac2b51c51c18fa40973", "type": "electric_scooter", "is_disabled": 0, "lat": 38.9246835, "rental_uris": {"ios": "https://dc.lft.to/lastmile_qr_scan", "android": "https://dc.lft.to/lastmile_qr_scan"}, "is_reserved": 0, "fusion_lon": 0.0, "fusion_lat": 0.0, "lon": -77.02762466666667, "name": "9a3f6904bee77ac2b51c51c18fa40973"}, {"bike_id": "2e33fbf464a624e7554101f3925331d8", "type": "electric_scooter", "is_disabled": 0, "lat": 38.89586, "rental_uris": {"ios": "https://dc.lft.to/lastmile_qr_scan", "android": "https://dc.lft.to/lastmile_qr_scan"}, "is_reserved": 0, "fusion_lon": 0.0, "fusion_lat": 0.0, "lon": -77.00509966666667, "name": "2e33fbf464a624e7554101f3925331d8"}, {"bike_id": "c0b09d5b70e77feee6a0f2b31fb3d718", "type": "electric_scooter", "is_disabled": 0, "lat": 38.909104, "rental_uris": {"ios": "https://dc.lft.to/lastmile_qr_scan", "android": "https://dc.lft.to/lastmile_qr_scan"}, "is_reserved": 0, "fusion_lon": 0.0, "fusion_lat": 0.0, "lon": -77.07370866666666, "name": "c0b09d5b70e77feee6a0f2b31fb3d718"}, {"bike_id": "e36e4e4ed9d20598f67bdb0aec181878", "type": "electric_scooter", "is_disabled": 0, "lat": 38.91348933333333, "rental_uris": {"ios": "https://dc.lft.to/lastmile_qr_scan", "android": "https://dc.lft.to/lastmile_qr_scan"}, "is_reserved": 0, "fusion_lon": 0.0, "fusion_lat": 0.0, "lon": -77.03209216666667, "name": "e36e4e4ed9d20598f67bdb0aec181878"}, {"bike_id": "fb2f046f32b184ee0a13e0908fbb5fe6", "type": "electric_bike", "is_disabled": 0, "lat": 38.870790666666664, "rental_uris": {"ios": "https://dc.lft.to/lastmile_qr_scan", "android": "https://dc.lft.to/lastmile_qr_scan"}, "is_reserved": 0, "fusion_lon": 0.0, "fusion_lat": 0.0, "lon": -76.96437133333333, "name": "fb2f046f32b184ee0a13e0908fbb5fe6"}, {"bike_id": "c69a776cfdc899bc56a46c8c1daf3a0b", "type": "electric_scooter", "is_disabled": 0, "lat": 38.90104616666667, "rental_uris": {"ios": "https://dc.lft.to/lastmile_qr_scan", "android": "https://dc.lft.to/lastmile_qr_scan"}, "is_reserved": 0, "fusion_lon": 0.0, "fusion_lat": 0.0, "lon": -77.01765383333333, "name": "c69a776cfdc899bc56a46c8c1daf3a0b"}, {"bike_id": "11834e745adb86065f24bee96acf4d4c", "type": "electric_scooter", "is_disabled": 0, "lat": 38.93672083333333, "rental_uris": {"ios": "https://dc.lft.to/lastmile_qr_scan", "android": "https://dc.lft.to/lastmile_qr_scan"}, "is_reserved": 0, "fusion_lon": 0.0, "fusion_lat": 0.0, "lon": -77.0359045, "name": "11834e745adb86065f24bee96acf4d4c"}, {"bike_id": "0cf6edc1f2753f4ba993abeb28f3bd50", "type": "electric_scooter", "is_disabled": 0, "lat": 38.921805, "rental_uris": {"ios": "https://dc.lft.to/lastmile_qr_scan", "android": "https://dc.lft.to/lastmile_qr_scan"}, "is_reserved": 0, "fusion_lon": 0.0, "fusion_lat": 0.0, "lon": -77.042368, "name": "0cf6edc1f2753f4ba993abeb28f3bd50"}, {"bike_id": "5b2249f8b7205704d1b0cad48468292b", "type": "electric_scooter", "is_disabled": 0, "lat": 38.9275005, "rental_uris": {"ios": "https://dc.lft.to/lastmile_qr_scan", "android": "https://dc.lft.to/lastmile_qr_scan"}, "is_reserved": 0, "fusion_lon": 0.0, "fusion_lat": 0.0, "lon": -77.0253395, "name": "5b2249f8b7205704d1b0cad48468292b"}, {"bike_id": "e89192adb4b80f5ebe3c070a234d61dd", "type": "electric_scooter", "is_disabled": 0, "lat": 38.9028435, "rental_uris": {"ios": "https://dc.lft.to/lastmile_qr_scan", "android": "https://dc.lft.to/lastmile_qr_scan"}, "is_reserved": 0, "fusion_lon": 0.0, "fusion_lat": 0.0, "lon": -76.99044, "name": "e89192adb4b80f5ebe3c070a234d61dd"}, {"bike_id": "df7d137a421db792b98b96c50109d154", "type": "electric_scooter", "is_disabled": 0, "lat": 38.931800833333334, "rental_uris": {"ios": "https://dc.lft.to/lastmile_qr_scan", "android": "https://dc.lft.to/lastmile_qr_scan"}, "is_reserved": 0, "fusion_lon": 0.0, "fusion_lat": 0.0, "lon": -77.02376916666667, "name": "df7d137a421db792b98b96c50109d154"}, {"bike_id": "2be1b50bc8968051f59548b54a4aa4d8", "type": "electric_scooter", "is_disabled": 0, "lat": 38.929495333333335, "rental_uris": {"ios": "https://dc.lft.to/lastmile_qr_scan", "android": "https://dc.lft.to/lastmile_qr_scan"}, "is_reserved": 0, "fusion_lon": 0.0, "fusion_lat": 0.0, "lon": -77.01841116666667, "name": "2be1b50bc8968051f59548b54a4aa4d8"}, {"bike_id": "f853241cbeeb3072dc6a4fc88d6d0b3c", "type": "electric_scooter", "is_disabled": 0, "lat": 38.88745866666667, "rental_uris": {"ios": "https://dc.lft.to/lastmile_qr_scan", "android": "https://dc.lft.to/lastmile_qr_scan"}, "is_reserved": 0, "fusion_lon": 0.0, "fusion_lat": 0.0, "lon": -76.99627516666666, "name": "f853241cbeeb3072dc6a4fc88d6d0b3c"}, {"bike_id": "b030e2068ffcbd3daebd42127ab9554d", "type": "electric_scooter", "is_disabled": 0, "lat": 38.8887725, "rental_uris": {"ios": "https://dc.lft.to/lastmile_qr_scan", "android": "https://dc.lft.to/lastmile_qr_scan"}, "is_reserved": 0, "fusion_lon": 0.0, "fusion_lat": 0.0, "lon": -76.9903945, "name": "b030e2068ffcbd3daebd42127ab9554d"}, {"bike_id": "5d3b20f2b9f4734f8470d37afab7a213", "type": "electric_scooter", "is_disabled": 0, "lat": 38.95473033333333, "rental_uris": {"ios": "https://dc.lft.to/lastmile_qr_scan", "android": "https://dc.lft.to/lastmile_qr_scan"}, "is_reserved": 0, "fusion_lon": 0.0, "fusion_lat": 0.0, "lon": -77.09252183333334, "name": "5d3b20f2b9f4734f8470d37afab7a213"}, {"bike_id": "727e4c15c86e46e8d7f9697f8b1f6942", "type": "electric_scooter", "is_disabled": 0, "lat": 38.9341265, "rental_uris": {"ios": "https://dc.lft.to/lastmile_qr_scan", "android": "https://dc.lft.to/lastmile_qr_scan"}, "is_reserved": 0, "fusion_lon": 0.0, "fusion_lat": 0.0, "lon": -77.03918033333333, "name": "727e4c15c86e46e8d7f9697f8b1f6942"}, {"bike_id": "b5e21c7bdea567dc2eff85f09156d0ec", "type": "electric_scooter", "is_disabled": 0, "lat": 38.9053125, "rental_uris": {"ios": "https://dc.lft.to/lastmile_qr_scan", "android": "https://dc.lft.to/lastmile_qr_scan"}, "is_reserved": 0, "fusion_lon": 0.0, "fusion_lat": 0.0, "lon": -76.996337, "name": "b5e21c7bdea567dc2eff85f09156d0ec"}, {"bike_id": "763acf0979c5ee41ff2e5d59450d30c9", "type": "electric_scooter", "is_disabled": 0, "lat": 38.90170533333333, "rental_uris": {"ios": "https://dc.lft.to/lastmile_qr_scan", "android": "https://dc.lft.to/lastmile_qr_scan"}, "is_reserved": 0, "fusion_lon": 0.0, "fusion_lat": 0.0, "lon": -76.98452683333333, "name": "763acf0979c5ee41ff2e5d59450d30c9"}, {"bike_id": "28db5dc5c81a2815caffafd92daa5c35", "type": "electric_scooter", "is_disabled": 0, "lat": 38.94290766666667, "rental_uris": {"ios": "https://dc.lft.to/lastmile_qr_scan", "android": "https://dc.lft.to/lastmile_qr_scan"}, "is_reserved": 0, "fusion_lon": 0.0, "fusion_lat": 0.0, "lon": -77.02173483333333, "name": "28db5dc5c81a2815caffafd92daa5c35"}, {"bike_id": "f349d7b45417bca51eee7872a0dc7bcf", "type": "electric_bike", "is_disabled": 0, "lat": 38.8541275, "rental_uris": {"ios": "https://dc.lft.to/lastmile_qr_scan", "android": "https://dc.lft.to/lastmile_qr_scan"}, "is_reserved": 0, "fusion_lon": 0.0, "fusion_lat": 0.0, "lon": -77.12081466666666, "name": "f349d7b45417bca51eee7872a0dc7bcf"}, {"bike_id": "f7080ef22c8b65c4eba49b2cb90f965f", "type": "electric_scooter", "is_disabled": 0, "lat": 38.90782316666667, "rental_uris": {"ios": "https://dc.lft.to/lastmile_qr_scan", "android": "https://dc.lft.to/lastmile_qr_scan"}, "is_reserved": 0, "fusion_lon": 0.0, "fusion_lat": 0.0, "lon": -77.04506883333333, "name": "f7080ef22c8b65c4eba49b2cb90f965f"}, {"bike_id": "36f620acb8e07189c7779d3b115b405d", "type": "electric_scooter", "is_disabled": 0, "lat": 38.948397166666666, "rental_uris": {"ios": "https://dc.lft.to/lastmile_qr_scan", "android": "https://dc.lft.to/lastmile_qr_scan"}, "is_reserved": 0, "fusion_lon": 0.0, "fusion_lat": 0.0, "lon": -77.02545316666667, "name": "36f620acb8e07189c7779d3b115b405d"}, {"bike_id": "11be59263ce565cb101d4bea59a60a89", "type": "electric_scooter", "is_disabled": 0, "lat": 38.904213, "rental_uris": {"ios": "https://dc.lft.to/lastmile_qr_scan", "android": "https://dc.lft.to/lastmile_qr_scan"}, "is_reserved": 0, "fusion_lon": 0.0, "fusion_lat": 0.0, "lon": -76.97374933333333, "name": "11be59263ce565cb101d4bea59a60a89"}, {"bike_id": "f596a07324cec5df72fbab915ea2b227", "type": "electric_scooter", "is_disabled": 0, "lat": 38.924501, "rental_uris": {"ios": "https://dc.lft.to/lastmile_qr_scan", "android": "https://dc.lft.to/lastmile_qr_scan"}, "is_reserved": 0, "fusion_lon": 0.0, "fusion_lat": 0.0, "lon": -77.02414733333333, "name": "f596a07324cec5df72fbab915ea2b227"}, {"bike_id": "5639dccea215d50849440d8f99b3479f", "type": "electric_scooter", "is_disabled": 0, "lat": 38.9077925, "rental_uris": {"ios": "https://dc.lft.to/lastmile_qr_scan", "android": "https://dc.lft.to/lastmile_qr_scan"}, "is_reserved": 0, "fusion_lon": 0.0, "fusion_lat": 0.0, "lon": -77.00196666666666, "name": "5639dccea215d50849440d8f99b3479f"}, {"bike_id": "c75ae72f3464b9ce28ee9635fbb79696", "type": "electric_scooter", "is_disabled": 0, "lat": 38.933392833333336, "rental_uris": {"ios": "https://dc.lft.to/lastmile_qr_scan", "android": "https://dc.lft.to/lastmile_qr_scan"}, "is_reserved": 0, "fusion_lon": 0.0, "fusion_lat": 0.0, "lon": -77.0398935, "name": "c75ae72f3464b9ce28ee9635fbb79696"}, {"bike_id": "6bdb731d0a997426944b03375f814e5f", "type": "electric_scooter", "is_disabled": 0, "lat": 38.86564333333333, "rental_uris": {"ios": "https://dc.lft.to/lastmile_qr_scan", "android": "https://dc.lft.to/lastmile_qr_scan"}, "is_reserved": 0, "fusion_lon": 0.0, "fusion_lat": 0.0, "lon": -76.98213266666667, "name": "6bdb731d0a997426944b03375f814e5f"}, {"bike_id": "21108f61dc1cebc32c751f7f9e0124a2", "type": "electric_scooter", "is_disabled": 0, "lat": 38.920209666666665, "rental_uris": {"ios": "https://dc.lft.to/lastmile_qr_scan", "android": "https://dc.lft.to/lastmile_qr_scan"}, "is_reserved": 0, "fusion_lon": 0.0, "fusion_lat": 0.0, "lon": -77.02310566666667, "name": "21108f61dc1cebc32c751f7f9e0124a2"}, {"bike_id": "dd4052da99e8a4ad4d5c704a38710313", "type": "electric_scooter", "is_disabled": 0, "lat": 38.92319, "rental_uris": {"ios": "https://dc.lft.to/lastmile_qr_scan", "android": "https://dc.lft.to/lastmile_qr_scan"}, "is_reserved": 0, "fusion_lon": 0.0, "fusion_lat": 0.0, "lon": -77.02142933333333, "name": "dd4052da99e8a4ad4d5c704a38710313"}, {"bike_id": "32282f25ee0dae476427cafa83229eac", "type": "electric_scooter", "is_disabled": 0, "lat": 38.928415, "rental_uris": {"ios": "https://dc.lft.to/lastmile_qr_scan", "android": "https://dc.lft.to/lastmile_qr_scan"}, "is_reserved": 0, "fusion_lon": 0.0, "fusion_lat": 0.0, "lon": -77.020112, "name": "32282f25ee0dae476427cafa83229eac"}, {"bike_id": "226bfb12fd770d43131bf858b6a82bce", "type": "electric_scooter", "is_disabled": 0, "lat": 38.9161305, "rental_uris": {"ios": "https://dc.lft.to/lastmile_qr_scan", "android": "https://dc.lft.to/lastmile_qr_scan"}, "is_reserved": 0, "fusion_lon": 0.0, "fusion_lat": 0.0, "lon": -77.03645083333333, "name": "226bfb12fd770d43131bf858b6a82bce"}, {"bike_id": "0e886d4fdde7761704db7131a20227ec", "type": "electric_scooter", "is_disabled": 0, "lat": 38.91923383333334, "rental_uris": {"ios": "https://dc.lft.to/lastmile_qr_scan", "android": "https://dc.lft.to/lastmile_qr_scan"}, "is_reserved": 0, "fusion_lon": 0.0, "fusion_lat": 0.0, "lon": -77.03423533333333, "name": "0e886d4fdde7761704db7131a20227ec"}, {"bike_id": "a02045cd5fc1c446181fdf87cac84ab2", "type": "electric_scooter", "is_disabled": 0, "lat": 38.907292, "rental_uris": {"ios": "https://dc.lft.to/lastmile_qr_scan", "android": "https://dc.lft.to/lastmile_qr_scan"}, "is_reserved": 0, "fusion_lon": 0.0, "fusion_lat": 0.0, "lon": -77.02890283333333, "name": "a02045cd5fc1c446181fdf87cac84ab2"}, {"bike_id": "31beee576bd32ae868fa0f244ea04e95", "type": "electric_scooter", "is_disabled": 0, "lat": 38.926813333333335, "rental_uris": {"ios": "https://dc.lft.to/lastmile_qr_scan", "android": "https://dc.lft.to/lastmile_qr_scan"}, "is_reserved": 0, "fusion_lon": 0.0, "fusion_lat": 0.0, "lon": -77.0298855, "name": "31beee576bd32ae868fa0f244ea04e95"}, {"bike_id": "55af35b5785287287add078b4ef0b971", "type": "electric_bike", "is_disabled": 0, "lat": 38.8452475, "rental_uris": {"ios": "https://dc.lft.to/lastmile_qr_scan", "android": "https://dc.lft.to/lastmile_qr_scan"}, "is_reserved": 0, "fusion_lon": 0.0, "fusion_lat": 0.0, "lon": -76.97398, "name": "55af35b5785287287add078b4ef0b971"}, {"bike_id": "3bff4ae51d8ddb722665c935e99cd7e4", "type": "electric_scooter", "is_disabled": 0, "lat": 38.92618433333333, "rental_uris": {"ios": "https://dc.lft.to/lastmile_qr_scan", "android": "https://dc.lft.to/lastmile_qr_scan"}, "is_reserved": 0, "fusion_lon": 0.0, "fusion_lat": 0.0, "lon": -77.04187283333333, "name": "3bff4ae51d8ddb722665c935e99cd7e4"}, {"bike_id": "877447f33fcb68e98d5e44736d6d6a11", "type": "electric_scooter", "is_disabled": 0, "lat": 38.94711216666666, "rental_uris": {"ios": "https://dc.lft.to/lastmile_qr_scan", "android": "https://dc.lft.to/lastmile_qr_scan"}, "is_reserved": 0, "fusion_lon": 0.0, "fusion_lat": 0.0, "lon": -77.03318333333333, "name": "877447f33fcb68e98d5e44736d6d6a11"}, {"bike_id": "b81a42a4c246dc0c4678da37a3055503", "type": "electric_scooter", "is_disabled": 0, "lat": 38.898582, "rental_uris": {"ios": "https://dc.lft.to/lastmile_qr_scan", "android": "https://dc.lft.to/lastmile_qr_scan"}, "is_reserved": 0, "fusion_lon": 0.0, "fusion_lat": 0.0, "lon": -77.0408405, "name": "b81a42a4c246dc0c4678da37a3055503"}, {"bike_id": "80bde81230ba1143856467c3aa56f5cf", "type": "electric_scooter", "is_disabled": 0, "lat": 38.907908166666665, "rental_uris": {"ios": "https://dc.lft.to/lastmile_qr_scan", "android": "https://dc.lft.to/lastmile_qr_scan"}, "is_reserved": 0, "fusion_lon": 0.0, "fusion_lat": 0.0, "lon": -77.048013, "name": "80bde81230ba1143856467c3aa56f5cf"}, {"bike_id": "39521be59aace98d5fd52e503f093828", "type": "electric_bike", "is_disabled": 0, "lat": 38.86617583333334, "rental_uris": {"ios": "https://dc.lft.to/lastmile_qr_scan", "android": "https://dc.lft.to/lastmile_qr_scan"}, "is_reserved": 0, "fusion_lon": 0.0, "fusion_lat": 0.0, "lon": -76.9457015, "name": "39521be59aace98d5fd52e503f093828"}, {"bike_id": "e75e2505db1d2b461a0af16a510176e8", "type": "electric_scooter", "is_disabled": 0, "lat": 38.8979245, "rental_uris": {"ios": "https://dc.lft.to/lastmile_qr_scan", "android": "https://dc.lft.to/lastmile_qr_scan"}, "is_reserved": 0, "fusion_lon": 0.0, "fusion_lat": 0.0, "lon": -77.02204283333333, "name": "e75e2505db1d2b461a0af16a510176e8"}, {"bike_id": "8df846f20a001ec00d27cace04e7481b", "type": "electric_scooter", "is_disabled": 0, "lat": 38.8985085, "rental_uris": {"ios": "https://dc.lft.to/lastmile_qr_scan", "android": "https://dc.lft.to/lastmile_qr_scan"}, "is_reserved": 0, "fusion_lon": 0.0, "fusion_lat": 0.0, "lon": -76.99032533333333, "name": "8df846f20a001ec00d27cace04e7481b"}, {"bike_id": "921e1e04257e3c2793966b290a2419a6", "type": "electric_scooter", "is_disabled": 0, "lat": 38.92911866666667, "rental_uris": {"ios": "https://dc.lft.to/lastmile_qr_scan", "android": "https://dc.lft.to/lastmile_qr_scan"}, "is_reserved": 0, "fusion_lon": 0.0, "fusion_lat": 0.0, "lon": -77.0208675, "name": "921e1e04257e3c2793966b290a2419a6"}, {"bike_id": "2aefd84c020147cdb4235279a449b7e0", "type": "electric_scooter", "is_disabled": 0, "lat": 38.920578166666665, "rental_uris": {"ios": "https://dc.lft.to/lastmile_qr_scan", "android": "https://dc.lft.to/lastmile_qr_scan"}, "is_reserved": 0, "fusion_lon": 0.0, "fusion_lat": 0.0, "lon": -77.02438683333334, "name": "2aefd84c020147cdb4235279a449b7e0"}, {"bike_id": "d5ce348f6583d14ec1b8dcde3653f965", "type": "electric_scooter", "is_disabled": 0, "lat": 38.9050725, "rental_uris": {"ios": "https://dc.lft.to/lastmile_qr_scan", "android": "https://dc.lft.to/lastmile_qr_scan"}, "is_reserved": 0, "fusion_lon": 0.0, "fusion_lat": 0.0, "lon": -77.06384116666666, "name": "d5ce348f6583d14ec1b8dcde3653f965"}, {"bike_id": "a57c9a5c47d739e42ecac187a44f9904", "type": "electric_scooter", "is_disabled": 0, "lat": 38.927725, "rental_uris": {"ios": "https://dc.lft.to/lastmile_qr_scan", "android": "https://dc.lft.to/lastmile_qr_scan"}, "is_reserved": 0, "fusion_lon": 0.0, "fusion_lat": 0.0, "lon": -77.02920183333333, "name": "a57c9a5c47d739e42ecac187a44f9904"}, {"bike_id": "d53a378d53c6b8f2ef090f93427d3ed0", "type": "electric_scooter", "is_disabled": 0, "lat": 38.905275833333334, "rental_uris": {"ios": "https://dc.lft.to/lastmile_qr_scan", "android": "https://dc.lft.to/lastmile_qr_scan"}, "is_reserved": 0, "fusion_lon": 0.0, "fusion_lat": 0.0, "lon": -77.059022, "name": "d53a378d53c6b8f2ef090f93427d3ed0"}, {"bike_id": "d79948b7322d43712f184ed2d11a31cc", "type": "electric_scooter", "is_disabled": 0, "lat": 38.907711, "rental_uris": {"ios": "https://dc.lft.to/lastmile_qr_scan", "android": "https://dc.lft.to/lastmile_qr_scan"}, "is_reserved": 0, "fusion_lon": 0.0, "fusion_lat": 0.0, "lon": -77.07169866666666, "name": "d79948b7322d43712f184ed2d11a31cc"}, {"bike_id": "141f90777c19487a93bda7d81dd05b8e", "type": "electric_scooter", "is_disabled": 0, "lat": 38.90954283333333, "rental_uris": {"ios": "https://dc.lft.to/lastmile_qr_scan", "android": "https://dc.lft.to/lastmile_qr_scan"}, "is_reserved": 0, "fusion_lon": 0.0, "fusion_lat": 0.0, "lon": -77.026071, "name": "141f90777c19487a93bda7d81dd05b8e"}, {"bike_id": "9d60ba281cdcfc3d64515d001fe1cb7d", "type": "electric_scooter", "is_disabled": 0, "lat": 38.90812483333333, "rental_uris": {"ios": "https://dc.lft.to/lastmile_qr_scan", "android": "https://dc.lft.to/lastmile_qr_scan"}, "is_reserved": 0, "fusion_lon": 0.0, "fusion_lat": 0.0, "lon": -77.02981783333334, "name": "9d60ba281cdcfc3d64515d001fe1cb7d"}, {"bike_id": "88fd9f57d65c9eef4c908198a1ae7d2e", "type": "electric_scooter", "is_disabled": 0, "lat": 38.912671833333334, "rental_uris": {"ios": "https://dc.lft.to/lastmile_qr_scan", "android": "https://dc.lft.to/lastmile_qr_scan"}, "is_reserved": 0, "fusion_lon": 0.0, "fusion_lat": 0.0, "lon": -77.01885366666667, "name": "88fd9f57d65c9eef4c908198a1ae7d2e"}, {"bike_id": "58dafa767e82b9127b09c91dd6c42a0f", "type": "electric_scooter", "is_disabled": 0, "lat": 38.898804166666665, "rental_uris": {"ios": "https://dc.lft.to/lastmile_qr_scan", "android": "https://dc.lft.to/lastmile_qr_scan"}, "is_reserved": 0, "fusion_lon": 0.0, "fusion_lat": 0.0, "lon": -76.93177216666666, "name": "58dafa767e82b9127b09c91dd6c42a0f"}, {"bike_id": "46f60c30695890bf9d882f1b510f6369", "type": "electric_scooter", "is_disabled": 0, "lat": 38.92758216666667, "rental_uris": {"ios": "https://dc.lft.to/lastmile_qr_scan", "android": "https://dc.lft.to/lastmile_qr_scan"}, "is_reserved": 0, "fusion_lon": 0.0, "fusion_lat": 0.0, "lon": -77.028575, "name": "46f60c30695890bf9d882f1b510f6369"}, {"bike_id": "65eabe18e4c13a664c89f18e7a6c81d0", "type": "electric_scooter", "is_disabled": 0, "lat": 38.91630816666667, "rental_uris": {"ios": "https://dc.lft.to/lastmile_qr_scan", "android": "https://dc.lft.to/lastmile_qr_scan"}, "is_reserved": 0, "fusion_lon": 0.0, "fusion_lat": 0.0, "lon": -77.01435533333333, "name": "65eabe18e4c13a664c89f18e7a6c81d0"}, {"bike_id": "7c03ab28f6eb4ffe3b401d8ed9845f9e", "type": "electric_scooter", "is_disabled": 0, "lat": 38.89842083333333, "rental_uris": {"ios": "https://dc.lft.to/lastmile_qr_scan", "android": "https://dc.lft.to/lastmile_qr_scan"}, "is_reserved": 0, "fusion_lon": 0.0, "fusion_lat": 0.0, "lon": -76.9462805, "name": "7c03ab28f6eb4ffe3b401d8ed9845f9e"}, {"bike_id": "7333f84373f7d13073e6cd7dac359eef", "type": "electric_bike", "is_disabled": 0, "lat": 38.86154233333333, "rental_uris": {"ios": "https://dc.lft.to/lastmile_qr_scan", "android": "https://dc.lft.to/lastmile_qr_scan"}, "is_reserved": 0, "fusion_lon": 0.0, "fusion_lat": 0.0, "lon": -77.09146733333333, "name": "7333f84373f7d13073e6cd7dac359eef"}, {"bike_id": "547d7948de1fde9ba3e1aa854ec3a446", "type": "electric_bike", "is_disabled": 0, "lat": 38.9296645, "rental_uris": {"ios": "https://dc.lft.to/lastmile_qr_scan", "android": "https://dc.lft.to/lastmile_qr_scan"}, "is_reserved": 0, "fusion_lon": 0.0, "fusion_lat": 0.0, "lon": -77.18562166666666, "name": "547d7948de1fde9ba3e1aa854ec3a446"}, {"bike_id": "9476a0b191a955ac5c88794aa1646114", "type": "electric_scooter", "is_disabled": 0, "lat": 38.91216683333333, "rental_uris": {"ios": "https://dc.lft.to/lastmile_qr_scan", "android": "https://dc.lft.to/lastmile_qr_scan"}, "is_reserved": 0, "fusion_lon": 0.0, "fusion_lat": 0.0, "lon": -77.03187483333333, "name": "9476a0b191a955ac5c88794aa1646114"}, {"bike_id": "ce5850ba052cd4babf33c503680737b4", "type": "electric_scooter", "is_disabled": 0, "lat": 38.9363085, "rental_uris": {"ios": "https://dc.lft.to/lastmile_qr_scan", "android": "https://dc.lft.to/lastmile_qr_scan"}, "is_reserved": 0, "fusion_lon": 0.0, "fusion_lat": 0.0, "lon": -77.058849, "name": "ce5850ba052cd4babf33c503680737b4"}, {"bike_id": "98cfcfb636ae694615bebaa7b4ba0235", "type": "electric_scooter", "is_disabled": 0, "lat": 38.92789, "rental_uris": {"ios": "https://dc.lft.to/lastmile_qr_scan", "android": "https://dc.lft.to/lastmile_qr_scan"}, "is_reserved": 0, "fusion_lon": 0.0, "fusion_lat": 0.0, "lon": -77.02130716666667, "name": "98cfcfb636ae694615bebaa7b4ba0235"}, {"bike_id": "12cf1633ab4d63010ebbb8462fe7e61d", "type": "electric_scooter", "is_disabled": 0, "lat": 38.90283016666667, "rental_uris": {"ios": "https://dc.lft.to/lastmile_qr_scan", "android": "https://dc.lft.to/lastmile_qr_scan"}, "is_reserved": 0, "fusion_lon": 0.0, "fusion_lat": 0.0, "lon": -77.05805266666667, "name": "12cf1633ab4d63010ebbb8462fe7e61d"}, {"bike_id": "df4fa992dcc4b68fcb4ec1cda5e5e05e", "type": "electric_scooter", "is_disabled": 0, "lat": 38.911113, "rental_uris": {"ios": "https://dc.lft.to/lastmile_qr_scan", "android": "https://dc.lft.to/lastmile_qr_scan"}, "is_reserved": 0, "fusion_lon": 0.0, "fusion_lat": 0.0, "lon": -77.01156216666666, "name": "df4fa992dcc4b68fcb4ec1cda5e5e05e"}, {"bike_id": "a11514cd09f9d4f6f4c2cb91450359ee", "type": "electric_scooter", "is_disabled": 0, "lat": 38.932448666666666, "rental_uris": {"ios": "https://dc.lft.to/lastmile_qr_scan", "android": "https://dc.lft.to/lastmile_qr_scan"}, "is_reserved": 0, "fusion_lon": 0.0, "fusion_lat": 0.0, "lon": -77.02002666666667, "name": "a11514cd09f9d4f6f4c2cb91450359ee"}, {"bike_id": "e59c74252b6ab904fa085260b10f9a6f", "type": "electric_scooter", "is_disabled": 0, "lat": 38.87068266666667, "rental_uris": {"ios": "https://dc.lft.to/lastmile_qr_scan", "android": "https://dc.lft.to/lastmile_qr_scan"}, "is_reserved": 0, "fusion_lon": 0.0, "fusion_lat": 0.0, "lon": -76.98132616666666, "name": "e59c74252b6ab904fa085260b10f9a6f"}, {"bike_id": "d9f6d5348c9e0fd0d85b2351d0cdaa4d", "type": "electric_scooter", "is_disabled": 0, "lat": 38.8974415, "rental_uris": {"ios": "https://dc.lft.to/lastmile_qr_scan", "android": "https://dc.lft.to/lastmile_qr_scan"}, "is_reserved": 0, "fusion_lon": 0.0, "fusion_lat": 0.0, "lon": -76.99390933333333, "name": "d9f6d5348c9e0fd0d85b2351d0cdaa4d"}, {"bike_id": "c8747a42098405bb0cb5c1240c5084b0", "type": "electric_scooter", "is_disabled": 0, "lat": 38.8984305, "rental_uris": {"ios": "https://dc.lft.to/lastmile_qr_scan", "android": "https://dc.lft.to/lastmile_qr_scan"}, "is_reserved": 0, "fusion_lon": 0.0, "fusion_lat": 0.0, "lon": -76.94631733333334, "name": "c8747a42098405bb0cb5c1240c5084b0"}, {"bike_id": "3035389eb6c81a4e08a2c4d13c66d291", "type": "electric_scooter", "is_disabled": 0, "lat": 38.9027355, "rental_uris": {"ios": "https://dc.lft.to/lastmile_qr_scan", "android": "https://dc.lft.to/lastmile_qr_scan"}, "is_reserved": 0, "fusion_lon": 0.0, "fusion_lat": 0.0, "lon": -77.0338465, "name": "3035389eb6c81a4e08a2c4d13c66d291"}, {"bike_id": "19c1f405282a25645d41b192cfc7013d", "type": "electric_scooter", "is_disabled": 0, "lat": 38.924470666666664, "rental_uris": {"ios": "https://dc.lft.to/lastmile_qr_scan", "android": "https://dc.lft.to/lastmile_qr_scan"}, "is_reserved": 0, "fusion_lon": 0.0, "fusion_lat": 0.0, "lon": -77.03342016666667, "name": "19c1f405282a25645d41b192cfc7013d"}, {"bike_id": "4c0e8c967553fe3533d7c9f3e6cc8b6d", "type": "electric_bike", "is_disabled": 0, "lat": 38.815096, "rental_uris": {"ios": "https://dc.lft.to/lastmile_qr_scan", "android": "https://dc.lft.to/lastmile_qr_scan"}, "is_reserved": 0, "fusion_lon": 0.0, "fusion_lat": 0.0, "lon": -77.12654633333334, "name": "4c0e8c967553fe3533d7c9f3e6cc8b6d"}, {"bike_id": "0a79f8358938e2954c13f31399270d01", "type": "electric_scooter", "is_disabled": 0, "lat": 38.922344333333335, "rental_uris": {"ios": "https://dc.lft.to/lastmile_qr_scan", "android": "https://dc.lft.to/lastmile_qr_scan"}, "is_reserved": 0, "fusion_lon": 0.0, "fusion_lat": 0.0, "lon": -76.97344133333333, "name": "0a79f8358938e2954c13f31399270d01"}, {"bike_id": "f42c50723e1c6ca426e1bb12485fbf60", "type": "electric_scooter", "is_disabled": 0, "lat": 38.923281833333334, "rental_uris": {"ios": "https://dc.lft.to/lastmile_qr_scan", "android": "https://dc.lft.to/lastmile_qr_scan"}, "is_reserved": 0, "fusion_lon": 0.0, "fusion_lat": 0.0, "lon": -77.0542025, "name": "f42c50723e1c6ca426e1bb12485fbf60"}, {"bike_id": "87f1dd6059204b7c373c44c356b58e8b", "type": "electric_bike", "is_disabled": 0, "lat": 38.7960455, "rental_uris": {"ios": "https://dc.lft.to/lastmile_qr_scan", "android": "https://dc.lft.to/lastmile_qr_scan"}, "is_reserved": 0, "fusion_lon": 0.0, "fusion_lat": 0.0, "lon": -76.9973985, "name": "87f1dd6059204b7c373c44c356b58e8b"}, {"bike_id": "ce5eb9aeb1b02917698a827c1a8d1fef", "type": "electric_scooter", "is_disabled": 0, "lat": 38.89881866666666, "rental_uris": {"ios": "https://dc.lft.to/lastmile_qr_scan", "android": "https://dc.lft.to/lastmile_qr_scan"}, "is_reserved": 0, "fusion_lon": 0.0, "fusion_lat": 0.0, "lon": -76.9317775, "name": "ce5eb9aeb1b02917698a827c1a8d1fef"}, {"bike_id": "470ce0471a13d01c65861ab901bb237e", "type": "electric_scooter", "is_disabled": 0, "lat": 38.904817333333334, "rental_uris": {"ios": "https://dc.lft.to/lastmile_qr_scan", "android": "https://dc.lft.to/lastmile_qr_scan"}, "is_reserved": 0, "fusion_lon": 0.0, "fusion_lat": 0.0, "lon": -77.06106983333333, "name": "470ce0471a13d01c65861ab901bb237e"}, {"bike_id": "bad5be7fff9919f9d76a59431ceceb7e", "type": "electric_scooter", "is_disabled": 0, "lat": 38.91262233333333, "rental_uris": {"ios": "https://dc.lft.to/lastmile_qr_scan", "android": "https://dc.lft.to/lastmile_qr_scan"}, "is_reserved": 0, "fusion_lon": 0.0, "fusion_lat": 0.0, "lon": -77.0149845, "name": "bad5be7fff9919f9d76a59431ceceb7e"}, {"bike_id": "7be268e44ee7899a8a6ecdb0c0df11cc", "type": "electric_bike", "is_disabled": 0, "lat": 39.0243135, "rental_uris": {"ios": "https://dc.lft.to/lastmile_qr_scan", "android": "https://dc.lft.to/lastmile_qr_scan"}, "is_reserved": 0, "fusion_lon": 0.0, "fusion_lat": 0.0, "lon": -77.13098183333334, "name": "7be268e44ee7899a8a6ecdb0c0df11cc"}, {"bike_id": "0e8e5dd889969ac0ae8e88053736b2c4", "type": "electric_bike", "is_disabled": 0, "lat": 38.95704833333333, "rental_uris": {"ios": "https://dc.lft.to/lastmile_qr_scan", "android": "https://dc.lft.to/lastmile_qr_scan"}, "is_reserved": 0, "fusion_lon": 0.0, "fusion_lat": 0.0, "lon": -77.0240265, "name": "0e8e5dd889969ac0ae8e88053736b2c4"}, {"bike_id": "148509899a4192d6a337f7811b195311", "type": "electric_scooter", "is_disabled": 0, "lat": 38.91427933333333, "rental_uris": {"ios": "https://dc.lft.to/lastmile_qr_scan", "android": "https://dc.lft.to/lastmile_qr_scan"}, "is_reserved": 0, "fusion_lon": 0.0, "fusion_lat": 0.0, "lon": -77.02142216666667, "name": "148509899a4192d6a337f7811b195311"}, {"bike_id": "0a0cef51e78b6b1120c422ce9f1fb629", "type": "electric_scooter", "is_disabled": 0, "lat": 38.9238025, "rental_uris": {"ios": "https://dc.lft.to/lastmile_qr_scan", "android": "https://dc.lft.to/lastmile_qr_scan"}, "is_reserved": 0, "fusion_lon": 0.0, "fusion_lat": 0.0, "lon": -77.03549183333334, "name": "0a0cef51e78b6b1120c422ce9f1fb629"}, {"bike_id": "358af19cd3a45992c19631bcdc35f9bc", "type": "electric_scooter", "is_disabled": 0, "lat": 38.9224605, "rental_uris": {"ios": "https://dc.lft.to/lastmile_qr_scan", "android": "https://dc.lft.to/lastmile_qr_scan"}, "is_reserved": 0, "fusion_lon": 0.0, "fusion_lat": 0.0, "lon": -77.03085566666667, "name": "358af19cd3a45992c19631bcdc35f9bc"}, {"bike_id": "007def1cd060b59a306c2d883e88fff0", "type": "electric_scooter", "is_disabled": 0, "lat": 38.90209333333333, "rental_uris": {"ios": "https://dc.lft.to/lastmile_qr_scan", "android": "https://dc.lft.to/lastmile_qr_scan"}, "is_reserved": 0, "fusion_lon": 0.0, "fusion_lat": 0.0, "lon": -77.02591116666666, "name": "007def1cd060b59a306c2d883e88fff0"}, {"bike_id": "e93848f40e174332c4acb088023d4a4b", "type": "electric_scooter", "is_disabled": 0, "lat": 38.93150116666666, "rental_uris": {"ios": "https://dc.lft.to/lastmile_qr_scan", "android": "https://dc.lft.to/lastmile_qr_scan"}, "is_reserved": 0, "fusion_lon": 0.0, "fusion_lat": 0.0, "lon": -77.04524983333333, "name": "e93848f40e174332c4acb088023d4a4b"}, {"bike_id": "e1b9466794018f8a5e51e20e9aa200af", "type": "electric_scooter", "is_disabled": 0, "lat": 38.926639333333334, "rental_uris": {"ios": "https://dc.lft.to/lastmile_qr_scan", "android": "https://dc.lft.to/lastmile_qr_scan"}, "is_reserved": 0, "fusion_lon": 0.0, "fusion_lat": 0.0, "lon": -77.03195733333334, "name": "e1b9466794018f8a5e51e20e9aa200af"}, {"bike_id": "1c94aa1fb3f43548a75e7138a1702aa9", "type": "electric_scooter", "is_disabled": 0, "lat": 38.90447066666667, "rental_uris": {"ios": "https://dc.lft.to/lastmile_qr_scan", "android": "https://dc.lft.to/lastmile_qr_scan"}, "is_reserved": 0, "fusion_lon": 0.0, "fusion_lat": 0.0, "lon": -77.02899216666667, "name": "1c94aa1fb3f43548a75e7138a1702aa9"}, {"bike_id": "d5cd8296652e6dbc5678375d7d528ac2", "type": "electric_scooter", "is_disabled": 0, "lat": 38.922972333333334, "rental_uris": {"ios": "https://dc.lft.to/lastmile_qr_scan", "android": "https://dc.lft.to/lastmile_qr_scan"}, "is_reserved": 0, "fusion_lon": 0.0, "fusion_lat": 0.0, "lon": -76.99777316666666, "name": "d5cd8296652e6dbc5678375d7d528ac2"}, {"bike_id": "35a41e8c10ea73be13463c2f7bfa906f", "type": "electric_scooter", "is_disabled": 0, "lat": 38.93458616666667, "rental_uris": {"ios": "https://dc.lft.to/lastmile_qr_scan", "android": "https://dc.lft.to/lastmile_qr_scan"}, "is_reserved": 0, "fusion_lon": 0.0, "fusion_lat": 0.0, "lon": -76.96436983333334, "name": "35a41e8c10ea73be13463c2f7bfa906f"}, {"bike_id": "d297d869ce10c74c7719b35ba7144995", "type": "electric_scooter", "is_disabled": 0, "lat": 38.9408925, "rental_uris": {"ios": "https://dc.lft.to/lastmile_qr_scan", "android": "https://dc.lft.to/lastmile_qr_scan"}, "is_reserved": 0, "fusion_lon": 0.0, "fusion_lat": 0.0, "lon": -77.03655233333333, "name": "d297d869ce10c74c7719b35ba7144995"}, {"bike_id": "66a31da82b5b8a3afbda4ce08d6511ff", "type": "electric_scooter", "is_disabled": 0, "lat": 38.866935, "rental_uris": {"ios": "https://dc.lft.to/lastmile_qr_scan", "android": "https://dc.lft.to/lastmile_qr_scan"}, "is_reserved": 0, "fusion_lon": 0.0, "fusion_lat": 0.0, "lon": -76.98715183333333, "name": "66a31da82b5b8a3afbda4ce08d6511ff"}, {"bike_id": "1d49829f04093e377f7d06afe3f63b59", "type": "electric_scooter", "is_disabled": 0, "lat": 38.917014333333334, "rental_uris": {"ios": "https://dc.lft.to/lastmile_qr_scan", "android": "https://dc.lft.to/lastmile_qr_scan"}, "is_reserved": 0, "fusion_lon": 0.0, "fusion_lat": 0.0, "lon": -77.0288175, "name": "1d49829f04093e377f7d06afe3f63b59"}, {"bike_id": "5d10c3b4e106a6617038e88abe2ca1f6", "type": "electric_scooter", "is_disabled": 0, "lat": 38.922875166666664, "rental_uris": {"ios": "https://dc.lft.to/lastmile_qr_scan", "android": "https://dc.lft.to/lastmile_qr_scan"}, "is_reserved": 0, "fusion_lon": 0.0, "fusion_lat": 0.0, "lon": -77.07305233333334, "name": "5d10c3b4e106a6617038e88abe2ca1f6"}, {"bike_id": "1d99c48dfaedb1fe8447f4a3c6583753", "type": "electric_scooter", "is_disabled": 0, "lat": 38.905608, "rental_uris": {"ios": "https://dc.lft.to/lastmile_qr_scan", "android": "https://dc.lft.to/lastmile_qr_scan"}, "is_reserved": 0, "fusion_lon": 0.0, "fusion_lat": 0.0, "lon": -77.04419983333334, "name": "1d99c48dfaedb1fe8447f4a3c6583753"}, {"bike_id": "774b28978650c0f7fb0dfcbbacd361c9", "type": "electric_scooter", "is_disabled": 0, "lat": 38.93097866666667, "rental_uris": {"ios": "https://dc.lft.to/lastmile_qr_scan", "android": "https://dc.lft.to/lastmile_qr_scan"}, "is_reserved": 0, "fusion_lon": 0.0, "fusion_lat": 0.0, "lon": -77.03469983333333, "name": "774b28978650c0f7fb0dfcbbacd361c9"}, {"bike_id": "2b3ceb64695e7301ee845de8d6ee5cc5", "type": "electric_scooter", "is_disabled": 0, "lat": 38.915880333333334, "rental_uris": {"ios": "https://dc.lft.to/lastmile_qr_scan", "android": "https://dc.lft.to/lastmile_qr_scan"}, "is_reserved": 0, "fusion_lon": 0.0, "fusion_lat": 0.0, "lon": -77.01148033333334, "name": "2b3ceb64695e7301ee845de8d6ee5cc5"}, {"bike_id": "2c13172c203f05cf747e45dceeb8af8e", "type": "electric_scooter", "is_disabled": 0, "lat": 38.932648666666665, "rental_uris": {"ios": "https://dc.lft.to/lastmile_qr_scan", "android": "https://dc.lft.to/lastmile_qr_scan"}, "is_reserved": 0, "fusion_lon": 0.0, "fusion_lat": 0.0, "lon": -77.0389275, "name": "2c13172c203f05cf747e45dceeb8af8e"}, {"bike_id": "39564651b001d29bf96932bedd27b06f", "type": "electric_scooter", "is_disabled": 0, "lat": 38.897555, "rental_uris": {"ios": "https://dc.lft.to/lastmile_qr_scan", "android": "https://dc.lft.to/lastmile_qr_scan"}, "is_reserved": 0, "fusion_lon": 0.0, "fusion_lat": 0.0, "lon": -77.0514335, "name": "39564651b001d29bf96932bedd27b06f"}, {"bike_id": "32443046b331968558199dfd4a4cfa8a", "type": "electric_scooter", "is_disabled": 0, "lat": 38.93681616666667, "rental_uris": {"ios": "https://dc.lft.to/lastmile_qr_scan", "android": "https://dc.lft.to/lastmile_qr_scan"}, "is_reserved": 0, "fusion_lon": 0.0, "fusion_lat": 0.0, "lon": -77.06624033333334, "name": "32443046b331968558199dfd4a4cfa8a"}, {"bike_id": "8a09f5c2d47677d40a9b3eacb6faab92", "type": "electric_scooter", "is_disabled": 0, "lat": 38.8929375, "rental_uris": {"ios": "https://dc.lft.to/lastmile_qr_scan", "android": "https://dc.lft.to/lastmile_qr_scan"}, "is_reserved": 0, "fusion_lon": 0.0, "fusion_lat": 0.0, "lon": -77.048746, "name": "8a09f5c2d47677d40a9b3eacb6faab92"}, {"bike_id": "cc041276d8d039bd23f0b590173df379", "type": "electric_scooter", "is_disabled": 0, "lat": 38.915524833333336, "rental_uris": {"ios": "https://dc.lft.to/lastmile_qr_scan", "android": "https://dc.lft.to/lastmile_qr_scan"}, "is_reserved": 0, "fusion_lon": 0.0, "fusion_lat": 0.0, "lon": -77.031732, "name": "cc041276d8d039bd23f0b590173df379"}, {"bike_id": "03919717f5b90ea1edf9945bdd1e1622", "type": "electric_scooter", "is_disabled": 0, "lat": 38.90412083333333, "rental_uris": {"ios": "https://dc.lft.to/lastmile_qr_scan", "android": "https://dc.lft.to/lastmile_qr_scan"}, "is_reserved": 0, "fusion_lon": 0.0, "fusion_lat": 0.0, "lon": -77.0251605, "name": "03919717f5b90ea1edf9945bdd1e1622"}, {"bike_id": "6dd53cce3e41d7065fc98932defac374", "type": "electric_scooter", "is_disabled": 0, "lat": 38.908902499999996, "rental_uris": {"ios": "https://dc.lft.to/lastmile_qr_scan", "android": "https://dc.lft.to/lastmile_qr_scan"}, "is_reserved": 0, "fusion_lon": 0.0, "fusion_lat": 0.0, "lon": -77.0449965, "name": "6dd53cce3e41d7065fc98932defac374"}, {"bike_id": "deec1dd32c27d0de12c3d39cfc07ed5b", "type": "electric_scooter", "is_disabled": 0, "lat": 38.911724, "rental_uris": {"ios": "https://dc.lft.to/lastmile_qr_scan", "android": "https://dc.lft.to/lastmile_qr_scan"}, "is_reserved": 0, "fusion_lon": 0.0, "fusion_lat": 0.0, "lon": -77.00215883333334, "name": "deec1dd32c27d0de12c3d39cfc07ed5b"}, {"bike_id": "32f2ab22641154102fb6edfdb7d6d98a", "type": "electric_bike", "is_disabled": 0, "lat": 38.8969145, "rental_uris": {"ios": "https://dc.lft.to/lastmile_qr_scan", "android": "https://dc.lft.to/lastmile_qr_scan"}, "is_reserved": 0, "fusion_lon": 0.0, "fusion_lat": 0.0, "lon": -77.08650466666667, "name": "32f2ab22641154102fb6edfdb7d6d98a"}, {"bike_id": "f2616e350deefadcab4f57695ec13e3b", "type": "electric_scooter", "is_disabled": 0, "lat": 38.915462833333336, "rental_uris": {"ios": "https://dc.lft.to/lastmile_qr_scan", "android": "https://dc.lft.to/lastmile_qr_scan"}, "is_reserved": 0, "fusion_lon": 0.0, "fusion_lat": 0.0, "lon": -77.0401315, "name": "f2616e350deefadcab4f57695ec13e3b"}, {"bike_id": "3709593ee89129c3835b73df8952b0ca", "type": "electric_scooter", "is_disabled": 0, "lat": 38.95656316666667, "rental_uris": {"ios": "https://dc.lft.to/lastmile_qr_scan", "android": "https://dc.lft.to/lastmile_qr_scan"}, "is_reserved": 0, "fusion_lon": 0.0, "fusion_lat": 0.0, "lon": -77.01001916666667, "name": "3709593ee89129c3835b73df8952b0ca"}, {"bike_id": "6abcfe7e60cdc30371bf741d27528cb4", "type": "electric_scooter", "is_disabled": 0, "lat": 38.901666666666664, "rental_uris": {"ios": "https://dc.lft.to/lastmile_qr_scan", "android": "https://dc.lft.to/lastmile_qr_scan"}, "is_reserved": 0, "fusion_lon": 0.0, "fusion_lat": 0.0, "lon": -76.9302575, "name": "6abcfe7e60cdc30371bf741d27528cb4"}, {"bike_id": "9b7952a784721905053d232b6564d088", "type": "electric_scooter", "is_disabled": 0, "lat": 38.91611233333333, "rental_uris": {"ios": "https://dc.lft.to/lastmile_qr_scan", "android": "https://dc.lft.to/lastmile_qr_scan"}, "is_reserved": 0, "fusion_lon": 0.0, "fusion_lat": 0.0, "lon": -77.02168383333333, "name": "9b7952a784721905053d232b6564d088"}, {"bike_id": "5479938d21590797560d2f68a836cb5e", "type": "electric_scooter", "is_disabled": 0, "lat": 38.915023166666664, "rental_uris": {"ios": "https://dc.lft.to/lastmile_qr_scan", "android": "https://dc.lft.to/lastmile_qr_scan"}, "is_reserved": 0, "fusion_lon": 0.0, "fusion_lat": 0.0, "lon": -77.01781733333333, "name": "5479938d21590797560d2f68a836cb5e"}, {"bike_id": "d996dce10562afef9a5c8f924122dc56", "type": "electric_scooter", "is_disabled": 0, "lat": 38.93236616666667, "rental_uris": {"ios": "https://dc.lft.to/lastmile_qr_scan", "android": "https://dc.lft.to/lastmile_qr_scan"}, "is_reserved": 0, "fusion_lon": 0.0, "fusion_lat": 0.0, "lon": -77.03892083333334, "name": "d996dce10562afef9a5c8f924122dc56"}, {"bike_id": "883314349f588a485174d156ea1881ff", "type": "electric_scooter", "is_disabled": 0, "lat": 38.8869755, "rental_uris": {"ios": "https://dc.lft.to/lastmile_qr_scan", "android": "https://dc.lft.to/lastmile_qr_scan"}, "is_reserved": 0, "fusion_lon": 0.0, "fusion_lat": 0.0, "lon": -76.99611483333334, "name": "883314349f588a485174d156ea1881ff"}, {"bike_id": "45626fe716720a0e1fa1275b5f367e50", "type": "electric_scooter", "is_disabled": 0, "lat": 38.95640366666667, "rental_uris": {"ios": "https://dc.lft.to/lastmile_qr_scan", "android": "https://dc.lft.to/lastmile_qr_scan"}, "is_reserved": 0, "fusion_lon": 0.0, "fusion_lat": 0.0, "lon": -77.01145616666666, "name": "45626fe716720a0e1fa1275b5f367e50"}, {"bike_id": "0540aac64b5967967a2c13273fc57b13", "type": "electric_scooter", "is_disabled": 0, "lat": 38.924349166666666, "rental_uris": {"ios": "https://dc.lft.to/lastmile_qr_scan", "android": "https://dc.lft.to/lastmile_qr_scan"}, "is_reserved": 0, "fusion_lon": 0.0, "fusion_lat": 0.0, "lon": -77.04242966666666, "name": "0540aac64b5967967a2c13273fc57b13"}, {"bike_id": "d11f641a6281803cc99c8aa6b36b24cb", "type": "electric_scooter", "is_disabled": 0, "lat": 38.886511666666664, "rental_uris": {"ios": "https://dc.lft.to/lastmile_qr_scan", "android": "https://dc.lft.to/lastmile_qr_scan"}, "is_reserved": 0, "fusion_lon": 0.0, "fusion_lat": 0.0, "lon": -77.00119683333334, "name": "d11f641a6281803cc99c8aa6b36b24cb"}, {"bike_id": "b242c03b04e752788a7c7ee4dbb2333c", "type": "electric_bike", "is_disabled": 0, "lat": 38.813311, "rental_uris": {"ios": "https://dc.lft.to/lastmile_qr_scan", "android": "https://dc.lft.to/lastmile_qr_scan"}, "is_reserved": 0, "fusion_lon": 0.0, "fusion_lat": 0.0, "lon": -77.05095016666667, "name": "b242c03b04e752788a7c7ee4dbb2333c"}, {"bike_id": "fa82e645a13959dfcb17354bdbd3ba60", "type": "electric_scooter", "is_disabled": 0, "lat": 38.88736516666667, "rental_uris": {"ios": "https://dc.lft.to/lastmile_qr_scan", "android": "https://dc.lft.to/lastmile_qr_scan"}, "is_reserved": 0, "fusion_lon": 0.0, "fusion_lat": 0.0, "lon": -77.01536216666666, "name": "fa82e645a13959dfcb17354bdbd3ba60"}, {"bike_id": "ecda17dc16feba9e326c90ec52f0bed1", "type": "electric_bike", "is_disabled": 0, "lat": 38.87474433333333, "rental_uris": {"ios": "https://dc.lft.to/lastmile_qr_scan", "android": "https://dc.lft.to/lastmile_qr_scan"}, "is_reserved": 0, "fusion_lon": 0.0, "fusion_lat": 0.0, "lon": -76.9653165, "name": "ecda17dc16feba9e326c90ec52f0bed1"}, {"bike_id": "952cf3cefb9dc3f4764d4c286a7dbe18", "type": "electric_scooter", "is_disabled": 0, "lat": 38.907866, "rental_uris": {"ios": "https://dc.lft.to/lastmile_qr_scan", "android": "https://dc.lft.to/lastmile_qr_scan"}, "is_reserved": 0, "fusion_lon": 0.0, "fusion_lat": 0.0, "lon": -77.03863766666667, "name": "952cf3cefb9dc3f4764d4c286a7dbe18"}, {"bike_id": "f122c55f2290869124624c5e84ca297d", "type": "electric_scooter", "is_disabled": 0, "lat": 38.922381, "rental_uris": {"ios": "https://dc.lft.to/lastmile_qr_scan", "android": "https://dc.lft.to/lastmile_qr_scan"}, "is_reserved": 0, "fusion_lon": 0.0, "fusion_lat": 0.0, "lon": -77.03517033333334, "name": "f122c55f2290869124624c5e84ca297d"}, {"bike_id": "e75474f9b2bc8c8a600f7e646b744690", "type": "electric_scooter", "is_disabled": 0, "lat": 38.91245983333334, "rental_uris": {"ios": "https://dc.lft.to/lastmile_qr_scan", "android": "https://dc.lft.to/lastmile_qr_scan"}, "is_reserved": 0, "fusion_lon": 0.0, "fusion_lat": 0.0, "lon": -77.01973233333334, "name": "e75474f9b2bc8c8a600f7e646b744690"}, {"bike_id": "d49083b75d754a88c94dc548dcecf4e8", "type": "electric_scooter", "is_disabled": 0, "lat": 38.94733166666666, "rental_uris": {"ios": "https://dc.lft.to/lastmile_qr_scan", "android": "https://dc.lft.to/lastmile_qr_scan"}, "is_reserved": 0, "fusion_lon": 0.0, "fusion_lat": 0.0, "lon": -77.07863083333334, "name": "d49083b75d754a88c94dc548dcecf4e8"}, {"bike_id": "e4cdc8ba888f24887f8190b65108b751", "type": "electric_scooter", "is_disabled": 0, "lat": 38.928973, "rental_uris": {"ios": "https://dc.lft.to/lastmile_qr_scan", "android": "https://dc.lft.to/lastmile_qr_scan"}, "is_reserved": 0, "fusion_lon": 0.0, "fusion_lat": 0.0, "lon": -77.03277466666667, "name": "e4cdc8ba888f24887f8190b65108b751"}, {"bike_id": "75d077a0ec47492d52fc9129f814ffe5", "type": "electric_bike", "is_disabled": 0, "lat": 38.87297733333333, "rental_uris": {"ios": "https://dc.lft.to/lastmile_qr_scan", "android": "https://dc.lft.to/lastmile_qr_scan"}, "is_reserved": 0, "fusion_lon": 0.0, "fusion_lat": 0.0, "lon": -76.96975866666666, "name": "75d077a0ec47492d52fc9129f814ffe5"}, {"bike_id": "2b1884342a3eaf2f8f77580a7834fc90", "type": "electric_scooter", "is_disabled": 0, "lat": 38.915638, "rental_uris": {"ios": "https://dc.lft.to/lastmile_qr_scan", "android": "https://dc.lft.to/lastmile_qr_scan"}, "is_reserved": 0, "fusion_lon": 0.0, "fusion_lat": 0.0, "lon": -77.031257, "name": "2b1884342a3eaf2f8f77580a7834fc90"}, {"bike_id": "492a1525cbfc14a784dce6980e7ea663", "type": "electric_scooter", "is_disabled": 0, "lat": 38.91990883333333, "rental_uris": {"ios": "https://dc.lft.to/lastmile_qr_scan", "android": "https://dc.lft.to/lastmile_qr_scan"}, "is_reserved": 0, "fusion_lon": 0.0, "fusion_lat": 0.0, "lon": -76.97304483333333, "name": "492a1525cbfc14a784dce6980e7ea663"}, {"bike_id": "6e26f99e0bdddf2bb97a7184e6d18a54", "type": "electric_scooter", "is_disabled": 0, "lat": 38.91565166666667, "rental_uris": {"ios": "https://dc.lft.to/lastmile_qr_scan", "android": "https://dc.lft.to/lastmile_qr_scan"}, "is_reserved": 0, "fusion_lon": 0.0, "fusion_lat": 0.0, "lon": -77.02020983333334, "name": "6e26f99e0bdddf2bb97a7184e6d18a54"}, {"bike_id": "82b2816977da0250f3c7277c541472ef", "type": "electric_scooter", "is_disabled": 0, "lat": 38.907541, "rental_uris": {"ios": "https://dc.lft.to/lastmile_qr_scan", "android": "https://dc.lft.to/lastmile_qr_scan"}, "is_reserved": 0, "fusion_lon": 0.0, "fusion_lat": 0.0, "lon": -77.028028, "name": "82b2816977da0250f3c7277c541472ef"}, {"bike_id": "e9b4c00091fdd94ed3a5e3410686030c", "type": "electric_bike", "is_disabled": 0, "lat": 38.996667333333335, "rental_uris": {"ios": "https://dc.lft.to/lastmile_qr_scan", "android": "https://dc.lft.to/lastmile_qr_scan"}, "is_reserved": 0, "fusion_lon": 0.0, "fusion_lat": 0.0, "lon": -77.0376415, "name": "e9b4c00091fdd94ed3a5e3410686030c"}, {"bike_id": "753b70ff35c06f773e4d129a2fbd6a1a", "type": "electric_scooter", "is_disabled": 0, "lat": 38.90273833333333, "rental_uris": {"ios": "https://dc.lft.to/lastmile_qr_scan", "android": "https://dc.lft.to/lastmile_qr_scan"}, "is_reserved": 0, "fusion_lon": 0.0, "fusion_lat": 0.0, "lon": -77.00352066666666, "name": "753b70ff35c06f773e4d129a2fbd6a1a"}, {"bike_id": "d53f4eed9053da160056cd55a72380f3", "type": "electric_scooter", "is_disabled": 0, "lat": 38.909376333333334, "rental_uris": {"ios": "https://dc.lft.to/lastmile_qr_scan", "android": "https://dc.lft.to/lastmile_qr_scan"}, "is_reserved": 0, "fusion_lon": 0.0, "fusion_lat": 0.0, "lon": -77.04490716666666, "name": "d53f4eed9053da160056cd55a72380f3"}, {"bike_id": "54d4890a205c10bdc42c2cd88d98f4cd", "type": "electric_scooter", "is_disabled": 0, "lat": 38.9068775, "rental_uris": {"ios": "https://dc.lft.to/lastmile_qr_scan", "android": "https://dc.lft.to/lastmile_qr_scan"}, "is_reserved": 0, "fusion_lon": 0.0, "fusion_lat": 0.0, "lon": -77.01542916666666, "name": "54d4890a205c10bdc42c2cd88d98f4cd"}, {"bike_id": "2855174212505549f94c336ce575c16b", "type": "electric_bike", "is_disabled": 0, "lat": 38.896097166666664, "rental_uris": {"ios": "https://dc.lft.to/lastmile_qr_scan", "android": "https://dc.lft.to/lastmile_qr_scan"}, "is_reserved": 0, "fusion_lon": 0.0, "fusion_lat": 0.0, "lon": -76.90737466666667, "name": "2855174212505549f94c336ce575c16b"}, {"bike_id": "e723c06c55a5ecf2f588e1b3a7ca4da6", "type": "electric_scooter", "is_disabled": 0, "lat": 38.9041095, "rental_uris": {"ios": "https://dc.lft.to/lastmile_qr_scan", "android": "https://dc.lft.to/lastmile_qr_scan"}, "is_reserved": 0, "fusion_lon": 0.0, "fusion_lat": 0.0, "lon": -76.9733435, "name": "e723c06c55a5ecf2f588e1b3a7ca4da6"}, {"bike_id": "948d2cb1ae7868818dc5b6c634d7e880", "type": "electric_scooter", "is_disabled": 0, "lat": 38.905613333333335, "rental_uris": {"ios": "https://dc.lft.to/lastmile_qr_scan", "android": "https://dc.lft.to/lastmile_qr_scan"}, "is_reserved": 0, "fusion_lon": 0.0, "fusion_lat": 0.0, "lon": -77.00573866666667, "name": "948d2cb1ae7868818dc5b6c634d7e880"}, {"bike_id": "4d2c99df15d2b4ad14e21e0fd6044a1b", "type": "electric_scooter", "is_disabled": 0, "lat": 38.9163885, "rental_uris": {"ios": "https://dc.lft.to/lastmile_qr_scan", "android": "https://dc.lft.to/lastmile_qr_scan"}, "is_reserved": 0, "fusion_lon": 0.0, "fusion_lat": 0.0, "lon": -77.04822566666667, "name": "4d2c99df15d2b4ad14e21e0fd6044a1b"}, {"bike_id": "63cb867fa663ecfe4d6c8d93ef56f4f1", "type": "electric_scooter", "is_disabled": 0, "lat": 38.902694, "rental_uris": {"ios": "https://dc.lft.to/lastmile_qr_scan", "android": "https://dc.lft.to/lastmile_qr_scan"}, "is_reserved": 0, "fusion_lon": 0.0, "fusion_lat": 0.0, "lon": -77.01811866666667, "name": "63cb867fa663ecfe4d6c8d93ef56f4f1"}, {"bike_id": "b6c903ed74c9dcb378a56ead1daa1829", "type": "electric_scooter", "is_disabled": 0, "lat": 38.9373175, "rental_uris": {"ios": "https://dc.lft.to/lastmile_qr_scan", "android": "https://dc.lft.to/lastmile_qr_scan"}, "is_reserved": 0, "fusion_lon": 0.0, "fusion_lat": 0.0, "lon": -77.05965533333334, "name": "b6c903ed74c9dcb378a56ead1daa1829"}, {"bike_id": "5f7aa97144d75e307a308688e4b5c45d", "type": "electric_scooter", "is_disabled": 0, "lat": 38.908091666666664, "rental_uris": {"ios": "https://dc.lft.to/lastmile_qr_scan", "android": "https://dc.lft.to/lastmile_qr_scan"}, "is_reserved": 0, "fusion_lon": 0.0, "fusion_lat": 0.0, "lon": -77.020333, "name": "5f7aa97144d75e307a308688e4b5c45d"}, {"bike_id": "2e715f0cf18e493f03cfeb1fe46ec611", "type": "electric_scooter", "is_disabled": 0, "lat": 38.92353816666667, "rental_uris": {"ios": "https://dc.lft.to/lastmile_qr_scan", "android": "https://dc.lft.to/lastmile_qr_scan"}, "is_reserved": 0, "fusion_lon": 0.0, "fusion_lat": 0.0, "lon": -77.03538016666667, "name": "2e715f0cf18e493f03cfeb1fe46ec611"}, {"bike_id": "875f5bfda7dbff3ae4ac091b1663f03f", "type": "electric_scooter", "is_disabled": 0, "lat": 38.9071615, "rental_uris": {"ios": "https://dc.lft.to/lastmile_qr_scan", "android": "https://dc.lft.to/lastmile_qr_scan"}, "is_reserved": 0, "fusion_lon": 0.0, "fusion_lat": 0.0, "lon": -77.02538333333334, "name": "875f5bfda7dbff3ae4ac091b1663f03f"}, {"bike_id": "67d25969f262548aeb3acd6859396bb3", "type": "electric_scooter", "is_disabled": 0, "lat": 38.87403833333333, "rental_uris": {"ios": "https://dc.lft.to/lastmile_qr_scan", "android": "https://dc.lft.to/lastmile_qr_scan"}, "is_reserved": 0, "fusion_lon": 0.0, "fusion_lat": 0.0, "lon": -77.0019595, "name": "67d25969f262548aeb3acd6859396bb3"}, {"bike_id": "20009178169b595efe6987cebcae9cff", "type": "electric_scooter", "is_disabled": 0, "lat": 38.88700383333333, "rental_uris": {"ios": "https://dc.lft.to/lastmile_qr_scan", "android": "https://dc.lft.to/lastmile_qr_scan"}, "is_reserved": 0, "fusion_lon": 0.0, "fusion_lat": 0.0, "lon": -77.01371933333333, "name": "20009178169b595efe6987cebcae9cff"}, {"bike_id": "58a7cb574e2eb2bb9639b2f7660b0635", "type": "electric_bike", "is_disabled": 0, "lat": 38.908271166666665, "rental_uris": {"ios": "https://dc.lft.to/lastmile_qr_scan", "android": "https://dc.lft.to/lastmile_qr_scan"}, "is_reserved": 0, "fusion_lon": 0.0, "fusion_lat": 0.0, "lon": -76.94156933333333, "name": "58a7cb574e2eb2bb9639b2f7660b0635"}, {"bike_id": "978663f3ad368e99ab8a83132bdd35de", "type": "electric_scooter", "is_disabled": 0, "lat": 38.93000083333333, "rental_uris": {"ios": "https://dc.lft.to/lastmile_qr_scan", "android": "https://dc.lft.to/lastmile_qr_scan"}, "is_reserved": 0, "fusion_lon": 0.0, "fusion_lat": 0.0, "lon": -77.0377515, "name": "978663f3ad368e99ab8a83132bdd35de"}, {"bike_id": "5582e792e5a27d49890f5eb955c128e9", "type": "electric_scooter", "is_disabled": 0, "lat": 38.932847, "rental_uris": {"ios": "https://dc.lft.to/lastmile_qr_scan", "android": "https://dc.lft.to/lastmile_qr_scan"}, "is_reserved": 0, "fusion_lon": 0.0, "fusion_lat": 0.0, "lon": -77.040363, "name": "5582e792e5a27d49890f5eb955c128e9"}, {"bike_id": "1a879b037683a617212841cd79e128f3", "type": "electric_scooter", "is_disabled": 0, "lat": 38.90686016666667, "rental_uris": {"ios": "https://dc.lft.to/lastmile_qr_scan", "android": "https://dc.lft.to/lastmile_qr_scan"}, "is_reserved": 0, "fusion_lon": 0.0, "fusion_lat": 0.0, "lon": -77.05331616666666, "name": "1a879b037683a617212841cd79e128f3"}, {"bike_id": "f9a3788572954e8c07d6287029b832fa", "type": "electric_scooter", "is_disabled": 0, "lat": 38.862486833333335, "rental_uris": {"ios": "https://dc.lft.to/lastmile_qr_scan", "android": "https://dc.lft.to/lastmile_qr_scan"}, "is_reserved": 0, "fusion_lon": 0.0, "fusion_lat": 0.0, "lon": -76.99266616666667, "name": "f9a3788572954e8c07d6287029b832fa"}, {"bike_id": "0a200951c966f3e79e92eb295e4ef1df", "type": "electric_scooter", "is_disabled": 0, "lat": 38.92648366666667, "rental_uris": {"ios": "https://dc.lft.to/lastmile_qr_scan", "android": "https://dc.lft.to/lastmile_qr_scan"}, "is_reserved": 0, "fusion_lon": 0.0, "fusion_lat": 0.0, "lon": -77.03730516666667, "name": "0a200951c966f3e79e92eb295e4ef1df"}, {"bike_id": "c74530155693fb1207c35c5bc943c425", "type": "electric_scooter", "is_disabled": 0, "lat": 38.863741833333336, "rental_uris": {"ios": "https://dc.lft.to/lastmile_qr_scan", "android": "https://dc.lft.to/lastmile_qr_scan"}, "is_reserved": 0, "fusion_lon": 0.0, "fusion_lat": 0.0, "lon": -76.99061216666666, "name": "c74530155693fb1207c35c5bc943c425"}, {"bike_id": "648b315c3c036df59c9ef7f833fac17e", "type": "electric_scooter", "is_disabled": 0, "lat": 38.90726166666666, "rental_uris": {"ios": "https://dc.lft.to/lastmile_qr_scan", "android": "https://dc.lft.to/lastmile_qr_scan"}, "is_reserved": 0, "fusion_lon": 0.0, "fusion_lat": 0.0, "lon": -77.00576966666667, "name": "648b315c3c036df59c9ef7f833fac17e"}, {"bike_id": "27168efadbe0e7aea68ed95888f23814", "type": "electric_scooter", "is_disabled": 0, "lat": 38.892446166666666, "rental_uris": {"ios": "https://dc.lft.to/lastmile_qr_scan", "android": "https://dc.lft.to/lastmile_qr_scan"}, "is_reserved": 0, "fusion_lon": 0.0, "fusion_lat": 0.0, "lon": -77.03956466666666, "name": "27168efadbe0e7aea68ed95888f23814"}, {"bike_id": "9b000b9d82ee35a858f825a2f21172f0", "type": "electric_scooter", "is_disabled": 0, "lat": 38.92686966666667, "rental_uris": {"ios": "https://dc.lft.to/lastmile_qr_scan", "android": "https://dc.lft.to/lastmile_qr_scan"}, "is_reserved": 0, "fusion_lon": 0.0, "fusion_lat": 0.0, "lon": -77.02097716666667, "name": "9b000b9d82ee35a858f825a2f21172f0"}, {"bike_id": "b46fda9e74e52843c2aefdf94d5cacac", "type": "electric_scooter", "is_disabled": 0, "lat": 38.90982116666667, "rental_uris": {"ios": "https://dc.lft.to/lastmile_qr_scan", "android": "https://dc.lft.to/lastmile_qr_scan"}, "is_reserved": 0, "fusion_lon": 0.0, "fusion_lat": 0.0, "lon": -77.03339916666667, "name": "b46fda9e74e52843c2aefdf94d5cacac"}, {"bike_id": "1f0829b46fe72f4a81085a58ade87377", "type": "electric_scooter", "is_disabled": 0, "lat": 38.91146616666666, "rental_uris": {"ios": "https://dc.lft.to/lastmile_qr_scan", "android": "https://dc.lft.to/lastmile_qr_scan"}, "is_reserved": 0, "fusion_lon": 0.0, "fusion_lat": 0.0, "lon": -77.029645, "name": "1f0829b46fe72f4a81085a58ade87377"}, {"bike_id": "027d4c6751cca9fce310f6201c06cbf8", "type": "electric_scooter", "is_disabled": 0, "lat": 38.917658833333334, "rental_uris": {"ios": "https://dc.lft.to/lastmile_qr_scan", "android": "https://dc.lft.to/lastmile_qr_scan"}, "is_reserved": 0, "fusion_lon": 0.0, "fusion_lat": 0.0, "lon": -77.01502533333333, "name": "027d4c6751cca9fce310f6201c06cbf8"}, {"bike_id": "37c272169933d6391c1b17219486d3b7", "type": "electric_scooter", "is_disabled": 0, "lat": 38.911334, "rental_uris": {"ios": "https://dc.lft.to/lastmile_qr_scan", "android": "https://dc.lft.to/lastmile_qr_scan"}, "is_reserved": 0, "fusion_lon": 0.0, "fusion_lat": 0.0, "lon": -77.02200616666667, "name": "37c272169933d6391c1b17219486d3b7"}, {"bike_id": "3ff0e5c2aeb139dd2760ed89b9a2e425", "type": "electric_scooter", "is_disabled": 0, "lat": 38.9221245, "rental_uris": {"ios": "https://dc.lft.to/lastmile_qr_scan", "android": "https://dc.lft.to/lastmile_qr_scan"}, "is_reserved": 0, "fusion_lon": 0.0, "fusion_lat": 0.0, "lon": -77.0220735, "name": "3ff0e5c2aeb139dd2760ed89b9a2e425"}, {"bike_id": "ffdf887c0f5201f001cb3748a247e5b5", "type": "electric_scooter", "is_disabled": 0, "lat": 38.9068085, "rental_uris": {"ios": "https://dc.lft.to/lastmile_qr_scan", "android": "https://dc.lft.to/lastmile_qr_scan"}, "is_reserved": 0, "fusion_lon": 0.0, "fusion_lat": 0.0, "lon": -77.05322033333333, "name": "ffdf887c0f5201f001cb3748a247e5b5"}, {"bike_id": "26764f9d1b94fca9d8006ccd362bff6a", "type": "electric_scooter", "is_disabled": 0, "lat": 38.91208683333333, "rental_uris": {"ios": "https://dc.lft.to/lastmile_qr_scan", "android": "https://dc.lft.to/lastmile_qr_scan"}, "is_reserved": 0, "fusion_lon": 0.0, "fusion_lat": 0.0, "lon": -77.03190783333334, "name": "26764f9d1b94fca9d8006ccd362bff6a"}, {"bike_id": "6d7c64c3493d8d19f701c436579cd53f", "type": "electric_scooter", "is_disabled": 0, "lat": 38.902411, "rental_uris": {"ios": "https://dc.lft.to/lastmile_qr_scan", "android": "https://dc.lft.to/lastmile_qr_scan"}, "is_reserved": 0, "fusion_lon": 0.0, "fusion_lat": 0.0, "lon": -77.04341083333334, "name": "6d7c64c3493d8d19f701c436579cd53f"}, {"bike_id": "af54f2da7c3d3df5368c2d6de3dc370c", "type": "electric_scooter", "is_disabled": 0, "lat": 38.926902, "rental_uris": {"ios": "https://dc.lft.to/lastmile_qr_scan", "android": "https://dc.lft.to/lastmile_qr_scan"}, "is_reserved": 0, "fusion_lon": 0.0, "fusion_lat": 0.0, "lon": -77.07327583333333, "name": "af54f2da7c3d3df5368c2d6de3dc370c"}, {"bike_id": "a90c2dafcc100f793b8c515b43cd9530", "type": "electric_bike", "is_disabled": 0, "lat": 38.809045, "rental_uris": {"ios": "https://dc.lft.to/lastmile_qr_scan", "android": "https://dc.lft.to/lastmile_qr_scan"}, "is_reserved": 0, "fusion_lon": 0.0, "fusion_lat": 0.0, "lon": -77.08657816666667, "name": "a90c2dafcc100f793b8c515b43cd9530"}, {"bike_id": "71f23b6d3b3989bd4cd8e5b39ece586b", "type": "electric_scooter", "is_disabled": 0, "lat": 38.89239633333333, "rental_uris": {"ios": "https://dc.lft.to/lastmile_qr_scan", "android": "https://dc.lft.to/lastmile_qr_scan"}, "is_reserved": 0, "fusion_lon": 0.0, "fusion_lat": 0.0, "lon": -76.9532835, "name": "71f23b6d3b3989bd4cd8e5b39ece586b"}, {"bike_id": "68c0302ece81218277e0ae8ac126833c", "type": "electric_scooter", "is_disabled": 0, "lat": 38.93371483333333, "rental_uris": {"ios": "https://dc.lft.to/lastmile_qr_scan", "android": "https://dc.lft.to/lastmile_qr_scan"}, "is_reserved": 0, "fusion_lon": 0.0, "fusion_lat": 0.0, "lon": -77.05726916666667, "name": "68c0302ece81218277e0ae8ac126833c"}, {"bike_id": "c82e3ba37f70d218cdfb7d69c10d7fe5", "type": "electric_scooter", "is_disabled": 0, "lat": 38.88531433333333, "rental_uris": {"ios": "https://dc.lft.to/lastmile_qr_scan", "android": "https://dc.lft.to/lastmile_qr_scan"}, "is_reserved": 0, "fusion_lon": 0.0, "fusion_lat": 0.0, "lon": -76.99830566666667, "name": "c82e3ba37f70d218cdfb7d69c10d7fe5"}, {"bike_id": "51afbd009d1baeef37d4b059099622f9", "type": "electric_scooter", "is_disabled": 0, "lat": 38.90731233333333, "rental_uris": {"ios": "https://dc.lft.to/lastmile_qr_scan", "android": "https://dc.lft.to/lastmile_qr_scan"}, "is_reserved": 0, "fusion_lon": 0.0, "fusion_lat": 0.0, "lon": -77.03211016666667, "name": "51afbd009d1baeef37d4b059099622f9"}, {"bike_id": "e7c58919c067e058d5c414309ff45939", "type": "electric_scooter", "is_disabled": 0, "lat": 38.86502733333333, "rental_uris": {"ios": "https://dc.lft.to/lastmile_qr_scan", "android": "https://dc.lft.to/lastmile_qr_scan"}, "is_reserved": 0, "fusion_lon": 0.0, "fusion_lat": 0.0, "lon": -76.990028, "name": "e7c58919c067e058d5c414309ff45939"}, {"bike_id": "00472264badf0f7b28313f41394500ec", "type": "electric_bike", "is_disabled": 0, "lat": 38.807599833333335, "rental_uris": {"ios": "https://dc.lft.to/lastmile_qr_scan", "android": "https://dc.lft.to/lastmile_qr_scan"}, "is_reserved": 0, "fusion_lon": 0.0, "fusion_lat": 0.0, "lon": -77.0946375, "name": "00472264badf0f7b28313f41394500ec"}, {"bike_id": "3b4e002d05e050686691f24017b7c8b7", "type": "electric_scooter", "is_disabled": 0, "lat": 38.91615916666667, "rental_uris": {"ios": "https://dc.lft.to/lastmile_qr_scan", "android": "https://dc.lft.to/lastmile_qr_scan"}, "is_reserved": 0, "fusion_lon": 0.0, "fusion_lat": 0.0, "lon": -77.033657, "name": "3b4e002d05e050686691f24017b7c8b7"}, {"bike_id": "ce1a2b71c5a72031d3d750640c9b8742", "type": "electric_scooter", "is_disabled": 0, "lat": 38.919825, "rental_uris": {"ios": "https://dc.lft.to/lastmile_qr_scan", "android": "https://dc.lft.to/lastmile_qr_scan"}, "is_reserved": 0, "fusion_lon": 0.0, "fusion_lat": 0.0, "lon": -77.0179385, "name": "ce1a2b71c5a72031d3d750640c9b8742"}, {"bike_id": "95c6dbae2bb85df675a649efc2722e94", "type": "electric_scooter", "is_disabled": 0, "lat": 38.922519666666666, "rental_uris": {"ios": "https://dc.lft.to/lastmile_qr_scan", "android": "https://dc.lft.to/lastmile_qr_scan"}, "is_reserved": 0, "fusion_lon": 0.0, "fusion_lat": 0.0, "lon": -77.0352615, "name": "95c6dbae2bb85df675a649efc2722e94"}, {"bike_id": "1e07e355cbd63772ddc40e349715b0d7", "type": "electric_scooter", "is_disabled": 0, "lat": 38.91327, "rental_uris": {"ios": "https://dc.lft.to/lastmile_qr_scan", "android": "https://dc.lft.to/lastmile_qr_scan"}, "is_reserved": 0, "fusion_lon": 0.0, "fusion_lat": 0.0, "lon": -77.039807, "name": "1e07e355cbd63772ddc40e349715b0d7"}, {"bike_id": "6a9477b44712248b47cea98b9d2bee86", "type": "electric_scooter", "is_disabled": 0, "lat": 38.92387266666667, "rental_uris": {"ios": "https://dc.lft.to/lastmile_qr_scan", "android": "https://dc.lft.to/lastmile_qr_scan"}, "is_reserved": 0, "fusion_lon": 0.0, "fusion_lat": 0.0, "lon": -77.04469416666667, "name": "6a9477b44712248b47cea98b9d2bee86"}, {"bike_id": "29ee5df8c5290f003a5bbfef00094592", "type": "electric_scooter", "is_disabled": 0, "lat": 38.916903, "rental_uris": {"ios": "https://dc.lft.to/lastmile_qr_scan", "android": "https://dc.lft.to/lastmile_qr_scan"}, "is_reserved": 0, "fusion_lon": 0.0, "fusion_lat": 0.0, "lon": -77.03216816666666, "name": "29ee5df8c5290f003a5bbfef00094592"}, {"bike_id": "d53e4a4df494020a7a14184e1a8cdb1c", "type": "electric_scooter", "is_disabled": 0, "lat": 38.9557585, "rental_uris": {"ios": "https://dc.lft.to/lastmile_qr_scan", "android": "https://dc.lft.to/lastmile_qr_scan"}, "is_reserved": 0, "fusion_lon": 0.0, "fusion_lat": 0.0, "lon": -77.08039733333334, "name": "d53e4a4df494020a7a14184e1a8cdb1c"}, {"bike_id": "173f4328264227cd5e743629373170ff", "type": "electric_scooter", "is_disabled": 0, "lat": 38.928356, "rental_uris": {"ios": "https://dc.lft.to/lastmile_qr_scan", "android": "https://dc.lft.to/lastmile_qr_scan"}, "is_reserved": 0, "fusion_lon": 0.0, "fusion_lat": 0.0, "lon": -77.05517083333334, "name": "173f4328264227cd5e743629373170ff"}, {"bike_id": "26d161b68fc32e0523932813c3ba84a5", "type": "electric_scooter", "is_disabled": 0, "lat": 38.87865866666667, "rental_uris": {"ios": "https://dc.lft.to/lastmile_qr_scan", "android": "https://dc.lft.to/lastmile_qr_scan"}, "is_reserved": 0, "fusion_lon": 0.0, "fusion_lat": 0.0, "lon": -77.008716, "name": "26d161b68fc32e0523932813c3ba84a5"}, {"bike_id": "5f5582d7cfde688f30ede366c715dff6", "type": "electric_scooter", "is_disabled": 0, "lat": 38.98431633333333, "rental_uris": {"ios": "https://dc.lft.to/lastmile_qr_scan", "android": "https://dc.lft.to/lastmile_qr_scan"}, "is_reserved": 0, "fusion_lon": 0.0, "fusion_lat": 0.0, "lon": -77.026739, "name": "5f5582d7cfde688f30ede366c715dff6"}, {"bike_id": "3e010b6c3ab829845f069ea895522ffe", "type": "electric_scooter", "is_disabled": 0, "lat": 38.927988666666664, "rental_uris": {"ios": "https://dc.lft.to/lastmile_qr_scan", "android": "https://dc.lft.to/lastmile_qr_scan"}, "is_reserved": 0, "fusion_lon": 0.0, "fusion_lat": 0.0, "lon": -77.02390533333333, "name": "3e010b6c3ab829845f069ea895522ffe"}, {"bike_id": "efedc4d223afd1590005ee4335d3ab34", "type": "electric_bike", "is_disabled": 0, "lat": 38.956271666666666, "rental_uris": {"ios": "https://dc.lft.to/lastmile_qr_scan", "android": "https://dc.lft.to/lastmile_qr_scan"}, "is_reserved": 0, "fusion_lon": 0.0, "fusion_lat": 0.0, "lon": -76.93874383333333, "name": "efedc4d223afd1590005ee4335d3ab34"}, {"bike_id": "2877644b93dd35a2a6c2517d875553d1", "type": "electric_bike", "is_disabled": 0, "lat": 38.8097695, "rental_uris": {"ios": "https://dc.lft.to/lastmile_qr_scan", "android": "https://dc.lft.to/lastmile_qr_scan"}, "is_reserved": 0, "fusion_lon": 0.0, "fusion_lat": 0.0, "lon": -77.08632083333333, "name": "2877644b93dd35a2a6c2517d875553d1"}, {"bike_id": "1c556fe99a650762289dbc5b46feb1ac", "type": "electric_scooter", "is_disabled": 0, "lat": 38.92239333333333, "rental_uris": {"ios": "https://dc.lft.to/lastmile_qr_scan", "android": "https://dc.lft.to/lastmile_qr_scan"}, "is_reserved": 0, "fusion_lon": 0.0, "fusion_lat": 0.0, "lon": -77.01967366666666, "name": "1c556fe99a650762289dbc5b46feb1ac"}, {"bike_id": "186820d51262c0b42aa15ce9924939f5", "type": "electric_scooter", "is_disabled": 0, "lat": 38.881604333333335, "rental_uris": {"ios": "https://dc.lft.to/lastmile_qr_scan", "android": "https://dc.lft.to/lastmile_qr_scan"}, "is_reserved": 0, "fusion_lon": 0.0, "fusion_lat": 0.0, "lon": -77.02766916666667, "name": "186820d51262c0b42aa15ce9924939f5"}, {"bike_id": "b169940014ef15481679e11f918a475c", "type": "electric_scooter", "is_disabled": 0, "lat": 38.863742, "rental_uris": {"ios": "https://dc.lft.to/lastmile_qr_scan", "android": "https://dc.lft.to/lastmile_qr_scan"}, "is_reserved": 0, "fusion_lon": 0.0, "fusion_lat": 0.0, "lon": -76.99064283333334, "name": "b169940014ef15481679e11f918a475c"}, {"bike_id": "6af774d17810685d05c07accfe191447", "type": "electric_scooter", "is_disabled": 0, "lat": 38.928596, "rental_uris": {"ios": "https://dc.lft.to/lastmile_qr_scan", "android": "https://dc.lft.to/lastmile_qr_scan"}, "is_reserved": 0, "fusion_lon": 0.0, "fusion_lat": 0.0, "lon": -77.037129, "name": "6af774d17810685d05c07accfe191447"}, {"bike_id": "c252f0408ff0517196e8cc934b3b6ee9", "type": "electric_scooter", "is_disabled": 0, "lat": 38.90311, "rental_uris": {"ios": "https://dc.lft.to/lastmile_qr_scan", "android": "https://dc.lft.to/lastmile_qr_scan"}, "is_reserved": 0, "fusion_lon": 0.0, "fusion_lat": 0.0, "lon": -76.9913355, "name": "c252f0408ff0517196e8cc934b3b6ee9"}, {"bike_id": "aded4d69013525119ac80490508c6923", "type": "electric_scooter", "is_disabled": 0, "lat": 38.91769383333333, "rental_uris": {"ios": "https://dc.lft.to/lastmile_qr_scan", "android": "https://dc.lft.to/lastmile_qr_scan"}, "is_reserved": 0, "fusion_lon": 0.0, "fusion_lat": 0.0, "lon": -77.04768366666667, "name": "aded4d69013525119ac80490508c6923"}, {"bike_id": "f2b0579747cb44fe47d4398f1e41a6c9", "type": "electric_scooter", "is_disabled": 0, "lat": 38.900217166666664, "rental_uris": {"ios": "https://dc.lft.to/lastmile_qr_scan", "android": "https://dc.lft.to/lastmile_qr_scan"}, "is_reserved": 0, "fusion_lon": 0.0, "fusion_lat": 0.0, "lon": -77.00189233333333, "name": "f2b0579747cb44fe47d4398f1e41a6c9"}, {"bike_id": "e4e6e1f318fc68bc932b52e2272c1b86", "type": "electric_scooter", "is_disabled": 0, "lat": 38.897026833333335, "rental_uris": {"ios": "https://dc.lft.to/lastmile_qr_scan", "android": "https://dc.lft.to/lastmile_qr_scan"}, "is_reserved": 0, "fusion_lon": 0.0, "fusion_lat": 0.0, "lon": -77.02287516666667, "name": "e4e6e1f318fc68bc932b52e2272c1b86"}, {"bike_id": "c855d2f4d12e0262b4c1b0b01613faaf", "type": "electric_scooter", "is_disabled": 0, "lat": 38.918201833333335, "rental_uris": {"ios": "https://dc.lft.to/lastmile_qr_scan", "android": "https://dc.lft.to/lastmile_qr_scan"}, "is_reserved": 0, "fusion_lon": 0.0, "fusion_lat": 0.0, "lon": -77.04944283333333, "name": "c855d2f4d12e0262b4c1b0b01613faaf"}, {"bike_id": "87442a204295b77b6e5b8ff1d2d4e7a7", "type": "electric_scooter", "is_disabled": 0, "lat": 38.909659, "rental_uris": {"ios": "https://dc.lft.to/lastmile_qr_scan", "android": "https://dc.lft.to/lastmile_qr_scan"}, "is_reserved": 0, "fusion_lon": 0.0, "fusion_lat": 0.0, "lon": -77.04648133333333, "name": "87442a204295b77b6e5b8ff1d2d4e7a7"}, {"bike_id": "91b9ecf52f37807ce0e7e28f149c7b7d", "type": "electric_scooter", "is_disabled": 0, "lat": 38.944387, "rental_uris": {"ios": "https://dc.lft.to/lastmile_qr_scan", "android": "https://dc.lft.to/lastmile_qr_scan"}, "is_reserved": 0, "fusion_lon": 0.0, "fusion_lat": 0.0, "lon": -77.01451833333333, "name": "91b9ecf52f37807ce0e7e28f149c7b7d"}, {"bike_id": "1edb16341b6cf0402144914c6ca1a369", "type": "electric_bike", "is_disabled": 0, "lat": 39.05280283333333, "rental_uris": {"ios": "https://dc.lft.to/lastmile_qr_scan", "android": "https://dc.lft.to/lastmile_qr_scan"}, "is_reserved": 0, "fusion_lon": 0.0, "fusion_lat": 0.0, "lon": -77.0806955, "name": "1edb16341b6cf0402144914c6ca1a369"}, {"bike_id": "ceb26fb2d49fa84650eea4e9cd8ba1cd", "type": "electric_scooter", "is_disabled": 0, "lat": 38.9309775, "rental_uris": {"ios": "https://dc.lft.to/lastmile_qr_scan", "android": "https://dc.lft.to/lastmile_qr_scan"}, "is_reserved": 0, "fusion_lon": 0.0, "fusion_lat": 0.0, "lon": -77.02478683333334, "name": "ceb26fb2d49fa84650eea4e9cd8ba1cd"}, {"bike_id": "4bcd06e8cdab848fe67ef8b10338c3a7", "type": "electric_scooter", "is_disabled": 0, "lat": 38.90173466666667, "rental_uris": {"ios": "https://dc.lft.to/lastmile_qr_scan", "android": "https://dc.lft.to/lastmile_qr_scan"}, "is_reserved": 0, "fusion_lon": 0.0, "fusion_lat": 0.0, "lon": -76.98059716666667, "name": "4bcd06e8cdab848fe67ef8b10338c3a7"}, {"bike_id": "2d673ab28c02f08628832c73fca584a3", "type": "electric_scooter", "is_disabled": 0, "lat": 38.9347575, "rental_uris": {"ios": "https://dc.lft.to/lastmile_qr_scan", "android": "https://dc.lft.to/lastmile_qr_scan"}, "is_reserved": 0, "fusion_lon": 0.0, "fusion_lat": 0.0, "lon": -77.03578883333333, "name": "2d673ab28c02f08628832c73fca584a3"}, {"bike_id": "786ee942dcf70bc673e29bb07522f896", "type": "electric_scooter", "is_disabled": 0, "lat": 38.93342533333333, "rental_uris": {"ios": "https://dc.lft.to/lastmile_qr_scan", "android": "https://dc.lft.to/lastmile_qr_scan"}, "is_reserved": 0, "fusion_lon": 0.0, "fusion_lat": 0.0, "lon": -77.02058916666667, "name": "786ee942dcf70bc673e29bb07522f896"}, {"bike_id": "fface87b393619d107d2400bedc0052c", "type": "electric_scooter", "is_disabled": 0, "lat": 38.93130883333333, "rental_uris": {"ios": "https://dc.lft.to/lastmile_qr_scan", "android": "https://dc.lft.to/lastmile_qr_scan"}, "is_reserved": 0, "fusion_lon": 0.0, "fusion_lat": 0.0, "lon": -76.99576166666667, "name": "fface87b393619d107d2400bedc0052c"}, {"bike_id": "d61f359bae1b5780c3914473fa101047", "type": "electric_scooter", "is_disabled": 0, "lat": 38.86694833333333, "rental_uris": {"ios": "https://dc.lft.to/lastmile_qr_scan", "android": "https://dc.lft.to/lastmile_qr_scan"}, "is_reserved": 0, "fusion_lon": 0.0, "fusion_lat": 0.0, "lon": -76.98714983333333, "name": "d61f359bae1b5780c3914473fa101047"}, {"bike_id": "708910e703ae60eec78ad6425578c570", "type": "electric_scooter", "is_disabled": 0, "lat": 38.90704783333334, "rental_uris": {"ios": "https://dc.lft.to/lastmile_qr_scan", "android": "https://dc.lft.to/lastmile_qr_scan"}, "is_reserved": 0, "fusion_lon": 0.0, "fusion_lat": 0.0, "lon": -77.02384783333333, "name": "708910e703ae60eec78ad6425578c570"}, {"bike_id": "bb479a4afc1e5d9dd29da6fd3784adf2", "type": "electric_scooter", "is_disabled": 0, "lat": 38.88131216666667, "rental_uris": {"ios": "https://dc.lft.to/lastmile_qr_scan", "android": "https://dc.lft.to/lastmile_qr_scan"}, "is_reserved": 0, "fusion_lon": 0.0, "fusion_lat": 0.0, "lon": -76.98349533333334, "name": "bb479a4afc1e5d9dd29da6fd3784adf2"}, {"bike_id": "ebb3fcc9ee163bfc0bee4ade7facc28e", "type": "electric_scooter", "is_disabled": 0, "lat": 38.94745566666667, "rental_uris": {"ios": "https://dc.lft.to/lastmile_qr_scan", "android": "https://dc.lft.to/lastmile_qr_scan"}, "is_reserved": 0, "fusion_lon": 0.0, "fusion_lat": 0.0, "lon": -77.075898, "name": "ebb3fcc9ee163bfc0bee4ade7facc28e"}, {"bike_id": "ff7ec3c11e296beca0f6fc503b37eb73", "type": "electric_scooter", "is_disabled": 0, "lat": 38.91699833333333, "rental_uris": {"ios": "https://dc.lft.to/lastmile_qr_scan", "android": "https://dc.lft.to/lastmile_qr_scan"}, "is_reserved": 0, "fusion_lon": 0.0, "fusion_lat": 0.0, "lon": -77.0065455, "name": "ff7ec3c11e296beca0f6fc503b37eb73"}, {"bike_id": "1eaeccac445b0118d111716321d43f9b", "type": "electric_scooter", "is_disabled": 0, "lat": 38.9126565, "rental_uris": {"ios": "https://dc.lft.to/lastmile_qr_scan", "android": "https://dc.lft.to/lastmile_qr_scan"}, "is_reserved": 0, "fusion_lon": 0.0, "fusion_lat": 0.0, "lon": -77.01764133333333, "name": "1eaeccac445b0118d111716321d43f9b"}, {"bike_id": "2af28a1b4d058b6452b408dc6b447849", "type": "electric_scooter", "is_disabled": 0, "lat": 38.924719333333336, "rental_uris": {"ios": "https://dc.lft.to/lastmile_qr_scan", "android": "https://dc.lft.to/lastmile_qr_scan"}, "is_reserved": 0, "fusion_lon": 0.0, "fusion_lat": 0.0, "lon": -77.02844416666667, "name": "2af28a1b4d058b6452b408dc6b447849"}, {"bike_id": "9fc0fbc58df5f4255fa510043d9145e9", "type": "electric_scooter", "is_disabled": 0, "lat": 38.9271195, "rental_uris": {"ios": "https://dc.lft.to/lastmile_qr_scan", "android": "https://dc.lft.to/lastmile_qr_scan"}, "is_reserved": 0, "fusion_lon": 0.0, "fusion_lat": 0.0, "lon": -77.02090066666666, "name": "9fc0fbc58df5f4255fa510043d9145e9"}, {"bike_id": "3c679bbbe89910c4daaae476c1f69438", "type": "electric_scooter", "is_disabled": 0, "lat": 38.906977833333336, "rental_uris": {"ios": "https://dc.lft.to/lastmile_qr_scan", "android": "https://dc.lft.to/lastmile_qr_scan"}, "is_reserved": 0, "fusion_lon": 0.0, "fusion_lat": 0.0, "lon": -76.9872605, "name": "3c679bbbe89910c4daaae476c1f69438"}, {"bike_id": "558595d4a7213b8a21e9ed0063bdfa1e", "type": "electric_scooter", "is_disabled": 0, "lat": 38.907308, "rental_uris": {"ios": "https://dc.lft.to/lastmile_qr_scan", "android": "https://dc.lft.to/lastmile_qr_scan"}, "is_reserved": 0, "fusion_lon": 0.0, "fusion_lat": 0.0, "lon": -77.04340066666667, "name": "558595d4a7213b8a21e9ed0063bdfa1e"}, {"bike_id": "7f86e049ede4bdde31c2fc664c20e6b6", "type": "electric_scooter", "is_disabled": 0, "lat": 38.92359966666667, "rental_uris": {"ios": "https://dc.lft.to/lastmile_qr_scan", "android": "https://dc.lft.to/lastmile_qr_scan"}, "is_reserved": 0, "fusion_lon": 0.0, "fusion_lat": 0.0, "lon": -77.0763735, "name": "7f86e049ede4bdde31c2fc664c20e6b6"}, {"bike_id": "67475f7629e29060b0c5c9ae9a44c63b", "type": "electric_scooter", "is_disabled": 0, "lat": 38.91680183333333, "rental_uris": {"ios": "https://dc.lft.to/lastmile_qr_scan", "android": "https://dc.lft.to/lastmile_qr_scan"}, "is_reserved": 0, "fusion_lon": 0.0, "fusion_lat": 0.0, "lon": -77.02974166666667, "name": "67475f7629e29060b0c5c9ae9a44c63b"}, {"bike_id": "64d5b7fe27a2188024c708399b3749b1", "type": "electric_scooter", "is_disabled": 0, "lat": 38.9197745, "rental_uris": {"ios": "https://dc.lft.to/lastmile_qr_scan", "android": "https://dc.lft.to/lastmile_qr_scan"}, "is_reserved": 0, "fusion_lon": 0.0, "fusion_lat": 0.0, "lon": -77.0396745, "name": "64d5b7fe27a2188024c708399b3749b1"}, {"bike_id": "dee4b18f37601ef6d641f1edb8b5e627", "type": "electric_scooter", "is_disabled": 0, "lat": 38.91416983333333, "rental_uris": {"ios": "https://dc.lft.to/lastmile_qr_scan", "android": "https://dc.lft.to/lastmile_qr_scan"}, "is_reserved": 0, "fusion_lon": 0.0, "fusion_lat": 0.0, "lon": -77.03178983333333, "name": "dee4b18f37601ef6d641f1edb8b5e627"}, {"bike_id": "3d4a29bf8c60c143fd39c522d045c92c", "type": "electric_scooter", "is_disabled": 0, "lat": 38.921931666666666, "rental_uris": {"ios": "https://dc.lft.to/lastmile_qr_scan", "android": "https://dc.lft.to/lastmile_qr_scan"}, "is_reserved": 0, "fusion_lon": 0.0, "fusion_lat": 0.0, "lon": -77.0469205, "name": "3d4a29bf8c60c143fd39c522d045c92c"}, {"bike_id": "dcb9f6c7bd919289ab6c5f77ac7fff58", "type": "electric_bike", "is_disabled": 0, "lat": 38.911907166666666, "rental_uris": {"ios": "https://dc.lft.to/lastmile_qr_scan", "android": "https://dc.lft.to/lastmile_qr_scan"}, "is_reserved": 0, "fusion_lon": 0.0, "fusion_lat": 0.0, "lon": -77.05942183333333, "name": "dcb9f6c7bd919289ab6c5f77ac7fff58"}, {"bike_id": "0968e0d26cdbfa15500a43b54cbc66a3", "type": "electric_scooter", "is_disabled": 0, "lat": 38.854609833333335, "rental_uris": {"ios": "https://dc.lft.to/lastmile_qr_scan", "android": "https://dc.lft.to/lastmile_qr_scan"}, "is_reserved": 0, "fusion_lon": 0.0, "fusion_lat": 0.0, "lon": -76.97244933333333, "name": "0968e0d26cdbfa15500a43b54cbc66a3"}, {"bike_id": "833112d6bba6c412ee443a5dbc7c7652", "type": "electric_scooter", "is_disabled": 0, "lat": 38.92054233333333, "rental_uris": {"ios": "https://dc.lft.to/lastmile_qr_scan", "android": "https://dc.lft.to/lastmile_qr_scan"}, "is_reserved": 0, "fusion_lon": 0.0, "fusion_lat": 0.0, "lon": -76.99885316666666, "name": "833112d6bba6c412ee443a5dbc7c7652"}, {"bike_id": "4703ebe50dbd40820ab96c08e2ce6382", "type": "electric_scooter", "is_disabled": 0, "lat": 38.92323566666666, "rental_uris": {"ios": "https://dc.lft.to/lastmile_qr_scan", "android": "https://dc.lft.to/lastmile_qr_scan"}, "is_reserved": 0, "fusion_lon": 0.0, "fusion_lat": 0.0, "lon": -77.0296675, "name": "4703ebe50dbd40820ab96c08e2ce6382"}, {"bike_id": "77a2eefe988b44019b7d3a89a67efecb", "type": "electric_bike", "is_disabled": 0, "lat": 38.96957966666667, "rental_uris": {"ios": "https://dc.lft.to/lastmile_qr_scan", "android": "https://dc.lft.to/lastmile_qr_scan"}, "is_reserved": 0, "fusion_lon": 0.0, "fusion_lat": 0.0, "lon": -76.95748716666667, "name": "77a2eefe988b44019b7d3a89a67efecb"}, {"bike_id": "6a23171835046c9f8419d6fd82d93ec8", "type": "electric_scooter", "is_disabled": 0, "lat": 38.92149933333334, "rental_uris": {"ios": "https://dc.lft.to/lastmile_qr_scan", "android": "https://dc.lft.to/lastmile_qr_scan"}, "is_reserved": 0, "fusion_lon": 0.0, "fusion_lat": 0.0, "lon": -77.03443133333333, "name": "6a23171835046c9f8419d6fd82d93ec8"}, {"bike_id": "588661bd9a40203a39c20603439722bb", "type": "electric_scooter", "is_disabled": 0, "lat": 38.8829795, "rental_uris": {"ios": "https://dc.lft.to/lastmile_qr_scan", "android": "https://dc.lft.to/lastmile_qr_scan"}, "is_reserved": 0, "fusion_lon": 0.0, "fusion_lat": 0.0, "lon": -76.94854266666667, "name": "588661bd9a40203a39c20603439722bb"}, {"bike_id": "7e7801cd3afa861eca9637e8ef45adf1", "type": "electric_scooter", "is_disabled": 0, "lat": 38.92470516666667, "rental_uris": {"ios": "https://dc.lft.to/lastmile_qr_scan", "android": "https://dc.lft.to/lastmile_qr_scan"}, "is_reserved": 0, "fusion_lon": 0.0, "fusion_lat": 0.0, "lon": -77.02835416666667, "name": "7e7801cd3afa861eca9637e8ef45adf1"}, {"bike_id": "0e7f96dfc4c1536ba6ca3b9b2a200f5d", "type": "electric_scooter", "is_disabled": 0, "lat": 38.904855833333336, "rental_uris": {"ios": "https://dc.lft.to/lastmile_qr_scan", "android": "https://dc.lft.to/lastmile_qr_scan"}, "is_reserved": 0, "fusion_lon": 0.0, "fusion_lat": 0.0, "lon": -76.94960233333333, "name": "0e7f96dfc4c1536ba6ca3b9b2a200f5d"}, {"bike_id": "c55b41e1cad7517cbf36cc0d18bbab65", "type": "electric_scooter", "is_disabled": 0, "lat": 38.92207466666667, "rental_uris": {"ios": "https://dc.lft.to/lastmile_qr_scan", "android": "https://dc.lft.to/lastmile_qr_scan"}, "is_reserved": 0, "fusion_lon": 0.0, "fusion_lat": 0.0, "lon": -77.0365625, "name": "c55b41e1cad7517cbf36cc0d18bbab65"}, {"bike_id": "669a0e66e1eda5e2c5a746872fbec75b", "type": "electric_scooter", "is_disabled": 0, "lat": 38.9106835, "rental_uris": {"ios": "https://dc.lft.to/lastmile_qr_scan", "android": "https://dc.lft.to/lastmile_qr_scan"}, "is_reserved": 0, "fusion_lon": 0.0, "fusion_lat": 0.0, "lon": -77.027248, "name": "669a0e66e1eda5e2c5a746872fbec75b"}, {"bike_id": "0e43d0631651686aa7d095dc43ed2088", "type": "electric_scooter", "is_disabled": 0, "lat": 38.863721, "rental_uris": {"ios": "https://dc.lft.to/lastmile_qr_scan", "android": "https://dc.lft.to/lastmile_qr_scan"}, "is_reserved": 0, "fusion_lon": 0.0, "fusion_lat": 0.0, "lon": -76.99062366666666, "name": "0e43d0631651686aa7d095dc43ed2088"}, {"bike_id": "2fb729f65913d9117529cf01acd361db", "type": "electric_scooter", "is_disabled": 0, "lat": 38.86687516666667, "rental_uris": {"ios": "https://dc.lft.to/lastmile_qr_scan", "android": "https://dc.lft.to/lastmile_qr_scan"}, "is_reserved": 0, "fusion_lon": 0.0, "fusion_lat": 0.0, "lon": -76.98559416666667, "name": "2fb729f65913d9117529cf01acd361db"}, {"bike_id": "41b368206addccd1a8d5e7273bcff36a", "type": "electric_scooter", "is_disabled": 0, "lat": 38.921917, "rental_uris": {"ios": "https://dc.lft.to/lastmile_qr_scan", "android": "https://dc.lft.to/lastmile_qr_scan"}, "is_reserved": 0, "fusion_lon": 0.0, "fusion_lat": 0.0, "lon": -77.046975, "name": "41b368206addccd1a8d5e7273bcff36a"}, {"bike_id": "ec0a5036b061e2ca27577b51164c9094", "type": "electric_scooter", "is_disabled": 0, "lat": 38.9233605, "rental_uris": {"ios": "https://dc.lft.to/lastmile_qr_scan", "android": "https://dc.lft.to/lastmile_qr_scan"}, "is_reserved": 0, "fusion_lon": 0.0, "fusion_lat": 0.0, "lon": -77.03614566666667, "name": "ec0a5036b061e2ca27577b51164c9094"}, {"bike_id": "6d193cf1297c6e5265a4a2e0ac3dc31b", "type": "electric_scooter", "is_disabled": 0, "lat": 38.90591783333333, "rental_uris": {"ios": "https://dc.lft.to/lastmile_qr_scan", "android": "https://dc.lft.to/lastmile_qr_scan"}, "is_reserved": 0, "fusion_lon": 0.0, "fusion_lat": 0.0, "lon": -77.07363633333334, "name": "6d193cf1297c6e5265a4a2e0ac3dc31b"}, {"bike_id": "bc2e15521dd789e39f19608cc64c9675", "type": "electric_scooter", "is_disabled": 0, "lat": 38.896075333333336, "rental_uris": {"ios": "https://dc.lft.to/lastmile_qr_scan", "android": "https://dc.lft.to/lastmile_qr_scan"}, "is_reserved": 0, "fusion_lon": 0.0, "fusion_lat": 0.0, "lon": -77.00332333333333, "name": "bc2e15521dd789e39f19608cc64c9675"}, {"bike_id": "de1ddd6bc0c614d4aa6d01d4c81a0e9d", "type": "electric_scooter", "is_disabled": 0, "lat": 38.921953, "rental_uris": {"ios": "https://dc.lft.to/lastmile_qr_scan", "android": "https://dc.lft.to/lastmile_qr_scan"}, "is_reserved": 0, "fusion_lon": 0.0, "fusion_lat": 0.0, "lon": -77.02028366666667, "name": "de1ddd6bc0c614d4aa6d01d4c81a0e9d"}, {"bike_id": "d5e3803f0c38d5846d16e17a3ab3d9e1", "type": "electric_scooter", "is_disabled": 0, "lat": 38.904794, "rental_uris": {"ios": "https://dc.lft.to/lastmile_qr_scan", "android": "https://dc.lft.to/lastmile_qr_scan"}, "is_reserved": 0, "fusion_lon": 0.0, "fusion_lat": 0.0, "lon": -77.053734, "name": "d5e3803f0c38d5846d16e17a3ab3d9e1"}, {"bike_id": "5f6c94c426de66556ed30be26158f94d", "type": "electric_scooter", "is_disabled": 0, "lat": 38.916903833333336, "rental_uris": {"ios": "https://dc.lft.to/lastmile_qr_scan", "android": "https://dc.lft.to/lastmile_qr_scan"}, "is_reserved": 0, "fusion_lon": 0.0, "fusion_lat": 0.0, "lon": -77.028765, "name": "5f6c94c426de66556ed30be26158f94d"}, {"bike_id": "367deb1b7fc6b0aa571ec6e5641fd191", "type": "electric_scooter", "is_disabled": 0, "lat": 38.89882266666667, "rental_uris": {"ios": "https://dc.lft.to/lastmile_qr_scan", "android": "https://dc.lft.to/lastmile_qr_scan"}, "is_reserved": 0, "fusion_lon": 0.0, "fusion_lat": 0.0, "lon": -76.97704333333333, "name": "367deb1b7fc6b0aa571ec6e5641fd191"}, {"bike_id": "81733e1e6d280290cccd327d1e3239b0", "type": "electric_scooter", "is_disabled": 0, "lat": 38.91876833333333, "rental_uris": {"ios": "https://dc.lft.to/lastmile_qr_scan", "android": "https://dc.lft.to/lastmile_qr_scan"}, "is_reserved": 0, "fusion_lon": 0.0, "fusion_lat": 0.0, "lon": -77.035086, "name": "81733e1e6d280290cccd327d1e3239b0"}, {"bike_id": "c8c63109403921fa3c5e24841b1c87e4", "type": "electric_scooter", "is_disabled": 0, "lat": 38.9186635, "rental_uris": {"ios": "https://dc.lft.to/lastmile_qr_scan", "android": "https://dc.lft.to/lastmile_qr_scan"}, "is_reserved": 0, "fusion_lon": 0.0, "fusion_lat": 0.0, "lon": -77.01207216666667, "name": "c8c63109403921fa3c5e24841b1c87e4"}, {"bike_id": "f2c1e15dfdcf6d9b9f2bfa4bfc2a5321", "type": "electric_scooter", "is_disabled": 0, "lat": 38.95646333333333, "rental_uris": {"ios": "https://dc.lft.to/lastmile_qr_scan", "android": "https://dc.lft.to/lastmile_qr_scan"}, "is_reserved": 0, "fusion_lon": 0.0, "fusion_lat": 0.0, "lon": -77.02394583333333, "name": "f2c1e15dfdcf6d9b9f2bfa4bfc2a5321"}, {"bike_id": "beb7d8aaf7737a5b1bd9d589e789aa25", "type": "electric_scooter", "is_disabled": 0, "lat": 38.906375833333335, "rental_uris": {"ios": "https://dc.lft.to/lastmile_qr_scan", "android": "https://dc.lft.to/lastmile_qr_scan"}, "is_reserved": 0, "fusion_lon": 0.0, "fusion_lat": 0.0, "lon": -77.02507666666666, "name": "beb7d8aaf7737a5b1bd9d589e789aa25"}, {"bike_id": "72c6b9f1bd6722175e670f9687bfbcab", "type": "electric_scooter", "is_disabled": 0, "lat": 38.938976, "rental_uris": {"ios": "https://dc.lft.to/lastmile_qr_scan", "android": "https://dc.lft.to/lastmile_qr_scan"}, "is_reserved": 0, "fusion_lon": 0.0, "fusion_lat": 0.0, "lon": -77.01680983333334, "name": "72c6b9f1bd6722175e670f9687bfbcab"}, {"bike_id": "3f514ae952da758cf67c610dffd4a685", "type": "electric_bike", "is_disabled": 0, "lat": 38.835469833333335, "rental_uris": {"ios": "https://dc.lft.to/lastmile_qr_scan", "android": "https://dc.lft.to/lastmile_qr_scan"}, "is_reserved": 0, "fusion_lon": 0.0, "fusion_lat": 0.0, "lon": -77.00115433333333, "name": "3f514ae952da758cf67c610dffd4a685"}, {"bike_id": "b25c26b5b502d261f37d30e0f6260b74", "type": "electric_scooter", "is_disabled": 0, "lat": 38.925355833333334, "rental_uris": {"ios": "https://dc.lft.to/lastmile_qr_scan", "android": "https://dc.lft.to/lastmile_qr_scan"}, "is_reserved": 0, "fusion_lon": 0.0, "fusion_lat": 0.0, "lon": -77.0412835, "name": "b25c26b5b502d261f37d30e0f6260b74"}, {"bike_id": "5adb11146251b893cfc07fbd09826970", "type": "electric_scooter", "is_disabled": 0, "lat": 38.914554333333335, "rental_uris": {"ios": "https://dc.lft.to/lastmile_qr_scan", "android": "https://dc.lft.to/lastmile_qr_scan"}, "is_reserved": 0, "fusion_lon": 0.0, "fusion_lat": 0.0, "lon": -77.07105983333334, "name": "5adb11146251b893cfc07fbd09826970"}, {"bike_id": "720b48fe917979d78e3b94a9ab1c04f0", "type": "electric_bike", "is_disabled": 0, "lat": 38.95404083333333, "rental_uris": {"ios": "https://dc.lft.to/lastmile_qr_scan", "android": "https://dc.lft.to/lastmile_qr_scan"}, "is_reserved": 0, "fusion_lon": 0.0, "fusion_lat": 0.0, "lon": -76.98049933333333, "name": "720b48fe917979d78e3b94a9ab1c04f0"}, {"bike_id": "f3933afc441749af2b391dd50ac73e27", "type": "electric_scooter", "is_disabled": 0, "lat": 38.897367, "rental_uris": {"ios": "https://dc.lft.to/lastmile_qr_scan", "android": "https://dc.lft.to/lastmile_qr_scan"}, "is_reserved": 0, "fusion_lon": 0.0, "fusion_lat": 0.0, "lon": -77.00006616666667, "name": "f3933afc441749af2b391dd50ac73e27"}, {"bike_id": "14e667ada64df3106206ee7695c8220c", "type": "electric_scooter", "is_disabled": 0, "lat": 38.89543783333333, "rental_uris": {"ios": "https://dc.lft.to/lastmile_qr_scan", "android": "https://dc.lft.to/lastmile_qr_scan"}, "is_reserved": 0, "fusion_lon": 0.0, "fusion_lat": 0.0, "lon": -76.9295355, "name": "14e667ada64df3106206ee7695c8220c"}, {"bike_id": "992efb01463c583d6e19ff364437a347", "type": "electric_scooter", "is_disabled": 0, "lat": 38.931108333333334, "rental_uris": {"ios": "https://dc.lft.to/lastmile_qr_scan", "android": "https://dc.lft.to/lastmile_qr_scan"}, "is_reserved": 0, "fusion_lon": 0.0, "fusion_lat": 0.0, "lon": -77.03045816666666, "name": "992efb01463c583d6e19ff364437a347"}, {"bike_id": "76ba934bac0ff223ad23058ef50f84be", "type": "electric_scooter", "is_disabled": 0, "lat": 38.872856166666665, "rental_uris": {"ios": "https://dc.lft.to/lastmile_qr_scan", "android": "https://dc.lft.to/lastmile_qr_scan"}, "is_reserved": 0, "fusion_lon": 0.0, "fusion_lat": 0.0, "lon": -76.97726333333334, "name": "76ba934bac0ff223ad23058ef50f84be"},