{"data": {"bikes": [{"fusion_lon": 0.0, "bike_id": "ccb62a2ef879fcd157711db7620cacfe", "name": "ccb62a2ef879fcd157711db7620cacfe", "type": "electric_bike", "lon": -76.87495383333334, "rental_uris": {"android": "https://dc.lft.to/lastmile_qr_scan", "ios": "https://dc.lft.to/lastmile_qr_scan"}, "lat": 38.990884, "is_reserved": 0, "is_disabled": 0, "fusion_lat": 0.0}, {"fusion_lon": 0.0, "bike_id": "f9ee2f44e268f3efd47f23d8d40ef460", "name": "f9ee2f44e268f3efd47f23d8d40ef460", "type": "electric_scooter", "lon": -77.0033035, "rental_uris": {"android": "https://dc.lft.to/lastmile_qr_scan", "ios": "https://dc.lft.to/lastmile_qr_scan"}, "lat": 38.90713216666666, "is_reserved": 0, "is_disabled": 0, "fusion_lat": 0.0}, {"fusion_lon": 0.0, "bike_id": "f2e6efb9c40843c018e7fad54a6ee456", "name": "f2e6efb9c40843c018e7fad54a6ee456", "type": "electric_scooter", "lon": -77.027969, "rental_uris": {"android": "https://dc.lft.to/lastmile_qr_scan", "ios": "https://dc.lft.to/lastmile_qr_scan"}, "lat": 38.9510915, "is_reserved": 0, "is_disabled": 0, "fusion_lat": 0.0}, {"fusion_lon": 0.0, "bike_id": "78efe2d2a3ac64b4ee097c57948c57d1", "name": "78efe2d2a3ac64b4ee097c57948c57d1", "type": "electric_scooter", "lon": -77.05923283333334, "rental_uris": {"android": "https://dc.lft.to/lastmile_qr_scan", "ios": "https://dc.lft.to/lastmile_qr_scan"}, "lat": 38.91005116666667, "is_reserved": 0, "is_disabled": 0, "fusion_lat": 0.0}, {"fusion_lon": 0.0, "bike_id": "ec6bb78a9d8bbac92faa722e52d47afd", "name": "ec6bb78a9d8bbac92faa722e52d47afd", "type": "electric_scooter", "lon": -77.01789983333333, "rental_uris": {"android": "https://dc.lft.to/lastmile_qr_scan", "ios": "https://dc.lft.to/lastmile_qr_scan"}, "lat": 38.9412075, "is_reserved": 0, "is_disabled": 0, "fusion_lat": 0.0}, {"fusion_lon": 0.0, "bike_id": "4560de1c9f0e057e5a776e862dd3001b", "name": "4560de1c9f0e057e5a776e862dd3001b", "type": "electric_scooter", "lon": -77.0287985, "rental_uris": {"android": "https://dc.lft.to/lastmile_qr_scan", "ios": "https://dc.lft.to/lastmile_qr_scan"}, "lat": 38.9223565, "is_reserved": 0, "is_disabled": 0, "fusion_lat": 0.0}, {"fusion_lon": 0.0, "bike_id": "bbfca963f75041c6595cc9f4e0aada9b", "name": "bbfca963f75041c6595cc9f4e0aada9b", "type": "electric_scooter", "lon": -77.01177083333333, "rental_uris": {"android": "https://dc.lft.to/lastmile_qr_scan", "ios": "https://dc.lft.to/lastmile_qr_scan"}, "lat": 38.897425, "is_reserved": 0, "is_disabled": 0, "fusion_lat": 0.0}, {"fusion_lon": 0.0, "bike_id": "cf94ed51a44b1da951c10b701e7b7db5", "name": "cf94ed51a44b1da951c10b701e7b7db5", "type": "electric_bike", "lon": -77.049021, "rental_uris": {"android": "https://dc.lft.to/lastmile_qr_scan", "ios": "https://dc.lft.to/lastmile_qr_scan"}, "lat": 38.8749515, "is_reserved": 0, "is_disabled": 0, "fusion_lat": 0.0}, {"fusion_lon": 0.0, "bike_id": "804a162d3319e08c0e17856b6f041390", "name": "804a162d3319e08c0e17856b6f041390", "type": "electric_scooter", "lon": -77.0092735, "rental_uris": {"android": "https://dc.lft.to/lastmile_qr_scan", "ios": "https://dc.lft.to/lastmile_qr_scan"}, "lat": 38.8989275, "is_reserved": 0, "is_disabled": 0, "fusion_lat": 0.0}, {"fusion_lon": 0.0, "bike_id": "0961409b96f52e3b6ceb26b63ba1dfb9", "name": "0961409b96f52e3b6ceb26b63ba1dfb9", "type": "electric_scooter", "lon": -77.0302455, "rental_uris": {"android": "https://dc.lft.to/lastmile_qr_scan", "ios": "https://dc.lft.to/lastmile_qr_scan"}, "lat": 38.883997666666666, "is_reserved": 0, "is_disabled": 0, "fusion_lat": 0.0}, {"fusion_lon": 0.0, "bike_id": "82e5fbc5559b18cfdf694c06cfc2b8ef", "name": "82e5fbc5559b18cfdf694c06cfc2b8ef", "type": "electric_scooter", "lon": -77.029329, "rental_uris": {"android": "https://dc.lft.to/lastmile_qr_scan", "ios": "https://dc.lft.to/lastmile_qr_scan"}, "lat": 38.91417633333333, "is_reserved": 0, "is_disabled": 0, "fusion_lat": 0.0}, {"fusion_lon": 0.0, "bike_id": "c2a7ad5f1fd0432d9a0c7b5d5964ea4e", "name": "c2a7ad5f1fd0432d9a0c7b5d5964ea4e", "type": "electric_scooter", "lon": -77.032464, "rental_uris": {"android": "https://dc.lft.to/lastmile_qr_scan", "ios": "https://dc.lft.to/lastmile_qr_scan"}, "lat": 38.90555, "is_reserved": 0, "is_disabled": 0, "fusion_lat": 0.0}, {"fusion_lon": 0.0, "bike_id": "45634b98521eb51569191d5c2dc688be", "name": "45634b98521eb51569191d5c2dc688be", "type": "electric_scooter", "lon": -77.04021933333334, "rental_uris": {"android": "https://dc.lft.to/lastmile_qr_scan", "ios": "https://dc.lft.to/lastmile_qr_scan"}, "lat": 38.91295933333333, "is_reserved": 0, "is_disabled": 0, "fusion_lat": 0.0}, {"fusion_lon": 0.0, "bike_id": "4176424a08d05a17556419103bddc71e", "name": "4176424a08d05a17556419103bddc71e", "type": "electric_scooter", "lon": -77.01906616666666, "rental_uris": {"android": "https://dc.lft.to/lastmile_qr_scan", "ios": "https://dc.lft.to/lastmile_qr_scan"}, "lat": 38.92343866666667, "is_reserved": 0, "is_disabled": 0, "fusion_lat": 0.0}, {"fusion_lon": 0.0, "bike_id": "276ed5f6f913c702740e1161f6f89d09", "name": "276ed5f6f913c702740e1161f6f89d09", "type": "electric_bike", "lon": -77.10028516666667, "rental_uris": {"android": "https://dc.lft.to/lastmile_qr_scan", "ios": "https://dc.lft.to/lastmile_qr_scan"}, "lat": 38.990657166666665, "is_reserved": 0, "is_disabled": 0, "fusion_lat": 0.0}, {"fusion_lon": 0.0, "bike_id": "25e663f94c4d5228835313111eef7589", "name": "25e663f94c4d5228835313111eef7589", "type": "electric_scooter", "lon": -77.02275383333334, "rental_uris": {"android": "https://dc.lft.to/lastmile_qr_scan", "ios": "https://dc.lft.to/lastmile_qr_scan"}, "lat": 38.878436, "is_reserved": 0, "is_disabled": 0, "fusion_lat": 0.0}, {"fusion_lon": 0.0, "bike_id": "aa67b75ab419d5830f4ff8eb3f43a114", "name": "aa67b75ab419d5830f4ff8eb3f43a114", "type": "electric_scooter", "lon": -77.03343633333333, "rental_uris": {"android": "https://dc.lft.to/lastmile_qr_scan", "ios": "https://dc.lft.to/lastmile_qr_scan"}, "lat": 38.901476833333334, "is_reserved": 0, "is_disabled": 0, "fusion_lat": 0.0}, {"fusion_lon": 0.0, "bike_id": "12610afe539a2d3957a681071a3962b5", "name": "12610afe539a2d3957a681071a3962b5", "type": "electric_scooter", "lon": -77.0318025, "rental_uris": {"android": "https://dc.lft.to/lastmile_qr_scan", "ios": "https://dc.lft.to/lastmile_qr_scan"}, "lat": 38.8866615, "is_reserved": 0, "is_disabled": 0, "fusion_lat": 0.0}, {"fusion_lon": 0.0, "bike_id": "10bc426c1729c49daa6853f1bb61ea1b", "name": "10bc426c1729c49daa6853f1bb61ea1b", "type": "electric_scooter", "lon": -77.02153983333334, "rental_uris": {"android": "https://dc.lft.to/lastmile_qr_scan", "ios": "https://dc.lft.to/lastmile_qr_scan"}, "lat": 38.9260475, "is_reserved": 0, "is_disabled": 0, "fusion_lat": 0.0}, {"fusion_lon": 0.0, "bike_id": "b6c433b616fb87e313b465f0429785f9", "name": "b6c433b616fb87e313b465f0429785f9", "type": "electric_scooter", "lon": -77.04175733333334, "rental_uris": {"android": "https://dc.lft.to/lastmile_qr_scan", "ios": "https://dc.lft.to/lastmile_qr_scan"}, "lat": 38.907324333333335, "is_reserved": 0, "is_disabled": 0, "fusion_lat": 0.0}, {"fusion_lon": 0.0, "bike_id": "231a786007e654a8670b2259bd81cd89", "name": "231a786007e654a8670b2259bd81cd89", "type": "electric_scooter", "lon": -77.00735233333333, "rental_uris": {"android": "https://dc.lft.to/lastmile_qr_scan", "ios": "https://dc.lft.to/lastmile_qr_scan"}, "lat": 38.900558333333336, "is_reserved": 0, "is_disabled": 0, "fusion_lat": 0.0}, {"fusion_lon": 0.0, "bike_id": "ad63308c647dc03c3f3144482507a575", "name": "ad63308c647dc03c3f3144482507a575", "type": "electric_scooter", "lon": -77.03199233333333, "rental_uris": {"android": "https://dc.lft.to/lastmile_qr_scan", "ios": "https://dc.lft.to/lastmile_qr_scan"}, "lat": 38.914781833333336, "is_reserved": 0, "is_disabled": 0, "fusion_lat": 0.0}, {"fusion_lon": 0.0, "bike_id": "cc166a94104dd4f4854ff93576ff6a0c", "name": "cc166a94104dd4f4854ff93576ff6a0c", "type": "electric_scooter", "lon": -77.0156145, "rental_uris": {"android": "https://dc.lft.to/lastmile_qr_scan", "ios": "https://dc.lft.to/lastmile_qr_scan"}, "lat": 38.91368933333333, "is_reserved": 0, "is_disabled": 0, "fusion_lat": 0.0}, {"fusion_lon": 0.0, "bike_id": "1c87530adc1cdb1a9b45da3e030e9b58", "name": "1c87530adc1cdb1a9b45da3e030e9b58", "type": "electric_scooter", "lon": -76.99206116666667, "rental_uris": {"android": "https://dc.lft.to/lastmile_qr_scan", "ios": "https://dc.lft.to/lastmile_qr_scan"}, "lat": 38.895206333333334, "is_reserved": 0, "is_disabled": 0, "fusion_lat": 0.0}, {"fusion_lon": 0.0, "bike_id": "46c2036a068ba759b048d2ae5dd48982", "name": "46c2036a068ba759b048d2ae5dd48982", "type": "electric_bike", "lon": -77.02667533333333, "rental_uris": {"android": "https://dc.lft.to/lastmile_qr_scan", "ios": "https://dc.lft.to/lastmile_qr_scan"}, "lat": 38.954891333333336, "is_reserved": 0, "is_disabled": 0, "fusion_lat": 0.0}, {"fusion_lon": 0.0, "bike_id": "f18f8c1b4463c417cb6718f20420a228", "name": "f18f8c1b4463c417cb6718f20420a228", "type": "electric_scooter", "lon": -77.06609083333333, "rental_uris": {"android": "https://dc.lft.to/lastmile_qr_scan", "ios": "https://dc.lft.to/lastmile_qr_scan"}, "lat": 38.90455216666667, "is_reserved": 0, "is_disabled": 0, "fusion_lat": 0.0}, {"fusion_lon": 0.0, "bike_id": "4ef8054d91ce2e173c4f7d24ca6064bb", "name": "4ef8054d91ce2e173c4f7d24ca6064bb", "type": "electric_bike", "lon": -77.12581133333333, "rental_uris": {"android": "https://dc.lft.to/lastmile_qr_scan", "ios": "https://dc.lft.to/lastmile_qr_scan"}, "lat": 38.851482833333336, "is_reserved": 0, "is_disabled": 0, "fusion_lat": 0.0}, {"fusion_lon": 0.0, "bike_id": "110ed89feebae5de506acef9968c35aa", "name": "110ed89feebae5de506acef9968c35aa", "type": "electric_scooter", "lon": -77.042823, "rental_uris": {"android": "https://dc.lft.to/lastmile_qr_scan", "ios": "https://dc.lft.to/lastmile_qr_scan"}, "lat": 38.908168, "is_reserved": 0, "is_disabled": 0, "fusion_lat": 0.0}, {"fusion_lon": 0.0, "bike_id": "47ca4da3ef58be2eb07a2a7d16deb4b6", "name": "47ca4da3ef58be2eb07a2a7d16deb4b6", "type": "electric_scooter", "lon": -77.022539, "rental_uris": {"android": "https://dc.lft.to/lastmile_qr_scan", "ios": "https://dc.lft.to/lastmile_qr_scan"}, "lat": 38.9656075, "is_reserved": 0, "is_disabled": 0, "fusion_lat": 0.0}, {"fusion_lon": 0.0, "bike_id": "10edf70f0fb6303523b510559b4cd3ad", "name": "10edf70f0fb6303523b510559b4cd3ad", "type": "electric_bike", "lon": -76.932292, "rental_uris": {"android": "https://dc.lft.to/lastmile_qr_scan", "ios": "https://dc.lft.to/lastmile_qr_scan"}, "lat": 38.86595, "is_reserved": 0, "is_disabled": 0, "fusion_lat": 0.0}, {"fusion_lon": 0.0, "bike_id": "15a88aa2c42e20aa2dfe4fa8ed30cda6", "name": "15a88aa2c42e20aa2dfe4fa8ed30cda6", "type": "electric_scooter", "lon": -77.04488066666667, "rental_uris": {"android": "https://dc.lft.to/lastmile_qr_scan", "ios": "https://dc.lft.to/lastmile_qr_scan"}, "lat": 38.90923316666667, "is_reserved": 0, "is_disabled": 0, "fusion_lat": 0.0}, {"fusion_lon": 0.0, "bike_id": "0c21c9129ff999eac3b4857d8073606d", "name": "0c21c9129ff999eac3b4857d8073606d", "type": "electric_scooter", "lon": -77.018516, "rental_uris": {"android": "https://dc.lft.to/lastmile_qr_scan", "ios": "https://dc.lft.to/lastmile_qr_scan"}, "lat": 38.92191116666667, "is_reserved": 0, "is_disabled": 0, "fusion_lat": 0.0}, {"fusion_lon": 0.0, "bike_id": "34147544f711e044af53f51078167ab5", "name": "34147544f711e044af53f51078167ab5", "type": "electric_scooter", "lon": -77.0259535, "rental_uris": {"android": "https://dc.lft.to/lastmile_qr_scan", "ios": "https://dc.lft.to/lastmile_qr_scan"}, "lat": 38.916404666666665, "is_reserved": 0, "is_disabled": 0, "fusion_lat": 0.0}, {"fusion_lon": 0.0, "bike_id": "0decc21d796655dc6b1636e2cccbc749", "name": "0decc21d796655dc6b1636e2cccbc749", "type": "electric_scooter", "lon": -77.04728066666667, "rental_uris": {"android": "https://dc.lft.to/lastmile_qr_scan", "ios": "https://dc.lft.to/lastmile_qr_scan"}, "lat": 38.90603516666667, "is_reserved": 0, "is_disabled": 0, "fusion_lat": 0.0}, {"fusion_lon": 0.0, "bike_id": "ff0b5592da17380b3b9298d178a6c8d1", "name": "ff0b5592da17380b3b9298d178a6c8d1", "type": "electric_scooter", "lon": -77.03673766666667, "rental_uris": {"android": "https://dc.lft.to/lastmile_qr_scan", "ios": "https://dc.lft.to/lastmile_qr_scan"}, "lat": 38.908418166666664, "is_reserved": 0, "is_disabled": 0, "fusion_lat": 0.0}, {"fusion_lon": 0.0, "bike_id": "5a8cc1b2aae0928f3950b5ecde225072", "name": "5a8cc1b2aae0928f3950b5ecde225072", "type": "electric_scooter", "lon": -77.03200766666667, "rental_uris": {"android": "https://dc.lft.to/lastmile_qr_scan", "ios": "https://dc.lft.to/lastmile_qr_scan"}, "lat": 38.91767633333333, "is_reserved": 0, "is_disabled": 0, "fusion_lat": 0.0}, {"fusion_lon": 0.0, "bike_id": "3f7b7ee7f8832577d511440905f4b282", "name": "3f7b7ee7f8832577d511440905f4b282", "type": "electric_scooter", "lon": -77.0513275, "rental_uris": {"android": "https://dc.lft.to/lastmile_qr_scan", "ios": "https://dc.lft.to/lastmile_qr_scan"}, "lat": 38.923635166666664, "is_reserved": 0, "is_disabled": 0, "fusion_lat": 0.0}, {"fusion_lon": 0.0, "bike_id": "cfdb64fcde13692370cec74bb3450ba1", "name": "cfdb64fcde13692370cec74bb3450ba1", "type": "electric_scooter", "lon": -77.03479183333333, "rental_uris": {"android": "https://dc.lft.to/lastmile_qr_scan", "ios": "https://dc.lft.to/lastmile_qr_scan"}, "lat": 38.905628666666665, "is_reserved": 0, "is_disabled": 0, "fusion_lat": 0.0}, {"fusion_lon": 0.0, "bike_id": "9331b303e792e87090e0499003bf161f", "name": "9331b303e792e87090e0499003bf161f", "type": "electric_scooter", "lon": -77.02479483333333, "rental_uris": {"android": "https://dc.lft.to/lastmile_qr_scan", "ios": "https://dc.lft.to/lastmile_qr_scan"}, "lat": 38.938833, "is_reserved": 0, "is_disabled": 0, "fusion_lat": 0.0}, {"fusion_lon": 0.0, "bike_id": "0dcc0f5977d6b2741ce764be5f114d44", "name": "0dcc0f5977d6b2741ce764be5f114d44", "type": "electric_scooter", "lon": -76.94062133333334, "rental_uris": {"android": "https://dc.lft.to/lastmile_qr_scan", "ios": "https://dc.lft.to/lastmile_qr_scan"}, "lat": 38.890200166666666, "is_reserved": 0, "is_disabled": 0, "fusion_lat": 0.0}, {"fusion_lon": 0.0, "bike_id": "bf35fdc7154d30aa9a7f9a931259e958", "name": "bf35fdc7154d30aa9a7f9a931259e958", "type": "electric_scooter", "lon": -77.0271295, "rental_uris": {"android": "https://dc.lft.to/lastmile_qr_scan", "ios": "https://dc.lft.to/lastmile_qr_scan"}, "lat": 38.907514, "is_reserved": 0, "is_disabled": 0, "fusion_lat": 0.0}, {"fusion_lon": 0.0, "bike_id": "8073547bcc45ef9d96488407291c88d9", "name": "8073547bcc45ef9d96488407291c88d9", "type": "electric_scooter", "lon": -77.0248315, "rental_uris": {"android": "https://dc.lft.to/lastmile_qr_scan", "ios": "https://dc.lft.to/lastmile_qr_scan"}, "lat": 38.88015, "is_reserved": 0, "is_disabled": 0, "fusion_lat": 0.0}, {"fusion_lon": 0.0, "bike_id": "7092344af40508fcc4170805480a36e2", "name": "7092344af40508fcc4170805480a36e2", "type": "electric_scooter", "lon": -76.99573983333333, "rental_uris": {"android": "https://dc.lft.to/lastmile_qr_scan", "ios": "https://dc.lft.to/lastmile_qr_scan"}, "lat": 38.920092833333335, "is_reserved": 0, "is_disabled": 0, "fusion_lat": 0.0}, {"fusion_lon": 0.0, "bike_id": "4da5023cd63ce16bf3dbd605e076e5ec", "name": "4da5023cd63ce16bf3dbd605e076e5ec", "type": "electric_scooter", "lon": -76.98924933333333, "rental_uris": {"android": "https://dc.lft.to/lastmile_qr_scan", "ios": "https://dc.lft.to/lastmile_qr_scan"}, "lat": 38.88203766666667, "is_reserved": 0, "is_disabled": 0, "fusion_lat": 0.0}, {"fusion_lon": 0.0, "bike_id": "b6a2f4ffd5d616f941bf4b434f115a51", "name": "b6a2f4ffd5d616f941bf4b434f115a51", "type": "electric_scooter", "lon": -77.04979033333333, "rental_uris": {"android": "https://dc.lft.to/lastmile_qr_scan", "ios": "https://dc.lft.to/lastmile_qr_scan"}, "lat": 38.8961295, "is_reserved": 0, "is_disabled": 0, "fusion_lat": 0.0}, {"fusion_lon": 0.0, "bike_id": "480879074216fa08295772f6ee5c1300", "name": "480879074216fa08295772f6ee5c1300", "type": "electric_scooter", "lon": -77.01767216666667, "rental_uris": {"android": "https://dc.lft.to/lastmile_qr_scan", "ios": "https://dc.lft.to/lastmile_qr_scan"}, "lat": 38.92117866666667, "is_reserved": 0, "is_disabled": 0, "fusion_lat": 0.0}, {"fusion_lon": 0.0, "bike_id": "a3a86ff2040f7cefa2ceaebfb27c8e90", "name": "a3a86ff2040f7cefa2ceaebfb27c8e90", "type": "electric_scooter", "lon": -77.02709033333333, "rental_uris": {"android": "https://dc.lft.to/lastmile_qr_scan", "ios": "https://dc.lft.to/lastmile_qr_scan"}, "lat": 38.919611333333336, "is_reserved": 0, "is_disabled": 0, "fusion_lat": 0.0}, {"fusion_lon": 0.0, "bike_id": "8e6bf2fdf5bdb38606807c6bfd08a80d", "name": "8e6bf2fdf5bdb38606807c6bfd08a80d", "type": "electric_scooter", "lon": -77.02483516666666, "rental_uris": {"android": "https://dc.lft.to/lastmile_qr_scan", "ios": "https://dc.lft.to/lastmile_qr_scan"}, "lat": 38.93879616666667, "is_reserved": 0, "is_disabled": 0, "fusion_lat": 0.0}, {"fusion_lon": 0.0, "bike_id": "1bacf5424e926a79bb125d3abc87dcec", "name": "1bacf5424e926a79bb125d3abc87dcec", "type": "electric_scooter", "lon": -77.0307325, "rental_uris": {"android": "https://dc.lft.to/lastmile_qr_scan", "ios": "https://dc.lft.to/lastmile_qr_scan"}, "lat": 38.902758, "is_reserved": 0, "is_disabled": 0, "fusion_lat": 0.0}, {"fusion_lon": 0.0, "bike_id": "f46a44dfe5f6a00857dbc3ff9a38fd6f", "name": "f46a44dfe5f6a00857dbc3ff9a38fd6f", "type": "electric_scooter", "lon": -77.02496033333334, "rental_uris": {"android": "https://dc.lft.to/lastmile_qr_scan", "ios": "https://dc.lft.to/lastmile_qr_scan"}, "lat": 38.92067083333333, "is_reserved": 0, "is_disabled": 0, "fusion_lat": 0.0}, {"fusion_lon": 0.0, "bike_id": "7e21eecb73ce2368c52f37c75386a864", "name": "7e21eecb73ce2368c52f37c75386a864", "type": "electric_scooter", "lon": -77.044008, "rental_uris": {"android": "https://dc.lft.to/lastmile_qr_scan", "ios": "https://dc.lft.to/lastmile_qr_scan"}, "lat": 38.920199833333335, "is_reserved": 0, "is_disabled": 0, "fusion_lat": 0.0}, {"fusion_lon": 0.0, "bike_id": "af4c066699d35fd7c15b07a09b61999a", "name": "af4c066699d35fd7c15b07a09b61999a", "type": "electric_scooter", "lon": -77.02784816666667, "rental_uris": {"android": "https://dc.lft.to/lastmile_qr_scan", "ios": "https://dc.lft.to/lastmile_qr_scan"}, "lat": 38.926843166666664, "is_reserved": 0, "is_disabled": 0, "fusion_lat": 0.0}, {"fusion_lon": 0.0, "bike_id": "079c703d1db17c914035783eba766cfb", "name": "079c703d1db17c914035783eba766cfb", "type": "electric_scooter", "lon": -77.0238075, "rental_uris": {"android": "https://dc.lft.to/lastmile_qr_scan", "ios": "https://dc.lft.to/lastmile_qr_scan"}, "lat": 38.892338333333335, "is_reserved": 0, "is_disabled": 0, "fusion_lat": 0.0}, {"fusion_lon": 0.0, "bike_id": "dc68fa16bc0f31a78706afb6227a3e99", "name": "dc68fa16bc0f31a78706afb6227a3e99", "type": "electric_bike", "lon": -77.12738016666667, "rental_uris": {"android": "https://dc.lft.to/lastmile_qr_scan", "ios": "https://dc.lft.to/lastmile_qr_scan"}, "lat": 38.89568883333333, "is_reserved": 0, "is_disabled": 0, "fusion_lat": 0.0}, {"fusion_lon": 0.0, "bike_id": "7cdd017f5dc29742e017fa567cc4c344", "name": "7cdd017f5dc29742e017fa567cc4c344", "type": "electric_scooter", "lon": -77.04470616666667, "rental_uris": {"android": "https://dc.lft.to/lastmile_qr_scan", "ios": "https://dc.lft.to/lastmile_qr_scan"}, "lat": 38.905472833333334, "is_reserved": 0, "is_disabled": 0, "fusion_lat": 0.0}, {"fusion_lon": 0.0, "bike_id": "cf4bba636286101b35b6ec87a777d4d3", "name": "cf4bba636286101b35b6ec87a777d4d3", "type": "electric_scooter", "lon": -77.04183033333334, "rental_uris": {"android": "https://dc.lft.to/lastmile_qr_scan", "ios": "https://dc.lft.to/lastmile_qr_scan"}, "lat": 38.91270883333333, "is_reserved": 0, "is_disabled": 0, "fusion_lat": 0.0}, {"fusion_lon": 0.0, "bike_id": "67cc9b75204f61107a5367d29c02aee7", "name": "67cc9b75204f61107a5367d29c02aee7", "type": "electric_scooter", "lon": -77.02030516666666, "rental_uris": {"android": "https://dc.lft.to/lastmile_qr_scan", "ios": "https://dc.lft.to/lastmile_qr_scan"}, "lat": 38.9131175, "is_reserved": 0, "is_disabled": 0, "fusion_lat": 0.0}, {"fusion_lon": 0.0, "bike_id": "2194f5261403fe30f1e668310f821644", "name": "2194f5261403fe30f1e668310f821644", "type": "electric_scooter", "lon": -77.05001216666666, "rental_uris": {"android": "https://dc.lft.to/lastmile_qr_scan", "ios": "https://dc.lft.to/lastmile_qr_scan"}, "lat": 38.901674166666666, "is_reserved": 0, "is_disabled": 0, "fusion_lat": 0.0}, {"fusion_lon": 0.0, "bike_id": "9f490e6706218f85103d0aedbeb48c13", "name": "9f490e6706218f85103d0aedbeb48c13", "type": "electric_scooter", "lon": -77.03178883333334, "rental_uris": {"android": "https://dc.lft.to/lastmile_qr_scan", "ios": "https://dc.lft.to/lastmile_qr_scan"}, "lat": 38.891797, "is_reserved": 0, "is_disabled": 0, "fusion_lat": 0.0}, {"fusion_lon": 0.0, "bike_id": "78dfa97a2f83bf30a815d33ca49c049e", "name": "78dfa97a2f83bf30a815d33ca49c049e", "type": "electric_scooter", "lon": -77.01589683333333, "rental_uris": {"android": "https://dc.lft.to/lastmile_qr_scan", "ios": "https://dc.lft.to/lastmile_qr_scan"}, "lat": 38.92840666666667, "is_reserved": 0, "is_disabled": 0, "fusion_lat": 0.0}, {"fusion_lon": 0.0, "bike_id": "eb3b64bc42260b19a22d22fdf64d8362", "name": "eb3b64bc42260b19a22d22fdf64d8362", "type": "electric_scooter", "lon": -77.010613, "rental_uris": {"android": "https://dc.lft.to/lastmile_qr_scan", "ios": "https://dc.lft.to/lastmile_qr_scan"}, "lat": 38.872438833333334, "is_reserved": 0, "is_disabled": 0, "fusion_lat": 0.0}, {"fusion_lon": 0.0, "bike_id": "c5a72fa5db6fd0ae66935a86635ae80f", "name": "c5a72fa5db6fd0ae66935a86635ae80f", "type": "electric_scooter", "lon": -77.02466866666667, "rental_uris": {"android": "https://dc.lft.to/lastmile_qr_scan", "ios": "https://dc.lft.to/lastmile_qr_scan"}, "lat": 38.897502333333335, "is_reserved": 0, "is_disabled": 0, "fusion_lat": 0.0}, {"fusion_lon": 0.0, "bike_id": "6e74186d7f1e64b66fb8689cd8edd1dd", "name": "6e74186d7f1e64b66fb8689cd8edd1dd", "type": "electric_scooter", "lon": -77.03421083333333, "rental_uris": {"android": "https://dc.lft.to/lastmile_qr_scan", "ios": "https://dc.lft.to/lastmile_qr_scan"}, "lat": 38.908101333333335, "is_reserved": 0, "is_disabled": 0, "fusion_lat": 0.0}, {"fusion_lon": 0.0, "bike_id": "818c657c3c45ef13d1399a897a881757", "name": "818c657c3c45ef13d1399a897a881757", "type": "electric_scooter", "lon": -77.03715883333334, "rental_uris": {"android": "https://dc.lft.to/lastmile_qr_scan", "ios": "https://dc.lft.to/lastmile_qr_scan"}, "lat": 38.9181365, "is_reserved": 0, "is_disabled": 0, "fusion_lat": 0.0}, {"fusion_lon": 0.0, "bike_id": "66ca3cc40b677533b10f0363306b0e87", "name": "66ca3cc40b677533b10f0363306b0e87", "type": "electric_bike", "lon": -76.95997266666667, "rental_uris": {"android": "https://dc.lft.to/lastmile_qr_scan", "ios": "https://dc.lft.to/lastmile_qr_scan"}, "lat": 38.870082, "is_reserved": 0, "is_disabled": 0, "fusion_lat": 0.0}, {"fusion_lon": 0.0, "bike_id": "aa72387ed627f5abe440f28f3484d4a2", "name": "aa72387ed627f5abe440f28f3484d4a2", "type": "electric_scooter", "lon": -77.04298233333333, "rental_uris": {"android": "https://dc.lft.to/lastmile_qr_scan", "ios": "https://dc.lft.to/lastmile_qr_scan"}, "lat": 38.917929, "is_reserved": 0, "is_disabled": 0, "fusion_lat": 0.0}, {"fusion_lon": 0.0, "bike_id": "60dd01b18a414ca791321535514f2f26", "name": "60dd01b18a414ca791321535514f2f26", "type": "electric_scooter", "lon": -77.08618583333333, "rental_uris": {"android": "https://dc.lft.to/lastmile_qr_scan", "ios": "https://dc.lft.to/lastmile_qr_scan"}, "lat": 38.958724, "is_reserved": 0, "is_disabled": 0, "fusion_lat": 0.0}, {"fusion_lon": 0.0, "bike_id": "ecdff8de219a269d2551bc9bcef6fd3e", "name": "ecdff8de219a269d2551bc9bcef6fd3e", "type": "electric_scooter", "lon": -77.039674, "rental_uris": {"android": "https://dc.lft.to/lastmile_qr_scan", "ios": "https://dc.lft.to/lastmile_qr_scan"}, "lat": 38.911824333333335, "is_reserved": 0, "is_disabled": 0, "fusion_lat": 0.0}, {"fusion_lon": 0.0, "bike_id": "856654a0a0b4fe155e6866756b50ef02", "name": "856654a0a0b4fe155e6866756b50ef02", "type": "electric_scooter", "lon": -77.01897033333333, "rental_uris": {"android": "https://dc.lft.to/lastmile_qr_scan", "ios": "https://dc.lft.to/lastmile_qr_scan"}, "lat": 38.878443833333336, "is_reserved": 0, "is_disabled": 0, "fusion_lat": 0.0}, {"fusion_lon": 0.0, "bike_id": "8f7e73ba6f757bcf6f9329ea43ed389f", "name": "8f7e73ba6f757bcf6f9329ea43ed389f", "type": "electric_scooter", "lon": -77.0085515, "rental_uris": {"android": "https://dc.lft.to/lastmile_qr_scan", "ios": "https://dc.lft.to/lastmile_qr_scan"}, "lat": 38.8763975, "is_reserved": 0, "is_disabled": 0, "fusion_lat": 0.0}, {"fusion_lon": 0.0, "bike_id": "b00a6bf97cc44d1e9eb0e06c746f83a1", "name": "b00a6bf97cc44d1e9eb0e06c746f83a1", "type": "electric_scooter", "lon": -77.0241135, "rental_uris": {"android": "https://dc.lft.to/lastmile_qr_scan", "ios": "https://dc.lft.to/lastmile_qr_scan"}, "lat": 38.90985383333334, "is_reserved": 0, "is_disabled": 0, "fusion_lat": 0.0}, {"fusion_lon": 0.0, "bike_id": "c9955d5e16cedfdf8607daee84ef666a", "name": "c9955d5e16cedfdf8607daee84ef666a", "type": "electric_scooter", "lon": -76.999014, "rental_uris": {"android": "https://dc.lft.to/lastmile_qr_scan", "ios": "https://dc.lft.to/lastmile_qr_scan"}, "lat": 38.956555333333334, "is_reserved": 0, "is_disabled": 0, "fusion_lat": 0.0}, {"fusion_lon": 0.0, "bike_id": "745f5034e90dca5f128240dd1f2c0f49", "name": "745f5034e90dca5f128240dd1f2c0f49", "type": "electric_scooter", "lon": -77.04677333333333, "rental_uris": {"android": "https://dc.lft.to/lastmile_qr_scan", "ios": "https://dc.lft.to/lastmile_qr_scan"}, "lat": 38.8983365, "is_reserved": 0, "is_disabled": 0, "fusion_lat": 0.0}, {"fusion_lon": 0.0, "bike_id": "8947e36581a1c36c2dc1aa0725e1cb5f", "name": "8947e36581a1c36c2dc1aa0725e1cb5f", "type": "electric_scooter", "lon": -76.99810416666666, "rental_uris": {"android": "https://dc.lft.to/lastmile_qr_scan", "ios": "https://dc.lft.to/lastmile_qr_scan"}, "lat": 38.876819, "is_reserved": 0, "is_disabled": 0, "fusion_lat": 0.0}, {"fusion_lon": 0.0, "bike_id": "c04556457bdc4dfa8243114afff93e8d", "name": "c04556457bdc4dfa8243114afff93e8d", "type": "electric_scooter", "lon": -77.04005466666666, "rental_uris": {"android": "https://dc.lft.to/lastmile_qr_scan", "ios": "https://dc.lft.to/lastmile_qr_scan"}, "lat": 38.905931833333334, "is_reserved": 0, "is_disabled": 0, "fusion_lat": 0.0}, {"fusion_lon": 0.0, "bike_id": "ec4b8731133e934ea6f58f2a511f390b", "name": "ec4b8731133e934ea6f58f2a511f390b", "type": "electric_scooter", "lon": -77.00575083333334, "rental_uris": {"android": "https://dc.lft.to/lastmile_qr_scan", "ios": "https://dc.lft.to/lastmile_qr_scan"}, "lat": 38.90558333333333, "is_reserved": 0, "is_disabled": 0, "fusion_lat": 0.0}, {"fusion_lon": 0.0, "bike_id": "4f96d47259128d1e23830516d5fb53e1", "name": "4f96d47259128d1e23830516d5fb53e1", "type": "electric_scooter", "lon": -76.9489875, "rental_uris": {"android": "https://dc.lft.to/lastmile_qr_scan", "ios": "https://dc.lft.to/lastmile_qr_scan"}, "lat": 38.89529483333333, "is_reserved": 0, "is_disabled": 0, "fusion_lat": 0.0}, {"fusion_lon": 0.0, "bike_id": "80f9006958af3b39537b91976dc8c2f6", "name": "80f9006958af3b39537b91976dc8c2f6", "type": "electric_scooter", "lon": -77.06650183333333, "rental_uris": {"android": "https://dc.lft.to/lastmile_qr_scan", "ios": "https://dc.lft.to/lastmile_qr_scan"}, "lat": 38.9034385, "is_reserved": 0, "is_disabled": 0, "fusion_lat": 0.0}, {"fusion_lon": 0.0, "bike_id": "b15a85ed51f0e3a220041d0ce4b5426c", "name": "b15a85ed51f0e3a220041d0ce4b5426c", "type": "electric_scooter", "lon": -77.04812816666667, "rental_uris": {"android": "https://dc.lft.to/lastmile_qr_scan", "ios": "https://dc.lft.to/lastmile_qr_scan"}, "lat": 38.92033683333333, "is_reserved": 0, "is_disabled": 0, "fusion_lat": 0.0}, {"fusion_lon": 0.0, "bike_id": "7f0d9adadac59485e0a1c8c55ddcf1ad", "name": "7f0d9adadac59485e0a1c8c55ddcf1ad", "type": "electric_scooter", "lon": -76.93748766666667, "rental_uris": {"android": "https://dc.lft.to/lastmile_qr_scan", "ios": "https://dc.lft.to/lastmile_qr_scan"}, "lat": 38.8901355, "is_reserved": 0, "is_disabled": 0, "fusion_lat": 0.0}, {"fusion_lon": 0.0, "bike_id": "737941fcb38399bb4a81fcd3d2e9dbcc", "name": "737941fcb38399bb4a81fcd3d2e9dbcc", "type": "electric_scooter", "lon": -77.022228, "rental_uris": {"android": "https://dc.lft.to/lastmile_qr_scan", "ios": "https://dc.lft.to/lastmile_qr_scan"}, "lat": 38.89222483333333, "is_reserved": 0, "is_disabled": 0, "fusion_lat": 0.0}, {"fusion_lon": 0.0, "bike_id": "8149ece1cb3758d60089d0abfac10dff", "name": "8149ece1cb3758d60089d0abfac10dff", "type": "electric_scooter", "lon": -77.0487245, "rental_uris": {"android": "https://dc.lft.to/lastmile_qr_scan", "ios": "https://dc.lft.to/lastmile_qr_scan"}, "lat": 38.892273333333335, "is_reserved": 0, "is_disabled": 0, "fusion_lat": 0.0}, {"fusion_lon": 0.0, "bike_id": "4b19a1d5bd32646ad2f870eefa259a82", "name": "4b19a1d5bd32646ad2f870eefa259a82", "type": "electric_scooter", "lon": -77.02471716666666, "rental_uris": {"android": "https://dc.lft.to/lastmile_qr_scan", "ios": "https://dc.lft.to/lastmile_qr_scan"}, "lat": 38.9392335, "is_reserved": 0, "is_disabled": 0, "fusion_lat": 0.0}, {"fusion_lon": 0.0, "bike_id": "429bc0928a26239324faf86204b64d5b", "name": "429bc0928a26239324faf86204b64d5b", "type": "electric_scooter", "lon": -77.0347365, "rental_uris": {"android": "https://dc.lft.to/lastmile_qr_scan", "ios": "https://dc.lft.to/lastmile_qr_scan"}, "lat": 38.93530716666667, "is_reserved": 0, "is_disabled": 0, "fusion_lat": 0.0}, {"fusion_lon": 0.0, "bike_id": "372f5c3c8ae6b6f9e2b79f431c7a2d49", "name": "372f5c3c8ae6b6f9e2b79f431c7a2d49", "type": "electric_scooter", "lon": -76.990198, "rental_uris": {"android": "https://dc.lft.to/lastmile_qr_scan", "ios": "https://dc.lft.to/lastmile_qr_scan"}, "lat": 38.858690333333335, "is_reserved": 0, "is_disabled": 0, "fusion_lat": 0.0}, {"fusion_lon": 0.0, "bike_id": "46b28230886550b7f532d28f54742d0a", "name": "46b28230886550b7f532d28f54742d0a", "type": "electric_scooter", "lon": -77.0327025, "rental_uris": {"android": "https://dc.lft.to/lastmile_qr_scan", "ios": "https://dc.lft.to/lastmile_qr_scan"}, "lat": 38.93254733333333, "is_reserved": 0, "is_disabled": 0, "fusion_lat": 0.0}, {"fusion_lon": 0.0, "bike_id": "926825ce2bea62309f7488211d256dd2", "name": "926825ce2bea62309f7488211d256dd2", "type": "electric_scooter", "lon": -77.01704016666666, "rental_uris": {"android": "https://dc.lft.to/lastmile_qr_scan", "ios": "https://dc.lft.to/lastmile_qr_scan"}, "lat": 38.90728266666667, "is_reserved": 0, "is_disabled": 0, "fusion_lat": 0.0}, {"fusion_lon": 0.0, "bike_id": "b35e2df83a945977f8d6162993c71100", "name": "b35e2df83a945977f8d6162993c71100", "type": "electric_scooter", "lon": -77.02779533333333, "rental_uris": {"android": "https://dc.lft.to/lastmile_qr_scan", "ios": "https://dc.lft.to/lastmile_qr_scan"}, "lat": 38.892302, "is_reserved": 0, "is_disabled": 0, "fusion_lat": 0.0}, {"fusion_lon": 0.0, "bike_id": "f9921be7c006f44fe6ed9831e92466b0", "name": "f9921be7c006f44fe6ed9831e92466b0", "type": "electric_bike", "lon": -77.1829555, "rental_uris": {"android": "https://dc.lft.to/lastmile_qr_scan", "ios": "https://dc.lft.to/lastmile_qr_scan"}, "lat": 38.883443166666666, "is_reserved": 0, "is_disabled": 0, "fusion_lat": 0.0}, {"fusion_lon": 0.0, "bike_id": "6c7052df072aab3e286c73ca61b78016", "name": "6c7052df072aab3e286c73ca61b78016", "type": "electric_scooter", "lon": -76.99480083333333, "rental_uris": {"android": "https://dc.lft.to/lastmile_qr_scan", "ios": "https://dc.lft.to/lastmile_qr_scan"}, "lat": 38.862173166666665, "is_reserved": 0, "is_disabled": 0, "fusion_lat": 0.0}, {"fusion_lon": 0.0, "bike_id": "2aa83ba89fd3f4fba9ae23244b440072", "name": "2aa83ba89fd3f4fba9ae23244b440072", "type": "electric_scooter", "lon": -77.00434633333333, "rental_uris": {"android": "https://dc.lft.to/lastmile_qr_scan", "ios": "https://dc.lft.to/lastmile_qr_scan"}, "lat": 38.876638166666666, "is_reserved": 0, "is_disabled": 0, "fusion_lat": 0.0}, {"fusion_lon": 0.0, "bike_id": "1cf5d98ca7ae3f134b520915e7500d09", "name": "1cf5d98ca7ae3f134b520915e7500d09", "type": "electric_scooter", "lon": -77.00309566666667, "rental_uris": {"android": "https://dc.lft.to/lastmile_qr_scan", "ios": "https://dc.lft.to/lastmile_qr_scan"}, "lat": 38.894815333333334, "is_reserved": 0, "is_disabled": 0, "fusion_lat": 0.0}, {"fusion_lon": 0.0, "bike_id": "3c4473a0eb073f7c5fce1b6c222a7604", "name": "3c4473a0eb073f7c5fce1b6c222a7604", "type": "electric_scooter", "lon": -77.0722605, "rental_uris": {"android": "https://dc.lft.to/lastmile_qr_scan", "ios": "https://dc.lft.to/lastmile_qr_scan"}, "lat": 38.93458416666667, "is_reserved": 0, "is_disabled": 0, "fusion_lat": 0.0}, {"fusion_lon": 0.0, "bike_id": "bf4f4249fff9908c30079ffb7128bd9f", "name": "bf4f4249fff9908c30079ffb7128bd9f", "type": "electric_scooter", "lon": -76.9850915, "rental_uris": {"android": "https://dc.lft.to/lastmile_qr_scan", "ios": "https://dc.lft.to/lastmile_qr_scan"}, "lat": 38.880829, "is_reserved": 0, "is_disabled": 0, "fusion_lat": 0.0}, {"fusion_lon": 0.0, "bike_id": "b4a40cb70ba34661e7d9e4bd3c495966", "name": "b4a40cb70ba34661e7d9e4bd3c495966", "type": "electric_bike", "lon": -76.95467833333333, "rental_uris": {"android": "https://dc.lft.to/lastmile_qr_scan", "ios": "https://dc.lft.to/lastmile_qr_scan"}, "lat": 38.93575933333334, "is_reserved": 0, "is_disabled": 0, "fusion_lat": 0.0}, {"fusion_lon": 0.0, "bike_id": "d0bc17c7272ced5eb3ed274a037a5e32", "name": "d0bc17c7272ced5eb3ed274a037a5e32", "type": "electric_scooter", "lon": -77.02008066666667, "rental_uris": {"android": "https://dc.lft.to/lastmile_qr_scan", "ios": "https://dc.lft.to/lastmile_qr_scan"}, "lat": 38.8835525, "is_reserved": 0, "is_disabled": 0, "fusion_lat": 0.0}, {"fusion_lon": 0.0, "bike_id": "05d5fdc3a4e7abf9ab86e43a7676d791", "name": "05d5fdc3a4e7abf9ab86e43a7676d791", "type": "electric_scooter", "lon": -77.02687366666666, "rental_uris": {"android": "https://dc.lft.to/lastmile_qr_scan", "ios": "https://dc.lft.to/lastmile_qr_scan"}, "lat": 38.903796166666666, "is_reserved": 0, "is_disabled": 0, "fusion_lat": 0.0}, {"fusion_lon": 0.0, "bike_id": "1b4afb0da5168fd5538898a0fb62df3a", "name": "1b4afb0da5168fd5538898a0fb62df3a", "type": "electric_scooter", "lon": -76.97617166666667, "rental_uris": {"android": "https://dc.lft.to/lastmile_qr_scan", "ios": "https://dc.lft.to/lastmile_qr_scan"}, "lat": 38.93144133333333, "is_reserved": 0, "is_disabled": 0, "fusion_lat": 0.0}, {"fusion_lon": 0.0, "bike_id": "21371e4a501a2f202498fb3872e88085", "name": "21371e4a501a2f202498fb3872e88085", "type": "electric_scooter", "lon": -76.99057233333333, "rental_uris": {"android": "https://dc.lft.to/lastmile_qr_scan", "ios": "https://dc.lft.to/lastmile_qr_scan"}, "lat": 38.85898266666667, "is_reserved": 0, "is_disabled": 0, "fusion_lat": 0.0}, {"fusion_lon": 0.0, "bike_id": "481fbdffca184c87f81f9e1635b9318e", "name": "481fbdffca184c87f81f9e1635b9318e", "type": "electric_scooter", "lon": -77.0409965, "rental_uris": {"android": "https://dc.lft.to/lastmile_qr_scan", "ios": "https://dc.lft.to/lastmile_qr_scan"}, "lat": 38.91855916666667, "is_reserved": 0, "is_disabled": 0, "fusion_lat": 0.0}, {"fusion_lon": 0.0, "bike_id": "19417bcde3336ff47fd16616bb91f642", "name": "19417bcde3336ff47fd16616bb91f642", "type": "electric_scooter", "lon": -77.0233175, "rental_uris": {"android": "https://dc.lft.to/lastmile_qr_scan", "ios": "https://dc.lft.to/lastmile_qr_scan"}, "lat": 38.9155815, "is_reserved": 0, "is_disabled": 0, "fusion_lat": 0.0}, {"fusion_lon": 0.0, "bike_id": "fc5f7ac918c4a675c52c7dc25298445c", "name": "fc5f7ac918c4a675c52c7dc25298445c", "type": "electric_scooter", "lon": -76.99005733333334, "rental_uris": {"android": "https://dc.lft.to/lastmile_qr_scan", "ios": "https://dc.lft.to/lastmile_qr_scan"}, "lat": 38.8650855, "is_reserved": 0, "is_disabled": 0, "fusion_lat": 0.0}, {"fusion_lon": 0.0, "bike_id": "22fec0f9a6a5b3fbcff8488c031c82de", "name": "22fec0f9a6a5b3fbcff8488c031c82de", "type": "electric_scooter", "lon": -77.01205983333334, "rental_uris": {"android": "https://dc.lft.to/lastmile_qr_scan", "ios": "https://dc.lft.to/lastmile_qr_scan"}, "lat": 38.92587833333333, "is_reserved": 0, "is_disabled": 0, "fusion_lat": 0.0}, {"fusion_lon": 0.0, "bike_id": "2fc3e49324ed9c593217747f4e4884a6", "name": "2fc3e49324ed9c593217747f4e4884a6", "type": "electric_scooter", "lon": -77.0222105, "rental_uris": {"android": "https://dc.lft.to/lastmile_qr_scan", "ios": "https://dc.lft.to/lastmile_qr_scan"}, "lat": 38.8922385, "is_reserved": 0, "is_disabled": 0, "fusion_lat": 0.0}, {"fusion_lon": 0.0, "bike_id": "55d7941023e32314498269930b57da76", "name": "55d7941023e32314498269930b57da76", "type": "electric_scooter", "lon": -77.03281966666667, "rental_uris": {"android": "https://dc.lft.to/lastmile_qr_scan", "ios": "https://dc.lft.to/lastmile_qr_scan"}, "lat": 38.9470545, "is_reserved": 0, "is_disabled": 0, "fusion_lat": 0.0}, {"fusion_lon": 0.0, "bike_id": "0666af08d641ef5cfde00c51c29b2aca", "name": "0666af08d641ef5cfde00c51c29b2aca", "type": "electric_scooter", "lon": -77.0624715, "rental_uris": {"android": "https://dc.lft.to/lastmile_qr_scan", "ios": "https://dc.lft.to/lastmile_qr_scan"}, "lat": 38.91319933333333, "is_reserved": 0, "is_disabled": 0, "fusion_lat": 0.0}, {"fusion_lon": 0.0, "bike_id": "04703d2e187ea9c87a86a2bc379c1e8a", "name": "04703d2e187ea9c87a86a2bc379c1e8a", "type": "electric_scooter", "lon": -77.04662466666667, "rental_uris": {"android": "https://dc.lft.to/lastmile_qr_scan", "ios": "https://dc.lft.to/lastmile_qr_scan"}, "lat": 38.90015016666667, "is_reserved": 0, "is_disabled": 0, "fusion_lat": 0.0}, {"fusion_lon": 0.0, "bike_id": "d2c13a03ee8bc293e07476b0755ce354", "name": "d2c13a03ee8bc293e07476b0755ce354", "type": "electric_scooter", "lon": -76.9936455, "rental_uris": {"android": "https://dc.lft.to/lastmile_qr_scan", "ios": "https://dc.lft.to/lastmile_qr_scan"}, "lat": 38.9284265, "is_reserved": 0, "is_disabled": 0, "fusion_lat": 0.0}, {"fusion_lon": 0.0, "bike_id": "74bc62c797644adaa5b54dfe53a5617d", "name": "74bc62c797644adaa5b54dfe53a5617d", "type": "electric_scooter", "lon": -77.0230985, "rental_uris": {"android": "https://dc.lft.to/lastmile_qr_scan", "ios": "https://dc.lft.to/lastmile_qr_scan"}, "lat": 38.917194, "is_reserved": 0, "is_disabled": 0, "fusion_lat": 0.0}, {"fusion_lon": 0.0, "bike_id": "d21cc12f8dd6ae77dcb18a7631a4ae3e", "name": "d21cc12f8dd6ae77dcb18a7631a4ae3e", "type": "electric_scooter", "lon": -76.99078333333334, "rental_uris": {"android": "https://dc.lft.to/lastmile_qr_scan", "ios": "https://dc.lft.to/lastmile_qr_scan"}, "lat": 38.86055866666667, "is_reserved": 0, "is_disabled": 0, "fusion_lat": 0.0}, {"fusion_lon": 0.0, "bike_id": "90309a03776823ec0f81254721ce7935", "name": "90309a03776823ec0f81254721ce7935", "type": "electric_scooter", "lon": -77.01996016666666, "rental_uris": {"android": "https://dc.lft.to/lastmile_qr_scan", "ios": "https://dc.lft.to/lastmile_qr_scan"}, "lat": 38.9663585, "is_reserved": 0, "is_disabled": 0, "fusion_lat": 0.0}, {"fusion_lon": 0.0, "bike_id": "ac14e38c56406d6aae70ceacb4dca0bb", "name": "ac14e38c56406d6aae70ceacb4dca0bb", "type": "electric_scooter", "lon": -77.0575685, "rental_uris": {"android": "https://dc.lft.to/lastmile_qr_scan", "ios": "https://dc.lft.to/lastmile_qr_scan"}, "lat": 38.92506483333333, "is_reserved": 0, "is_disabled": 0, "fusion_lat": 0.0}, {"fusion_lon": 0.0, "bike_id": "b55f51fb93e4d47d839a51c1e13a5cf2", "name": "b55f51fb93e4d47d839a51c1e13a5cf2", "type": "electric_scooter", "lon": -77.06923466666667, "rental_uris": {"android": "https://dc.lft.to/lastmile_qr_scan", "ios": "https://dc.lft.to/lastmile_qr_scan"}, "lat": 38.913345, "is_reserved": 0, "is_disabled": 0, "fusion_lat": 0.0}, {"fusion_lon": 0.0, "bike_id": "7da894b739daa17ca5eb565f24ad329a", "name": "7da894b739daa17ca5eb565f24ad329a", "type": "electric_scooter", "lon": -77.03857483333333, "rental_uris": {"android": "https://dc.lft.to/lastmile_qr_scan", "ios": "https://dc.lft.to/lastmile_qr_scan"}, "lat": 38.902644333333335, "is_reserved": 0, "is_disabled": 0, "fusion_lat": 0.0}, {"fusion_lon": 0.0, "bike_id": "4bf6a0fdf1ecd0b09076764077f1ca96", "name": "4bf6a0fdf1ecd0b09076764077f1ca96", "type": "electric_scooter", "lon": -77.0487315, "rental_uris": {"android": "https://dc.lft.to/lastmile_qr_scan", "ios": "https://dc.lft.to/lastmile_qr_scan"}, "lat": 38.9091545, "is_reserved": 0, "is_disabled": 0, "fusion_lat": 0.0}, {"fusion_lon": 0.0, "bike_id": "7741f7432e6ad726d8f5c6fc3c30c561", "name": "7741f7432e6ad726d8f5c6fc3c30c561", "type": "electric_scooter", "lon": -77.02853316666666, "rental_uris": {"android": "https://dc.lft.to/lastmile_qr_scan", "ios": "https://dc.lft.to/lastmile_qr_scan"}, "lat": 38.932653333333334, "is_reserved": 0, "is_disabled": 0, "fusion_lat": 0.0}, {"fusion_lon": 0.0, "bike_id": "5b8d2219fc80102ed5c469ce3927fa21", "name": "5b8d2219fc80102ed5c469ce3927fa21", "type": "electric_scooter", "lon": -77.019927, "rental_uris": {"android": "https://dc.lft.to/lastmile_qr_scan", "ios": "https://dc.lft.to/lastmile_qr_scan"}, "lat": 38.930508333333336, "is_reserved": 0, "is_disabled": 0, "fusion_lat": 0.0}, {"fusion_lon": 0.0, "bike_id": "62fd8c207b31ff705fe25203e734d7d4", "name": "62fd8c207b31ff705fe25203e734d7d4", "type": "electric_scooter", "lon": -77.01373916666667, "rental_uris": {"android": "https://dc.lft.to/lastmile_qr_scan", "ios": "https://dc.lft.to/lastmile_qr_scan"}, "lat": 38.892214333333335, "is_reserved": 0, "is_disabled": 0, "fusion_lat": 0.0}, {"fusion_lon": 0.0, "bike_id": "5e2f353a5df0d2fb98fb66ca01d9c96d", "name": "5e2f353a5df0d2fb98fb66ca01d9c96d", "type": "electric_scooter", "lon": -77.03844683333334, "rental_uris": {"android": "https://dc.lft.to/lastmile_qr_scan", "ios": "https://dc.lft.to/lastmile_qr_scan"}, "lat": 38.9121405, "is_reserved": 0, "is_disabled": 0, "fusion_lat": 0.0}, {"fusion_lon": 0.0, "bike_id": "0aaf10220e8051d3e15acdb6daddd8bb", "name": "0aaf10220e8051d3e15acdb6daddd8bb", "type": "electric_bike", "lon": -76.90536166666666, "rental_uris": {"android": "https://dc.lft.to/lastmile_qr_scan", "ios": "https://dc.lft.to/lastmile_qr_scan"}, "lat": 38.8973625, "is_reserved": 0, "is_disabled": 0, "fusion_lat": 0.0}, {"fusion_lon": 0.0, "bike_id": "12bf5cb903d3fd496fe87741f446b94e", "name": "12bf5cb903d3fd496fe87741f446b94e", "type": "electric_scooter", "lon": -77.03782733333334, "rental_uris": {"android": "https://dc.lft.to/lastmile_qr_scan", "ios": "https://dc.lft.to/lastmile_qr_scan"}, "lat": 38.90391016666667, "is_reserved": 0, "is_disabled": 0, "fusion_lat": 0.0}, {"fusion_lon": 0.0, "bike_id": "43a841bd7bd9593ca44be5daa9548ac8", "name": "43a841bd7bd9593ca44be5daa9548ac8", "type": "electric_scooter", "lon": -76.99162, "rental_uris": {"android": "https://dc.lft.to/lastmile_qr_scan", "ios": "https://dc.lft.to/lastmile_qr_scan"}, "lat": 38.88219433333333, "is_reserved": 0, "is_disabled": 0, "fusion_lat": 0.0}, {"fusion_lon": 0.0, "bike_id": "70f6972ace7d6caaee2db8886187ba64", "name": "70f6972ace7d6caaee2db8886187ba64", "type": "electric_scooter", "lon": -77.04345733333334, "rental_uris": {"android": "https://dc.lft.to/lastmile_qr_scan", "ios": "https://dc.lft.to/lastmile_qr_scan"}, "lat": 38.90402233333333, "is_reserved": 0, "is_disabled": 0, "fusion_lat": 0.0}, {"fusion_lon": 0.0, "bike_id": "855bc34b0aaea5356e6b3b5bc77cb1c5", "name": "855bc34b0aaea5356e6b3b5bc77cb1c5", "type": "electric_scooter", "lon": -77.02179416666667, "rental_uris": {"android": "https://dc.lft.to/lastmile_qr_scan", "ios": "https://dc.lft.to/lastmile_qr_scan"}, "lat": 38.91893066666667, "is_reserved": 0, "is_disabled": 0, "fusion_lat": 0.0}, {"fusion_lon": 0.0, "bike_id": "1f28381d7f599d94a783d9e8195be58a", "name": "1f28381d7f599d94a783d9e8195be58a", "type": "electric_scooter", "lon": -77.013694, "rental_uris": {"android": "https://dc.lft.to/lastmile_qr_scan", "ios": "https://dc.lft.to/lastmile_qr_scan"}, "lat": 38.886456, "is_reserved": 0, "is_disabled": 0, "fusion_lat": 0.0}, {"fusion_lon": 0.0, "bike_id": "35c9835f306f8be8c1f4f2ca28fd26ed", "name": "35c9835f306f8be8c1f4f2ca28fd26ed", "type": "electric_scooter", "lon": -77.02429183333334, "rental_uris": {"android": "https://dc.lft.to/lastmile_qr_scan", "ios": "https://dc.lft.to/lastmile_qr_scan"}, "lat": 38.905809, "is_reserved": 0, "is_disabled": 0, "fusion_lat": 0.0}, {"fusion_lon": 0.0, "bike_id": "e12dd64813ef668bb9ff716b37a22133", "name": "e12dd64813ef668bb9ff716b37a22133", "type": "electric_scooter", "lon": -77.04658033333334, "rental_uris": {"android": "https://dc.lft.to/lastmile_qr_scan", "ios": "https://dc.lft.to/lastmile_qr_scan"}, "lat": 38.904292, "is_reserved": 0, "is_disabled": 0, "fusion_lat": 0.0}, {"fusion_lon": 0.0, "bike_id": "aefbbfaf50932b8a6cfeb06db0629227", "name": "aefbbfaf50932b8a6cfeb06db0629227", "type": "electric_scooter", "lon": -77.07312483333334, "rental_uris": {"android": "https://dc.lft.to/lastmile_qr_scan", "ios": "https://dc.lft.to/lastmile_qr_scan"}, "lat": 38.91199783333333, "is_reserved": 0, "is_disabled": 0, "fusion_lat": 0.0}, {"fusion_lon": 0.0, "bike_id": "c46989e8ee9824552eed06329edbcc4c", "name": "c46989e8ee9824552eed06329edbcc4c", "type": "electric_scooter", "lon": -77.0259535, "rental_uris": {"android": "https://dc.lft.to/lastmile_qr_scan", "ios": "https://dc.lft.to/lastmile_qr_scan"}, "lat": 38.8996515, "is_reserved": 0, "is_disabled": 0, "fusion_lat": 0.0}, {"fusion_lon": 0.0, "bike_id": "b31ce4c0ae2cc072e0eeb6ef715b888b", "name": "b31ce4c0ae2cc072e0eeb6ef715b888b", "type": "electric_scooter", "lon": -77.04087933333334, "rental_uris": {"android": "https://dc.lft.to/lastmile_qr_scan", "ios": "https://dc.lft.to/lastmile_qr_scan"}, "lat": 38.92397916666667, "is_reserved": 0, "is_disabled": 0, "fusion_lat": 0.0}, {"fusion_lon": 0.0, "bike_id": "95d3fb9187c2607a05c46ba722df1b88", "name": "95d3fb9187c2607a05c46ba722df1b88", "type": "electric_bike", "lon": -77.0957695, "rental_uris": {"android": "https://dc.lft.to/lastmile_qr_scan", "ios": "https://dc.lft.to/lastmile_qr_scan"}, "lat": 38.837920833333335, "is_reserved": 0, "is_disabled": 0, "fusion_lat": 0.0}, {"fusion_lon": 0.0, "bike_id": "dc13e4664af2802d8b0545cb40a847b0", "name": "dc13e4664af2802d8b0545cb40a847b0", "type": "electric_scooter", "lon": -77.03835333333333, "rental_uris": {"android": "https://dc.lft.to/lastmile_qr_scan", "ios": "https://dc.lft.to/lastmile_qr_scan"}, "lat": 38.903772833333335, "is_reserved": 0, "is_disabled": 0, "fusion_lat": 0.0}, {"fusion_lon": 0.0, "bike_id": "12e9441c48ff9b868c0bf25dc2b82b1d", "name": "12e9441c48ff9b868c0bf25dc2b82b1d", "type": "electric_scooter", "lon": -76.992271, "rental_uris": {"android": "https://dc.lft.to/lastmile_qr_scan", "ios": "https://dc.lft.to/lastmile_qr_scan"}, "lat": 38.89892066666667, "is_reserved": 0, "is_disabled": 0, "fusion_lat": 0.0}, {"fusion_lon": 0.0, "bike_id": "a3e4a027b6e70b31a21673608fa7be04", "name": "a3e4a027b6e70b31a21673608fa7be04", "type": "electric_scooter", "lon": -77.04490666666666, "rental_uris": {"android": "https://dc.lft.to/lastmile_qr_scan", "ios": "https://dc.lft.to/lastmile_qr_scan"}, "lat": 38.914252166666664, "is_reserved": 0, "is_disabled": 0, "fusion_lat": 0.0}, {"fusion_lon": 0.0, "bike_id": "c625b7c7ac4fb80d153d6fc47d7690fd", "name": "c625b7c7ac4fb80d153d6fc47d7690fd", "type": "electric_scooter", "lon": -76.93432983333334, "rental_uris": {"android": "https://dc.lft.to/lastmile_qr_scan", "ios": "https://dc.lft.to/lastmile_qr_scan"}, "lat": 38.899716, "is_reserved": 0, "is_disabled": 0, "fusion_lat": 0.0}, {"fusion_lon": 0.0, "bike_id": "b48d4d0fdd674263d690484452d49d33", "name": "b48d4d0fdd674263d690484452d49d33", "type": "electric_bike", "lon": -76.98330516666667, "rental_uris": {"android": "https://dc.lft.to/lastmile_qr_scan", "ios": "https://dc.lft.to/lastmile_qr_scan"}, "lat": 38.966075833333335, "is_reserved": 0, "is_disabled": 0, "fusion_lat": 0.0}, {"fusion_lon": 0.0, "bike_id": "8af05c5f7b1d83c5f8a90d16fc7827bb", "name": "8af05c5f7b1d83c5f8a90d16fc7827bb", "type": "electric_scooter", "lon": -77.0060735, "rental_uris": {"android": "https://dc.lft.to/lastmile_qr_scan", "ios": "https://dc.lft.to/lastmile_qr_scan"}, "lat": 38.877154, "is_reserved": 0, "is_disabled": 0, "fusion_lat": 0.0}, {"fusion_lon": 0.0, "bike_id": "7df62cb524f6610a0dc5b71b1e1e4c31", "name": "7df62cb524f6610a0dc5b71b1e1e4c31", "type": "electric_scooter", "lon": -77.03704683333333, "rental_uris": {"android": "https://dc.lft.to/lastmile_qr_scan", "ios": "https://dc.lft.to/lastmile_qr_scan"}, "lat": 38.9264785, "is_reserved": 0, "is_disabled": 0, "fusion_lat": 0.0}, {"fusion_lon": 0.0, "bike_id": "ee5f43166c094efeccefc94ec0d4facb", "name": "ee5f43166c094efeccefc94ec0d4facb", "type": "electric_scooter", "lon": -77.02841316666667, "rental_uris": {"android": "https://dc.lft.to/lastmile_qr_scan", "ios": "https://dc.lft.to/lastmile_qr_scan"}, "lat": 38.92239466666667, "is_reserved": 0, "is_disabled": 0, "fusion_lat": 0.0}, {"fusion_lon": 0.0, "bike_id": "ed189366d0299f1010d93f92c45725d4", "name": "ed189366d0299f1010d93f92c45725d4", "type": "electric_scooter", "lon": -77.0222965, "rental_uris": {"android": "https://dc.lft.to/lastmile_qr_scan", "ios": "https://dc.lft.to/lastmile_qr_scan"}, "lat": 38.887690166666665, "is_reserved": 0, "is_disabled": 0, "fusion_lat": 0.0}, {"fusion_lon": 0.0, "bike_id": "83f0f7396545c5360391dfdecffb69a4", "name": "83f0f7396545c5360391dfdecffb69a4", "type": "electric_scooter", "lon": -77.03209083333333, "rental_uris": {"android": "https://dc.lft.to/lastmile_qr_scan", "ios": "https://dc.lft.to/lastmile_qr_scan"}, "lat": 38.915049, "is_reserved": 0, "is_disabled": 0, "fusion_lat": 0.0}, {"fusion_lon": 0.0, "bike_id": "ba776449f6e2d8cbe187c8b5eb779f8b", "name": "ba776449f6e2d8cbe187c8b5eb779f8b", "type": "electric_scooter", "lon": -76.94875933333333, "rental_uris": {"android": "https://dc.lft.to/lastmile_qr_scan", "ios": "https://dc.lft.to/lastmile_qr_scan"}, "lat": 38.895933666666664, "is_reserved": 0, "is_disabled": 0, "fusion_lat": 0.0}, {"fusion_lon": 0.0, "bike_id": "c16e13bc54d791b199c84ab85ba48d89", "name": "c16e13bc54d791b199c84ab85ba48d89", "type": "electric_scooter", "lon": -77.02281966666666, "rental_uris": {"android": "https://dc.lft.to/lastmile_qr_scan", "ios": "https://dc.lft.to/lastmile_qr_scan"}, "lat": 38.91697966666667, "is_reserved": 0, "is_disabled": 0, "fusion_lat": 0.0}, {"fusion_lon": 0.0, "bike_id": "2ec4eca90f8d5dec41847e2003504a16", "name": "2ec4eca90f8d5dec41847e2003504a16", "type": "electric_scooter", "lon": -77.05303966666666, "rental_uris": {"android": "https://dc.lft.to/lastmile_qr_scan", "ios": "https://dc.lft.to/lastmile_qr_scan"}, "lat": 38.9277955, "is_reserved": 0, "is_disabled": 0, "fusion_lat": 0.0}, {"fusion_lon": 0.0, "bike_id": "0182e261f66355be783b14c13bbfbcaa", "name": "0182e261f66355be783b14c13bbfbcaa", "type": "electric_scooter", "lon": -77.03189216666667, "rental_uris": {"android": "https://dc.lft.to/lastmile_qr_scan", "ios": "https://dc.lft.to/lastmile_qr_scan"}, "lat": 38.9076705, "is_reserved": 0, "is_disabled": 0, "fusion_lat": 0.0}, {"fusion_lon": 0.0, "bike_id": "a4d896ff8f00addd33ae8a0f2d1d1e11", "name": "a4d896ff8f00addd33ae8a0f2d1d1e11", "type": "electric_bike", "lon": -76.99488766666667, "rental_uris": {"android": "https://dc.lft.to/lastmile_qr_scan", "ios": "https://dc.lft.to/lastmile_qr_scan"}, "lat": 38.877368, "is_reserved": 0, "is_disabled": 0, "fusion_lat": 0.0}, {"fusion_lon": 0.0, "bike_id": "fb88c5f1f4628e426c0702adcc160a55", "name": "fb88c5f1f4628e426c0702adcc160a55", "type": "electric_scooter", "lon": -77.05129983333333, "rental_uris": {"android": "https://dc.lft.to/lastmile_qr_scan", "ios": "https://dc.lft.to/lastmile_qr_scan"}, "lat": 38.92364666666667, "is_reserved": 0, "is_disabled": 0, "fusion_lat": 0.0}, {"fusion_lon": 0.0, "bike_id": "4e54d94c25c59f42e5a1ab027ae1a407", "name": "4e54d94c25c59f42e5a1ab027ae1a407", "type": "electric_scooter", "lon": -77.02684066666667, "rental_uris": {"android": "https://dc.lft.to/lastmile_qr_scan", "ios": "https://dc.lft.to/lastmile_qr_scan"}, "lat": 38.898658166666664, "is_reserved": 0, "is_disabled": 0, "fusion_lat": 0.0}, {"fusion_lon": 0.0, "bike_id": "09f2ee363e9a62e2c4e9a6506dd8ddde", "name": "09f2ee363e9a62e2c4e9a6506dd8ddde", "type": "electric_scooter", "lon": -76.994574, "rental_uris": {"android": "https://dc.lft.to/lastmile_qr_scan", "ios": "https://dc.lft.to/lastmile_qr_scan"}, "lat": 38.85155866666667, "is_reserved": 0, "is_disabled": 0, "fusion_lat": 0.0}, {"fusion_lon": 0.0, "bike_id": "fee03742aeb7112c50915812bce85f5e", "name": "fee03742aeb7112c50915812bce85f5e", "type": "electric_scooter", "lon": -77.0115945, "rental_uris": {"android": "https://dc.lft.to/lastmile_qr_scan", "ios": "https://dc.lft.to/lastmile_qr_scan"}, "lat": 38.871971333333335, "is_reserved": 0, "is_disabled": 0, "fusion_lat": 0.0}, {"fusion_lon": 0.0, "bike_id": "54494c512c0339d4fcf91802f552bdf2", "name": "54494c512c0339d4fcf91802f552bdf2", "type": "electric_scooter", "lon": -77.03194583333334, "rental_uris": {"android": "https://dc.lft.to/lastmile_qr_scan", "ios": "https://dc.lft.to/lastmile_qr_scan"}, "lat": 38.913523166666664, "is_reserved": 0, "is_disabled": 0, "fusion_lat": 0.0}, {"fusion_lon": 0.0, "bike_id": "da4a4da9d607b6e2f74ab44d1e253f5a", "name": "da4a4da9d607b6e2f74ab44d1e253f5a", "type": "electric_scooter", "lon": -77.036376, "rental_uris": {"android": "https://dc.lft.to/lastmile_qr_scan", "ios": "https://dc.lft.to/lastmile_qr_scan"}, "lat": 38.92415283333333, "is_reserved": 0, "is_disabled": 0, "fusion_lat": 0.0}, {"fusion_lon": 0.0, "bike_id": "7b91fa833e0848fed6e8b178dcba4a82", "name": "7b91fa833e0848fed6e8b178dcba4a82", "type": "electric_scooter", "lon": -77.01386666666667, "rental_uris": {"android": "https://dc.lft.to/lastmile_qr_scan", "ios": "https://dc.lft.to/lastmile_qr_scan"}, "lat": 38.92840966666667, "is_reserved": 0, "is_disabled": 0, "fusion_lat": 0.0}, {"fusion_lon": 0.0, "bike_id": "05363684406f01f459164d0a69650cf9", "name": "05363684406f01f459164d0a69650cf9", "type": "electric_scooter", "lon": -76.93747483333334, "rental_uris": {"android": "https://dc.lft.to/lastmile_qr_scan", "ios": "https://dc.lft.to/lastmile_qr_scan"}, "lat": 38.89012666666667, "is_reserved": 0, "is_disabled": 0, "fusion_lat": 0.0}, {"fusion_lon": 0.0, "bike_id": "37640fe82d0ca7c801e9b9391cf2cd17", "name": "37640fe82d0ca7c801e9b9391cf2cd17", "type": "electric_scooter", "lon": -77.0519025, "rental_uris": {"android": "https://dc.lft.to/lastmile_qr_scan", "ios": "https://dc.lft.to/lastmile_qr_scan"}, "lat": 38.9254975, "is_reserved": 0, "is_disabled": 0, "fusion_lat": 0.0}, {"fusion_lon": 0.0, "bike_id": "fd0fa8acd9d1e098242625047a65a2e8", "name": "fd0fa8acd9d1e098242625047a65a2e8", "type": "electric_scooter", "lon": -76.98317033333333, "rental_uris": {"android": "https://dc.lft.to/lastmile_qr_scan", "ios": "https://dc.lft.to/lastmile_qr_scan"}, "lat": 38.888184, "is_reserved": 0, "is_disabled": 0, "fusion_lat": 0.0}, {"fusion_lon": 0.0, "bike_id": "abf9a29fc5ee3e9397680caec8599db0", "name": "abf9a29fc5ee3e9397680caec8599db0", "type": "electric_scooter", "lon": -77.022155, "rental_uris": {"android": "https://dc.lft.to/lastmile_qr_scan", "ios": "https://dc.lft.to/lastmile_qr_scan"}, "lat": 38.91416566666667, "is_reserved": 0, "is_disabled": 0, "fusion_lat": 0.0}, {"fusion_lon": 0.0, "bike_id": "da8b31f687f2ec63812fbf76372d1cc0", "name": "da8b31f687f2ec63812fbf76372d1cc0", "type": "electric_bike", "lon": -76.96672166666667, "rental_uris": {"android": "https://dc.lft.to/lastmile_qr_scan", "ios": "https://dc.lft.to/lastmile_qr_scan"}, "lat": 38.958646333333334, "is_reserved": 0, "is_disabled": 0, "fusion_lat": 0.0}, {"fusion_lon": 0.0, "bike_id": "4ac1b8c6506d864fd6dbb606fc90252e", "name": "4ac1b8c6506d864fd6dbb606fc90252e", "type": "electric_scooter", "lon": -76.98877766666666, "rental_uris": {"android": "https://dc.lft.to/lastmile_qr_scan", "ios": "https://dc.lft.to/lastmile_qr_scan"}, "lat": 38.90633783333333, "is_reserved": 0, "is_disabled": 0, "fusion_lat": 0.0}, {"fusion_lon": 0.0, "bike_id": "701a8a29fcad0056d980a786bf00d58c", "name": "701a8a29fcad0056d980a786bf00d58c", "type": "electric_scooter", "lon": -77.04657133333333, "rental_uris": {"android": "https://dc.lft.to/lastmile_qr_scan", "ios": "https://dc.lft.to/lastmile_qr_scan"}, "lat": 38.893412, "is_reserved": 0, "is_disabled": 0, "fusion_lat": 0.0}, {"fusion_lon": 0.0, "bike_id": "7fd072a8e5961fd797367f47e3e45c39", "name": "7fd072a8e5961fd797367f47e3e45c39", "type": "electric_scooter", "lon": -77.04371033333334, "rental_uris": {"android": "https://dc.lft.to/lastmile_qr_scan", "ios": "https://dc.lft.to/lastmile_qr_scan"}, "lat": 38.925754, "is_reserved": 0, "is_disabled": 0, "fusion_lat": 0.0}, {"fusion_lon": 0.0, "bike_id": "2e1d26c077f8f2967ee2f8ed3cca7529", "name": "2e1d26c077f8f2967ee2f8ed3cca7529", "type": "electric_scooter", "lon": -76.95756816666666, "rental_uris": {"android": "https://dc.lft.to/lastmile_qr_scan", "ios": "https://dc.lft.to/lastmile_qr_scan"}, "lat": 38.8843275, "is_reserved": 0, "is_disabled": 0, "fusion_lat": 0.0}, {"fusion_lon": 0.0, "bike_id": "bddc468e5bb6708735f5efa1b1b9e64f", "name": "bddc468e5bb6708735f5efa1b1b9e64f", "type": "electric_bike", "lon": -76.980915, "rental_uris": {"android": "https://dc.lft.to/lastmile_qr_scan", "ios": "https://dc.lft.to/lastmile_qr_scan"}, "lat": 38.95357816666667, "is_reserved": 0, "is_disabled": 0, "fusion_lat": 0.0}, {"fusion_lon": 0.0, "bike_id": "b27afac0ce4603477f725a01537a3bdc", "name": "b27afac0ce4603477f725a01537a3bdc", "type": "electric_bike", "lon": -77.0804995, "rental_uris": {"android": "https://dc.lft.to/lastmile_qr_scan", "ios": "https://dc.lft.to/lastmile_qr_scan"}, "lat": 38.8484705, "is_reserved": 0, "is_disabled": 0, "fusion_lat": 0.0}, {"fusion_lon": 0.0, "bike_id": "4768dbf42bb34f1eff80d0d09a302c07", "name": "4768dbf42bb34f1eff80d0d09a302c07", "type": "electric_scooter", "lon": -77.04663933333333, "rental_uris": {"android": "https://dc.lft.to/lastmile_qr_scan", "ios": "https://dc.lft.to/lastmile_qr_scan"}, "lat": 38.899131833333335, "is_reserved": 0, "is_disabled": 0, "fusion_lat": 0.0}, {"fusion_lon": 0.0, "bike_id": "d459f1a12e5ce433566c1d040201d24b", "name": "d459f1a12e5ce433566c1d040201d24b", "type": "electric_scooter", "lon": -77.03187016666666, "rental_uris": {"android": "https://dc.lft.to/lastmile_qr_scan", "ios": "https://dc.lft.to/lastmile_qr_scan"}, "lat": 38.92102783333333, "is_reserved": 0, "is_disabled": 0, "fusion_lat": 0.0}, {"fusion_lon": 0.0, "bike_id": "680ef2e98423824c8e55a02662634ce2", "name": "680ef2e98423824c8e55a02662634ce2", "type": "electric_scooter", "lon": -76.99414883333333, "rental_uris": {"android": "https://dc.lft.to/lastmile_qr_scan", "ios": "https://dc.lft.to/lastmile_qr_scan"}, "lat": 38.93307566666667, "is_reserved": 0, "is_disabled": 0, "fusion_lat": 0.0}, {"fusion_lon": 0.0, "bike_id": "c4fcc220628b1707567637aca7ea0723", "name": "c4fcc220628b1707567637aca7ea0723", "type": "electric_scooter", "lon": -77.04761416666666, "rental_uris": {"android": "https://dc.lft.to/lastmile_qr_scan", "ios": "https://dc.lft.to/lastmile_qr_scan"}, "lat": 38.901460666666665, "is_reserved": 0, "is_disabled": 0, "fusion_lat": 0.0}, {"fusion_lon": 0.0, "bike_id": "abec2b1e1ae62bb3646465c2f5c0dbb1", "name": "abec2b1e1ae62bb3646465c2f5c0dbb1", "type": "electric_scooter", "lon": -77.03445016666667, "rental_uris": {"android": "https://dc.lft.to/lastmile_qr_scan", "ios": "https://dc.lft.to/lastmile_qr_scan"}, "lat": 38.90435433333333, "is_reserved": 0, "is_disabled": 0, "fusion_lat": 0.0}, {"fusion_lon": 0.0, "bike_id": "cee9651360b15f43021201449a8ed85e", "name": "cee9651360b15f43021201449a8ed85e", "type": "electric_scooter", "lon": -77.0194735, "rental_uris": {"android": "https://dc.lft.to/lastmile_qr_scan", "ios": "https://dc.lft.to/lastmile_qr_scan"}, "lat": 38.92250716666667, "is_reserved": 0, "is_disabled": 0, "fusion_lat": 0.0}, {"fusion_lon": 0.0, "bike_id": "ea2ce51b5437a465bcb10d93f34a83a1", "name": "ea2ce51b5437a465bcb10d93f34a83a1", "type": "electric_scooter", "lon": -77.05003066666667, "rental_uris": {"android": "https://dc.lft.to/lastmile_qr_scan", "ios": "https://dc.lft.to/lastmile_qr_scan"}, "lat": 38.90074533333333, "is_reserved": 0, "is_disabled": 0, "fusion_lat": 0.0}, {"fusion_lon": 0.0, "bike_id": "046fe53a6d525e61b3793d0c66d5c597", "name": "046fe53a6d525e61b3793d0c66d5c597", "type": "electric_scooter", "lon": -77.027021, "rental_uris": {"android": "https://dc.lft.to/lastmile_qr_scan", "ios": "https://dc.lft.to/lastmile_qr_scan"}, "lat": 38.9066245, "is_reserved": 0, "is_disabled": 0, "fusion_lat": 0.0}, {"fusion_lon": 0.0, "bike_id": "3ad9a9624f2b5187ee3c3ebf7f271c3c", "name": "3ad9a9624f2b5187ee3c3ebf7f271c3c", "type": "electric_scooter", "lon": -77.00284283333333, "rental_uris": {"android": "https://dc.lft.to/lastmile_qr_scan", "ios": "https://dc.lft.to/lastmile_qr_scan"}, "lat": 38.90889833333333, "is_reserved": 0, "is_disabled": 0, "fusion_lat": 0.0}, {"fusion_lon": 0.0, "bike_id": "9b975cde6033b4ec99b1535e9ea6bc00", "name": "9b975cde6033b4ec99b1535e9ea6bc00", "type": "electric_scooter", "lon": -76.99808616666667, "rental_uris": {"android": "https://dc.lft.to/lastmile_qr_scan", "ios": "https://dc.lft.to/lastmile_qr_scan"}, "lat": 38.8766545, "is_reserved": 0, "is_disabled": 0, "fusion_lat": 0.0}, {"fusion_lon": 0.0, "bike_id": "afb1a523ff2ad41f73fe346ae86f24f9", "name": "afb1a523ff2ad41f73fe346ae86f24f9", "type": "electric_scooter", "lon": -77.05793366666667, "rental_uris": {"android": "https://dc.lft.to/lastmile_qr_scan", "ios": "https://dc.lft.to/lastmile_qr_scan"}, "lat": 38.93479933333333, "is_reserved": 0, "is_disabled": 0, "fusion_lat": 0.0}, {"fusion_lon": 0.0, "bike_id": "b4d6c02ef3d19f214a484005da4b2583", "name": "b4d6c02ef3d19f214a484005da4b2583", "type": "electric_scooter", "lon": -77.04562133333333, "rental_uris": {"android": "https://dc.lft.to/lastmile_qr_scan", "ios": "https://dc.lft.to/lastmile_qr_scan"}, "lat": 38.907493833333334, "is_reserved": 0, "is_disabled": 0, "fusion_lat": 0.0}, {"fusion_lon": 0.0, "bike_id": "239af1a0d7f7ad0331c8338f74e2d67b", "name": "239af1a0d7f7ad0331c8338f74e2d67b", "type": "electric_scooter", "lon": -77.04159316666667, "rental_uris": {"android": "https://dc.lft.to/lastmile_qr_scan", "ios": "https://dc.lft.to/lastmile_qr_scan"}, "lat": 38.913448, "is_reserved": 0, "is_disabled": 0, "fusion_lat": 0.0}, {"fusion_lon": 0.0, "bike_id": "9ae241c71b68e77a08771216263ea53a", "name": "9ae241c71b68e77a08771216263ea53a", "type": "electric_scooter", "lon": -77.02217683333333, "rental_uris": {"android": "https://dc.lft.to/lastmile_qr_scan", "ios": "https://dc.lft.to/lastmile_qr_scan"}, "lat": 38.909587, "is_reserved": 0, "is_disabled": 0, "fusion_lat": 0.0}, {"fusion_lon": 0.0, "bike_id": "f546c7c1f18e163f0d8863240ace84ef", "name": "f546c7c1f18e163f0d8863240ace84ef", "type": "electric_scooter", "lon": -76.94639033333333, "rental_uris": {"android": "https://dc.lft.to/lastmile_qr_scan", "ios": "https://dc.lft.to/lastmile_qr_scan"}, "lat": 38.89845066666667, "is_reserved": 0, "is_disabled": 0, "fusion_lat": 0.0}, {"fusion_lon": 0.0, "bike_id": "7bb7a4d46eee006807a024c428bba072", "name": "7bb7a4d46eee006807a024c428bba072", "type": "electric_scooter", "lon": -77.02489266666667, "rental_uris": {"android": "https://dc.lft.to/lastmile_qr_scan", "ios": "https://dc.lft.to/lastmile_qr_scan"}, "lat": 38.94186766666667, "is_reserved": 0, "is_disabled": 0, "fusion_lat": 0.0}, {"fusion_lon": 0.0, "bike_id": "75f2a104360fce60daf39eba596b887e", "name": "75f2a104360fce60daf39eba596b887e", "type": "electric_scooter", "lon": -76.99445033333333, "rental_uris": {"android": "https://dc.lft.to/lastmile_qr_scan", "ios": "https://dc.lft.to/lastmile_qr_scan"}, "lat": 38.905085166666666, "is_reserved": 0, "is_disabled": 0, "fusion_lat": 0.0}, {"fusion_lon": 0.0, "bike_id": "a453672a65a6fe63a35cd4238d49003d", "name": "a453672a65a6fe63a35cd4238d49003d", "type": "electric_scooter", "lon": -77.023039, "rental_uris": {"android": "https://dc.lft.to/lastmile_qr_scan", "ios": "https://dc.lft.to/lastmile_qr_scan"}, "lat": 38.901625333333335, "is_reserved": 0, "is_disabled": 0, "fusion_lat": 0.0}, {"fusion_lon": 0.0, "bike_id": "1058546c8ad6f66f31a3d531af1031cd", "name": "1058546c8ad6f66f31a3d531af1031cd", "type": "electric_scooter", "lon": -76.955166, "rental_uris": {"android": "https://dc.lft.to/lastmile_qr_scan", "ios": "https://dc.lft.to/lastmile_qr_scan"}, "lat": 38.89057016666667, "is_reserved": 0, "is_disabled": 0, "fusion_lat": 0.0}, {"fusion_lon": 0.0, "bike_id": "c83eaae4eea310cfe4c621249945870c", "name": "c83eaae4eea310cfe4c621249945870c", "type": "electric_bike", "lon": -76.92915866666667, "rental_uris": {"android": "https://dc.lft.to/lastmile_qr_scan", "ios": "https://dc.lft.to/lastmile_qr_scan"}, "lat": 38.98028716666666, "is_reserved": 0, "is_disabled": 0, "fusion_lat": 0.0}, {"fusion_lon": 0.0, "bike_id": "e73d12607dddaf160af398218f681e01", "name": "e73d12607dddaf160af398218f681e01", "type": "electric_scooter", "lon": -76.94470766666667, "rental_uris": {"android": "https://dc.lft.to/lastmile_qr_scan", "ios": "https://dc.lft.to/lastmile_qr_scan"}, "lat": 38.9028255, "is_reserved": 0, "is_disabled": 0, "fusion_lat": 0.0}, {"fusion_lon": 0.0, "bike_id": "767c4adb4486066effae59e9753688c3", "name": "767c4adb4486066effae59e9753688c3", "type": "electric_scooter", "lon": -77.0260495, "rental_uris": {"android": "https://dc.lft.to/lastmile_qr_scan", "ios": "https://dc.lft.to/lastmile_qr_scan"}, "lat": 38.91431683333333, "is_reserved": 0, "is_disabled": 0, "fusion_lat": 0.0}, {"fusion_lon": 0.0, "bike_id": "ff509fcf397aa89c01e530a99352e574", "name": "ff509fcf397aa89c01e530a99352e574", "type": "electric_scooter", "lon": -77.04139583333334, "rental_uris": {"android": "https://dc.lft.to/lastmile_qr_scan", "ios": "https://dc.lft.to/lastmile_qr_scan"}, "lat": 38.9168495, "is_reserved": 0, "is_disabled": 0, "fusion_lat": 0.0}, {"fusion_lon": 0.0, "bike_id": "2e4894bd489959d297d364abfbf68979", "name": "2e4894bd489959d297d364abfbf68979", "type": "electric_scooter", "lon": -77.02934216666667, "rental_uris": {"android": "https://dc.lft.to/lastmile_qr_scan", "ios": "https://dc.lft.to/lastmile_qr_scan"}, "lat": 38.91669916666667, "is_reserved": 0, "is_disabled": 0, "fusion_lat": 0.0}, {"fusion_lon": 0.0, "bike_id": "368f6ff35af4bb04bfee7f9cb87f6d7b", "name": "368f6ff35af4bb04bfee7f9cb87f6d7b", "type": "electric_scooter", "lon": -77.0111035, "rental_uris": {"android": "https://dc.lft.to/lastmile_qr_scan", "ios": "https://dc.lft.to/lastmile_qr_scan"}, "lat": 38.89618933333333, "is_reserved": 0, "is_disabled": 0, "fusion_lat": 0.0}, {"fusion_lon": 0.0, "bike_id": "c3e1153b3c5beb6fddb47df172aee96f", "name": "c3e1153b3c5beb6fddb47df172aee96f", "type": "electric_scooter", "lon": -77.0268325, "rental_uris": {"android": "https://dc.lft.to/lastmile_qr_scan", "ios": "https://dc.lft.to/lastmile_qr_scan"}, "lat": 38.91259616666667, "is_reserved": 0, "is_disabled": 0, "fusion_lat": 0.0}, {"fusion_lon": 0.0, "bike_id": "397b9e4a4bdc281e6808ad82f6848df9", "name": "397b9e4a4bdc281e6808ad82f6848df9", "type": "electric_scooter", "lon": -77.00931116666666, "rental_uris": {"android": "https://dc.lft.to/lastmile_qr_scan", "ios": "https://dc.lft.to/lastmile_qr_scan"}, "lat": 38.876865333333335, "is_reserved": 0, "is_disabled": 0, "fusion_lat": 0.0}, {"fusion_lon": 0.0, "bike_id": "d504afd9fe4ec79721d41d0c8d42f719", "name": "d504afd9fe4ec79721d41d0c8d42f719", "type": "electric_scooter", "lon": -77.03263833333334, "rental_uris": {"android": "https://dc.lft.to/lastmile_qr_scan", "ios": "https://dc.lft.to/lastmile_qr_scan"}, "lat": 38.935232666666664, "is_reserved": 0, "is_disabled": 0, "fusion_lat": 0.0}, {"fusion_lon": 0.0, "bike_id": "856ea22863b1431f7161f095fd474ab4", "name": "856ea22863b1431f7161f095fd474ab4", "type": "electric_bike", "lon": -76.9233865, "rental_uris": {"android": "https://dc.lft.to/lastmile_qr_scan", "ios": "https://dc.lft.to/lastmile_qr_scan"}, "lat": 38.88792933333333, "is_reserved": 0, "is_disabled": 0, "fusion_lat": 0.0}, {"fusion_lon": 0.0, "bike_id": "ae952facfe15f0196122538f0967734b", "name": "ae952facfe15f0196122538f0967734b", "type": "electric_scooter", "lon": -77.03079433333333, "rental_uris": {"android": "https://dc.lft.to/lastmile_qr_scan", "ios": "https://dc.lft.to/lastmile_qr_scan"}, "lat": 38.923809, "is_reserved": 0, "is_disabled": 0, "fusion_lat": 0.0}, {"fusion_lon": 0.0, "bike_id": "97ea354f5dbffe9a3fd4a3ebc525f33c", "name": "97ea354f5dbffe9a3fd4a3ebc525f33c", "type": "electric_scooter", "lon": -76.98541316666666, "rental_uris": {"android": "https://dc.lft.to/lastmile_qr_scan", "ios": "https://dc.lft.to/lastmile_qr_scan"}, "lat": 38.87994283333333, "is_reserved": 0, "is_disabled": 0, "fusion_lat": 0.0}, {"fusion_lon": 0.0, "bike_id": "cbd10235e65821f5ff2d662771fc6d4c", "name": "cbd10235e65821f5ff2d662771fc6d4c", "type": "electric_scooter", "lon": -77.03446016666666, "rental_uris": {"android": "https://dc.lft.to/lastmile_qr_scan", "ios": "https://dc.lft.to/lastmile_qr_scan"}, "lat": 38.90497633333333, "is_reserved": 0, "is_disabled": 0, "fusion_lat": 0.0}, {"fusion_lon": 0.0, "bike_id": "13a59175e9f8eab8de5253a37d0ed1b0", "name": "13a59175e9f8eab8de5253a37d0ed1b0", "type": "electric_scooter", "lon": -77.00333333333333, "rental_uris": {"android": "https://dc.lft.to/lastmile_qr_scan", "ios": "https://dc.lft.to/lastmile_qr_scan"}, "lat": 38.9060465, "is_reserved": 0, "is_disabled": 0, "fusion_lat": 0.0}, {"fusion_lon": 0.0, "bike_id": "de316353217d3062b80fe948db8a306c", "name": "de316353217d3062b80fe948db8a306c", "type": "electric_scooter", "lon": -77.05232416666666, "rental_uris": {"android": "https://dc.lft.to/lastmile_qr_scan", "ios": "https://dc.lft.to/lastmile_qr_scan"}, "lat": 38.924665, "is_reserved": 0, "is_disabled": 0, "fusion_lat": 0.0}, {"fusion_lon": 0.0, "bike_id": "4c95ac58003ee71563d5fe3daa596552", "name": "4c95ac58003ee71563d5fe3daa596552", "type": "electric_scooter", "lon": -76.9960665, "rental_uris": {"android": "https://dc.lft.to/lastmile_qr_scan", "ios": "https://dc.lft.to/lastmile_qr_scan"}, "lat": 38.886169833333334, "is_reserved": 0, "is_disabled": 0, "fusion_lat": 0.0}, {"fusion_lon": 0.0, "bike_id": "7ace33c9e42b1d1593126f0b4c0ed87d", "name": "7ace33c9e42b1d1593126f0b4c0ed87d", "type": "electric_scooter", "lon": -77.03196616666666, "rental_uris": {"android": "https://dc.lft.to/lastmile_qr_scan", "ios": "https://dc.lft.to/lastmile_qr_scan"}, "lat": 38.907818666666664, "is_reserved": 0, "is_disabled": 0, "fusion_lat": 0.0}, {"fusion_lon": 0.0, "bike_id": "ca0bdfbb4be96f4450ecf6ee150f26c5", "name": "ca0bdfbb4be96f4450ecf6ee150f26c5", "type": "electric_bike", "lon": -76.98113866666667, "rental_uris": {"android": "https://dc.lft.to/lastmile_qr_scan", "ios": "https://dc.lft.to/lastmile_qr_scan"}, "lat": 38.89675866666666, "is_reserved": 0, "is_disabled": 0, "fusion_lat": 0.0}, {"fusion_lon": 0.0, "bike_id": "915f14607a73cf4202e596c028ca7c58", "name": "915f14607a73cf4202e596c028ca7c58", "type": "electric_scooter", "lon": -76.93724433333334, "rental_uris": {"android": "https://dc.lft.to/lastmile_qr_scan", "ios": "https://dc.lft.to/lastmile_qr_scan"}, "lat": 38.89102883333334, "is_reserved": 0, "is_disabled": 0, "fusion_lat": 0.0}, {"fusion_lon": 0.0, "bike_id": "9061fc4677ea5840f94c307b4a0b2cfb", "name": "9061fc4677ea5840f94c307b4a0b2cfb", "type": "electric_scooter", "lon": -77.003343, "rental_uris": {"android": "https://dc.lft.to/lastmile_qr_scan", "ios": "https://dc.lft.to/lastmile_qr_scan"}, "lat": 38.8936275, "is_reserved": 0, "is_disabled": 0, "fusion_lat": 0.0}, {"fusion_lon": 0.0, "bike_id": "05ff68924893a1da1ead1d3ee1ddcc8d", "name": "05ff68924893a1da1ead1d3ee1ddcc8d", "type": "electric_bike", "lon": -77.10181633333333, "rental_uris": {"android": "https://dc.lft.to/lastmile_qr_scan", "ios": "https://dc.lft.to/lastmile_qr_scan"}, "lat": 38.91812016666667, "is_reserved": 0, "is_disabled": 0, "fusion_lat": 0.0}, {"fusion_lon": 0.0, "bike_id": "2d68fab15598ea27ca8e2c33f40ccb6d", "name": "2d68fab15598ea27ca8e2c33f40ccb6d", "type": "electric_bike", "lon": -76.98328666666667, "rental_uris": {"android": "https://dc.lft.to/lastmile_qr_scan", "ios": "https://dc.lft.to/lastmile_qr_scan"}, "lat": 38.966048, "is_reserved": 0, "is_disabled": 0, "fusion_lat": 0.0}, {"fusion_lon": 0.0, "bike_id": "54ab78a4d85cb1054a1583ae6d96d9fc", "name": "54ab78a4d85cb1054a1583ae6d96d9fc", "type": "electric_scooter", "lon": -77.00940133333333, "rental_uris": {"android": "https://dc.lft.to/lastmile_qr_scan", "ios": "https://dc.lft.to/lastmile_qr_scan"}, "lat": 38.87662, "is_reserved": 0, "is_disabled": 0, "fusion_lat": 0.0}, {"fusion_lon": 0.0, "bike_id": "6d40cca50e4672eae951c60f54959353", "name": "6d40cca50e4672eae951c60f54959353", "type": "electric_scooter", "lon": -76.98374616666666, "rental_uris": {"android": "https://dc.lft.to/lastmile_qr_scan", "ios": "https://dc.lft.to/lastmile_qr_scan"}, "lat": 38.90647233333333, "is_reserved": 0, "is_disabled": 0, "fusion_lat": 0.0}, {"fusion_lon": 0.0, "bike_id": "4892dc7c528a84deaf27bcf45e88f4a3", "name": "4892dc7c528a84deaf27bcf45e88f4a3", "type": "electric_scooter", "lon": -77.02591933333333, "rental_uris": {"android": "https://dc.lft.to/lastmile_qr_scan", "ios": "https://dc.lft.to/lastmile_qr_scan"}, "lat": 38.9128275, "is_reserved": 0, "is_disabled": 0, "fusion_lat": 0.0}, {"fusion_lon": 0.0, "bike_id": "4d78658fe05c9f34d4b25fa001d55787", "name": "4d78658fe05c9f34d4b25fa001d55787", "type": "electric_scooter", "lon": -77.03496, "rental_uris": {"android": "https://dc.lft.to/lastmile_qr_scan", "ios": "https://dc.lft.to/lastmile_qr_scan"}, "lat": 38.9327365, "is_reserved": 0, "is_disabled": 0, "fusion_lat": 0.0}, {"fusion_lon": 0.0, "bike_id": "70f349635ffecfb3c3623dc112a7bd36", "name": "70f349635ffecfb3c3623dc112a7bd36", "type": "electric_bike", "lon": -77.1123885, "rental_uris": {"android": "https://dc.lft.to/lastmile_qr_scan", "ios": "https://dc.lft.to/lastmile_qr_scan"}, "lat": 38.812375, "is_reserved": 0, "is_disabled": 0, "fusion_lat": 0.0}, {"fusion_lon": 0.0, "bike_id": "ee07692e3e41e4c4ae9bbf9233605580", "name": "ee07692e3e41e4c4ae9bbf9233605580", "type": "electric_scooter", "lon": -77.02157066666666, "rental_uris": {"android": "https://dc.lft.to/lastmile_qr_scan", "ios": "https://dc.lft.to/lastmile_qr_scan"}, "lat": 38.92603866666666, "is_reserved": 0, "is_disabled": 0, "fusion_lat": 0.0}, {"fusion_lon": 0.0, "bike_id": "11249fc2076cc4567f865fc337954737", "name": "11249fc2076cc4567f865fc337954737", "type": "electric_scooter", "lon": -77.02795033333334, "rental_uris": {"android": "https://dc.lft.to/lastmile_qr_scan", "ios": "https://dc.lft.to/lastmile_qr_scan"}, "lat": 38.9308615, "is_reserved": 0, "is_disabled": 0, "fusion_lat": 0.0}, {"fusion_lon": 0.0, "bike_id": "09fda4bc074e5e8ab14bdc6f904fad45", "name": "09fda4bc074e5e8ab14bdc6f904fad45", "type": "electric_scooter", "lon": -77.00570783333333, "rental_uris": {"android": "https://dc.lft.to/lastmile_qr_scan", "ios": "https://dc.lft.to/lastmile_qr_scan"}, "lat": 38.876569333333336, "is_reserved": 0, "is_disabled": 0, "fusion_lat": 0.0}, {"fusion_lon": 0.0, "bike_id": "0c454905754514820cb6b2f58244a1d9", "name": "0c454905754514820cb6b2f58244a1d9", "type": "electric_scooter", "lon": -77.03207433333333, "rental_uris": {"android": "https://dc.lft.to/lastmile_qr_scan", "ios": "https://dc.lft.to/lastmile_qr_scan"}, "lat": 38.9078455, "is_reserved": 0, "is_disabled": 0, "fusion_lat": 0.0}, {"fusion_lon": 0.0, "bike_id": "7f37f2f27363d379fc5bce30e679bbcc", "name": "7f37f2f27363d379fc5bce30e679bbcc", "type": "electric_bike", "lon": -77.02627116666666, "rental_uris": {"android": "https://dc.lft.to/lastmile_qr_scan", "ios": "https://dc.lft.to/lastmile_qr_scan"}, "lat": 38.9622105, "is_reserved": 0, "is_disabled": 0, "fusion_lat": 0.0}, {"fusion_lon": 0.0, "bike_id": "fddfc28977838d4c36940b92154c27b4", "name": "fddfc28977838d4c36940b92154c27b4", "type": "electric_scooter", "lon": -76.94843133333333, "rental_uris": {"android": "https://dc.lft.to/lastmile_qr_scan", "ios": "https://dc.lft.to/lastmile_qr_scan"}, "lat": 38.89490116666666, "is_reserved": 0, "is_disabled": 0, "fusion_lat": 0.0}, {"fusion_lon": 0.0, "bike_id": "6a6f62a7afe15896c57a3df0c803fba0", "name": "6a6f62a7afe15896c57a3df0c803fba0", "type": "electric_scooter", "lon": -77.0370085, "rental_uris": {"android": "https://dc.lft.to/lastmile_qr_scan", "ios": "https://dc.lft.to/lastmile_qr_scan"}, "lat": 38.926457166666665, "is_reserved": 0, "is_disabled": 0, "fusion_lat": 0.0}, {"fusion_lon": 0.0, "bike_id": "5a657ea817e2ddd5f7bc9503171c7b59", "name": "5a657ea817e2ddd5f7bc9503171c7b59", "type": "electric_bike", "lon": -77.085252, "rental_uris": {"android": "https://dc.lft.to/lastmile_qr_scan", "ios": "https://dc.lft.to/lastmile_qr_scan"}, "lat": 38.8564815, "is_reserved": 0, "is_disabled": 0, "fusion_lat": 0.0}, {"fusion_lon": 0.0, "bike_id": "d5a9f23dc3b233a760533ae5fa8fbce1", "name": "d5a9f23dc3b233a760533ae5fa8fbce1", "type": "electric_scooter", "lon": -77.01125416666666, "rental_uris": {"android": "https://dc.lft.to/lastmile_qr_scan", "ios": "https://dc.lft.to/lastmile_qr_scan"}, "lat": 38.9038595, "is_reserved": 0, "is_disabled": 0, "fusion_lat": 0.0}, {"fusion_lon": 0.0, "bike_id": "5f4d26317c25125a46457ac1c8c3a38a", "name": "5f4d26317c25125a46457ac1c8c3a38a", "type": "electric_scooter", "lon": -77.04831683333333, "rental_uris": {"android": "https://dc.lft.to/lastmile_qr_scan", "ios": "https://dc.lft.to/lastmile_qr_scan"}, "lat": 38.9133605, "is_reserved": 0, "is_disabled": 0, "fusion_lat": 0.0}, {"fusion_lon": 0.0, "bike_id": "4852b0b97ad54c3f5f5da25f8841fda8", "name": "4852b0b97ad54c3f5f5da25f8841fda8", "type": "electric_scooter", "lon": -77.0033545, "rental_uris": {"android": "https://dc.lft.to/lastmile_qr_scan", "ios": "https://dc.lft.to/lastmile_qr_scan"}, "lat": 38.8935905, "is_reserved": 0, "is_disabled": 0, "fusion_lat": 0.0}, {"fusion_lon": 0.0, "bike_id": "d3c021ad2a94d0815f4e0858fc702305", "name": "d3c021ad2a94d0815f4e0858fc702305", "type": "electric_scooter", "lon": -77.03447216666666, "rental_uris": {"android": "https://dc.lft.to/lastmile_qr_scan", "ios": "https://dc.lft.to/lastmile_qr_scan"}, "lat": 38.90319183333333, "is_reserved": 0, "is_disabled": 0, "fusion_lat": 0.0}, {"fusion_lon": 0.0, "bike_id": "ea27ea3c0e053db7cc6723f715e00ac8", "name": "ea27ea3c0e053db7cc6723f715e00ac8", "type": "electric_scooter", "lon": -76.94993783333334, "rental_uris": {"android": "https://dc.lft.to/lastmile_qr_scan", "ios": "https://dc.lft.to/lastmile_qr_scan"}, "lat": 38.8939195, "is_reserved": 0, "is_disabled": 0, "fusion_lat": 0.0}, {"fusion_lon": 0.0, "bike_id": "bfa6808c9c683ebfd8574d5a8d2da70f", "name": "bfa6808c9c683ebfd8574d5a8d2da70f", "type": "electric_scooter", "lon": -76.989136, "rental_uris": {"android": "https://dc.lft.to/lastmile_qr_scan", "ios": "https://dc.lft.to/lastmile_qr_scan"}, "lat": 38.902344666666664, "is_reserved": 0, "is_disabled": 0, "fusion_lat": 0.0}, {"fusion_lon": 0.0, "bike_id": "3e9c68390e9493cd00e4b1884fd078d9", "name": "3e9c68390e9493cd00e4b1884fd078d9", "type": "electric_scooter", "lon": -77.03268583333333, "rental_uris": {"android": "https://dc.lft.to/lastmile_qr_scan", "ios": "https://dc.lft.to/lastmile_qr_scan"}, "lat": 38.93748083333333, "is_reserved": 0, "is_disabled": 0, "fusion_lat": 0.0}, {"fusion_lon": 0.0, "bike_id": "dc373c256b534f690952ae8d9c7b46de", "name": "dc373c256b534f690952ae8d9c7b46de", "type": "electric_scooter", "lon": -77.0245385, "rental_uris": {"android": "https://dc.lft.to/lastmile_qr_scan", "ios": "https://dc.lft.to/lastmile_qr_scan"}, "lat": 38.928971, "is_reserved": 0, "is_disabled": 0, "fusion_lat": 0.0}, {"fusion_lon": 0.0, "bike_id": "ff9d34fa5579d915a7a4f8be302cf634", "name": "ff9d34fa5579d915a7a4f8be302cf634", "type": "electric_bike", "lon": -76.98382933333333, "rental_uris": {"android": "https://dc.lft.to/lastmile_qr_scan", "ios": "https://dc.lft.to/lastmile_qr_scan"}, "lat": 38.91481383333333, "is_reserved": 0, "is_disabled": 0, "fusion_lat": 0.0}, {"fusion_lon": 0.0, "bike_id": "0bf92d174fd514f72e7b5631944c058c", "name": "0bf92d174fd514f72e7b5631944c058c", "type": "electric_scooter", "lon": -77.03638616666667, "rental_uris": {"android": "https://dc.lft.to/lastmile_qr_scan", "ios": "https://dc.lft.to/lastmile_qr_scan"}, "lat": 38.9176275, "is_reserved": 0, "is_disabled": 0, "fusion_lat": 0.0}, {"fusion_lon": 0.0, "bike_id": "871819fe8aa8cc876f9efd6532cf9991", "name": "871819fe8aa8cc876f9efd6532cf9991", "type": "electric_scooter", "lon": -77.0419355, "rental_uris": {"android": "https://dc.lft.to/lastmile_qr_scan", "ios": "https://dc.lft.to/lastmile_qr_scan"}, "lat": 38.92340183333334, "is_reserved": 0, "is_disabled": 0, "fusion_lat": 0.0}, {"fusion_lon": 0.0, "bike_id": "8b9562dd12040453282ab39609c0d974", "name": "8b9562dd12040453282ab39609c0d974", "type": "electric_scooter", "lon": -77.03184016666667, "rental_uris": {"android": "https://dc.lft.to/lastmile_qr_scan", "ios": "https://dc.lft.to/lastmile_qr_scan"}, "lat": 38.905179333333336, "is_reserved": 0, "is_disabled": 0, "fusion_lat": 0.0}, {"fusion_lon": 0.0, "bike_id": "797d2661b9b458af4d67dfd01efce31d", "name": "797d2661b9b458af4d67dfd01efce31d", "type": "electric_scooter", "lon": -77.0118985, "rental_uris": {"android": "https://dc.lft.to/lastmile_qr_scan", "ios": "https://dc.lft.to/lastmile_qr_scan"}, "lat": 38.88768983333333, "is_reserved": 0, "is_disabled": 0, "fusion_lat": 0.0}, {"fusion_lon": 0.0, "bike_id": "e7e868582b16e6b2ac9e8816812cccbf", "name": "e7e868582b16e6b2ac9e8816812cccbf", "type": "electric_scooter", "lon": -77.00248666666667, "rental_uris": {"android": "https://dc.lft.to/lastmile_qr_scan", "ios": "https://dc.lft.to/lastmile_qr_scan"}, "lat": 38.88992566666667, "is_reserved": 0, "is_disabled": 0, "fusion_lat": 0.0}, {"fusion_lon": 0.0, "bike_id": "68fdcd92ae95d4a716649359587c3ed3", "name": "68fdcd92ae95d4a716649359587c3ed3", "type": "electric_scooter", "lon": -77.02950933333334, "rental_uris": {"android": "https://dc.lft.to/lastmile_qr_scan", "ios": "https://dc.lft.to/lastmile_qr_scan"}, "lat": 38.90494783333333, "is_reserved": 0, "is_disabled": 0, "fusion_lat": 0.0}, {"fusion_lon": 0.0, "bike_id": "a0a45a1936c27b1948414b70c3f2eb86", "name": "a0a45a1936c27b1948414b70c3f2eb86", "type": "electric_scooter", "lon": -76.948398, "rental_uris": {"android": "https://dc.lft.to/lastmile_qr_scan", "ios": "https://dc.lft.to/lastmile_qr_scan"}, "lat": 38.89490383333333, "is_reserved": 0, "is_disabled": 0, "fusion_lat": 0.0}, {"fusion_lon": 0.0, "bike_id": "cdc746c54ff8ef86e35e623f0b14ecd8", "name": "cdc746c54ff8ef86e35e623f0b14ecd8", "type": "electric_scooter", "lon": -77.02949583333333, "rental_uris": {"android": "https://dc.lft.to/lastmile_qr_scan", "ios": "https://dc.lft.to/lastmile_qr_scan"}, "lat": 38.898314166666665, "is_reserved": 0, "is_disabled": 0, "fusion_lat": 0.0}, {"fusion_lon": 0.0, "bike_id": "f5caf09aa743400a87b8f30c32dc0973", "name": "f5caf09aa743400a87b8f30c32dc0973", "type": "electric_scooter", "lon": -77.03148333333333, "rental_uris": {"android": "https://dc.lft.to/lastmile_qr_scan", "ios": "https://dc.lft.to/lastmile_qr_scan"}, "lat": 38.887493166666665, "is_reserved": 0, "is_disabled": 0, "fusion_lat": 0.0}, {"fusion_lon": 0.0, "bike_id": "1f76310654c646b3128c094a5e95ab75", "name": "1f76310654c646b3128c094a5e95ab75", "type": "electric_scooter", "lon": -77.041805, "rental_uris": {"android": "https://dc.lft.to/lastmile_qr_scan", "ios": "https://dc.lft.to/lastmile_qr_scan"}, "lat": 38.905321666666666, "is_reserved": 0, "is_disabled": 0, "fusion_lat": 0.0}, {"fusion_lon": 0.0, "bike_id": "af4858eebfd1b303109f4c688e745574", "name": "af4858eebfd1b303109f4c688e745574", "type": "electric_scooter", "lon": -77.0551465, "rental_uris": {"android": "https://dc.lft.to/lastmile_qr_scan", "ios": "https://dc.lft.to/lastmile_qr_scan"}, "lat": 38.9441385, "is_reserved": 0, "is_disabled": 0, "fusion_lat": 0.0}, {"fusion_lon": 0.0, "bike_id": "ebbd8db8ab50d50719b8f210618048d5", "name": "ebbd8db8ab50d50719b8f210618048d5", "type": "electric_scooter", "lon": -77.0447835, "rental_uris": {"android": "https://dc.lft.to/lastmile_qr_scan", "ios": "https://dc.lft.to/lastmile_qr_scan"}, "lat": 38.91083666666667, "is_reserved": 0, "is_disabled": 0, "fusion_lat": 0.0}, {"fusion_lon": 0.0, "bike_id": "c0c362c947ef8244fe2fa529f643242e", "name": "c0c362c947ef8244fe2fa529f643242e", "type": "electric_scooter", "lon": -77.02217816666666, "rental_uris": {"android": "https://dc.lft.to/lastmile_qr_scan", "ios": "https://dc.lft.to/lastmile_qr_scan"}, "lat": 38.9009655, "is_reserved": 0, "is_disabled": 0, "fusion_lat": 0.0}, {"fusion_lon": 0.0, "bike_id": "1b64412f9f8eccbbb4eb86a27a18d834", "name": "1b64412f9f8eccbbb4eb86a27a18d834", "type": "electric_scooter", "lon": -77.01773266666666, "rental_uris": {"android": "https://dc.lft.to/lastmile_qr_scan", "ios": "https://dc.lft.to/lastmile_qr_scan"}, "lat": 38.883893666666665, "is_reserved": 0, "is_disabled": 0, "fusion_lat": 0.0}, {"fusion_lon": 0.0, "bike_id": "974db8e868ba47fa5d6bc138a7d3d123", "name": "974db8e868ba47fa5d6bc138a7d3d123", "type": "electric_scooter", "lon": -77.0033345, "rental_uris": {"android": "https://dc.lft.to/lastmile_qr_scan", "ios": "https://dc.lft.to/lastmile_qr_scan"}, "lat": 38.8921415, "is_reserved": 0, "is_disabled": 0, "fusion_lat": 0.0}, {"fusion_lon": 0.0, "bike_id": "78338767bb008232567437ef2a9bb281", "name": "78338767bb008232567437ef2a9bb281", "type": "electric_scooter", "lon": -77.01683133333333, "rental_uris": {"android": "https://dc.lft.to/lastmile_qr_scan", "ios": "https://dc.lft.to/lastmile_qr_scan"}, "lat": 38.883275, "is_reserved": 0, "is_disabled": 0, "fusion_lat": 0.0}, {"fusion_lon": 0.0, "bike_id": "ce50deb1e13cd8b885aa7d7cf25ef220", "name": "ce50deb1e13cd8b885aa7d7cf25ef220", "type": "electric_scooter", "lon": -77.050338, "rental_uris": {"android": "https://dc.lft.to/lastmile_qr_scan", "ios": "https://dc.lft.to/lastmile_qr_scan"}, "lat": 38.898253, "is_reserved": 0, "is_disabled": 0, "fusion_lat": 0.0}, {"fusion_lon": 0.0, "bike_id": "3c29595af4c9f20a0d246cfc67b07799", "name": "3c29595af4c9f20a0d246cfc67b07799", "type": "electric_scooter", "lon": -77.07079733333333, "rental_uris": {"android": "https://dc.lft.to/lastmile_qr_scan", "ios": "https://dc.lft.to/lastmile_qr_scan"}, "lat": 38.939077166666664, "is_reserved": 0, "is_disabled": 0, "fusion_lat": 0.0}, {"fusion_lon": 0.0, "bike_id": "eaf266ccc4c2b7e47c13421f495db89f", "name": "eaf266ccc4c2b7e47c13421f495db89f", "type": "electric_scooter", "lon": -76.9951285, "rental_uris": {"android": "https://dc.lft.to/lastmile_qr_scan", "ios": "https://dc.lft.to/lastmile_qr_scan"}, "lat": 38.885889666666664, "is_reserved": 0, "is_disabled": 0, "fusion_lat": 0.0}, {"fusion_lon": 0.0, "bike_id": "ff2c74d05ff29c6cc5af89c40bb4cf88", "name": "ff2c74d05ff29c6cc5af89c40bb4cf88", "type": "electric_bike", "lon": -77.0695235, "rental_uris": {"android": "https://dc.lft.to/lastmile_qr_scan", "ios": "https://dc.lft.to/lastmile_qr_scan"}, "lat": 38.99043533333333, "is_reserved": 0, "is_disabled": 0, "fusion_lat": 0.0}, {"fusion_lon": 0.0, "bike_id": "313847aca1ea1bf5e9b18cadd7d66128", "name": "313847aca1ea1bf5e9b18cadd7d66128", "type": "electric_scooter", "lon": -77.045076, "rental_uris": {"android": "https://dc.lft.to/lastmile_qr_scan", "ios": "https://dc.lft.to/lastmile_qr_scan"}, "lat": 38.90374633333333, "is_reserved": 0, "is_disabled": 0, "fusion_lat": 0.0}, {"fusion_lon": 0.0, "bike_id": "8e9b13db9a376cddc062854391af28ea", "name": "8e9b13db9a376cddc062854391af28ea", "type": "electric_scooter", "lon": -77.0384465, "rental_uris": {"android": "https://dc.lft.to/lastmile_qr_scan", "ios": "https://dc.lft.to/lastmile_qr_scan"}, "lat": 38.903291333333335, "is_reserved": 0, "is_disabled": 0, "fusion_lat": 0.0}, {"fusion_lon": 0.0, "bike_id": "99b19c44a92d35a92cc3be32ba9228b9", "name": "99b19c44a92d35a92cc3be32ba9228b9", "type": "electric_scooter", "lon": -77.00820066666667, "rental_uris": {"android": "https://dc.lft.to/lastmile_qr_scan", "ios": "https://dc.lft.to/lastmile_qr_scan"}, "lat": 38.876439833333336, "is_reserved": 0, "is_disabled": 0, "fusion_lat": 0.0}, {"fusion_lon": 0.0, "bike_id": "2ad4f2238d46845453c5ceef139000a4", "name": "2ad4f2238d46845453c5ceef139000a4", "type": "electric_scooter", "lon": -76.9961025, "rental_uris": {"android": "https://dc.lft.to/lastmile_qr_scan", "ios": "https://dc.lft.to/lastmile_qr_scan"}, "lat": 38.8646515, "is_reserved": 0, "is_disabled": 0, "fusion_lat": 0.0}, {"fusion_lon": 0.0, "bike_id": "791d77aba19257eba8a8d106dc5083aa", "name": "791d77aba19257eba8a8d106dc5083aa", "type": "electric_scooter", "lon": -77.01393183333333, "rental_uris": {"android": "https://dc.lft.to/lastmile_qr_scan", "ios": "https://dc.lft.to/lastmile_qr_scan"}, "lat": 38.88031433333333, "is_reserved": 0, "is_disabled": 0, "fusion_lat": 0.0}, {"fusion_lon": 0.0, "bike_id": "5771c8c0f42b704b34456d380090d04a", "name": "5771c8c0f42b704b34456d380090d04a", "type": "electric_scooter", "lon": -77.02735566666667, "rental_uris": {"android": "https://dc.lft.to/lastmile_qr_scan", "ios": "https://dc.lft.to/lastmile_qr_scan"}, "lat": 38.9034175, "is_reserved": 0, "is_disabled": 0, "fusion_lat": 0.0}, {"fusion_lon": 0.0, "bike_id": "157874200d1b58019d2f960122d8dca4", "name": "157874200d1b58019d2f960122d8dca4", "type": "electric_scooter", "lon": -77.02050633333333, "rental_uris": {"android": "https://dc.lft.to/lastmile_qr_scan", "ios": "https://dc.lft.to/lastmile_qr_scan"}, "lat": 38.941236833333335, "is_reserved": 0, "is_disabled": 0, "fusion_lat": 0.0}, {"fusion_lon": 0.0, "bike_id": "16ad41220917f1b227650a8d0034da9a", "name": "16ad41220917f1b227650a8d0034da9a", "type": "electric_scooter", "lon": -77.025664, "rental_uris": {"android": "https://dc.lft.to/lastmile_qr_scan", "ios": "https://dc.lft.to/lastmile_qr_scan"}, "lat": 38.91418933333333, "is_reserved": 0, "is_disabled": 0, "fusion_lat": 0.0}, {"fusion_lon": 0.0, "bike_id": "ec4b0f908d5273dcc1f7766eb202ee73", "name": "ec4b0f908d5273dcc1f7766eb202ee73", "type": "electric_scooter", "lon": -76.9742335, "rental_uris": {"android": "https://dc.lft.to/lastmile_qr_scan", "ios": "https://dc.lft.to/lastmile_qr_scan"}, "lat": 38.86402183333333, "is_reserved": 0, "is_disabled": 0, "fusion_lat": 0.0}, {"fusion_lon": 0.0, "bike_id": "e4a8930d8d389e4b6b9c0be3d9dfcc2f", "name": "e4a8930d8d389e4b6b9c0be3d9dfcc2f", "type": "electric_bike", "lon": -77.100231, "rental_uris": {"android": "https://dc.lft.to/lastmile_qr_scan", "ios": "https://dc.lft.to/lastmile_qr_scan"}, "lat": 38.9906265, "is_reserved": 0, "is_disabled": 0, "fusion_lat": 0.0}, {"fusion_lon": 0.0, "bike_id": "72ce2fbf221dc925d8c34e253553b1fb", "name": "72ce2fbf221dc925d8c34e253553b1fb", "type": "electric_scooter", "lon": -77.03179816666666, "rental_uris": {"android": "https://dc.lft.to/lastmile_qr_scan", "ios": "https://dc.lft.to/lastmile_qr_scan"}, "lat": 38.929229666666664, "is_reserved": 0, "is_disabled": 0, "fusion_lat": 0.0}, {"fusion_lon": 0.0, "bike_id": "a9c93d108098a3a2b6deaafc80fdfdc1", "name": "a9c93d108098a3a2b6deaafc80fdfdc1", "type": "electric_scooter", "lon": -77.03517166666667, "rental_uris": {"android": "https://dc.lft.to/lastmile_qr_scan", "ios": "https://dc.lft.to/lastmile_qr_scan"}, "lat": 38.93605483333333, "is_reserved": 0, "is_disabled": 0, "fusion_lat": 0.0}, {"fusion_lon": 0.0, "bike_id": "00e52e2d2f53dc596a9260545cf1ec0d", "name": "00e52e2d2f53dc596a9260545cf1ec0d", "type": "electric_scooter", "lon": -77.04404933333333, "rental_uris": {"android": "https://dc.lft.to/lastmile_qr_scan", "ios": "https://dc.lft.to/lastmile_qr_scan"}, "lat": 38.92951683333333, "is_reserved": 0, "is_disabled": 0, "fusion_lat": 0.0}, {"fusion_lon": 0.0, "bike_id": "c83bb59d316411874a11d01ff2ed283b", "name": "c83bb59d316411874a11d01ff2ed283b", "type": "electric_scooter", "lon": -77.043532, "rental_uris": {"android": "https://dc.lft.to/lastmile_qr_scan", "ios": "https://dc.lft.to/lastmile_qr_scan"}, "lat": 38.910932, "is_reserved": 0, "is_disabled": 0, "fusion_lat": 0.0}, {"fusion_lon": 0.0, "bike_id": "4e2eb1f01da85e679918a428d2683b8b", "name": "4e2eb1f01da85e679918a428d2683b8b", "type": "electric_scooter", "lon": -77.03857566666667, "rental_uris": {"android": "https://dc.lft.to/lastmile_qr_scan", "ios": "https://dc.lft.to/lastmile_qr_scan"}, "lat": 38.90786966666667, "is_reserved": 0, "is_disabled": 0, "fusion_lat": 0.0}, {"fusion_lon": 0.0, "bike_id": "ba5dd557d0025e103dee5fa949e93dd3", "name": "ba5dd557d0025e103dee5fa949e93dd3", "type": "electric_bike", "lon": -77.0130045, "rental_uris": {"android": "https://dc.lft.to/lastmile_qr_scan", "ios": "https://dc.lft.to/lastmile_qr_scan"}, "lat": 38.881375166666665, "is_reserved": 0, "is_disabled": 0, "fusion_lat": 0.0}, {"fusion_lon": 0.0, "bike_id": "b16ce13095d9decf6b77075b0ec03d07", "name": "b16ce13095d9decf6b77075b0ec03d07", "type": "electric_scooter", "lon": -76.99480766666667, "rental_uris": {"android": "https://dc.lft.to/lastmile_qr_scan", "ios": "https://dc.lft.to/lastmile_qr_scan"}, "lat": 38.86219083333334, "is_reserved": 0, "is_disabled": 0, "fusion_lat": 0.0}, {"fusion_lon": 0.0, "bike_id": "d3c39ffd065d07f3576dc2b322b5d532", "name": "d3c39ffd065d07f3576dc2b322b5d532", "type": "electric_scooter", "lon": -77.00856666666667, "rental_uris": {"android": "https://dc.lft.to/lastmile_qr_scan", "ios": "https://dc.lft.to/lastmile_qr_scan"}, "lat": 38.906534666666666, "is_reserved": 0, "is_disabled": 0, "fusion_lat": 0.0}, {"fusion_lon": 0.0, "bike_id": "274891bf42be5d6b697b17ef77de0b61", "name": "274891bf42be5d6b697b17ef77de0b61", "type": "electric_bike", "lon": -76.97331283333334, "rental_uris": {"android": "https://dc.lft.to/lastmile_qr_scan", "ios": "https://dc.lft.to/lastmile_qr_scan"}, "lat": 38.85069333333333, "is_reserved": 0, "is_disabled": 0, "fusion_lat": 0.0}, {"fusion_lon": 0.0, "bike_id": "e7f0639e72200ea0a7b9f1216610bbdb", "name": "e7f0639e72200ea0a7b9f1216610bbdb", "type": "electric_scooter", "lon": -77.04044916666666, "rental_uris": {"android": "https://dc.lft.to/lastmile_qr_scan", "ios": "https://dc.lft.to/lastmile_qr_scan"}, "lat": 38.898978166666666, "is_reserved": 0, "is_disabled": 0, "fusion_lat": 0.0}, {"fusion_lon": 0.0, "bike_id": "97499cbc85fb99f41e70058b17231f82", "name": "97499cbc85fb99f41e70058b17231f82", "type": "electric_scooter", "lon": -77.02481666666667, "rental_uris": {"android": "https://dc.lft.to/lastmile_qr_scan", "ios": "https://dc.lft.to/lastmile_qr_scan"}, "lat": 38.916191833333336, "is_reserved": 0, "is_disabled": 0, "fusion_lat": 0.0}, {"fusion_lon": 0.0, "bike_id": "bb68db23f6f5c53c0f6aa3751d3d8a9e", "name": "bb68db23f6f5c53c0f6aa3751d3d8a9e", "type": "electric_scooter", "lon": -77.03640833333333, "rental_uris": {"android": "https://dc.lft.to/lastmile_qr_scan", "ios": "https://dc.lft.to/lastmile_qr_scan"}, "lat": 38.903854833333334, "is_reserved": 0, "is_disabled": 0, "fusion_lat": 0.0}, {"fusion_lon": 0.0, "bike_id": "820636f321b4d25b0eaeec38a64810ad", "name": "820636f321b4d25b0eaeec38a64810ad", "type": "electric_scooter", "lon": -77.039781, "rental_uris": {"android": "https://dc.lft.to/lastmile_qr_scan", "ios": "https://dc.lft.to/lastmile_qr_scan"}, "lat": 38.90643933333333, "is_reserved": 0, "is_disabled": 0, "fusion_lat": 0.0}, {"fusion_lon": 0.0, "bike_id": "836831e1bde76922a4be601d71490185", "name": "836831e1bde76922a4be601d71490185", "type": "electric_scooter", "lon": -77.02633883333333, "rental_uris": {"android": "https://dc.lft.to/lastmile_qr_scan", "ios": "https://dc.lft.to/lastmile_qr_scan"}, "lat": 38.93280016666667, "is_reserved": 0, "is_disabled": 0, "fusion_lat": 0.0}, {"fusion_lon": 0.0, "bike_id": "85db64739f7d03ab5cb7875d4de8a364", "name": "85db64739f7d03ab5cb7875d4de8a364", "type": "electric_scooter", "lon": -77.07994983333333, "rental_uris": {"android": "https://dc.lft.to/lastmile_qr_scan", "ios": "https://dc.lft.to/lastmile_qr_scan"}, "lat": 38.923755166666666, "is_reserved": 0, "is_disabled": 0, "fusion_lat": 0.0}, {"fusion_lon": 0.0, "bike_id": "8709f40d75c2c4d6a61ecf310cfa16a3", "name": "8709f40d75c2c4d6a61ecf310cfa16a3", "type": "electric_scooter", "lon": -77.05095383333334, "rental_uris": {"android": "https://dc.lft.to/lastmile_qr_scan", "ios": "https://dc.lft.to/lastmile_qr_scan"}, "lat": 38.9234165, "is_reserved": 0, "is_disabled": 0, "fusion_lat": 0.0}, {"fusion_lon": 0.0, "bike_id": "ee95356858d9a20610358d5b09f27720", "name": "ee95356858d9a20610358d5b09f27720", "type": "electric_scooter", "lon": -77.03332533333334, "rental_uris": {"android": "https://dc.lft.to/lastmile_qr_scan", "ios": "https://dc.lft.to/lastmile_qr_scan"}, "lat": 38.91918233333333, "is_reserved": 0, "is_disabled": 0, "fusion_lat": 0.0}, {"fusion_lon": 0.0, "bike_id": "58bbe8f205078a661aa6c9dd6d1ac2a6", "name": "58bbe8f205078a661aa6c9dd6d1ac2a6", "type": "electric_scooter", "lon": -77.04658, "rental_uris": {"android": "https://dc.lft.to/lastmile_qr_scan", "ios": "https://dc.lft.to/lastmile_qr_scan"}, "lat": 38.9038565, "is_reserved": 0, "is_disabled": 0, "fusion_lat": 0.0}, {"fusion_lon": 0.0, "bike_id": "e6bd2fb1b88d83e5a88d9e6631c2aba6", "name": "e6bd2fb1b88d83e5a88d9e6631c2aba6", "type": "electric_scooter", "lon": -77.0244375, "rental_uris": {"android": "https://dc.lft.to/lastmile_qr_scan", "ios": "https://dc.lft.to/lastmile_qr_scan"}, "lat": 38.92366666666667, "is_reserved": 0, "is_disabled": 0, "fusion_lat": 0.0}, {"fusion_lon": 0.0, "bike_id": "dc2622567a01c56968a9294d305f2ac9", "name": "dc2622567a01c56968a9294d305f2ac9", "type": "electric_scooter", "lon": -77.04658283333333, "rental_uris": {"android": "https://dc.lft.to/lastmile_qr_scan", "ios": "https://dc.lft.to/lastmile_qr_scan"}, "lat": 38.905258833333335, "is_reserved": 0, "is_disabled": 0, "fusion_lat": 0.0}, {"fusion_lon": 0.0, "bike_id": "214b47d7007b0768457fc1447f93993f", "name": "214b47d7007b0768457fc1447f93993f", "type": "electric_scooter", "lon": -77.05795716666667, "rental_uris": {"android": "https://dc.lft.to/lastmile_qr_scan", "ios": "https://dc.lft.to/lastmile_qr_scan"}, "lat": 38.903036666666665, "is_reserved": 0, "is_disabled": 0, "fusion_lat": 0.0}, {"fusion_lon": 0.0, "bike_id": "b51dc3639984f550a32b96d8d7c59768", "name": "b51dc3639984f550a32b96d8d7c59768", "type": "electric_scooter", "lon": -77.04045833333333, "rental_uris": {"android": "https://dc.lft.to/lastmile_qr_scan", "ios": "https://dc.lft.to/lastmile_qr_scan"}, "lat": 38.904954000000004, "is_reserved": 0, "is_disabled": 0, "fusion_lat": 0.0}, {"fusion_lon": 0.0, "bike_id": "5a45d8c5e4d405b98f15d8b3e5d50f42", "name": "5a45d8c5e4d405b98f15d8b3e5d50f42", "type": "electric_scooter", "lon": -77.044941, "rental_uris": {"android": "https://dc.lft.to/lastmile_qr_scan", "ios": "https://dc.lft.to/lastmile_qr_scan"}, "lat": 38.9057785, "is_reserved": 0, "is_disabled": 0, "fusion_lat": 0.0}, {"fusion_lon": 0.0, "bike_id": "6b60243526ba5971aeb364e10890fdbe", "name": "6b60243526ba5971aeb364e10890fdbe", "type": "electric_scooter", "lon": -77.02176066666667, "rental_uris": {"android": "https://dc.lft.to/lastmile_qr_scan", "ios": "https://dc.lft.to/lastmile_qr_scan"}, "lat": 38.943121833333336, "is_reserved": 0, "is_disabled": 0, "fusion_lat": 0.0}, {"fusion_lon": 0.0, "bike_id": "283afe263e64adf9a2b93fb643506292", "name": "283afe263e64adf9a2b93fb643506292", "type": "electric_scooter", "lon": -77.07250883333333, "rental_uris": {"android": "https://dc.lft.to/lastmile_qr_scan", "ios": "https://dc.lft.to/lastmile_qr_scan"}, "lat": 38.90785833333333, "is_reserved": 0, "is_disabled": 0, "fusion_lat": 0.0},