{"data": {"bikes": [{"fusion_lon": 0.0, "bike_id": "33e14db309f2d44b90957ee5898b0977", "name": "33e14db309f2d44b90957ee5898b0977", "rental_uris": {"android": "https://dc.lft.to/lastmile_qr_scan", "ios": "https://dc.lft.to/lastmile_qr_scan"}, "lon": -77.04371666666667, "fusion_lat": 0.0, "is_disabled": 0, "is_reserved": 0, "lat": 38.90236216666667, "type": "electric_scooter"}, {"fusion_lon": 0.0, "bike_id": "968caa2ec606239e11a276f9aaf3f596", "name": "968caa2ec606239e11a276f9aaf3f596", "rental_uris": {"android": "https://dc.lft.to/lastmile_qr_scan", "ios": "https://dc.lft.to/lastmile_qr_scan"}, "lon": -77.03519166666666, "fusion_lat": 0.0, "is_disabled": 0, "is_reserved": 0, "lat": 38.9264505, "type": "electric_scooter"}, {"fusion_lon": 0.0, "bike_id": "9eefb7acc7878e6fd9503f270b84c65c", "name": "9eefb7acc7878e6fd9503f270b84c65c", "rental_uris": {"android": "https://dc.lft.to/lastmile_qr_scan", "ios": "https://dc.lft.to/lastmile_qr_scan"}, "lon": -77.028263, "fusion_lat": 0.0, "is_disabled": 0, "is_reserved": 0, "lat": 38.9239045, "type": "electric_scooter"}, {"fusion_lon": 0.0, "bike_id": "e3851fa72cda4248eaaf2d2d189034e4", "name": "e3851fa72cda4248eaaf2d2d189034e4", "rental_uris": {"android": "https://dc.lft.to/lastmile_qr_scan", "ios": "https://dc.lft.to/lastmile_qr_scan"}, "lon": -77.0218395, "fusion_lat": 0.0, "is_disabled": 0, "is_reserved": 0, "lat": 38.914916833333336, "type": "electric_scooter"}, {"fusion_lon": 0.0, "bike_id": "f69ae44ac5da73da143faf2589410fd7", "name": "f69ae44ac5da73da143faf2589410fd7", "rental_uris": {"android": "https://dc.lft.to/lastmile_qr_scan", "ios": "https://dc.lft.to/lastmile_qr_scan"}, "lon": -77.00546983333334, "fusion_lat": 0.0, "is_disabled": 0, "is_reserved": 0, "lat": 38.911854, "type": "electric_scooter"}, {"fusion_lon": 0.0, "bike_id": "74ec9223cb9f8a616ffb9b0cca250f24", "name": "74ec9223cb9f8a616ffb9b0cca250f24", "rental_uris": {"android": "https://dc.lft.to/lastmile_qr_scan", "ios": "https://dc.lft.to/lastmile_qr_scan"}, "lon": -77.03561733333333, "fusion_lat": 0.0, "is_disabled": 0, "is_reserved": 0, "lat": 38.96472716666667, "type": "electric_bike"}, {"fusion_lon": 0.0, "bike_id": "0d144c38f5e5a0b91f40eeaffca0f991", "name": "0d144c38f5e5a0b91f40eeaffca0f991", "rental_uris": {"android": "https://dc.lft.to/lastmile_qr_scan", "ios": "https://dc.lft.to/lastmile_qr_scan"}, "lon": -77.02399316666667, "fusion_lat": 0.0, "is_disabled": 0, "is_reserved": 0, "lat": 38.937091, "type": "electric_scooter"}, {"fusion_lon": 0.0, "bike_id": "f28a3a0a36f81fbfe9cd78cc4818eda4", "name": "f28a3a0a36f81fbfe9cd78cc4818eda4", "rental_uris": {"android": "https://dc.lft.to/lastmile_qr_scan", "ios": "https://dc.lft.to/lastmile_qr_scan"}, "lon": -77.0343525, "fusion_lat": 0.0, "is_disabled": 0, "is_reserved": 0, "lat": 38.920576833333335, "type": "electric_scooter"}, {"fusion_lon": 0.0, "bike_id": "912fe6d36cb72987199612f69b5cf9d2", "name": "912fe6d36cb72987199612f69b5cf9d2", "rental_uris": {"android": "https://dc.lft.to/lastmile_qr_scan", "ios": "https://dc.lft.to/lastmile_qr_scan"}, "lon": -77.04347883333334, "fusion_lat": 0.0, "is_disabled": 0, "is_reserved": 0, "lat": 38.907455, "type": "electric_scooter"}, {"fusion_lon": 0.0, "bike_id": "79c0384a94c494b77862099f931c95bc", "name": "79c0384a94c494b77862099f931c95bc", "rental_uris": {"android": "https://dc.lft.to/lastmile_qr_scan", "ios": "https://dc.lft.to/lastmile_qr_scan"}, "lon": -76.99066366666666, "fusion_lat": 0.0, "is_disabled": 0, "is_reserved": 0, "lat": 38.89821383333334, "type": "electric_bike"}, {"fusion_lon": 0.0, "bike_id": "cad1bf19cee47e2915506c161887f1e7", "name": "cad1bf19cee47e2915506c161887f1e7", "rental_uris": {"android": "https://dc.lft.to/lastmile_qr_scan", "ios": "https://dc.lft.to/lastmile_qr_scan"}, "lon": -77.03327783333333, "fusion_lat": 0.0, "is_disabled": 0, "is_reserved": 0, "lat": 38.887790833333334, "type": "electric_scooter"}, {"fusion_lon": 0.0, "bike_id": "624211d310449f90d0a31f27f8937d9e", "name": "624211d310449f90d0a31f27f8937d9e", "rental_uris": {"android": "https://dc.lft.to/lastmile_qr_scan", "ios": "https://dc.lft.to/lastmile_qr_scan"}, "lon": -76.98890666666667, "fusion_lat": 0.0, "is_disabled": 0, "is_reserved": 0, "lat": 38.861178, "type": "electric_scooter"}, {"fusion_lon": 0.0, "bike_id": "398d63584ecf34f060d321b0fd8c41a9", "name": "398d63584ecf34f060d321b0fd8c41a9", "rental_uris": {"android": "https://dc.lft.to/lastmile_qr_scan", "ios": "https://dc.lft.to/lastmile_qr_scan"}, "lon": -77.00453333333333, "fusion_lat": 0.0, "is_disabled": 0, "is_reserved": 0, "lat": 38.83796983333333, "type": "electric_scooter"}, {"fusion_lon": 0.0, "bike_id": "8365ea971e477732e1aac8953fdabba6", "name": "8365ea971e477732e1aac8953fdabba6", "rental_uris": {"android": "https://dc.lft.to/lastmile_qr_scan", "ios": "https://dc.lft.to/lastmile_qr_scan"}, "lon": -77.04208383333334, "fusion_lat": 0.0, "is_disabled": 0, "is_reserved": 0, "lat": 38.921154333333334, "type": "electric_scooter"}, {"fusion_lon": 0.0, "bike_id": "11cf0fb1220c0f7ce87b38ae3d5e2c84", "name": "11cf0fb1220c0f7ce87b38ae3d5e2c84", "rental_uris": {"android": "https://dc.lft.to/lastmile_qr_scan", "ios": "https://dc.lft.to/lastmile_qr_scan"}, "lon": -77.027492, "fusion_lat": 0.0, "is_disabled": 0, "is_reserved": 0, "lat": 38.96612, "type": "electric_scooter"}, {"fusion_lon": 0.0, "bike_id": "d2f332aa850460774d5d6a2451de8479", "name": "d2f332aa850460774d5d6a2451de8479", "rental_uris": {"android": "https://dc.lft.to/lastmile_qr_scan", "ios": "https://dc.lft.to/lastmile_qr_scan"}, "lon": -77.04248533333333, "fusion_lat": 0.0, "is_disabled": 0, "is_reserved": 0, "lat": 38.9075525, "type": "electric_scooter"}, {"fusion_lon": 0.0, "bike_id": "615abfa8295b1662a98a2634fbdb5156", "name": "615abfa8295b1662a98a2634fbdb5156", "rental_uris": {"android": "https://dc.lft.to/lastmile_qr_scan", "ios": "https://dc.lft.to/lastmile_qr_scan"}, "lon": -77.05032733333333, "fusion_lat": 0.0, "is_disabled": 0, "is_reserved": 0, "lat": 38.896269, "type": "electric_scooter"}, {"fusion_lon": 0.0, "bike_id": "174aa9c933987218a7589b7848feab50", "name": "174aa9c933987218a7589b7848feab50", "rental_uris": {"android": "https://dc.lft.to/lastmile_qr_scan", "ios": "https://dc.lft.to/lastmile_qr_scan"}, "lon": -77.04741983333334, "fusion_lat": 0.0, "is_disabled": 0, "is_reserved": 0, "lat": 39.00030783333333, "type": "electric_bike"}, {"fusion_lon": 0.0, "bike_id": "8b08bb1d8ef1a3a566d8978d99757fe3", "name": "8b08bb1d8ef1a3a566d8978d99757fe3", "rental_uris": {"android": "https://dc.lft.to/lastmile_qr_scan", "ios": "https://dc.lft.to/lastmile_qr_scan"}, "lon": -77.07264016666667, "fusion_lat": 0.0, "is_disabled": 0, "is_reserved": 0, "lat": 38.93637983333333, "type": "electric_scooter"}, {"fusion_lon": 0.0, "bike_id": "c01c928c3f2769d3196c51174cfc1c52", "name": "c01c928c3f2769d3196c51174cfc1c52", "rental_uris": {"android": "https://dc.lft.to/lastmile_qr_scan", "ios": "https://dc.lft.to/lastmile_qr_scan"}, "lon": -77.07232233333333, "fusion_lat": 0.0, "is_disabled": 0, "is_reserved": 0, "lat": 38.938527, "type": "electric_scooter"}, {"fusion_lon": 0.0, "bike_id": "a53c0ac6e2960d9193844f3dc12ff492", "name": "a53c0ac6e2960d9193844f3dc12ff492", "rental_uris": {"android": "https://dc.lft.to/lastmile_qr_scan", "ios": "https://dc.lft.to/lastmile_qr_scan"}, "lon": -77.03229183333333, "fusion_lat": 0.0, "is_disabled": 0, "is_reserved": 0, "lat": 38.916383833333335, "type": "electric_scooter"}, {"fusion_lon": 0.0, "bike_id": "9bd69af6d6ab2bcf6c272b40bbc8d2f1", "name": "9bd69af6d6ab2bcf6c272b40bbc8d2f1", "rental_uris": {"android": "https://dc.lft.to/lastmile_qr_scan", "ios": "https://dc.lft.to/lastmile_qr_scan"}, "lon": -77.040386, "fusion_lat": 0.0, "is_disabled": 0, "is_reserved": 0, "lat": 38.90145033333334, "type": "electric_scooter"}, {"fusion_lon": 0.0, "bike_id": "9c3b90f8a121d973f38c7294967a6103", "name": "9c3b90f8a121d973f38c7294967a6103", "rental_uris": {"android": "https://dc.lft.to/lastmile_qr_scan", "ios": "https://dc.lft.to/lastmile_qr_scan"}, "lon": -77.0380185, "fusion_lat": 0.0, "is_disabled": 0, "is_reserved": 0, "lat": 38.906749833333336, "type": "electric_scooter"}, {"fusion_lon": 0.0, "bike_id": "2de7954f9383e8038ab1071fba49b92d", "name": "2de7954f9383e8038ab1071fba49b92d", "rental_uris": {"android": "https://dc.lft.to/lastmile_qr_scan", "ios": "https://dc.lft.to/lastmile_qr_scan"}, "lon": -77.04682183333334, "fusion_lat": 0.0, "is_disabled": 0, "is_reserved": 0, "lat": 38.89510716666667, "type": "electric_scooter"}, {"fusion_lon": 0.0, "bike_id": "0b1bdc303c65aeff5280da58781fac12", "name": "0b1bdc303c65aeff5280da58781fac12", "rental_uris": {"android": "https://dc.lft.to/lastmile_qr_scan", "ios": "https://dc.lft.to/lastmile_qr_scan"}, "lon": -77.0316585, "fusion_lat": 0.0, "is_disabled": 0, "is_reserved": 0, "lat": 38.8922495, "type": "electric_scooter"}, {"fusion_lon": 0.0, "bike_id": "b0071ca1460c9748dbcbfb9916604802", "name": "b0071ca1460c9748dbcbfb9916604802", "rental_uris": {"android": "https://dc.lft.to/lastmile_qr_scan", "ios": "https://dc.lft.to/lastmile_qr_scan"}, "lon": -77.03365866666667, "fusion_lat": 0.0, "is_disabled": 0, "is_reserved": 0, "lat": 38.928816, "type": "electric_scooter"}, {"fusion_lon": 0.0, "bike_id": "fbcb340cfae0efe6d672746265cf52c6", "name": "fbcb340cfae0efe6d672746265cf52c6", "rental_uris": {"android": "https://dc.lft.to/lastmile_qr_scan", "ios": "https://dc.lft.to/lastmile_qr_scan"}, "lon": -76.975249, "fusion_lat": 0.0, "is_disabled": 0, "is_reserved": 0, "lat": 38.84007883333334, "type": "electric_bike"}, {"fusion_lon": 0.0, "bike_id": "49c53b93014a186d9691a72e091e8c9b", "name": "49c53b93014a186d9691a72e091e8c9b", "rental_uris": {"android": "https://dc.lft.to/lastmile_qr_scan", "ios": "https://dc.lft.to/lastmile_qr_scan"}, "lon": -77.03807533333334, "fusion_lat": 0.0, "is_disabled": 0, "is_reserved": 0, "lat": 38.902809500000004, "type": "electric_scooter"}, {"fusion_lon": 0.0, "bike_id": "cef1d852696e4a2279b712b8213e6e86", "name": "cef1d852696e4a2279b712b8213e6e86", "rental_uris": {"android": "https://dc.lft.to/lastmile_qr_scan", "ios": "https://dc.lft.to/lastmile_qr_scan"}, "lon": -76.96508566666667, "fusion_lat": 0.0, "is_disabled": 0, "is_reserved": 0, "lat": 38.8764985, "type": "electric_scooter"}, {"fusion_lon": 0.0, "bike_id": "ba57c633680ec680dcd56082cef10a32", "name": "ba57c633680ec680dcd56082cef10a32", "rental_uris": {"android": "https://dc.lft.to/lastmile_qr_scan", "ios": "https://dc.lft.to/lastmile_qr_scan"}, "lon": -77.04232316666666, "fusion_lat": 0.0, "is_disabled": 0, "is_reserved": 0, "lat": 38.92184066666667, "type": "electric_scooter"}, {"fusion_lon": 0.0, "bike_id": "f73edbe63e76c04661b5a1b137522de8", "name": "f73edbe63e76c04661b5a1b137522de8", "rental_uris": {"android": "https://dc.lft.to/lastmile_qr_scan", "ios": "https://dc.lft.to/lastmile_qr_scan"}, "lon": -77.156832, "fusion_lat": 0.0, "is_disabled": 0, "is_reserved": 0, "lat": 39.08417083333333, "type": "electric_bike"}, {"fusion_lon": 0.0, "bike_id": "cd8c051f738a3cdf0d855082cd7bbb79", "name": "cd8c051f738a3cdf0d855082cd7bbb79", "rental_uris": {"android": "https://dc.lft.to/lastmile_qr_scan", "ios": "https://dc.lft.to/lastmile_qr_scan"}, "lon": -77.12733566666667, "fusion_lat": 0.0, "is_disabled": 0, "is_reserved": 0, "lat": 38.8957055, "type": "electric_bike"}, {"fusion_lon": 0.0, "bike_id": "8469dfb612e5a26aec5835f4a5f0211d", "name": "8469dfb612e5a26aec5835f4a5f0211d", "rental_uris": {"android": "https://dc.lft.to/lastmile_qr_scan", "ios": "https://dc.lft.to/lastmile_qr_scan"}, "lon": -77.05130933333334, "fusion_lat": 0.0, "is_disabled": 0, "is_reserved": 0, "lat": 38.90645266666667, "type": "electric_scooter"}, {"fusion_lon": 0.0, "bike_id": "f73d0132eb4ceaaa67b8cc0bcd932973", "name": "f73d0132eb4ceaaa67b8cc0bcd932973", "rental_uris": {"android": "https://dc.lft.to/lastmile_qr_scan", "ios": "https://dc.lft.to/lastmile_qr_scan"}, "lon": -77.00221033333334, "fusion_lat": 0.0, "is_disabled": 0, "is_reserved": 0, "lat": 38.90875583333333, "type": "electric_scooter"}, {"fusion_lon": 0.0, "bike_id": "ec2c492756dc5e2c879a8e0d17f609ac", "name": "ec2c492756dc5e2c879a8e0d17f609ac", "rental_uris": {"android": "https://dc.lft.to/lastmile_qr_scan", "ios": "https://dc.lft.to/lastmile_qr_scan"}, "lon": -77.02514033333334, "fusion_lat": 0.0, "is_disabled": 0, "is_reserved": 0, "lat": 38.919265333333335, "type": "electric_scooter"}, {"fusion_lon": 0.0, "bike_id": "94aa8f13a2ab4f33499d32d5c9323c47", "name": "94aa8f13a2ab4f33499d32d5c9323c47", "rental_uris": {"android": "https://dc.lft.to/lastmile_qr_scan", "ios": "https://dc.lft.to/lastmile_qr_scan"}, "lon": -76.95294833333334, "fusion_lat": 0.0, "is_disabled": 0, "is_reserved": 0, "lat": 38.885160666666664, "type": "electric_scooter"}, {"fusion_lon": 0.0, "bike_id": "4234e94982f918a1bd9ee13a13717ad5", "name": "4234e94982f918a1bd9ee13a13717ad5", "rental_uris": {"android": "https://dc.lft.to/lastmile_qr_scan", "ios": "https://dc.lft.to/lastmile_qr_scan"}, "lon": -77.03905916666666, "fusion_lat": 0.0, "is_disabled": 0, "is_reserved": 0, "lat": 38.906382666666666, "type": "electric_scooter"}, {"fusion_lon": 0.0, "bike_id": "63623fd2ab00a1d58d1ea8cfbaceeda3", "name": "63623fd2ab00a1d58d1ea8cfbaceeda3", "rental_uris": {"android": "https://dc.lft.to/lastmile_qr_scan", "ios": "https://dc.lft.to/lastmile_qr_scan"}, "lon": -76.9954895, "fusion_lat": 0.0, "is_disabled": 0, "is_reserved": 0, "lat": 38.927088, "type": "electric_scooter"}, {"fusion_lon": 0.0, "bike_id": "2f7085d5d4a3c5f61c6c5c13caef913d", "name": "2f7085d5d4a3c5f61c6c5c13caef913d", "rental_uris": {"android": "https://dc.lft.to/lastmile_qr_scan", "ios": "https://dc.lft.to/lastmile_qr_scan"}, "lon": -77.0200125, "fusion_lat": 0.0, "is_disabled": 0, "is_reserved": 0, "lat": 38.8973845, "type": "electric_scooter"}, {"fusion_lon": 0.0, "bike_id": "66a12adbc0e4a1fe7337c1bd2d94462d", "name": "66a12adbc0e4a1fe7337c1bd2d94462d", "rental_uris": {"android": "https://dc.lft.to/lastmile_qr_scan", "ios": "https://dc.lft.to/lastmile_qr_scan"}, "lon": -77.01853783333334, "fusion_lat": 0.0, "is_disabled": 0, "is_reserved": 0, "lat": 38.948939833333334, "type": "electric_scooter"}, {"fusion_lon": 0.0, "bike_id": "d995baf3a6457c6c2fdf8ebb84c1bb75", "name": "d995baf3a6457c6c2fdf8ebb84c1bb75", "rental_uris": {"android": "https://dc.lft.to/lastmile_qr_scan", "ios": "https://dc.lft.to/lastmile_qr_scan"}, "lon": -77.0437415, "fusion_lat": 0.0, "is_disabled": 0, "is_reserved": 0, "lat": 38.91121733333333, "type": "electric_scooter"}, {"fusion_lon": 0.0, "bike_id": "c0787e9de2676746753a96407f1afc26", "name": "c0787e9de2676746753a96407f1afc26", "rental_uris": {"android": "https://dc.lft.to/lastmile_qr_scan", "ios": "https://dc.lft.to/lastmile_qr_scan"}, "lon": -76.95559183333333, "fusion_lat": 0.0, "is_disabled": 0, "is_reserved": 0, "lat": 38.927528333333335, "type": "electric_scooter"}, {"fusion_lon": 0.0, "bike_id": "96041f1ddbb41f9c87b8e2ff92c5aa98", "name": "96041f1ddbb41f9c87b8e2ff92c5aa98", "rental_uris": {"android": "https://dc.lft.to/lastmile_qr_scan", "ios": "https://dc.lft.to/lastmile_qr_scan"}, "lon": -77.025275, "fusion_lat": 0.0, "is_disabled": 0, "is_reserved": 0, "lat": 38.926036, "type": "electric_scooter"}, {"fusion_lon": 0.0, "bike_id": "5d8c02b7934cd1bb93460ef81f1eb0b6", "name": "5d8c02b7934cd1bb93460ef81f1eb0b6", "rental_uris": {"android": "https://dc.lft.to/lastmile_qr_scan", "ios": "https://dc.lft.to/lastmile_qr_scan"}, "lon": -77.07255116666667, "fusion_lat": 0.0, "is_disabled": 0, "is_reserved": 0, "lat": 38.90916816666667, "type": "electric_scooter"}, {"fusion_lon": 0.0, "bike_id": "d31313ca623095a88aff5783d3391025", "name": "d31313ca623095a88aff5783d3391025", "rental_uris": {"android": "https://dc.lft.to/lastmile_qr_scan", "ios": "https://dc.lft.to/lastmile_qr_scan"}, "lon": -77.03582083333333, "fusion_lat": 0.0, "is_disabled": 0, "is_reserved": 0, "lat": 38.99228633333333, "type": "electric_bike"}, {"fusion_lon": 0.0, "bike_id": "79f7f1613d9b86005d015a8c0e8d9f9c", "name": "79f7f1613d9b86005d015a8c0e8d9f9c", "rental_uris": {"android": "https://dc.lft.to/lastmile_qr_scan", "ios": "https://dc.lft.to/lastmile_qr_scan"}, "lon": -76.99229966666667, "fusion_lat": 0.0, "is_disabled": 0, "is_reserved": 0, "lat": 38.862879166666666, "type": "electric_scooter"}, {"fusion_lon": 0.0, "bike_id": "3addcde9b94213a41825dc67fc930cc8", "name": "3addcde9b94213a41825dc67fc930cc8", "rental_uris": {"android": "https://dc.lft.to/lastmile_qr_scan", "ios": "https://dc.lft.to/lastmile_qr_scan"}, "lon": -77.021169, "fusion_lat": 0.0, "is_disabled": 0, "is_reserved": 0, "lat": 38.92366083333334, "type": "electric_scooter"}, {"fusion_lon": 0.0, "bike_id": "d04ec0f53d93a0373102cc250d094719", "name": "d04ec0f53d93a0373102cc250d094719", "rental_uris": {"android": "https://dc.lft.to/lastmile_qr_scan", "ios": "https://dc.lft.to/lastmile_qr_scan"}, "lon": -77.03848316666667, "fusion_lat": 0.0, "is_disabled": 0, "is_reserved": 0, "lat": 38.902656666666665, "type": "electric_scooter"}, {"fusion_lon": 0.0, "bike_id": "5e18dbcdec46b79c245e9f58cdf0cde9", "name": "5e18dbcdec46b79c245e9f58cdf0cde9", "rental_uris": {"android": "https://dc.lft.to/lastmile_qr_scan", "ios": "https://dc.lft.to/lastmile_qr_scan"}, "lon": -77.05035316666667, "fusion_lat": 0.0, "is_disabled": 0, "is_reserved": 0, "lat": 38.898393666666664, "type": "electric_scooter"}, {"fusion_lon": 0.0, "bike_id": "fff557f3c543f917d954b29b3beb2857", "name": "fff557f3c543f917d954b29b3beb2857", "rental_uris": {"android": "https://dc.lft.to/lastmile_qr_scan", "ios": "https://dc.lft.to/lastmile_qr_scan"}, "lon": -76.98094033333334, "fusion_lat": 0.0, "is_disabled": 0, "is_reserved": 0, "lat": 38.8669885, "type": "electric_scooter"}, {"fusion_lon": 0.0, "bike_id": "d288d3e2cbf0641e65fd00b47a103aab", "name": "d288d3e2cbf0641e65fd00b47a103aab", "rental_uris": {"android": "https://dc.lft.to/lastmile_qr_scan", "ios": "https://dc.lft.to/lastmile_qr_scan"}, "lon": -77.0795575, "fusion_lat": 0.0, "is_disabled": 0, "is_reserved": 0, "lat": 38.849085, "type": "electric_bike"}, {"fusion_lon": 0.0, "bike_id": "e5030574d95147f566abfefc1af388d4", "name": "e5030574d95147f566abfefc1af388d4", "rental_uris": {"android": "https://dc.lft.to/lastmile_qr_scan", "ios": "https://dc.lft.to/lastmile_qr_scan"}, "lon": -77.01354783333333, "fusion_lat": 0.0, "is_disabled": 0, "is_reserved": 0, "lat": 38.94218516666667, "type": "electric_scooter"}, {"fusion_lon": 0.0, "bike_id": "422137b2dedb46c3245af571b231fdfb", "name": "422137b2dedb46c3245af571b231fdfb", "rental_uris": {"android": "https://dc.lft.to/lastmile_qr_scan", "ios": "https://dc.lft.to/lastmile_qr_scan"}, "lon": -77.036643, "fusion_lat": 0.0, "is_disabled": 0, "is_reserved": 0, "lat": 38.91128466666667, "type": "electric_scooter"}, {"fusion_lon": 0.0, "bike_id": "5072f115a04c36461d6d79817e8b4418", "name": "5072f115a04c36461d6d79817e8b4418", "rental_uris": {"android": "https://dc.lft.to/lastmile_qr_scan", "ios": "https://dc.lft.to/lastmile_qr_scan"}, "lon": -77.01079316666667, "fusion_lat": 0.0, "is_disabled": 0, "is_reserved": 0, "lat": 38.89445166666667, "type": "electric_scooter"}, {"fusion_lon": 0.0, "bike_id": "26b69e51d755e5753e70bdf449fce2b4", "name": "26b69e51d755e5753e70bdf449fce2b4", "rental_uris": {"android": "https://dc.lft.to/lastmile_qr_scan", "ios": "https://dc.lft.to/lastmile_qr_scan"}, "lon": -77.02737516666667, "fusion_lat": 0.0, "is_disabled": 0, "is_reserved": 0, "lat": 38.910790666666664, "type": "electric_scooter"}, {"fusion_lon": 0.0, "bike_id": "77e7f9ee7156c64be5e37564d849cca2", "name": "77e7f9ee7156c64be5e37564d849cca2", "rental_uris": {"android": "https://dc.lft.to/lastmile_qr_scan", "ios": "https://dc.lft.to/lastmile_qr_scan"}, "lon": -77.05179166666667, "fusion_lat": 0.0, "is_disabled": 0, "is_reserved": 0, "lat": 38.9234435, "type": "electric_scooter"}, {"fusion_lon": 0.0, "bike_id": "1795372bfa5c6338282f195e07797dfc", "name": "1795372bfa5c6338282f195e07797dfc", "rental_uris": {"android": "https://dc.lft.to/lastmile_qr_scan", "ios": "https://dc.lft.to/lastmile_qr_scan"}, "lon": -77.00542383333334, "fusion_lat": 0.0, "is_disabled": 0, "is_reserved": 0, "lat": 38.87548533333333, "type": "electric_scooter"}, {"fusion_lon": 0.0, "bike_id": "c5e6d44749f26b14feecdac11ec72bcd", "name": "c5e6d44749f26b14feecdac11ec72bcd", "rental_uris": {"android": "https://dc.lft.to/lastmile_qr_scan", "ios": "https://dc.lft.to/lastmile_qr_scan"}, "lon": -77.009154, "fusion_lat": 0.0, "is_disabled": 0, "is_reserved": 0, "lat": 38.876376, "type": "electric_scooter"}, {"fusion_lon": 0.0, "bike_id": "4db8a79ac5d6961872387bbc4d7285b7", "name": "4db8a79ac5d6961872387bbc4d7285b7", "rental_uris": {"android": "https://dc.lft.to/lastmile_qr_scan", "ios": "https://dc.lft.to/lastmile_qr_scan"}, "lon": -77.02125533333333, "fusion_lat": 0.0, "is_disabled": 0, "is_reserved": 0, "lat": 38.89408516666667, "type": "electric_scooter"}, {"fusion_lon": 0.0, "bike_id": "93b64419bd20d9a98c0a6d54752ffb08", "name": "93b64419bd20d9a98c0a6d54752ffb08", "rental_uris": {"android": "https://dc.lft.to/lastmile_qr_scan", "ios": "https://dc.lft.to/lastmile_qr_scan"}, "lon": -77.02692233333333, "fusion_lat": 0.0, "is_disabled": 0, "is_reserved": 0, "lat": 38.909561833333335, "type": "electric_scooter"}, {"fusion_lon": 0.0, "bike_id": "bb2696d2d4297ca7c2f58766c44e1bf7", "name": "bb2696d2d4297ca7c2f58766c44e1bf7", "rental_uris": {"android": "https://dc.lft.to/lastmile_qr_scan", "ios": "https://dc.lft.to/lastmile_qr_scan"}, "lon": -76.99955033333333, "fusion_lat": 0.0, "is_disabled": 0, "is_reserved": 0, "lat": 38.923571333333335, "type": "electric_scooter"}, {"fusion_lon": 0.0, "bike_id": "6affdb935e4a517f165b166abd479b7b", "name": "6affdb935e4a517f165b166abd479b7b", "rental_uris": {"android": "https://dc.lft.to/lastmile_qr_scan", "ios": "https://dc.lft.to/lastmile_qr_scan"}, "lon": -77.02660383333334, "fusion_lat": 0.0, "is_disabled": 0, "is_reserved": 0, "lat": 38.93869816666667, "type": "electric_scooter"}, {"fusion_lon": 0.0, "bike_id": "4307ab2f0aef9107cf9c7a442357e961", "name": "4307ab2f0aef9107cf9c7a442357e961", "rental_uris": {"android": "https://dc.lft.to/lastmile_qr_scan", "ios": "https://dc.lft.to/lastmile_qr_scan"}, "lon": -77.05002016666667, "fusion_lat": 0.0, "is_disabled": 0, "is_reserved": 0, "lat": 38.897465, "type": "electric_scooter"}, {"fusion_lon": 0.0, "bike_id": "7c953dfa2ba7982665b8929d573f25b0", "name": "7c953dfa2ba7982665b8929d573f25b0", "rental_uris": {"android": "https://dc.lft.to/lastmile_qr_scan", "ios": "https://dc.lft.to/lastmile_qr_scan"}, "lon": -77.04229866666667, "fusion_lat": 0.0, "is_disabled": 0, "is_reserved": 0, "lat": 38.9218645, "type": "electric_scooter"}, {"fusion_lon": 0.0, "bike_id": "73a2d3ee9eb5b1c8952e8ad500668599", "name": "73a2d3ee9eb5b1c8952e8ad500668599", "rental_uris": {"android": "https://dc.lft.to/lastmile_qr_scan", "ios": "https://dc.lft.to/lastmile_qr_scan"}, "lon": -77.03166966666667, "fusion_lat": 0.0, "is_disabled": 0, "is_reserved": 0, "lat": 38.884141666666665, "type": "electric_scooter"}, {"fusion_lon": 0.0, "bike_id": "be4fb409682bed3d9ae50417a13528eb", "name": "be4fb409682bed3d9ae50417a13528eb", "rental_uris": {"android": "https://dc.lft.to/lastmile_qr_scan", "ios": "https://dc.lft.to/lastmile_qr_scan"}, "lon": -76.9834105, "fusion_lat": 0.0, "is_disabled": 0, "is_reserved": 0, "lat": 38.89552583333333, "type": "electric_scooter"}, {"fusion_lon": 0.0, "bike_id": "c75ae3ded143e7a88d9c8034967aad77", "name": "c75ae3ded143e7a88d9c8034967aad77", "rental_uris": {"android": "https://dc.lft.to/lastmile_qr_scan", "ios": "https://dc.lft.to/lastmile_qr_scan"}, "lon": -76.952831, "fusion_lat": 0.0, "is_disabled": 0, "is_reserved": 0, "lat": 38.8919715, "type": "electric_scooter"}, {"fusion_lon": 0.0, "bike_id": "acfe8849db1cbfb74f12a46feff92373", "name": "acfe8849db1cbfb74f12a46feff92373", "rental_uris": {"android": "https://dc.lft.to/lastmile_qr_scan", "ios": "https://dc.lft.to/lastmile_qr_scan"}, "lon": -76.934303, "fusion_lat": 0.0, "is_disabled": 0, "is_reserved": 0, "lat": 38.893474166666664, "type": "electric_scooter"}, {"fusion_lon": 0.0, "bike_id": "3e31a06872d1668b32bc11e42f1f8033", "name": "3e31a06872d1668b32bc11e42f1f8033", "rental_uris": {"android": "https://dc.lft.to/lastmile_qr_scan", "ios": "https://dc.lft.to/lastmile_qr_scan"}, "lon": -77.075313, "fusion_lat": 0.0, "is_disabled": 0, "is_reserved": 0, "lat": 38.9088075, "type": "electric_scooter"}, {"fusion_lon": 0.0, "bike_id": "aa1b7cdccd5aa4f112495b5b6a8ca733", "name": "aa1b7cdccd5aa4f112495b5b6a8ca733", "rental_uris": {"android": "https://dc.lft.to/lastmile_qr_scan", "ios": "https://dc.lft.to/lastmile_qr_scan"}, "lon": -77.02430533333333, "fusion_lat": 0.0, "is_disabled": 0, "is_reserved": 0, "lat": 38.968037333333335, "type": "electric_scooter"}, {"fusion_lon": 0.0, "bike_id": "fb3802fa6982b6afdf10e46af0802f8e", "name": "fb3802fa6982b6afdf10e46af0802f8e", "rental_uris": {"android": "https://dc.lft.to/lastmile_qr_scan", "ios": "https://dc.lft.to/lastmile_qr_scan"}, "lon": -77.03424233333334, "fusion_lat": 0.0, "is_disabled": 0, "is_reserved": 0, "lat": 38.91929583333334, "type": "electric_scooter"}, {"fusion_lon": 0.0, "bike_id": "38e12768c012ea8b89e320985b4c2924", "name": "38e12768c012ea8b89e320985b4c2924", "rental_uris": {"android": "https://dc.lft.to/lastmile_qr_scan", "ios": "https://dc.lft.to/lastmile_qr_scan"}, "lon": -76.982592, "fusion_lat": 0.0, "is_disabled": 0, "is_reserved": 0, "lat": 38.953365166666664, "type": "electric_bike"}, {"fusion_lon": 0.0, "bike_id": "55dff0edef2fdd55ce0127b7327727cc", "name": "55dff0edef2fdd55ce0127b7327727cc", "rental_uris": {"android": "https://dc.lft.to/lastmile_qr_scan", "ios": "https://dc.lft.to/lastmile_qr_scan"}, "lon": -76.99660916666667, "fusion_lat": 0.0, "is_disabled": 0, "is_reserved": 0, "lat": 38.83842833333333, "type": "electric_bike"}, {"fusion_lon": 0.0, "bike_id": "4b9d577c36d65511010a4956b21beb82", "name": "4b9d577c36d65511010a4956b21beb82", "rental_uris": {"android": "https://dc.lft.to/lastmile_qr_scan", "ios": "https://dc.lft.to/lastmile_qr_scan"}, "lon": -77.0250215, "fusion_lat": 0.0, "is_disabled": 0, "is_reserved": 0, "lat": 38.93053466666667, "type": "electric_scooter"}, {"fusion_lon": 0.0, "bike_id": "faf5302ce809371c534c2fdcf19fd407", "name": "faf5302ce809371c534c2fdcf19fd407", "rental_uris": {"android": "https://dc.lft.to/lastmile_qr_scan", "ios": "https://dc.lft.to/lastmile_qr_scan"}, "lon": -77.0333895, "fusion_lat": 0.0, "is_disabled": 0, "is_reserved": 0, "lat": 38.89222733333333, "type": "electric_scooter"}, {"fusion_lon": 0.0, "bike_id": "77c6cf57a59bb95f632f82a03a916752", "name": "77c6cf57a59bb95f632f82a03a916752", "rental_uris": {"android": "https://dc.lft.to/lastmile_qr_scan", "ios": "https://dc.lft.to/lastmile_qr_scan"}, "lon": -76.93758583333333, "fusion_lat": 0.0, "is_disabled": 0, "is_reserved": 0, "lat": 38.890434, "type": "electric_scooter"}, {"fusion_lon": 0.0, "bike_id": "9e48ba9ee144f0a213e92f0fd1f20161", "name": "9e48ba9ee144f0a213e92f0fd1f20161", "rental_uris": {"android": "https://dc.lft.to/lastmile_qr_scan", "ios": "https://dc.lft.to/lastmile_qr_scan"}, "lon": -77.05002083333333, "fusion_lat": 0.0, "is_disabled": 0, "is_reserved": 0, "lat": 38.89924516666667, "type": "electric_scooter"}, {"fusion_lon": 0.0, "bike_id": "bdd0fe87de6eb309be705cd09b0f2a04", "name": "bdd0fe87de6eb309be705cd09b0f2a04", "rental_uris": {"android": "https://dc.lft.to/lastmile_qr_scan", "ios": "https://dc.lft.to/lastmile_qr_scan"}, "lon": -77.04260783333334, "fusion_lat": 0.0, "is_disabled": 0, "is_reserved": 0, "lat": 38.899432166666664, "type": "electric_scooter"}, {"fusion_lon": 0.0, "bike_id": "d2a820ff457763782bb556746052581a", "name": "d2a820ff457763782bb556746052581a", "rental_uris": {"android": "https://dc.lft.to/lastmile_qr_scan", "ios": "https://dc.lft.to/lastmile_qr_scan"}, "lon": -77.04013633333334, "fusion_lat": 0.0, "is_disabled": 0, "is_reserved": 0, "lat": 38.88956683333333, "type": "electric_scooter"}, {"fusion_lon": 0.0, "bike_id": "2dd71b27101cc7e051d3e1d1ad5d06ec", "name": "2dd71b27101cc7e051d3e1d1ad5d06ec", "rental_uris": {"android": "https://dc.lft.to/lastmile_qr_scan", "ios": "https://dc.lft.to/lastmile_qr_scan"}, "lon": -77.03958333333334, "fusion_lat": 0.0, "is_disabled": 0, "is_reserved": 0, "lat": 38.89311416666666, "type": "electric_scooter"}, {"fusion_lon": 0.0, "bike_id": "854e14f097f71bb5fe1dab21227ac2fd", "name": "854e14f097f71bb5fe1dab21227ac2fd", "rental_uris": {"android": "https://dc.lft.to/lastmile_qr_scan", "ios": "https://dc.lft.to/lastmile_qr_scan"}, "lon": -77.01842333333333, "fusion_lat": 0.0, "is_disabled": 0, "is_reserved": 0, "lat": 38.904310833333334, "type": "electric_scooter"}, {"fusion_lon": 0.0, "bike_id": "efffddaf9ffd07e7d576aac1c057ce8b", "name": "efffddaf9ffd07e7d576aac1c057ce8b", "rental_uris": {"android": "https://dc.lft.to/lastmile_qr_scan", "ios": "https://dc.lft.to/lastmile_qr_scan"}, "lon": -76.96257683333333, "fusion_lat": 0.0, "is_disabled": 0, "is_reserved": 0, "lat": 38.878682833333336, "type": "electric_scooter"}, {"fusion_lon": 0.0, "bike_id": "9b792bf7d356b546ab771469d5ff9286", "name": "9b792bf7d356b546ab771469d5ff9286", "rental_uris": {"android": "https://dc.lft.to/lastmile_qr_scan", "ios": "https://dc.lft.to/lastmile_qr_scan"}, "lon": -77.0452265, "fusion_lat": 0.0, "is_disabled": 0, "is_reserved": 0, "lat": 38.9182955, "type": "electric_scooter"}, {"fusion_lon": 0.0, "bike_id": "f7134bd04ccb7fc7997aeb1b84705bbc", "name": "f7134bd04ccb7fc7997aeb1b84705bbc", "rental_uris": {"android": "https://dc.lft.to/lastmile_qr_scan", "ios": "https://dc.lft.to/lastmile_qr_scan"}, "lon": -77.02958466666666, "fusion_lat": 0.0, "is_disabled": 0, "is_reserved": 0, "lat": 38.899507666666665, "type": "electric_scooter"}, {"fusion_lon": 0.0, "bike_id": "a9fb4ed3763a91f4263622a84f81fb9e", "name": "a9fb4ed3763a91f4263622a84f81fb9e", "rental_uris": {"android": "https://dc.lft.to/lastmile_qr_scan", "ios": "https://dc.lft.to/lastmile_qr_scan"}, "lon": -77.03834733333333, "fusion_lat": 0.0, "is_disabled": 0, "is_reserved": 0, "lat": 38.919012, "type": "electric_scooter"}, {"fusion_lon": 0.0, "bike_id": "8a3699bc204ccdeed2d77eefe24e5a74", "name": "8a3699bc204ccdeed2d77eefe24e5a74", "rental_uris": {"android": "https://dc.lft.to/lastmile_qr_scan", "ios": "https://dc.lft.to/lastmile_qr_scan"}, "lon": -77.02324366666667, "fusion_lat": 0.0, "is_disabled": 0, "is_reserved": 0, "lat": 38.923008, "type": "electric_scooter"}, {"fusion_lon": 0.0, "bike_id": "197e48c49765aea9a4a4a71cdf989705", "name": "197e48c49765aea9a4a4a71cdf989705", "rental_uris": {"android": "https://dc.lft.to/lastmile_qr_scan", "ios": "https://dc.lft.to/lastmile_qr_scan"}, "lon": -77.07941433333333, "fusion_lat": 0.0, "is_disabled": 0, "is_reserved": 0, "lat": 38.9193035, "type": "electric_scooter"}, {"fusion_lon": 0.0, "bike_id": "9ffb657020d576609ef77a118f69eeec", "name": "9ffb657020d576609ef77a118f69eeec", "rental_uris": {"android": "https://dc.lft.to/lastmile_qr_scan", "ios": "https://dc.lft.to/lastmile_qr_scan"}, "lon": -77.0347875, "fusion_lat": 0.0, "is_disabled": 0, "is_reserved": 0, "lat": 38.884923, "type": "electric_scooter"}, {"fusion_lon": 0.0, "bike_id": "a44c181362d127cc5fa3eaa4eecc1bc6", "name": "a44c181362d127cc5fa3eaa4eecc1bc6", "rental_uris": {"android": "https://dc.lft.to/lastmile_qr_scan", "ios": "https://dc.lft.to/lastmile_qr_scan"}, "lon": -77.02183, "fusion_lat": 0.0, "is_disabled": 0, "is_reserved": 0, "lat": 38.942951666666666, "type": "electric_scooter"}, {"fusion_lon": 0.0, "bike_id": "d1c0eb9d96fec354812b5a5ef7c00288", "name": "d1c0eb9d96fec354812b5a5ef7c00288", "rental_uris": {"android": "https://dc.lft.to/lastmile_qr_scan", "ios": "https://dc.lft.to/lastmile_qr_scan"}, "lon": -77.0320725, "fusion_lat": 0.0, "is_disabled": 0, "is_reserved": 0, "lat": 38.91824783333333, "type": "electric_scooter"}, {"fusion_lon": 0.0, "bike_id": "d71900e8999f71cb392618dfaa5c4970", "name": "d71900e8999f71cb392618dfaa5c4970", "rental_uris": {"android": "https://dc.lft.to/lastmile_qr_scan", "ios": "https://dc.lft.to/lastmile_qr_scan"}, "lon": -76.995056, "fusion_lat": 0.0, "is_disabled": 0, "is_reserved": 0, "lat": 38.9047115, "type": "electric_scooter"}, {"fusion_lon": 0.0, "bike_id": "92d118c87e9860fa3717d7fdee66c350", "name": "92d118c87e9860fa3717d7fdee66c350", "rental_uris": {"android": "https://dc.lft.to/lastmile_qr_scan", "ios": "https://dc.lft.to/lastmile_qr_scan"}, "lon": -77.01826166666666, "fusion_lat": 0.0, "is_disabled": 0, "is_reserved": 0, "lat": 38.92239716666667, "type": "electric_scooter"}, {"fusion_lon": 0.0, "bike_id": "87a4fe2447f52678496f6c67b6ad28af", "name": "87a4fe2447f52678496f6c67b6ad28af", "rental_uris": {"android": "https://dc.lft.to/lastmile_qr_scan", "ios": "https://dc.lft.to/lastmile_qr_scan"}, "lon": -77.04589833333333, "fusion_lat": 0.0, "is_disabled": 0, "is_reserved": 0, "lat": 38.9142495, "type": "electric_scooter"}, {"fusion_lon": 0.0, "bike_id": "27ee7aecd52002f17a06c841b3bc79b7", "name": "27ee7aecd52002f17a06c841b3bc79b7", "rental_uris": {"android": "https://dc.lft.to/lastmile_qr_scan", "ios": "https://dc.lft.to/lastmile_qr_scan"}, "lon": -77.06278033333334, "fusion_lat": 0.0, "is_disabled": 0, "is_reserved": 0, "lat": 38.9026115, "type": "electric_scooter"}, {"fusion_lon": 0.0, "bike_id": "03facc384c251d955c8be9c74418299f", "name": "03facc384c251d955c8be9c74418299f", "rental_uris": {"android": "https://dc.lft.to/lastmile_qr_scan", "ios": "https://dc.lft.to/lastmile_qr_scan"}, "lon": -77.01885216666666, "fusion_lat": 0.0, "is_disabled": 0, "is_reserved": 0, "lat": 38.876791, "type": "electric_scooter"}, {"fusion_lon": 0.0, "bike_id": "28dd3cd1f941bd372ed4e11bf56e6798", "name": "28dd3cd1f941bd372ed4e11bf56e6798", "rental_uris": {"android": "https://dc.lft.to/lastmile_qr_scan", "ios": "https://dc.lft.to/lastmile_qr_scan"}, "lon": -77.0427065, "fusion_lat": 0.0, "is_disabled": 0, "is_reserved": 0, "lat": 38.922468, "type": "electric_scooter"}, {"fusion_lon": 0.0, "bike_id": "20a6942b33161696477e54d7b1040c8c", "name": "20a6942b33161696477e54d7b1040c8c", "rental_uris": {"android": "https://dc.lft.to/lastmile_qr_scan", "ios": "https://dc.lft.to/lastmile_qr_scan"}, "lon": -77.05759866666666, "fusion_lat": 0.0, "is_disabled": 0, "is_reserved": 0, "lat": 38.9246695, "type": "electric_scooter"}, {"fusion_lon": 0.0, "bike_id": "51648622feab09ee6573608d990f6cb9", "name": "51648622feab09ee6573608d990f6cb9", "rental_uris": {"android": "https://dc.lft.to/lastmile_qr_scan", "ios": "https://dc.lft.to/lastmile_qr_scan"}, "lon": -77.025361, "fusion_lat": 0.0, "is_disabled": 0, "is_reserved": 0, "lat": 38.924862, "type": "electric_scooter"}, {"fusion_lon": 0.0, "bike_id": "7f675cb54688236b485db40135546427", "name": "7f675cb54688236b485db40135546427", "rental_uris": {"android": "https://dc.lft.to/lastmile_qr_scan", "ios": "https://dc.lft.to/lastmile_qr_scan"}, "lon": -76.99647683333333, "fusion_lat": 0.0, "is_disabled": 0, "is_reserved": 0, "lat": 38.85992483333333, "type": "electric_scooter"}, {"fusion_lon": 0.0, "bike_id": "f5ea59c4e4192a0795d5245032852de3", "name": "f5ea59c4e4192a0795d5245032852de3", "rental_uris": {"android": "https://dc.lft.to/lastmile_qr_scan", "ios": "https://dc.lft.to/lastmile_qr_scan"}, "lon": -77.02396566666667, "fusion_lat": 0.0, "is_disabled": 0, "is_reserved": 0, "lat": 38.901855833333336, "type": "electric_scooter"}, {"fusion_lon": 0.0, "bike_id": "e6433170bbef641798ec8013d6584834", "name": "e6433170bbef641798ec8013d6584834", "rental_uris": {"android": "https://dc.lft.to/lastmile_qr_scan", "ios": "https://dc.lft.to/lastmile_qr_scan"}, "lon": -77.03000383333334, "fusion_lat": 0.0, "is_disabled": 0, "is_reserved": 0, "lat": 38.9166335, "type": "electric_scooter"}, {"fusion_lon": 0.0, "bike_id": "fd9d17531e01c9c15b4649e70a43d594", "name": "fd9d17531e01c9c15b4649e70a43d594", "rental_uris": {"android": "https://dc.lft.to/lastmile_qr_scan", "ios": "https://dc.lft.to/lastmile_qr_scan"}, "lon": -77.0375965, "fusion_lat": 0.0, "is_disabled": 0, "is_reserved": 0, "lat": 38.91412533333333, "type": "electric_scooter"}, {"fusion_lon": 0.0, "bike_id": "21633f18cf675f3bd40bcea623ee0588", "name": "21633f18cf675f3bd40bcea623ee0588", "rental_uris": {"android": "https://dc.lft.to/lastmile_qr_scan", "ios": "https://dc.lft.to/lastmile_qr_scan"}, "lon": -77.00416666666666, "fusion_lat": 0.0, "is_disabled": 0, "is_reserved": 0, "lat": 38.876443333333334, "type": "electric_scooter"}, {"fusion_lon": 0.0, "bike_id": "1bf6a7d4a181e9350f91ef1584f074ce", "name": "1bf6a7d4a181e9350f91ef1584f074ce", "rental_uris": {"android": "https://dc.lft.to/lastmile_qr_scan", "ios": "https://dc.lft.to/lastmile_qr_scan"}, "lon": -77.06751016666666, "fusion_lat": 0.0, "is_disabled": 0, "is_reserved": 0, "lat": 38.90515283333333, "type": "electric_scooter"}, {"fusion_lon": 0.0, "bike_id": "ac78f99aca8173e120e643224ae8e6f8", "name": "ac78f99aca8173e120e643224ae8e6f8", "rental_uris": {"android": "https://dc.lft.to/lastmile_qr_scan", "ios": "https://dc.lft.to/lastmile_qr_scan"}, "lon": -77.03385716666666, "fusion_lat": 0.0, "is_disabled": 0, "is_reserved": 0, "lat": 38.90382916666667, "type": "electric_scooter"}, {"fusion_lon": 0.0, "bike_id": "9daa0cf0b1ac773c2bccb40c7834f8fb", "name": "9daa0cf0b1ac773c2bccb40c7834f8fb", "rental_uris": {"android": "https://dc.lft.to/lastmile_qr_scan", "ios": "https://dc.lft.to/lastmile_qr_scan"}, "lon": -77.04155916666667, "fusion_lat": 0.0, "is_disabled": 0, "is_reserved": 0, "lat": 38.91718816666667, "type": "electric_scooter"}, {"fusion_lon": 0.0, "bike_id": "06f7e61420aaf8f0b79aac09b5a4b56e", "name": "06f7e61420aaf8f0b79aac09b5a4b56e", "rental_uris": {"android": "https://dc.lft.to/lastmile_qr_scan", "ios": "https://dc.lft.to/lastmile_qr_scan"}, "lon": -77.03190166666667, "fusion_lat": 0.0, "is_disabled": 0, "is_reserved": 0, "lat": 38.91772366666667, "type": "electric_scooter"}, {"fusion_lon": 0.0, "bike_id": "17ffe34f2e330885c1cd84bf3a6110c1", "name": "17ffe34f2e330885c1cd84bf3a6110c1", "rental_uris": {"android": "https://dc.lft.to/lastmile_qr_scan", "ios": "https://dc.lft.to/lastmile_qr_scan"}, "lon": -77.06061366666667, "fusion_lat": 0.0, "is_disabled": 0, "is_reserved": 0, "lat": 38.94344616666667, "type": "electric_bike"}, {"fusion_lon": 0.0, "bike_id": "f065da8bb5a6846ece8bc012394dbb8a", "name": "f065da8bb5a6846ece8bc012394dbb8a", "rental_uris": {"android": "https://dc.lft.to/lastmile_qr_scan", "ios": "https://dc.lft.to/lastmile_qr_scan"}, "lon": -76.99886033333334, "fusion_lat": 0.0, "is_disabled": 0, "is_reserved": 0, "lat": 38.87928766666667, "type": "electric_scooter"}, {"fusion_lon": 0.0, "bike_id": "056ac57253d9909b2a6c7e3cc612d7cd", "name": "056ac57253d9909b2a6c7e3cc612d7cd", "rental_uris": {"android": "https://dc.lft.to/lastmile_qr_scan", "ios": "https://dc.lft.to/lastmile_qr_scan"}, "lon": -77.05925183333333, "fusion_lat": 0.0, "is_disabled": 0, "is_reserved": 0, "lat": 38.943096833333335, "type": "electric_scooter"}, {"fusion_lon": 0.0, "bike_id": "c5323292d840788230ac984cc93cd89b", "name": "c5323292d840788230ac984cc93cd89b", "rental_uris": {"android": "https://dc.lft.to/lastmile_qr_scan", "ios": "https://dc.lft.to/lastmile_qr_scan"}, "lon": -77.03403816666666, "fusion_lat": 0.0, "is_disabled": 0, "is_reserved": 0, "lat": 38.902609166666664, "type": "electric_scooter"}, {"fusion_lon": 0.0, "bike_id": "745f8f022fe2cf4a5a119c89995b3bcc", "name": "745f8f022fe2cf4a5a119c89995b3bcc", "rental_uris": {"android": "https://dc.lft.to/lastmile_qr_scan", "ios": "https://dc.lft.to/lastmile_qr_scan"}, "lon": -77.0390225, "fusion_lat": 0.0, "is_disabled": 0, "is_reserved": 0, "lat": 38.924587333333335, "type": "electric_scooter"}, {"fusion_lon": 0.0, "bike_id": "555eaeb3057908edc9b202219c0dba9a", "name": "555eaeb3057908edc9b202219c0dba9a", "rental_uris": {"android": "https://dc.lft.to/lastmile_qr_scan", "ios": "https://dc.lft.to/lastmile_qr_scan"}, "lon": -77.043267, "fusion_lat": 0.0, "is_disabled": 0, "is_reserved": 0, "lat": 38.928058166666666, "type": "electric_scooter"}, {"fusion_lon": 0.0, "bike_id": "b53d153fdc9cb8bab16d84edd1fd0663", "name": "b53d153fdc9cb8bab16d84edd1fd0663", "rental_uris": {"android": "https://dc.lft.to/lastmile_qr_scan", "ios": "https://dc.lft.to/lastmile_qr_scan"}, "lon": -77.01492416666666, "fusion_lat": 0.0, "is_disabled": 0, "is_reserved": 0, "lat": 38.95764833333333, "type": "electric_scooter"}, {"fusion_lon": 0.0, "bike_id": "72576b6529031e4d60af69378f5a2343", "name": "72576b6529031e4d60af69378f5a2343", "rental_uris": {"android": "https://dc.lft.to/lastmile_qr_scan", "ios": "https://dc.lft.to/lastmile_qr_scan"}, "lon": -77.040506, "fusion_lat": 0.0, "is_disabled": 0, "is_reserved": 0, "lat": 38.90566783333333, "type": "electric_scooter"}, {"fusion_lon": 0.0, "bike_id": "f7e14b3ada7d4104fad001ddf70eb713", "name": "f7e14b3ada7d4104fad001ddf70eb713", "rental_uris": {"android": "https://dc.lft.to/lastmile_qr_scan", "ios": "https://dc.lft.to/lastmile_qr_scan"}, "lon": -77.04300566666667, "fusion_lat": 0.0, "is_disabled": 0, "is_reserved": 0, "lat": 38.90572433333333, "type": "electric_scooter"}, {"fusion_lon": 0.0, "bike_id": "cc08752358dc804b19f799fb16f8cfa5", "name": "cc08752358dc804b19f799fb16f8cfa5", "rental_uris": {"android": "https://dc.lft.to/lastmile_qr_scan", "ios": "https://dc.lft.to/lastmile_qr_scan"}, "lon": -77.07017983333333, "fusion_lat": 0.0, "is_disabled": 0, "is_reserved": 0, "lat": 38.95640183333333, "type": "electric_scooter"}, {"fusion_lon": 0.0, "bike_id": "fb0021895bf3d7421a7da878f7856391", "name": "fb0021895bf3d7421a7da878f7856391", "rental_uris": {"android": "https://dc.lft.to/lastmile_qr_scan", "ios": "https://dc.lft.to/lastmile_qr_scan"}, "lon": -77.02737466666666, "fusion_lat": 0.0, "is_disabled": 0, "is_reserved": 0, "lat": 38.881552666666664, "type": "electric_scooter"}, {"fusion_lon": 0.0, "bike_id": "ba0f7fbbd28b8609b857352caa48215d", "name": "ba0f7fbbd28b8609b857352caa48215d", "rental_uris": {"android": "https://dc.lft.to/lastmile_qr_scan", "ios": "https://dc.lft.to/lastmile_qr_scan"}, "lon": -77.0051585, "fusion_lat": 0.0, "is_disabled": 0, "is_reserved": 0, "lat": 38.87474, "type": "electric_scooter"}, {"fusion_lon": 0.0, "bike_id": "2b517e9397a4483067144d0e26e27666", "name": "2b517e9397a4483067144d0e26e27666", "rental_uris": {"android": "https://dc.lft.to/lastmile_qr_scan", "ios": "https://dc.lft.to/lastmile_qr_scan"}, "lon": -77.044567, "fusion_lat": 0.0, "is_disabled": 0, "is_reserved": 0, "lat": 38.905737333333335, "type": "electric_scooter"}, {"fusion_lon": 0.0, "bike_id": "3e43f6c69609ff03a4584a2b80a9442a", "name": "3e43f6c69609ff03a4584a2b80a9442a", "rental_uris": {"android": "https://dc.lft.to/lastmile_qr_scan", "ios": "https://dc.lft.to/lastmile_qr_scan"}, "lon": -77.031916, "fusion_lat": 0.0, "is_disabled": 0, "is_reserved": 0, "lat": 38.91595133333333, "type": "electric_scooter"}, {"fusion_lon": 0.0, "bike_id": "7c84aeee74cb6573ae592c5ca4a7b807", "name": "7c84aeee74cb6573ae592c5ca4a7b807", "rental_uris": {"android": "https://dc.lft.to/lastmile_qr_scan", "ios": "https://dc.lft.to/lastmile_qr_scan"}, "lon": -76.95882833333333, "fusion_lat": 0.0, "is_disabled": 0, "is_reserved": 0, "lat": 38.859496666666665, "type": "electric_scooter"}, {"fusion_lon": 0.0, "bike_id": "cc497f286b1f6488fc62040c3d895d2b", "name": "cc497f286b1f6488fc62040c3d895d2b", "rental_uris": {"android": "https://dc.lft.to/lastmile_qr_scan", "ios": "https://dc.lft.to/lastmile_qr_scan"}, "lon": -77.028559, "fusion_lat": 0.0, "is_disabled": 0, "is_reserved": 0, "lat": 38.961061, "type": "electric_scooter"}, {"fusion_lon": 0.0, "bike_id": "1ca12cd9fe58a6f266b1c7ebb19f92f3", "name": "1ca12cd9fe58a6f266b1c7ebb19f92f3", "rental_uris": {"android": "https://dc.lft.to/lastmile_qr_scan", "ios": "https://dc.lft.to/lastmile_qr_scan"}, "lon": -77.02571916666666, "fusion_lat": 0.0, "is_disabled": 0, "is_reserved": 0, "lat": 38.926849, "type": "electric_scooter"}, {"fusion_lon": 0.0, "bike_id": "ad182c58b0262ae8bea14d5770ea8c99", "name": "ad182c58b0262ae8bea14d5770ea8c99", "rental_uris": {"android": "https://dc.lft.to/lastmile_qr_scan", "ios": "https://dc.lft.to/lastmile_qr_scan"}, "lon": -77.01724933333334, "fusion_lat": 0.0, "is_disabled": 0, "is_reserved": 0, "lat": 38.89493383333333, "type": "electric_scooter"}, {"fusion_lon": 0.0, "bike_id": "cc787a8a6d094ebaba24dce042e7abf2", "name": "cc787a8a6d094ebaba24dce042e7abf2", "rental_uris": {"android": "https://dc.lft.to/lastmile_qr_scan", "ios": "https://dc.lft.to/lastmile_qr_scan"}, "lon": -76.95794083333334, "fusion_lat": 0.0, "is_disabled": 0, "is_reserved": 0, "lat": 38.980472166666665, "type": "electric_bike"}, {"fusion_lon": 0.0, "bike_id": "63a343e15ed2f3438d61ebdeac5e5458", "name": "63a343e15ed2f3438d61ebdeac5e5458", "rental_uris": {"android": "https://dc.lft.to/lastmile_qr_scan", "ios": "https://dc.lft.to/lastmile_qr_scan"}, "lon": -77.02253233333333, "fusion_lat": 0.0, "is_disabled": 0, "is_reserved": 0, "lat": 38.92272716666667, "type": "electric_scooter"}, {"fusion_lon": 0.0, "bike_id": "df4e519cd1feda263339019453e0ee84", "name": "df4e519cd1feda263339019453e0ee84", "rental_uris": {"android": "https://dc.lft.to/lastmile_qr_scan", "ios": "https://dc.lft.to/lastmile_qr_scan"}, "lon": -77.075446, "fusion_lat": 0.0, "is_disabled": 0, "is_reserved": 0, "lat": 38.91046983333333, "type": "electric_scooter"}, {"fusion_lon": 0.0, "bike_id": "a399792a01d9a6e2f6f9e401b53c45bf", "name": "a399792a01d9a6e2f6f9e401b53c45bf", "rental_uris": {"android": "https://dc.lft.to/lastmile_qr_scan", "ios": "https://dc.lft.to/lastmile_qr_scan"}, "lon": -77.03225633333334, "fusion_lat": 0.0, "is_disabled": 0, "is_reserved": 0, "lat": 38.910328, "type": "electric_scooter"}, {"fusion_lon": 0.0, "bike_id": "7983b0b4d0a0cd76973450bbec612f95", "name": "7983b0b4d0a0cd76973450bbec612f95", "rental_uris": {"android": "https://dc.lft.to/lastmile_qr_scan", "ios": "https://dc.lft.to/lastmile_qr_scan"}, "lon": -77.02589016666667, "fusion_lat": 0.0, "is_disabled": 0, "is_reserved": 0, "lat": 38.963965333333334, "type": "electric_scooter"}, {"fusion_lon": 0.0, "bike_id": "d828f5db0630e06dcd6d37030dec9a11", "name": "d828f5db0630e06dcd6d37030dec9a11", "rental_uris": {"android": "https://dc.lft.to/lastmile_qr_scan", "ios": "https://dc.lft.to/lastmile_qr_scan"}, "lon": -77.04198766666667, "fusion_lat": 0.0, "is_disabled": 0, "is_reserved": 0, "lat": 38.904917833333336, "type": "electric_scooter"}, {"fusion_lon": 0.0, "bike_id": "8ea09aa2ac497c4eca71f863435a65e9", "name": "8ea09aa2ac497c4eca71f863435a65e9", "rental_uris": {"android": "https://dc.lft.to/lastmile_qr_scan", "ios": "https://dc.lft.to/lastmile_qr_scan"}, "lon": -77.02523216666667, "fusion_lat": 0.0, "is_disabled": 0, "is_reserved": 0, "lat": 38.94199716666667, "type": "electric_scooter"}, {"fusion_lon": 0.0, "bike_id": "9965d8976bf415f6196055ab5476a962", "name": "9965d8976bf415f6196055ab5476a962", "rental_uris": {"android": "https://dc.lft.to/lastmile_qr_scan", "ios": "https://dc.lft.to/lastmile_qr_scan"}, "lon": -77.03374633333334, "fusion_lat": 0.0, "is_disabled": 0, "is_reserved": 0, "lat": 38.928765, "type": "electric_bike"}, {"fusion_lon": 0.0, "bike_id": "59896702765391f9a2a345adf65dbbe0", "name": "59896702765391f9a2a345adf65dbbe0", "rental_uris": {"android": "https://dc.lft.to/lastmile_qr_scan", "ios": "https://dc.lft.to/lastmile_qr_scan"}, "lon": -77.00382883333333, "fusion_lat": 0.0, "is_disabled": 0, "is_reserved": 0, "lat": 38.83609883333333, "type": "electric_bike"}, {"fusion_lon": 0.0, "bike_id": "ebbcd28387619c800d7a60c27ff499e8", "name": "ebbcd28387619c800d7a60c27ff499e8", "rental_uris": {"android": "https://dc.lft.to/lastmile_qr_scan", "ios": "https://dc.lft.to/lastmile_qr_scan"}, "lon": -76.99611083333333, "fusion_lat": 0.0, "is_disabled": 0, "is_reserved": 0, "lat": 38.894715166666664, "type": "electric_scooter"}, {"fusion_lon": 0.0, "bike_id": "1ae01259b746e81ae066f716efa363f6", "name": "1ae01259b746e81ae066f716efa363f6", "rental_uris": {"android": "https://dc.lft.to/lastmile_qr_scan", "ios": "https://dc.lft.to/lastmile_qr_scan"}, "lon": -76.99798083333333, "fusion_lat": 0.0, "is_disabled": 0, "is_reserved": 0, "lat": 38.90873, "type": "electric_scooter"}, {"fusion_lon": 0.0, "bike_id": "1f13b3db65ecd39fa09b59b7ebce5f14", "name": "1f13b3db65ecd39fa09b59b7ebce5f14", "rental_uris": {"android": "https://dc.lft.to/lastmile_qr_scan", "ios": "https://dc.lft.to/lastmile_qr_scan"}, "lon": -77.0289855, "fusion_lat": 0.0, "is_disabled": 0, "is_reserved": 0, "lat": 38.9168705, "type": "electric_scooter"}, {"fusion_lon": 0.0, "bike_id": "f998370a7072e33bea8266365b344986", "name": "f998370a7072e33bea8266365b344986", "rental_uris": {"android": "https://dc.lft.to/lastmile_qr_scan", "ios": "https://dc.lft.to/lastmile_qr_scan"}, "lon": -77.03504133333334, "fusion_lat": 0.0, "is_disabled": 0, "is_reserved": 0, "lat": 38.923443166666665, "type": "electric_scooter"}, {"fusion_lon": 0.0, "bike_id": "a0fb339581079604e405577ae1201d17", "name": "a0fb339581079604e405577ae1201d17", "rental_uris": {"android": "https://dc.lft.to/lastmile_qr_scan", "ios": "https://dc.lft.to/lastmile_qr_scan"}, "lon": -77.0195525, "fusion_lat": 0.0, "is_disabled": 0, "is_reserved": 0, "lat": 38.89257766666667, "type": "electric_scooter"}, {"fusion_lon": 0.0, "bike_id": "edcf924fad85f029084d8e1f4e779b5a", "name": "edcf924fad85f029084d8e1f4e779b5a", "rental_uris": {"android": "https://dc.lft.to/lastmile_qr_scan", "ios": "https://dc.lft.to/lastmile_qr_scan"}, "lon": -77.07462566666666, "fusion_lat": 0.0, "is_disabled": 0, "is_reserved": 0, "lat": 38.935625, "type": "electric_scooter"}, {"fusion_lon": 0.0, "bike_id": "c4785606e4bfb7d1121b8522537acff3", "name": "c4785606e4bfb7d1121b8522537acff3", "rental_uris": {"android": "https://dc.lft.to/lastmile_qr_scan", "ios": "https://dc.lft.to/lastmile_qr_scan"}, "lon": -77.03480466666667, "fusion_lat": 0.0, "is_disabled": 0, "is_reserved": 0, "lat": 38.90499633333334, "type": "electric_scooter"}, {"fusion_lon": 0.0, "bike_id": "d4ee3ad45a9cd86a65ff0751087fdd5d", "name": "d4ee3ad45a9cd86a65ff0751087fdd5d", "rental_uris": {"android": "https://dc.lft.to/lastmile_qr_scan", "ios": "https://dc.lft.to/lastmile_qr_scan"}, "lon": -77.01769116666667, "fusion_lat": 0.0, "is_disabled": 0, "is_reserved": 0, "lat": 38.906505333333335, "type": "electric_scooter"}, {"fusion_lon": 0.0, "bike_id": "444dea2419b060bafc1f84ab53829cb0", "name": "444dea2419b060bafc1f84ab53829cb0", "rental_uris": {"android": "https://dc.lft.to/lastmile_qr_scan", "ios": "https://dc.lft.to/lastmile_qr_scan"}, "lon": -76.9338485, "fusion_lat": 0.0, "is_disabled": 0, "is_reserved": 0, "lat": 38.89913166666667, "type": "electric_scooter"}, {"fusion_lon": 0.0, "bike_id": "c55132551949dc9c41175a3082edea7f", "name": "c55132551949dc9c41175a3082edea7f", "rental_uris": {"android": "https://dc.lft.to/lastmile_qr_scan", "ios": "https://dc.lft.to/lastmile_qr_scan"}, "lon": -77.02870366666667, "fusion_lat": 0.0, "is_disabled": 0, "is_reserved": 0, "lat": 38.90332766666667, "type": "electric_scooter"}, {"fusion_lon": 0.0, "bike_id": "04b805ada9461e69e69414fccc4760f9", "name": "04b805ada9461e69e69414fccc4760f9", "rental_uris": {"android": "https://dc.lft.to/lastmile_qr_scan", "ios": "https://dc.lft.to/lastmile_qr_scan"}, "lon": -77.00122416666666, "fusion_lat": 0.0, "is_disabled": 0, "is_reserved": 0, "lat": 38.876656833333335, "type": "electric_scooter"}, {"fusion_lon": 0.0, "bike_id": "529bc630434efe8922dddc4bed422245", "name": "529bc630434efe8922dddc4bed422245", "rental_uris": {"android": "https://dc.lft.to/lastmile_qr_scan", "ios": "https://dc.lft.to/lastmile_qr_scan"}, "lon": -77.02506466666667, "fusion_lat": 0.0, "is_disabled": 0, "is_reserved": 0, "lat": 38.919127833333334, "type": "electric_scooter"}, {"fusion_lon": 0.0, "bike_id": "e3167326accbfb450770ea049f415a08", "name": "e3167326accbfb450770ea049f415a08", "rental_uris": {"android": "https://dc.lft.to/lastmile_qr_scan", "ios": "https://dc.lft.to/lastmile_qr_scan"}, "lon": -77.00052833333334, "fusion_lat": 0.0, "is_disabled": 0, "is_reserved": 0, "lat": 38.874418166666665, "type": "electric_scooter"}, {"fusion_lon": 0.0, "bike_id": "d421e6084761b61031cafe9e204651f9", "name": "d421e6084761b61031cafe9e204651f9", "rental_uris": {"android": "https://dc.lft.to/lastmile_qr_scan", "ios": "https://dc.lft.to/lastmile_qr_scan"}, "lon": -77.04385816666667, "fusion_lat": 0.0, "is_disabled": 0, "is_reserved": 0, "lat": 38.921065, "type": "electric_scooter"}, {"fusion_lon": 0.0, "bike_id": "b71ee0da875a7aed5ab63f3a8cef0336", "name": "b71ee0da875a7aed5ab63f3a8cef0336", "rental_uris": {"android": "https://dc.lft.to/lastmile_qr_scan", "ios": "https://dc.lft.to/lastmile_qr_scan"}, "lon": -77.01877616666667, "fusion_lat": 0.0, "is_disabled": 0, "is_reserved": 0, "lat": 38.912660333333335, "type": "electric_scooter"}, {"fusion_lon": 0.0, "bike_id": "4dc06f84a3570fca99557dd0bf820fdd", "name": "4dc06f84a3570fca99557dd0bf820fdd", "rental_uris": {"android": "https://dc.lft.to/lastmile_qr_scan", "ios": "https://dc.lft.to/lastmile_qr_scan"}, "lon": -76.9996575, "fusion_lat": 0.0, "is_disabled": 0, "is_reserved": 0, "lat": 38.8942435, "type": "electric_scooter"}, {"fusion_lon": 0.0, "bike_id": "a7f60fbb3ad5c35064b4278056cc136c", "name": "a7f60fbb3ad5c35064b4278056cc136c", "rental_uris": {"android": "https://dc.lft.to/lastmile_qr_scan", "ios": "https://dc.lft.to/lastmile_qr_scan"}, "lon": -76.988419, "fusion_lat": 0.0, "is_disabled": 0, "is_reserved": 0, "lat": 38.8904365, "type": "electric_scooter"}, {"fusion_lon": 0.0, "bike_id": "fb8e74542611b9211ded4c401af838ab", "name": "fb8e74542611b9211ded4c401af838ab", "rental_uris": {"android": "https://dc.lft.to/lastmile_qr_scan", "ios": "https://dc.lft.to/lastmile_qr_scan"}, "lon": -77.05087733333333, "fusion_lat": 0.0, "is_disabled": 0, "is_reserved": 0, "lat": 38.813355666666666, "type": "electric_bike"}, {"fusion_lon": 0.0, "bike_id": "1351e7199bb262d71ed4c30429fb6189", "name": "1351e7199bb262d71ed4c30429fb6189", "rental_uris": {"android": "https://dc.lft.to/lastmile_qr_scan", "ios": "https://dc.lft.to/lastmile_qr_scan"}, "lon": -77.0125585, "fusion_lat": 0.0, "is_disabled": 0, "is_reserved": 0, "lat": 38.900099833333336, "type": "electric_scooter"}, {"fusion_lon": 0.0, "bike_id": "7beb01c1e9ad8edfc065b24640bf962b", "name": "7beb01c1e9ad8edfc065b24640bf962b", "rental_uris": {"android": "https://dc.lft.to/lastmile_qr_scan", "ios": "https://dc.lft.to/lastmile_qr_scan"}, "lon": -76.91066000000001, "fusion_lat": 0.0, "is_disabled": 0, "is_reserved": 0, "lat": 39.010834833333334, "type": "electric_bike"}, {"fusion_lon": 0.0, "bike_id": "78c0708d2ccb2b7bbd807387fd62a907", "name": "78c0708d2ccb2b7bbd807387fd62a907", "rental_uris": {"android": "https://dc.lft.to/lastmile_qr_scan", "ios": "https://dc.lft.to/lastmile_qr_scan"}, "lon": -77.03217033333334, "fusion_lat": 0.0, "is_disabled": 0, "is_reserved": 0, "lat": 38.901170666666665, "type": "electric_scooter"}, {"fusion_lon": 0.0, "bike_id": "2a28ac131b4c38d57492d287f4dc3fc0", "name": "2a28ac131b4c38d57492d287f4dc3fc0", "rental_uris": {"android": "https://dc.lft.to/lastmile_qr_scan", "ios": "https://dc.lft.to/lastmile_qr_scan"}, "lon": -77.03367116666666, "fusion_lat": 0.0, "is_disabled": 0, "is_reserved": 0, "lat": 38.94517883333333, "type": "electric_scooter"}, {"fusion_lon": 0.0, "bike_id": "af3fcfc7929f1c5fb7f6d1f4d38c2754", "name": "af3fcfc7929f1c5fb7f6d1f4d38c2754", "rental_uris": {"android": "https://dc.lft.to/lastmile_qr_scan", "ios": "https://dc.lft.to/lastmile_qr_scan"}, "lon": -77.0243435, "fusion_lat": 0.0, "is_disabled": 0, "is_reserved": 0, "lat": 38.9231, "type": "electric_bike"}, {"fusion_lon": 0.0, "bike_id": "80d35f790d791c7edcb2fd87f1ff5a22", "name": "80d35f790d791c7edcb2fd87f1ff5a22", "rental_uris": {"android": "https://dc.lft.to/lastmile_qr_scan", "ios": "https://dc.lft.to/lastmile_qr_scan"}, "lon": -77.01877283333333, "fusion_lat": 0.0, "is_disabled": 0, "is_reserved": 0, "lat": 38.90340316666666, "type": "electric_scooter"}, {"fusion_lon": 0.0, "bike_id": "2da304b58891ab9ee00090d3f809b705", "name": "2da304b58891ab9ee00090d3f809b705", "rental_uris": {"android": "https://dc.lft.to/lastmile_qr_scan", "ios": "https://dc.lft.to/lastmile_qr_scan"}, "lon": -77.02138383333333, "fusion_lat": 0.0, "is_disabled": 0, "is_reserved": 0, "lat": 38.91110066666667, "type": "electric_scooter"}, {"fusion_lon": 0.0, "bike_id": "d4188148d83945f08fa5366aa53764ad", "name": "d4188148d83945f08fa5366aa53764ad", "rental_uris": {"android": "https://dc.lft.to/lastmile_qr_scan", "ios": "https://dc.lft.to/lastmile_qr_scan"}, "lon": -76.99836833333333, "fusion_lat": 0.0, "is_disabled": 0, "is_reserved": 0, "lat": 38.9006305, "type": "electric_scooter"}, {"fusion_lon": 0.0, "bike_id": "a9825a3555ce43eafac3a582519ce74f", "name": "a9825a3555ce43eafac3a582519ce74f", "rental_uris": {"android": "https://dc.lft.to/lastmile_qr_scan", "ios": "https://dc.lft.to/lastmile_qr_scan"}, "lon": -77.02359683333333, "fusion_lat": 0.0, "is_disabled": 0, "is_reserved": 0, "lat": 38.9204825, "type": "electric_scooter"}, {"fusion_lon": 0.0, "bike_id": "2ffec722ba5ad8bfb6dc28f431a73eae", "name": "2ffec722ba5ad8bfb6dc28f431a73eae", "rental_uris": {"android": "https://dc.lft.to/lastmile_qr_scan", "ios": "https://dc.lft.to/lastmile_qr_scan"}, "lon": -77.02031616666666, "fusion_lat": 0.0, "is_disabled": 0, "is_reserved": 0, "lat": 38.924421833333334, "type": "electric_scooter"}, {"fusion_lon": 0.0, "bike_id": "ced0199bb4ee1940d43d9a8fdc22830d", "name": "ced0199bb4ee1940d43d9a8fdc22830d", "rental_uris": {"android": "https://dc.lft.to/lastmile_qr_scan", "ios": "https://dc.lft.to/lastmile_qr_scan"}, "lon": -77.038302, "fusion_lat": 0.0, "is_disabled": 0, "is_reserved": 0, "lat": 38.91265033333333, "type": "electric_scooter"}, {"fusion_lon": 0.0, "bike_id": "504104a51836f9ae59c6bff693a2970b", "name": "504104a51836f9ae59c6bff693a2970b", "rental_uris": {"android": "https://dc.lft.to/lastmile_qr_scan", "ios": "https://dc.lft.to/lastmile_qr_scan"}, "lon": -77.03844866666667, "fusion_lat": 0.0, "is_disabled": 0, "is_reserved": 0, "lat": 38.910459833333334, "type": "electric_scooter"}, {"fusion_lon": 0.0, "bike_id": "841039ecff81bcfd785d9954078bfd6f", "name": "841039ecff81bcfd785d9954078bfd6f", "rental_uris": {"android": "https://dc.lft.to/lastmile_qr_scan", "ios": "https://dc.lft.to/lastmile_qr_scan"}, "lon": -77.03391016666667, "fusion_lat": 0.0, "is_disabled": 0, "is_reserved": 0, "lat": 38.93842166666667, "type": "electric_scooter"}, {"fusion_lon": 0.0, "bike_id": "00b732de8ede0807b95f03229382ced8", "name": "00b732de8ede0807b95f03229382ced8", "rental_uris": {"android": "https://dc.lft.to/lastmile_qr_scan", "ios": "https://dc.lft.to/lastmile_qr_scan"}, "lon": -77.0435715, "fusion_lat": 0.0, "is_disabled": 0, "is_reserved": 0, "lat": 38.904253833333335, "type": "electric_scooter"}, {"fusion_lon": 0.0, "bike_id": "abd15e1caa2927c246409ae1fa34ebf6", "name": "abd15e1caa2927c246409ae1fa34ebf6", "rental_uris": {"android": "https://dc.lft.to/lastmile_qr_scan", "ios": "https://dc.lft.to/lastmile_qr_scan"}, "lon": -77.03019283333333, "fusion_lat": 0.0, "is_disabled": 0, "is_reserved": 0, "lat": 38.911961833333336, "type": "electric_scooter"}, {"fusion_lon": 0.0, "bike_id": "1ab2e2db5e8ea72409c4f7a2d0f4f1ff", "name": "1ab2e2db5e8ea72409c4f7a2d0f4f1ff", "rental_uris": {"android": "https://dc.lft.to/lastmile_qr_scan", "ios": "https://dc.lft.to/lastmile_qr_scan"}, "lon": -77.06380516666667, "fusion_lat": 0.0, "is_disabled": 0, "is_reserved": 0, "lat": 38.90608833333334, "type": "electric_scooter"}, {"fusion_lon": 0.0, "bike_id": "389e86c6613002b141f9a9e93e8ef945", "name": "389e86c6613002b141f9a9e93e8ef945", "rental_uris": {"android": "https://dc.lft.to/lastmile_qr_scan", "ios": "https://dc.lft.to/lastmile_qr_scan"}, "lon": -77.04541016666667, "fusion_lat": 0.0, "is_disabled": 0, "is_reserved": 0, "lat": 38.91113383333333, "type": "electric_scooter"}, {"fusion_lon": 0.0, "bike_id": "0bf66d17bb7b53a4568ecf3ad5a947a8", "name": "0bf66d17bb7b53a4568ecf3ad5a947a8", "rental_uris": {"android": "https://dc.lft.to/lastmile_qr_scan", "ios": "https://dc.lft.to/lastmile_qr_scan"}, "lon": -77.02844416666667, "fusion_lat": 0.0, "is_disabled": 0, "is_reserved": 0, "lat": 38.8863125, "type": "electric_scooter"}, {"fusion_lon": 0.0, "bike_id": "3d6787b37e5ad39a02f501b77d3c6182", "name": "3d6787b37e5ad39a02f501b77d3c6182", "rental_uris": {"android": "https://dc.lft.to/lastmile_qr_scan", "ios": "https://dc.lft.to/lastmile_qr_scan"}, "lon": -77.21020083333333, "fusion_lat": 0.0, "is_disabled": 0, "is_reserved": 0, "lat": 38.925989, "type": "electric_bike"}, {"fusion_lon": 0.0, "bike_id": "5f4cb62344f4aaa31cb080233317311d", "name": "5f4cb62344f4aaa31cb080233317311d", "rental_uris": {"android": "https://dc.lft.to/lastmile_qr_scan", "ios": "https://dc.lft.to/lastmile_qr_scan"}, "lon": -77.02215783333334, "fusion_lat": 0.0, "is_disabled": 0, "is_reserved": 0, "lat": 38.91058116666667, "type": "electric_scooter"}, {"fusion_lon": 0.0, "bike_id": "74eec50069df29206274602977163f15", "name": "74eec50069df29206274602977163f15", "rental_uris": {"android": "https://dc.lft.to/lastmile_qr_scan", "ios": "https://dc.lft.to/lastmile_qr_scan"}, "lon": -77.0006545, "fusion_lat": 0.0, "is_disabled": 0, "is_reserved": 0, "lat": 38.90724383333333, "type": "electric_scooter"}, {"fusion_lon": 0.0, "bike_id": "6cc73d07721d5a43d3b7045abce9cf38", "name": "6cc73d07721d5a43d3b7045abce9cf38", "rental_uris": {"android": "https://dc.lft.to/lastmile_qr_scan", "ios": "https://dc.lft.to/lastmile_qr_scan"}, "lon": -77.02381633333333, "fusion_lat": 0.0, "is_disabled": 0, "is_reserved": 0, "lat": 38.887390833333335, "type": "electric_scooter"}, {"fusion_lon": 0.0, "bike_id": "042936b7a6cf0705645a840592141569", "name": "042936b7a6cf0705645a840592141569", "rental_uris": {"android": "https://dc.lft.to/lastmile_qr_scan", "ios": "https://dc.lft.to/lastmile_qr_scan"}, "lon": -77.03846683333333, "fusion_lat": 0.0, "is_disabled": 0, "is_reserved": 0, "lat": 38.9419665, "type": "electric_scooter"}, {"fusion_lon": 0.0, "bike_id": "bbfcd49f7d6388b192c97c462aafa886", "name": "bbfcd49f7d6388b192c97c462aafa886", "rental_uris": {"android": "https://dc.lft.to/lastmile_qr_scan", "ios": "https://dc.lft.to/lastmile_qr_scan"}, "lon": -77.02047883333333, "fusion_lat": 0.0, "is_disabled": 0, "is_reserved": 0, "lat": 38.91909966666667, "type": "electric_scooter"}, {"fusion_lon": 0.0, "bike_id": "bb6cb748364465833ce832b20cac6773", "name": "bb6cb748364465833ce832b20cac6773", "rental_uris": {"android": "https://dc.lft.to/lastmile_qr_scan", "ios": "https://dc.lft.to/lastmile_qr_scan"}, "lon": -76.9835685, "fusion_lat": 0.0, "is_disabled": 0, "is_reserved": 0, "lat": 38.88733383333334, "type": "electric_scooter"}, {"fusion_lon": 0.0, "bike_id": "50a4ad70d697df2213560daa70af52a3", "name": "50a4ad70d697df2213560daa70af52a3", "rental_uris": {"android": "https://dc.lft.to/lastmile_qr_scan", "ios": "https://dc.lft.to/lastmile_qr_scan"}, "lon": -77.03800333333334, "fusion_lat": 0.0, "is_disabled": 0, "is_reserved": 0, "lat": 38.911951, "type": "electric_scooter"}, {"fusion_lon": 0.0, "bike_id": "88bc6bff50054a136bd74e50d40d2afd", "name": "88bc6bff50054a136bd74e50d40d2afd", "rental_uris": {"android": "https://dc.lft.to/lastmile_qr_scan", "ios": "https://dc.lft.to/lastmile_qr_scan"}, "lon": -76.986677, "fusion_lat": 0.0, "is_disabled": 0, "is_reserved": 0, "lat": 38.9069195, "type": "electric_scooter"}, {"fusion_lon": 0.0, "bike_id": "091acc50abd77062d3fa516dba704edd", "name": "091acc50abd77062d3fa516dba704edd", "rental_uris": {"android": "https://dc.lft.to/lastmile_qr_scan", "ios": "https://dc.lft.to/lastmile_qr_scan"}, "lon": -77.02708316666667, "fusion_lat": 0.0, "is_disabled": 0, "is_reserved": 0, "lat": 38.91797616666667, "type": "electric_scooter"}, {"fusion_lon": 0.0, "bike_id": "e1c7bce695c45bb8db59b6d3268cdd3b", "name": "e1c7bce695c45bb8db59b6d3268cdd3b", "rental_uris": {"android": "https://dc.lft.to/lastmile_qr_scan", "ios": "https://dc.lft.to/lastmile_qr_scan"}, "lon": -77.0470695, "fusion_lat": 0.0, "is_disabled": 0, "is_reserved": 0, "lat": 38.91271966666667, "type": "electric_scooter"}, {"fusion_lon": 0.0, "bike_id": "8fc67b7f5e8d58e88b3a6245ed0a951e", "name": "8fc67b7f5e8d58e88b3a6245ed0a951e", "rental_uris": {"android": "https://dc.lft.to/lastmile_qr_scan", "ios": "https://dc.lft.to/lastmile_qr_scan"}, "lon": -76.97606833333333, "fusion_lat": 0.0, "is_disabled": 0, "is_reserved": 0, "lat": 38.903830166666665, "type": "electric_scooter"}, {"fusion_lon": 0.0, "bike_id": "95e3f6741ebaed488f43756b3d0467a7", "name": "95e3f6741ebaed488f43756b3d0467a7", "rental_uris": {"android": "https://dc.lft.to/lastmile_qr_scan", "ios": "https://dc.lft.to/lastmile_qr_scan"}, "lon": -76.96977033333333, "fusion_lat": 0.0, "is_disabled": 0, "is_reserved": 0, "lat": 38.873859, "type": "electric_scooter"}, {"fusion_lon": 0.0, "bike_id": "970ba1d059f616264b830799eefddd15", "name": "970ba1d059f616264b830799eefddd15", "rental_uris": {"android": "https://dc.lft.to/lastmile_qr_scan", "ios": "https://dc.lft.to/lastmile_qr_scan"}, "lon": -77.07304183333333, "fusion_lat": 0.0, "is_disabled": 0, "is_reserved": 0, "lat": 38.929141, "type": "electric_scooter"}, {"fusion_lon": 0.0, "bike_id": "fb33c0e8cc92919f5f094cd264099875", "name": "fb33c0e8cc92919f5f094cd264099875", "rental_uris": {"android": "https://dc.lft.to/lastmile_qr_scan", "ios": "https://dc.lft.to/lastmile_qr_scan"}, "lon": -77.0255645, "fusion_lat": 0.0, "is_disabled": 0, "is_reserved": 0, "lat": 38.948375166666665, "type": "electric_scooter"}, {"fusion_lon": 0.0, "bike_id": "cf8c2d4e0b40c71dbda1b6670a1015ca", "name": "cf8c2d4e0b40c71dbda1b6670a1015ca", "rental_uris": {"android": "https://dc.lft.to/lastmile_qr_scan", "ios": "https://dc.lft.to/lastmile_qr_scan"}, "lon": -77.0057735, "fusion_lat": 0.0, "is_disabled": 0, "is_reserved": 0, "lat": 38.929371833333335, "type": "electric_scooter"}, {"fusion_lon": 0.0, "bike_id": "6083c5b4574adb2ef2cdc3357b0401bc", "name": "6083c5b4574adb2ef2cdc3357b0401bc", "rental_uris": {"android": "https://dc.lft.to/lastmile_qr_scan", "ios": "https://dc.lft.to/lastmile_qr_scan"}, "lon": -77.0175985, "fusion_lat": 0.0, "is_disabled": 0, "is_reserved": 0, "lat": 38.883338, "type": "electric_scooter"}, {"fusion_lon": 0.0, "bike_id": "964a6f0248604e25d30cd5249fa8f624", "name": "964a6f0248604e25d30cd5249fa8f624", "rental_uris": {"android": "https://dc.lft.to/lastmile_qr_scan", "ios": "https://dc.lft.to/lastmile_qr_scan"}, "lon": -77.022088, "fusion_lat": 0.0, "is_disabled": 0, "is_reserved": 0, "lat": 38.90558333333333, "type": "electric_scooter"}, {"fusion_lon": 0.0, "bike_id": "bd17b2b07bc1d092a74632c46a5660c9", "name": "bd17b2b07bc1d092a74632c46a5660c9", "rental_uris": {"android": "https://dc.lft.to/lastmile_qr_scan", "ios": "https://dc.lft.to/lastmile_qr_scan"}, "lon": -77.03293533333333, "fusion_lat": 0.0, "is_disabled": 0, "is_reserved": 0, "lat": 38.89909033333333, "type": "electric_scooter"}, {"fusion_lon": 0.0, "bike_id": "de752d1cc3b616258cadb89eb7e066c9", "name": "de752d1cc3b616258cadb89eb7e066c9", "rental_uris": {"android": "https://dc.lft.to/lastmile_qr_scan", "ios": "https://dc.lft.to/lastmile_qr_scan"}, "lon": -77.04676616666667, "fusion_lat": 0.0, "is_disabled": 0, "is_reserved": 0, "lat": 38.89272966666667, "type": "electric_scooter"}, {"fusion_lon": 0.0, "bike_id": "fc706e9667bea2f3c2e664e4ba1c4ad2", "name": "fc706e9667bea2f3c2e664e4ba1c4ad2", "rental_uris": {"android": "https://dc.lft.to/lastmile_qr_scan", "ios": "https://dc.lft.to/lastmile_qr_scan"}, "lon": -77.0465325, "fusion_lat": 0.0, "is_disabled": 0, "is_reserved": 0, "lat": 38.89226133333333, "type": "electric_scooter"}, {"fusion_lon": 0.0, "bike_id": "a6ba9e6a2b6b97fc6a4d041b8197d564", "name": "a6ba9e6a2b6b97fc6a4d041b8197d564", "rental_uris": {"android": "https://dc.lft.to/lastmile_qr_scan", "ios": "https://dc.lft.to/lastmile_qr_scan"}, "lon": -77.02095416666667, "fusion_lat": 0.0, "is_disabled": 0, "is_reserved": 0, "lat": 38.92713, "type": "electric_scooter"}, {"fusion_lon": 0.0, "bike_id": "76e29aa182a214dcb95bd4eacaa05965", "name": "76e29aa182a214dcb95bd4eacaa05965", "rental_uris": {"android": "https://dc.lft.to/lastmile_qr_scan", "ios": "https://dc.lft.to/lastmile_qr_scan"}, "lon": -77.0348655, "fusion_lat": 0.0, "is_disabled": 0, "is_reserved": 0, "lat": 38.9309655, "type": "electric_scooter"}, {"fusion_lon": 0.0, "bike_id": "2975bdc37e5e5e8ef837fbb881bd2464", "name": "2975bdc37e5e5e8ef837fbb881bd2464", "rental_uris": {"android": "https://dc.lft.to/lastmile_qr_scan", "ios": "https://dc.lft.to/lastmile_qr_scan"}, "lon": -77.01226666666666, "fusion_lat": 0.0, "is_disabled": 0, "is_reserved": 0, "lat": 38.9143935, "type": "electric_scooter"}, {"fusion_lon": 0.0, "bike_id": "f467eb74e50a816acdfb9ad802faeef2", "name": "f467eb74e50a816acdfb9ad802faeef2", "rental_uris": {"android": "https://dc.lft.to/lastmile_qr_scan", "ios": "https://dc.lft.to/lastmile_qr_scan"}, "lon": -77.0062565, "fusion_lat": 0.0, "is_disabled": 0, "is_reserved": 0, "lat": 38.875792, "type": "electric_scooter"}, {"fusion_lon": 0.0, "bike_id": "14c7b69e92a68c4efca51ba7fcf5af10", "name": "14c7b69e92a68c4efca51ba7fcf5af10", "rental_uris": {"android": "https://dc.lft.to/lastmile_qr_scan", "ios": "https://dc.lft.to/lastmile_qr_scan"}, "lon": -77.031488, "fusion_lat": 0.0, "is_disabled": 0, "is_reserved": 0, "lat": 38.916525, "type": "electric_scooter"}, {"fusion_lon": 0.0, "bike_id": "05db3dd268706e7ef608fa3fc777039b", "name": "05db3dd268706e7ef608fa3fc777039b", "rental_uris": {"android": "https://dc.lft.to/lastmile_qr_scan", "ios": "https://dc.lft.to/lastmile_qr_scan"}, "lon": -77.03189033333334, "fusion_lat": 0.0, "is_disabled": 0, "is_reserved": 0, "lat": 38.913537, "type": "electric_scooter"}, {"fusion_lon": 0.0, "bike_id": "13da01f481874de8cd2c3667b19acaee", "name": "13da01f481874de8cd2c3667b19acaee", "rental_uris": {"android": "https://dc.lft.to/lastmile_qr_scan", "ios": "https://dc.lft.to/lastmile_qr_scan"}, "lon": -77.01743616666667, "fusion_lat": 0.0, "is_disabled": 0, "is_reserved": 0, "lat": 38.89226416666666, "type": "electric_scooter"}, {"fusion_lon": 0.0, "bike_id": "d0ee5dc63872288efc6a4c5e890b15e8", "name": "d0ee5dc63872288efc6a4c5e890b15e8", "rental_uris": {"android": "https://dc.lft.to/lastmile_qr_scan", "ios": "https://dc.lft.to/lastmile_qr_scan"}, "lon": -77.04655566666666, "fusion_lat": 0.0, "is_disabled": 0, "is_reserved": 0, "lat": 38.892261500000004, "type": "electric_scooter"}, {"fusion_lon": 0.0, "bike_id": "8850deba5811ad6319e658734b0284a2", "name": "8850deba5811ad6319e658734b0284a2", "rental_uris": {"android": "https://dc.lft.to/lastmile_qr_scan", "ios": "https://dc.lft.to/lastmile_qr_scan"}, "lon": -77.035439, "fusion_lat": 0.0, "is_disabled": 0, "is_reserved": 0, "lat": 38.926471666666664, "type": "electric_scooter"}, {"fusion_lon": 0.0, "bike_id": "6c99b6278a4c5598021c0387d6931b68", "name": "6c99b6278a4c5598021c0387d6931b68", "rental_uris": {"android": "https://dc.lft.to/lastmile_qr_scan", "ios": "https://dc.lft.to/lastmile_qr_scan"}, "lon": -77.09725066666667, "fusion_lat": 0.0, "is_disabled": 0, "is_reserved": 0, "lat": 38.80741, "type": "electric_bike"}, {"fusion_lon": 0.0, "bike_id": "c680c7b936bb0ce4c8e614831d1fa924", "name": "c680c7b936bb0ce4c8e614831d1fa924", "rental_uris": {"android": "https://dc.lft.to/lastmile_qr_scan", "ios": "https://dc.lft.to/lastmile_qr_scan"}, "lon": -77.04268233333333, "fusion_lat": 0.0, "is_disabled": 0, "is_reserved": 0, "lat": 38.90424216666667, "type": "electric_scooter"}, {"fusion_lon": 0.0, "bike_id": "65462f8b42fd4928216bf8270481f956", "name": "65462f8b42fd4928216bf8270481f956", "rental_uris": {"android": "https://dc.lft.to/lastmile_qr_scan", "ios": "https://dc.lft.to/lastmile_qr_scan"}, "lon": -77.038314, "fusion_lat": 0.0, "is_disabled": 0, "is_reserved": 0, "lat": 38.918986333333336, "type": "electric_scooter"}, {"fusion_lon": 0.0, "bike_id": "37b1ecb1a38d5c5415f1cd2d44815a9e", "name": "37b1ecb1a38d5c5415f1cd2d44815a9e", "rental_uris": {"android": "https://dc.lft.to/lastmile_qr_scan", "ios": "https://dc.lft.to/lastmile_qr_scan"}, "lon": -77.0318595, "fusion_lat": 0.0, "is_disabled": 0, "is_reserved": 0, "lat": 38.913494166666666, "type": "electric_scooter"}, {"fusion_lon": 0.0, "bike_id": "c5fb2f7166199385b794a8a8578dadf8", "name": "c5fb2f7166199385b794a8a8578dadf8", "rental_uris": {"android": "https://dc.lft.to/lastmile_qr_scan", "ios": "https://dc.lft.to/lastmile_qr_scan"}, "lon": -77.00293233333333, "fusion_lat": 0.0, "is_disabled": 0, "is_reserved": 0, "lat": 38.892047166666664, "type": "electric_scooter"}, {"fusion_lon": 0.0, "bike_id": "edfd94fc52f20858b4c92af3b9daeade", "name": "edfd94fc52f20858b4c92af3b9daeade", "rental_uris": {"android": "https://dc.lft.to/lastmile_qr_scan", "ios": "https://dc.lft.to/lastmile_qr_scan"}, "lon": -77.0067685, "fusion_lat": 0.0, "is_disabled": 0, "is_reserved": 0, "lat": 38.90016516666667, "type": "electric_scooter"}, {"fusion_lon": 0.0, "bike_id": "8aa9fcf0bac8284c6850e38a156b4d49", "name": "8aa9fcf0bac8284c6850e38a156b4d49", "rental_uris": {"android": "https://dc.lft.to/lastmile_qr_scan", "ios": "https://dc.lft.to/lastmile_qr_scan"}, "lon": -77.06758783333333, "fusion_lat": 0.0, "is_disabled": 0, "is_reserved": 0, "lat": 38.841991, "type": "electric_bike"}, {"fusion_lon": 0.0, "bike_id": "d5c247d2752cbd922adb4aa9948b87a5", "name": "d5c247d2752cbd922adb4aa9948b87a5", "rental_uris": {"android": "https://dc.lft.to/lastmile_qr_scan", "ios": "https://dc.lft.to/lastmile_qr_scan"}, "lon": -76.9694335, "fusion_lat": 0.0, "is_disabled": 0, "is_reserved": 0, "lat": 38.951216, "type": "electric_bike"}, {"fusion_lon": 0.0, "bike_id": "f3093484d6dfffcbda947c0063a8fb9e", "name": "f3093484d6dfffcbda947c0063a8fb9e", "rental_uris": {"android": "https://dc.lft.to/lastmile_qr_scan", "ios": "https://dc.lft.to/lastmile_qr_scan"}, "lon": -77.00390366666667, "fusion_lat": 0.0, "is_disabled": 0, "is_reserved": 0, "lat": 38.87643716666667, "type": "electric_scooter"}, {"fusion_lon": 0.0, "bike_id": "355da310a555ded73b2d9c49368920a9", "name": "355da310a555ded73b2d9c49368920a9", "rental_uris": {"android": "https://dc.lft.to/lastmile_qr_scan", "ios": "https://dc.lft.to/lastmile_qr_scan"}, "lon": -77.20110716666667, "fusion_lat": 0.0, "is_disabled": 0, "is_reserved": 0, "lat": 38.8639615, "type": "electric_bike"}, {"fusion_lon": 0.0, "bike_id": "648c14cfb780b39bdf5e386e053e2493", "name": "648c14cfb780b39bdf5e386e053e2493", "rental_uris": {"android": "https://dc.lft.to/lastmile_qr_scan", "ios": "https://dc.lft.to/lastmile_qr_scan"}, "lon": -77.04334716666666, "fusion_lat": 0.0, "is_disabled": 0, "is_reserved": 0, "lat": 38.89226, "type": "electric_scooter"}, {"fusion_lon": 0.0, "bike_id": "12b0e967c3b584df37edc328cb0d1cbf", "name": "12b0e967c3b584df37edc328cb0d1cbf", "rental_uris": {"android": "https://dc.lft.to/lastmile_qr_scan", "ios": "https://dc.lft.to/lastmile_qr_scan"}, "lon": -77.03531916666667, "fusion_lat": 0.0, "is_disabled": 0, "is_reserved": 0, "lat": 38.907711, "type": "electric_scooter"}, {"fusion_lon": 0.0, "bike_id": "ec4faaa3b0430f7c8f58867a7a1661d4", "name": "ec4faaa3b0430f7c8f58867a7a1661d4", "rental_uris": {"android": "https://dc.lft.to/lastmile_qr_scan", "ios": "https://dc.lft.to/lastmile_qr_scan"}, "lon": -77.0251635, "fusion_lat": 0.0, "is_disabled": 0, "is_reserved": 0, "lat": 38.92081966666667, "type": "electric_scooter"}, {"fusion_lon": 0.0, "bike_id": "347c25789ea91b9de57205cf244bd60c", "name": "347c25789ea91b9de57205cf244bd60c", "rental_uris": {"android": "https://dc.lft.to/lastmile_qr_scan", "ios": "https://dc.lft.to/lastmile_qr_scan"}, "lon": -77.03333333333333, "fusion_lat": 0.0, "is_disabled": 0, "is_reserved": 0, "lat": 38.972196, "type": "electric_scooter"}, {"fusion_lon": 0.0, "bike_id": "6d5bb45c40196a4bba46b628d4153d2b", "name": "6d5bb45c40196a4bba46b628d4153d2b", "rental_uris": {"android": "https://dc.lft.to/lastmile_qr_scan", "ios": "https://dc.lft.to/lastmile_qr_scan"}, "lon": -77.04200133333333, "fusion_lat": 0.0, "is_disabled": 0, "is_reserved": 0, "lat": 38.89931, "type": "electric_scooter"}, {"fusion_lon": 0.0, "bike_id": "9d73f3909da095105f7532e9ab8a3bf5", "name": "9d73f3909da095105f7532e9ab8a3bf5", "rental_uris": {"android": "https://dc.lft.to/lastmile_qr_scan", "ios": "https://dc.lft.to/lastmile_qr_scan"}, "lon": -77.00924683333334, "fusion_lat": 0.0, "is_disabled": 0, "is_reserved": 0, "lat": 38.89589516666667, "type": "electric_scooter"}, {"fusion_lon": 0.0, "bike_id": "dfb26588278b7d626ff39e0bf6186f46", "name": "dfb26588278b7d626ff39e0bf6186f46", "rental_uris": {"android": "https://dc.lft.to/lastmile_qr_scan", "ios": "https://dc.lft.to/lastmile_qr_scan"}, "lon": -77.031566, "fusion_lat": 0.0, "is_disabled": 0, "is_reserved": 0, "lat": 38.915641, "type": "electric_scooter"}, {"fusion_lon": 0.0, "bike_id": "f6c6e6e8413d92f315831e7bbb457b06", "name": "f6c6e6e8413d92f315831e7bbb457b06", "rental_uris": {"android": "https://dc.lft.to/lastmile_qr_scan", "ios": "https://dc.lft.to/lastmile_qr_scan"}, "lon": -77.00494583333334, "fusion_lat": 0.0, "is_disabled": 0, "is_reserved": 0, "lat": 38.8969235, "type": "electric_scooter"}, {"fusion_lon": 0.0, "bike_id": "01a9d2a20978c1307dc9a0ee92547391", "name": "01a9d2a20978c1307dc9a0ee92547391", "rental_uris": {"android": "https://dc.lft.to/lastmile_qr_scan", "ios": "https://dc.lft.to/lastmile_qr_scan"}, "lon": -77.05149083333333, "fusion_lat": 0.0, "is_disabled": 0, "is_reserved": 0, "lat": 38.90510116666667, "type": "electric_scooter"}, {"fusion_lon": 0.0, "bike_id": "d3c2d896e546035a16144fd91f356126", "name": "d3c2d896e546035a16144fd91f356126", "rental_uris": {"android": "https://dc.lft.to/lastmile_qr_scan", "ios": "https://dc.lft.to/lastmile_qr_scan"}, "lon": -77.023512, "fusion_lat": 0.0, "is_disabled": 0, "is_reserved": 0, "lat": 38.93176033333334, "type": "electric_scooter"}, {"fusion_lon": 0.0, "bike_id": "e53583ff893e39f794f113882a735d49", "name": "e53583ff893e39f794f113882a735d49", "rental_uris": {"android": "https://dc.lft.to/lastmile_qr_scan", "ios": "https://dc.lft.to/lastmile_qr_scan"}, "lon": -77.04335216666666, "fusion_lat": 0.0, "is_disabled": 0, "is_reserved": 0, "lat": 38.922236833333336, "type": "electric_scooter"}, {"fusion_lon": 0.0, "bike_id": "255c5e1cf85efe3a677282e510537d62", "name": "255c5e1cf85efe3a677282e510537d62", "rental_uris": {"android": "https://dc.lft.to/lastmile_qr_scan", "ios": "https://dc.lft.to/lastmile_qr_scan"}, "lon": -77.03769033333333, "fusion_lat": 0.0, "is_disabled": 0, "is_reserved": 0, "lat": 38.90773733333333, "type": "electric_scooter"}, {"fusion_lon": 0.0, "bike_id": "ce187fe08c59ca7c8d90599ac4f11fb7", "name": "ce187fe08c59ca7c8d90599ac4f11fb7", "rental_uris": {"android": "https://dc.lft.to/lastmile_qr_scan", "ios": "https://dc.lft.to/lastmile_qr_scan"}, "lon": -77.04179633333334, "fusion_lat": 0.0, "is_disabled": 0, "is_reserved": 0, "lat": 38.917388, "type": "electric_scooter"}, {"fusion_lon": 0.0, "bike_id": "17d1ef7448ebdd91b6c352df540b2e4a", "name": "17d1ef7448ebdd91b6c352df540b2e4a", "rental_uris": {"android": "https://dc.lft.to/lastmile_qr_scan", "ios": "https://dc.lft.to/lastmile_qr_scan"}, "lon": -77.017823, "fusion_lat": 0.0, "is_disabled": 0, "is_reserved": 0, "lat": 38.885938333333335, "type": "electric_bike"}, {"fusion_lon": 0.0, "bike_id": "a8b29013a1d6bd2f3d5a3ef373d26b24", "name": "a8b29013a1d6bd2f3d5a3ef373d26b24", "rental_uris": {"android": "https://dc.lft.to/lastmile_qr_scan", "ios": "https://dc.lft.to/lastmile_qr_scan"}, "lon": -77.01973233333334, "fusion_lat": 0.0, "is_disabled": 0, "is_reserved": 0, "lat": 38.9226065, "type": "electric_scooter"}, {"fusion_lon": 0.0, "bike_id": "f68de3ab73bc2adcff180b40d3b2b713", "name": "f68de3ab73bc2adcff180b40d3b2b713", "rental_uris": {"android": "https://dc.lft.to/lastmile_qr_scan", "ios": "https://dc.lft.to/lastmile_qr_scan"}, "lon": -77.05272, "fusion_lat": 0.0, "is_disabled": 0, "is_reserved": 0, "lat": 38.927647, "type": "electric_scooter"}, {"fusion_lon": 0.0, "bike_id": "b9d97ec79c939c9d81684435f0db46cb", "name": "b9d97ec79c939c9d81684435f0db46cb", "rental_uris": {"android": "https://dc.lft.to/lastmile_qr_scan", "ios": "https://dc.lft.to/lastmile_qr_scan"}, "lon": -77.02977216666666, "fusion_lat": 0.0, "is_disabled": 0, "is_reserved": 0, "lat": 38.934852666666664, "type": "electric_scooter"}, {"fusion_lon": 0.0, "bike_id": "466b575d56bd0005eeb906e0964f0626", "name": "466b575d56bd0005eeb906e0964f0626", "rental_uris": {"android": "https://dc.lft.to/lastmile_qr_scan", "ios": "https://dc.lft.to/lastmile_qr_scan"}, "lon": -77.032047, "fusion_lat": 0.0, "is_disabled": 0, "is_reserved": 0, "lat": 38.9182555, "type": "electric_scooter"}, {"fusion_lon": 0.0, "bike_id": "a0a06453537027efb49338ceb2b7f8da", "name": "a0a06453537027efb49338ceb2b7f8da", "rental_uris": {"android": "https://dc.lft.to/lastmile_qr_scan", "ios": "https://dc.lft.to/lastmile_qr_scan"}, "lon": -77.021585, "fusion_lat": 0.0, "is_disabled": 0, "is_reserved": 0, "lat": 38.926035166666665, "type": "electric_scooter"}, {"fusion_lon": 0.0, "bike_id": "71dbd3976420e900d6cac77cf6265abb", "name": "71dbd3976420e900d6cac77cf6265abb", "rental_uris": {"android": "https://dc.lft.to/lastmile_qr_scan", "ios": "https://dc.lft.to/lastmile_qr_scan"}, "lon": -76.93178216666666, "fusion_lat": 0.0, "is_disabled": 0, "is_reserved": 0, "lat": 38.89888416666667, "type": "electric_scooter"}, {"fusion_lon": 0.0, "bike_id": "b2ce44f93a6580983c3e8ea23943ee20", "name": "b2ce44f93a6580983c3e8ea23943ee20", "rental_uris": {"android": "https://dc.lft.to/lastmile_qr_scan", "ios": "https://dc.lft.to/lastmile_qr_scan"}, "lon": -76.98437616666666, "fusion_lat": 0.0, "is_disabled": 0, "is_reserved": 0, "lat": 38.932765833333335, "type": "electric_scooter"}, {"fusion_lon": 0.0, "bike_id": "845de77c878b4298ddb5a00030eb38c6", "name": "845de77c878b4298ddb5a00030eb38c6", "rental_uris": {"android": "https://dc.lft.to/lastmile_qr_scan", "ios": "https://dc.lft.to/lastmile_qr_scan"}, "lon": -77.01987316666667, "fusion_lat": 0.0, "is_disabled": 0, "is_reserved": 0, "lat": 38.9241575, "type": "electric_scooter"}, {"fusion_lon": 0.0, "bike_id": "22079c4f9f20f05a77cb31126a963cf1", "name": "22079c4f9f20f05a77cb31126a963cf1", "rental_uris": {"android": "https://dc.lft.to/lastmile_qr_scan", "ios": "https://dc.lft.to/lastmile_qr_scan"}, "lon": -77.02800783333333, "fusion_lat": 0.0, "is_disabled": 0, "is_reserved": 0, "lat": 38.9445415, "type": "electric_scooter"}, {"fusion_lon": 0.0, "bike_id": "e73f0cfe373ff73ae05e7893762b6656", "name": "e73f0cfe373ff73ae05e7893762b6656", "rental_uris": {"android": "https://dc.lft.to/lastmile_qr_scan", "ios": "https://dc.lft.to/lastmile_qr_scan"}, "lon": -77.04245666666667, "fusion_lat": 0.0, "is_disabled": 0, "is_reserved": 0, "lat": 38.92199683333333, "type": "electric_scooter"}, {"fusion_lon": 0.0, "bike_id": "9e6d53d465b15dac0907e28c7ee7ca47", "name": "9e6d53d465b15dac0907e28c7ee7ca47", "rental_uris": {"android": "https://dc.lft.to/lastmile_qr_scan", "ios": "https://dc.lft.to/lastmile_qr_scan"}, "lon": -77.02379133333334, "fusion_lat": 0.0, "is_disabled": 0, "is_reserved": 0, "lat": 38.89202366666667, "type": "electric_scooter"}, {"fusion_lon": 0.0, "bike_id": "38774efd3417fce64f06119bab45ad9c", "name": "38774efd3417fce64f06119bab45ad9c", "rental_uris": {"android": "https://dc.lft.to/lastmile_qr_scan", "ios": "https://dc.lft.to/lastmile_qr_scan"}, "lon": -77.0076475, "fusion_lat": 0.0, "is_disabled": 0, "is_reserved": 0, "lat": 38.876838166666666, "type": "electric_scooter"}, {"fusion_lon": 0.0, "bike_id": "9d6055fef5ecd54b5c627293620a5cb7", "name": "9d6055fef5ecd54b5c627293620a5cb7", "rental_uris": {"android": "https://dc.lft.to/lastmile_qr_scan", "ios": "https://dc.lft.to/lastmile_qr_scan"}, "lon": -77.01890966666667, "fusion_lat": 0.0, "is_disabled": 0, "is_reserved": 0, "lat": 38.9227435, "type": "electric_scooter"}, {"fusion_lon": 0.0, "bike_id": "c90e49c85a2b2f85a32456e82bfa42d8", "name": "c90e49c85a2b2f85a32456e82bfa42d8", "rental_uris": {"android": "https://dc.lft.to/lastmile_qr_scan", "ios": "https://dc.lft.to/lastmile_qr_scan"}, "lon": -76.99570133333333, "fusion_lat": 0.0, "is_disabled": 0, "is_reserved": 0, "lat": 38.86270866666667, "type": "electric_scooter"}, {"fusion_lon": 0.0, "bike_id": "216e267b9c3ecbf3c14f8cbc045d14d1", "name": "216e267b9c3ecbf3c14f8cbc045d14d1", "rental_uris": {"android": "https://dc.lft.to/lastmile_qr_scan", "ios": "https://dc.lft.to/lastmile_qr_scan"}, "lon": -77.01904066666667, "fusion_lat": 0.0, "is_disabled": 0, "is_reserved": 0, "lat": 38.923466, "type": "electric_scooter"}, {"fusion_lon": 0.0, "bike_id": "43c87e5db1903db0d4943473e41a8859", "name": "43c87e5db1903db0d4943473e41a8859", "rental_uris": {"android": "https://dc.lft.to/lastmile_qr_scan", "ios": "https://dc.lft.to/lastmile_qr_scan"}, "lon": -77.02034583333334, "fusion_lat": 0.0, "is_disabled": 0, "is_reserved": 0, "lat": 38.922556166666666, "type": "electric_scooter"}, {"fusion_lon": 0.0, "bike_id": "817a74ac591d40ceb7b2499b4c9afe7e", "name": "817a74ac591d40ceb7b2499b4c9afe7e", "rental_uris": {"android": "https://dc.lft.to/lastmile_qr_scan", "ios": "https://dc.lft.to/lastmile_qr_scan"}, "lon": -77.03590133333333, "fusion_lat": 0.0, "is_disabled": 0, "is_reserved": 0, "lat": 38.91873533333333, "type": "electric_scooter"}, {"fusion_lon": 0.0, "bike_id": "edeb2c7256dbaf352007a2505cc61a12", "name": "edeb2c7256dbaf352007a2505cc61a12", "rental_uris": {"android": "https://dc.lft.to/lastmile_qr_scan", "ios": "https://dc.lft.to/lastmile_qr_scan"}, "lon": -77.08978883333333, "fusion_lat": 0.0, "is_disabled": 0, "is_reserved": 0, "lat": 38.9371205, "type": "electric_scooter"}, {"fusion_lon": 0.0, "bike_id": "a7c412e8850787dc0981ac6fa8157996", "name": "a7c412e8850787dc0981ac6fa8157996", "rental_uris": {"android": "https://dc.lft.to/lastmile_qr_scan", "ios": "https://dc.lft.to/lastmile_qr_scan"}, "lon": -77.02554516666666, "fusion_lat": 0.0, "is_disabled": 0, "is_reserved": 0, "lat": 38.924844, "type": "electric_scooter"}, {"fusion_lon": 0.0, "bike_id": "30645440860db24a5a0e29bc705525d2", "name": "30645440860db24a5a0e29bc705525d2", "rental_uris": {"android": "https://dc.lft.to/lastmile_qr_scan", "ios": "https://dc.lft.to/lastmile_qr_scan"}, "lon": -77.041513, "fusion_lat": 0.0, "is_disabled": 0, "is_reserved": 0, "lat": 38.9233935, "type": "electric_scooter"}, {"fusion_lon": 0.0, "bike_id": "e7a805e9f9bd5eb592dc0fd55d1f4047", "name": "e7a805e9f9bd5eb592dc0fd55d1f4047", "rental_uris": {"android": "https://dc.lft.to/lastmile_qr_scan", "ios": "https://dc.lft.to/lastmile_qr_scan"}, "lon": -77.05034283333333, "fusion_lat": 0.0, "is_disabled": 0, "is_reserved": 0, "lat": 39.038965833333336, "type": "electric_bike"}, {"fusion_lon": 0.0, "bike_id": "b4f54d863c486f80af4300468647df46", "name": "b4f54d863c486f80af4300468647df46", "rental_uris": {"android": "https://dc.lft.to/lastmile_qr_scan", "ios": "https://dc.lft.to/lastmile_qr_scan"}, "lon": -77.04126583333333, "fusion_lat": 0.0, "is_disabled": 0, "is_reserved": 0, "lat": 38.92307666666667, "type": "electric_scooter"}, {"fusion_lon": 0.0, "bike_id": "deb3724fc55478544dc04b27f54196ea", "name": "deb3724fc55478544dc04b27f54196ea", "rental_uris": {"android": "https://dc.lft.to/lastmile_qr_scan", "ios": "https://dc.lft.to/lastmile_qr_scan"}, "lon": -77.04711316666666, "fusion_lat": 0.0, "is_disabled": 0, "is_reserved": 0, "lat": 38.917062, "type": "electric_scooter"}, {"fusion_lon": 0.0, "bike_id": "9104b3bfd82b07812b738286b087e3a8", "name": "9104b3bfd82b07812b738286b087e3a8", "rental_uris": {"android": "https://dc.lft.to/lastmile_qr_scan", "ios": "https://dc.lft.to/lastmile_qr_scan"}, "lon": -77.01795183333333, "fusion_lat": 0.0, "is_disabled": 0, "is_reserved": 0, "lat": 38.90644066666667, "type": "electric_scooter"}, {"fusion_lon": 0.0, "bike_id": "7cd92f16d100ec312e5ecc8a0510e6af", "name": "7cd92f16d100ec312e5ecc8a0510e6af", "rental_uris": {"android": "https://dc.lft.to/lastmile_qr_scan", "ios": "https://dc.lft.to/lastmile_qr_scan"}, "lon": -76.96718666666666, "fusion_lat": 0.0, "is_disabled": 0, "is_reserved": 0, "lat": 38.86062833333333, "type": "electric_scooter"}, {"fusion_lon": 0.0, "bike_id": "50c7080be40726278aa1c5d440e5c126", "name": "50c7080be40726278aa1c5d440e5c126", "rental_uris": {"android": "https://dc.lft.to/lastmile_qr_scan", "ios": "https://dc.lft.to/lastmile_qr_scan"}, "lon": -77.04188033333334, "fusion_lat": 0.0, "is_disabled": 0, "is_reserved": 0, "lat": 38.92052733333333, "type": "electric_scooter"}, {"fusion_lon": 0.0, "bike_id": "e6e5fdc0646acc62e11515b394951360", "name": "e6e5fdc0646acc62e11515b394951360", "rental_uris": {"android": "https://dc.lft.to/lastmile_qr_scan", "ios": "https://dc.lft.to/lastmile_qr_scan"}, "lon": -77.02016466666667, "fusion_lat": 0.0, "is_disabled": 0, "is_reserved": 0, "lat": 38.901702666666665, "type": "electric_scooter"}, {"fusion_lon": 0.0, "bike_id": "febd98c3f8e0e2b47a87df2ed0d15c5c", "name": "febd98c3f8e0e2b47a87df2ed0d15c5c", "rental_uris": {"android": "https://dc.lft.to/lastmile_qr_scan", "ios": "https://dc.lft.to/lastmile_qr_scan"}, "lon": -77.03997333333334, "fusion_lat": 0.0, "is_disabled": 0, "is_reserved": 0, "lat": 38.90840766666667, "type": "electric_scooter"}, {"fusion_lon": 0.0, "bike_id": "870fd9df0a488eb834045e0b3215b9a1", "name": "870fd9df0a488eb834045e0b3215b9a1", "rental_uris": {"android": "https://dc.lft.to/lastmile_qr_scan", "ios": "https://dc.lft.to/lastmile_qr_scan"}, "lon": -77.04890916666666, "fusion_lat": 0.0, "is_disabled": 0, "is_reserved": 0, "lat": 38.89848083333333, "type": "electric_scooter"}, {"fusion_lon": 0.0, "bike_id": "9f1eb12d7eec33775f94c1c0a6d2a791", "name": "9f1eb12d7eec33775f94c1c0a6d2a791", "rental_uris": {"android": "https://dc.lft.to/lastmile_qr_scan", "ios": "https://dc.lft.to/lastmile_qr_scan"}, "lon": -77.04245316666666, "fusion_lat": 0.0, "is_disabled": 0, "is_reserved": 0, "lat": 38.92227533333333, "type": "electric_scooter"}, {"fusion_lon": 0.0, "bike_id": "8e69d9857dbe6a6f368882f34857dfa2", "name": "8e69d9857dbe6a6f368882f34857dfa2", "rental_uris": {"android": "https://dc.lft.to/lastmile_qr_scan", "ios": "https://dc.lft.to/lastmile_qr_scan"}, "lon": -76.93481433333334, "fusion_lat": 0.0, "is_disabled": 0, "is_reserved": 0, "lat": 38.891125, "type": "electric_bike"}, {"fusion_lon": 0.0, "bike_id": "44aeef3ca2b605b848130f1e725ecbdf", "name": "44aeef3ca2b605b848130f1e725ecbdf", "rental_uris": {"android": "https://dc.lft.to/lastmile_qr_scan", "ios": "https://dc.lft.to/lastmile_qr_scan"}, "lon": -77.023849, "fusion_lat": 0.0, "is_disabled": 0, "is_reserved": 0, "lat": 38.887336833333336, "type": "electric_scooter"}, {"fusion_lon": 0.0, "bike_id": "235bfdea33f854c3af87439caa70f737", "name": "235bfdea33f854c3af87439caa70f737", "rental_uris": {"android": "https://dc.lft.to/lastmile_qr_scan", "ios": "https://dc.lft.to/lastmile_qr_scan"}, "lon": -77.019649, "fusion_lat": 0.0, "is_disabled": 0, "is_reserved": 0, "lat": 38.95653733333333, "type": "electric_scooter"}, {"fusion_lon": 0.0, "bike_id": "92e72f734c3db7994cd4e2209ac70258", "name": "92e72f734c3db7994cd4e2209ac70258", "rental_uris": {"android": "https://dc.lft.to/lastmile_qr_scan", "ios": "https://dc.lft.to/lastmile_qr_scan"}, "lon": -77.0213355, "fusion_lat": 0.0, "is_disabled": 0, "is_reserved": 0, "lat": 38.93762733333333, "type": "electric_scooter"}, {"fusion_lon": 0.0, "bike_id": "46a23b8ede044101418908aecf00c2e3", "name": "46a23b8ede044101418908aecf00c2e3", "rental_uris": {"android": "https://dc.lft.to/lastmile_qr_scan", "ios": "https://dc.lft.to/lastmile_qr_scan"}, "lon": -77.02596216666667, "fusion_lat": 0.0, "is_disabled": 0, "is_reserved": 0, "lat": 38.91881016666667, "type": "electric_scooter"}, {"fusion_lon": 0.0, "bike_id": "025c1324edc23e41d198fd1d145334b0", "name": "025c1324edc23e41d198fd1d145334b0", "rental_uris": {"android": "https://dc.lft.to/lastmile_qr_scan", "ios": "https://dc.lft.to/lastmile_qr_scan"}, "lon": -77.023774, "fusion_lat": 0.0, "is_disabled": 0, "is_reserved": 0, "lat": 38.89198533333333, "type": "electric_scooter"}, {"fusion_lon": 0.0, "bike_id": "5c01b83f369136d988c33465d06d7574", "name": "5c01b83f369136d988c33465d06d7574", "rental_uris": {"android": "https://dc.lft.to/lastmile_qr_scan", "ios": "https://dc.lft.to/lastmile_qr_scan"}, "lon": -77.02610833333334, "fusion_lat": 0.0, "is_disabled": 0, "is_reserved": 0, "lat": 38.916819833333335, "type": "electric_scooter"}, {"fusion_lon": 0.0, "bike_id": "32b692a97466aa36333e44226ddf9854", "name": "32b692a97466aa36333e44226ddf9854", "rental_uris": {"android": "https://dc.lft.to/lastmile_qr_scan", "ios": "https://dc.lft.to/lastmile_qr_scan"}, "lon": -77.02995266666667, "fusion_lat": 0.0, "is_disabled": 0, "is_reserved": 0, "lat": 38.91713466666667, "type": "electric_scooter"}, {"fusion_lon": 0.0, "bike_id": "7797e74702f2117a6938e1eba869c5a4", "name": "7797e74702f2117a6938e1eba869c5a4", "rental_uris": {"android": "https://dc.lft.to/lastmile_qr_scan", "ios": "https://dc.lft.to/lastmile_qr_scan"}, "lon": -77.070135, "fusion_lat": 0.0, "is_disabled": 0, "is_reserved": 0, "lat": 38.906778333333335, "type": "electric_scooter"}, {"fusion_lon": 0.0, "bike_id": "59ce81bd6f976cb1645694eec42aa35b", "name": "59ce81bd6f976cb1645694eec42aa35b", "rental_uris": {"android": "https://dc.lft.to/lastmile_qr_scan", "ios": "https://dc.lft.to/lastmile_qr_scan"}, "lon": -77.00937, "fusion_lat": 0.0, "is_disabled": 0, "is_reserved": 0, "lat": 38.896106833333334, "type": "electric_scooter"}, {"fusion_lon": 0.0, "bike_id": "eb4973030c7d4e4593cb0e1f38539ad7", "name": "eb4973030c7d4e4593cb0e1f38539ad7", "rental_uris": {"android": "https://dc.lft.to/lastmile_qr_scan", "ios": "https://dc.lft.to/lastmile_qr_scan"}, "lon": -77.03540216666667, "fusion_lat": 0.0, "is_disabled": 0, "is_reserved": 0, "lat": 38.92589816666667, "type": "electric_scooter"}, {"fusion_lon": 0.0, "bike_id": "91734fb9a444d37834d8cb410ab26608", "name": "91734fb9a444d37834d8cb410ab26608", "rental_uris": {"android": "https://dc.lft.to/lastmile_qr_scan", "ios": "https://dc.lft.to/lastmile_qr_scan"}, "lon": -77.00825633333334, "fusion_lat": 0.0, "is_disabled": 0, "is_reserved": 0, "lat": 38.87633, "type": "electric_scooter"}, {"fusion_lon": 0.0, "bike_id": "0d5eb9879910fa858ccdaa0c4f93f09c", "name": "0d5eb9879910fa858ccdaa0c4f93f09c", "rental_uris": {"android": "https://dc.lft.to/lastmile_qr_scan", "ios": "https://dc.lft.to/lastmile_qr_scan"}, "lon": -77.03203016666667, "fusion_lat": 0.0, "is_disabled": 0, "is_reserved": 0, "lat": 38.916354, "type": "electric_scooter"}, {"fusion_lon": 0.0, "bike_id": "9daf0dd79b569a87f9e373f2303cff22", "name": "9daf0dd79b569a87f9e373f2303cff22", "rental_uris": {"android": "https://dc.lft.to/lastmile_qr_scan", "ios": "https://dc.lft.to/lastmile_qr_scan"}, "lon": -77.081856, "fusion_lat": 0.0, "is_disabled": 0, "is_reserved": 0, "lat": 38.9221425, "type": "electric_bike"}, {"fusion_lon": 0.0, "bike_id": "2632b6034fc725c45dc8d39e1bc61faf", "name": "2632b6034fc725c45dc8d39e1bc61faf", "rental_uris": {"android": "https://dc.lft.to/lastmile_qr_scan", "ios": "https://dc.lft.to/lastmile_qr_scan"}, "lon": -77.00895616666666, "fusion_lat": 0.0, "is_disabled": 0, "is_reserved": 0, "lat": 38.895522666666665, "type": "electric_scooter"}, {"fusion_lon": 0.0, "bike_id": "8f741d311ccb7edd6c369901726e02d1", "name": "8f741d311ccb7edd6c369901726e02d1", "rental_uris": {"android": "https://dc.lft.to/lastmile_qr_scan", "ios": "https://dc.lft.to/lastmile_qr_scan"}, "lon": -77.02410866666666, "fusion_lat": 0.0, "is_disabled": 0, "is_reserved": 0, "lat": 38.900597, "type": "electric_scooter"}, {"fusion_lon": 0.0, "bike_id": "ea5f785b5e4108a98906c0db69472087", "name": "ea5f785b5e4108a98906c0db69472087", "rental_uris": {"android": "https://dc.lft.to/lastmile_qr_scan", "ios": "https://dc.lft.to/lastmile_qr_scan"}, "lon": -77.032174, "fusion_lat": 0.0, "is_disabled": 0, "is_reserved": 0, "lat": 38.917346333333334, "type": "electric_scooter"}, {"fusion_lon": 0.0, "bike_id": "378d87523cd3961a4c6845050dbea246", "name": "378d87523cd3961a4c6845050dbea246", "rental_uris": {"android": "https://dc.lft.to/lastmile_qr_scan", "ios": "https://dc.lft.to/lastmile_qr_scan"}, "lon": -77.03942483333333, "fusion_lat": 0.0, "is_disabled": 0, "is_reserved": 0, "lat": 38.91611983333333, "type": "electric_scooter"}, {"fusion_lon": 0.0, "bike_id": "9d259a016e9338eda36640b1dbd71124", "name": "9d259a016e9338eda36640b1dbd71124", "rental_uris": {"android": "https://dc.lft.to/lastmile_qr_scan", "ios": "https://dc.lft.to/lastmile_qr_scan"}, "lon": -77.07346633333333, "fusion_lat": 0.0, "is_disabled": 0, "is_reserved": 0, "lat": 38.922601, "type": "electric_scooter"}, {"fusion_lon": 0.0, "bike_id": "8ef095bf94abc872bede67c82120747c", "name": "8ef095bf94abc872bede67c82120747c", "rental_uris": {"android": "https://dc.lft.to/lastmile_qr_scan", "ios": "https://dc.lft.to/lastmile_qr_scan"}, "lon": -77.0172265, "fusion_lat": 0.0, "is_disabled": 0, "is_reserved": 0, "lat": 38.892227166666665, "type": "electric_scooter"}, {"fusion_lon": 0.0, "bike_id": "6591bda6bdd694744cb17a241cb8684a", "name": "6591bda6bdd694744cb17a241cb8684a", "rental_uris": {"android": "https://dc.lft.to/lastmile_qr_scan", "ios": "https://dc.lft.to/lastmile_qr_scan"}, "lon": -76.99688866666666, "fusion_lat": 0.0, "is_disabled": 0, "is_reserved": 0, "lat": 38.888713, "type": "electric_bike"}, {"fusion_lon": 0.0, "bike_id": "efc7350df087e3f03677ed12731f577e", "name": "efc7350df087e3f03677ed12731f577e", "rental_uris": {"android": "https://dc.lft.to/lastmile_qr_scan", "ios": "https://dc.lft.to/lastmile_qr_scan"}, "lon": -76.99405316666666, "fusion_lat": 0.0, "is_disabled": 0, "is_reserved": 0, "lat": 38.877840166666665, "type": "electric_scooter"}, {"fusion_lon": 0.0, "bike_id": "64584e8404a792d660e3f95abe12c9eb", "name": "64584e8404a792d660e3f95abe12c9eb", "rental_uris": {"android": "https://dc.lft.to/lastmile_qr_scan", "ios": "https://dc.lft.to/lastmile_qr_scan"}, "lon": -77.03656083333334, "fusion_lat": 0.0, "is_disabled": 0, "is_reserved": 0, "lat": 38.916789333333334, "type": "electric_scooter"}, {"fusion_lon": 0.0, "bike_id": "07059dea7d53014ecf41a32285c23a50", "name": "07059dea7d53014ecf41a32285c23a50", "rental_uris": {"android": "https://dc.lft.to/lastmile_qr_scan", "ios": "https://dc.lft.to/lastmile_qr_scan"}, "lon": -77.03200916666667, "fusion_lat": 0.0, "is_disabled": 0, "is_reserved": 0, "lat": 38.91045483333333, "type": "electric_scooter"}, {"fusion_lon": 0.0, "bike_id": "06461358d14902fcd65f28c62e1e83c9", "name": "06461358d14902fcd65f28c62e1e83c9", "rental_uris": {"android": "https://dc.lft.to/lastmile_qr_scan", "ios": "https://dc.lft.to/lastmile_qr_scan"}, "lon": -76.99677516666667, "fusion_lat": 0.0, "is_disabled": 0, "is_reserved": 0, "lat": 38.856593833333335, "type": "electric_scooter"}, {"fusion_lon": 0.0, "bike_id": "70e4aa1ca7ce9ee002a5ee0811a6af38", "name": "70e4aa1ca7ce9ee002a5ee0811a6af38", "rental_uris": {"android": "https://dc.lft.to/lastmile_qr_scan", "ios": "https://dc.lft.to/lastmile_qr_scan"}, "lon": -77.02598083333334, "fusion_lat": 0.0, "is_disabled": 0, "is_reserved": 0, "lat": 38.917209666666665, "type": "electric_scooter"}, {"fusion_lon": 0.0, "bike_id": "a87f8721eab4f68316ac9e8b535bf14c", "name": "a87f8721eab4f68316ac9e8b535bf14c", "rental_uris": {"android": "https://dc.lft.to/lastmile_qr_scan", "ios": "https://dc.lft.to/lastmile_qr_scan"}, "lon": -77.09063433333333, "fusion_lat": 0.0, "is_disabled": 0, "is_reserved": 0, "lat": 38.93446316666667, "type": "electric_scooter"}, {"fusion_lon": 0.0, "bike_id": "b27abfc9f5bd1a640afb373b25a3bfe9", "name": "b27abfc9f5bd1a640afb373b25a3bfe9", "rental_uris": {"android": "https://dc.lft.to/lastmile_qr_scan", "ios": "https://dc.lft.to/lastmile_qr_scan"}, "lon": -77.04149833333334, "fusion_lat": 0.0, "is_disabled": 0, "is_reserved": 0, "lat": 38.899158666666665, "type": "electric_scooter"},