{"data": {"bikes": [{"bike_id": "5093e34cb5d2ad680fbfef6d7623a5a2", "type": "electric_scooter", "is_disabled": 0, "lat": 38.909407, "rental_uris": {"ios": "https://dc.lft.to/lastmile_qr_scan", "android": "https://dc.lft.to/lastmile_qr_scan"}, "is_reserved": 0, "fusion_lon": 0.0, "fusion_lat": 0.0, "lon": -76.9988815, "name": "5093e34cb5d2ad680fbfef6d7623a5a2"}, {"bike_id": "b4e575e138b98469edd45343159d7966", "type": "electric_scooter", "is_disabled": 0, "lat": 38.91037016666667, "rental_uris": {"ios": "https://dc.lft.to/lastmile_qr_scan", "android": "https://dc.lft.to/lastmile_qr_scan"}, "is_reserved": 0, "fusion_lon": 0.0, "fusion_lat": 0.0, "lon": -77.01282766666667, "name": "b4e575e138b98469edd45343159d7966"}, {"bike_id": "a1b96356ea53cbade8aeb559ee27e89b", "type": "electric_scooter", "is_disabled": 0, "lat": 38.90480633333333, "rental_uris": {"ios": "https://dc.lft.to/lastmile_qr_scan", "android": "https://dc.lft.to/lastmile_qr_scan"}, "is_reserved": 0, "fusion_lon": 0.0, "fusion_lat": 0.0, "lon": -76.94968666666666, "name": "a1b96356ea53cbade8aeb559ee27e89b"}, {"bike_id": "f222ddf7b0ae1e60a88336c53b255576", "type": "electric_bike", "is_disabled": 0, "lat": 38.951756833333334, "rental_uris": {"ios": "https://dc.lft.to/lastmile_qr_scan", "android": "https://dc.lft.to/lastmile_qr_scan"}, "is_reserved": 0, "fusion_lon": 0.0, "fusion_lat": 0.0, "lon": -76.97731033333334, "name": "f222ddf7b0ae1e60a88336c53b255576"}, {"bike_id": "31e87e3c030e26e5f1c8eb6e0298db37", "type": "electric_scooter", "is_disabled": 0, "lat": 38.922484833333336, "rental_uris": {"ios": "https://dc.lft.to/lastmile_qr_scan", "android": "https://dc.lft.to/lastmile_qr_scan"}, "is_reserved": 0, "fusion_lon": 0.0, "fusion_lat": 0.0, "lon": -77.02130283333334, "name": "31e87e3c030e26e5f1c8eb6e0298db37"}, {"bike_id": "4f1bd04c1a6518a5e5897a9bc215886a", "type": "electric_scooter", "is_disabled": 0, "lat": 38.918148, "rental_uris": {"ios": "https://dc.lft.to/lastmile_qr_scan", "android": "https://dc.lft.to/lastmile_qr_scan"}, "is_reserved": 0, "fusion_lon": 0.0, "fusion_lat": 0.0, "lon": -77.02474966666666, "name": "4f1bd04c1a6518a5e5897a9bc215886a"}, {"bike_id": "1cce3de8755383eeee6bef20aa876d1a", "type": "electric_scooter", "is_disabled": 0, "lat": 38.9367365, "rental_uris": {"ios": "https://dc.lft.to/lastmile_qr_scan", "android": "https://dc.lft.to/lastmile_qr_scan"}, "is_reserved": 0, "fusion_lon": 0.0, "fusion_lat": 0.0, "lon": -77.03568966666667, "name": "1cce3de8755383eeee6bef20aa876d1a"}, {"bike_id": "fdc2e0855e079bb7f4b7f7eeb7a6e378", "type": "electric_scooter", "is_disabled": 0, "lat": 38.862469833333336, "rental_uris": {"ios": "https://dc.lft.to/lastmile_qr_scan", "android": "https://dc.lft.to/lastmile_qr_scan"}, "is_reserved": 0, "fusion_lon": 0.0, "fusion_lat": 0.0, "lon": -76.99501133333334, "name": "fdc2e0855e079bb7f4b7f7eeb7a6e378"}, {"bike_id": "5e5d63d75eaf5d6adbd77c72628fdf4b", "type": "electric_scooter", "is_disabled": 0, "lat": 38.92845233333333, "rental_uris": {"ios": "https://dc.lft.to/lastmile_qr_scan", "android": "https://dc.lft.to/lastmile_qr_scan"}, "is_reserved": 0, "fusion_lon": 0.0, "fusion_lat": 0.0, "lon": -77.013931, "name": "5e5d63d75eaf5d6adbd77c72628fdf4b"}, {"bike_id": "500d362f9116740d855b7c1e2316db43", "type": "electric_scooter", "is_disabled": 0, "lat": 38.90659683333333, "rental_uris": {"ios": "https://dc.lft.to/lastmile_qr_scan", "android": "https://dc.lft.to/lastmile_qr_scan"}, "is_reserved": 0, "fusion_lon": 0.0, "fusion_lat": 0.0, "lon": -77.07114683333333, "name": "500d362f9116740d855b7c1e2316db43"}, {"bike_id": "cf2054a8938478aae6302517e05f0d5f", "type": "electric_scooter", "is_disabled": 0, "lat": 38.90100783333333, "rental_uris": {"ios": "https://dc.lft.to/lastmile_qr_scan", "android": "https://dc.lft.to/lastmile_qr_scan"}, "is_reserved": 0, "fusion_lon": 0.0, "fusion_lat": 0.0, "lon": -77.02402233333333, "name": "cf2054a8938478aae6302517e05f0d5f"}, {"bike_id": "babb4b29d37297ba183b979596333dad", "type": "electric_scooter", "is_disabled": 0, "lat": 38.92168266666667, "rental_uris": {"ios": "https://dc.lft.to/lastmile_qr_scan", "android": "https://dc.lft.to/lastmile_qr_scan"}, "is_reserved": 0, "fusion_lon": 0.0, "fusion_lat": 0.0, "lon": -77.04027716666667, "name": "babb4b29d37297ba183b979596333dad"}, {"bike_id": "18911f87fb56e6ff89db7246bfaed9b2", "type": "electric_scooter", "is_disabled": 0, "lat": 38.893566166666666, "rental_uris": {"ios": "https://dc.lft.to/lastmile_qr_scan", "android": "https://dc.lft.to/lastmile_qr_scan"}, "is_reserved": 0, "fusion_lon": 0.0, "fusion_lat": 0.0, "lon": -76.949353, "name": "18911f87fb56e6ff89db7246bfaed9b2"}, {"bike_id": "524154dfeb0d71c0a4a5a43cc0ae09f9", "type": "electric_scooter", "is_disabled": 0, "lat": 38.9141895, "rental_uris": {"ios": "https://dc.lft.to/lastmile_qr_scan", "android": "https://dc.lft.to/lastmile_qr_scan"}, "is_reserved": 0, "fusion_lon": 0.0, "fusion_lat": 0.0, "lon": -77.03904133333333, "name": "524154dfeb0d71c0a4a5a43cc0ae09f9"}, {"bike_id": "4565ca32870f91cdaf37c91444fd5457", "type": "electric_bike", "is_disabled": 0, "lat": 38.8238015, "rental_uris": {"ios": "https://dc.lft.to/lastmile_qr_scan", "android": "https://dc.lft.to/lastmile_qr_scan"}, "is_reserved": 0, "fusion_lon": 0.0, "fusion_lat": 0.0, "lon": -77.002283, "name": "4565ca32870f91cdaf37c91444fd5457"}, {"bike_id": "aff11d4809d9669fb3402f6e24b3f336", "type": "electric_scooter", "is_disabled": 0, "lat": 38.921269333333335, "rental_uris": {"ios": "https://dc.lft.to/lastmile_qr_scan", "android": "https://dc.lft.to/lastmile_qr_scan"}, "is_reserved": 0, "fusion_lon": 0.0, "fusion_lat": 0.0, "lon": -77.04427083333333, "name": "aff11d4809d9669fb3402f6e24b3f336"}, {"bike_id": "2ab81fe5b09001df10343a430a9aea3e", "type": "electric_scooter", "is_disabled": 0, "lat": 38.91563266666667, "rental_uris": {"ios": "https://dc.lft.to/lastmile_qr_scan", "android": "https://dc.lft.to/lastmile_qr_scan"}, "is_reserved": 0, "fusion_lon": 0.0, "fusion_lat": 0.0, "lon": -77.03190866666667, "name": "2ab81fe5b09001df10343a430a9aea3e"}, {"bike_id": "0681259e7bdfcdc11390f95f175ebcc5", "type": "electric_scooter", "is_disabled": 0, "lat": 38.877050833333335, "rental_uris": {"ios": "https://dc.lft.to/lastmile_qr_scan", "android": "https://dc.lft.to/lastmile_qr_scan"}, "is_reserved": 0, "fusion_lon": 0.0, "fusion_lat": 0.0, "lon": -77.01777116666666, "name": "0681259e7bdfcdc11390f95f175ebcc5"}, {"bike_id": "ab9a7dcf7a95c7951a78200899b15c97", "type": "electric_scooter", "is_disabled": 0, "lat": 38.90652516666667, "rental_uris": {"ios": "https://dc.lft.to/lastmile_qr_scan", "android": "https://dc.lft.to/lastmile_qr_scan"}, "is_reserved": 0, "fusion_lon": 0.0, "fusion_lat": 0.0, "lon": -77.04181066666666, "name": "ab9a7dcf7a95c7951a78200899b15c97"}, {"bike_id": "63877d446dd51c5a37462e02a7b4ac07", "type": "electric_bike", "is_disabled": 0, "lat": 38.82046116666667, "rental_uris": {"ios": "https://dc.lft.to/lastmile_qr_scan", "android": "https://dc.lft.to/lastmile_qr_scan"}, "is_reserved": 0, "fusion_lon": 0.0, "fusion_lat": 0.0, "lon": -77.05313133333334, "name": "63877d446dd51c5a37462e02a7b4ac07"}, {"bike_id": "58c9630dcf42c84a1296af0233879a9d", "type": "electric_scooter", "is_disabled": 0, "lat": 38.91536933333333, "rental_uris": {"ios": "https://dc.lft.to/lastmile_qr_scan", "android": "https://dc.lft.to/lastmile_qr_scan"}, "is_reserved": 0, "fusion_lon": 0.0, "fusion_lat": 0.0, "lon": -76.97017133333334, "name": "58c9630dcf42c84a1296af0233879a9d"}, {"bike_id": "b12705cbcf80c4313e89683497284cb3", "type": "electric_scooter", "is_disabled": 0, "lat": 38.92157683333333, "rental_uris": {"ios": "https://dc.lft.to/lastmile_qr_scan", "android": "https://dc.lft.to/lastmile_qr_scan"}, "is_reserved": 0, "fusion_lon": 0.0, "fusion_lat": 0.0, "lon": -77.03248416666666, "name": "b12705cbcf80c4313e89683497284cb3"}, {"bike_id": "dcbd452a9d2c94467bd32709e1834fc0", "type": "electric_scooter", "is_disabled": 0, "lat": 38.900091833333335, "rental_uris": {"ios": "https://dc.lft.to/lastmile_qr_scan", "android": "https://dc.lft.to/lastmile_qr_scan"}, "is_reserved": 0, "fusion_lon": 0.0, "fusion_lat": 0.0, "lon": -76.9961995, "name": "dcbd452a9d2c94467bd32709e1834fc0"}, {"bike_id": "f141306f83e3d16a12346c9af06167a8", "type": "electric_bike", "is_disabled": 0, "lat": 38.88238416666667, "rental_uris": {"ios": "https://dc.lft.to/lastmile_qr_scan", "android": "https://dc.lft.to/lastmile_qr_scan"}, "is_reserved": 0, "fusion_lon": 0.0, "fusion_lat": 0.0, "lon": -76.96255966666666, "name": "f141306f83e3d16a12346c9af06167a8"}, {"bike_id": "9e8812a926bef2876dc3de9a2661c010", "type": "electric_bike", "is_disabled": 0, "lat": 39.04304166666667, "rental_uris": {"ios": "https://dc.lft.to/lastmile_qr_scan", "android": "https://dc.lft.to/lastmile_qr_scan"}, "is_reserved": 0, "fusion_lon": 0.0, "fusion_lat": 0.0, "lon": -77.05158066666667, "name": "9e8812a926bef2876dc3de9a2661c010"}, {"bike_id": "171e23898b84d45b91d397630a31434e", "type": "electric_scooter", "is_disabled": 0, "lat": 38.917382833333335, "rental_uris": {"ios": "https://dc.lft.to/lastmile_qr_scan", "android": "https://dc.lft.to/lastmile_qr_scan"}, "is_reserved": 0, "fusion_lon": 0.0, "fusion_lat": 0.0, "lon": -77.04176466666667, "name": "171e23898b84d45b91d397630a31434e"}, {"bike_id": "acb3fbd60da3dbfa36124fea30f537c0", "type": "electric_scooter", "is_disabled": 0, "lat": 38.865088166666666, "rental_uris": {"ios": "https://dc.lft.to/lastmile_qr_scan", "android": "https://dc.lft.to/lastmile_qr_scan"}, "is_reserved": 0, "fusion_lon": 0.0, "fusion_lat": 0.0, "lon": -76.99013233333334, "name": "acb3fbd60da3dbfa36124fea30f537c0"}, {"bike_id": "002e4ef79b9a256749c39d6249e1c489", "type": "electric_scooter", "is_disabled": 0, "lat": 38.8898485, "rental_uris": {"ios": "https://dc.lft.to/lastmile_qr_scan", "android": "https://dc.lft.to/lastmile_qr_scan"}, "is_reserved": 0, "fusion_lon": 0.0, "fusion_lat": 0.0, "lon": -77.00038366666666, "name": "002e4ef79b9a256749c39d6249e1c489"}, {"bike_id": "c3e1ac68505fae4fa7e844af2b9b2fa6", "type": "electric_scooter", "is_disabled": 0, "lat": 38.874108666666665, "rental_uris": {"ios": "https://dc.lft.to/lastmile_qr_scan", "android": "https://dc.lft.to/lastmile_qr_scan"}, "is_reserved": 0, "fusion_lon": 0.0, "fusion_lat": 0.0, "lon": -76.97115233333334, "name": "c3e1ac68505fae4fa7e844af2b9b2fa6"}, {"bike_id": "b4fb9f104e35cc80a0cd637de6dcbf57", "type": "electric_scooter", "is_disabled": 0, "lat": 38.92721783333333, "rental_uris": {"ios": "https://dc.lft.to/lastmile_qr_scan", "android": "https://dc.lft.to/lastmile_qr_scan"}, "is_reserved": 0, "fusion_lon": 0.0, "fusion_lat": 0.0, "lon": -77.029662, "name": "b4fb9f104e35cc80a0cd637de6dcbf57"}, {"bike_id": "42e1bca570bad3e32ddae5a0d4700665", "type": "electric_scooter", "is_disabled": 0, "lat": 38.908273333333334, "rental_uris": {"ios": "https://dc.lft.to/lastmile_qr_scan", "android": "https://dc.lft.to/lastmile_qr_scan"}, "is_reserved": 0, "fusion_lon": 0.0, "fusion_lat": 0.0, "lon": -76.934504, "name": "42e1bca570bad3e32ddae5a0d4700665"}, {"bike_id": "58734919639ed93e8cb77424ccede32d", "type": "electric_scooter", "is_disabled": 0, "lat": 38.92070366666667, "rental_uris": {"ios": "https://dc.lft.to/lastmile_qr_scan", "android": "https://dc.lft.to/lastmile_qr_scan"}, "is_reserved": 0, "fusion_lon": 0.0, "fusion_lat": 0.0, "lon": -77.042134, "name": "58734919639ed93e8cb77424ccede32d"}, {"bike_id": "273e65491e8c86045ae54d4c1528a6d4", "type": "electric_bike", "is_disabled": 0, "lat": 38.88009383333333, "rental_uris": {"ios": "https://dc.lft.to/lastmile_qr_scan", "android": "https://dc.lft.to/lastmile_qr_scan"}, "is_reserved": 0, "fusion_lon": 0.0, "fusion_lat": 0.0, "lon": -77.10692583333334, "name": "273e65491e8c86045ae54d4c1528a6d4"}, {"bike_id": "981bc2f11a452a3cc5eed360adcdbd43", "type": "electric_scooter", "is_disabled": 0, "lat": 38.90093616666667, "rental_uris": {"ios": "https://dc.lft.to/lastmile_qr_scan", "android": "https://dc.lft.to/lastmile_qr_scan"}, "is_reserved": 0, "fusion_lon": 0.0, "fusion_lat": 0.0, "lon": -76.97644866666667, "name": "981bc2f11a452a3cc5eed360adcdbd43"}, {"bike_id": "8830b34d7659e632b1f1e9bc42eab321", "type": "electric_scooter", "is_disabled": 0, "lat": 38.892232166666666, "rental_uris": {"ios": "https://dc.lft.to/lastmile_qr_scan", "android": "https://dc.lft.to/lastmile_qr_scan"}, "is_reserved": 0, "fusion_lon": 0.0, "fusion_lat": 0.0, "lon": -77.025813, "name": "8830b34d7659e632b1f1e9bc42eab321"}, {"bike_id": "612c417eec37bb9d2ea9a5a3b9404b71", "type": "electric_scooter", "is_disabled": 0, "lat": 38.880999, "rental_uris": {"ios": "https://dc.lft.to/lastmile_qr_scan", "android": "https://dc.lft.to/lastmile_qr_scan"}, "is_reserved": 0, "fusion_lon": 0.0, "fusion_lat": 0.0, "lon": -76.9984825, "name": "612c417eec37bb9d2ea9a5a3b9404b71"}, {"bike_id": "f1b3a33c45bdb67f0c5c7160b1d4f4bd", "type": "electric_scooter", "is_disabled": 0, "lat": 38.926090333333335, "rental_uris": {"ios": "https://dc.lft.to/lastmile_qr_scan", "android": "https://dc.lft.to/lastmile_qr_scan"}, "is_reserved": 0, "fusion_lon": 0.0, "fusion_lat": 0.0, "lon": -77.02414333333333, "name": "f1b3a33c45bdb67f0c5c7160b1d4f4bd"}, {"bike_id": "980dd5d5f18d92c8082e44c0e0fdb142", "type": "electric_scooter", "is_disabled": 0, "lat": 38.900504833333336, "rental_uris": {"ios": "https://dc.lft.to/lastmile_qr_scan", "android": "https://dc.lft.to/lastmile_qr_scan"}, "is_reserved": 0, "fusion_lon": 0.0, "fusion_lat": 0.0, "lon": -77.0006405, "name": "980dd5d5f18d92c8082e44c0e0fdb142"}, {"bike_id": "4dfa9bdfa524a559277a03b97caf0c8b", "type": "electric_scooter", "is_disabled": 0, "lat": 38.925565666666664, "rental_uris": {"ios": "https://dc.lft.to/lastmile_qr_scan", "android": "https://dc.lft.to/lastmile_qr_scan"}, "is_reserved": 0, "fusion_lon": 0.0, "fusion_lat": 0.0, "lon": -77.04382566666666, "name": "4dfa9bdfa524a559277a03b97caf0c8b"}, {"bike_id": "555770cd8aba9782ce060be0a82fb2c6", "type": "electric_scooter", "is_disabled": 0, "lat": 38.936082, "rental_uris": {"ios": "https://dc.lft.to/lastmile_qr_scan", "android": "https://dc.lft.to/lastmile_qr_scan"}, "is_reserved": 0, "fusion_lon": 0.0, "fusion_lat": 0.0, "lon": -77.058608, "name": "555770cd8aba9782ce060be0a82fb2c6"}, {"bike_id": "c0b4be16fe6fb00ece9ae749ca2d004c", "type": "electric_scooter", "is_disabled": 0, "lat": 38.90370716666666, "rental_uris": {"ios": "https://dc.lft.to/lastmile_qr_scan", "android": "https://dc.lft.to/lastmile_qr_scan"}, "is_reserved": 0, "fusion_lon": 0.0, "fusion_lat": 0.0, "lon": -77.04483983333333, "name": "c0b4be16fe6fb00ece9ae749ca2d004c"}, {"bike_id": "77f346335edb163de1183c9aa026df71", "type": "electric_scooter", "is_disabled": 0, "lat": 38.92119533333333, "rental_uris": {"ios": "https://dc.lft.to/lastmile_qr_scan", "android": "https://dc.lft.to/lastmile_qr_scan"}, "is_reserved": 0, "fusion_lon": 0.0, "fusion_lat": 0.0, "lon": -77.01215216666667, "name": "77f346335edb163de1183c9aa026df71"}, {"bike_id": "730c05cf13df4ffbe15a68c49703cdd2", "type": "electric_bike", "is_disabled": 0, "lat": 38.921092, "rental_uris": {"ios": "https://dc.lft.to/lastmile_qr_scan", "android": "https://dc.lft.to/lastmile_qr_scan"}, "is_reserved": 0, "fusion_lon": 0.0, "fusion_lat": 0.0, "lon": -77.03006, "name": "730c05cf13df4ffbe15a68c49703cdd2"}, {"bike_id": "29131898e9b5562537b6391ed986dd2b", "type": "electric_scooter", "is_disabled": 0, "lat": 38.91728966666667, "rental_uris": {"ios": "https://dc.lft.to/lastmile_qr_scan", "android": "https://dc.lft.to/lastmile_qr_scan"}, "is_reserved": 0, "fusion_lon": 0.0, "fusion_lat": 0.0, "lon": -77.03211616666667, "name": "29131898e9b5562537b6391ed986dd2b"}, {"bike_id": "1fa5e1d08673756570fa9c6127fe8e2d", "type": "electric_scooter", "is_disabled": 0, "lat": 38.945660833333335, "rental_uris": {"ios": "https://dc.lft.to/lastmile_qr_scan", "android": "https://dc.lft.to/lastmile_qr_scan"}, "is_reserved": 0, "fusion_lon": 0.0, "fusion_lat": 0.0, "lon": -77.032823, "name": "1fa5e1d08673756570fa9c6127fe8e2d"}, {"bike_id": "ef4ff9bafe533a22f6d117b70e066cd1", "type": "electric_scooter", "is_disabled": 0, "lat": 38.9041685, "rental_uris": {"ios": "https://dc.lft.to/lastmile_qr_scan", "android": "https://dc.lft.to/lastmile_qr_scan"}, "is_reserved": 0, "fusion_lon": 0.0, "fusion_lat": 0.0, "lon": -77.04365983333334, "name": "ef4ff9bafe533a22f6d117b70e066cd1"}, {"bike_id": "40f83c422d8d90bd2d25d26677d1c057", "type": "electric_scooter", "is_disabled": 0, "lat": 38.926894, "rental_uris": {"ios": "https://dc.lft.to/lastmile_qr_scan", "android": "https://dc.lft.to/lastmile_qr_scan"}, "is_reserved": 0, "fusion_lon": 0.0, "fusion_lat": 0.0, "lon": -77.02106, "name": "40f83c422d8d90bd2d25d26677d1c057"}, {"bike_id": "5f2ba47c6507d5d7b9ab7d42b28f49d6", "type": "electric_scooter", "is_disabled": 0, "lat": 38.86988483333333, "rental_uris": {"ios": "https://dc.lft.to/lastmile_qr_scan", "android": "https://dc.lft.to/lastmile_qr_scan"}, "is_reserved": 0, "fusion_lon": 0.0, "fusion_lat": 0.0, "lon": -76.959764, "name": "5f2ba47c6507d5d7b9ab7d42b28f49d6"}, {"bike_id": "d0c223f522f931e828fb1a8ed14815ca", "type": "electric_scooter", "is_disabled": 0, "lat": 38.901386333333335, "rental_uris": {"ios": "https://dc.lft.to/lastmile_qr_scan", "android": "https://dc.lft.to/lastmile_qr_scan"}, "is_reserved": 0, "fusion_lon": 0.0, "fusion_lat": 0.0, "lon": -77.04627783333333, "name": "d0c223f522f931e828fb1a8ed14815ca"}, {"bike_id": "47a3f4d2350b4bb1dd2e78a9654a8c81", "type": "electric_scooter", "is_disabled": 0, "lat": 38.93011933333333, "rental_uris": {"ios": "https://dc.lft.to/lastmile_qr_scan", "android": "https://dc.lft.to/lastmile_qr_scan"}, "is_reserved": 0, "fusion_lon": 0.0, "fusion_lat": 0.0, "lon": -77.05523983333333, "name": "47a3f4d2350b4bb1dd2e78a9654a8c81"}, {"bike_id": "2ca435098dd89be879949a1c2a86fe70", "type": "electric_scooter", "is_disabled": 0, "lat": 38.879348666666665, "rental_uris": {"ios": "https://dc.lft.to/lastmile_qr_scan", "android": "https://dc.lft.to/lastmile_qr_scan"}, "is_reserved": 0, "fusion_lon": 0.0, "fusion_lat": 0.0, "lon": -77.01466766666667, "name": "2ca435098dd89be879949a1c2a86fe70"}, {"bike_id": "649a7909ae6a11339529724c55489ebc", "type": "electric_scooter", "is_disabled": 0, "lat": 38.8713985, "rental_uris": {"ios": "https://dc.lft.to/lastmile_qr_scan", "android": "https://dc.lft.to/lastmile_qr_scan"}, "is_reserved": 0, "fusion_lon": 0.0, "fusion_lat": 0.0, "lon": -77.00756483333333, "name": "649a7909ae6a11339529724c55489ebc"}, {"bike_id": "e743a83d22d99a685562aac022a7d5ee", "type": "electric_scooter", "is_disabled": 0, "lat": 38.920423166666666, "rental_uris": {"ios": "https://dc.lft.to/lastmile_qr_scan", "android": "https://dc.lft.to/lastmile_qr_scan"}, "is_reserved": 0, "fusion_lon": 0.0, "fusion_lat": 0.0, "lon": -77.0166825, "name": "e743a83d22d99a685562aac022a7d5ee"}, {"bike_id": "a6d2b121e559ea8891ca535a6f28192c", "type": "electric_bike", "is_disabled": 0, "lat": 38.97393683333333, "rental_uris": {"ios": "https://dc.lft.to/lastmile_qr_scan", "android": "https://dc.lft.to/lastmile_qr_scan"}, "is_reserved": 0, "fusion_lon": 0.0, "fusion_lat": 0.0, "lon": -77.0645435, "name": "a6d2b121e559ea8891ca535a6f28192c"}, {"bike_id": "1d4f0b3525d23493c72819046f2fefe0", "type": "electric_scooter", "is_disabled": 0, "lat": 38.90116966666667, "rental_uris": {"ios": "https://dc.lft.to/lastmile_qr_scan", "android": "https://dc.lft.to/lastmile_qr_scan"}, "is_reserved": 0, "fusion_lon": 0.0, "fusion_lat": 0.0, "lon": -76.92954633333333, "name": "1d4f0b3525d23493c72819046f2fefe0"}, {"bike_id": "d0e3345e592674fce857109aa795b249", "type": "electric_scooter", "is_disabled": 0, "lat": 38.8713905, "rental_uris": {"ios": "https://dc.lft.to/lastmile_qr_scan", "android": "https://dc.lft.to/lastmile_qr_scan"}, "is_reserved": 0, "fusion_lon": 0.0, "fusion_lat": 0.0, "lon": -77.00753783333333, "name": "d0e3345e592674fce857109aa795b249"}, {"bike_id": "a534446e873cc55ff2b29eb8fb37ab00", "type": "electric_scooter", "is_disabled": 0, "lat": 38.89773783333333, "rental_uris": {"ios": "https://dc.lft.to/lastmile_qr_scan", "android": "https://dc.lft.to/lastmile_qr_scan"}, "is_reserved": 0, "fusion_lon": 0.0, "fusion_lat": 0.0, "lon": -77.03353633333333, "name": "a534446e873cc55ff2b29eb8fb37ab00"}, {"bike_id": "de740ca0a40075839d4ed079ae184ccc", "type": "electric_scooter", "is_disabled": 0, "lat": 38.9276815, "rental_uris": {"ios": "https://dc.lft.to/lastmile_qr_scan", "android": "https://dc.lft.to/lastmile_qr_scan"}, "is_reserved": 0, "fusion_lon": 0.0, "fusion_lat": 0.0, "lon": -77.04065733333333, "name": "de740ca0a40075839d4ed079ae184ccc"}, {"bike_id": "0c50ad582b2da1fc8986afd1e6536b73", "type": "electric_scooter", "is_disabled": 0, "lat": 38.922325, "rental_uris": {"ios": "https://dc.lft.to/lastmile_qr_scan", "android": "https://dc.lft.to/lastmile_qr_scan"}, "is_reserved": 0, "fusion_lon": 0.0, "fusion_lat": 0.0, "lon": -77.04309116666667, "name": "0c50ad582b2da1fc8986afd1e6536b73"}, {"bike_id": "b950a166850682c6c24614beea3e828f", "type": "electric_scooter", "is_disabled": 0, "lat": 38.88586466666667, "rental_uris": {"ios": "https://dc.lft.to/lastmile_qr_scan", "android": "https://dc.lft.to/lastmile_qr_scan"}, "is_reserved": 0, "fusion_lon": 0.0, "fusion_lat": 0.0, "lon": -76.9962195, "name": "b950a166850682c6c24614beea3e828f"}, {"bike_id": "215fb243f9a43656cf9bdf7fb9adabbb", "type": "electric_bike", "is_disabled": 0, "lat": 38.954975166666664, "rental_uris": {"ios": "https://dc.lft.to/lastmile_qr_scan", "android": "https://dc.lft.to/lastmile_qr_scan"}, "is_reserved": 0, "fusion_lon": 0.0, "fusion_lat": 0.0, "lon": -76.9935715, "name": "215fb243f9a43656cf9bdf7fb9adabbb"}, {"bike_id": "b107aa13f8db7865f8977c992649f450", "type": "electric_scooter", "is_disabled": 0, "lat": 38.87651683333333, "rental_uris": {"ios": "https://dc.lft.to/lastmile_qr_scan", "android": "https://dc.lft.to/lastmile_qr_scan"}, "is_reserved": 0, "fusion_lon": 0.0, "fusion_lat": 0.0, "lon": -76.96508433333334, "name": "b107aa13f8db7865f8977c992649f450"}, {"bike_id": "1a549bad6d08e1d2adc5227139fd94f8", "type": "electric_scooter", "is_disabled": 0, "lat": 38.90347466666667, "rental_uris": {"ios": "https://dc.lft.to/lastmile_qr_scan", "android": "https://dc.lft.to/lastmile_qr_scan"}, "is_reserved": 0, "fusion_lon": 0.0, "fusion_lat": 0.0, "lon": -76.985057, "name": "1a549bad6d08e1d2adc5227139fd94f8"}, {"bike_id": "db610a46b06199b2a26d06272dc6c349", "type": "electric_scooter", "is_disabled": 0, "lat": 38.919212333333334, "rental_uris": {"ios": "https://dc.lft.to/lastmile_qr_scan", "android": "https://dc.lft.to/lastmile_qr_scan"}, "is_reserved": 0, "fusion_lon": 0.0, "fusion_lat": 0.0, "lon": -77.02942733333333, "name": "db610a46b06199b2a26d06272dc6c349"}, {"bike_id": "67389e36b5d2b6e8e8371554dc72d074", "type": "electric_scooter", "is_disabled": 0, "lat": 38.91983366666667, "rental_uris": {"ios": "https://dc.lft.to/lastmile_qr_scan", "android": "https://dc.lft.to/lastmile_qr_scan"}, "is_reserved": 0, "fusion_lon": 0.0, "fusion_lat": 0.0, "lon": -76.97305366666667, "name": "67389e36b5d2b6e8e8371554dc72d074"}, {"bike_id": "30a83369a871fc015192768c1837689c", "type": "electric_scooter", "is_disabled": 0, "lat": 38.9593295, "rental_uris": {"ios": "https://dc.lft.to/lastmile_qr_scan", "android": "https://dc.lft.to/lastmile_qr_scan"}, "is_reserved": 0, "fusion_lon": 0.0, "fusion_lat": 0.0, "lon": -77.031207, "name": "30a83369a871fc015192768c1837689c"}, {"bike_id": "e8f75bb50031f7563c59b294c5f202d3", "type": "electric_scooter", "is_disabled": 0, "lat": 38.941992666666664, "rental_uris": {"ios": "https://dc.lft.to/lastmile_qr_scan", "android": "https://dc.lft.to/lastmile_qr_scan"}, "is_reserved": 0, "fusion_lon": 0.0, "fusion_lat": 0.0, "lon": -77.02349233333334, "name": "e8f75bb50031f7563c59b294c5f202d3"}, {"bike_id": "a3f3d200f7fe0e3b19ebc13d6f6a88d4", "type": "electric_scooter", "is_disabled": 0, "lat": 38.951343333333334, "rental_uris": {"ios": "https://dc.lft.to/lastmile_qr_scan", "android": "https://dc.lft.to/lastmile_qr_scan"}, "is_reserved": 0, "fusion_lon": 0.0, "fusion_lat": 0.0, "lon": -77.02723283333333, "name": "a3f3d200f7fe0e3b19ebc13d6f6a88d4"}, {"bike_id": "042e6d1216e3923c4fa6d08cfbb91b71", "type": "electric_scooter", "is_disabled": 0, "lat": 38.958379, "rental_uris": {"ios": "https://dc.lft.to/lastmile_qr_scan", "android": "https://dc.lft.to/lastmile_qr_scan"}, "is_reserved": 0, "fusion_lon": 0.0, "fusion_lat": 0.0, "lon": -77.0151515, "name": "042e6d1216e3923c4fa6d08cfbb91b71"}, {"bike_id": "308e26702a4ffd5437157909f538dc5e", "type": "electric_scooter", "is_disabled": 0, "lat": 38.893621333333336, "rental_uris": {"ios": "https://dc.lft.to/lastmile_qr_scan", "android": "https://dc.lft.to/lastmile_qr_scan"}, "is_reserved": 0, "fusion_lon": 0.0, "fusion_lat": 0.0, "lon": -76.99087616666667, "name": "308e26702a4ffd5437157909f538dc5e"}, {"bike_id": "83f237e545be00a0ce2a11eacd07b88f", "type": "electric_bike", "is_disabled": 0, "lat": 39.037011666666665, "rental_uris": {"ios": "https://dc.lft.to/lastmile_qr_scan", "android": "https://dc.lft.to/lastmile_qr_scan"}, "is_reserved": 0, "fusion_lon": 0.0, "fusion_lat": 0.0, "lon": -77.02862633333334, "name": "83f237e545be00a0ce2a11eacd07b88f"}, {"bike_id": "6d2257282bc0bfb0c65c0c2d0d0bc20e", "type": "electric_scooter", "is_disabled": 0, "lat": 38.917177, "rental_uris": {"ios": "https://dc.lft.to/lastmile_qr_scan", "android": "https://dc.lft.to/lastmile_qr_scan"}, "is_reserved": 0, "fusion_lon": 0.0, "fusion_lat": 0.0, "lon": -77.0280685, "name": "6d2257282bc0bfb0c65c0c2d0d0bc20e"}, {"bike_id": "15c66b22da0ea87e9294e4f04d623f6e", "type": "electric_scooter", "is_disabled": 0, "lat": 38.892230166666664, "rental_uris": {"ios": "https://dc.lft.to/lastmile_qr_scan", "android": "https://dc.lft.to/lastmile_qr_scan"}, "is_reserved": 0, "fusion_lon": 0.0, "fusion_lat": 0.0, "lon": -77.04308166666667, "name": "15c66b22da0ea87e9294e4f04d623f6e"}, {"bike_id": "710d97a9c38d885193157333adfee995", "type": "electric_scooter", "is_disabled": 0, "lat": 38.90244166666667, "rental_uris": {"ios": "https://dc.lft.to/lastmile_qr_scan", "android": "https://dc.lft.to/lastmile_qr_scan"}, "is_reserved": 0, "fusion_lon": 0.0, "fusion_lat": 0.0, "lon": -77.0325445, "name": "710d97a9c38d885193157333adfee995"}, {"bike_id": "54f15b4a1753126ed6aa38ec08ac5411", "type": "electric_scooter", "is_disabled": 0, "lat": 38.9097125, "rental_uris": {"ios": "https://dc.lft.to/lastmile_qr_scan", "android": "https://dc.lft.to/lastmile_qr_scan"}, "is_reserved": 0, "fusion_lon": 0.0, "fusion_lat": 0.0, "lon": -77.0217615, "name": "54f15b4a1753126ed6aa38ec08ac5411"}, {"bike_id": "347f495c66999326073ebf40b66c7417", "type": "electric_scooter", "is_disabled": 0, "lat": 38.86211483333334, "rental_uris": {"ios": "https://dc.lft.to/lastmile_qr_scan", "android": "https://dc.lft.to/lastmile_qr_scan"}, "is_reserved": 0, "fusion_lon": 0.0, "fusion_lat": 0.0, "lon": -76.9948295, "name": "347f495c66999326073ebf40b66c7417"}, {"bike_id": "3592aefbe22ee49fe9cecf495463f077", "type": "electric_scooter", "is_disabled": 0, "lat": 38.874505166666665, "rental_uris": {"ios": "https://dc.lft.to/lastmile_qr_scan", "android": "https://dc.lft.to/lastmile_qr_scan"}, "is_reserved": 0, "fusion_lon": 0.0, "fusion_lat": 0.0, "lon": -77.00549566666666, "name": "3592aefbe22ee49fe9cecf495463f077"}, {"bike_id": "75c30c6fadfe6e9eb97456fb92c0e53b", "type": "electric_scooter", "is_disabled": 0, "lat": 38.90027933333333, "rental_uris": {"ios": "https://dc.lft.to/lastmile_qr_scan", "android": "https://dc.lft.to/lastmile_qr_scan"}, "is_reserved": 0, "fusion_lon": 0.0, "fusion_lat": 0.0, "lon": -76.9806665, "name": "75c30c6fadfe6e9eb97456fb92c0e53b"}, {"bike_id": "35c1d39452f54883d3c52f79ce83d6d3", "type": "electric_scooter", "is_disabled": 0, "lat": 38.91151116666666, "rental_uris": {"ios": "https://dc.lft.to/lastmile_qr_scan", "android": "https://dc.lft.to/lastmile_qr_scan"}, "is_reserved": 0, "fusion_lon": 0.0, "fusion_lat": 0.0, "lon": -77.0383875, "name": "35c1d39452f54883d3c52f79ce83d6d3"}, {"bike_id": "09f399e41d5f37009dd758c6998991d8", "type": "electric_scooter", "is_disabled": 0, "lat": 38.921057833333336, "rental_uris": {"ios": "https://dc.lft.to/lastmile_qr_scan", "android": "https://dc.lft.to/lastmile_qr_scan"}, "is_reserved": 0, "fusion_lon": 0.0, "fusion_lat": 0.0, "lon": -77.03335483333333, "name": "09f399e41d5f37009dd758c6998991d8"}, {"bike_id": "7e796e91b7102ff43f19dc8c05dbc0f7", "type": "electric_scooter", "is_disabled": 0, "lat": 38.9023855, "rental_uris": {"ios": "https://dc.lft.to/lastmile_qr_scan", "android": "https://dc.lft.to/lastmile_qr_scan"}, "is_reserved": 0, "fusion_lon": 0.0, "fusion_lat": 0.0, "lon": -76.97407583333333, "name": "7e796e91b7102ff43f19dc8c05dbc0f7"}, {"bike_id": "dec62387dd6e90374896ebbf958b127c", "type": "electric_scooter", "is_disabled": 0, "lat": 38.904785833333335, "rental_uris": {"ios": "https://dc.lft.to/lastmile_qr_scan", "android": "https://dc.lft.to/lastmile_qr_scan"}, "is_reserved": 0, "fusion_lon": 0.0, "fusion_lat": 0.0, "lon": -77.0396495, "name": "dec62387dd6e90374896ebbf958b127c"}, {"bike_id": "6ef6bf8436c798da019b0b436a2ae75d", "type": "electric_scooter", "is_disabled": 0, "lat": 38.933767833333334, "rental_uris": {"ios": "https://dc.lft.to/lastmile_qr_scan", "android": "https://dc.lft.to/lastmile_qr_scan"}, "is_reserved": 0, "fusion_lon": 0.0, "fusion_lat": 0.0, "lon": -77.057596, "name": "6ef6bf8436c798da019b0b436a2ae75d"}, {"bike_id": "47af14958a98ea40684a02a87913c06d", "type": "electric_scooter", "is_disabled": 0, "lat": 38.907655, "rental_uris": {"ios": "https://dc.lft.to/lastmile_qr_scan", "android": "https://dc.lft.to/lastmile_qr_scan"}, "is_reserved": 0, "fusion_lon": 0.0, "fusion_lat": 0.0, "lon": -77.03209133333333, "name": "47af14958a98ea40684a02a87913c06d"}, {"bike_id": "c87f83d565934e9438e3906480423128", "type": "electric_scooter", "is_disabled": 0, "lat": 38.9148535, "rental_uris": {"ios": "https://dc.lft.to/lastmile_qr_scan", "android": "https://dc.lft.to/lastmile_qr_scan"}, "is_reserved": 0, "fusion_lon": 0.0, "fusion_lat": 0.0, "lon": -76.98574333333333, "name": "c87f83d565934e9438e3906480423128"}, {"bike_id": "35536bf03d2965254cc37b87bddfb2e0", "type": "electric_scooter", "is_disabled": 0, "lat": 38.91984816666667, "rental_uris": {"ios": "https://dc.lft.to/lastmile_qr_scan", "android": "https://dc.lft.to/lastmile_qr_scan"}, "is_reserved": 0, "fusion_lon": 0.0, "fusion_lat": 0.0, "lon": -76.97307933333333, "name": "35536bf03d2965254cc37b87bddfb2e0"}, {"bike_id": "e2aec348f073957971096c73c114d230", "type": "electric_scooter", "is_disabled": 0, "lat": 38.9024365, "rental_uris": {"ios": "https://dc.lft.to/lastmile_qr_scan", "android": "https://dc.lft.to/lastmile_qr_scan"}, "is_reserved": 0, "fusion_lon": 0.0, "fusion_lat": 0.0, "lon": -77.03838633333334, "name": "e2aec348f073957971096c73c114d230"}, {"bike_id": "6a81bc4f654b4db6f5ff319292212fea", "type": "electric_scooter", "is_disabled": 0, "lat": 38.9060105, "rental_uris": {"ios": "https://dc.lft.to/lastmile_qr_scan", "android": "https://dc.lft.to/lastmile_qr_scan"}, "is_reserved": 0, "fusion_lon": 0.0, "fusion_lat": 0.0, "lon": -77.02108916666667, "name": "6a81bc4f654b4db6f5ff319292212fea"}, {"bike_id": "7da5c20ce8eba504f71ceab620562eba", "type": "electric_scooter", "is_disabled": 0, "lat": 38.9054955, "rental_uris": {"ios": "https://dc.lft.to/lastmile_qr_scan", "android": "https://dc.lft.to/lastmile_qr_scan"}, "is_reserved": 0, "fusion_lon": 0.0, "fusion_lat": 0.0, "lon": -77.04162166666667, "name": "7da5c20ce8eba504f71ceab620562eba"}, {"bike_id": "ad9514853c7e7365d9235aef2e0ae3ff", "type": "electric_scooter", "is_disabled": 0, "lat": 38.8845545, "rental_uris": {"ios": "https://dc.lft.to/lastmile_qr_scan", "android": "https://dc.lft.to/lastmile_qr_scan"}, "is_reserved": 0, "fusion_lon": 0.0, "fusion_lat": 0.0, "lon": -76.9262095, "name": "ad9514853c7e7365d9235aef2e0ae3ff"}, {"bike_id": "da0a10a08f2ab694ac8397d27efad84b", "type": "electric_bike", "is_disabled": 0, "lat": 38.9622795, "rental_uris": {"ios": "https://dc.lft.to/lastmile_qr_scan", "android": "https://dc.lft.to/lastmile_qr_scan"}, "is_reserved": 0, "fusion_lon": 0.0, "fusion_lat": 0.0, "lon": -77.02631, "name": "da0a10a08f2ab694ac8397d27efad84b"}, {"bike_id": "6b271f0fb59abe89e9b84c1d3b44a774", "type": "electric_scooter", "is_disabled": 0, "lat": 38.911555166666666, "rental_uris": {"ios": "https://dc.lft.to/lastmile_qr_scan", "android": "https://dc.lft.to/lastmile_qr_scan"}, "is_reserved": 0, "fusion_lon": 0.0, "fusion_lat": 0.0, "lon": -77.038538, "name": "6b271f0fb59abe89e9b84c1d3b44a774"}, {"bike_id": "f6ab2092586620549a7d38f482e57fad", "type": "electric_scooter", "is_disabled": 0, "lat": 38.910047166666665, "rental_uris": {"ios": "https://dc.lft.to/lastmile_qr_scan", "android": "https://dc.lft.to/lastmile_qr_scan"}, "is_reserved": 0, "fusion_lon": 0.0, "fusion_lat": 0.0, "lon": -77.043631, "name": "f6ab2092586620549a7d38f482e57fad"}, {"bike_id": "93ac1f1f184f16e4e05c07c8b1837bf0", "type": "electric_scooter", "is_disabled": 0, "lat": 38.90692883333333, "rental_uris": {"ios": "https://dc.lft.to/lastmile_qr_scan", "android": "https://dc.lft.to/lastmile_qr_scan"}, "is_reserved": 0, "fusion_lon": 0.0, "fusion_lat": 0.0, "lon": -77.03213166666667, "name": "93ac1f1f184f16e4e05c07c8b1837bf0"}, {"bike_id": "e24f3b3221a48abd0ea1397aed5cfef9", "type": "electric_scooter", "is_disabled": 0, "lat": 38.90131683333333, "rental_uris": {"ios": "https://dc.lft.to/lastmile_qr_scan", "android": "https://dc.lft.to/lastmile_qr_scan"}, "is_reserved": 0, "fusion_lon": 0.0, "fusion_lat": 0.0, "lon": -77.04335866666666, "name": "e24f3b3221a48abd0ea1397aed5cfef9"}, {"bike_id": "c2d1fa2aaf768f92f21ccb408545196c", "type": "electric_scooter", "is_disabled": 0, "lat": 38.9348795, "rental_uris": {"ios": "https://dc.lft.to/lastmile_qr_scan", "android": "https://dc.lft.to/lastmile_qr_scan"}, "is_reserved": 0, "fusion_lon": 0.0, "fusion_lat": 0.0, "lon": -77.035191, "name": "c2d1fa2aaf768f92f21ccb408545196c"}, {"bike_id": "021616bf934a68f4ed3fcb66522e1dd2", "type": "electric_scooter", "is_disabled": 0, "lat": 38.899707666666664, "rental_uris": {"ios": "https://dc.lft.to/lastmile_qr_scan", "android": "https://dc.lft.to/lastmile_qr_scan"}, "is_reserved": 0, "fusion_lon": 0.0, "fusion_lat": 0.0, "lon": -77.021961, "name": "021616bf934a68f4ed3fcb66522e1dd2"}, {"bike_id": "cfd7eea42e18f84896ec04171e1ff18a", "type": "electric_scooter", "is_disabled": 0, "lat": 38.897216666666665, "rental_uris": {"ios": "https://dc.lft.to/lastmile_qr_scan", "android": "https://dc.lft.to/lastmile_qr_scan"}, "is_reserved": 0, "fusion_lon": 0.0, "fusion_lat": 0.0, "lon": -77.03179683333333, "name": "cfd7eea42e18f84896ec04171e1ff18a"}, {"bike_id": "fdc370622847f1e69283b41558a48bd8", "type": "electric_bike", "is_disabled": 0, "lat": 38.835487666666666, "rental_uris": {"ios": "https://dc.lft.to/lastmile_qr_scan", "android": "https://dc.lft.to/lastmile_qr_scan"}, "is_reserved": 0, "fusion_lon": 0.0, "fusion_lat": 0.0, "lon": -76.987298, "name": "fdc370622847f1e69283b41558a48bd8"}, {"bike_id": "e0bc2f5fb1e747a317d58975e38bb423", "type": "electric_bike", "is_disabled": 0, "lat": 38.9507265, "rental_uris": {"ios": "https://dc.lft.to/lastmile_qr_scan", "android": "https://dc.lft.to/lastmile_qr_scan"}, "is_reserved": 0, "fusion_lon": 0.0, "fusion_lat": 0.0, "lon": -76.996, "name": "e0bc2f5fb1e747a317d58975e38bb423"}, {"bike_id": "9bf8cc83aac241cdc1659a3156941d27", "type": "electric_scooter", "is_disabled": 0, "lat": 38.9000185, "rental_uris": {"ios": "https://dc.lft.to/lastmile_qr_scan", "android": "https://dc.lft.to/lastmile_qr_scan"}, "is_reserved": 0, "fusion_lon": 0.0, "fusion_lat": 0.0, "lon": -76.99349566666666, "name": "9bf8cc83aac241cdc1659a3156941d27"}, {"bike_id": "78a4d1730cead64e8c1b320964698511", "type": "electric_scooter", "is_disabled": 0, "lat": 38.908517833333335, "rental_uris": {"ios": "https://dc.lft.to/lastmile_qr_scan", "android": "https://dc.lft.to/lastmile_qr_scan"}, "is_reserved": 0, "fusion_lon": 0.0, "fusion_lat": 0.0, "lon": -77.02545633333334, "name": "78a4d1730cead64e8c1b320964698511"}, {"bike_id": "11e291b288b27810bc0b2b4df4c6a8b6", "type": "electric_scooter", "is_disabled": 0, "lat": 38.889118333333336, "rental_uris": {"ios": "https://dc.lft.to/lastmile_qr_scan", "android": "https://dc.lft.to/lastmile_qr_scan"}, "is_reserved": 0, "fusion_lon": 0.0, "fusion_lat": 0.0, "lon": -76.9917585, "name": "11e291b288b27810bc0b2b4df4c6a8b6"}, {"bike_id": "ffcde65a8bb5ed9f6b1e381d50bc579a", "type": "electric_scooter", "is_disabled": 0, "lat": 38.93241066666667, "rental_uris": {"ios": "https://dc.lft.to/lastmile_qr_scan", "android": "https://dc.lft.to/lastmile_qr_scan"}, "is_reserved": 0, "fusion_lon": 0.0, "fusion_lat": 0.0, "lon": -77.03853783333334, "name": "ffcde65a8bb5ed9f6b1e381d50bc579a"}, {"bike_id": "b8e908fce40a91d94d7f92719c268e9e", "type": "electric_scooter", "is_disabled": 0, "lat": 38.897216666666665, "rental_uris": {"ios": "https://dc.lft.to/lastmile_qr_scan", "android": "https://dc.lft.to/lastmile_qr_scan"}, "is_reserved": 0, "fusion_lon": 0.0, "fusion_lat": 0.0, "lon": -77.02130566666666, "name": "b8e908fce40a91d94d7f92719c268e9e"}, {"bike_id": "57db032a0c0f373c2bcb180e8e35d179", "type": "electric_scooter", "is_disabled": 0, "lat": 38.9368435, "rental_uris": {"ios": "https://dc.lft.to/lastmile_qr_scan", "android": "https://dc.lft.to/lastmile_qr_scan"}, "is_reserved": 0, "fusion_lon": 0.0, "fusion_lat": 0.0, "lon": -77.03284433333333, "name": "57db032a0c0f373c2bcb180e8e35d179"}, {"bike_id": "344450d959f581ba1d3e409e8ab004e1", "type": "electric_bike", "is_disabled": 0, "lat": 38.878823833333335, "rental_uris": {"ios": "https://dc.lft.to/lastmile_qr_scan", "android": "https://dc.lft.to/lastmile_qr_scan"}, "is_reserved": 0, "fusion_lon": 0.0, "fusion_lat": 0.0, "lon": -77.09615733333334, "name": "344450d959f581ba1d3e409e8ab004e1"}, {"bike_id": "87a16d75665ad3a3717394c63c1e73ac", "type": "electric_scooter", "is_disabled": 0, "lat": 38.898522, "rental_uris": {"ios": "https://dc.lft.to/lastmile_qr_scan", "android": "https://dc.lft.to/lastmile_qr_scan"}, "is_reserved": 0, "fusion_lon": 0.0, "fusion_lat": 0.0, "lon": -77.03372466666667, "name": "87a16d75665ad3a3717394c63c1e73ac"}, {"bike_id": "9df6391f038a24cbe93fda8e4211ea9a", "type": "electric_scooter", "is_disabled": 0, "lat": 38.92797616666667, "rental_uris": {"ios": "https://dc.lft.to/lastmile_qr_scan", "android": "https://dc.lft.to/lastmile_qr_scan"}, "is_reserved": 0, "fusion_lon": 0.0, "fusion_lat": 0.0, "lon": -77.02205316666667, "name": "9df6391f038a24cbe93fda8e4211ea9a"}, {"bike_id": "6c3192254581f28fe99858c48b548064", "type": "electric_scooter", "is_disabled": 0, "lat": 38.897704166666664, "rental_uris": {"ios": "https://dc.lft.to/lastmile_qr_scan", "android": "https://dc.lft.to/lastmile_qr_scan"}, "is_reserved": 0, "fusion_lon": 0.0, "fusion_lat": 0.0, "lon": -77.00910583333334, "name": "6c3192254581f28fe99858c48b548064"}, {"bike_id": "e5d323581023a04638b499002119e13c", "type": "electric_scooter", "is_disabled": 0, "lat": 38.9124825, "rental_uris": {"ios": "https://dc.lft.to/lastmile_qr_scan", "android": "https://dc.lft.to/lastmile_qr_scan"}, "is_reserved": 0, "fusion_lon": 0.0, "fusion_lat": 0.0, "lon": -77.0220375, "name": "e5d323581023a04638b499002119e13c"}, {"bike_id": "454b9c400baeab5271c00da6fc228210", "type": "electric_scooter", "is_disabled": 0, "lat": 38.911348333333336, "rental_uris": {"ios": "https://dc.lft.to/lastmile_qr_scan", "android": "https://dc.lft.to/lastmile_qr_scan"}, "is_reserved": 0, "fusion_lon": 0.0, "fusion_lat": 0.0, "lon": -77.03213283333334, "name": "454b9c400baeab5271c00da6fc228210"}, {"bike_id": "ea5b3e5c188dd4de3b92506205cbaf39", "type": "electric_bike", "is_disabled": 0, "lat": 38.89248533333333, "rental_uris": {"ios": "https://dc.lft.to/lastmile_qr_scan", "android": "https://dc.lft.to/lastmile_qr_scan"}, "is_reserved": 0, "fusion_lon": 0.0, "fusion_lat": 0.0, "lon": -77.00239383333333, "name": "ea5b3e5c188dd4de3b92506205cbaf39"}, {"bike_id": "105f30641f9789105f309d37966bfa53", "type": "electric_scooter", "is_disabled": 0, "lat": 38.915605666666664, "rental_uris": {"ios": "https://dc.lft.to/lastmile_qr_scan", "android": "https://dc.lft.to/lastmile_qr_scan"}, "is_reserved": 0, "fusion_lon": 0.0, "fusion_lat": 0.0, "lon": -77.03240033333333, "name": "105f30641f9789105f309d37966bfa53"}, {"bike_id": "412f2eb8e8d7d4614b9e8fba7a7830d0", "type": "electric_scooter", "is_disabled": 0, "lat": 38.91770366666667, "rental_uris": {"ios": "https://dc.lft.to/lastmile_qr_scan", "android": "https://dc.lft.to/lastmile_qr_scan"}, "is_reserved": 0, "fusion_lon": 0.0, "fusion_lat": 0.0, "lon": -77.0405765, "name": "412f2eb8e8d7d4614b9e8fba7a7830d0"}, {"bike_id": "ea9e8841c540370016cc176a5473bb31", "type": "electric_scooter", "is_disabled": 0, "lat": 38.896169666666665, "rental_uris": {"ios": "https://dc.lft.to/lastmile_qr_scan", "android": "https://dc.lft.to/lastmile_qr_scan"}, "is_reserved": 0, "fusion_lon": 0.0, "fusion_lat": 0.0, "lon": -76.98160966666667, "name": "ea9e8841c540370016cc176a5473bb31"}, {"bike_id": "2a2658c0c40a1742e9346e8051ef91df", "type": "electric_scooter", "is_disabled": 0, "lat": 38.913535333333336, "rental_uris": {"ios": "https://dc.lft.to/lastmile_qr_scan", "android": "https://dc.lft.to/lastmile_qr_scan"}, "is_reserved": 0, "fusion_lon": 0.0, "fusion_lat": 0.0, "lon": -77.02583066666666, "name": "2a2658c0c40a1742e9346e8051ef91df"}, {"bike_id": "bd108fd8fbe33649dad4ec16b7c2b183", "type": "electric_scooter", "is_disabled": 0, "lat": 38.91569883333333, "rental_uris": {"ios": "https://dc.lft.to/lastmile_qr_scan", "android": "https://dc.lft.to/lastmile_qr_scan"}, "is_reserved": 0, "fusion_lon": 0.0, "fusion_lat": 0.0, "lon": -77.03463266666667, "name": "bd108fd8fbe33649dad4ec16b7c2b183"}, {"bike_id": "f9f2d30c7f17d1d44d1b8d5249a93053", "type": "electric_scooter", "is_disabled": 0, "lat": 38.91759866666666, "rental_uris": {"ios": "https://dc.lft.to/lastmile_qr_scan", "android": "https://dc.lft.to/lastmile_qr_scan"}, "is_reserved": 0, "fusion_lon": 0.0, "fusion_lat": 0.0, "lon": -77.047717, "name": "f9f2d30c7f17d1d44d1b8d5249a93053"}, {"bike_id": "4e9c5a7c0a10e2f2a6708f333a2dccbb", "type": "electric_scooter", "is_disabled": 0, "lat": 38.90263916666667, "rental_uris": {"ios": "https://dc.lft.to/lastmile_qr_scan", "android": "https://dc.lft.to/lastmile_qr_scan"}, "is_reserved": 0, "fusion_lon": 0.0, "fusion_lat": 0.0, "lon": -77.01693166666666, "name": "4e9c5a7c0a10e2f2a6708f333a2dccbb"}, {"bike_id": "149bdf67080df1fb2603ac4ece280ada", "type": "electric_scooter", "is_disabled": 0, "lat": 38.924123333333334, "rental_uris": {"ios": "https://dc.lft.to/lastmile_qr_scan", "android": "https://dc.lft.to/lastmile_qr_scan"}, "is_reserved": 0, "fusion_lon": 0.0, "fusion_lat": 0.0, "lon": -77.02132516666667, "name": "149bdf67080df1fb2603ac4ece280ada"}, {"bike_id": "f9aa303844d8d1fe18367a2d87bfc596", "type": "electric_scooter", "is_disabled": 0, "lat": 38.897189, "rental_uris": {"ios": "https://dc.lft.to/lastmile_qr_scan", "android": "https://dc.lft.to/lastmile_qr_scan"}, "is_reserved": 0, "fusion_lon": 0.0, "fusion_lat": 0.0, "lon": -77.03322866666667, "name": "f9aa303844d8d1fe18367a2d87bfc596"}, {"bike_id": "a0c6a57343d8a4cff23057abd3c11823", "type": "electric_scooter", "is_disabled": 0, "lat": 38.884703333333334, "rental_uris": {"ios": "https://dc.lft.to/lastmile_qr_scan", "android": "https://dc.lft.to/lastmile_qr_scan"}, "is_reserved": 0, "fusion_lon": 0.0, "fusion_lat": 0.0, "lon": -77.026588, "name": "a0c6a57343d8a4cff23057abd3c11823"}, {"bike_id": "4054d82917c78778480e66c7278d5c2d", "type": "electric_scooter", "is_disabled": 0, "lat": 38.91990966666667, "rental_uris": {"ios": "https://dc.lft.to/lastmile_qr_scan", "android": "https://dc.lft.to/lastmile_qr_scan"}, "is_reserved": 0, "fusion_lon": 0.0, "fusion_lat": 0.0, "lon": -77.0324655, "name": "4054d82917c78778480e66c7278d5c2d"}, {"bike_id": "d290fc8ee4aabd636621c564f4537755", "type": "electric_scooter", "is_disabled": 0, "lat": 38.922452666666665, "rental_uris": {"ios": "https://dc.lft.to/lastmile_qr_scan", "android": "https://dc.lft.to/lastmile_qr_scan"}, "is_reserved": 0, "fusion_lon": 0.0, "fusion_lat": 0.0, "lon": -77.042206, "name": "d290fc8ee4aabd636621c564f4537755"}, {"bike_id": "d85a193e81b01bdbcfcc308a046b4584", "type": "electric_scooter", "is_disabled": 0, "lat": 38.913703, "rental_uris": {"ios": "https://dc.lft.to/lastmile_qr_scan", "android": "https://dc.lft.to/lastmile_qr_scan"}, "is_reserved": 0, "fusion_lon": 0.0, "fusion_lat": 0.0, "lon": -77.06618566666667, "name": "d85a193e81b01bdbcfcc308a046b4584"}, {"bike_id": "d1e877b0a0477eeb30db1e6d70377905", "type": "electric_scooter", "is_disabled": 0, "lat": 38.9077795, "rental_uris": {"ios": "https://dc.lft.to/lastmile_qr_scan", "android": "https://dc.lft.to/lastmile_qr_scan"}, "is_reserved": 0, "fusion_lon": 0.0, "fusion_lat": 0.0, "lon": -77.03832733333333, "name": "d1e877b0a0477eeb30db1e6d70377905"}, {"bike_id": "67340b791b73e7e1f8b7288526875a7b", "type": "electric_scooter", "is_disabled": 0, "lat": 38.917696166666666, "rental_uris": {"ios": "https://dc.lft.to/lastmile_qr_scan", "android": "https://dc.lft.to/lastmile_qr_scan"}, "is_reserved": 0, "fusion_lon": 0.0, "fusion_lat": 0.0, "lon": -77.04058683333334, "name": "67340b791b73e7e1f8b7288526875a7b"}, {"bike_id": "22688aae9ae8b86cf00d83d926d8d619", "type": "electric_scooter", "is_disabled": 0, "lat": 38.927609, "rental_uris": {"ios": "https://dc.lft.to/lastmile_qr_scan", "android": "https://dc.lft.to/lastmile_qr_scan"}, "is_reserved": 0, "fusion_lon": 0.0, "fusion_lat": 0.0, "lon": -77.0324305, "name": "22688aae9ae8b86cf00d83d926d8d619"}, {"bike_id": "27386700da4260040e6222bf02fdaa59", "type": "electric_scooter", "is_disabled": 0, "lat": 38.91384766666667, "rental_uris": {"ios": "https://dc.lft.to/lastmile_qr_scan", "android": "https://dc.lft.to/lastmile_qr_scan"}, "is_reserved": 0, "fusion_lon": 0.0, "fusion_lat": 0.0, "lon": -77.03213683333334, "name": "27386700da4260040e6222bf02fdaa59"}, {"bike_id": "ae0fa945d5eff31ec64bbade772dba39", "type": "electric_scooter", "is_disabled": 0, "lat": 38.87640416666667, "rental_uris": {"ios": "https://dc.lft.to/lastmile_qr_scan", "android": "https://dc.lft.to/lastmile_qr_scan"}, "is_reserved": 0, "fusion_lon": 0.0, "fusion_lat": 0.0, "lon": -77.004545, "name": "ae0fa945d5eff31ec64bbade772dba39"}, {"bike_id": "d58df50935d19d6de407393d56bcb28c", "type": "electric_scooter", "is_disabled": 0, "lat": 38.91362316666667, "rental_uris": {"ios": "https://dc.lft.to/lastmile_qr_scan", "android": "https://dc.lft.to/lastmile_qr_scan"}, "is_reserved": 0, "fusion_lon": 0.0, "fusion_lat": 0.0, "lon": -77.07037666666666, "name": "d58df50935d19d6de407393d56bcb28c"}, {"bike_id": "1a449cc3b6f01d5a60b1574356ba65c2", "type": "electric_scooter", "is_disabled": 0, "lat": 38.9094825, "rental_uris": {"ios": "https://dc.lft.to/lastmile_qr_scan", "android": "https://dc.lft.to/lastmile_qr_scan"}, "is_reserved": 0, "fusion_lon": 0.0, "fusion_lat": 0.0, "lon": -77.03443866666667, "name": "1a449cc3b6f01d5a60b1574356ba65c2"}, {"bike_id": "9841a8fd7228ffbd45b734a66f613036", "type": "electric_scooter", "is_disabled": 0, "lat": 38.906102833333335, "rental_uris": {"ios": "https://dc.lft.to/lastmile_qr_scan", "android": "https://dc.lft.to/lastmile_qr_scan"}, "is_reserved": 0, "fusion_lon": 0.0, "fusion_lat": 0.0, "lon": -77.041564, "name": "9841a8fd7228ffbd45b734a66f613036"}, {"bike_id": "df3a777d2d26c948d164a9b98cfb7344", "type": "electric_bike", "is_disabled": 0, "lat": 38.9322735, "rental_uris": {"ios": "https://dc.lft.to/lastmile_qr_scan", "android": "https://dc.lft.to/lastmile_qr_scan"}, "is_reserved": 0, "fusion_lon": 0.0, "fusion_lat": 0.0, "lon": -77.18121183333334, "name": "df3a777d2d26c948d164a9b98cfb7344"}, {"bike_id": "6cec38ad660defe5c1a2ddb9c3de215b", "type": "electric_scooter", "is_disabled": 0, "lat": 38.9418595, "rental_uris": {"ios": "https://dc.lft.to/lastmile_qr_scan", "android": "https://dc.lft.to/lastmile_qr_scan"}, "is_reserved": 0, "fusion_lon": 0.0, "fusion_lat": 0.0, "lon": -77.024926, "name": "6cec38ad660defe5c1a2ddb9c3de215b"}, {"bike_id": "98f242d20d897e681f57334f21148131", "type": "electric_scooter", "is_disabled": 0, "lat": 38.91329833333333, "rental_uris": {"ios": "https://dc.lft.to/lastmile_qr_scan", "android": "https://dc.lft.to/lastmile_qr_scan"}, "is_reserved": 0, "fusion_lon": 0.0, "fusion_lat": 0.0, "lon": -77.03268116666666, "name": "98f242d20d897e681f57334f21148131"}, {"bike_id": "765f19c290f541d92ce8991f73f9196e", "type": "electric_scooter", "is_disabled": 0, "lat": 38.86616183333334, "rental_uris": {"ios": "https://dc.lft.to/lastmile_qr_scan", "android": "https://dc.lft.to/lastmile_qr_scan"}, "is_reserved": 0, "fusion_lon": 0.0, "fusion_lat": 0.0, "lon": -77.08788983333334, "name": "765f19c290f541d92ce8991f73f9196e"}, {"bike_id": "c086b72a43f6a6185605be50441acf8a", "type": "electric_scooter", "is_disabled": 0, "lat": 38.934106666666665, "rental_uris": {"ios": "https://dc.lft.to/lastmile_qr_scan", "android": "https://dc.lft.to/lastmile_qr_scan"}, "is_reserved": 0, "fusion_lon": 0.0, "fusion_lat": 0.0, "lon": -77.0415045, "name": "c086b72a43f6a6185605be50441acf8a"}, {"bike_id": "5b92d2b8858a28445146394c1d9cb275", "type": "electric_scooter", "is_disabled": 0, "lat": 38.88204616666667, "rental_uris": {"ios": "https://dc.lft.to/lastmile_qr_scan", "android": "https://dc.lft.to/lastmile_qr_scan"}, "is_reserved": 0, "fusion_lon": 0.0, "fusion_lat": 0.0, "lon": -77.0058595, "name": "5b92d2b8858a28445146394c1d9cb275"}, {"bike_id": "a910ffc4105a27a3a869dd1eb869720e", "type": "electric_scooter", "is_disabled": 0, "lat": 38.942902333333336, "rental_uris": {"ios": "https://dc.lft.to/lastmile_qr_scan", "android": "https://dc.lft.to/lastmile_qr_scan"}, "is_reserved": 0, "fusion_lon": 0.0, "fusion_lat": 0.0, "lon": -77.0217395, "name": "a910ffc4105a27a3a869dd1eb869720e"}, {"bike_id": "1fb9a747e984b7aaef3763f94fc4d3bd", "type": "electric_scooter", "is_disabled": 0, "lat": 38.89800233333333, "rental_uris": {"ios": "https://dc.lft.to/lastmile_qr_scan", "android": "https://dc.lft.to/lastmile_qr_scan"}, "is_reserved": 0, "fusion_lon": 0.0, "fusion_lat": 0.0, "lon": -77.02380333333333, "name": "1fb9a747e984b7aaef3763f94fc4d3bd"}, {"bike_id": "29ff0e33411fffc98b35b66264e1bf09", "type": "electric_scooter", "is_disabled": 0, "lat": 38.93206933333333, "rental_uris": {"ios": "https://dc.lft.to/lastmile_qr_scan", "android": "https://dc.lft.to/lastmile_qr_scan"}, "is_reserved": 0, "fusion_lon": 0.0, "fusion_lat": 0.0, "lon": -77.02970533333334, "name": "29ff0e33411fffc98b35b66264e1bf09"}, {"bike_id": "595fdf860c0fdbd78dfeccafaa51028d", "type": "electric_bike", "is_disabled": 0, "lat": 38.854121, "rental_uris": {"ios": "https://dc.lft.to/lastmile_qr_scan", "android": "https://dc.lft.to/lastmile_qr_scan"}, "is_reserved": 0, "fusion_lon": 0.0, "fusion_lat": 0.0, "lon": -77.120777, "name": "595fdf860c0fdbd78dfeccafaa51028d"}, {"bike_id": "06b689b34502280461aff7dc7c888733", "type": "electric_scooter", "is_disabled": 0, "lat": 38.8996245, "rental_uris": {"ios": "https://dc.lft.to/lastmile_qr_scan", "android": "https://dc.lft.to/lastmile_qr_scan"}, "is_reserved": 0, "fusion_lon": 0.0, "fusion_lat": 0.0, "lon": -77.04660733333333, "name": "06b689b34502280461aff7dc7c888733"}, {"bike_id": "1bc75f357e5e37059dd41362745e9ab0", "type": "electric_scooter", "is_disabled": 0, "lat": 38.934189, "rental_uris": {"ios": "https://dc.lft.to/lastmile_qr_scan", "android": "https://dc.lft.to/lastmile_qr_scan"}, "is_reserved": 0, "fusion_lon": 0.0, "fusion_lat": 0.0, "lon": -77.0391135, "name": "1bc75f357e5e37059dd41362745e9ab0"}, {"bike_id": "79d4014c67c9d6cfac5e4a4a570d7c1e", "type": "electric_scooter", "is_disabled": 0, "lat": 38.91565116666666, "rental_uris": {"ios": "https://dc.lft.to/lastmile_qr_scan", "android": "https://dc.lft.to/lastmile_qr_scan"}, "is_reserved": 0, "fusion_lon": 0.0, "fusion_lat": 0.0, "lon": -77.0229095, "name": "79d4014c67c9d6cfac5e4a4a570d7c1e"}, {"bike_id": "152cd59e2d4956b9eed8f8c7763a01cb", "type": "electric_scooter", "is_disabled": 0, "lat": 38.88225116666667, "rental_uris": {"ios": "https://dc.lft.to/lastmile_qr_scan", "android": "https://dc.lft.to/lastmile_qr_scan"}, "is_reserved": 0, "fusion_lon": 0.0, "fusion_lat": 0.0, "lon": -77.02971383333333, "name": "152cd59e2d4956b9eed8f8c7763a01cb"}, {"bike_id": "089bf6a4447a677f68b4fdca186ddad7", "type": "electric_scooter", "is_disabled": 0, "lat": 38.903407333333334, "rental_uris": {"ios": "https://dc.lft.to/lastmile_qr_scan", "android": "https://dc.lft.to/lastmile_qr_scan"}, "is_reserved": 0, "fusion_lon": 0.0, "fusion_lat": 0.0, "lon": -76.97585933333333, "name": "089bf6a4447a677f68b4fdca186ddad7"}, {"bike_id": "cebaa293ed315b7f8189df363b42d114", "type": "electric_scooter", "is_disabled": 0, "lat": 38.90152533333333, "rental_uris": {"ios": "https://dc.lft.to/lastmile_qr_scan", "android": "https://dc.lft.to/lastmile_qr_scan"}, "is_reserved": 0, "fusion_lon": 0.0, "fusion_lat": 0.0, "lon": -76.92138533333333, "name": "cebaa293ed315b7f8189df363b42d114"}, {"bike_id": "68cc8f725df45e0ede17380179e66d84", "type": "electric_scooter", "is_disabled": 0, "lat": 38.862426666666664, "rental_uris": {"ios": "https://dc.lft.to/lastmile_qr_scan", "android": "https://dc.lft.to/lastmile_qr_scan"}, "is_reserved": 0, "fusion_lon": 0.0, "fusion_lat": 0.0, "lon": -76.99492583333333, "name": "68cc8f725df45e0ede17380179e66d84"}, {"bike_id": "2ff57e7e4eb37c5f3069b0779109793f", "type": "electric_scooter", "is_disabled": 0, "lat": 38.92326966666667, "rental_uris": {"ios": "https://dc.lft.to/lastmile_qr_scan", "android": "https://dc.lft.to/lastmile_qr_scan"}, "is_reserved": 0, "fusion_lon": 0.0, "fusion_lat": 0.0, "lon": -77.0233385, "name": "2ff57e7e4eb37c5f3069b0779109793f"}, {"bike_id": "d2f61ca2f5dd7a31ffd6b5b5f92da5fd", "type": "electric_scooter", "is_disabled": 0, "lat": 38.922506166666665, "rental_uris": {"ios": "https://dc.lft.to/lastmile_qr_scan", "android": "https://dc.lft.to/lastmile_qr_scan"}, "is_reserved": 0, "fusion_lon": 0.0, "fusion_lat": 0.0, "lon": -77.0308395, "name": "d2f61ca2f5dd7a31ffd6b5b5f92da5fd"}, {"bike_id": "5b85e4ac308ac66ef08f1fdfb46d5e78", "type": "electric_scooter", "is_disabled": 0, "lat": 38.948361166666665, "rental_uris": {"ios": "https://dc.lft.to/lastmile_qr_scan", "android": "https://dc.lft.to/lastmile_qr_scan"}, "is_reserved": 0, "fusion_lon": 0.0, "fusion_lat": 0.0, "lon": -77.02543483333334, "name": "5b85e4ac308ac66ef08f1fdfb46d5e78"}, {"bike_id": "638e833b4c9ee42db104b27e5a449d82", "type": "electric_scooter", "is_disabled": 0, "lat": 38.90970683333333, "rental_uris": {"ios": "https://dc.lft.to/lastmile_qr_scan", "android": "https://dc.lft.to/lastmile_qr_scan"}, "is_reserved": 0, "fusion_lon": 0.0, "fusion_lat": 0.0, "lon": -77.039946, "name": "638e833b4c9ee42db104b27e5a449d82"}, {"bike_id": "432887851c929b88ebe7f2861079f152", "type": "electric_scooter", "is_disabled": 0, "lat": 38.863241, "rental_uris": {"ios": "https://dc.lft.to/lastmile_qr_scan", "android": "https://dc.lft.to/lastmile_qr_scan"}, "is_reserved": 0, "fusion_lon": 0.0, "fusion_lat": 0.0, "lon": -76.9872795, "name": "432887851c929b88ebe7f2861079f152"}, {"bike_id": "4960e9ab8925542f8ba9eb8f485dbdd6", "type": "electric_scooter", "is_disabled": 0, "lat": 38.93313666666667, "rental_uris": {"ios": "https://dc.lft.to/lastmile_qr_scan", "android": "https://dc.lft.to/lastmile_qr_scan"}, "is_reserved": 0, "fusion_lon": 0.0, "fusion_lat": 0.0, "lon": -77.02751383333333, "name": "4960e9ab8925542f8ba9eb8f485dbdd6"}, {"bike_id": "4374a18731d9672045e6ef5c9a623281", "type": "electric_scooter", "is_disabled": 0, "lat": 38.876437, "rental_uris": {"ios": "https://dc.lft.to/lastmile_qr_scan", "android": "https://dc.lft.to/lastmile_qr_scan"}, "is_reserved": 0, "fusion_lon": 0.0, "fusion_lat": 0.0, "lon": -77.00453083333333, "name": "4374a18731d9672045e6ef5c9a623281"}, {"bike_id": "06a92264b6f8ca2e074238c5684434c8", "type": "electric_scooter", "is_disabled": 0, "lat": 38.9052995, "rental_uris": {"ios": "https://dc.lft.to/lastmile_qr_scan", "android": "https://dc.lft.to/lastmile_qr_scan"}, "is_reserved": 0, "fusion_lon": 0.0, "fusion_lat": 0.0, "lon": -76.984745, "name": "06a92264b6f8ca2e074238c5684434c8"}, {"bike_id": "c7481fc8120ea7cbb9b84b97ce1a13c1", "type": "electric_scooter", "is_disabled": 0, "lat": 38.902666333333336, "rental_uris": {"ios": "https://dc.lft.to/lastmile_qr_scan", "android": "https://dc.lft.to/lastmile_qr_scan"}, "is_reserved": 0, "fusion_lon": 0.0, "fusion_lat": 0.0, "lon": -77.0165955, "name": "c7481fc8120ea7cbb9b84b97ce1a13c1"}, {"bike_id": "1ceb8c2d625935525ebaa702961c352c", "type": "electric_scooter", "is_disabled": 0, "lat": 38.916025166666664, "rental_uris": {"ios": "https://dc.lft.to/lastmile_qr_scan", "android": "https://dc.lft.to/lastmile_qr_scan"}, "is_reserved": 0, "fusion_lon": 0.0, "fusion_lat": 0.0, "lon": -77.023956, "name": "1ceb8c2d625935525ebaa702961c352c"}, {"bike_id": "c4424e819eea5298e0808e5ff3aac368", "type": "electric_scooter", "is_disabled": 0, "lat": 38.92098683333333, "rental_uris": {"ios": "https://dc.lft.to/lastmile_qr_scan", "android": "https://dc.lft.to/lastmile_qr_scan"}, "is_reserved": 0, "fusion_lon": 0.0, "fusion_lat": 0.0, "lon": -77.017248, "name": "c4424e819eea5298e0808e5ff3aac368"}, {"bike_id": "60d7e8a8a17b947599103655058489e8", "type": "electric_scooter", "is_disabled": 0, "lat": 38.9199445, "rental_uris": {"ios": "https://dc.lft.to/lastmile_qr_scan", "android": "https://dc.lft.to/lastmile_qr_scan"}, "is_reserved": 0, "fusion_lon": 0.0, "fusion_lat": 0.0, "lon": -77.03299016666666, "name": "60d7e8a8a17b947599103655058489e8"}, {"bike_id": "a8ea79de4034b8fa3354119b3d464408", "type": "electric_scooter", "is_disabled": 0, "lat": 38.91486866666666, "rental_uris": {"ios": "https://dc.lft.to/lastmile_qr_scan", "android": "https://dc.lft.to/lastmile_qr_scan"}, "is_reserved": 0, "fusion_lon": 0.0, "fusion_lat": 0.0, "lon": -77.03269666666667, "name": "a8ea79de4034b8fa3354119b3d464408"}, {"bike_id": "bfcf834f01f9f33116eb056aba381917", "type": "electric_bike", "is_disabled": 0, "lat": 38.969602, "rental_uris": {"ios": "https://dc.lft.to/lastmile_qr_scan", "android": "https://dc.lft.to/lastmile_qr_scan"}, "is_reserved": 0, "fusion_lon": 0.0, "fusion_lat": 0.0, "lon": -76.9575075, "name": "bfcf834f01f9f33116eb056aba381917"}, {"bike_id": "a2155370f892f780f008de3173d13f69", "type": "electric_scooter", "is_disabled": 0, "lat": 38.913032333333334, "rental_uris": {"ios": "https://dc.lft.to/lastmile_qr_scan", "android": "https://dc.lft.to/lastmile_qr_scan"}, "is_reserved": 0, "fusion_lon": 0.0, "fusion_lat": 0.0, "lon": -77.04531433333334, "name": "a2155370f892f780f008de3173d13f69"}, {"bike_id": "b9d07a6efe59cc72372d12937a8fd858", "type": "electric_scooter", "is_disabled": 0, "lat": 38.92614666666667, "rental_uris": {"ios": "https://dc.lft.to/lastmile_qr_scan", "android": "https://dc.lft.to/lastmile_qr_scan"}, "is_reserved": 0, "fusion_lon": 0.0, "fusion_lat": 0.0, "lon": -77.02160633333334, "name": "b9d07a6efe59cc72372d12937a8fd858"}, {"bike_id": "c87d3180aa795112bd5645ea2af00a30", "type": "electric_scooter", "is_disabled": 0, "lat": 38.932260166666666, "rental_uris": {"ios": "https://dc.lft.to/lastmile_qr_scan", "android": "https://dc.lft.to/lastmile_qr_scan"}, "is_reserved": 0, "fusion_lon": 0.0, "fusion_lat": 0.0, "lon": -76.99543983333334, "name": "c87d3180aa795112bd5645ea2af00a30"}, {"bike_id": "897f36e99a7cd0048c62b13a6b8f49db", "type": "electric_scooter", "is_disabled": 0, "lat": 38.864651, "rental_uris": {"ios": "https://dc.lft.to/lastmile_qr_scan", "android": "https://dc.lft.to/lastmile_qr_scan"}, "is_reserved": 0, "fusion_lon": 0.0, "fusion_lat": 0.0, "lon": -76.97746516666666, "name": "897f36e99a7cd0048c62b13a6b8f49db"}, {"bike_id": "bac9ad7d1784cb3031c2044daa7915c8", "type": "electric_scooter", "is_disabled": 0, "lat": 38.88297933333333, "rental_uris": {"ios": "https://dc.lft.to/lastmile_qr_scan", "android": "https://dc.lft.to/lastmile_qr_scan"}, "is_reserved": 0, "fusion_lon": 0.0, "fusion_lat": 0.0, "lon": -76.94855766666667, "name": "bac9ad7d1784cb3031c2044daa7915c8"}, {"bike_id": "ea73d6e5848c6638d90231dd9bd201ac", "type": "electric_scooter", "is_disabled": 0, "lat": 38.915896333333336, "rental_uris": {"ios": "https://dc.lft.to/lastmile_qr_scan", "android": "https://dc.lft.to/lastmile_qr_scan"}, "is_reserved": 0, "fusion_lon": 0.0, "fusion_lat": 0.0, "lon": -77.0447735, "name": "ea73d6e5848c6638d90231dd9bd201ac"}, {"bike_id": "2089ed33fa1de8471e0e7d32c8ace4c9", "type": "electric_scooter", "is_disabled": 0, "lat": 38.91684133333333, "rental_uris": {"ios": "https://dc.lft.to/lastmile_qr_scan", "android": "https://dc.lft.to/lastmile_qr_scan"}, "is_reserved": 0, "fusion_lon": 0.0, "fusion_lat": 0.0, "lon": -77.02696983333334, "name": "2089ed33fa1de8471e0e7d32c8ace4c9"}, {"bike_id": "318048c716c6cedbf67a47aa88999e94", "type": "electric_scooter", "is_disabled": 0, "lat": 38.91230316666667, "rental_uris": {"ios": "https://dc.lft.to/lastmile_qr_scan", "android": "https://dc.lft.to/lastmile_qr_scan"}, "is_reserved": 0, "fusion_lon": 0.0, "fusion_lat": 0.0, "lon": -77.04499733333333, "name": "318048c716c6cedbf67a47aa88999e94"}, {"bike_id": "2e60971304ddcabb497e6de347a3c5f8", "type": "electric_scooter", "is_disabled": 0, "lat": 38.93542, "rental_uris": {"ios": "https://dc.lft.to/lastmile_qr_scan", "android": "https://dc.lft.to/lastmile_qr_scan"}, "is_reserved": 0, "fusion_lon": 0.0, "fusion_lat": 0.0, "lon": -77.058623, "name": "2e60971304ddcabb497e6de347a3c5f8"}, {"bike_id": "57914652ce88d3e7de39077afb288661", "type": "electric_scooter", "is_disabled": 0, "lat": 38.919244666666664, "rental_uris": {"ios": "https://dc.lft.to/lastmile_qr_scan", "android": "https://dc.lft.to/lastmile_qr_scan"}, "is_reserved": 0, "fusion_lon": 0.0, "fusion_lat": 0.0, "lon": -77.04247283333333, "name": "57914652ce88d3e7de39077afb288661"}, {"bike_id": "ca3a00dad7ad6133c8d111f2be71de73", "type": "electric_scooter", "is_disabled": 0, "lat": 38.91562733333333, "rental_uris": {"ios": "https://dc.lft.to/lastmile_qr_scan", "android": "https://dc.lft.to/lastmile_qr_scan"}, "is_reserved": 0, "fusion_lon": 0.0, "fusion_lat": 0.0, "lon": -77.031617, "name": "ca3a00dad7ad6133c8d111f2be71de73"}, {"bike_id": "52e8b85929ec85997861285275cb11a3", "type": "electric_scooter", "is_disabled": 0, "lat": 38.902756, "rental_uris": {"ios": "https://dc.lft.to/lastmile_qr_scan", "android": "https://dc.lft.to/lastmile_qr_scan"}, "is_reserved": 0, "fusion_lon": 0.0, "fusion_lat": 0.0, "lon": -77.0398405, "name": "52e8b85929ec85997861285275cb11a3"}, {"bike_id": "bc46e7d67771bbc97190dfe1f2fee1e1", "type": "electric_scooter", "is_disabled": 0, "lat": 38.904644, "rental_uris": {"ios": "https://dc.lft.to/lastmile_qr_scan", "android": "https://dc.lft.to/lastmile_qr_scan"}, "is_reserved": 0, "fusion_lon": 0.0, "fusion_lat": 0.0, "lon": -77.0534375, "name": "bc46e7d67771bbc97190dfe1f2fee1e1"}, {"bike_id": "5f01c1222152431a352d72f7f6139f48", "type": "electric_scooter", "is_disabled": 0, "lat": 38.887111833333336, "rental_uris": {"ios": "https://dc.lft.to/lastmile_qr_scan", "android": "https://dc.lft.to/lastmile_qr_scan"}, "is_reserved": 0, "fusion_lon": 0.0, "fusion_lat": 0.0, "lon": -77.0221145, "name": "5f01c1222152431a352d72f7f6139f48"}, {"bike_id": "810ede8df603c17095be290ceb72ddad", "type": "electric_scooter", "is_disabled": 0, "lat": 38.863738833333336, "rental_uris": {"ios": "https://dc.lft.to/lastmile_qr_scan", "android": "https://dc.lft.to/lastmile_qr_scan"}, "is_reserved": 0, "fusion_lon": 0.0, "fusion_lat": 0.0, "lon": -76.99061216666666, "name": "810ede8df603c17095be290ceb72ddad"}, {"bike_id": "e76a7b5d3f9ae88fae2976226fb27fba", "type": "electric_bike", "is_disabled": 0, "lat": 38.913170666666666, "rental_uris": {"ios": "https://dc.lft.to/lastmile_qr_scan", "android": "https://dc.lft.to/lastmile_qr_scan"}, "is_reserved": 0, "fusion_lon": 0.0, "fusion_lat": 0.0, "lon": -77.223149, "name": "e76a7b5d3f9ae88fae2976226fb27fba"}, {"bike_id": "3b318ecf05084f3c01704b48b2bdfc6c", "type": "electric_scooter", "is_disabled": 0, "lat": 38.903843, "rental_uris": {"ios": "https://dc.lft.to/lastmile_qr_scan", "android": "https://dc.lft.to/lastmile_qr_scan"}, "is_reserved": 0, "fusion_lon": 0.0, "fusion_lat": 0.0, "lon": -77.0160495, "name": "3b318ecf05084f3c01704b48b2bdfc6c"}, {"bike_id": "84f59d7de0dc8291543ec2d44f52d2d4", "type": "electric_scooter", "is_disabled": 0, "lat": 38.9085, "rental_uris": {"ios": "https://dc.lft.to/lastmile_qr_scan", "android": "https://dc.lft.to/lastmile_qr_scan"}, "is_reserved": 0, "fusion_lon": 0.0, "fusion_lat": 0.0, "lon": -76.99797666666667, "name": "84f59d7de0dc8291543ec2d44f52d2d4"}, {"bike_id": "09acf3b2c4c8d4a60f29bc6e63960a41", "type": "electric_scooter", "is_disabled": 0, "lat": 38.883699, "rental_uris": {"ios": "https://dc.lft.to/lastmile_qr_scan", "android": "https://dc.lft.to/lastmile_qr_scan"}, "is_reserved": 0, "fusion_lon": 0.0, "fusion_lat": 0.0, "lon": -76.99520483333333, "name": "09acf3b2c4c8d4a60f29bc6e63960a41"}, {"bike_id": "30fe589fa5f55ced227daf610adda892", "type": "electric_scooter", "is_disabled": 0, "lat": 38.866902333333336, "rental_uris": {"ios": "https://dc.lft.to/lastmile_qr_scan", "android": "https://dc.lft.to/lastmile_qr_scan"}, "is_reserved": 0, "fusion_lon": 0.0, "fusion_lat": 0.0, "lon": -76.98559633333333, "name": "30fe589fa5f55ced227daf610adda892"}, {"bike_id": "13729b78e3ef919f83ac30ff61d87c5c", "type": "electric_scooter", "is_disabled": 0, "lat": 38.91535366666667, "rental_uris": {"ios": "https://dc.lft.to/lastmile_qr_scan", "android": "https://dc.lft.to/lastmile_qr_scan"}, "is_reserved": 0, "fusion_lon": 0.0, "fusion_lat": 0.0, "lon": -77.03195066666666, "name": "13729b78e3ef919f83ac30ff61d87c5c"}, {"bike_id": "5dbb7a94a223a09c1b17f25903d91d6b", "type": "electric_scooter", "is_disabled": 0, "lat": 38.89901166666667, "rental_uris": {"ios": "https://dc.lft.to/lastmile_qr_scan", "android": "https://dc.lft.to/lastmile_qr_scan"}, "is_reserved": 0, "fusion_lon": 0.0, "fusion_lat": 0.0, "lon": -77.03345133333333, "name": "5dbb7a94a223a09c1b17f25903d91d6b"}, {"bike_id": "7d07fc3ab0afba8bc2c7f932541afde7", "type": "electric_scooter", "is_disabled": 0, "lat": 38.9361615, "rental_uris": {"ios": "https://dc.lft.to/lastmile_qr_scan", "android": "https://dc.lft.to/lastmile_qr_scan"}, "is_reserved": 0, "fusion_lon": 0.0, "fusion_lat": 0.0, "lon": -77.0675475, "name": "7d07fc3ab0afba8bc2c7f932541afde7"}, {"bike_id": "f420b720f9ee1d9c9c0c75cb0b868b6a", "type": "electric_scooter", "is_disabled": 0, "lat": 38.91878766666667, "rental_uris": {"ios": "https://dc.lft.to/lastmile_qr_scan", "android": "https://dc.lft.to/lastmile_qr_scan"}, "is_reserved": 0, "fusion_lon": 0.0, "fusion_lat": 0.0, "lon": -77.04451483333334, "name": "f420b720f9ee1d9c9c0c75cb0b868b6a"}, {"bike_id": "17f0323b3293382e6a968878eb1a2485", "type": "electric_scooter", "is_disabled": 0, "lat": 38.89954566666667, "rental_uris": {"ios": "https://dc.lft.to/lastmile_qr_scan", "android": "https://dc.lft.to/lastmile_qr_scan"}, "is_reserved": 0, "fusion_lon": 0.0, "fusion_lat": 0.0, "lon": -77.02113366666667, "name": "17f0323b3293382e6a968878eb1a2485"}, {"bike_id": "f854374ee49206c51ad7021d74fe2e8f", "type": "electric_scooter", "is_disabled": 0, "lat": 38.915578, "rental_uris": {"ios": "https://dc.lft.to/lastmile_qr_scan", "android": "https://dc.lft.to/lastmile_qr_scan"}, "is_reserved": 0, "fusion_lon": 0.0, "fusion_lat": 0.0, "lon": -77.03162433333334, "name": "f854374ee49206c51ad7021d74fe2e8f"}, {"bike_id": "636e249672ef09225403f373cdde8014", "type": "electric_bike", "is_disabled": 0, "lat": 38.8729615, "rental_uris": {"ios": "https://dc.lft.to/lastmile_qr_scan", "android": "https://dc.lft.to/lastmile_qr_scan"}, "is_reserved": 0, "fusion_lon": 0.0, "fusion_lat": 0.0, "lon": -77.13921716666667, "name": "636e249672ef09225403f373cdde8014"}, {"bike_id": "1ad33a80ba84fc0f567bc15db5f8fca8", "type": "electric_scooter", "is_disabled": 0, "lat": 38.8971085, "rental_uris": {"ios": "https://dc.lft.to/lastmile_qr_scan", "android": "https://dc.lft.to/lastmile_qr_scan"}, "is_reserved": 0, "fusion_lon": 0.0, "fusion_lat": 0.0, "lon": -77.00771616666667, "name": "1ad33a80ba84fc0f567bc15db5f8fca8"}, {"bike_id": "c6dc887ad5523eb1444c42e1f4b336ca", "type": "electric_scooter", "is_disabled": 0, "lat": 38.919778, "rental_uris": {"ios": "https://dc.lft.to/lastmile_qr_scan", "android": "https://dc.lft.to/lastmile_qr_scan"}, "is_reserved": 0, "fusion_lon": 0.0, "fusion_lat": 0.0, "lon": -77.04440733333334, "name": "c6dc887ad5523eb1444c42e1f4b336ca"}, {"bike_id": "8a5582e918984d6c505c57544a17dc26", "type": "electric_scooter", "is_disabled": 0, "lat": 38.94196733333333, "rental_uris": {"ios": "https://dc.lft.to/lastmile_qr_scan", "android": "https://dc.lft.to/lastmile_qr_scan"}, "is_reserved": 0, "fusion_lon": 0.0, "fusion_lat": 0.0, "lon": -77.02346766666666, "name": "8a5582e918984d6c505c57544a17dc26"}, {"bike_id": "1f567312263b675e381c40162fc41d16", "type": "electric_bike", "is_disabled": 0, "lat": 38.8748675, "rental_uris": {"ios": "https://dc.lft.to/lastmile_qr_scan", "android": "https://dc.lft.to/lastmile_qr_scan"}, "is_reserved": 0, "fusion_lon": 0.0, "fusion_lat": 0.0, "lon": -77.00827733333334, "name": "1f567312263b675e381c40162fc41d16"}, {"bike_id": "d592aa59f518f20cd5870be4baa7c2aa", "type": "electric_scooter", "is_disabled": 0, "lat": 38.910519, "rental_uris": {"ios": "https://dc.lft.to/lastmile_qr_scan", "android": "https://dc.lft.to/lastmile_qr_scan"}, "is_reserved": 0, "fusion_lon": 0.0, "fusion_lat": 0.0, "lon": -77.04495066666667, "name": "d592aa59f518f20cd5870be4baa7c2aa"}, {"bike_id": "6fa5600c953e3996568195b4e845611a", "type": "electric_scooter", "is_disabled": 0, "lat": 38.873823333333334, "rental_uris": {"ios": "https://dc.lft.to/lastmile_qr_scan", "android": "https://dc.lft.to/lastmile_qr_scan"}, "is_reserved": 0, "fusion_lon": 0.0, "fusion_lat": 0.0, "lon": -77.00139366666667, "name": "6fa5600c953e3996568195b4e845611a"}, {"bike_id": "07c0988d72fe5d81782a59f52af7cb51", "type": "electric_scooter", "is_disabled": 0, "lat": 38.9367395, "rental_uris": {"ios": "https://dc.lft.to/lastmile_qr_scan", "android": "https://dc.lft.to/lastmile_qr_scan"}, "is_reserved": 0, "fusion_lon": 0.0, "fusion_lat": 0.0, "lon": -77.0358935, "name": "07c0988d72fe5d81782a59f52af7cb51"}, {"bike_id": "f230ee99ef8e9a67819acc386b1457ea", "type": "electric_bike", "is_disabled": 0, "lat": 38.8651065, "rental_uris": {"ios": "https://dc.lft.to/lastmile_qr_scan", "android": "https://dc.lft.to/lastmile_qr_scan"}, "is_reserved": 0, "fusion_lon": 0.0, "fusion_lat": 0.0, "lon": -76.97332, "name": "f230ee99ef8e9a67819acc386b1457ea"}, {"bike_id": "b5cb699354c6630ad3aa77a23ddc0d9b", "type": "electric_scooter", "is_disabled": 0, "lat": 38.91468966666667, "rental_uris": {"ios": "https://dc.lft.to/lastmile_qr_scan", "android": "https://dc.lft.to/lastmile_qr_scan"}, "is_reserved": 0, "fusion_lon": 0.0, "fusion_lat": 0.0, "lon": -77.04570416666667, "name": "b5cb699354c6630ad3aa77a23ddc0d9b"}, {"bike_id": "207da8f0a7a693459337b799f9185b0a", "type": "electric_scooter", "is_disabled": 0, "lat": 38.911375, "rental_uris": {"ios": "https://dc.lft.to/lastmile_qr_scan", "android": "https://dc.lft.to/lastmile_qr_scan"}, "is_reserved": 0, "fusion_lon": 0.0, "fusion_lat": 0.0, "lon": -77.03217233333334, "name": "207da8f0a7a693459337b799f9185b0a"}, {"bike_id": "4b9eed8535db0bf213fb6225ea5e870b", "type": "electric_scooter", "is_disabled": 0, "lat": 38.915600166666664, "rental_uris": {"ios": "https://dc.lft.to/lastmile_qr_scan", "android": "https://dc.lft.to/lastmile_qr_scan"}, "is_reserved": 0, "fusion_lon": 0.0, "fusion_lat": 0.0, "lon": -77.03681983333334, "name": "4b9eed8535db0bf213fb6225ea5e870b"}, {"bike_id": "e7a5cdd6950b8fb9bcdc8d5103eab6e3", "type": "electric_scooter", "is_disabled": 0, "lat": 38.911191, "rental_uris": {"ios": "https://dc.lft.to/lastmile_qr_scan", "android": "https://dc.lft.to/lastmile_qr_scan"}, "is_reserved": 0, "fusion_lon": 0.0, "fusion_lat": 0.0, "lon": -77.03326883333334, "name": "e7a5cdd6950b8fb9bcdc8d5103eab6e3"}, {"bike_id": "7ad5ed3e1b882891f1e2622a8a74b4c1", "type": "electric_scooter", "is_disabled": 0, "lat": 38.9073075, "rental_uris": {"ios": "https://dc.lft.to/lastmile_qr_scan", "android": "https://dc.lft.to/lastmile_qr_scan"}, "is_reserved": 0, "fusion_lon": 0.0, "fusion_lat": 0.0, "lon": -77.02807483333333, "name": "7ad5ed3e1b882891f1e2622a8a74b4c1"}, {"bike_id": "70ce7bf729636262df913460955de6f5", "type": "electric_scooter", "is_disabled": 0, "lat": 38.928589333333335, "rental_uris": {"ios": "https://dc.lft.to/lastmile_qr_scan", "android": "https://dc.lft.to/lastmile_qr_scan"}, "is_reserved": 0, "fusion_lon": 0.0, "fusion_lat": 0.0, "lon": -77.02958383333333, "name": "70ce7bf729636262df913460955de6f5"}, {"bike_id": "8dcca4e14d8a0d6011cf65458b99c6b6", "type": "electric_scooter", "is_disabled": 0, "lat": 38.91257616666667, "rental_uris": {"ios": "https://dc.lft.to/lastmile_qr_scan", "android": "https://dc.lft.to/lastmile_qr_scan"}, "is_reserved": 0, "fusion_lon": 0.0, "fusion_lat": 0.0, "lon": -77.038667, "name": "8dcca4e14d8a0d6011cf65458b99c6b6"}, {"bike_id": "3f26878e7546139496789e234ba83da3", "type": "electric_scooter", "is_disabled": 0, "lat": 38.911129833333334, "rental_uris": {"ios": "https://dc.lft.to/lastmile_qr_scan", "android": "https://dc.lft.to/lastmile_qr_scan"}, "is_reserved": 0, "fusion_lon": 0.0, "fusion_lat": 0.0, "lon": -77.04162933333333, "name": "3f26878e7546139496789e234ba83da3"}, {"bike_id": "f0c574f2ec36801048fb64e437f233f7", "type": "electric_scooter", "is_disabled": 0, "lat": 38.90164933333333, "rental_uris": {"ios": "https://dc.lft.to/lastmile_qr_scan", "android": "https://dc.lft.to/lastmile_qr_scan"}, "is_reserved": 0, "fusion_lon": 0.0, "fusion_lat": 0.0, "lon": -77.0084215, "name": "f0c574f2ec36801048fb64e437f233f7"}, {"bike_id": "0a4031c75bf7fe6b3891f66d7490ee65", "type": "electric_scooter", "is_disabled": 0, "lat": 38.905210333333336, "rental_uris": {"ios": "https://dc.lft.to/lastmile_qr_scan", "android": "https://dc.lft.to/lastmile_qr_scan"}, "is_reserved": 0, "fusion_lon": 0.0, "fusion_lat": 0.0, "lon": -77.04180716666667, "name": "0a4031c75bf7fe6b3891f66d7490ee65"}, {"bike_id": "26b167755130baec56d312c9d4b63326", "type": "electric_bike", "is_disabled": 0, "lat": 38.86187733333333, "rental_uris": {"ios": "https://dc.lft.to/lastmile_qr_scan", "android": "https://dc.lft.to/lastmile_qr_scan"}, "is_reserved": 0, "fusion_lon": 0.0, "fusion_lat": 0.0, "lon": -76.948129, "name": "26b167755130baec56d312c9d4b63326"}, {"bike_id": "f688ad5e9ec38ba8a3c01429112aac5a", "type": "electric_scooter", "is_disabled": 0, "lat": 38.8810025, "rental_uris": {"ios": "https://dc.lft.to/lastmile_qr_scan", "android": "https://dc.lft.to/lastmile_qr_scan"}, "is_reserved": 0, "fusion_lon": 0.0, "fusion_lat": 0.0, "lon": -76.99508333333333, "name": "f688ad5e9ec38ba8a3c01429112aac5a"}, {"bike_id": "42a0efa70edd02cb25e0d168eb8df88f", "type": "electric_scooter", "is_disabled": 0, "lat": 38.9461705, "rental_uris": {"ios": "https://dc.lft.to/lastmile_qr_scan", "android": "https://dc.lft.to/lastmile_qr_scan"}, "is_reserved": 0, "fusion_lon": 0.0, "fusion_lat": 0.0, "lon": -77.02653583333333, "name": "42a0efa70edd02cb25e0d168eb8df88f"}, {"bike_id": "665edc1b383172e450f6211e01aa547e", "type": "electric_scooter", "is_disabled": 0, "lat": 38.910477, "rental_uris": {"ios": "https://dc.lft.to/lastmile_qr_scan", "android": "https://dc.lft.to/lastmile_qr_scan"}, "is_reserved": 0, "fusion_lon": 0.0, "fusion_lat": 0.0, "lon": -77.03989366666667, "name": "665edc1b383172e450f6211e01aa547e"}, {"bike_id": "aa66ab66c0ea438848ba59b276d31028", "type": "electric_scooter", "is_disabled": 0, "lat": 38.93913166666667, "rental_uris": {"ios": "https://dc.lft.to/lastmile_qr_scan", "android": "https://dc.lft.to/lastmile_qr_scan"}, "is_reserved": 0, "fusion_lon": 0.0, "fusion_lat": 0.0, "lon": -77.0326485, "name": "aa66ab66c0ea438848ba59b276d31028"}, {"bike_id": "7c5c8289dc98e343447bc4a0afa70754", "type": "electric_scooter", "is_disabled": 0, "lat": 38.9275765, "rental_uris": {"ios": "https://dc.lft.to/lastmile_qr_scan", "android": "https://dc.lft.to/lastmile_qr_scan"}, "is_reserved": 0, "fusion_lon": 0.0, "fusion_lat": 0.0, "lon": -77.03278083333333, "name": "7c5c8289dc98e343447bc4a0afa70754"}, {"bike_id": "6fe1958a96438f2a7b3c91ef061eebdf", "type": "electric_scooter", "is_disabled": 0, "lat": 38.89618816666667, "rental_uris": {"ios": "https://dc.lft.to/lastmile_qr_scan", "android": "https://dc.lft.to/lastmile_qr_scan"}, "is_reserved": 0, "fusion_lon": 0.0, "fusion_lat": 0.0, "lon": -76.9857255, "name": "6fe1958a96438f2a7b3c91ef061eebdf"}, {"bike_id": "d5a2757bca156e975c71de4414248c1a", "type": "electric_scooter", "is_disabled": 0, "lat": 38.91803866666667, "rental_uris": {"ios": "https://dc.lft.to/lastmile_qr_scan", "android": "https://dc.lft.to/lastmile_qr_scan"}, "is_reserved": 0, "fusion_lon": 0.0, "fusion_lat": 0.0, "lon": -77.04555316666666, "name": "d5a2757bca156e975c71de4414248c1a"}, {"bike_id": "058c454fffbc4262980d859f84f16189", "type": "electric_scooter", "is_disabled": 0, "lat": 38.910379166666665, "rental_uris": {"ios": "https://dc.lft.to/lastmile_qr_scan", "android": "https://dc.lft.to/lastmile_qr_scan"}, "is_reserved": 0, "fusion_lon": 0.0, "fusion_lat": 0.0, "lon": -77.03844066666667, "name": "058c454fffbc4262980d859f84f16189"}, {"bike_id": "74aa47dbb774ad1773e4452d387d1d99", "type": "electric_scooter", "is_disabled": 0, "lat": 38.903698, "rental_uris": {"ios": "https://dc.lft.to/lastmile_qr_scan", "android": "https://dc.lft.to/lastmile_qr_scan"}, "is_reserved": 0, "fusion_lon": 0.0, "fusion_lat": 0.0, "lon": -77.04912666666667, "name": "74aa47dbb774ad1773e4452d387d1d99"}, {"bike_id": "a0f4f29692d75aeedee66bf542324879", "type": "electric_scooter", "is_disabled": 0, "lat": 38.9235185, "rental_uris": {"ios": "https://dc.lft.to/lastmile_qr_scan", "android": "https://dc.lft.to/lastmile_qr_scan"}, "is_reserved": 0, "fusion_lon": 0.0, "fusion_lat": 0.0, "lon": -77.04153466666666, "name": "a0f4f29692d75aeedee66bf542324879"}, {"bike_id": "dbeac3dbd4ded266a05b0cb18eeeacb2", "type": "electric_scooter", "is_disabled": 0, "lat": 38.951986833333336, "rental_uris": {"ios": "https://dc.lft.to/lastmile_qr_scan", "android": "https://dc.lft.to/lastmile_qr_scan"}, "is_reserved": 0, "fusion_lon": 0.0, "fusion_lat": 0.0, "lon": -77.0273435, "name": "dbeac3dbd4ded266a05b0cb18eeeacb2"}, {"bike_id": "5089e72d2d954878fe50c80a68cc321d", "type": "electric_scooter", "is_disabled": 0, "lat": 38.90917683333333, "rental_uris": {"ios": "https://dc.lft.to/lastmile_qr_scan", "android": "https://dc.lft.to/lastmile_qr_scan"}, "is_reserved": 0, "fusion_lon": 0.0, "fusion_lat": 0.0, "lon": -77.042076, "name": "5089e72d2d954878fe50c80a68cc321d"}, {"bike_id": "6c3ee4d013f8767d9594f4d760458471", "type": "electric_scooter", "is_disabled": 0, "lat": 38.90682966666667, "rental_uris": {"ios": "https://dc.lft.to/lastmile_qr_scan", "android": "https://dc.lft.to/lastmile_qr_scan"}, "is_reserved": 0, "fusion_lon": 0.0, "fusion_lat": 0.0, "lon": -77.05324716666667, "name": "6c3ee4d013f8767d9594f4d760458471"}, {"bike_id": "758e2a8f2fb624087da26fe6a9349824", "type": "electric_bike", "is_disabled": 0, "lat": 38.834260666666665, "rental_uris": {"ios": "https://dc.lft.to/lastmile_qr_scan", "android": "https://dc.lft.to/lastmile_qr_scan"}, "is_reserved": 0, "fusion_lon": 0.0, "fusion_lat": 0.0, "lon": -77.10356083333333, "name": "758e2a8f2fb624087da26fe6a9349824"}, {"bike_id": "a12e950330f11d334db49c58fb4ad0a4", "type": "electric_scooter", "is_disabled": 0, "lat": 38.905561, "rental_uris": {"ios": "https://dc.lft.to/lastmile_qr_scan", "android": "https://dc.lft.to/lastmile_qr_scan"}, "is_reserved": 0, "fusion_lon": 0.0, "fusion_lat": 0.0, "lon": -76.98859166666666, "name": "a12e950330f11d334db49c58fb4ad0a4"}, {"bike_id": "30fa4f132e0bf9f57c6579b6ff53cdbb", "type": "electric_scooter", "is_disabled": 0, "lat": 38.956603333333334, "rental_uris": {"ios": "https://dc.lft.to/lastmile_qr_scan", "android": "https://dc.lft.to/lastmile_qr_scan"}, "is_reserved": 0, "fusion_lon": 0.0, "fusion_lat": 0.0, "lon": -77.01030383333334, "name": "30fa4f132e0bf9f57c6579b6ff53cdbb"}, {"bike_id": "067553b19d322a2bcc085288ab661a73", "type": "electric_scooter", "is_disabled": 0, "lat": 38.911215, "rental_uris": {"ios": "https://dc.lft.to/lastmile_qr_scan", "android": "https://dc.lft.to/lastmile_qr_scan"}, "is_reserved": 0, "fusion_lon": 0.0, "fusion_lat": 0.0, "lon": -77.02235883333333, "name": "067553b19d322a2bcc085288ab661a73"}, {"bike_id": "50fb48f7d34bb2324fb5841ef851b14f", "type": "electric_scooter", "is_disabled": 0, "lat": 38.9207435, "rental_uris": {"ios": "https://dc.lft.to/lastmile_qr_scan", "android": "https://dc.lft.to/lastmile_qr_scan"}, "is_reserved": 0, "fusion_lon": 0.0, "fusion_lat": 0.0, "lon": -77.024017, "name": "50fb48f7d34bb2324fb5841ef851b14f"}, {"bike_id": "28135ae731a820601eed81ba925e9a81", "type": "electric_scooter", "is_disabled": 0, "lat": 38.917257, "rental_uris": {"ios": "https://dc.lft.to/lastmile_qr_scan", "android": "https://dc.lft.to/lastmile_qr_scan"}, "is_reserved": 0, "fusion_lon": 0.0, "fusion_lat": 0.0, "lon": -77.02507483333333, "name": "28135ae731a820601eed81ba925e9a81"}, {"bike_id": "c288601c7b44b59e4973f5c1ce3b8df7", "type": "electric_scooter", "is_disabled": 0, "lat": 38.9136395, "rental_uris": {"ios": "https://dc.lft.to/lastmile_qr_scan", "android": "https://dc.lft.to/lastmile_qr_scan"}, "is_reserved": 0, "fusion_lon": 0.0, "fusion_lat": 0.0, "lon": -77.06935966666667, "name": "c288601c7b44b59e4973f5c1ce3b8df7"}, {"bike_id": "fb35cbf6b63c9f202a0c1f98a3df3b76", "type": "electric_scooter", "is_disabled": 0, "lat": 38.90138616666667, "rental_uris": {"ios": "https://dc.lft.to/lastmile_qr_scan", "android": "https://dc.lft.to/lastmile_qr_scan"}, "is_reserved": 0, "fusion_lon": 0.0, "fusion_lat": 0.0, "lon": -77.01529283333333, "name": "fb35cbf6b63c9f202a0c1f98a3df3b76"}, {"bike_id": "3db5c9e54ae9fb7a5b75683d269a0551", "type": "electric_scooter", "is_disabled": 0, "lat": 38.922713, "rental_uris": {"ios": "https://dc.lft.to/lastmile_qr_scan", "android": "https://dc.lft.to/lastmile_qr_scan"}, "is_reserved": 0, "fusion_lon": 0.0, "fusion_lat": 0.0, "lon": -77.02186183333333, "name": "3db5c9e54ae9fb7a5b75683d269a0551"}, {"bike_id": "2e6cac7d2bc01979b1945651c587c120", "type": "electric_bike", "is_disabled": 0, "lat": 38.900459833333336, "rental_uris": {"ios": "https://dc.lft.to/lastmile_qr_scan", "android": "https://dc.lft.to/lastmile_qr_scan"}, "is_reserved": 0, "fusion_lon": 0.0, "fusion_lat": 0.0, "lon": -76.99025866666666, "name": "2e6cac7d2bc01979b1945651c587c120"}, {"bike_id": "31d93b49c5621776472fb361cd660e59", "type": "electric_bike", "is_disabled": 0, "lat": 38.966192166666666, "rental_uris": {"ios": "https://dc.lft.to/lastmile_qr_scan", "android": "https://dc.lft.to/lastmile_qr_scan"}, "is_reserved": 0, "fusion_lon": 0.0, "fusion_lat": 0.0, "lon": -77.03427616666667, "name": "31d93b49c5621776472fb361cd660e59"}, {"bike_id": "94954afaca954f1e7422fe558c7365bf", "type": "electric_scooter", "is_disabled": 0, "lat": 38.88703966666667, "rental_uris": {"ios": "https://dc.lft.to/lastmile_qr_scan", "android": "https://dc.lft.to/lastmile_qr_scan"}, "is_reserved": 0, "fusion_lon": 0.0, "fusion_lat": 0.0, "lon": -77.00354083333333, "name": "94954afaca954f1e7422fe558c7365bf"}, {"bike_id": "44644c0eacdd66c2ed65c173347fac3a", "type": "electric_scooter", "is_disabled": 0, "lat": 38.90816983333333, "rental_uris": {"ios": "https://dc.lft.to/lastmile_qr_scan", "android": "https://dc.lft.to/lastmile_qr_scan"}, "is_reserved": 0, "fusion_lon": 0.0, "fusion_lat": 0.0, "lon": -77.03938733333334, "name": "44644c0eacdd66c2ed65c173347fac3a"}, {"bike_id": "60dae384f0dd22494b848d60c2a76a4c", "type": "electric_scooter", "is_disabled": 0, "lat": 38.914059333333334, "rental_uris": {"ios": "https://dc.lft.to/lastmile_qr_scan", "android": "https://dc.lft.to/lastmile_qr_scan"}, "is_reserved": 0, "fusion_lon": 0.0, "fusion_lat": 0.0, "lon": -77.0266185, "name": "60dae384f0dd22494b848d60c2a76a4c"}, {"bike_id": "dc2066f51270aed7c51e4dcc02546cc5", "type": "electric_scooter", "is_disabled": 0, "lat": 38.9115265, "rental_uris": {"ios": "https://dc.lft.to/lastmile_qr_scan", "android": "https://dc.lft.to/lastmile_qr_scan"}, "is_reserved": 0, "fusion_lon": 0.0, "fusion_lat": 0.0, "lon": -77.02289533333334, "name": "dc2066f51270aed7c51e4dcc02546cc5"}, {"bike_id": "706f0a105befac5393a7262a7627a086", "type": "electric_scooter", "is_disabled": 0, "lat": 38.92089083333333, "rental_uris": {"ios": "https://dc.lft.to/lastmile_qr_scan", "android": "https://dc.lft.to/lastmile_qr_scan"}, "is_reserved": 0, "fusion_lon": 0.0, "fusion_lat": 0.0, "lon": -77.042134, "name": "706f0a105befac5393a7262a7627a086"}, {"bike_id": "7a78f8aa23567b44bef81f994fb01d49", "type": "electric_scooter", "is_disabled": 0, "lat": 38.90062233333333, "rental_uris": {"ios": "https://dc.lft.to/lastmile_qr_scan", "android": "https://dc.lft.to/lastmile_qr_scan"}, "is_reserved": 0, "fusion_lon": 0.0, "fusion_lat": 0.0, "lon": -76.92739116666667, "name": "7a78f8aa23567b44bef81f994fb01d49"}, {"bike_id": "a3be386cfaf61dce496c25deab653fd5", "type": "electric_scooter", "is_disabled": 0, "lat": 38.91039266666667, "rental_uris": {"ios": "https://dc.lft.to/lastmile_qr_scan", "android": "https://dc.lft.to/lastmile_qr_scan"}, "is_reserved": 0, "fusion_lon": 0.0, "fusion_lat": 0.0, "lon": -77.0436165, "name": "a3be386cfaf61dce496c25deab653fd5"}, {"bike_id": "efad2f25af90ce5ccc4f94c0c59371fa", "type": "electric_scooter", "is_disabled": 0, "lat": 38.909254, "rental_uris": {"ios": "https://dc.lft.to/lastmile_qr_scan", "android": "https://dc.lft.to/lastmile_qr_scan"}, "is_reserved": 0, "fusion_lon": 0.0, "fusion_lat": 0.0, "lon": -77.02307616666667, "name": "efad2f25af90ce5ccc4f94c0c59371fa"}, {"bike_id": "ec5389cf4589bd4c1bb884063f3cf412", "type": "electric_scooter", "is_disabled": 0, "lat": 38.872319166666664, "rental_uris": {"ios": "https://dc.lft.to/lastmile_qr_scan", "android": "https://dc.lft.to/lastmile_qr_scan"}, "is_reserved": 0, "fusion_lon": 0.0, "fusion_lat": 0.0, "lon": -77.011759, "name": "ec5389cf4589bd4c1bb884063f3cf412"}, {"bike_id": "12e50137b62212545ddc9c8ec3c225f1", "type": "electric_scooter", "is_disabled": 0, "lat": 38.91762133333334, "rental_uris": {"ios": "https://dc.lft.to/lastmile_qr_scan", "android": "https://dc.lft.to/lastmile_qr_scan"}, "is_reserved": 0, "fusion_lon": 0.0, "fusion_lat": 0.0, "lon": -77.04768183333333, "name": "12e50137b62212545ddc9c8ec3c225f1"}, {"bike_id": "820662567089152b609fa80c3bb47f0f", "type": "electric_scooter", "is_disabled": 0, "lat": 38.92665133333333, "rental_uris": {"ios": "https://dc.lft.to/lastmile_qr_scan", "android": "https://dc.lft.to/lastmile_qr_scan"}, "is_reserved": 0, "fusion_lon": 0.0, "fusion_lat": 0.0, "lon": -77.02965233333333, "name": "820662567089152b609fa80c3bb47f0f"}, {"bike_id": "458150f4d2d29a399ef75a87d744b64a", "type": "electric_scooter", "is_disabled": 0, "lat": 38.936090666666665, "rental_uris": {"ios": "https://dc.lft.to/lastmile_qr_scan", "android": "https://dc.lft.to/lastmile_qr_scan"}, "is_reserved": 0, "fusion_lon": 0.0, "fusion_lat": 0.0, "lon": -77.036572, "name": "458150f4d2d29a399ef75a87d744b64a"}, {"bike_id": "7062b3a09b337dca0b35b7e18ae99a54", "type": "electric_bike", "is_disabled": 0, "lat": 38.9401955, "rental_uris": {"ios": "https://dc.lft.to/lastmile_qr_scan", "android": "https://dc.lft.to/lastmile_qr_scan"}, "is_reserved": 0, "fusion_lon": 0.0, "fusion_lat": 0.0, "lon": -76.976137, "name": "7062b3a09b337dca0b35b7e18ae99a54"}, {"bike_id": "21810dc338bc925b6debda05a0ec13a7", "type": "electric_scooter", "is_disabled": 0, "lat": 38.89296, "rental_uris": {"ios": "https://dc.lft.to/lastmile_qr_scan", "android": "https://dc.lft.to/lastmile_qr_scan"}, "is_reserved": 0, "fusion_lon": 0.0, "fusion_lat": 0.0, "lon": -76.93928483333333, "name": "21810dc338bc925b6debda05a0ec13a7"}, {"bike_id": "fb9879c041269d7975054b8a69f13933", "type": "electric_bike", "is_disabled": 0, "lat": 38.956344, "rental_uris": {"ios": "https://dc.lft.to/lastmile_qr_scan", "android": "https://dc.lft.to/lastmile_qr_scan"}, "is_reserved": 0, "fusion_lon": 0.0, "fusion_lat": 0.0, "lon": -76.93871633333333, "name": "fb9879c041269d7975054b8a69f13933"}, {"bike_id": "807d368fad5a616c45d4452de22ae306", "type": "electric_scooter", "is_disabled": 0, "lat": 38.87924, "rental_uris": {"ios": "https://dc.lft.to/lastmile_qr_scan", "android": "https://dc.lft.to/lastmile_qr_scan"}, "is_reserved": 0, "fusion_lon": 0.0, "fusion_lat": 0.0, "lon": -77.003772, "name": "807d368fad5a616c45d4452de22ae306"}, {"bike_id": "104cfadb1f43ae7cf83841056585c254", "type": "electric_scooter", "is_disabled": 0, "lat": 38.897285833333335, "rental_uris": {"ios": "https://dc.lft.to/lastmile_qr_scan", "android": "https://dc.lft.to/lastmile_qr_scan"}, "is_reserved": 0, "fusion_lon": 0.0, "fusion_lat": 0.0, "lon": -77.0458835, "name": "104cfadb1f43ae7cf83841056585c254"}, {"bike_id": "ac2c2b6e8a97a04a601608d328a2dc9a", "type": "electric_scooter", "is_disabled": 0, "lat": 38.9843315, "rental_uris": {"ios": "https://dc.lft.to/lastmile_qr_scan", "android": "https://dc.lft.to/lastmile_qr_scan"}, "is_reserved": 0, "fusion_lon": 0.0, "fusion_lat": 0.0, "lon": -77.02674533333334, "name": "ac2c2b6e8a97a04a601608d328a2dc9a"}, {"bike_id": "699d27106f8dd51b05e823c0720eae17", "type": "electric_scooter", "is_disabled": 0, "lat": 38.8923705, "rental_uris": {"ios": "https://dc.lft.to/lastmile_qr_scan", "android": "https://dc.lft.to/lastmile_qr_scan"}, "is_reserved": 0, "fusion_lon": 0.0, "fusion_lat": 0.0, "lon": -77.02414583333334, "name": "699d27106f8dd51b05e823c0720eae17"}, {"bike_id": "65032f489298c3d91e90f852ec8f462c", "type": "electric_scooter", "is_disabled": 0, "lat": 38.90095016666667, "rental_uris": {"ios": "https://dc.lft.to/lastmile_qr_scan", "android": "https://dc.lft.to/lastmile_qr_scan"}, "is_reserved": 0, "fusion_lon": 0.0, "fusion_lat": 0.0, "lon": -77.00637216666667, "name": "65032f489298c3d91e90f852ec8f462c"}, {"bike_id": "56a9a4064ac506dbf2db9b023969dd96", "type": "electric_scooter", "is_disabled": 0, "lat": 38.911233333333335, "rental_uris": {"ios": "https://dc.lft.to/lastmile_qr_scan", "android": "https://dc.lft.to/lastmile_qr_scan"}, "is_reserved": 0, "fusion_lon": 0.0, "fusion_lat": 0.0, "lon": -77.0436075, "name": "56a9a4064ac506dbf2db9b023969dd96"}, {"bike_id": "31bbb0cbed31876ad3e71bf59c7d0015", "type": "electric_scooter", "is_disabled": 0, "lat": 38.92323183333333, "rental_uris": {"ios": "https://dc.lft.to/lastmile_qr_scan", "android": "https://dc.lft.to/lastmile_qr_scan"}, "is_reserved": 0, "fusion_lon": 0.0, "fusion_lat": 0.0, "lon": -77.03919766666667, "name": "31bbb0cbed31876ad3e71bf59c7d0015"}, {"bike_id": "db39a42c4c0a4b8d00bdba529b044924", "type": "electric_scooter", "is_disabled": 0, "lat": 38.89995783333333, "rental_uris": {"ios": "https://dc.lft.to/lastmile_qr_scan", "android": "https://dc.lft.to/lastmile_qr_scan"}, "is_reserved": 0, "fusion_lon": 0.0, "fusion_lat": 0.0, "lon": -77.053427, "name": "db39a42c4c0a4b8d00bdba529b044924"}, {"bike_id": "84aa5d7673e25513602ef17999e7c3ae", "type": "electric_scooter", "is_disabled": 0, "lat": 38.897065166666664, "rental_uris": {"ios": "https://dc.lft.to/lastmile_qr_scan", "android": "https://dc.lft.to/lastmile_qr_scan"}, "is_reserved": 0, "fusion_lon": 0.0, "fusion_lat": 0.0, "lon": -77.00827366666667, "name": "84aa5d7673e25513602ef17999e7c3ae"}, {"bike_id": "ceaa7399b96a63c51b8eec2a5bf7ae28", "type": "electric_scooter", "is_disabled": 0, "lat": 38.910694166666666, "rental_uris": {"ios": "https://dc.lft.to/lastmile_qr_scan", "android": "https://dc.lft.to/lastmile_qr_scan"}, "is_reserved": 0, "fusion_lon": 0.0, "fusion_lat": 0.0, "lon": -77.0371955, "name": "ceaa7399b96a63c51b8eec2a5bf7ae28"}, {"bike_id": "de7cee087fe7fade025223326d03dc4f", "type": "electric_scooter", "is_disabled": 0, "lat": 38.904885, "rental_uris": {"ios": "https://dc.lft.to/lastmile_qr_scan", "android": "https://dc.lft.to/lastmile_qr_scan"}, "is_reserved": 0, "fusion_lon": 0.0, "fusion_lat": 0.0, "lon": -77.038651, "name": "de7cee087fe7fade025223326d03dc4f"}, {"bike_id": "84d8dc60f2f484b4701ec0b249715bd7", "type": "electric_scooter", "is_disabled": 0, "lat": 38.936349166666666, "rental_uris": {"ios": "https://dc.lft.to/lastmile_qr_scan", "android": "https://dc.lft.to/lastmile_qr_scan"}, "is_reserved": 0, "fusion_lon": 0.0, "fusion_lat": 0.0, "lon": -77.05883433333334, "name": "84d8dc60f2f484b4701ec0b249715bd7"}, {"bike_id": "0c4208f205ccba562b2057d436a06cfe", "type": "electric_scooter", "is_disabled": 0, "lat": 38.9097145, "rental_uris": {"ios": "https://dc.lft.to/lastmile_qr_scan", "android": "https://dc.lft.to/lastmile_qr_scan"}, "is_reserved": 0, "fusion_lon": 0.0, "fusion_lat": 0.0, "lon": -77.02170533333333, "name": "0c4208f205ccba562b2057d436a06cfe"}, {"bike_id": "1d3dd5f3fde60d96a356cd3b65c96b50", "type": "electric_scooter", "is_disabled": 0, "lat": 38.90221566666666, "rental_uris": {"ios": "https://dc.lft.to/lastmile_qr_scan", "android": "https://dc.lft.to/lastmile_qr_scan"}, "is_reserved": 0, "fusion_lon": 0.0, "fusion_lat": 0.0, "lon": -77.023173, "name": "1d3dd5f3fde60d96a356cd3b65c96b50"}, {"bike_id": "1b2ffc944dbae2cd059ec6d957c752c4", "type": "electric_scooter", "is_disabled": 0, "lat": 38.932567166666665, "rental_uris": {"ios": "https://dc.lft.to/lastmile_qr_scan", "android": "https://dc.lft.to/lastmile_qr_scan"}, "is_reserved": 0, "fusion_lon": 0.0, "fusion_lat": 0.0, "lon": -77.03270916666666, "name": "1b2ffc944dbae2cd059ec6d957c752c4"}, {"bike_id": "0c2b8a2f8dcc28f0bfeee888ba824741", "type": "electric_scooter", "is_disabled": 0, "lat": 38.903711, "rental_uris": {"ios": "https://dc.lft.to/lastmile_qr_scan", "android": "https://dc.lft.to/lastmile_qr_scan"}, "is_reserved": 0, "fusion_lon": 0.0, "fusion_lat": 0.0, "lon": -77.042527, "name": "0c2b8a2f8dcc28f0bfeee888ba824741"}, {"bike_id": "fcc79c46cb2923db9bd2e994c1d19c2f", "type": "electric_scooter", "is_disabled": 0, "lat": 38.9214805, "rental_uris": {"ios": "https://dc.lft.to/lastmile_qr_scan", "android": "https://dc.lft.to/lastmile_qr_scan"}, "is_reserved": 0, "fusion_lon": 0.0, "fusion_lat": 0.0, "lon": -77.01812333333334, "name": "fcc79c46cb2923db9bd2e994c1d19c2f"}, {"bike_id": "840d7915f080612bfc275fbb5580551b", "type": "electric_scooter", "is_disabled": 0, "lat": 38.9071695, "rental_uris": {"ios": "https://dc.lft.to/lastmile_qr_scan", "android": "https://dc.lft.to/lastmile_qr_scan"}, "is_reserved": 0, "fusion_lon": 0.0, "fusion_lat": 0.0, "lon": -76.98926583333333, "name": "840d7915f080612bfc275fbb5580551b"}, {"bike_id": "93c6c742360a2d2d88a66d92cece25fc", "type": "electric_bike", "is_disabled": 0, "lat": 38.82953416666667, "rental_uris": {"ios": "https://dc.lft.to/lastmile_qr_scan", "android": "https://dc.lft.to/lastmile_qr_scan"}, "is_reserved": 0, "fusion_lon": 0.0, "fusion_lat": 0.0, "lon": -77.1235785, "name": "93c6c742360a2d2d88a66d92cece25fc"}, {"bike_id": "56caa8845b7907374c366b063a97eb11", "type": "electric_scooter", "is_disabled": 0, "lat": 38.8591845, "rental_uris": {"ios": "https://dc.lft.to/lastmile_qr_scan", "android": "https://dc.lft.to/lastmile_qr_scan"}, "is_reserved": 0, "fusion_lon": 0.0, "fusion_lat": 0.0, "lon": -76.98979083333333, "name": "56caa8845b7907374c366b063a97eb11"}, {"bike_id": "51b20be518d520b068b4341bf8c3b884", "type": "electric_scooter", "is_disabled": 0, "lat": 38.90583183333333, "rental_uris": {"ios": "https://dc.lft.to/lastmile_qr_scan", "android": "https://dc.lft.to/lastmile_qr_scan"}, "is_reserved": 0, "fusion_lon": 0.0, "fusion_lat": 0.0, "lon": -77.05141583333334, "name": "51b20be518d520b068b4341bf8c3b884"}, {"bike_id": "de388b4b5a153c34c9b2f78e88c04d4c", "type": "electric_scooter", "is_disabled": 0, "lat": 38.896095, "rental_uris": {"ios": "https://dc.lft.to/lastmile_qr_scan", "android": "https://dc.lft.to/lastmile_qr_scan"}, "is_reserved": 0, "fusion_lon": 0.0, "fusion_lat": 0.0, "lon": -77.02982683333333, "name": "de388b4b5a153c34c9b2f78e88c04d4c"}, {"bike_id": "3859a444280fc9374847af767d474cf0", "type": "electric_scooter", "is_disabled": 0, "lat": 38.936399333333334, "rental_uris": {"ios": "https://dc.lft.to/lastmile_qr_scan", "android": "https://dc.lft.to/lastmile_qr_scan"}, "is_reserved": 0, "fusion_lon": 0.0, "fusion_lat": 0.0, "lon": -77.03267333333334, "name": "3859a444280fc9374847af767d474cf0"}, {"bike_id": "c1fba416a4a822d7aa1e6bd24dc5d3f8", "type": "electric_scooter", "is_disabled": 0, "lat": 38.89750933333333, "rental_uris": {"ios": "https://dc.lft.to/lastmile_qr_scan", "android": "https://dc.lft.to/lastmile_qr_scan"}, "is_reserved": 0, "fusion_lon": 0.0, "fusion_lat": 0.0, "lon": -77.0297985, "name": "c1fba416a4a822d7aa1e6bd24dc5d3f8"}, {"bike_id": "0b326d3582a8a363f3041224e2ef4823", "type": "electric_scooter", "is_disabled": 0, "lat": 38.899633666666666, "rental_uris": {"ios": "https://dc.lft.to/lastmile_qr_scan", "android": "https://dc.lft.to/lastmile_qr_scan"}, "is_reserved": 0, "fusion_lon": 0.0, "fusion_lat": 0.0, "lon": -77.02233283333334, "name": "0b326d3582a8a363f3041224e2ef4823"}, {"bike_id": "e36dab58ed7280ca62111d19b56493d0", "type": "electric_scooter", "is_disabled": 0, "lat": 38.902464, "rental_uris": {"ios": "https://dc.lft.to/lastmile_qr_scan", "android": "https://dc.lft.to/lastmile_qr_scan"}, "is_reserved": 0, "fusion_lon": 0.0, "fusion_lat": 0.0, "lon": -77.01751116666667, "name": "e36dab58ed7280ca62111d19b56493d0"}, {"bike_id": "33f37987c41602ad648fcb9ff5a54d77", "type": "electric_scooter", "is_disabled": 0, "lat": 38.917437, "rental_uris": {"ios": "https://dc.lft.to/lastmile_qr_scan", "android": "https://dc.lft.to/lastmile_qr_scan"}, "is_reserved": 0, "fusion_lon": 0.0, "fusion_lat": 0.0, "lon": -77.041681, "name": "33f37987c41602ad648fcb9ff5a54d77"}, {"bike_id": "64f2854876de91510f85b1d6454ee56d", "type": "electric_scooter", "is_disabled": 0, "lat": 38.92150133333333, "rental_uris": {"ios": "https://dc.lft.to/lastmile_qr_scan", "android": "https://dc.lft.to/lastmile_qr_scan"}, "is_reserved": 0, "fusion_lon": 0.0, "fusion_lat": 0.0, "lon": -77.04345133333334, "name": "64f2854876de91510f85b1d6454ee56d"}, {"bike_id": "d006bc288db850ad6fd380176430e3a2", "type": "electric_bike", "is_disabled": 0, "lat": 38.892871166666666, "rental_uris": {"ios": "https://dc.lft.to/lastmile_qr_scan", "android": "https://dc.lft.to/lastmile_qr_scan"}, "is_reserved": 0, "fusion_lon": 0.0, "fusion_lat": 0.0, "lon": -76.97618183333333, "name": "d006bc288db850ad6fd380176430e3a2"}, {"bike_id": "8a858c9acf353da0e34f1e07b014990c", "type": "electric_scooter", "is_disabled": 0, "lat": 38.908519166666665, "rental_uris": {"ios": "https://dc.lft.to/lastmile_qr_scan", "android": "https://dc.lft.to/lastmile_qr_scan"}, "is_reserved": 0, "fusion_lon": 0.0, "fusion_lat": 0.0, "lon": -77.00101616666667, "name": "8a858c9acf353da0e34f1e07b014990c"}, {"bike_id": "b935337a08348996b9b77a480a221f20", "type": "electric_scooter", "is_disabled": 0, "lat": 38.87751266666667, "rental_uris": {"ios": "https://dc.lft.to/lastmile_qr_scan", "android": "https://dc.lft.to/lastmile_qr_scan"}, "is_reserved": 0, "fusion_lon": 0.0, "fusion_lat": 0.0, "lon": -77.00441016666667, "name": "b935337a08348996b9b77a480a221f20"}, {"bike_id": "c933c7a881d08e14fa683b7b5b0b981a", "type": "electric_scooter", "is_disabled": 0, "lat": 38.907937833333335, "rental_uris": {"ios": "https://dc.lft.to/lastmile_qr_scan", "android": "https://dc.lft.to/lastmile_qr_scan"}, "is_reserved": 0, "fusion_lon": 0.0, "fusion_lat": 0.0, "lon": -77.03128683333334, "name": "c933c7a881d08e14fa683b7b5b0b981a"}, {"bike_id": "222cf80cac852bf861b6b97fb1acab1e", "type": "electric_scooter", "is_disabled": 0, "lat": 38.91603966666667, "rental_uris": {"ios": "https://dc.lft.to/lastmile_qr_scan", "android": "https://dc.lft.to/lastmile_qr_scan"},