{"data": {"bikes": [{"is_disabled": 0, "is_reserved": 0, "fusion_lat": 0.0, "lat": 38.95685666666667, "fusion_lon": 0.0, "rental_uris": {"ios": "https://dc.lft.to/lastmile_qr_scan", "android": "https://dc.lft.to/lastmile_qr_scan"}, "lon": -77.02230983333334, "bike_id": "a50200525b853af3caa76e989dc32685", "type": "electric_scooter", "name": "a50200525b853af3caa76e989dc32685"}, {"is_disabled": 0, "is_reserved": 0, "fusion_lat": 0.0, "lat": 38.89622966666667, "fusion_lon": 0.0, "rental_uris": {"ios": "https://dc.lft.to/lastmile_qr_scan", "android": "https://dc.lft.to/lastmile_qr_scan"}, "lon": -76.90749933333333, "bike_id": "5560a6a94bbcdb98a5c7efe6669d8cb9", "type": "electric_bike", "name": "5560a6a94bbcdb98a5c7efe6669d8cb9"}, {"is_disabled": 0, "is_reserved": 0, "fusion_lat": 0.0, "lat": 38.92305733333333, "fusion_lon": 0.0, "rental_uris": {"ios": "https://dc.lft.to/lastmile_qr_scan", "android": "https://dc.lft.to/lastmile_qr_scan"}, "lon": -77.02973166666666, "bike_id": "692f4f22c9af843f9a477210f1209060", "type": "electric_scooter", "name": "692f4f22c9af843f9a477210f1209060"}, {"is_disabled": 0, "is_reserved": 0, "fusion_lat": 0.0, "lat": 38.902539833333336, "fusion_lon": 0.0, "rental_uris": {"ios": "https://dc.lft.to/lastmile_qr_scan", "android": "https://dc.lft.to/lastmile_qr_scan"}, "lon": -77.03965566666666, "bike_id": "dcda1882d3d7fa244349b63b86b3e1e1", "type": "electric_scooter", "name": "dcda1882d3d7fa244349b63b86b3e1e1"}, {"is_disabled": 0, "is_reserved": 0, "fusion_lat": 0.0, "lat": 38.876641166666666, "fusion_lon": 0.0, "rental_uris": {"ios": "https://dc.lft.to/lastmile_qr_scan", "android": "https://dc.lft.to/lastmile_qr_scan"}, "lon": -76.99625983333334, "bike_id": "cfa04a20032baf0df86f9081c630621d", "type": "electric_scooter", "name": "cfa04a20032baf0df86f9081c630621d"}, {"is_disabled": 0, "is_reserved": 0, "fusion_lat": 0.0, "lat": 38.916843, "fusion_lon": 0.0, "rental_uris": {"ios": "https://dc.lft.to/lastmile_qr_scan", "android": "https://dc.lft.to/lastmile_qr_scan"}, "lon": -77.02967833333334, "bike_id": "6db105eb97dabbf08121162ae9bfdc86", "type": "electric_scooter", "name": "6db105eb97dabbf08121162ae9bfdc86"}, {"is_disabled": 0, "is_reserved": 0, "fusion_lat": 0.0, "lat": 38.8853185, "fusion_lon": 0.0, "rental_uris": {"ios": "https://dc.lft.to/lastmile_qr_scan", "android": "https://dc.lft.to/lastmile_qr_scan"}, "lon": -76.980548, "bike_id": "2d6f9503b470915b7167a5bff6742b37", "type": "electric_scooter", "name": "2d6f9503b470915b7167a5bff6742b37"}, {"is_disabled": 0, "is_reserved": 0, "fusion_lat": 0.0, "lat": 38.916474666666666, "fusion_lon": 0.0, "rental_uris": {"ios": "https://dc.lft.to/lastmile_qr_scan", "android": "https://dc.lft.to/lastmile_qr_scan"}, "lon": -77.02410333333333, "bike_id": "8af39604607fa45b721c94a36fe2ba12", "type": "electric_scooter", "name": "8af39604607fa45b721c94a36fe2ba12"}, {"is_disabled": 0, "is_reserved": 0, "fusion_lat": 0.0, "lat": 38.897224666666666, "fusion_lon": 0.0, "rental_uris": {"ios": "https://dc.lft.to/lastmile_qr_scan", "android": "https://dc.lft.to/lastmile_qr_scan"}, "lon": -77.03077966666666, "bike_id": "0b129fd9bac969105f663db94f8f28d5", "type": "electric_scooter", "name": "0b129fd9bac969105f663db94f8f28d5"}, {"is_disabled": 0, "is_reserved": 0, "fusion_lat": 0.0, "lat": 38.88743916666667, "fusion_lon": 0.0, "rental_uris": {"ios": "https://dc.lft.to/lastmile_qr_scan", "android": "https://dc.lft.to/lastmile_qr_scan"}, "lon": -77.02252866666667, "bike_id": "53888426490f89d077e0a03253623845", "type": "electric_bike", "name": "53888426490f89d077e0a03253623845"}, {"is_disabled": 0, "is_reserved": 0, "fusion_lat": 0.0, "lat": 38.8923545, "fusion_lon": 0.0, "rental_uris": {"ios": "https://dc.lft.to/lastmile_qr_scan", "android": "https://dc.lft.to/lastmile_qr_scan"}, "lon": -77.02802983333333, "bike_id": "2adea8d9a4b3f12994770490cea6349e", "type": "electric_scooter", "name": "2adea8d9a4b3f12994770490cea6349e"}, {"is_disabled": 0, "is_reserved": 0, "fusion_lat": 0.0, "lat": 38.928244666666664, "fusion_lon": 0.0, "rental_uris": {"ios": "https://dc.lft.to/lastmile_qr_scan", "android": "https://dc.lft.to/lastmile_qr_scan"}, "lon": -77.02259033333333, "bike_id": "c94982c5fab9bff5a530381bb8f076dc", "type": "electric_scooter", "name": "c94982c5fab9bff5a530381bb8f076dc"}, {"is_disabled": 0, "is_reserved": 0, "fusion_lat": 0.0, "lat": 38.918320333333334, "fusion_lon": 0.0, "rental_uris": {"ios": "https://dc.lft.to/lastmile_qr_scan", "android": "https://dc.lft.to/lastmile_qr_scan"}, "lon": -77.053166, "bike_id": "dd43d10dddc74db114fab1ee7932e5d5", "type": "electric_scooter", "name": "dd43d10dddc74db114fab1ee7932e5d5"}, {"is_disabled": 0, "is_reserved": 0, "fusion_lat": 0.0, "lat": 38.934731666666664, "fusion_lon": 0.0, "rental_uris": {"ios": "https://dc.lft.to/lastmile_qr_scan", "android": "https://dc.lft.to/lastmile_qr_scan"}, "lon": -77.02403266666667, "bike_id": "9b4b0dd5e8eee8efb127f3c0be063f7f", "type": "electric_scooter", "name": "9b4b0dd5e8eee8efb127f3c0be063f7f"}, {"is_disabled": 0, "is_reserved": 0, "fusion_lat": 0.0, "lat": 38.84096483333333, "fusion_lon": 0.0, "rental_uris": {"ios": "https://dc.lft.to/lastmile_qr_scan", "android": "https://dc.lft.to/lastmile_qr_scan"}, "lon": -76.987158, "bike_id": "c33c39ff2ebf391e27839e22dc35ed57", "type": "electric_bike", "name": "c33c39ff2ebf391e27839e22dc35ed57"}, {"is_disabled": 0, "is_reserved": 0, "fusion_lat": 0.0, "lat": 38.912587333333335, "fusion_lon": 0.0, "rental_uris": {"ios": "https://dc.lft.to/lastmile_qr_scan", "android": "https://dc.lft.to/lastmile_qr_scan"}, "lon": -77.04469383333333, "bike_id": "2280149ec5aa689dcaf02093b5f1978f", "type": "electric_scooter", "name": "2280149ec5aa689dcaf02093b5f1978f"}, {"is_disabled": 0, "is_reserved": 0, "fusion_lat": 0.0, "lat": 38.930433666666666, "fusion_lon": 0.0, "rental_uris": {"ios": "https://dc.lft.to/lastmile_qr_scan", "android": "https://dc.lft.to/lastmile_qr_scan"}, "lon": -77.05568116666667, "bike_id": "1ef9d99428fd9be95b6a7f4d8a3823a1", "type": "electric_scooter", "name": "1ef9d99428fd9be95b6a7f4d8a3823a1"}, {"is_disabled": 0, "is_reserved": 0, "fusion_lat": 0.0, "lat": 38.910551833333336, "fusion_lon": 0.0, "rental_uris": {"ios": "https://dc.lft.to/lastmile_qr_scan", "android": "https://dc.lft.to/lastmile_qr_scan"}, "lon": -77.04357633333333, "bike_id": "cdb9ff13e9a8f01f94814ed9e77337a5", "type": "electric_scooter", "name": "cdb9ff13e9a8f01f94814ed9e77337a5"}, {"is_disabled": 0, "is_reserved": 0, "fusion_lat": 0.0, "lat": 38.911432166666664, "fusion_lon": 0.0, "rental_uris": {"ios": "https://dc.lft.to/lastmile_qr_scan", "android": "https://dc.lft.to/lastmile_qr_scan"}, "lon": -77.02192966666667, "bike_id": "9e334fd5945c13fbebb368edb674dd99", "type": "electric_scooter", "name": "9e334fd5945c13fbebb368edb674dd99"}, {"is_disabled": 0, "is_reserved": 0, "fusion_lat": 0.0, "lat": 38.904363833333335, "fusion_lon": 0.0, "rental_uris": {"ios": "https://dc.lft.to/lastmile_qr_scan", "android": "https://dc.lft.to/lastmile_qr_scan"}, "lon": -77.03084983333333, "bike_id": "5fbaf8692fc8c9edfe75d655adc67656", "type": "electric_scooter", "name": "5fbaf8692fc8c9edfe75d655adc67656"}, {"is_disabled": 0, "is_reserved": 0, "fusion_lat": 0.0, "lat": 38.9059285, "fusion_lon": 0.0, "rental_uris": {"ios": "https://dc.lft.to/lastmile_qr_scan", "android": "https://dc.lft.to/lastmile_qr_scan"}, "lon": -77.01619483333333, "bike_id": "31b95fc9802f92e2a24b47a26625ce38", "type": "electric_scooter", "name": "31b95fc9802f92e2a24b47a26625ce38"}, {"is_disabled": 0, "is_reserved": 0, "fusion_lat": 0.0, "lat": 38.88419733333333, "fusion_lon": 0.0, "rental_uris": {"ios": "https://dc.lft.to/lastmile_qr_scan", "android": "https://dc.lft.to/lastmile_qr_scan"}, "lon": -77.02512166666666, "bike_id": "431128ff02978ad2ac140c73551a5aef", "type": "electric_scooter", "name": "431128ff02978ad2ac140c73551a5aef"}, {"is_disabled": 0, "is_reserved": 0, "fusion_lat": 0.0, "lat": 38.9214345, "fusion_lon": 0.0, "rental_uris": {"ios": "https://dc.lft.to/lastmile_qr_scan", "android": "https://dc.lft.to/lastmile_qr_scan"}, "lon": -77.04561066666666, "bike_id": "4ee2d1724811794cce3520ba87a36349", "type": "electric_scooter", "name": "4ee2d1724811794cce3520ba87a36349"}, {"is_disabled": 0, "is_reserved": 0, "fusion_lat": 0.0, "lat": 38.9141485, "fusion_lon": 0.0, "rental_uris": {"ios": "https://dc.lft.to/lastmile_qr_scan", "android": "https://dc.lft.to/lastmile_qr_scan"}, "lon": -77.04290166666667, "bike_id": "1f6f9a3959fb8df7f1a796be80f1803f", "type": "electric_scooter", "name": "1f6f9a3959fb8df7f1a796be80f1803f"}, {"is_disabled": 0, "is_reserved": 0, "fusion_lat": 0.0, "lat": 38.90353533333333, "fusion_lon": 0.0, "rental_uris": {"ios": "https://dc.lft.to/lastmile_qr_scan", "android": "https://dc.lft.to/lastmile_qr_scan"}, "lon": -77.04826433333334, "bike_id": "1d4e6fc201a954ef4f8291bdb0c566dc", "type": "electric_scooter", "name": "1d4e6fc201a954ef4f8291bdb0c566dc"}, {"is_disabled": 0, "is_reserved": 0, "fusion_lat": 0.0, "lat": 38.8925145, "fusion_lon": 0.0, "rental_uris": {"ios": "https://dc.lft.to/lastmile_qr_scan", "android": "https://dc.lft.to/lastmile_qr_scan"}, "lon": -77.02615316666666, "bike_id": "5b38991e2e85820c9af0cc1f5f9356e5", "type": "electric_scooter", "name": "5b38991e2e85820c9af0cc1f5f9356e5"}, {"is_disabled": 0, "is_reserved": 0, "fusion_lat": 0.0, "lat": 38.90511466666667, "fusion_lon": 0.0, "rental_uris": {"ios": "https://dc.lft.to/lastmile_qr_scan", "android": "https://dc.lft.to/lastmile_qr_scan"}, "lon": -77.009107, "bike_id": "deba8df289192d1a05eb6b635bc0f3b9", "type": "electric_scooter", "name": "deba8df289192d1a05eb6b635bc0f3b9"}, {"is_disabled": 0, "is_reserved": 0, "fusion_lat": 0.0, "lat": 38.89424966666667, "fusion_lon": 0.0, "rental_uris": {"ios": "https://dc.lft.to/lastmile_qr_scan", "android": "https://dc.lft.to/lastmile_qr_scan"}, "lon": -77.02415983333333, "bike_id": "ab171f1a7a5cb92af85410b6a9901e28", "type": "electric_scooter", "name": "ab171f1a7a5cb92af85410b6a9901e28"}, {"is_disabled": 0, "is_reserved": 0, "fusion_lat": 0.0, "lat": 38.90397933333333, "fusion_lon": 0.0, "rental_uris": {"ios": "https://dc.lft.to/lastmile_qr_scan", "android": "https://dc.lft.to/lastmile_qr_scan"}, "lon": -77.02967183333334, "bike_id": "2e6347d91bc7a0581b0d58765af3e4df", "type": "electric_scooter", "name": "2e6347d91bc7a0581b0d58765af3e4df"}, {"is_disabled": 0, "is_reserved": 0, "fusion_lat": 0.0, "lat": 38.9287775, "fusion_lon": 0.0, "rental_uris": {"ios": "https://dc.lft.to/lastmile_qr_scan", "android": "https://dc.lft.to/lastmile_qr_scan"}, "lon": -77.03993116666666, "bike_id": "48e2f91c7ddf47350c94c20f3b82da09", "type": "electric_scooter", "name": "48e2f91c7ddf47350c94c20f3b82da09"}, {"is_disabled": 0, "is_reserved": 0, "fusion_lat": 0.0, "lat": 38.916962166666664, "fusion_lon": 0.0, "rental_uris": {"ios": "https://dc.lft.to/lastmile_qr_scan", "android": "https://dc.lft.to/lastmile_qr_scan"}, "lon": -77.03768016666666, "bike_id": "884dd96b5477c0354304bd3f29b4ae7a", "type": "electric_scooter", "name": "884dd96b5477c0354304bd3f29b4ae7a"}, {"is_disabled": 0, "is_reserved": 0, "fusion_lat": 0.0, "lat": 38.904313, "fusion_lon": 0.0, "rental_uris": {"ios": "https://dc.lft.to/lastmile_qr_scan", "android": "https://dc.lft.to/lastmile_qr_scan"}, "lon": -77.06117416666666, "bike_id": "ac3e0791c53822dcc34daca6e0376c96", "type": "electric_scooter", "name": "ac3e0791c53822dcc34daca6e0376c96"}, {"is_disabled": 0, "is_reserved": 0, "fusion_lat": 0.0, "lat": 38.944522, "fusion_lon": 0.0, "rental_uris": {"ios": "https://dc.lft.to/lastmile_qr_scan", "android": "https://dc.lft.to/lastmile_qr_scan"}, "lon": -77.03280283333334, "bike_id": "9ef58c5a13c6d0b202d2fe5aeeddd5ba", "type": "electric_scooter", "name": "9ef58c5a13c6d0b202d2fe5aeeddd5ba"}, {"is_disabled": 0, "is_reserved": 0, "fusion_lat": 0.0, "lat": 38.956186, "fusion_lon": 0.0, "rental_uris": {"ios": "https://dc.lft.to/lastmile_qr_scan", "android": "https://dc.lft.to/lastmile_qr_scan"}, "lon": -77.03312116666666, "bike_id": "d596374ff2e5af9eb70f81964cd567ee", "type": "electric_scooter", "name": "d596374ff2e5af9eb70f81964cd567ee"}, {"is_disabled": 0, "is_reserved": 0, "fusion_lat": 0.0, "lat": 38.9195425, "fusion_lon": 0.0, "rental_uris": {"ios": "https://dc.lft.to/lastmile_qr_scan", "android": "https://dc.lft.to/lastmile_qr_scan"}, "lon": -77.02310633333333, "bike_id": "e7dc69f75fff2e6828be26376ea2cced", "type": "electric_scooter", "name": "e7dc69f75fff2e6828be26376ea2cced"}, {"is_disabled": 0, "is_reserved": 0, "fusion_lat": 0.0, "lat": 38.9073095, "fusion_lon": 0.0, "rental_uris": {"ios": "https://dc.lft.to/lastmile_qr_scan", "android": "https://dc.lft.to/lastmile_qr_scan"}, "lon": -77.02980316666667, "bike_id": "f17719f492bdb7045e6682621a2c62c6", "type": "electric_scooter", "name": "f17719f492bdb7045e6682621a2c62c6"}, {"is_disabled": 0, "is_reserved": 0, "fusion_lat": 0.0, "lat": 38.9039605, "fusion_lon": 0.0, "rental_uris": {"ios": "https://dc.lft.to/lastmile_qr_scan", "android": "https://dc.lft.to/lastmile_qr_scan"}, "lon": -77.06297883333333, "bike_id": "48942fc70c2393e8e0de73dad07d243e", "type": "electric_scooter", "name": "48942fc70c2393e8e0de73dad07d243e"}, {"is_disabled": 0, "is_reserved": 0, "fusion_lat": 0.0, "lat": 38.930854833333335, "fusion_lon": 0.0, "rental_uris": {"ios": "https://dc.lft.to/lastmile_qr_scan", "android": "https://dc.lft.to/lastmile_qr_scan"}, "lon": -77.02810783333334, "bike_id": "30a30b914595e9b132ff06168f575e05", "type": "electric_scooter", "name": "30a30b914595e9b132ff06168f575e05"}, {"is_disabled": 0, "is_reserved": 0, "fusion_lat": 0.0, "lat": 38.906494333333335, "fusion_lon": 0.0, "rental_uris": {"ios": "https://dc.lft.to/lastmile_qr_scan", "android": "https://dc.lft.to/lastmile_qr_scan"}, "lon": -76.97941683333333, "bike_id": "49756585206396dc32dd545fea60491a", "type": "electric_scooter", "name": "49756585206396dc32dd545fea60491a"}, {"is_disabled": 0, "is_reserved": 0, "fusion_lat": 0.0, "lat": 38.90506116666667, "fusion_lon": 0.0, "rental_uris": {"ios": "https://dc.lft.to/lastmile_qr_scan", "android": "https://dc.lft.to/lastmile_qr_scan"}, "lon": -77.06011616666666, "bike_id": "e7523681f478f99b47b09ef3f382b266", "type": "electric_scooter", "name": "e7523681f478f99b47b09ef3f382b266"}, {"is_disabled": 0, "is_reserved": 0, "fusion_lat": 0.0, "lat": 38.9565615, "fusion_lon": 0.0, "rental_uris": {"ios": "https://dc.lft.to/lastmile_qr_scan", "android": "https://dc.lft.to/lastmile_qr_scan"}, "lon": -77.01964966666667, "bike_id": "72d829b21db155246d62b2e19db85149", "type": "electric_scooter", "name": "72d829b21db155246d62b2e19db85149"}, {"is_disabled": 0, "is_reserved": 0, "fusion_lat": 0.0, "lat": 38.93035883333334, "fusion_lon": 0.0, "rental_uris": {"ios": "https://dc.lft.to/lastmile_qr_scan", "android": "https://dc.lft.to/lastmile_qr_scan"}, "lon": -77.02970766666667, "bike_id": "3028d1058c0566e0e15e9f894841e92f", "type": "electric_scooter", "name": "3028d1058c0566e0e15e9f894841e92f"}, {"is_disabled": 0, "is_reserved": 0, "fusion_lat": 0.0, "lat": 38.887168333333335, "fusion_lon": 0.0, "rental_uris": {"ios": "https://dc.lft.to/lastmile_qr_scan", "android": "https://dc.lft.to/lastmile_qr_scan"}, "lon": -76.9961195, "bike_id": "8cac4431cb55e5a0f7977ed119a84cef", "type": "electric_scooter", "name": "8cac4431cb55e5a0f7977ed119a84cef"}, {"is_disabled": 0, "is_reserved": 0, "fusion_lat": 0.0, "lat": 38.96019166666667, "fusion_lon": 0.0, "rental_uris": {"ios": "https://dc.lft.to/lastmile_qr_scan", "android": "https://dc.lft.to/lastmile_qr_scan"}, "lon": -77.02821916666667, "bike_id": "744a4bbcca02cb0793ba496c74459578", "type": "electric_scooter", "name": "744a4bbcca02cb0793ba496c74459578"}, {"is_disabled": 0, "is_reserved": 0, "fusion_lat": 0.0, "lat": 38.881232, "fusion_lon": 0.0, "rental_uris": {"ios": "https://dc.lft.to/lastmile_qr_scan", "android": "https://dc.lft.to/lastmile_qr_scan"}, "lon": -76.99281583333334, "bike_id": "5d647b18a3dce31f68767c53f2bd33da", "type": "electric_scooter", "name": "5d647b18a3dce31f68767c53f2bd33da"}, {"is_disabled": 0, "is_reserved": 0, "fusion_lat": 0.0, "lat": 38.909786, "fusion_lon": 0.0, "rental_uris": {"ios": "https://dc.lft.to/lastmile_qr_scan", "android": "https://dc.lft.to/lastmile_qr_scan"}, "lon": -77.03379766666667, "bike_id": "6d3f43eb4355c360ae99f6e38c319fc0", "type": "electric_scooter", "name": "6d3f43eb4355c360ae99f6e38c319fc0"}, {"is_disabled": 0, "is_reserved": 0, "fusion_lat": 0.0, "lat": 38.928385166666665, "fusion_lon": 0.0, "rental_uris": {"ios": "https://dc.lft.to/lastmile_qr_scan", "android": "https://dc.lft.to/lastmile_qr_scan"}, "lon": -77.01360816666667, "bike_id": "0f93a0cab835e47920a6321f8955e135", "type": "electric_scooter", "name": "0f93a0cab835e47920a6321f8955e135"}, {"is_disabled": 0, "is_reserved": 0, "fusion_lat": 0.0, "lat": 38.910334, "fusion_lon": 0.0, "rental_uris": {"ios": "https://dc.lft.to/lastmile_qr_scan", "android": "https://dc.lft.to/lastmile_qr_scan"}, "lon": -77.009632, "bike_id": "603bfed8e7d0282108d8405c73940140", "type": "electric_scooter", "name": "603bfed8e7d0282108d8405c73940140"}, {"is_disabled": 0, "is_reserved": 0, "fusion_lat": 0.0, "lat": 38.88105433333333, "fusion_lon": 0.0, "rental_uris": {"ios": "https://dc.lft.to/lastmile_qr_scan", "android": "https://dc.lft.to/lastmile_qr_scan"}, "lon": -77.01236833333333, "bike_id": "f1feeb723a826397b23dfe7490633cd8", "type": "electric_scooter", "name": "f1feeb723a826397b23dfe7490633cd8"}, {"is_disabled": 0, "is_reserved": 0, "fusion_lat": 0.0, "lat": 38.8652155, "fusion_lon": 0.0, "rental_uris": {"ios": "https://dc.lft.to/lastmile_qr_scan", "android": "https://dc.lft.to/lastmile_qr_scan"}, "lon": -76.97321916666667, "bike_id": "91a9a94e8588912e79b91b010c769e90", "type": "electric_bike", "name": "91a9a94e8588912e79b91b010c769e90"}, {"is_disabled": 0, "is_reserved": 0, "fusion_lat": 0.0, "lat": 39.005354833333335, "fusion_lon": 0.0, "rental_uris": {"ios": "https://dc.lft.to/lastmile_qr_scan", "android": "https://dc.lft.to/lastmile_qr_scan"}, "lon": -77.10401216666666, "bike_id": "133653ce5446a518040256791146f8d8", "type": "electric_bike", "name": "133653ce5446a518040256791146f8d8"}, {"is_disabled": 0, "is_reserved": 0, "fusion_lat": 0.0, "lat": 38.89862983333333, "fusion_lon": 0.0, "rental_uris": {"ios": "https://dc.lft.to/lastmile_qr_scan", "android": "https://dc.lft.to/lastmile_qr_scan"}, "lon": -77.04874633333333, "bike_id": "a88c038cd70c10715ae8ff5d943ea1e0", "type": "electric_scooter", "name": "a88c038cd70c10715ae8ff5d943ea1e0"}, {"is_disabled": 0, "is_reserved": 0, "fusion_lat": 0.0, "lat": 38.877422333333335, "fusion_lon": 0.0, "rental_uris": {"ios": "https://dc.lft.to/lastmile_qr_scan", "android": "https://dc.lft.to/lastmile_qr_scan"}, "lon": -77.14870266666667, "bike_id": "5bbb4eb3cdb99db5226a6b4aba4eaf9e", "type": "electric_bike", "name": "5bbb4eb3cdb99db5226a6b4aba4eaf9e"}, {"is_disabled": 0, "is_reserved": 0, "fusion_lat": 0.0, "lat": 38.88523166666667, "fusion_lon": 0.0, "rental_uris": {"ios": "https://dc.lft.to/lastmile_qr_scan", "android": "https://dc.lft.to/lastmile_qr_scan"}, "lon": -76.99609833333334, "bike_id": "18d75ac55ff734ab198c6fa0f5f2883d", "type": "electric_scooter", "name": "18d75ac55ff734ab198c6fa0f5f2883d"}, {"is_disabled": 0, "is_reserved": 0, "fusion_lat": 0.0, "lat": 38.924746166666665, "fusion_lon": 0.0, "rental_uris": {"ios": "https://dc.lft.to/lastmile_qr_scan", "android": "https://dc.lft.to/lastmile_qr_scan"}, "lon": -77.03918483333334, "bike_id": "d8faa2e0802cdbc585137ae65a43d2a3", "type": "electric_scooter", "name": "d8faa2e0802cdbc585137ae65a43d2a3"}, {"is_disabled": 0, "is_reserved": 0, "fusion_lat": 0.0, "lat": 38.900271333333336, "fusion_lon": 0.0, "rental_uris": {"ios": "https://dc.lft.to/lastmile_qr_scan", "android": "https://dc.lft.to/lastmile_qr_scan"}, "lon": -77.01211816666667, "bike_id": "36307a5c9d2dbb483297966ecff06bf6", "type": "electric_scooter", "name": "36307a5c9d2dbb483297966ecff06bf6"}, {"is_disabled": 0, "is_reserved": 0, "fusion_lat": 0.0, "lat": 38.93876433333333, "fusion_lon": 0.0, "rental_uris": {"ios": "https://dc.lft.to/lastmile_qr_scan", "android": "https://dc.lft.to/lastmile_qr_scan"}, "lon": -77.03046933333333, "bike_id": "a9a90aa01799c880ed7b8952403de22e", "type": "electric_scooter", "name": "a9a90aa01799c880ed7b8952403de22e"}, {"is_disabled": 0, "is_reserved": 0, "fusion_lat": 0.0, "lat": 38.90721083333333, "fusion_lon": 0.0, "rental_uris": {"ios": "https://dc.lft.to/lastmile_qr_scan", "android": "https://dc.lft.to/lastmile_qr_scan"}, "lon": -77.025028, "bike_id": "b8b4a54bffc993c2fe4b44513727c029", "type": "electric_scooter", "name": "b8b4a54bffc993c2fe4b44513727c029"}, {"is_disabled": 0, "is_reserved": 0, "fusion_lat": 0.0, "lat": 38.919904333333335, "fusion_lon": 0.0, "rental_uris": {"ios": "https://dc.lft.to/lastmile_qr_scan", "android": "https://dc.lft.to/lastmile_qr_scan"}, "lon": -77.03250066666666, "bike_id": "a5a8ef5d9845102f49eebc3b10c18ec1", "type": "electric_scooter", "name": "a5a8ef5d9845102f49eebc3b10c18ec1"}, {"is_disabled": 0, "is_reserved": 0, "fusion_lat": 0.0, "lat": 38.9053415, "fusion_lon": 0.0, "rental_uris": {"ios": "https://dc.lft.to/lastmile_qr_scan", "android": "https://dc.lft.to/lastmile_qr_scan"}, "lon": -77.0170545, "bike_id": "d2fb82c42d5af0e5b4ed188e64662448", "type": "electric_scooter", "name": "d2fb82c42d5af0e5b4ed188e64662448"}, {"is_disabled": 0, "is_reserved": 0, "fusion_lat": 0.0, "lat": 38.91992666666667, "fusion_lon": 0.0, "rental_uris": {"ios": "https://dc.lft.to/lastmile_qr_scan", "android": "https://dc.lft.to/lastmile_qr_scan"}, "lon": -77.03250666666666, "bike_id": "a317b76142d8aa39679926b402d4f6df", "type": "electric_scooter", "name": "a317b76142d8aa39679926b402d4f6df"}, {"is_disabled": 0, "is_reserved": 0, "fusion_lat": 0.0, "lat": 38.870707, "fusion_lon": 0.0, "rental_uris": {"ios": "https://dc.lft.to/lastmile_qr_scan", "android": "https://dc.lft.to/lastmile_qr_scan"}, "lon": -76.9794185, "bike_id": "e9acb040232ea74e8d38e579f167ea3f", "type": "electric_scooter", "name": "e9acb040232ea74e8d38e579f167ea3f"}, {"is_disabled": 0, "is_reserved": 0, "fusion_lat": 0.0, "lat": 38.89861033333333, "fusion_lon": 0.0, "rental_uris": {"ios": "https://dc.lft.to/lastmile_qr_scan", "android": "https://dc.lft.to/lastmile_qr_scan"}, "lon": -76.94641533333333, "bike_id": "9a17188269e5135363b7745460f3f33f", "type": "electric_scooter", "name": "9a17188269e5135363b7745460f3f33f"}, {"is_disabled": 0, "is_reserved": 0, "fusion_lat": 0.0, "lat": 38.92485333333333, "fusion_lon": 0.0, "rental_uris": {"ios": "https://dc.lft.to/lastmile_qr_scan", "android": "https://dc.lft.to/lastmile_qr_scan"}, "lon": -77.05098933333333, "bike_id": "862fc50ddb5da42199e86082ab9585d9", "type": "electric_scooter", "name": "862fc50ddb5da42199e86082ab9585d9"}, {"is_disabled": 0, "is_reserved": 0, "fusion_lat": 0.0, "lat": 38.91515116666667, "fusion_lon": 0.0, "rental_uris": {"ios": "https://dc.lft.to/lastmile_qr_scan", "android": "https://dc.lft.to/lastmile_qr_scan"}, "lon": -76.983625, "bike_id": "e53637290d7874a04ecd6e0855374bb6", "type": "electric_scooter", "name": "e53637290d7874a04ecd6e0855374bb6"}, {"is_disabled": 0, "is_reserved": 0, "fusion_lat": 0.0, "lat": 38.89297666666667, "fusion_lon": 0.0, "rental_uris": {"ios": "https://dc.lft.to/lastmile_qr_scan", "android": "https://dc.lft.to/lastmile_qr_scan"}, "lon": -76.9996005, "bike_id": "381da4fd23801e019439aae4d75aaaff", "type": "electric_scooter", "name": "381da4fd23801e019439aae4d75aaaff"}, {"is_disabled": 0, "is_reserved": 0, "fusion_lat": 0.0, "lat": 38.8968375, "fusion_lon": 0.0, "rental_uris": {"ios": "https://dc.lft.to/lastmile_qr_scan", "android": "https://dc.lft.to/lastmile_qr_scan"}, "lon": -77.0514215, "bike_id": "9ce17e89bf35ae877ba52b688e150490", "type": "electric_scooter", "name": "9ce17e89bf35ae877ba52b688e150490"}, {"is_disabled": 0, "is_reserved": 0, "fusion_lat": 0.0, "lat": 38.898330666666666, "fusion_lon": 0.0, "rental_uris": {"ios": "https://dc.lft.to/lastmile_qr_scan", "android": "https://dc.lft.to/lastmile_qr_scan"}, "lon": -76.946337, "bike_id": "c2afce8dae272d0a57a64f52a4c77779", "type": "electric_scooter", "name": "c2afce8dae272d0a57a64f52a4c77779"}, {"is_disabled": 0, "is_reserved": 0, "fusion_lat": 0.0, "lat": 38.917812, "fusion_lon": 0.0, "rental_uris": {"ios": "https://dc.lft.to/lastmile_qr_scan", "android": "https://dc.lft.to/lastmile_qr_scan"}, "lon": -77.0230795, "bike_id": "4d1bf62edb5a3a0a9be47d3fe877d26b", "type": "electric_scooter", "name": "4d1bf62edb5a3a0a9be47d3fe877d26b"}, {"is_disabled": 0, "is_reserved": 0, "fusion_lat": 0.0, "lat": 38.897516833333334, "fusion_lon": 0.0, "rental_uris": {"ios": "https://dc.lft.to/lastmile_qr_scan", "android": "https://dc.lft.to/lastmile_qr_scan"}, "lon": -77.02720866666667, "bike_id": "f1ca12cdb15e1a75e67c4bc53014e1bf", "type": "electric_scooter", "name": "f1ca12cdb15e1a75e67c4bc53014e1bf"}, {"is_disabled": 0, "is_reserved": 0, "fusion_lat": 0.0, "lat": 38.9072465, "fusion_lon": 0.0, "rental_uris": {"ios": "https://dc.lft.to/lastmile_qr_scan", "android": "https://dc.lft.to/lastmile_qr_scan"}, "lon": -77.00066316666667, "bike_id": "de4ba5cd4c8b4ea9f47622a32f06316b", "type": "electric_scooter", "name": "de4ba5cd4c8b4ea9f47622a32f06316b"}, {"is_disabled": 0, "is_reserved": 0, "fusion_lat": 0.0, "lat": 38.8926035, "fusion_lon": 0.0, "rental_uris": {"ios": "https://dc.lft.to/lastmile_qr_scan", "android": "https://dc.lft.to/lastmile_qr_scan"}, "lon": -77.02619116666666, "bike_id": "c93701825ef33d6612947448a77db716", "type": "electric_scooter", "name": "c93701825ef33d6612947448a77db716"}, {"is_disabled": 0, "is_reserved": 0, "fusion_lat": 0.0, "lat": 38.923602833333334, "fusion_lon": 0.0, "rental_uris": {"ios": "https://dc.lft.to/lastmile_qr_scan", "android": "https://dc.lft.to/lastmile_qr_scan"}, "lon": -77.04316883333334, "bike_id": "6d9715a2720a75e70487266628753e85", "type": "electric_scooter", "name": "6d9715a2720a75e70487266628753e85"}, {"is_disabled": 0, "is_reserved": 0, "fusion_lat": 0.0, "lat": 38.9287515, "fusion_lon": 0.0, "rental_uris": {"ios": "https://dc.lft.to/lastmile_qr_scan", "android": "https://dc.lft.to/lastmile_qr_scan"}, "lon": -77.0565205, "bike_id": "b337427b4db6c6470fb6fe587f48763d", "type": "electric_scooter", "name": "b337427b4db6c6470fb6fe587f48763d"}, {"is_disabled": 0, "is_reserved": 0, "fusion_lat": 0.0, "lat": 38.880374333333336, "fusion_lon": 0.0, "rental_uris": {"ios": "https://dc.lft.to/lastmile_qr_scan", "android": "https://dc.lft.to/lastmile_qr_scan"}, "lon": -76.9272485, "bike_id": "0ef8df63e25f87dae256bf07ccd3f9fe", "type": "electric_scooter", "name": "0ef8df63e25f87dae256bf07ccd3f9fe"}, {"is_disabled": 0, "is_reserved": 0, "fusion_lat": 0.0, "lat": 38.92008516666667, "fusion_lon": 0.0, "rental_uris": {"ios": "https://dc.lft.to/lastmile_qr_scan", "android": "https://dc.lft.to/lastmile_qr_scan"}, "lon": -77.03146266666667, "bike_id": "97d95d28e7f43922bd2c3c973bd74ba2", "type": "electric_scooter", "name": "97d95d28e7f43922bd2c3c973bd74ba2"}, {"is_disabled": 0, "is_reserved": 0, "fusion_lat": 0.0, "lat": 38.8991665, "fusion_lon": 0.0, "rental_uris": {"ios": "https://dc.lft.to/lastmile_qr_scan", "android": "https://dc.lft.to/lastmile_qr_scan"}, "lon": -76.93376766666667, "bike_id": "101d899d80949cfd89fef9d3e4c73b74", "type": "electric_scooter", "name": "101d899d80949cfd89fef9d3e4c73b74"}, {"is_disabled": 0, "is_reserved": 0, "fusion_lat": 0.0, "lat": 38.90286583333334, "fusion_lon": 0.0, "rental_uris": {"ios": "https://dc.lft.to/lastmile_qr_scan", "android": "https://dc.lft.to/lastmile_qr_scan"}, "lon": -77.02382816666666, "bike_id": "221176aaf3a7efb70d6ed167d68bfdaa", "type": "electric_scooter", "name": "221176aaf3a7efb70d6ed167d68bfdaa"}, {"is_disabled": 0, "is_reserved": 0, "fusion_lat": 0.0, "lat": 38.922612666666666, "fusion_lon": 0.0, "rental_uris": {"ios": "https://dc.lft.to/lastmile_qr_scan", "android": "https://dc.lft.to/lastmile_qr_scan"}, "lon": -77.0728345, "bike_id": "b943f21ae833991ad3c2a5f7f00f53ec", "type": "electric_scooter", "name": "b943f21ae833991ad3c2a5f7f00f53ec"}, {"is_disabled": 0, "is_reserved": 0, "fusion_lat": 0.0, "lat": 38.8923075, "fusion_lon": 0.0, "rental_uris": {"ios": "https://dc.lft.to/lastmile_qr_scan", "android": "https://dc.lft.to/lastmile_qr_scan"}, "lon": -77.03165066666666, "bike_id": "5636a3b7ed3deb5dabffa33befcb4130", "type": "electric_scooter", "name": "5636a3b7ed3deb5dabffa33befcb4130"}, {"is_disabled": 0, "is_reserved": 0, "fusion_lat": 0.0, "lat": 38.82921266666666, "fusion_lon": 0.0, "rental_uris": {"ios": "https://dc.lft.to/lastmile_qr_scan", "android": "https://dc.lft.to/lastmile_qr_scan"}, "lon": -77.06874716666667, "bike_id": "901e22850698ad1e874618bf343d740e", "type": "electric_bike", "name": "901e22850698ad1e874618bf343d740e"}, {"is_disabled": 0, "is_reserved": 0, "fusion_lat": 0.0, "lat": 38.9151545, "fusion_lon": 0.0, "rental_uris": {"ios": "https://dc.lft.to/lastmile_qr_scan", "android": "https://dc.lft.to/lastmile_qr_scan"}, "lon": -77.025929, "bike_id": "0119bfa079aecbe00ba369f9b362ebd9", "type": "electric_scooter", "name": "0119bfa079aecbe00ba369f9b362ebd9"}, {"is_disabled": 0, "is_reserved": 0, "fusion_lat": 0.0, "lat": 38.8960755, "fusion_lon": 0.0, "rental_uris": {"ios": "https://dc.lft.to/lastmile_qr_scan", "android": "https://dc.lft.to/lastmile_qr_scan"}, "lon": -77.00333433333333, "bike_id": "522c5f76e19a542963fbc1cf043e5d3f", "type": "electric_scooter", "name": "522c5f76e19a542963fbc1cf043e5d3f"}, {"is_disabled": 0, "is_reserved": 0, "fusion_lat": 0.0, "lat": 38.927665166666664, "fusion_lon": 0.0, "rental_uris": {"ios": "https://dc.lft.to/lastmile_qr_scan", "android": "https://dc.lft.to/lastmile_qr_scan"}, "lon": -77.02947733333333, "bike_id": "631ad419a26df7fc10af28c90986bbe1", "type": "electric_scooter", "name": "631ad419a26df7fc10af28c90986bbe1"}, {"is_disabled": 0, "is_reserved": 0, "fusion_lat": 0.0, "lat": 38.9104055, "fusion_lon": 0.0, "rental_uris": {"ios": "https://dc.lft.to/lastmile_qr_scan", "android": "https://dc.lft.to/lastmile_qr_scan"}, "lon": -76.93835816666666, "bike_id": "963ff1c407614d8c72e0bc445a5a840f", "type": "electric_scooter", "name": "963ff1c407614d8c72e0bc445a5a840f"}, {"is_disabled": 0, "is_reserved": 0, "fusion_lat": 0.0, "lat": 38.9111065, "fusion_lon": 0.0, "rental_uris": {"ios": "https://dc.lft.to/lastmile_qr_scan", "android": "https://dc.lft.to/lastmile_qr_scan"}, "lon": -77.02233966666667, "bike_id": "1026eed1dbe29c856ef1e502aa6d8e27", "type": "electric_scooter", "name": "1026eed1dbe29c856ef1e502aa6d8e27"}, {"is_disabled": 0, "is_reserved": 0, "fusion_lat": 0.0, "lat": 38.89937, "fusion_lon": 0.0, "rental_uris": {"ios": "https://dc.lft.to/lastmile_qr_scan", "android": "https://dc.lft.to/lastmile_qr_scan"}, "lon": -76.93755716666666, "bike_id": "4daf1b50f4dcac64c46eb2b910e9353b", "type": "electric_scooter", "name": "4daf1b50f4dcac64c46eb2b910e9353b"}, {"is_disabled": 0, "is_reserved": 0, "fusion_lat": 0.0, "lat": 38.901845, "fusion_lon": 0.0, "rental_uris": {"ios": "https://dc.lft.to/lastmile_qr_scan", "android": "https://dc.lft.to/lastmile_qr_scan"}, "lon": -76.97665633333334, "bike_id": "d5d38b97c5ad29eeadef882cf336dd47", "type": "electric_scooter", "name": "d5d38b97c5ad29eeadef882cf336dd47"}, {"is_disabled": 0, "is_reserved": 0, "fusion_lat": 0.0, "lat": 38.903256, "fusion_lon": 0.0, "rental_uris": {"ios": "https://dc.lft.to/lastmile_qr_scan", "android": "https://dc.lft.to/lastmile_qr_scan"}, "lon": -77.02122383333334, "bike_id": "7c3d6cad32bfccd8b3e9a6a1bd1e03ab", "type": "electric_scooter", "name": "7c3d6cad32bfccd8b3e9a6a1bd1e03ab"}, {"is_disabled": 0, "is_reserved": 0, "fusion_lat": 0.0, "lat": 38.89017916666667, "fusion_lon": 0.0, "rental_uris": {"ios": "https://dc.lft.to/lastmile_qr_scan", "android": "https://dc.lft.to/lastmile_qr_scan"}, "lon": -76.937362, "bike_id": "fc66a06456f9081167e702a101aeaedb", "type": "electric_scooter", "name": "fc66a06456f9081167e702a101aeaedb"}, {"is_disabled": 0, "is_reserved": 0, "fusion_lat": 0.0, "lat": 38.915947833333334, "fusion_lon": 0.0, "rental_uris": {"ios": "https://dc.lft.to/lastmile_qr_scan", "android": "https://dc.lft.to/lastmile_qr_scan"}, "lon": -77.01583466666666, "bike_id": "c5c49d3fe470902941393d54e86ab38c", "type": "electric_scooter", "name": "c5c49d3fe470902941393d54e86ab38c"}, {"is_disabled": 0, "is_reserved": 0, "fusion_lat": 0.0, "lat": 38.95596483333333, "fusion_lon": 0.0, "rental_uris": {"ios": "https://dc.lft.to/lastmile_qr_scan", "android": "https://dc.lft.to/lastmile_qr_scan"}, "lon": -77.01010283333333, "bike_id": "1083562de9a77b369bf7552aa37ec72f", "type": "electric_bike", "name": "1083562de9a77b369bf7552aa37ec72f"}, {"is_disabled": 0, "is_reserved": 0, "fusion_lat": 0.0, "lat": 38.88007533333333, "fusion_lon": 0.0, "rental_uris": {"ios": "https://dc.lft.to/lastmile_qr_scan", "android": "https://dc.lft.to/lastmile_qr_scan"}, "lon": -76.998356, "bike_id": "68fcf469b002eb665e9fc51775867721", "type": "electric_scooter", "name": "68fcf469b002eb665e9fc51775867721"}, {"is_disabled": 0, "is_reserved": 0, "fusion_lat": 0.0, "lat": 38.936216333333334, "fusion_lon": 0.0, "rental_uris": {"ios": "https://dc.lft.to/lastmile_qr_scan", "android": "https://dc.lft.to/lastmile_qr_scan"}, "lon": -77.0387375, "bike_id": "2cc973b4e03601098144fd42d31e61c4", "type": "electric_scooter", "name": "2cc973b4e03601098144fd42d31e61c4"}, {"is_disabled": 0, "is_reserved": 0, "fusion_lat": 0.0, "lat": 38.88080866666667, "fusion_lon": 0.0, "rental_uris": {"ios": "https://dc.lft.to/lastmile_qr_scan", "android": "https://dc.lft.to/lastmile_qr_scan"}, "lon": -77.0057535, "bike_id": "aa13c826726fa68bcc8a011d3f4cd5c4", "type": "electric_scooter", "name": "aa13c826726fa68bcc8a011d3f4cd5c4"}, {"is_disabled": 0, "is_reserved": 0, "fusion_lat": 0.0, "lat": 38.898062333333336, "fusion_lon": 0.0, "rental_uris": {"ios": "https://dc.lft.to/lastmile_qr_scan", "android": "https://dc.lft.to/lastmile_qr_scan"}, "lon": -77.02947066666667, "bike_id": "7fb1ddc9a7954d66be70d63029597bbf", "type": "electric_scooter", "name": "7fb1ddc9a7954d66be70d63029597bbf"}, {"is_disabled": 0, "is_reserved": 0, "fusion_lat": 0.0, "lat": 38.908991, "fusion_lon": 0.0, "rental_uris": {"ios": "https://dc.lft.to/lastmile_qr_scan", "android": "https://dc.lft.to/lastmile_qr_scan"}, "lon": -76.99787583333334, "bike_id": "581ed6959ac624ee1f3ba2e30d567d6d", "type": "electric_scooter", "name": "581ed6959ac624ee1f3ba2e30d567d6d"}, {"is_disabled": 0, "is_reserved": 0, "fusion_lat": 0.0, "lat": 38.93415733333333, "fusion_lon": 0.0, "rental_uris": {"ios": "https://dc.lft.to/lastmile_qr_scan", "android": "https://dc.lft.to/lastmile_qr_scan"}, "lon": -77.04276233333333, "bike_id": "6bc878839098e747805c7a2bd7708f69", "type": "electric_scooter", "name": "6bc878839098e747805c7a2bd7708f69"}, {"is_disabled": 0, "is_reserved": 0, "fusion_lat": 0.0, "lat": 38.928650166666664, "fusion_lon": 0.0, "rental_uris": {"ios": "https://dc.lft.to/lastmile_qr_scan", "android": "https://dc.lft.to/lastmile_qr_scan"}, "lon": -77.02957616666667, "bike_id": "a459a5d3d4711edab96f822c745f9d39", "type": "electric_scooter", "name": "a459a5d3d4711edab96f822c745f9d39"}, {"is_disabled": 0, "is_reserved": 0, "fusion_lat": 0.0, "lat": 38.910543833333335, "fusion_lon": 0.0, "rental_uris": {"ios": "https://dc.lft.to/lastmile_qr_scan", "android": "https://dc.lft.to/lastmile_qr_scan"}, "lon": -77.0434955, "bike_id": "8f8d9fc218450fefd15b63f008d6c598", "type": "electric_scooter", "name": "8f8d9fc218450fefd15b63f008d6c598"}, {"is_disabled": 0, "is_reserved": 0, "fusion_lat": 0.0, "lat": 38.92988916666667, "fusion_lon": 0.0, "rental_uris": {"ios": "https://dc.lft.to/lastmile_qr_scan", "android": "https://dc.lft.to/lastmile_qr_scan"}, "lon": -77.03478133333333, "bike_id": "5ef6672d1025c0d3e67aa8fd3649cc20", "type": "electric_scooter", "name": "5ef6672d1025c0d3e67aa8fd3649cc20"}, {"is_disabled": 0, "is_reserved": 0, "fusion_lat": 0.0, "lat": 38.90827766666666, "fusion_lon": 0.0, "rental_uris": {"ios": "https://dc.lft.to/lastmile_qr_scan", "android": "https://dc.lft.to/lastmile_qr_scan"}, "lon": -77.03184066666667, "bike_id": "b8b140f1a1baffcfdf6ef66ae8a9e0b8", "type": "electric_scooter", "name": "b8b140f1a1baffcfdf6ef66ae8a9e0b8"}, {"is_disabled": 0, "is_reserved": 0, "fusion_lat": 0.0, "lat": 38.921202, "fusion_lon": 0.0, "rental_uris": {"ios": "https://dc.lft.to/lastmile_qr_scan", "android": "https://dc.lft.to/lastmile_qr_scan"}, "lon": -77.036721, "bike_id": "2f83600a1e4bbeefc02918d8656d912d", "type": "electric_scooter", "name": "2f83600a1e4bbeefc02918d8656d912d"}, {"is_disabled": 0, "is_reserved": 0, "fusion_lat": 0.0, "lat": 38.883936, "fusion_lon": 0.0, "rental_uris": {"ios": "https://dc.lft.to/lastmile_qr_scan", "android": "https://dc.lft.to/lastmile_qr_scan"}, "lon": -77.03039183333334, "bike_id": "4984493ac84a1e27574e678e06ce1680", "type": "electric_scooter", "name": "4984493ac84a1e27574e678e06ce1680"}, {"is_disabled": 0, "is_reserved": 0, "fusion_lat": 0.0, "lat": 38.902563, "fusion_lon": 0.0, "rental_uris": {"ios": "https://dc.lft.to/lastmile_qr_scan", "android": "https://dc.lft.to/lastmile_qr_scan"}, "lon": -77.01684116666667, "bike_id": "12d8e5fee939ab915c96365bb8816a18", "type": "electric_scooter", "name": "12d8e5fee939ab915c96365bb8816a18"}, {"is_disabled": 0, "is_reserved": 0, "fusion_lat": 0.0, "lat": 38.902301, "fusion_lon": 0.0, "rental_uris": {"ios": "https://dc.lft.to/lastmile_qr_scan", "android": "https://dc.lft.to/lastmile_qr_scan"}, "lon": -77.053378, "bike_id": "e49557525f362b5055a540b034513115", "type": "electric_scooter", "name": "e49557525f362b5055a540b034513115"}, {"is_disabled": 0, "is_reserved": 0, "fusion_lat": 0.0, "lat": 38.897425, "fusion_lon": 0.0, "rental_uris": {"ios": "https://dc.lft.to/lastmile_qr_scan", "android": "https://dc.lft.to/lastmile_qr_scan"}, "lon": -77.027267, "bike_id": "62089cd60b52c10a7ed9467021f78171", "type": "electric_scooter", "name": "62089cd60b52c10a7ed9467021f78171"}, {"is_disabled": 0, "is_reserved": 0, "fusion_lat": 0.0, "lat": 38.913995, "fusion_lon": 0.0, "rental_uris": {"ios": "https://dc.lft.to/lastmile_qr_scan", "android": "https://dc.lft.to/lastmile_qr_scan"}, "lon": -77.045786, "bike_id": "80952e2afb6f61e285820eacc6ecdb2a", "type": "electric_scooter", "name": "80952e2afb6f61e285820eacc6ecdb2a"}, {"is_disabled": 0, "is_reserved": 0, "fusion_lat": 0.0, "lat": 38.900803833333335, "fusion_lon": 0.0, "rental_uris": {"ios": "https://dc.lft.to/lastmile_qr_scan", "android": "https://dc.lft.to/lastmile_qr_scan"}, "lon": -77.04698183333333, "bike_id": "27931179988754df15c56efaf2c02355", "type": "electric_scooter", "name": "27931179988754df15c56efaf2c02355"}, {"is_disabled": 0, "is_reserved": 0, "fusion_lat": 0.0, "lat": 38.92408666666667, "fusion_lon": 0.0, "rental_uris": {"ios": "https://dc.lft.to/lastmile_qr_scan", "android": "https://dc.lft.to/lastmile_qr_scan"}, "lon": -77.0271025, "bike_id": "315332d2eb59d06b8c2e679fe64472ce", "type": "electric_scooter", "name": "315332d2eb59d06b8c2e679fe64472ce"}, {"is_disabled": 0, "is_reserved": 0, "fusion_lat": 0.0, "lat": 38.85837866666667, "fusion_lon": 0.0, "rental_uris": {"ios": "https://dc.lft.to/lastmile_qr_scan", "android": "https://dc.lft.to/lastmile_qr_scan"}, "lon": -76.98823133333333, "bike_id": "4c5bef62bca1ab380608f9ee87f961df", "type": "electric_scooter", "name": "4c5bef62bca1ab380608f9ee87f961df"}, {"is_disabled": 0, "is_reserved": 0, "fusion_lat": 0.0, "lat": 38.857973666666666, "fusion_lon": 0.0, "rental_uris": {"ios": "https://dc.lft.to/lastmile_qr_scan", "android": "https://dc.lft.to/lastmile_qr_scan"}, "lon": -76.987444, "bike_id": "0fdcee3809ce181582f38719d0710c06", "type": "electric_bike", "name": "0fdcee3809ce181582f38719d0710c06"}, {"is_disabled": 0, "is_reserved": 0, "fusion_lat": 0.0, "lat": 38.90031583333333, "fusion_lon": 0.0, "rental_uris": {"ios": "https://dc.lft.to/lastmile_qr_scan", "android": "https://dc.lft.to/lastmile_qr_scan"}, "lon": -76.99838333333334, "bike_id": "1c303f16a6b3628a86fc38fc4db21c41", "type": "electric_scooter", "name": "1c303f16a6b3628a86fc38fc4db21c41"}, {"is_disabled": 0, "is_reserved": 0, "fusion_lat": 0.0, "lat": 38.92315083333333, "fusion_lon": 0.0, "rental_uris": {"ios": "https://dc.lft.to/lastmile_qr_scan", "android": "https://dc.lft.to/lastmile_qr_scan"}, "lon": -77.02806, "bike_id": "73291469d0771007233f109a52ec2627", "type": "electric_scooter", "name": "73291469d0771007233f109a52ec2627"}, {"is_disabled": 0, "is_reserved": 0, "fusion_lat": 0.0, "lat": 38.91076783333333, "fusion_lon": 0.0, "rental_uris": {"ios": "https://dc.lft.to/lastmile_qr_scan", "android": "https://dc.lft.to/lastmile_qr_scan"}, "lon": -77.06548183333334, "bike_id": "8eef1deb2df9813f47bd13dc6d266c77", "type": "electric_scooter", "name": "8eef1deb2df9813f47bd13dc6d266c77"}, {"is_disabled": 0, "is_reserved": 0, "fusion_lat": 0.0, "lat": 38.897587333333334, "fusion_lon": 0.0, "rental_uris": {"ios": "https://dc.lft.to/lastmile_qr_scan", "android": "https://dc.lft.to/lastmile_qr_scan"}, "lon": -77.05490516666667, "bike_id": "0b2fcc8237f2b8b8a2d828f4d4f4bae0", "type": "electric_scooter", "name": "0b2fcc8237f2b8b8a2d828f4d4f4bae0"}, {"is_disabled": 0, "is_reserved": 0, "fusion_lat": 0.0, "lat": 38.87938716666667, "fusion_lon": 0.0, "rental_uris": {"ios": "https://dc.lft.to/lastmile_qr_scan", "android": "https://dc.lft.to/lastmile_qr_scan"}, "lon": -77.00404516666667, "bike_id": "387cd50cfe8256a40e8eb523cb62af4c", "type": "electric_scooter", "name": "387cd50cfe8256a40e8eb523cb62af4c"}, {"is_disabled": 0, "is_reserved": 0, "fusion_lat": 0.0, "lat": 38.91433883333333, "fusion_lon": 0.0, "rental_uris": {"ios": "https://dc.lft.to/lastmile_qr_scan", "android": "https://dc.lft.to/lastmile_qr_scan"}, "lon": -77.02812516666667, "bike_id": "aaf4e05b3a47090942db7312f2ea5cee", "type": "electric_scooter", "name": "aaf4e05b3a47090942db7312f2ea5cee"}, {"is_disabled": 0, "is_reserved": 0, "fusion_lat": 0.0, "lat": 38.896846, "fusion_lon": 0.0, "rental_uris": {"ios": "https://dc.lft.to/lastmile_qr_scan", "android": "https://dc.lft.to/lastmile_qr_scan"}, "lon": -76.93908916666666, "bike_id": "388661309416f281bca6058e0e137984", "type": "electric_scooter", "name": "388661309416f281bca6058e0e137984"}, {"is_disabled": 0, "is_reserved": 0, "fusion_lat": 0.0, "lat": 38.9170135, "fusion_lon": 0.0, "rental_uris": {"ios": "https://dc.lft.to/lastmile_qr_scan", "android": "https://dc.lft.to/lastmile_qr_scan"}, "lon": -77.034889, "bike_id": "ca4fb734f595cfb0c1bcbe406f05eab8", "type": "electric_scooter", "name": "ca4fb734f595cfb0c1bcbe406f05eab8"}, {"is_disabled": 0, "is_reserved": 0, "fusion_lat": 0.0, "lat": 38.914492, "fusion_lon": 0.0, "rental_uris": {"ios": "https://dc.lft.to/lastmile_qr_scan", "android": "https://dc.lft.to/lastmile_qr_scan"}, "lon": -77.00892166666667, "bike_id": "8355e67203c1dcdac4ff1b5448e4a51d", "type": "electric_scooter", "name": "8355e67203c1dcdac4ff1b5448e4a51d"}, {"is_disabled": 0, "is_reserved": 0, "fusion_lat": 0.0, "lat": 38.8876355, "fusion_lon": 0.0, "rental_uris": {"ios": "https://dc.lft.to/lastmile_qr_scan", "android": "https://dc.lft.to/lastmile_qr_scan"}, "lon": -77.01464966666667, "bike_id": "430512097a4edf97ba6aed5ce413112e", "type": "electric_scooter", "name": "430512097a4edf97ba6aed5ce413112e"}, {"is_disabled": 0, "is_reserved": 0, "fusion_lat": 0.0, "lat": 38.918052833333334, "fusion_lon": 0.0, "rental_uris": {"ios": "https://dc.lft.to/lastmile_qr_scan", "android": "https://dc.lft.to/lastmile_qr_scan"}, "lon": -77.03438816666667, "bike_id": "98bfb95fd940bb0f3a9e956eb55199fa", "type": "electric_scooter", "name": "98bfb95fd940bb0f3a9e956eb55199fa"}, {"is_disabled": 0, "is_reserved": 0, "fusion_lat": 0.0, "lat": 38.8623765, "fusion_lon": 0.0, "rental_uris": {"ios": "https://dc.lft.to/lastmile_qr_scan", "android": "https://dc.lft.to/lastmile_qr_scan"}, "lon": -76.99516083333333, "bike_id": "9583ff8c67df38971dac5f046997f0b3", "type": "electric_scooter", "name": "9583ff8c67df38971dac5f046997f0b3"}, {"is_disabled": 0, "is_reserved": 0, "fusion_lat": 0.0, "lat": 38.950689, "fusion_lon": 0.0, "rental_uris": {"ios": "https://dc.lft.to/lastmile_qr_scan", "android": "https://dc.lft.to/lastmile_qr_scan"}, "lon": -76.9959935, "bike_id": "3dca67b4d6b36e5bbeb98266938829dc", "type": "electric_bike", "name": "3dca67b4d6b36e5bbeb98266938829dc"}, {"is_disabled": 0, "is_reserved": 0, "fusion_lat": 0.0, "lat": 38.90535533333333, "fusion_lon": 0.0, "rental_uris": {"ios": "https://dc.lft.to/lastmile_qr_scan", "android": "https://dc.lft.to/lastmile_qr_scan"}, "lon": -77.05655, "bike_id": "ac3166b665d50b932b031f851303cbdc", "type": "electric_scooter", "name": "ac3166b665d50b932b031f851303cbdc"}, {"is_disabled": 0, "is_reserved": 0, "fusion_lat": 0.0, "lat": 38.92232083333333, "fusion_lon": 0.0, "rental_uris": {"ios": "https://dc.lft.to/lastmile_qr_scan", "android": "https://dc.lft.to/lastmile_qr_scan"}, "lon": -77.03886866666667, "bike_id": "66b6c28eda17f8ef06c9b1cbf4f47d12", "type": "electric_scooter", "name": "66b6c28eda17f8ef06c9b1cbf4f47d12"}, {"is_disabled": 0, "is_reserved": 0, "fusion_lat": 0.0, "lat": 38.953328, "fusion_lon": 0.0, "rental_uris": {"ios": "https://dc.lft.to/lastmile_qr_scan", "android": "https://dc.lft.to/lastmile_qr_scan"}, "lon": -76.98251566666667, "bike_id": "6fb6dfeb600f7f4f73efaff421eebf3a", "type": "electric_bike", "name": "6fb6dfeb600f7f4f73efaff421eebf3a"}, {"is_disabled": 0, "is_reserved": 0, "fusion_lat": 0.0, "lat": 38.92143316666667, "fusion_lon": 0.0, "rental_uris": {"ios": "https://dc.lft.to/lastmile_qr_scan", "android": "https://dc.lft.to/lastmile_qr_scan"}, "lon": -77.03505883333334, "bike_id": "c6f0ffa1a07900a3b41468b9cad45be9", "type": "electric_scooter", "name": "c6f0ffa1a07900a3b41468b9cad45be9"}, {"is_disabled": 0, "is_reserved": 0, "fusion_lat": 0.0, "lat": 38.90979016666667, "fusion_lon": 0.0, "rental_uris": {"ios": "https://dc.lft.to/lastmile_qr_scan", "android": "https://dc.lft.to/lastmile_qr_scan"}, "lon": -77.03230783333333, "bike_id": "0e62fa32f8007b7060dacb3ccc8ca887", "type": "electric_scooter", "name": "0e62fa32f8007b7060dacb3ccc8ca887"}, {"is_disabled": 0, "is_reserved": 0, "fusion_lat": 0.0, "lat": 38.89967733333334, "fusion_lon": 0.0, "rental_uris": {"ios": "https://dc.lft.to/lastmile_qr_scan", "android": "https://dc.lft.to/lastmile_qr_scan"}, "lon": -77.0246225, "bike_id": "1794ea7b9b1c36fe3ebb0e0b71779af5", "type": "electric_scooter", "name": "1794ea7b9b1c36fe3ebb0e0b71779af5"}, {"is_disabled": 0, "is_reserved": 0, "fusion_lat": 0.0, "lat": 38.97480066666667, "fusion_lon": 0.0, "rental_uris": {"ios": "https://dc.lft.to/lastmile_qr_scan", "android": "https://dc.lft.to/lastmile_qr_scan"}, "lon": -76.98666566666667, "bike_id": "a9e41b6500c5699d33ea62cd52b8611d", "type": "electric_bike", "name": "a9e41b6500c5699d33ea62cd52b8611d"}, {"is_disabled": 0, "is_reserved": 0, "fusion_lat": 0.0, "lat": 38.917168, "fusion_lon": 0.0, "rental_uris": {"ios": "https://dc.lft.to/lastmile_qr_scan", "android": "https://dc.lft.to/lastmile_qr_scan"}, "lon": -77.04172316666667, "bike_id": "97be1cefe812324ec7cee961646f8a96", "type": "electric_scooter", "name": "97be1cefe812324ec7cee961646f8a96"}, {"is_disabled": 0, "is_reserved": 0, "fusion_lat": 0.0, "lat": 38.90156733333333, "fusion_lon": 0.0, "rental_uris": {"ios": "https://dc.lft.to/lastmile_qr_scan", "android": "https://dc.lft.to/lastmile_qr_scan"}, "lon": -77.02183366666667, "bike_id": "32a33a3eefd3a657ed879f2a860c5aff", "type": "electric_scooter", "name": "32a33a3eefd3a657ed879f2a860c5aff"}, {"is_disabled": 0, "is_reserved": 0, "fusion_lat": 0.0, "lat": 38.846332833333335, "fusion_lon": 0.0, "rental_uris": {"ios": "https://dc.lft.to/lastmile_qr_scan", "android": "https://dc.lft.to/lastmile_qr_scan"}, "lon": -76.969043, "bike_id": "adb69e0e30cfbcf2e41f0b71b4257033", "type": "electric_bike", "name": "adb69e0e30cfbcf2e41f0b71b4257033"}, {"is_disabled": 0, "is_reserved": 0, "fusion_lat": 0.0, "lat": 38.90848366666667, "fusion_lon": 0.0, "rental_uris": {"ios": "https://dc.lft.to/lastmile_qr_scan", "android": "https://dc.lft.to/lastmile_qr_scan"}, "lon": -76.9979685, "bike_id": "c8a38d8ad687749f30cd75b0531c68c4", "type": "electric_scooter", "name": "c8a38d8ad687749f30cd75b0531c68c4"}, {"is_disabled": 0, "is_reserved": 0, "fusion_lat": 0.0, "lat": 39.022982166666665, "fusion_lon": 0.0, "rental_uris": {"ios": "https://dc.lft.to/lastmile_qr_scan", "android": "https://dc.lft.to/lastmile_qr_scan"}, "lon": -77.02103, "bike_id": "533f655d572dab1edfdde54a649cd1d0", "type": "electric_bike", "name": "533f655d572dab1edfdde54a649cd1d0"}, {"is_disabled": 0, "is_reserved": 0, "fusion_lat": 0.0, "lat": 38.88722633333333, "fusion_lon": 0.0, "rental_uris": {"ios": "https://dc.lft.to/lastmile_qr_scan", "android": "https://dc.lft.to/lastmile_qr_scan"}, "lon": -76.996097, "bike_id": "6349c4937a0212dd64f63954494b345e", "type": "electric_scooter", "name": "6349c4937a0212dd64f63954494b345e"}, {"is_disabled": 0, "is_reserved": 0, "fusion_lat": 0.0, "lat": 38.90199233333333, "fusion_lon": 0.0, "rental_uris": {"ios": "https://dc.lft.to/lastmile_qr_scan", "android": "https://dc.lft.to/lastmile_qr_scan"}, "lon": -77.01880483333333, "bike_id": "01ffb2240a8b7f35086493de17a66530", "type": "electric_scooter", "name": "01ffb2240a8b7f35086493de17a66530"}, {"is_disabled": 0, "is_reserved": 0, "fusion_lat": 0.0, "lat": 38.83493516666667, "fusion_lon": 0.0, "rental_uris": {"ios": "https://dc.lft.to/lastmile_qr_scan", "android": "https://dc.lft.to/lastmile_qr_scan"}, "lon": -77.004349, "bike_id": "57b9c0613f27681a099c99788ca70c75", "type": "electric_bike", "name": "57b9c0613f27681a099c99788ca70c75"}, {"is_disabled": 0, "is_reserved": 0, "fusion_lat": 0.0, "lat": 38.909491, "fusion_lon": 0.0, "rental_uris": {"ios": "https://dc.lft.to/lastmile_qr_scan", "android": "https://dc.lft.to/lastmile_qr_scan"}, "lon": -77.03245066666666, "bike_id": "0320458ce9d191d47b691866145469f5", "type": "electric_scooter", "name": "0320458ce9d191d47b691866145469f5"}, {"is_disabled": 0, "is_reserved": 0, "fusion_lat": 0.0, "lat": 38.917757, "fusion_lon": 0.0, "rental_uris": {"ios": "https://dc.lft.to/lastmile_qr_scan", "android": "https://dc.lft.to/lastmile_qr_scan"}, "lon": -77.027078, "bike_id": "94d928dc35748fcd60a1488d3e34daf1", "type": "electric_scooter", "name": "94d928dc35748fcd60a1488d3e34daf1"}, {"is_disabled": 0, "is_reserved": 0, "fusion_lat": 0.0, "lat": 38.8465145, "fusion_lon": 0.0, "rental_uris": {"ios": "https://dc.lft.to/lastmile_qr_scan", "android": "https://dc.lft.to/lastmile_qr_scan"}, "lon": -77.00365266666667, "bike_id": "74107c40587ea5626b6ce795189aa079", "type": "electric_scooter", "name": "74107c40587ea5626b6ce795189aa079"}, {"is_disabled": 0, "is_reserved": 0, "fusion_lat": 0.0, "lat": 38.887099, "fusion_lon": 0.0, "rental_uris": {"ios": "https://dc.lft.to/lastmile_qr_scan", "android": "https://dc.lft.to/lastmile_qr_scan"}, "lon": -76.98339783333333, "bike_id": "ce20df195b6a0d2fe1a2cc51cbd42786", "type": "electric_scooter", "name": "ce20df195b6a0d2fe1a2cc51cbd42786"}, {"is_disabled": 0, "is_reserved": 0, "fusion_lat": 0.0, "lat": 38.90773266666667, "fusion_lon": 0.0, "rental_uris": {"ios": "https://dc.lft.to/lastmile_qr_scan", "android": "https://dc.lft.to/lastmile_qr_scan"}, "lon": -77.02396016666667, "bike_id": "9aed387578c754765b529ada5795fb54", "type": "electric_scooter", "name": "9aed387578c754765b529ada5795fb54"}, {"is_disabled": 0, "is_reserved": 0, "fusion_lat": 0.0, "lat": 38.91052116666667, "fusion_lon": 0.0, "rental_uris": {"ios": "https://dc.lft.to/lastmile_qr_scan", "android": "https://dc.lft.to/lastmile_qr_scan"}, "lon": -77.0218655, "bike_id": "f00da96e0451e8ccd185c1dff29e8e2d", "type": "electric_scooter", "name": "f00da96e0451e8ccd185c1dff29e8e2d"}, {"is_disabled": 0, "is_reserved": 0, "fusion_lat": 0.0, "lat": 38.870834333333335, "fusion_lon": 0.0, "rental_uris": {"ios": "https://dc.lft.to/lastmile_qr_scan", "android": "https://dc.lft.to/lastmile_qr_scan"}, "lon": -77.13334016666667, "bike_id": "37c83241cec09bce3dda36ffdd942d73", "type": "electric_bike", "name": "37c83241cec09bce3dda36ffdd942d73"}, {"is_disabled": 0, "is_reserved": 0, "fusion_lat": 0.0, "lat": 38.898829666666664, "fusion_lon": 0.0, "rental_uris": {"ios": "https://dc.lft.to/lastmile_qr_scan", "android": "https://dc.lft.to/lastmile_qr_scan"}, "lon": -77.019798, "bike_id": "375d03e5a4f170d5c6b7da3831e1ff00", "type": "electric_scooter", "name": "375d03e5a4f170d5c6b7da3831e1ff00"}, {"is_disabled": 0, "is_reserved": 0, "fusion_lat": 0.0, "lat": 38.905482166666665, "fusion_lon": 0.0, "rental_uris": {"ios": "https://dc.lft.to/lastmile_qr_scan", "android": "https://dc.lft.to/lastmile_qr_scan"}, "lon": -77.021931, "bike_id": "bc12c2df4b8791354c5110cbeb95975a", "type": "electric_scooter", "name": "bc12c2df4b8791354c5110cbeb95975a"}, {"is_disabled": 0, "is_reserved": 0, "fusion_lat": 0.0, "lat": 38.900257833333335, "fusion_lon": 0.0, "rental_uris": {"ios": "https://dc.lft.to/lastmile_qr_scan", "android": "https://dc.lft.to/lastmile_qr_scan"}, "lon": -77.01760733333333, "bike_id": "c3f50889c7717e0a4bb483f318954538", "type": "electric_scooter", "name": "c3f50889c7717e0a4bb483f318954538"}, {"is_disabled": 0, "is_reserved": 0, "fusion_lat": 0.0, "lat": 38.920976333333336, "fusion_lon": 0.0, "rental_uris": {"ios": "https://dc.lft.to/lastmile_qr_scan", "android": "https://dc.lft.to/lastmile_qr_scan"}, "lon": -77.02323716666666, "bike_id": "564b18a8cdc2b4eb00da3c8dbf74217c", "type": "electric_scooter", "name": "564b18a8cdc2b4eb00da3c8dbf74217c"}, {"is_disabled": 0, "is_reserved": 0, "fusion_lat": 0.0, "lat": 38.8802515, "fusion_lon": 0.0, "rental_uris": {"ios": "https://dc.lft.to/lastmile_qr_scan", "android": "https://dc.lft.to/lastmile_qr_scan"}, "lon": -76.94321733333334, "bike_id": "fa201eb94b3b40a467c04d5da14f2d36", "type": "electric_scooter", "name": "fa201eb94b3b40a467c04d5da14f2d36"}, {"is_disabled": 0, "is_reserved": 0, "fusion_lat": 0.0, "lat": 38.91482966666667, "fusion_lon": 0.0, "rental_uris": {"ios": "https://dc.lft.to/lastmile_qr_scan", "android": "https://dc.lft.to/lastmile_qr_scan"}, "lon": -77.02189616666666, "bike_id": "5d04cf723196082b07643cd427e4f796", "type": "electric_scooter", "name": "5d04cf723196082b07643cd427e4f796"}, {"is_disabled": 0, "is_reserved": 0, "fusion_lat": 0.0, "lat": 38.918154333333334, "fusion_lon": 0.0, "rental_uris": {"ios": "https://dc.lft.to/lastmile_qr_scan", "android": "https://dc.lft.to/lastmile_qr_scan"}, "lon": -77.025241, "bike_id": "f899ee6dfd16142ad17328ed3fc03486", "type": "electric_scooter", "name": "f899ee6dfd16142ad17328ed3fc03486"}, {"is_disabled": 0, "is_reserved": 0, "fusion_lat": 0.0, "lat": 39.074415333333334, "fusion_lon": 0.0, "rental_uris": {"ios": "https://dc.lft.to/lastmile_qr_scan", "android": "https://dc.lft.to/lastmile_qr_scan"}, "lon": -77.11532733333334, "bike_id": "bf44a4e1e25c6bae5e798ef7b445e0ca", "type": "electric_bike", "name": "bf44a4e1e25c6bae5e798ef7b445e0ca"}, {"is_disabled": 0, "is_reserved": 0, "fusion_lat": 0.0, "lat": 38.903785166666665, "fusion_lon": 0.0, "rental_uris": {"ios": "https://dc.lft.to/lastmile_qr_scan", "android": "https://dc.lft.to/lastmile_qr_scan"}, "lon": -77.06030583333333, "bike_id": "f06f03c3a14cedc2198fcb84ba72e859", "type": "electric_scooter", "name": "f06f03c3a14cedc2198fcb84ba72e859"}, {"is_disabled": 0, "is_reserved": 0, "fusion_lat": 0.0, "lat": 38.921384333333336, "fusion_lon": 0.0, "rental_uris": {"ios": "https://dc.lft.to/lastmile_qr_scan", "android": "https://dc.lft.to/lastmile_qr_scan"}, "lon": -77.01219966666666, "bike_id": "07319d1f4d1d57023e405f4dfce97e23", "type": "electric_scooter", "name": "07319d1f4d1d57023e405f4dfce97e23"}, {"is_disabled": 0, "is_reserved": 0, "fusion_lat": 0.0, "lat": 38.8923845, "fusion_lon": 0.0, "rental_uris": {"ios": "https://dc.lft.to/lastmile_qr_scan", "android": "https://dc.lft.to/lastmile_qr_scan"}, "lon": -77.03221183333333, "bike_id": "a4352bbb45f322120d2d2cfb8a2723e2", "type": "electric_scooter", "name": "a4352bbb45f322120d2d2cfb8a2723e2"}, {"is_disabled": 0, "is_reserved": 0, "fusion_lat": 0.0, "lat": 38.9474785, "fusion_lon": 0.0, "rental_uris": {"ios": "https://dc.lft.to/lastmile_qr_scan", "android": "https://dc.lft.to/lastmile_qr_scan"}, "lon": -77.02361216666667, "bike_id": "07eca4dc00221244c59a1b8658bc38fa", "type": "electric_scooter", "name": "07eca4dc00221244c59a1b8658bc38fa"}, {"is_disabled": 0, "is_reserved": 0, "fusion_lat": 0.0, "lat": 38.855930666666666, "fusion_lon": 0.0, "rental_uris": {"ios": "https://dc.lft.to/lastmile_qr_scan", "android": "https://dc.lft.to/lastmile_qr_scan"}, "lon": -76.972835, "bike_id": "8172166652bc1215335296f281e6e7b6", "type": "electric_bike", "name": "8172166652bc1215335296f281e6e7b6"}, {"is_disabled": 0, "is_reserved": 0, "fusion_lat": 0.0, "lat": 38.94140016666667, "fusion_lon": 0.0, "rental_uris": {"ios": "https://dc.lft.to/lastmile_qr_scan", "android": "https://dc.lft.to/lastmile_qr_scan"}, "lon": -77.023238, "bike_id": "eefc91be985d26d787efc5b33a90b666", "type": "electric_scooter", "name": "eefc91be985d26d787efc5b33a90b666"}, {"is_disabled": 0, "is_reserved": 0, "fusion_lat": 0.0, "lat": 38.80405716666667, "fusion_lon": 0.0, "rental_uris": {"ios": "https://dc.lft.to/lastmile_qr_scan", "android": "https://dc.lft.to/lastmile_qr_scan"}, "lon": -77.11328983333334, "bike_id": "071a6ef27e579e9b44752f8329fc6c2b", "type": "electric_bike", "name": "071a6ef27e579e9b44752f8329fc6c2b"}, {"is_disabled": 0, "is_reserved": 0, "fusion_lat": 0.0, "lat": 38.9152615, "fusion_lon": 0.0, "rental_uris": {"ios": "https://dc.lft.to/lastmile_qr_scan", "android": "https://dc.lft.to/lastmile_qr_scan"}, "lon": -77.01218, "bike_id": "4397b07d373da221b98735ebd5c64398", "type": "electric_scooter", "name": "4397b07d373da221b98735ebd5c64398"}, {"is_disabled": 0, "is_reserved": 0, "fusion_lat": 0.0, "lat": 38.910319, "fusion_lon": 0.0, "rental_uris": {"ios": "https://dc.lft.to/lastmile_qr_scan", "android": "https://dc.lft.to/lastmile_qr_scan"}, "lon": -76.9233255, "bike_id": "7dee8a469bc113b2a3a13f5aafb8ade2", "type": "electric_bike", "name": "7dee8a469bc113b2a3a13f5aafb8ade2"}, {"is_disabled": 0, "is_reserved": 0, "fusion_lat": 0.0, "lat": 38.91268983333333, "fusion_lon": 0.0, "rental_uris": {"ios": "https://dc.lft.to/lastmile_qr_scan", "android": "https://dc.lft.to/lastmile_qr_scan"}, "lon": -77.0226055, "bike_id": "f8742c89df26e223d6cbdf73b2b02bfe", "type": "electric_scooter", "name": "f8742c89df26e223d6cbdf73b2b02bfe"}, {"is_disabled": 0, "is_reserved": 0, "fusion_lat": 0.0, "lat": 38.89970566666667, "fusion_lon": 0.0, "rental_uris": {"ios": "https://dc.lft.to/lastmile_qr_scan", "android": "https://dc.lft.to/lastmile_qr_scan"}, "lon": -77.02741883333333, "bike_id": "5ce0e7500cfc4f59d2b54c463777521b", "type": "electric_scooter", "name": "5ce0e7500cfc4f59d2b54c463777521b"}, {"is_disabled": 0, "is_reserved": 0, "fusion_lat": 0.0, "lat": 38.90597316666667, "fusion_lon": 0.0, "rental_uris": {"ios": "https://dc.lft.to/lastmile_qr_scan", "android": "https://dc.lft.to/lastmile_qr_scan"}, "lon": -77.06529466666667, "bike_id": "c247701675319c09938e5ff92c2865b2", "type": "electric_scooter", "name": "c247701675319c09938e5ff92c2865b2"}, {"is_disabled": 0, "is_reserved": 0, "fusion_lat": 0.0, "lat": 38.9226515, "fusion_lon": 0.0, "rental_uris": {"ios": "https://dc.lft.to/lastmile_qr_scan", "android": "https://dc.lft.to/lastmile_qr_scan"}, "lon": -77.03645166666666, "bike_id": "fadc45f9a66431880be4826e6b473556", "type": "electric_scooter", "name": "fadc45f9a66431880be4826e6b473556"}, {"is_disabled": 0, "is_reserved": 0, "fusion_lat": 0.0, "lat": 38.902488166666664, "fusion_lon": 0.0, "rental_uris": {"ios": "https://dc.lft.to/lastmile_qr_scan", "android": "https://dc.lft.to/lastmile_qr_scan"}, "lon": -77.02648933333333, "bike_id": "e5aee2ec31a41ffd2054599bd407c26a", "type": "electric_scooter", "name": "e5aee2ec31a41ffd2054599bd407c26a"}, {"is_disabled": 0, "is_reserved": 0, "fusion_lat": 0.0, "lat": 38.907322, "fusion_lon": 0.0, "rental_uris": {"ios": "https://dc.lft.to/lastmile_qr_scan", "android": "https://dc.lft.to/lastmile_qr_scan"}, "lon": -77.009507, "bike_id": "633fb404562197e8b0d481e9b2f5feee", "type": "electric_scooter", "name": "633fb404562197e8b0d481e9b2f5feee"}, {"is_disabled": 0, "is_reserved": 0, "fusion_lat": 0.0, "lat": 38.8958945, "fusion_lon": 0.0, "rental_uris": {"ios": "https://dc.lft.to/lastmile_qr_scan", "android": "https://dc.lft.to/lastmile_qr_scan"}, "lon": -77.02667233333334, "bike_id": "37519c48278e66a433e3811ab0e81ae2", "type": "electric_scooter", "name": "37519c48278e66a433e3811ab0e81ae2"}, {"is_disabled": 0, "is_reserved": 0, "fusion_lat": 0.0, "lat": 38.913508, "fusion_lon": 0.0, "rental_uris": {"ios": "https://dc.lft.to/lastmile_qr_scan", "android": "https://dc.lft.to/lastmile_qr_scan"}, "lon": -76.9713825, "bike_id": "3150d0baf289dd11eb905c86e2a50646", "type": "electric_scooter", "name": "3150d0baf289dd11eb905c86e2a50646"}, {"is_disabled": 0, "is_reserved": 0, "fusion_lat": 0.0, "lat": 38.92084083333334, "fusion_lon": 0.0, "rental_uris": {"ios": "https://dc.lft.to/lastmile_qr_scan", "android": "https://dc.lft.to/lastmile_qr_scan"}, "lon": -77.02536, "bike_id": "62337897cf5166e51e585ff832edf8e4", "type": "electric_scooter", "name": "62337897cf5166e51e585ff832edf8e4"}, {"is_disabled": 0, "is_reserved": 0, "fusion_lat": 0.0, "lat": 38.917113, "fusion_lon": 0.0, "rental_uris": {"ios": "https://dc.lft.to/lastmile_qr_scan", "android": "https://dc.lft.to/lastmile_qr_scan"}, "lon": -77.03208, "bike_id": "16902f9f509a0f8e414cb42fdb1eea53", "type": "electric_scooter", "name": "16902f9f509a0f8e414cb42fdb1eea53"}, {"is_disabled": 0, "is_reserved": 0, "fusion_lat": 0.0, "lat": 38.93682966666667, "fusion_lon": 0.0, "rental_uris": {"ios": "https://dc.lft.to/lastmile_qr_scan", "android": "https://dc.lft.to/lastmile_qr_scan"}, "lon": -77.05850183333334, "bike_id": "2190f1cfa8d36abb9218e9cda5c40c14", "type": "electric_scooter", "name": "2190f1cfa8d36abb9218e9cda5c40c14"}, {"is_disabled": 0, "is_reserved": 0, "fusion_lat": 0.0, "lat": 38.882989, "fusion_lon": 0.0, "rental_uris": {"ios": "https://dc.lft.to/lastmile_qr_scan", "android": "https://dc.lft.to/lastmile_qr_scan"}, "lon": -76.93486033333333, "bike_id": "8953646434942ef4e23f996827c65af0", "type": "electric_scooter", "name": "8953646434942ef4e23f996827c65af0"}, {"is_disabled": 0, "is_reserved": 0, "fusion_lat": 0.0, "lat": 38.9068085, "fusion_lon": 0.0, "rental_uris": {"ios": "https://dc.lft.to/lastmile_qr_scan", "android": "https://dc.lft.to/lastmile_qr_scan"}, "lon": -77.04556366666667, "bike_id": "6a568a90afb6186c27e70ed3186816db", "type": "electric_scooter", "name": "6a568a90afb6186c27e70ed3186816db"}, {"is_disabled": 0, "is_reserved": 0, "fusion_lat": 0.0, "lat": 38.901471, "fusion_lon": 0.0, "rental_uris": {"ios": "https://dc.lft.to/lastmile_qr_scan", "android": "https://dc.lft.to/lastmile_qr_scan"}, "lon": -76.92989633333333, "bike_id": "0ec347c4bfe8b1fd6b5366f2004a3f07", "type": "electric_scooter", "name": "0ec347c4bfe8b1fd6b5366f2004a3f07"}, {"is_disabled": 0, "is_reserved": 0, "fusion_lat": 0.0, "lat": 38.8967565, "fusion_lon": 0.0, "rental_uris": {"ios": "https://dc.lft.to/lastmile_qr_scan", "android": "https://dc.lft.to/lastmile_qr_scan"}, "lon": -77.048963, "bike_id": "ce02cbc368b8ea6117b0ee8190e88888", "type": "electric_scooter", "name": "ce02cbc368b8ea6117b0ee8190e88888"}, {"is_disabled": 0, "is_reserved": 0, "fusion_lat": 0.0, "lat": 38.95217383333333, "fusion_lon": 0.0, "rental_uris": {"ios": "https://dc.lft.to/lastmile_qr_scan", "android": "https://dc.lft.to/lastmile_qr_scan"}, "lon": -77.0886765, "bike_id": "c7fd0260bd77913a535946a014464f8e", "type": "electric_scooter", "name": "c7fd0260bd77913a535946a014464f8e"}, {"is_disabled": 0, "is_reserved": 0, "fusion_lat": 0.0, "lat": 38.91608683333333, "fusion_lon": 0.0, "rental_uris": {"ios": "https://dc.lft.to/lastmile_qr_scan", "android": "https://dc.lft.to/lastmile_qr_scan"}, "lon": -77.03205966666667, "bike_id": "f6eafc0560d8d4139296987341ac87f2", "type": "electric_scooter", "name": "f6eafc0560d8d4139296987341ac87f2"}, {"is_disabled": 0, "is_reserved": 0, "fusion_lat": 0.0, "lat": 38.925721, "fusion_lon": 0.0, "rental_uris": {"ios": "https://dc.lft.to/lastmile_qr_scan", "android": "https://dc.lft.to/lastmile_qr_scan"}, "lon": -77.0313695, "bike_id": "af44d4859fb6a24dcf8e4f50d9e633f6", "type": "electric_scooter", "name": "af44d4859fb6a24dcf8e4f50d9e633f6"}, {"is_disabled": 0, "is_reserved": 0, "fusion_lat": 0.0, "lat": 38.91185983333333, "fusion_lon": 0.0, "rental_uris": {"ios": "https://dc.lft.to/lastmile_qr_scan", "android": "https://dc.lft.to/lastmile_qr_scan"}, "lon": -77.04485333333334, "bike_id": "92ed03b44c3dfe609652344f95b049df", "type": "electric_scooter", "name": "92ed03b44c3dfe609652344f95b049df"}, {"is_disabled": 0, "is_reserved": 0, "fusion_lat": 0.0, "lat": 38.9027245, "fusion_lon": 0.0, "rental_uris": {"ios": "https://dc.lft.to/lastmile_qr_scan", "android": "https://dc.lft.to/lastmile_qr_scan"}, "lon": -77.00322766666666, "bike_id": "f156ca7489550b26add25227b89d5b93", "type": "electric_scooter", "name": "f156ca7489550b26add25227b89d5b93"}, {"is_disabled": 0, "is_reserved": 0, "fusion_lat": 0.0, "lat": 38.84279266666667, "fusion_lon": 0.0, "rental_uris": {"ios": "https://dc.lft.to/lastmile_qr_scan", "android": "https://dc.lft.to/lastmile_qr_scan"}, "lon": -76.98840066666666, "bike_id": "3a05c7480f6b1ffa67e5b4e2d6320c34", "type": "electric_scooter", "name": "3a05c7480f6b1ffa67e5b4e2d6320c34"}, {"is_disabled": 0, "is_reserved": 0, "fusion_lat": 0.0, "lat": 38.914154, "fusion_lon": 0.0, "rental_uris": {"ios": "https://dc.lft.to/lastmile_qr_scan", "android": "https://dc.lft.to/lastmile_qr_scan"}, "lon": -77.02427133333333, "bike_id": "58532ccfcef675c28e4e8b26f4dac167", "type": "electric_scooter", "name": "58532ccfcef675c28e4e8b26f4dac167"}, {"is_disabled": 0, "is_reserved": 0, "fusion_lat": 0.0, "lat": 38.91674866666666, "fusion_lon": 0.0, "rental_uris": {"ios": "https://dc.lft.to/lastmile_qr_scan", "android": "https://dc.lft.to/lastmile_qr_scan"}, "lon": -77.03186783333334, "bike_id": "abccf74ea3da89155dbad1c89935274a", "type": "electric_scooter", "name": "abccf74ea3da89155dbad1c89935274a"}, {"is_disabled": 0, "is_reserved": 0, "fusion_lat": 0.0, "lat": 38.923175, "fusion_lon": 0.0, "rental_uris": {"ios": "https://dc.lft.to/lastmile_qr_scan", "android": "https://dc.lft.to/lastmile_qr_scan"}, "lon": -77.02902066666667, "bike_id": "2d5aacc043fee126231aa574de98601e", "type": "electric_scooter", "name": "2d5aacc043fee126231aa574de98601e"}, {"is_disabled": 0, "is_reserved": 0, "fusion_lat": 0.0, "lat": 38.85247, "fusion_lon": 0.0, "rental_uris": {"ios": "https://dc.lft.to/lastmile_qr_scan", "android": "https://dc.lft.to/lastmile_qr_scan"}, "lon": -77.11412166666666, "bike_id": "84c2ba9b2b37a6055b3be68771fcb41b", "type": "electric_bike", "name": "84c2ba9b2b37a6055b3be68771fcb41b"}, {"is_disabled": 0, "is_reserved": 0, "fusion_lat": 0.0, "lat": 38.898933666666665, "fusion_lon": 0.0, "rental_uris": {"ios": "https://dc.lft.to/lastmile_qr_scan", "android": "https://dc.lft.to/lastmile_qr_scan"}, "lon": -77.03966516666667, "bike_id": "1a22e708f318fe29b8ce8ebdb2ade3ef", "type": "electric_scooter", "name": "1a22e708f318fe29b8ce8ebdb2ade3ef"}, {"is_disabled": 0, "is_reserved": 0, "fusion_lat": 0.0, "lat": 38.900628, "fusion_lon": 0.0, "rental_uris": {"ios": "https://dc.lft.to/lastmile_qr_scan", "android": "https://dc.lft.to/lastmile_qr_scan"}, "lon": -77.00671416666667, "bike_id": "eaa8f13320ad11b08744a428848a0efd", "type": "electric_scooter", "name": "eaa8f13320ad11b08744a428848a0efd"}, {"is_disabled": 0, "is_reserved": 0, "fusion_lat": 0.0, "lat": 38.88126583333333, "fusion_lon": 0.0, "rental_uris": {"ios": "https://dc.lft.to/lastmile_qr_scan", "android": "https://dc.lft.to/lastmile_qr_scan"}, "lon": -76.99345883333334, "bike_id": "72e3d85058c1eb315a45c89a451b8088", "type": "electric_scooter", "name": "72e3d85058c1eb315a45c89a451b8088"}, {"is_disabled": 0, "is_reserved": 0, "fusion_lat": 0.0, "lat": 38.90857916666667, "fusion_lon": 0.0, "rental_uris": {"ios": "https://dc.lft.to/lastmile_qr_scan", "android": "https://dc.lft.to/lastmile_qr_scan"}, "lon": -77.04589466666667, "bike_id": "f30463ac5b17869226e0dcbc0260e30f", "type": "electric_scooter", "name": "f30463ac5b17869226e0dcbc0260e30f"}, {"is_disabled": 0, "is_reserved": 0, "fusion_lat": 0.0, "lat": 38.9201115, "fusion_lon": 0.0, "rental_uris": {"ios": "https://dc.lft.to/lastmile_qr_scan", "android": "https://dc.lft.to/lastmile_qr_scan"}, "lon": -77.041729, "bike_id": "85b67b2106468b9477f5b4aeaa6bb7a7", "type": "electric_scooter", "name": "85b67b2106468b9477f5b4aeaa6bb7a7"}, {"is_disabled": 0, "is_reserved": 0, "fusion_lat": 0.0, "lat": 38.91542966666667, "fusion_lon": 0.0, "rental_uris": {"ios": "https://dc.lft.to/lastmile_qr_scan", "android": "https://dc.lft.to/lastmile_qr_scan"}, "lon": -77.0462925, "bike_id": "c7554cd8e44f1bf8963648745938b9d7", "type": "electric_scooter", "name": "c7554cd8e44f1bf8963648745938b9d7"}, {"is_disabled": 0, "is_reserved": 0, "fusion_lat": 0.0, "lat": 38.90445883333334, "fusion_lon": 0.0, "rental_uris": {"ios": "https://dc.lft.to/lastmile_qr_scan", "android": "https://dc.lft.to/lastmile_qr_scan"}, "lon": -76.996337, "bike_id": "b7bbccc2e124ec5a68622ade49270f01", "type": "electric_scooter", "name": "b7bbccc2e124ec5a68622ade49270f01"}, {"is_disabled": 0, "is_reserved": 0, "fusion_lat": 0.0, "lat": 38.9747825, "fusion_lon": 0.0, "rental_uris": {"ios": "https://dc.lft.to/lastmile_qr_scan", "android": "https://dc.lft.to/lastmile_qr_scan"}, "lon": -77.01489083333334, "bike_id": "4c91453e580cba902633ea98edc2d10e", "type": "electric_scooter", "name": "4c91453e580cba902633ea98edc2d10e"}, {"is_disabled": 0, "is_reserved": 0, "fusion_lat": 0.0, "lat": 38.894827166666666, "fusion_lon": 0.0, "rental_uris": {"ios": "https://dc.lft.to/lastmile_qr_scan", "android": "https://dc.lft.to/lastmile_qr_scan"}, "lon": -76.9788245, "bike_id": "94068eb1518b6119a9e6e7f7838805ca", "type": "electric_scooter", "name": "94068eb1518b6119a9e6e7f7838805ca"}, {"is_disabled": 0, "is_reserved": 0, "fusion_lat": 0.0, "lat": 38.9211465, "fusion_lon": 0.0, "rental_uris": {"ios": "https://dc.lft.to/lastmile_qr_scan", "android": "https://dc.lft.to/lastmile_qr_scan"}, "lon": -77.031834, "bike_id": "5119be93d0a373a7b958752ce8b736dc", "type": "electric_scooter", "name": "5119be93d0a373a7b958752ce8b736dc"}, {"is_disabled": 0, "is_reserved": 0, "fusion_lat": 0.0, "lat": 38.9759065, "fusion_lon": 0.0, "rental_uris": {"ios": "https://dc.lft.to/lastmile_qr_scan", "android": "https://dc.lft.to/lastmile_qr_scan"}, "lon": -77.01885983333334, "bike_id": "3af4c02f87a41d80f08aaad6c6f912eb", "type": "electric_scooter", "name": "3af4c02f87a41d80f08aaad6c6f912eb"}, {"is_disabled": 0, "is_reserved": 0, "fusion_lat": 0.0, "lat": 38.915629833333334, "fusion_lon": 0.0, "rental_uris": {"ios": "https://dc.lft.to/lastmile_qr_scan", "android": "https://dc.lft.to/lastmile_qr_scan"}, "lon": -77.03638116666667, "bike_id": "f1533b37d8c4be7514e12ebc6964f3b8", "type": "electric_scooter", "name": "f1533b37d8c4be7514e12ebc6964f3b8"}, {"is_disabled": 0, "is_reserved": 0, "fusion_lat": 0.0, "lat": 38.8976155, "fusion_lon": 0.0, "rental_uris": {"ios": "https://dc.lft.to/lastmile_qr_scan", "android": "https://dc.lft.to/lastmile_qr_scan"}, "lon": -77.04537533333334, "bike_id": "a1e20e7a8ab55a18f4817118c3b350ed", "type": "electric_scooter", "name": "a1e20e7a8ab55a18f4817118c3b350ed"}, {"is_disabled": 0, "is_reserved": 0, "fusion_lat": 0.0, "lat": 38.842908333333334, "fusion_lon": 0.0, "rental_uris": {"ios": "https://dc.lft.to/lastmile_qr_scan", "android": "https://dc.lft.to/lastmile_qr_scan"}, "lon": -77.06378516666666, "bike_id": "b01aeaa46a8cfc7ee6e716fe562abc23", "type": "electric_bike", "name": "b01aeaa46a8cfc7ee6e716fe562abc23"}, {"is_disabled": 0, "is_reserved": 0, "fusion_lat": 0.0, "lat": 38.929742, "fusion_lon": 0.0, "rental_uris": {"ios": "https://dc.lft.to/lastmile_qr_scan", "android": "https://dc.lft.to/lastmile_qr_scan"}, "lon": -77.02929266666666, "bike_id": "8dc8188fda6465bc222d68b85125be56", "type": "electric_scooter", "name": "8dc8188fda6465bc222d68b85125be56"}, {"is_disabled": 0, "is_reserved": 0, "fusion_lat": 0.0, "lat": 38.912412, "fusion_lon": 0.0, "rental_uris": {"ios": "https://dc.lft.to/lastmile_qr_scan", "android": "https://dc.lft.to/lastmile_qr_scan"}, "lon": -77.03192166666666, "bike_id": "2eae722c6ad86188cd2ac33143a50ddd", "type": "electric_scooter", "name": "2eae722c6ad86188cd2ac33143a50ddd"}, {"is_disabled": 0, "is_reserved": 0, "fusion_lat": 0.0, "lat": 38.9524805, "fusion_lon": 0.0, "rental_uris": {"ios": "https://dc.lft.to/lastmile_qr_scan", "android": "https://dc.lft.to/lastmile_qr_scan"}, "lon": -77.09624116666667, "bike_id": "2f7d16e427dbc0fc1d1302cacbed9523", "type": "electric_bike", "name": "2f7d16e427dbc0fc1d1302cacbed9523"}, {"is_disabled": 0, "is_reserved": 0, "fusion_lat": 0.0, "lat": 38.987203666666666, "fusion_lon": 0.0, "rental_uris": {"ios": "https://dc.lft.to/lastmile_qr_scan", "android": "https://dc.lft.to/lastmile_qr_scan"}, "lon": -77.03764116666666, "bike_id": "ed867adb2de832ad1727696d2aaf4298", "type": "electric_bike", "name": "ed867adb2de832ad1727696d2aaf4298"}, {"is_disabled": 0, "is_reserved": 0, "fusion_lat": 0.0, "lat": 38.95084216666667, "fusion_lon": 0.0, "rental_uris": {"ios": "https://dc.lft.to/lastmile_qr_scan", "android": "https://dc.lft.to/lastmile_qr_scan"}, "lon": -77.01253666666666, "bike_id": "12f1c1d239170f5d22e9c546da410732", "type": "electric_bike", "name": "12f1c1d239170f5d22e9c546da410732"}, {"is_disabled": 0, "is_reserved": 0, "fusion_lat": 0.0, "lat": 38.9025075, "fusion_lon": 0.0, "rental_uris": {"ios": "https://dc.lft.to/lastmile_qr_scan", "android": "https://dc.lft.to/lastmile_qr_scan"}, "lon": -76.97701816666667, "bike_id": "8a3e59fe5a356fedfd3bb9a087da29c0", "type": "electric_scooter", "name": "8a3e59fe5a356fedfd3bb9a087da29c0"}, {"is_disabled": 0, "is_reserved": 0, "fusion_lat": 0.0, "lat": 38.890117333333336, "fusion_lon": 0.0, "rental_uris": {"ios": "https://dc.lft.to/lastmile_qr_scan", "android": "https://dc.lft.to/lastmile_qr_scan"}, "lon": -77.03322716666666, "bike_id": "11fbfd6bb5f91dd78753ad2eaf191bbf", "type": "electric_scooter", "name": "11fbfd6bb5f91dd78753ad2eaf191bbf"}, {"is_disabled": 0, "is_reserved": 0, "fusion_lat": 0.0, "lat": 38.9185675, "fusion_lon": 0.0, "rental_uris": {"ios": "https://dc.lft.to/lastmile_qr_scan", "android": "https://dc.lft.to/lastmile_qr_scan"}, "lon": -76.96089633333334, "bike_id": "7d5f936529e9a53095db97ef75dcf549", "type": "electric_scooter", "name": "7d5f936529e9a53095db97ef75dcf549"}, {"is_disabled": 0, "is_reserved": 0, "fusion_lat": 0.0, "lat": 38.89006883333333, "fusion_lon": 0.0, "rental_uris": {"ios": "https://dc.lft.to/lastmile_qr_scan", "android": "https://dc.lft.to/lastmile_qr_scan"}, "lon": -76.937414, "bike_id": "94f64a419a728df3d40dea2cc3d122e2", "type": "electric_scooter", "name": "94f64a419a728df3d40dea2cc3d122e2"}, {"is_disabled": 0, "is_reserved": 0, "fusion_lat": 0.0, "lat": 38.91826566666667, "fusion_lon": 0.0, "rental_uris": {"ios": "https://dc.lft.to/lastmile_qr_scan", "android": "https://dc.lft.to/lastmile_qr_scan"}, "lon": -77.02422766666666, "bike_id": "b4a371b3b5beb5cae1fd32f9efcd848b", "type": "electric_scooter", "name": "b4a371b3b5beb5cae1fd32f9efcd848b"}, {"is_disabled": 0, "is_reserved": 0, "fusion_lat": 0.0, "lat": 38.9064785, "fusion_lon": 0.0, "rental_uris": {"ios": "https://dc.lft.to/lastmile_qr_scan", "android": "https://dc.lft.to/lastmile_qr_scan"}, "lon": -77.02392933333333, "bike_id": "cfebbff24f239cc42da65c64025b3275", "type": "electric_scooter", "name": "cfebbff24f239cc42da65c64025b3275"}, {"is_disabled": 0, "is_reserved": 0, "fusion_lat": 0.0, "lat": 38.9136375, "fusion_lon": 0.0, "rental_uris": {"ios": "https://dc.lft.to/lastmile_qr_scan", "android": "https://dc.lft.to/lastmile_qr_scan"}, "lon": -77.04589733333333, "bike_id": "e4831226e16fac7762c356148aed9d13", "type": "electric_scooter", "name": "e4831226e16fac7762c356148aed9d13"}, {"is_disabled": 0, "is_reserved": 0, "fusion_lat": 0.0, "lat": 38.9179345, "fusion_lon": 0.0, "rental_uris": {"ios": "https://dc.lft.to/lastmile_qr_scan", "android": "https://dc.lft.to/lastmile_qr_scan"}, "lon": -77.03216733333333, "bike_id": "f23ea59d109bbe1c05a5b168466f65fa", "type": "electric_scooter", "name": "f23ea59d109bbe1c05a5b168466f65fa"}, {"is_disabled": 0, "is_reserved": 0, "fusion_lat": 0.0, "lat": 38.92011433333333, "fusion_lon": 0.0, "rental_uris": {"ios": "https://dc.lft.to/lastmile_qr_scan", "android": "https://dc.lft.to/lastmile_qr_scan"}, "lon": -77.041778, "bike_id": "cb052dd242b01a703d3d8b15cf935306", "type": "electric_scooter", "name": "cb052dd242b01a703d3d8b15cf935306"}, {"is_disabled": 0, "is_reserved": 0, "fusion_lat": 0.0, "lat": 38.87166283333333, "fusion_lon": 0.0, "rental_uris": {"ios": "https://dc.lft.to/lastmile_qr_scan", "android": "https://dc.lft.to/lastmile_qr_scan"}, "lon": -77.23389116666667, "bike_id": "f601b5b9af81fa2bdaafb8594dcdb15e", "type": "electric_bike", "name": "f601b5b9af81fa2bdaafb8594dcdb15e"}, {"is_disabled": 0, "is_reserved": 0, "fusion_lat": 0.0, "lat": 38.916538833333334, "fusion_lon": 0.0, "rental_uris": {"ios": "https://dc.lft.to/lastmile_qr_scan", "android": "https://dc.lft.to/lastmile_qr_scan"}, "lon": -77.02391616666667, "bike_id": "3584ab8b3a5aef834284e8eb62ee0200", "type": "electric_scooter", "name": "3584ab8b3a5aef834284e8eb62ee0200"}, {"is_disabled": 0, "is_reserved": 0, "fusion_lat": 0.0, "lat": 38.9531625, "fusion_lon": 0.0, "rental_uris": {"ios": "https://dc.lft.to/lastmile_qr_scan", "android": "https://dc.lft.to/lastmile_qr_scan"}, "lon": -76.994604, "bike_id": "f7493b901bc3d80ef9bde3c1dd944a09", "type": "electric_scooter", "name": "f7493b901bc3d80ef9bde3c1dd944a09"}, {"is_disabled": 0, "is_reserved": 0, "fusion_lat": 0.0, "lat": 39.0000055, "fusion_lon": 0.0, "rental_uris": {"ios": "https://dc.lft.to/lastmile_qr_scan", "android": "https://dc.lft.to/lastmile_qr_scan"}, "lon": -76.91810983333333, "bike_id": "d2a3545686051e4246ba17730ed24178", "type": "electric_bike", "name": "d2a3545686051e4246ba17730ed24178"}, {"is_disabled": 0, "is_reserved": 0, "fusion_lat": 0.0, "lat": 38.893639666666665, "fusion_lon": 0.0, "rental_uris": {"ios": "https://dc.lft.to/lastmile_qr_scan", "android": "https://dc.lft.to/lastmile_qr_scan"}, "lon": -76.9410685, "bike_id": "aa7172abf2157c59f43a138d9c49218e", "type": "electric_scooter", "name": "aa7172abf2157c59f43a138d9c49218e"}, {"is_disabled": 0, "is_reserved": 0, "fusion_lat": 0.0, "lat": 38.90051666666667, "fusion_lon": 0.0, "rental_uris": {"ios": "https://dc.lft.to/lastmile_qr_scan", "android": "https://dc.lft.to/lastmile_qr_scan"}, "lon": -77.04932883333333, "bike_id": "e85ae32a80304110d5ca424b7d7f7c7a", "type": "electric_scooter", "name": "e85ae32a80304110d5ca424b7d7f7c7a"}, {"is_disabled": 0, "is_reserved": 0, "fusion_lat": 0.0, "lat": 38.937016166666666, "fusion_lon": 0.0, "rental_uris": {"ios": "https://dc.lft.to/lastmile_qr_scan", "android": "https://dc.lft.to/lastmile_qr_scan"}, "lon": -77.0560375, "bike_id": "17353bec3cc15192fe0f4a428ddb7b63", "type": "electric_scooter", "name": "17353bec3cc15192fe0f4a428ddb7b63"}, {"is_disabled": 0, "is_reserved": 0, "fusion_lat": 0.0, "lat": 38.899737333333334, "fusion_lon": 0.0, "rental_uris": {"ios": "https://dc.lft.to/lastmile_qr_scan", "android": "https://dc.lft.to/lastmile_qr_scan"}, "lon": -77.00941633333333, "bike_id": "2d390107e81c93e53d380f91becfb1a9", "type": "electric_scooter", "name": "2d390107e81c93e53d380f91becfb1a9"}, {"is_disabled": 0, "is_reserved": 0, "fusion_lat": 0.0, "lat": 38.89589483333334, "fusion_lon": 0.0, "rental_uris": {"ios": "https://dc.lft.to/lastmile_qr_scan", "android": "https://dc.lft.to/lastmile_qr_scan"}, "lon": -77.02658316666667, "bike_id": "ff5e2f7363b9dc5a748f4e678b9996bf", "type": "electric_scooter", "name": "ff5e2f7363b9dc5a748f4e678b9996bf"}, {"is_disabled": 0, "is_reserved": 0, "fusion_lat": 0.0, "lat": 38.8852645, "fusion_lon": 0.0, "rental_uris": {"ios": "https://dc.lft.to/lastmile_qr_scan", "android": "https://dc.lft.to/lastmile_qr_scan"}, "lon": -76.99797916666667, "bike_id": "a68012190d1947e1d1e41392431fd911", "type": "electric_scooter", "name": "a68012190d1947e1d1e41392431fd911"}, {"is_disabled": 0, "is_reserved": 0, "fusion_lat": 0.0, "lat": 38.87189266666667, "fusion_lon": 0.0, "rental_uris": {"ios": "https://dc.lft.to/lastmile_qr_scan", "android": "https://dc.lft.to/lastmile_qr_scan"}, "lon": -77.0058665, "bike_id": "f505d11e8526a7055e2862a178d0cece", "type": "electric_scooter", "name": "f505d11e8526a7055e2862a178d0cece"}, {"is_disabled": 0, "is_reserved": 0, "fusion_lat": 0.0, "lat": 38.866781833333334, "fusion_lon": 0.0, "rental_uris": {"ios": "https://dc.lft.to/lastmile_qr_scan", "android": "https://dc.lft.to/lastmile_qr_scan"}, "lon": -77.01025483333333, "bike_id": "e9b171f87d6fef2571c73516bb1a006b", "type": "electric_scooter", "name": "e9b171f87d6fef2571c73516bb1a006b"}, {"is_disabled": 0, "is_reserved": 0, "fusion_lat": 0.0, "lat": 38.9274685, "fusion_lon": 0.0, "rental_uris": {"ios": "https://dc.lft.to/lastmile_qr_scan", "android": "https://dc.lft.to/lastmile_qr_scan"}, "lon": -77.0330535, "bike_id": "670a2a127821b680b84a92ef1dd12aef", "type": "electric_scooter", "name": "670a2a127821b680b84a92ef1dd12aef"}, {"is_disabled": 0, "is_reserved": 0, "fusion_lat": 0.0, "lat": 38.80737583333333, "fusion_lon": 0.0, "rental_uris": {"ios": "https://dc.lft.to/lastmile_qr_scan", "android": "https://dc.lft.to/lastmile_qr_scan"}, "lon": -77.09689566666667, "bike_id": "47abf2427281f51c829ed88facc91bc9", "type": "electric_bike", "name": "47abf2427281f51c829ed88facc91bc9"}, {"is_disabled": 0, "is_reserved": 0, "fusion_lat": 0.0, "lat": 38.911317833333335, "fusion_lon": 0.0, "rental_uris": {"ios": "https://dc.lft.to/lastmile_qr_scan", "android": "https://dc.lft.to/lastmile_qr_scan"}, "lon": -77.04417133333334, "bike_id": "81ed5b7fe51401fe212ebc981f429362", "type": "electric_scooter", "name": "81ed5b7fe51401fe212ebc981f429362"}, {"is_disabled": 0, "is_reserved": 0, "fusion_lat": 0.0, "lat": 38.884300833333334, "fusion_lon": 0.0, "rental_uris": {"ios": "https://dc.lft.to/lastmile_qr_scan", "android": "https://dc.lft.to/lastmile_qr_scan"}, "lon": -77.02922366666667, "bike_id": "96483f52ce6df91a7ceaf7cf87b924fe", "type": "electric_scooter", "name": "96483f52ce6df91a7ceaf7cf87b924fe"}, {"is_disabled": 0, "is_reserved": 0, "fusion_lat": 0.0, "lat": 38.92105466666667, "fusion_lon": 0.0, "rental_uris": {"ios": "https://dc.lft.to/lastmile_qr_scan", "android": "https://dc.lft.to/lastmile_qr_scan"}, "lon": -77.01767183333334, "bike_id": "d285ba0f8e313b3bcb8443322264986f", "type": "electric_scooter", "name": "d285ba0f8e313b3bcb8443322264986f"}, {"is_disabled": 0, "is_reserved": 0, "fusion_lat": 0.0, "lat": 38.9160915, "fusion_lon": 0.0, "rental_uris": {"ios": "https://dc.lft.to/lastmile_qr_scan", "android": "https://dc.lft.to/lastmile_qr_scan"}, "lon": -77.021333, "bike_id": "64e1782344525854a7fb7bc0885fbb79", "type": "electric_scooter", "name": "64e1782344525854a7fb7bc0885fbb79"}, {"is_disabled": 0, "is_reserved": 0, "fusion_lat": 0.0, "lat": 38.870982, "fusion_lon": 0.0, "rental_uris": {"ios": "https://dc.lft.to/lastmile_qr_scan", "android": "https://dc.lft.to/lastmile_qr_scan"}, "lon": -77.012134, "bike_id": "8f68bf88c1c5bb6eec76b3d2bbe50966", "type": "electric_scooter", "name": "8f68bf88c1c5bb6eec76b3d2bbe50966"}, {"is_disabled": 0, "is_reserved": 0, "fusion_lat": 0.0, "lat": 38.8990485, "fusion_lon": 0.0, "rental_uris": {"ios": "https://dc.lft.to/lastmile_qr_scan", "android": "https://dc.lft.to/lastmile_qr_scan"}, "lon": -77.032125, "bike_id": "d08aede291304187fb08ce7c43c82ce3", "type": "electric_scooter", "name": "d08aede291304187fb08ce7c43c82ce3"}, {"is_disabled": 0, "is_reserved": 0, "fusion_lat": 0.0, "lat": 38.94291616666667, "fusion_lon": 0.0, "rental_uris": {"ios": "https://dc.lft.to/lastmile_qr_scan", "android": "https://dc.lft.to/lastmile_qr_scan"}, "lon": -77.02168283333333, "bike_id": "3ba1d954153af82bc62dcccc9d03df3a", "type": "electric_scooter", "name": "3ba1d954153af82bc62dcccc9d03df3a"}, {"is_disabled": 0, "is_reserved": 0, "fusion_lat": 0.0, "lat": 38.92164433333333, "fusion_lon": 0.0, "rental_uris": {"ios": "https://dc.lft.to/lastmile_qr_scan", "android": "https://dc.lft.to/lastmile_qr_scan"}, "lon": -77.04241166666667, "bike_id": "84c97fac2534b9fe0b1822f909c545ae", "type": "electric_scooter", "name": "84c97fac2534b9fe0b1822f909c545ae"}, {"is_disabled": 0, "is_reserved": 0, "fusion_lat": 0.0, "lat": 38.941791333333335, "fusion_lon": 0.0, "rental_uris": {"ios": "https://dc.lft.to/lastmile_qr_scan", "android": "https://dc.lft.to/lastmile_qr_scan"}, "lon": -77.01536083333333, "bike_id": "f224f0ed094d4011e2eaca450c191120", "type": "electric_scooter", "name": "f224f0ed094d4011e2eaca450c191120"}, {"is_disabled": 0, "is_reserved": 0, "fusion_lat": 0.0, "lat": 38.921757166666666, "fusion_lon": 0.0, "rental_uris": {"ios": "https://dc.lft.to/lastmile_qr_scan", "android": "https://dc.lft.to/lastmile_qr_scan"}, "lon": -76.99421133333334, "bike_id": "8cc9eb6855e24078a569c1cb973a4db5", "type": "electric_scooter", "name": "8cc9eb6855e24078a569c1cb973a4db5"}, {"is_disabled": 0, "is_reserved": 0, "fusion_lat": 0.0, "lat": 38.898363, "fusion_lon": 0.0, "rental_uris": {"ios": "https://dc.lft.to/lastmile_qr_scan", "android": "https://dc.lft.to/lastmile_qr_scan"}, "lon": -77.02858066666667, "bike_id": "1723f4cf25977be8f319a751eaa8b0d6", "type": "electric_scooter", "name": "1723f4cf25977be8f319a751eaa8b0d6"}, {"is_disabled": 0, "is_reserved": 0, "fusion_lat": 0.0, "lat": 38.927108833333335, "fusion_lon": 0.0, "rental_uris": {"ios": "https://dc.lft.to/lastmile_qr_scan", "android": "https://dc.lft.to/lastmile_qr_scan"}, "lon": -77.0208585, "bike_id": "d7374e2e6cc84189813f4376653be268", "type": "electric_scooter", "name": "d7374e2e6cc84189813f4376653be268"}, {"is_disabled": 0, "is_reserved": 0, "fusion_lat": 0.0, "lat": 38.89664066666667, "fusion_lon": 0.0, "rental_uris": {"ios": "https://dc.lft.to/lastmile_qr_scan", "android": "https://dc.lft.to/lastmile_qr_scan"}, "lon": -76.94903766666667, "bike_id": "eda45af73bb34dc99ac34d5eb6adc102", "type": "electric_scooter", "name": "eda45af73bb34dc99ac34d5eb6adc102"}, {"is_disabled": 0, "is_reserved": 0, "fusion_lat": 0.0, "lat": 38.89507183333333, "fusion_lon": 0.0, "rental_uris": {"ios": "https://dc.lft.to/lastmile_qr_scan", "android": "https://dc.lft.to/lastmile_qr_scan"}, "lon": -77.02288983333334, "bike_id": "b23cdf8c632c12481b334879d4f59d20", "type": "electric_scooter", "name": "b23cdf8c632c12481b334879d4f59d20"}, {"is_disabled": 0, "is_reserved": 0, "fusion_lat": 0.0, "lat": 38.911527, "fusion_lon": 0.0, "rental_uris": {"ios": "https://dc.lft.to/lastmile_qr_scan", "android": "https://dc.lft.to/lastmile_qr_scan"}, "lon": -77.04473583333333, "bike_id": "037909c9d50c282ac789e5e7b3c1d5b1", "type": "electric_scooter", "name": "037909c9d50c282ac789e5e7b3c1d5b1"}, {"is_disabled": 0, "is_reserved": 0, "fusion_lat": 0.0, "lat": 38.902277166666664, "fusion_lon": 0.0, "rental_uris": {"ios": "https://dc.lft.to/lastmile_qr_scan", "android": "https://dc.lft.to/lastmile_qr_scan"}, "lon": -77.0320095, "bike_id": "067380deb5a75e13957dca5813612c5a", "type": "electric_scooter", "name": "067380deb5a75e13957dca5813612c5a"}, {"is_disabled": 0, "is_reserved": 0, "fusion_lat": 0.0, "lat": 38.926521, "fusion_lon": 0.0, "rental_uris": {"ios": "https://dc.lft.to/lastmile_qr_scan", "android": "https://dc.lft.to/lastmile_qr_scan"}, "lon": -77.02433683333334, "bike_id": "ac78c0da62b1145508045ebb4f740b3b", "type": "electric_scooter", "name": "ac78c0da62b1145508045ebb4f740b3b"}, {"is_disabled": 0, "is_reserved": 0, "fusion_lat": 0.0, "lat": 38.90194866666667, "fusion_lon": 0.0, "rental_uris": {"ios": "https://dc.lft.to/lastmile_qr_scan", "android": "https://dc.lft.to/lastmile_qr_scan"}, "lon": -77.05081233333334, "bike_id": "739a03f34e9664acfa726336b397af55", "type": "electric_scooter", "name": "739a03f34e9664acfa726336b397af55"}, {"is_disabled": 0, "is_reserved": 0, "fusion_lat": 0.0, "lat": 38.92385783333334, "fusion_lon": 0.0, "rental_uris": {"ios": "https://dc.lft.to/lastmile_qr_scan", "android": "https://dc.lft.to/lastmile_qr_scan"}, "lon": -77.02682133333333, "bike_id": "f05c7af000715988924f0440a107b170", "type": "electric_scooter", "name": "f05c7af000715988924f0440a107b170"}, {"is_disabled": 0, "is_reserved": 0, "fusion_lat": 0.0, "lat": 38.947247833333336, "fusion_lon": 0.0, "rental_uris": {"ios": "https://dc.lft.to/lastmile_qr_scan", "android": "https://dc.lft.to/lastmile_qr_scan"}, "lon": -77.02354233333334, "bike_id": "5c5db070faad47e7eee3792fd2739a25", "type": "electric_scooter", "name": "5c5db070faad47e7eee3792fd2739a25"}, {"is_disabled": 0, "is_reserved": 0, "fusion_lat": 0.0, "lat": 38.913304333333336, "fusion_lon": 0.0, "rental_uris": {"ios": "https://dc.lft.to/lastmile_qr_scan", "android": "https://dc.lft.to/lastmile_qr_scan"}, "lon": -77.0312185, "bike_id": "5504118c59285db26a6f2b9dda871080", "type": "electric_scooter", "name": "5504118c59285db26a6f2b9dda871080"}, {"is_disabled": 0, "is_reserved": 0, "fusion_lat": 0.0, "lat": 38.925467833333336, "fusion_lon": 0.0, "rental_uris": {"ios": "https://dc.lft.to/lastmile_qr_scan", "android": "https://dc.lft.to/lastmile_qr_scan"}, "lon": -77.0227805, "bike_id": "b6ff9bbc2b025271d1c154bced3df2c3", "type": "electric_scooter", "name": "b6ff9bbc2b025271d1c154bced3df2c3"}, {"is_disabled": 0, "is_reserved": 0, "fusion_lat": 0.0, "lat": 38.917891, "fusion_lon": 0.0, "rental_uris": {"ios": "https://dc.lft.to/lastmile_qr_scan", "android": "https://dc.lft.to/lastmile_qr_scan"}, "lon": -77.02469883333333, "bike_id": "7903fc6e2ad49f7f6af8b5728180789a", "type": "electric_scooter", "name": "7903fc6e2ad49f7f6af8b5728180789a"}, {"is_disabled": 0, "is_reserved": 0, "fusion_lat": 0.0, "lat": 38.91823316666667, "fusion_lon": 0.0, "rental_uris": {"ios": "https://dc.lft.to/lastmile_qr_scan", "android": "https://dc.lft.to/lastmile_qr_scan"}, "lon": -77.0252725, "bike_id": "6ef93c6530c3c1d077215179a2c45f9b", "type": "electric_scooter", "name": "6ef93c6530c3c1d077215179a2c45f9b"}, {"is_disabled": 0, "is_reserved": 0, "fusion_lat": 0.0, "lat": 38.91716783333333, "fusion_lon": 0.0, "rental_uris": {"ios": "https://dc.lft.to/lastmile_qr_scan", "android": "https://dc.lft.to/lastmile_qr_scan"}, "lon": -77.0385795, "bike_id": "e5136747338bf95bddd30be9681c6efe", "type": "electric_scooter", "name": "e5136747338bf95bddd30be9681c6efe"}, {"is_disabled": 0, "is_reserved": 0, "fusion_lat": 0.0, "lat": 38.9056505, "fusion_lon": 0.0, "rental_uris": {"ios": "https://dc.lft.to/lastmile_qr_scan", "android": "https://dc.lft.to/lastmile_qr_scan"}, "lon": -77.0080815, "bike_id": "69f7e97bb266b4c9ead1fc3363d051bf", "type": "electric_scooter", "name": "69f7e97bb266b4c9ead1fc3363d051bf"}, {"is_disabled": 0, "is_reserved": 0, "fusion_lat": 0.0, "lat": 38.89336266666667, "fusion_lon": 0.0, "rental_uris": {"ios": "https://dc.lft.to/lastmile_qr_scan", "android": "https://dc.lft.to/lastmile_qr_scan"}, "lon": -76.92888616666667, "bike_id": "d09e94dcfebc8d8c2f6e3f6da6a0a50c", "type": "electric_scooter", "name": "d09e94dcfebc8d8c2f6e3f6da6a0a50c"}, {"is_disabled": 0, "is_reserved": 0, "fusion_lat": 0.0, "lat": 38.85065683333333, "fusion_lon": 0.0, "rental_uris": {"ios": "https://dc.lft.to/lastmile_qr_scan", "android": "https://dc.lft.to/lastmile_qr_scan"}, "lon": -76.98171266666667, "bike_id": "74df41a1f29ba2128a4b37d04e63fd9d", "type": "electric_bike", "name": "74df41a1f29ba2128a4b37d04e63fd9d"}, {"is_disabled": 0, "is_reserved": 0, "fusion_lat": 0.0, "lat": 38.840094, "fusion_lon": 0.0, "rental_uris": {"ios": "https://dc.lft.to/lastmile_qr_scan", "android": "https://dc.lft.to/lastmile_qr_scan"}, "lon": -76.98858683333333, "bike_id": "cb3d9b3c8d9073058fe483e9d3aa9398", "type": "electric_bike", "name": "cb3d9b3c8d9073058fe483e9d3aa9398"}, {"is_disabled": 0, "is_reserved": 0, "fusion_lat": 0.0, "lat": 38.8950015, "fusion_lon": 0.0, "rental_uris": {"ios": "https://dc.lft.to/lastmile_qr_scan", "android": "https://dc.lft.to/lastmile_qr_scan"}, "lon": -76.97412883333334, "bike_id": "8fb66bd3b29e45e084dc639f609ed39d", "type": "electric_scooter", "name": "8fb66bd3b29e45e084dc639f609ed39d"}, {"is_disabled": 0, "is_reserved": 0, "fusion_lat": 0.0, "lat": 38.935973833333335, "fusion_lon": 0.0, "rental_uris": {"ios": "https://dc.lft.to/lastmile_qr_scan", "android": "https://dc.lft.to/lastmile_qr_scan"}, "lon": -77.05614266666667, "bike_id": "0bb519496c53c65bac9883d1bae5c081", "type": "electric_scooter", "name": "0bb519496c53c65bac9883d1bae5c081"}, {"is_disabled": 0, "is_reserved": 0, "fusion_lat": 0.0, "lat": 38.88548383333333, "fusion_lon": 0.0, "rental_uris": {"ios": "https://dc.lft.to/lastmile_qr_scan", "android": "https://dc.lft.to/lastmile_qr_scan"}, "lon": -77.11687683333334, "bike_id": "a86544a72b7307544772ce4f185af729", "type": "electric_bike", "name": "a86544a72b7307544772ce4f185af729"}, {"is_disabled": 0, "is_reserved": 0, "fusion_lat": 0.0, "lat": 38.8922455, "fusion_lon": 0.0, "rental_uris": {"ios": "https://dc.lft.to/lastmile_qr_scan", "android": "https://dc.lft.to/lastmile_qr_scan"}, "lon": -77.04503766666667, "bike_id": "290eb033110568c34e23d0ced9965cfa", "type": "electric_scooter", "name": "290eb033110568c34e23d0ced9965cfa"}, {"is_disabled": 0, "is_reserved": 0, "fusion_lat": 0.0, "lat": 38.900451333333336, "fusion_lon": 0.0, "rental_uris": {"ios": "https://dc.lft.to/lastmile_qr_scan", "android": "https://dc.lft.to/lastmile_qr_scan"}, "lon": -77.04820283333333, "bike_id": "c2263151e2c73cc54f216696cacbb3f7", "type": "electric_scooter", "name": "c2263151e2c73cc54f216696cacbb3f7"}, {"is_disabled": 0, "is_reserved": 0, "fusion_lat": 0.0, "lat": 38.8784175, "fusion_lon": 0.0, "rental_uris": {"ios": "https://dc.lft.to/lastmile_qr_scan", "android": "https://dc.lft.to/lastmile_qr_scan"}, "lon": -77.03030316666667, "bike_id": "b6d23a4f63d85e440b0f0a4b7b96cfb3", "type": "electric_bike", "name": "b6d23a4f63d85e440b0f0a4b7b96cfb3"}, {"is_disabled": 0, "is_reserved": 0, "fusion_lat": 0.0, "lat": 38.919321, "fusion_lon": 0.0, "rental_uris": {"ios": "https://dc.lft.to/lastmile_qr_scan", "android": "https://dc.lft.to/lastmile_qr_scan"}, "lon": -77.03409183333333, "bike_id": "bc47fc466c82480bc33c87125f42cf92", "type": "electric_scooter", "name": "bc47fc466c82480bc33c87125f42cf92"}, {"is_disabled": 0, "is_reserved": 0, "fusion_lat": 0.0, "lat": 38.856408, "fusion_lon": 0.0, "rental_uris": {"ios": "https://dc.lft.to/lastmile_qr_scan", "android": "https://dc.lft.to/lastmile_qr_scan"}, "lon": -77.06836216666666, "bike_id": "9010571410b825f64d4b54a168ba23a3", "type": "electric_bike", "name": "9010571410b825f64d4b54a168ba23a3"}, {"is_disabled": 0, "is_reserved": 0, "fusion_lat": 0.0, "lat": 38.8822065, "fusion_lon": 0.0, "rental_uris": {"ios": "https://dc.lft.to/lastmile_qr_scan", "android": "https://dc.lft.to/lastmile_qr_scan"}, "lon": -76.99732733333333, "bike_id": "c38d5bacb6e6021d430774ea2ca77fbf", "type": "electric_scooter", "name": "c38d5bacb6e6021d430774ea2ca77fbf"}, {"is_disabled": 0, "is_reserved": 0, "fusion_lat": 0.0, "lat": 38.917079333333334, "fusion_lon": 0.0, "rental_uris": {"ios": "https://dc.lft.to/lastmile_qr_scan", "android": "https://dc.lft.to/lastmile_qr_scan"}, "lon": -77.02852, "bike_id": "1b1cb9b7c79a98e399ced161e834b3cb", "type": "electric_scooter", "name": "1b1cb9b7c79a98e399ced161e834b3cb"}, {"is_disabled": 0, "is_reserved": 0, "fusion_lat": 0.0, "lat": 38.865612166666665, "fusion_lon": 0.0, "rental_uris": {"ios": "https://dc.lft.to/lastmile_qr_scan", "android": "https://dc.lft.to/lastmile_qr_scan"}, "lon": -76.97476383333333, "bike_id": "c1730153730918ca48f2e76f6f52d2b8", "type": "electric_bike", "name": "c1730153730918ca48f2e76f6f52d2b8"}, {"is_disabled": 0, "is_reserved": 0, "fusion_lat": 0.0, "lat": 38.8730535, "fusion_lon": 0.0, "rental_uris": {"ios": "https://dc.lft.to/lastmile_qr_scan", "android": "https://dc.lft.to/lastmile_qr_scan"}, "lon": -77.010715, "bike_id": "f88e5bf3ef78f07d380fc56a966d496f", "type": "electric_scooter", "name": "f88e5bf3ef78f07d380fc56a966d496f"}, {"is_disabled": 0, "is_reserved": 0, "fusion_lat": 0.0, "lat": 38.90089866666667, "fusion_lon": 0.0, "rental_uris": {"ios": "https://dc.lft.to/lastmile_qr_scan", "android": "https://dc.lft.to/lastmile_qr_scan"}, "lon": -77.03834783333333, "bike_id": "86b62e96f6ae1dfb84c9b2854cb1d887", "type": "electric_scooter", "name": "86b62e96f6ae1dfb84c9b2854cb1d887"}, {"is_disabled": 0, "is_reserved": 0, "fusion_lat": 0.0, "lat": 38.82432433333334, "fusion_lon": 0.0, "rental_uris": {"ios": "https://dc.lft.to/lastmile_qr_scan", "android": "https://dc.lft.to/lastmile_qr_scan"}, "lon": -77.12040683333333, "bike_id": "40584b467a3f1574819a26ca8918ac34", "type": "electric_bike", "name": "40584b467a3f1574819a26ca8918ac34"}, {"is_disabled": 0, "is_reserved": 0, "fusion_lat": 0.0, "lat": 38.892261833333336, "fusion_lon": 0.0, "rental_uris": {"ios": "https://dc.lft.to/lastmile_qr_scan", "android": "https://dc.lft.to/lastmile_qr_scan"}, "lon": -77.02171233333334, "bike_id": "ec86f2b7dfd16e132d3bcee0370ebed2", "type": "electric_scooter", "name": "ec86f2b7dfd16e132d3bcee0370ebed2"}, {"is_disabled": 0, "is_reserved": 0, "fusion_lat": 0.0, "lat": 38.89752266666667, "fusion_lon": 0.0, "rental_uris": {"ios": "https://dc.lft.to/lastmile_qr_scan", "android": "https://dc.lft.to/lastmile_qr_scan"}, "lon": -77.02717383333334, "bike_id": "47acf4c1c61c2ff9a8824274d7b54bfa", "type": "electric_scooter", "name": "47acf4c1c61c2ff9a8824274d7b54bfa"}, {"is_disabled": 0, "is_reserved": 0, "fusion_lat": 0.0, "lat": 38.89230116666667, "fusion_lon": 0.0, "rental_uris": {"ios": "https://dc.lft.to/lastmile_qr_scan", "android": "https://dc.lft.to/lastmile_qr_scan"}, "lon": -77.02174616666667, "bike_id": "274e3d6552899f44dee7454209f349a8", "type": "electric_scooter", "name": "274e3d6552899f44dee7454209f349a8"}, {"is_disabled": 0, "is_reserved": 0, "fusion_lat": 0.0, "lat": 38.899542, "fusion_lon": 0.0, "rental_uris": {"ios": "https://dc.lft.to/lastmile_qr_scan", "android": "https://dc.lft.to/lastmile_qr_scan"}, "lon": -77.02162883333334, "bike_id": "db2b488671ce64aae62fbae2d12542a7", "type": "electric_scooter", "name": "db2b488671ce64aae62fbae2d12542a7"}, {"is_disabled": 0, "is_reserved": 0, "fusion_lat": 0.0, "lat": 38.91544416666667, "fusion_lon": 0.0, "rental_uris": {"ios": "https://dc.lft.to/lastmile_qr_scan", "android": "https://dc.lft.to/lastmile_qr_scan"}, "lon": -77.04622783333333, "bike_id": "2675e411219940180615d79548d1a09e", "type": "electric_scooter", "name": "2675e411219940180615d79548d1a09e"}, {"is_disabled": 0, "is_reserved": 0, "fusion_lat": 0.0, "lat": 38.9209375, "fusion_lon": 0.0, "rental_uris": {"ios": "https://dc.lft.to/lastmile_qr_scan", "android": "https://dc.lft.to/lastmile_qr_scan"}, "lon": -77.02319266666667, "bike_id": "05aed118b8e3d23e545ad29a35720886", "type": "electric_scooter", "name": "05aed118b8e3d23e545ad29a35720886"}, {"is_disabled": 0, "is_reserved": 0, "fusion_lat": 0.0, "lat": 38.90142, "fusion_lon": 0.0, "rental_uris": {"ios": "https://dc.lft.to/lastmile_qr_scan", "android": "https://dc.lft.to/lastmile_qr_scan"}, "lon": -77.04168116666666, "bike_id": "8ea7f438fea091eae57ad050fe3517e1", "type": "electric_scooter", "name": "8ea7f438fea091eae57ad050fe3517e1"}, {"is_disabled": 0, "is_reserved": 0, "fusion_lat": 0.0, "lat": 38.892233166666664, "fusion_lon": 0.0, "rental_uris": {"ios": "https://dc.lft.to/lastmile_qr_scan", "android": "https://dc.lft.to/lastmile_qr_scan"}, "lon": -77.04364533333333, "bike_id": "9cbe54c7c5877467b660bf0fdcf7dc3a", "type": "electric_scooter", "name": "9cbe54c7c5877467b660bf0fdcf7dc3a"}, {"is_disabled": 0, "is_reserved": 0, "fusion_lat": 0.0, "lat": 38.915544, "fusion_lon": 0.0, "rental_uris": {"ios": "https://dc.lft.to/lastmile_qr_scan", "android": "https://dc.lft.to/lastmile_qr_scan"},