{"data": {"bikes": [{"name": "3e5feb023e643242bc224fbd9aefe015", "type": "electric_scooter", "fusion_lon": 0.0, "lon": -77.02347333333333, "is_disabled": 0, "lat": 38.9317815, "fusion_lat": 0.0, "is_reserved": 0, "rental_uris": {"android": "https://dc.lft.to/lastmile_qr_scan", "ios": "https://dc.lft.to/lastmile_qr_scan"}, "bike_id": "3e5feb023e643242bc224fbd9aefe015"}, {"name": "c3a74c0c4e081a1ac986a39b6ca6d678", "type": "electric_scooter", "fusion_lon": 0.0, "lon": -77.02202016666666, "is_disabled": 0, "lat": 38.915918166666664, "fusion_lat": 0.0, "is_reserved": 0, "rental_uris": {"android": "https://dc.lft.to/lastmile_qr_scan", "ios": "https://dc.lft.to/lastmile_qr_scan"}, "bike_id": "c3a74c0c4e081a1ac986a39b6ca6d678"}, {"name": "7adef3516465620a837e872f273bf288", "type": "electric_scooter", "fusion_lon": 0.0, "lon": -77.038503, "is_disabled": 0, "lat": 38.902680333333336, "fusion_lat": 0.0, "is_reserved": 0, "rental_uris": {"android": "https://dc.lft.to/lastmile_qr_scan", "ios": "https://dc.lft.to/lastmile_qr_scan"}, "bike_id": "7adef3516465620a837e872f273bf288"}, {"name": "281d0dd48524d1da783f63fb842e00a9", "type": "electric_scooter", "fusion_lon": 0.0, "lon": -77.04059516666666, "is_disabled": 0, "lat": 38.93144, "fusion_lat": 0.0, "is_reserved": 0, "rental_uris": {"android": "https://dc.lft.to/lastmile_qr_scan", "ios": "https://dc.lft.to/lastmile_qr_scan"}, "bike_id": "281d0dd48524d1da783f63fb842e00a9"}, {"name": "8b9c3859c4cc9d7205ac8c9502c384f0", "type": "electric_scooter", "fusion_lon": 0.0, "lon": -77.02173133333334, "is_disabled": 0, "lat": 38.942907, "fusion_lat": 0.0, "is_reserved": 0, "rental_uris": {"android": "https://dc.lft.to/lastmile_qr_scan", "ios": "https://dc.lft.to/lastmile_qr_scan"}, "bike_id": "8b9c3859c4cc9d7205ac8c9502c384f0"}, {"name": "00aa24abdf9e6f5afc9d04fe668ebf02", "type": "electric_scooter", "fusion_lon": 0.0, "lon": -77.02572383333333, "is_disabled": 0, "lat": 38.92576233333333, "fusion_lat": 0.0, "is_reserved": 0, "rental_uris": {"android": "https://dc.lft.to/lastmile_qr_scan", "ios": "https://dc.lft.to/lastmile_qr_scan"}, "bike_id": "00aa24abdf9e6f5afc9d04fe668ebf02"}, {"name": "bd61ce0f73d53293e173e20b08c14d9c", "type": "electric_scooter", "fusion_lon": 0.0, "lon": -77.0224775, "is_disabled": 0, "lat": 38.924665, "fusion_lat": 0.0, "is_reserved": 0, "rental_uris": {"android": "https://dc.lft.to/lastmile_qr_scan", "ios": "https://dc.lft.to/lastmile_qr_scan"}, "bike_id": "bd61ce0f73d53293e173e20b08c14d9c"}, {"name": "0578fd021eb2a46804b59af68b03726a", "type": "electric_scooter", "fusion_lon": 0.0, "lon": -77.017495, "is_disabled": 0, "lat": 38.9145085, "fusion_lat": 0.0, "is_reserved": 0, "rental_uris": {"android": "https://dc.lft.to/lastmile_qr_scan", "ios": "https://dc.lft.to/lastmile_qr_scan"}, "bike_id": "0578fd021eb2a46804b59af68b03726a"}, {"name": "d43b68d0d642f66a099a7ddf3bcaeedd", "type": "electric_scooter", "fusion_lon": 0.0, "lon": -77.02640283333334, "is_disabled": 0, "lat": 38.892306833333336, "fusion_lat": 0.0, "is_reserved": 0, "rental_uris": {"android": "https://dc.lft.to/lastmile_qr_scan", "ios": "https://dc.lft.to/lastmile_qr_scan"}, "bike_id": "d43b68d0d642f66a099a7ddf3bcaeedd"}, {"name": "dcb9b62c6f2b31dd79c2ad953e1bb61b", "type": "electric_scooter", "fusion_lon": 0.0, "lon": -77.04121333333333, "is_disabled": 0, "lat": 38.93358533333333, "fusion_lat": 0.0, "is_reserved": 0, "rental_uris": {"android": "https://dc.lft.to/lastmile_qr_scan", "ios": "https://dc.lft.to/lastmile_qr_scan"}, "bike_id": "dcb9b62c6f2b31dd79c2ad953e1bb61b"}, {"name": "b87efb8499fb0662bf287291e54a530a", "type": "electric_scooter", "fusion_lon": 0.0, "lon": -77.04514283333333, "is_disabled": 0, "lat": 38.892224, "fusion_lat": 0.0, "is_reserved": 0, "rental_uris": {"android": "https://dc.lft.to/lastmile_qr_scan", "ios": "https://dc.lft.to/lastmile_qr_scan"}, "bike_id": "b87efb8499fb0662bf287291e54a530a"}, {"name": "6abb642b2809a2cc195ae4897f037d44", "type": "electric_scooter", "fusion_lon": 0.0, "lon": -77.046678, "is_disabled": 0, "lat": 38.90101216666667, "fusion_lat": 0.0, "is_reserved": 0, "rental_uris": {"android": "https://dc.lft.to/lastmile_qr_scan", "ios": "https://dc.lft.to/lastmile_qr_scan"}, "bike_id": "6abb642b2809a2cc195ae4897f037d44"}, {"name": "dcf422c3883668be260dde6b354daf40", "type": "electric_scooter", "fusion_lon": 0.0, "lon": -76.983372, "is_disabled": 0, "lat": 38.86563783333333, "fusion_lat": 0.0, "is_reserved": 0, "rental_uris": {"android": "https://dc.lft.to/lastmile_qr_scan", "ios": "https://dc.lft.to/lastmile_qr_scan"}, "bike_id": "dcf422c3883668be260dde6b354daf40"}, {"name": "a5ad4bab1b318c9c375c7c8fbb823583", "type": "electric_scooter", "fusion_lon": 0.0, "lon": -77.02982866666666, "is_disabled": 0, "lat": 38.90508333333333, "fusion_lat": 0.0, "is_reserved": 0, "rental_uris": {"android": "https://dc.lft.to/lastmile_qr_scan", "ios": "https://dc.lft.to/lastmile_qr_scan"}, "bike_id": "a5ad4bab1b318c9c375c7c8fbb823583"}, {"name": "453ac76562719c64eb75c13215cc10de", "type": "electric_scooter", "fusion_lon": 0.0, "lon": -77.04543466666667, "is_disabled": 0, "lat": 38.912004833333334, "fusion_lat": 0.0, "is_reserved": 0, "rental_uris": {"android": "https://dc.lft.to/lastmile_qr_scan", "ios": "https://dc.lft.to/lastmile_qr_scan"}, "bike_id": "453ac76562719c64eb75c13215cc10de"}, {"name": "92ee0000638c925288ec0142293d985e", "type": "electric_scooter", "fusion_lon": 0.0, "lon": -77.05742516666666, "is_disabled": 0, "lat": 38.93401033333333, "fusion_lat": 0.0, "is_reserved": 0, "rental_uris": {"android": "https://dc.lft.to/lastmile_qr_scan", "ios": "https://dc.lft.to/lastmile_qr_scan"}, "bike_id": "92ee0000638c925288ec0142293d985e"}, {"name": "1a51de772821564a17aff784b2be204c", "type": "electric_scooter", "fusion_lon": 0.0, "lon": -77.04659916666667, "is_disabled": 0, "lat": 38.89970783333333, "fusion_lat": 0.0, "is_reserved": 0, "rental_uris": {"android": "https://dc.lft.to/lastmile_qr_scan", "ios": "https://dc.lft.to/lastmile_qr_scan"}, "bike_id": "1a51de772821564a17aff784b2be204c"}, {"name": "3b362694a5363ce0c6ed998ca66ce6c8", "type": "electric_scooter", "fusion_lon": 0.0, "lon": -77.00117016666667, "is_disabled": 0, "lat": 38.8737085, "fusion_lat": 0.0, "is_reserved": 0, "rental_uris": {"android": "https://dc.lft.to/lastmile_qr_scan", "ios": "https://dc.lft.to/lastmile_qr_scan"}, "bike_id": "3b362694a5363ce0c6ed998ca66ce6c8"}, {"name": "0991ad38ad97ebf87e32b882ec7d85a2", "type": "electric_scooter", "fusion_lon": 0.0, "lon": -77.03518016666666, "is_disabled": 0, "lat": 38.9253555, "fusion_lat": 0.0, "is_reserved": 0, "rental_uris": {"android": "https://dc.lft.to/lastmile_qr_scan", "ios": "https://dc.lft.to/lastmile_qr_scan"}, "bike_id": "0991ad38ad97ebf87e32b882ec7d85a2"}, {"name": "cebd8bf157b252e39dc196ba68a093b8", "type": "electric_scooter", "fusion_lon": 0.0, "lon": -77.02331966666667, "is_disabled": 0, "lat": 38.91412033333334, "fusion_lat": 0.0, "is_reserved": 0, "rental_uris": {"android": "https://dc.lft.to/lastmile_qr_scan", "ios": "https://dc.lft.to/lastmile_qr_scan"}, "bike_id": "cebd8bf157b252e39dc196ba68a093b8"}, {"name": "0f19427c714213cc06cc6d6ea62d5bcd", "type": "electric_scooter", "fusion_lon": 0.0, "lon": -77.07648466666667, "is_disabled": 0, "lat": 38.9432445, "fusion_lat": 0.0, "is_reserved": 0, "rental_uris": {"android": "https://dc.lft.to/lastmile_qr_scan", "ios": "https://dc.lft.to/lastmile_qr_scan"}, "bike_id": "0f19427c714213cc06cc6d6ea62d5bcd"}, {"name": "f32434070ad5644aba304b5395b0a9a7", "type": "electric_scooter", "fusion_lon": 0.0, "lon": -77.01954333333333, "is_disabled": 0, "lat": 38.924148833333334, "fusion_lat": 0.0, "is_reserved": 0, "rental_uris": {"android": "https://dc.lft.to/lastmile_qr_scan", "ios": "https://dc.lft.to/lastmile_qr_scan"}, "bike_id": "f32434070ad5644aba304b5395b0a9a7"}, {"name": "7e466c07d4c58cc04ea148b674e0301c", "type": "electric_scooter", "fusion_lon": 0.0, "lon": -77.005019, "is_disabled": 0, "lat": 38.896862666666664, "fusion_lat": 0.0, "is_reserved": 0, "rental_uris": {"android": "https://dc.lft.to/lastmile_qr_scan", "ios": "https://dc.lft.to/lastmile_qr_scan"}, "bike_id": "7e466c07d4c58cc04ea148b674e0301c"}, {"name": "5521d221d6a6e18ddcc450aaabad328e", "type": "electric_scooter", "fusion_lon": 0.0, "lon": -77.0600555, "is_disabled": 0, "lat": 38.936429, "fusion_lat": 0.0, "is_reserved": 0, "rental_uris": {"android": "https://dc.lft.to/lastmile_qr_scan", "ios": "https://dc.lft.to/lastmile_qr_scan"}, "bike_id": "5521d221d6a6e18ddcc450aaabad328e"}, {"name": "4023aab40961a04c5b4f0e8102cc3da0", "type": "electric_scooter", "fusion_lon": 0.0, "lon": -77.01826766666667, "is_disabled": 0, "lat": 38.9223965, "fusion_lat": 0.0, "is_reserved": 0, "rental_uris": {"android": "https://dc.lft.to/lastmile_qr_scan", "ios": "https://dc.lft.to/lastmile_qr_scan"}, "bike_id": "4023aab40961a04c5b4f0e8102cc3da0"}, {"name": "c6226dee205b5a37696dc745c1179272", "type": "electric_scooter", "fusion_lon": 0.0, "lon": -77.014104, "is_disabled": 0, "lat": 38.896017, "fusion_lat": 0.0, "is_reserved": 0, "rental_uris": {"android": "https://dc.lft.to/lastmile_qr_scan", "ios": "https://dc.lft.to/lastmile_qr_scan"}, "bike_id": "c6226dee205b5a37696dc745c1179272"}, {"name": "a04fa48e2e7d2bd6d653eb9100bc0a2b", "type": "electric_scooter", "fusion_lon": 0.0, "lon": -77.015609, "is_disabled": 0, "lat": 38.92678766666667, "fusion_lat": 0.0, "is_reserved": 0, "rental_uris": {"android": "https://dc.lft.to/lastmile_qr_scan", "ios": "https://dc.lft.to/lastmile_qr_scan"}, "bike_id": "a04fa48e2e7d2bd6d653eb9100bc0a2b"}, {"name": "7c32779fd69df3beab04a4ca507b7ebe", "type": "electric_bike", "fusion_lon": 0.0, "lon": -77.01283266666667, "is_disabled": 0, "lat": 39.00385033333333, "fusion_lat": 0.0, "is_reserved": 0, "rental_uris": {"android": "https://dc.lft.to/lastmile_qr_scan", "ios": "https://dc.lft.to/lastmile_qr_scan"}, "bike_id": "7c32779fd69df3beab04a4ca507b7ebe"}, {"name": "8337a8824a1690effbc14273e2e7a5fb", "type": "electric_scooter", "fusion_lon": 0.0, "lon": -77.0325475, "is_disabled": 0, "lat": 38.91114966666667, "fusion_lat": 0.0, "is_reserved": 0, "rental_uris": {"android": "https://dc.lft.to/lastmile_qr_scan", "ios": "https://dc.lft.to/lastmile_qr_scan"}, "bike_id": "8337a8824a1690effbc14273e2e7a5fb"}, {"name": "5a8b875a9e6856da0de6c348e672e382", "type": "electric_scooter", "fusion_lon": 0.0, "lon": -77.02716516666666, "is_disabled": 0, "lat": 38.926419833333334, "fusion_lat": 0.0, "is_reserved": 0, "rental_uris": {"android": "https://dc.lft.to/lastmile_qr_scan", "ios": "https://dc.lft.to/lastmile_qr_scan"}, "bike_id": "5a8b875a9e6856da0de6c348e672e382"}, {"name": "3d65bbedeecf3427b54875dee69ce3df", "type": "electric_scooter", "fusion_lon": 0.0, "lon": -76.96545083333334, "is_disabled": 0, "lat": 38.9184245, "fusion_lat": 0.0, "is_reserved": 0, "rental_uris": {"android": "https://dc.lft.to/lastmile_qr_scan", "ios": "https://dc.lft.to/lastmile_qr_scan"}, "bike_id": "3d65bbedeecf3427b54875dee69ce3df"}, {"name": "b88dafb245ae792d09df6f8400199241", "type": "electric_scooter", "fusion_lon": 0.0, "lon": -77.00088083333333, "is_disabled": 0, "lat": 38.886414333333335, "fusion_lat": 0.0, "is_reserved": 0, "rental_uris": {"android": "https://dc.lft.to/lastmile_qr_scan", "ios": "https://dc.lft.to/lastmile_qr_scan"}, "bike_id": "b88dafb245ae792d09df6f8400199241"}, {"name": "d5c5023b48cb0feedc404e3aaafdd0c9", "type": "electric_scooter", "fusion_lon": 0.0, "lon": -77.00049566666667, "is_disabled": 0, "lat": 38.87433983333333, "fusion_lat": 0.0, "is_reserved": 0, "rental_uris": {"android": "https://dc.lft.to/lastmile_qr_scan", "ios": "https://dc.lft.to/lastmile_qr_scan"}, "bike_id": "d5c5023b48cb0feedc404e3aaafdd0c9"}, {"name": "5c82e72129d49183b9762630c0124fd3", "type": "electric_bike", "fusion_lon": 0.0, "lon": -76.96054583333333, "is_disabled": 0, "lat": 38.88398566666667, "fusion_lat": 0.0, "is_reserved": 0, "rental_uris": {"android": "https://dc.lft.to/lastmile_qr_scan", "ios": "https://dc.lft.to/lastmile_qr_scan"}, "bike_id": "5c82e72129d49183b9762630c0124fd3"}, {"name": "e07849428f756434a7bcb28a4cc5f13e", "type": "electric_scooter", "fusion_lon": 0.0, "lon": -76.94699166666666, "is_disabled": 0, "lat": 38.897294, "fusion_lat": 0.0, "is_reserved": 0, "rental_uris": {"android": "https://dc.lft.to/lastmile_qr_scan", "ios": "https://dc.lft.to/lastmile_qr_scan"}, "bike_id": "e07849428f756434a7bcb28a4cc5f13e"}, {"name": "629a1094b985146df30cdeaf9dadf586", "type": "electric_scooter", "fusion_lon": 0.0, "lon": -77.03867166666667, "is_disabled": 0, "lat": 38.90269283333333, "fusion_lat": 0.0, "is_reserved": 0, "rental_uris": {"android": "https://dc.lft.to/lastmile_qr_scan", "ios": "https://dc.lft.to/lastmile_qr_scan"}, "bike_id": "629a1094b985146df30cdeaf9dadf586"}, {"name": "8bb51c8d7ec6cbf351d1fa23f365ac93", "type": "electric_scooter", "fusion_lon": 0.0, "lon": -77.0366325, "is_disabled": 0, "lat": 38.92245333333334, "fusion_lat": 0.0, "is_reserved": 0, "rental_uris": {"android": "https://dc.lft.to/lastmile_qr_scan", "ios": "https://dc.lft.to/lastmile_qr_scan"}, "bike_id": "8bb51c8d7ec6cbf351d1fa23f365ac93"}, {"name": "c1c6a0a4335929ffc7037a6fcb73bb02", "type": "electric_scooter", "fusion_lon": 0.0, "lon": -76.9923375, "is_disabled": 0, "lat": 38.90786716666667, "fusion_lat": 0.0, "is_reserved": 0, "rental_uris": {"android": "https://dc.lft.to/lastmile_qr_scan", "ios": "https://dc.lft.to/lastmile_qr_scan"}, "bike_id": "c1c6a0a4335929ffc7037a6fcb73bb02"}, {"name": "cf76428fa9b555ebbf481a2de3e0342c", "type": "electric_scooter", "fusion_lon": 0.0, "lon": -77.03298733333334, "is_disabled": 0, "lat": 38.89886833333333, "fusion_lat": 0.0, "is_reserved": 0, "rental_uris": {"android": "https://dc.lft.to/lastmile_qr_scan", "ios": "https://dc.lft.to/lastmile_qr_scan"}, "bike_id": "cf76428fa9b555ebbf481a2de3e0342c"}, {"name": "bb2cbc641c8e4d1589516d2873648c11", "type": "electric_scooter", "fusion_lon": 0.0, "lon": -77.05000333333334, "is_disabled": 0, "lat": 38.901247, "fusion_lat": 0.0, "is_reserved": 0, "rental_uris": {"android": "https://dc.lft.to/lastmile_qr_scan", "ios": "https://dc.lft.to/lastmile_qr_scan"}, "bike_id": "bb2cbc641c8e4d1589516d2873648c11"}, {"name": "699230f52dda7f4283d7a14df8f29363", "type": "electric_scooter", "fusion_lon": 0.0, "lon": -76.99040116666667, "is_disabled": 0, "lat": 38.86389233333333, "fusion_lat": 0.0, "is_reserved": 0, "rental_uris": {"android": "https://dc.lft.to/lastmile_qr_scan", "ios": "https://dc.lft.to/lastmile_qr_scan"}, "bike_id": "699230f52dda7f4283d7a14df8f29363"}, {"name": "37de36c83fdd27b0615575cdb450c33b", "type": "electric_scooter", "fusion_lon": 0.0, "lon": -77.01759166666666, "is_disabled": 0, "lat": 38.90275483333333, "fusion_lat": 0.0, "is_reserved": 0, "rental_uris": {"android": "https://dc.lft.to/lastmile_qr_scan", "ios": "https://dc.lft.to/lastmile_qr_scan"}, "bike_id": "37de36c83fdd27b0615575cdb450c33b"}, {"name": "9b9201569972588e00b87c99c71327d3", "type": "electric_scooter", "fusion_lon": 0.0, "lon": -76.99040016666666, "is_disabled": 0, "lat": 38.8639265, "fusion_lat": 0.0, "is_reserved": 0, "rental_uris": {"android": "https://dc.lft.to/lastmile_qr_scan", "ios": "https://dc.lft.to/lastmile_qr_scan"}, "bike_id": "9b9201569972588e00b87c99c71327d3"}, {"name": "8503cbab29d4bd9d771655f697057062", "type": "electric_scooter", "fusion_lon": 0.0, "lon": -77.039407, "is_disabled": 0, "lat": 38.9096375, "fusion_lat": 0.0, "is_reserved": 0, "rental_uris": {"android": "https://dc.lft.to/lastmile_qr_scan", "ios": "https://dc.lft.to/lastmile_qr_scan"}, "bike_id": "8503cbab29d4bd9d771655f697057062"}, {"name": "5cd40b480b109a21e47813bf1ad264f4", "type": "electric_bike", "fusion_lon": 0.0, "lon": -77.11752616666666, "is_disabled": 0, "lat": 39.05098666666667, "fusion_lat": 0.0, "is_reserved": 0, "rental_uris": {"android": "https://dc.lft.to/lastmile_qr_scan", "ios": "https://dc.lft.to/lastmile_qr_scan"}, "bike_id": "5cd40b480b109a21e47813bf1ad264f4"}, {"name": "fe9fa770b7882fb3601f21512fa8798e", "type": "electric_scooter", "fusion_lon": 0.0, "lon": -77.0172885, "is_disabled": 0, "lat": 38.90256933333333, "fusion_lat": 0.0, "is_reserved": 0, "rental_uris": {"android": "https://dc.lft.to/lastmile_qr_scan", "ios": "https://dc.lft.to/lastmile_qr_scan"}, "bike_id": "fe9fa770b7882fb3601f21512fa8798e"}, {"name": "480ecb1b8e959f213e5bd3ddaf95338d", "type": "electric_scooter", "fusion_lon": 0.0, "lon": -77.03268166666666, "is_disabled": 0, "lat": 38.9388245, "fusion_lat": 0.0, "is_reserved": 0, "rental_uris": {"android": "https://dc.lft.to/lastmile_qr_scan", "ios": "https://dc.lft.to/lastmile_qr_scan"}, "bike_id": "480ecb1b8e959f213e5bd3ddaf95338d"}, {"name": "2b18f7de4ff50c3e55c33c894b236333", "type": "electric_scooter", "fusion_lon": 0.0, "lon": -77.02384483333333, "is_disabled": 0, "lat": 38.9321085, "fusion_lat": 0.0, "is_reserved": 0, "rental_uris": {"android": "https://dc.lft.to/lastmile_qr_scan", "ios": "https://dc.lft.to/lastmile_qr_scan"}, "bike_id": "2b18f7de4ff50c3e55c33c894b236333"}, {"name": "d452f34560102f47c2278dc4c69961b3", "type": "electric_scooter", "fusion_lon": 0.0, "lon": -77.03647266666667, "is_disabled": 0, "lat": 38.916177166666664, "fusion_lat": 0.0, "is_reserved": 0, "rental_uris": {"android": "https://dc.lft.to/lastmile_qr_scan", "ios": "https://dc.lft.to/lastmile_qr_scan"}, "bike_id": "d452f34560102f47c2278dc4c69961b3"}, {"name": "c28b090e102abd841f6b03f2bfe1f8bb", "type": "electric_scooter", "fusion_lon": 0.0, "lon": -77.00577633333333, "is_disabled": 0, "lat": 38.875803, "fusion_lat": 0.0, "is_reserved": 0, "rental_uris": {"android": "https://dc.lft.to/lastmile_qr_scan", "ios": "https://dc.lft.to/lastmile_qr_scan"}, "bike_id": "c28b090e102abd841f6b03f2bfe1f8bb"}, {"name": "0773a680a34f0c58e4bca38c9a28f528", "type": "electric_scooter", "fusion_lon": 0.0, "lon": -76.98720766666666, "is_disabled": 0, "lat": 38.8663575, "fusion_lat": 0.0, "is_reserved": 0, "rental_uris": {"android": "https://dc.lft.to/lastmile_qr_scan", "ios": "https://dc.lft.to/lastmile_qr_scan"}, "bike_id": "0773a680a34f0c58e4bca38c9a28f528"}, {"name": "c65d3da8ad48ba9bb6d32a94c55bf8d6", "type": "electric_bike", "fusion_lon": 0.0, "lon": -77.01268683333333, "is_disabled": 0, "lat": 38.864489666666664, "fusion_lat": 0.0, "is_reserved": 0, "rental_uris": {"android": "https://dc.lft.to/lastmile_qr_scan", "ios": "https://dc.lft.to/lastmile_qr_scan"}, "bike_id": "c65d3da8ad48ba9bb6d32a94c55bf8d6"}, {"name": "caccfc0c74d95a2859441a20ac1d39d1", "type": "electric_scooter", "fusion_lon": 0.0, "lon": -77.02951866666666, "is_disabled": 0, "lat": 38.9167665, "fusion_lat": 0.0, "is_reserved": 0, "rental_uris": {"android": "https://dc.lft.to/lastmile_qr_scan", "ios": "https://dc.lft.to/lastmile_qr_scan"}, "bike_id": "caccfc0c74d95a2859441a20ac1d39d1"}, {"name": "34ca0074ede65f93d13125a8da238296", "type": "electric_scooter", "fusion_lon": 0.0, "lon": -77.01832583333334, "is_disabled": 0, "lat": 38.9026975, "fusion_lat": 0.0, "is_reserved": 0, "rental_uris": {"android": "https://dc.lft.to/lastmile_qr_scan", "ios": "https://dc.lft.to/lastmile_qr_scan"}, "bike_id": "34ca0074ede65f93d13125a8da238296"}, {"name": "47ab6d9aacdbe330cc0c2447df2451c9", "type": "electric_scooter", "fusion_lon": 0.0, "lon": -77.07085933333333, "is_disabled": 0, "lat": 38.89656866666667, "fusion_lat": 0.0, "is_reserved": 0, "rental_uris": {"android": "https://dc.lft.to/lastmile_qr_scan", "ios": "https://dc.lft.to/lastmile_qr_scan"}, "bike_id": "47ab6d9aacdbe330cc0c2447df2451c9"}, {"name": "6ad8f062a73c778b61a8cfc056074d1c", "type": "electric_scooter", "fusion_lon": 0.0, "lon": -77.032099, "is_disabled": 0, "lat": 38.909225, "fusion_lat": 0.0, "is_reserved": 0, "rental_uris": {"android": "https://dc.lft.to/lastmile_qr_scan", "ios": "https://dc.lft.to/lastmile_qr_scan"}, "bike_id": "6ad8f062a73c778b61a8cfc056074d1c"}, {"name": "ecc688c827f9f1dd94646f5db470f2b4", "type": "electric_bike", "fusion_lon": 0.0, "lon": -77.025673, "is_disabled": 0, "lat": 38.997033, "fusion_lat": 0.0, "is_reserved": 0, "rental_uris": {"android": "https://dc.lft.to/lastmile_qr_scan", "ios": "https://dc.lft.to/lastmile_qr_scan"}, "bike_id": "ecc688c827f9f1dd94646f5db470f2b4"}, {"name": "a72c71f398964cc680d00166bcc664de", "type": "electric_scooter", "fusion_lon": 0.0, "lon": -77.07282033333334, "is_disabled": 0, "lat": 38.934735, "fusion_lat": 0.0, "is_reserved": 0, "rental_uris": {"android": "https://dc.lft.to/lastmile_qr_scan", "ios": "https://dc.lft.to/lastmile_qr_scan"}, "bike_id": "a72c71f398964cc680d00166bcc664de"}, {"name": "f21c8acce5ecd24bc34931eccfed7b05", "type": "electric_scooter", "fusion_lon": 0.0, "lon": -77.03084933333334, "is_disabled": 0, "lat": 38.928723833333336, "fusion_lat": 0.0, "is_reserved": 0, "rental_uris": {"android": "https://dc.lft.to/lastmile_qr_scan", "ios": "https://dc.lft.to/lastmile_qr_scan"}, "bike_id": "f21c8acce5ecd24bc34931eccfed7b05"}, {"name": "53d21f604d06754253b0a1f1998f6f38", "type": "electric_scooter", "fusion_lon": 0.0, "lon": -77.04162416666667, "is_disabled": 0, "lat": 38.908360333333334, "fusion_lat": 0.0, "is_reserved": 0, "rental_uris": {"android": "https://dc.lft.to/lastmile_qr_scan", "ios": "https://dc.lft.to/lastmile_qr_scan"}, "bike_id": "53d21f604d06754253b0a1f1998f6f38"}, {"name": "7c44b76c8a02ebd8be0683e5ee99751d", "type": "electric_bike", "fusion_lon": 0.0, "lon": -76.9799445, "is_disabled": 0, "lat": 38.95798766666667, "fusion_lat": 0.0, "is_reserved": 0, "rental_uris": {"android": "https://dc.lft.to/lastmile_qr_scan", "ios": "https://dc.lft.to/lastmile_qr_scan"}, "bike_id": "7c44b76c8a02ebd8be0683e5ee99751d"}, {"name": "68607e5ccbaa7479ae0fcb18506636df", "type": "electric_scooter", "fusion_lon": 0.0, "lon": -77.02745566666667, "is_disabled": 0, "lat": 38.954057166666665, "fusion_lat": 0.0, "is_reserved": 0, "rental_uris": {"android": "https://dc.lft.to/lastmile_qr_scan", "ios": "https://dc.lft.to/lastmile_qr_scan"}, "bike_id": "68607e5ccbaa7479ae0fcb18506636df"}, {"name": "3e397b20090f3250b385de1cea38be48", "type": "electric_scooter", "fusion_lon": 0.0, "lon": -77.0335145, "is_disabled": 0, "lat": 38.89797766666667, "fusion_lat": 0.0, "is_reserved": 0, "rental_uris": {"android": "https://dc.lft.to/lastmile_qr_scan", "ios": "https://dc.lft.to/lastmile_qr_scan"}, "bike_id": "3e397b20090f3250b385de1cea38be48"}, {"name": "7464acce12db07a329b21b419b73bb35", "type": "electric_scooter", "fusion_lon": 0.0, "lon": -77.06287566666667, "is_disabled": 0, "lat": 38.90472883333333, "fusion_lat": 0.0, "is_reserved": 0, "rental_uris": {"android": "https://dc.lft.to/lastmile_qr_scan", "ios": "https://dc.lft.to/lastmile_qr_scan"}, "bike_id": "7464acce12db07a329b21b419b73bb35"}, {"name": "9d0568e44169faaab4c4165cb7c890f7", "type": "electric_bike", "fusion_lon": 0.0, "lon": -76.98090283333333, "is_disabled": 0, "lat": 38.957566, "fusion_lat": 0.0, "is_reserved": 0, "rental_uris": {"android": "https://dc.lft.to/lastmile_qr_scan", "ios": "https://dc.lft.to/lastmile_qr_scan"}, "bike_id": "9d0568e44169faaab4c4165cb7c890f7"}, {"name": "bfa5324f42b0fd328fcbd1af6c6789d4", "type": "electric_scooter", "fusion_lon": 0.0, "lon": -77.028253, "is_disabled": 0, "lat": 38.917160833333334, "fusion_lat": 0.0, "is_reserved": 0, "rental_uris": {"android": "https://dc.lft.to/lastmile_qr_scan", "ios": "https://dc.lft.to/lastmile_qr_scan"}, "bike_id": "bfa5324f42b0fd328fcbd1af6c6789d4"}, {"name": "b72297423ad9cdddc14800824d0a7afd", "type": "electric_scooter", "fusion_lon": 0.0, "lon": -77.02196783333333, "is_disabled": 0, "lat": 38.89490216666667, "fusion_lat": 0.0, "is_reserved": 0, "rental_uris": {"android": "https://dc.lft.to/lastmile_qr_scan", "ios": "https://dc.lft.to/lastmile_qr_scan"}, "bike_id": "b72297423ad9cdddc14800824d0a7afd"}, {"name": "c3095a8d80284b361f7920b13f30407b", "type": "electric_scooter", "fusion_lon": 0.0, "lon": -77.04256116666667, "is_disabled": 0, "lat": 38.92220066666667, "fusion_lat": 0.0, "is_reserved": 0, "rental_uris": {"android": "https://dc.lft.to/lastmile_qr_scan", "ios": "https://dc.lft.to/lastmile_qr_scan"}, "bike_id": "c3095a8d80284b361f7920b13f30407b"}, {"name": "e0732a8f838ae507b7e2cbea341e1978", "type": "electric_scooter", "fusion_lon": 0.0, "lon": -77.0118615, "is_disabled": 0, "lat": 38.90031233333333, "fusion_lat": 0.0, "is_reserved": 0, "rental_uris": {"android": "https://dc.lft.to/lastmile_qr_scan", "ios": "https://dc.lft.to/lastmile_qr_scan"}, "bike_id": "e0732a8f838ae507b7e2cbea341e1978"}, {"name": "01cf2c9237cf6be8bd45968811b4df32", "type": "electric_scooter", "fusion_lon": 0.0, "lon": -77.02679066666667, "is_disabled": 0, "lat": 38.95506483333333, "fusion_lat": 0.0, "is_reserved": 0, "rental_uris": {"android": "https://dc.lft.to/lastmile_qr_scan", "ios": "https://dc.lft.to/lastmile_qr_scan"}, "bike_id": "01cf2c9237cf6be8bd45968811b4df32"}, {"name": "2be69679fd6ca3325f5582bb9fb9a9c1", "type": "electric_scooter", "fusion_lon": 0.0, "lon": -77.02309033333333, "is_disabled": 0, "lat": 38.902027333333336, "fusion_lat": 0.0, "is_reserved": 0, "rental_uris": {"android": "https://dc.lft.to/lastmile_qr_scan", "ios": "https://dc.lft.to/lastmile_qr_scan"}, "bike_id": "2be69679fd6ca3325f5582bb9fb9a9c1"}, {"name": "fa36d5100a95c521c4c47636e77d31f5", "type": "electric_scooter", "fusion_lon": 0.0, "lon": -77.05147166666667, "is_disabled": 0, "lat": 38.896897333333335, "fusion_lat": 0.0, "is_reserved": 0, "rental_uris": {"android": "https://dc.lft.to/lastmile_qr_scan", "ios": "https://dc.lft.to/lastmile_qr_scan"}, "bike_id": "fa36d5100a95c521c4c47636e77d31f5"}, {"name": "24e34cc05e0450be5085365af3b2187e", "type": "electric_bike", "fusion_lon": 0.0, "lon": -77.22933183333333, "is_disabled": 0, "lat": 38.931951833333336, "fusion_lat": 0.0, "is_reserved": 0, "rental_uris": {"android": "https://dc.lft.to/lastmile_qr_scan", "ios": "https://dc.lft.to/lastmile_qr_scan"}, "bike_id": "24e34cc05e0450be5085365af3b2187e"}, {"name": "4ad9e3e81a4df9ca1c3be36202fd902b", "type": "electric_scooter", "fusion_lon": 0.0, "lon": -77.06095183333333, "is_disabled": 0, "lat": 38.9052635, "fusion_lat": 0.0, "is_reserved": 0, "rental_uris": {"android": "https://dc.lft.to/lastmile_qr_scan", "ios": "https://dc.lft.to/lastmile_qr_scan"}, "bike_id": "4ad9e3e81a4df9ca1c3be36202fd902b"}, {"name": "91ea1971d71813b4d5949df98222171a", "type": "electric_scooter", "fusion_lon": 0.0, "lon": -77.03214716666666, "is_disabled": 0, "lat": 38.91282133333333, "fusion_lat": 0.0, "is_reserved": 0, "rental_uris": {"android": "https://dc.lft.to/lastmile_qr_scan", "ios": "https://dc.lft.to/lastmile_qr_scan"}, "bike_id": "91ea1971d71813b4d5949df98222171a"}, {"name": "12ce155b9be00e3e90b8b6f2cf513a79", "type": "electric_scooter", "fusion_lon": 0.0, "lon": -77.01194416666667, "is_disabled": 0, "lat": 38.927653666666664, "fusion_lat": 0.0, "is_reserved": 0, "rental_uris": {"android": "https://dc.lft.to/lastmile_qr_scan", "ios": "https://dc.lft.to/lastmile_qr_scan"}, "bike_id": "12ce155b9be00e3e90b8b6f2cf513a79"}, {"name": "93722e8082c80854d801b434230d0ee4", "type": "electric_scooter", "fusion_lon": 0.0, "lon": -77.031622, "is_disabled": 0, "lat": 38.8962515, "fusion_lat": 0.0, "is_reserved": 0, "rental_uris": {"android": "https://dc.lft.to/lastmile_qr_scan", "ios": "https://dc.lft.to/lastmile_qr_scan"}, "bike_id": "93722e8082c80854d801b434230d0ee4"}, {"name": "f6c8efdb333ef74d062e4f3c07b16ee9", "type": "electric_scooter", "fusion_lon": 0.0, "lon": -77.0159915, "is_disabled": 0, "lat": 38.92710316666667, "fusion_lat": 0.0, "is_reserved": 0, "rental_uris": {"android": "https://dc.lft.to/lastmile_qr_scan", "ios": "https://dc.lft.to/lastmile_qr_scan"}, "bike_id": "f6c8efdb333ef74d062e4f3c07b16ee9"}, {"name": "ad4605d6f70a4284cfe75458f0c02217", "type": "electric_scooter", "fusion_lon": 0.0, "lon": -77.02472516666667, "is_disabled": 0, "lat": 38.88300266666667, "fusion_lat": 0.0, "is_reserved": 0, "rental_uris": {"android": "https://dc.lft.to/lastmile_qr_scan", "ios": "https://dc.lft.to/lastmile_qr_scan"}, "bike_id": "ad4605d6f70a4284cfe75458f0c02217"}, {"name": "eeb0682159cb0327e10a68aa107beac7", "type": "electric_scooter", "fusion_lon": 0.0, "lon": -77.02386883333334, "is_disabled": 0, "lat": 38.917866833333335, "fusion_lat": 0.0, "is_reserved": 0, "rental_uris": {"android": "https://dc.lft.to/lastmile_qr_scan", "ios": "https://dc.lft.to/lastmile_qr_scan"}, "bike_id": "eeb0682159cb0327e10a68aa107beac7"}, {"name": "92d36cf1beaae581ff09aaea3e7c0a07", "type": "electric_scooter", "fusion_lon": 0.0, "lon": -76.98092016666666, "is_disabled": 0, "lat": 38.89986416666667, "fusion_lat": 0.0, "is_reserved": 0, "rental_uris": {"android": "https://dc.lft.to/lastmile_qr_scan", "ios": "https://dc.lft.to/lastmile_qr_scan"}, "bike_id": "92d36cf1beaae581ff09aaea3e7c0a07"}, {"name": "fae7d892810678d3c79d976e465a9b08", "type": "electric_bike", "fusion_lon": 0.0, "lon": -77.053931, "is_disabled": 0, "lat": 38.804513666666665, "fusion_lat": 0.0, "is_reserved": 0, "rental_uris": {"android": "https://dc.lft.to/lastmile_qr_scan", "ios": "https://dc.lft.to/lastmile_qr_scan"}, "bike_id": "fae7d892810678d3c79d976e465a9b08"}, {"name": "45abad5e5067bb31043eaea5a9404db3", "type": "electric_scooter", "fusion_lon": 0.0, "lon": -77.02318683333333, "is_disabled": 0, "lat": 38.908809166666664, "fusion_lat": 0.0, "is_reserved": 0, "rental_uris": {"android": "https://dc.lft.to/lastmile_qr_scan", "ios": "https://dc.lft.to/lastmile_qr_scan"}, "bike_id": "45abad5e5067bb31043eaea5a9404db3"}, {"name": "f191f73a960467aee2aeef70cba01c15", "type": "electric_scooter", "fusion_lon": 0.0, "lon": -77.04508433333334, "is_disabled": 0, "lat": 38.91604483333333, "fusion_lat": 0.0, "is_reserved": 0, "rental_uris": {"android": "https://dc.lft.to/lastmile_qr_scan", "ios": "https://dc.lft.to/lastmile_qr_scan"}, "bike_id": "f191f73a960467aee2aeef70cba01c15"}, {"name": "e85fef001959c359e9dd1c0be15e013d", "type": "electric_scooter", "fusion_lon": 0.0, "lon": -77.04184483333333, "is_disabled": 0, "lat": 38.898480166666666, "fusion_lat": 0.0, "is_reserved": 0, "rental_uris": {"android": "https://dc.lft.to/lastmile_qr_scan", "ios": "https://dc.lft.to/lastmile_qr_scan"}, "bike_id": "e85fef001959c359e9dd1c0be15e013d"}, {"name": "1625327dd9795370518e1651dbce4a92", "type": "electric_scooter", "fusion_lon": 0.0, "lon": -77.0149715, "is_disabled": 0, "lat": 38.92651516666667, "fusion_lat": 0.0, "is_reserved": 0, "rental_uris": {"android": "https://dc.lft.to/lastmile_qr_scan", "ios": "https://dc.lft.to/lastmile_qr_scan"}, "bike_id": "1625327dd9795370518e1651dbce4a92"}, {"name": "882e2f8eee5e846d4131c7244e9185e7", "type": "electric_bike", "fusion_lon": 0.0, "lon": -76.9541555, "is_disabled": 0, "lat": 38.884138666666665, "fusion_lat": 0.0, "is_reserved": 0, "rental_uris": {"android": "https://dc.lft.to/lastmile_qr_scan", "ios": "https://dc.lft.to/lastmile_qr_scan"}, "bike_id": "882e2f8eee5e846d4131c7244e9185e7"}, {"name": "f8d5164530c522c3cb4402b3ef15dcbb", "type": "electric_scooter", "fusion_lon": 0.0, "lon": -77.011085, "is_disabled": 0, "lat": 38.907854666666665, "fusion_lat": 0.0, "is_reserved": 0, "rental_uris": {"android": "https://dc.lft.to/lastmile_qr_scan", "ios": "https://dc.lft.to/lastmile_qr_scan"}, "bike_id": "f8d5164530c522c3cb4402b3ef15dcbb"}, {"name": "e8770fa9b9eebaa8831ef96995246d93", "type": "electric_scooter", "fusion_lon": 0.0, "lon": -77.02199766666666, "is_disabled": 0, "lat": 38.896208333333334, "fusion_lat": 0.0, "is_reserved": 0, "rental_uris": {"android": "https://dc.lft.to/lastmile_qr_scan", "ios": "https://dc.lft.to/lastmile_qr_scan"}, "bike_id": "e8770fa9b9eebaa8831ef96995246d93"}, {"name": "37f46174eb734d370b604fff8770c7b0", "type": "electric_scooter", "fusion_lon": 0.0, "lon": -76.98893583333333, "is_disabled": 0, "lat": 38.8666415, "fusion_lat": 0.0, "is_reserved": 0, "rental_uris": {"android": "https://dc.lft.to/lastmile_qr_scan", "ios": "https://dc.lft.to/lastmile_qr_scan"}, "bike_id": "37f46174eb734d370b604fff8770c7b0"}, {"name": "cb28ae6dea47dc29baba78ab1a07a527", "type": "electric_scooter", "fusion_lon": 0.0, "lon": -77.035441, "is_disabled": 0, "lat": 38.92378883333333, "fusion_lat": 0.0, "is_reserved": 0, "rental_uris": {"android": "https://dc.lft.to/lastmile_qr_scan", "ios": "https://dc.lft.to/lastmile_qr_scan"}, "bike_id": "cb28ae6dea47dc29baba78ab1a07a527"}, {"name": "c9718faec8b1ba315ab943e47ef7a3c0", "type": "electric_scooter", "fusion_lon": 0.0, "lon": -77.0211945, "is_disabled": 0, "lat": 38.887440833333336, "fusion_lat": 0.0, "is_reserved": 0, "rental_uris": {"android": "https://dc.lft.to/lastmile_qr_scan", "ios": "https://dc.lft.to/lastmile_qr_scan"}, "bike_id": "c9718faec8b1ba315ab943e47ef7a3c0"}, {"name": "f1c381366f5d3cc0b6a3bf137a270e4b", "type": "electric_scooter", "fusion_lon": 0.0, "lon": -77.06931816666666, "is_disabled": 0, "lat": 38.91440033333333, "fusion_lat": 0.0, "is_reserved": 0, "rental_uris": {"android": "https://dc.lft.to/lastmile_qr_scan", "ios": "https://dc.lft.to/lastmile_qr_scan"}, "bike_id": "f1c381366f5d3cc0b6a3bf137a270e4b"}, {"name": "a574b6b9836c1021bc61d2e1e17a9dc2", "type": "electric_scooter", "fusion_lon": 0.0, "lon": -77.03174466666667, "is_disabled": 0, "lat": 38.91419616666667, "fusion_lat": 0.0, "is_reserved": 0, "rental_uris": {"android": "https://dc.lft.to/lastmile_qr_scan", "ios": "https://dc.lft.to/lastmile_qr_scan"}, "bike_id": "a574b6b9836c1021bc61d2e1e17a9dc2"}, {"name": "ffaaa60f915ec664ac69d5ba312873bb", "type": "electric_scooter", "fusion_lon": 0.0, "lon": -77.05830333333333, "is_disabled": 0, "lat": 38.930575166666664, "fusion_lat": 0.0, "is_reserved": 0, "rental_uris": {"android": "https://dc.lft.to/lastmile_qr_scan", "ios": "https://dc.lft.to/lastmile_qr_scan"}, "bike_id": "ffaaa60f915ec664ac69d5ba312873bb"}, {"name": "abbbaa6eba486cb78467ad9cef4ea030", "type": "electric_scooter", "fusion_lon": 0.0, "lon": -77.02101216666667, "is_disabled": 0, "lat": 38.8850015, "fusion_lat": 0.0, "is_reserved": 0, "rental_uris": {"android": "https://dc.lft.to/lastmile_qr_scan", "ios": "https://dc.lft.to/lastmile_qr_scan"}, "bike_id": "abbbaa6eba486cb78467ad9cef4ea030"}, {"name": "de1fdd12caf2fe2fdb13332c87ab20eb", "type": "electric_scooter", "fusion_lon": 0.0, "lon": -77.01337483333333, "is_disabled": 0, "lat": 38.9264165, "fusion_lat": 0.0, "is_reserved": 0, "rental_uris": {"android": "https://dc.lft.to/lastmile_qr_scan", "ios": "https://dc.lft.to/lastmile_qr_scan"}, "bike_id": "de1fdd12caf2fe2fdb13332c87ab20eb"}, {"name": "1c4d34e3e6d1525f6cbc56b82dd5015e", "type": "electric_scooter", "fusion_lon": 0.0, "lon": -77.04646333333334, "is_disabled": 0, "lat": 38.91459233333333, "fusion_lat": 0.0, "is_reserved": 0, "rental_uris": {"android": "https://dc.lft.to/lastmile_qr_scan", "ios": "https://dc.lft.to/lastmile_qr_scan"}, "bike_id": "1c4d34e3e6d1525f6cbc56b82dd5015e"}, {"name": "7acdb69c137d68927f36662216510db6", "type": "electric_scooter", "fusion_lon": 0.0, "lon": -77.00067733333333, "is_disabled": 0, "lat": 38.90565316666667, "fusion_lat": 0.0, "is_reserved": 0, "rental_uris": {"android": "https://dc.lft.to/lastmile_qr_scan", "ios": "https://dc.lft.to/lastmile_qr_scan"}, "bike_id": "7acdb69c137d68927f36662216510db6"}, {"name": "64f637284ba3a2d44ff1fd7e6976bf21", "type": "electric_scooter", "fusion_lon": 0.0, "lon": -77.0221165, "is_disabled": 0, "lat": 38.90545133333333, "fusion_lat": 0.0, "is_reserved": 0, "rental_uris": {"android": "https://dc.lft.to/lastmile_qr_scan", "ios": "https://dc.lft.to/lastmile_qr_scan"}, "bike_id": "64f637284ba3a2d44ff1fd7e6976bf21"}, {"name": "e7833a89d3313318a65a7868a3e76a01", "type": "electric_scooter", "fusion_lon": 0.0, "lon": -77.05879566666667, "is_disabled": 0, "lat": 38.90534983333333, "fusion_lat": 0.0, "is_reserved": 0, "rental_uris": {"android": "https://dc.lft.to/lastmile_qr_scan", "ios": "https://dc.lft.to/lastmile_qr_scan"}, "bike_id": "e7833a89d3313318a65a7868a3e76a01"}, {"name": "90b01b82a6c6791d5e6a1c8f2c932171", "type": "electric_scooter", "fusion_lon": 0.0, "lon": -77.0318055, "is_disabled": 0, "lat": 38.907915833333334, "fusion_lat": 0.0, "is_reserved": 0, "rental_uris": {"android": "https://dc.lft.to/lastmile_qr_scan", "ios": "https://dc.lft.to/lastmile_qr_scan"}, "bike_id": "90b01b82a6c6791d5e6a1c8f2c932171"}, {"name": "28492f6eaf43f3d40a1b37e711a3fe55", "type": "electric_scooter", "fusion_lon": 0.0, "lon": -76.99798366666667, "is_disabled": 0, "lat": 38.90855066666666, "fusion_lat": 0.0, "is_reserved": 0, "rental_uris": {"android": "https://dc.lft.to/lastmile_qr_scan", "ios": "https://dc.lft.to/lastmile_qr_scan"}, "bike_id": "28492f6eaf43f3d40a1b37e711a3fe55"}, {"name": "d53d051c4aa98785dc2f9869a36ba121", "type": "electric_scooter", "fusion_lon": 0.0, "lon": -77.084377, "is_disabled": 0, "lat": 38.939836, "fusion_lat": 0.0, "is_reserved": 0, "rental_uris": {"android": "https://dc.lft.to/lastmile_qr_scan", "ios": "https://dc.lft.to/lastmile_qr_scan"}, "bike_id": "d53d051c4aa98785dc2f9869a36ba121"}, {"name": "7fe7cd6e8e1269579869cb1dafb64a03", "type": "electric_scooter", "fusion_lon": 0.0, "lon": -77.040087, "is_disabled": 0, "lat": 38.896339166666664, "fusion_lat": 0.0, "is_reserved": 0, "rental_uris": {"android": "https://dc.lft.to/lastmile_qr_scan", "ios": "https://dc.lft.to/lastmile_qr_scan"}, "bike_id": "7fe7cd6e8e1269579869cb1dafb64a03"}, {"name": "1c41e40475b3e6f8afe36bb1d5f83ae6", "type": "electric_scooter", "fusion_lon": 0.0, "lon": -77.04025783333333, "is_disabled": 0, "lat": 38.90029333333333, "fusion_lat": 0.0, "is_reserved": 0, "rental_uris": {"android": "https://dc.lft.to/lastmile_qr_scan", "ios": "https://dc.lft.to/lastmile_qr_scan"}, "bike_id": "1c41e40475b3e6f8afe36bb1d5f83ae6"}, {"name": "73359cb3784b56816422c793623df2a9", "type": "electric_scooter", "fusion_lon": 0.0, "lon": -77.0356715, "is_disabled": 0, "lat": 38.9014375, "fusion_lat": 0.0, "is_reserved": 0, "rental_uris": {"android": "https://dc.lft.to/lastmile_qr_scan", "ios": "https://dc.lft.to/lastmile_qr_scan"}, "bike_id": "73359cb3784b56816422c793623df2a9"}, {"name": "6d3dcaa885c8a94d0cd1d2cedf8f0109", "type": "electric_bike", "fusion_lon": 0.0, "lon": -77.0293625, "is_disabled": 0, "lat": 38.90474616666667, "fusion_lat": 0.0, "is_reserved": 0, "rental_uris": {"android": "https://dc.lft.to/lastmile_qr_scan", "ios": "https://dc.lft.to/lastmile_qr_scan"}, "bike_id": "6d3dcaa885c8a94d0cd1d2cedf8f0109"}, {"name": "f80b4bb32221d3c42eabd4f6cae75bd6", "type": "electric_scooter", "fusion_lon": 0.0, "lon": -77.02153233333334, "is_disabled": 0, "lat": 38.8973285, "fusion_lat": 0.0, "is_reserved": 0, "rental_uris": {"android": "https://dc.lft.to/lastmile_qr_scan", "ios": "https://dc.lft.to/lastmile_qr_scan"}, "bike_id": "f80b4bb32221d3c42eabd4f6cae75bd6"}, {"name": "aae47228ec286d1d58a6e6e9b8fc3188", "type": "electric_scooter", "fusion_lon": 0.0, "lon": -77.0389375, "is_disabled": 0, "lat": 38.91847666666666, "fusion_lat": 0.0, "is_reserved": 0, "rental_uris": {"android": "https://dc.lft.to/lastmile_qr_scan", "ios": "https://dc.lft.to/lastmile_qr_scan"}, "bike_id": "aae47228ec286d1d58a6e6e9b8fc3188"}, {"name": "62b155a03a0c6dcf0b59100e3b1ef891", "type": "electric_scooter", "fusion_lon": 0.0, "lon": -77.022048, "is_disabled": 0, "lat": 38.892325166666666, "fusion_lat": 0.0, "is_reserved": 0, "rental_uris": {"android": "https://dc.lft.to/lastmile_qr_scan", "ios": "https://dc.lft.to/lastmile_qr_scan"}, "bike_id": "62b155a03a0c6dcf0b59100e3b1ef891"}, {"name": "677916feb6ceefffdbeeda97af850d0a", "type": "electric_scooter", "fusion_lon": 0.0, "lon": -77.02406533333334, "is_disabled": 0, "lat": 38.94186083333334, "fusion_lat": 0.0, "is_reserved": 0, "rental_uris": {"android": "https://dc.lft.to/lastmile_qr_scan", "ios": "https://dc.lft.to/lastmile_qr_scan"}, "bike_id": "677916feb6ceefffdbeeda97af850d0a"}, {"name": "a1bd47fa69f73da7086e0578d3f730fc", "type": "electric_scooter", "fusion_lon": 0.0, "lon": -77.03861333333333, "is_disabled": 0, "lat": 38.93270116666667, "fusion_lat": 0.0, "is_reserved": 0, "rental_uris": {"android": "https://dc.lft.to/lastmile_qr_scan", "ios": "https://dc.lft.to/lastmile_qr_scan"}, "bike_id": "a1bd47fa69f73da7086e0578d3f730fc"}, {"name": "cb7f7f7056ee3bf088a72ca52b95788e", "type": "electric_scooter", "fusion_lon": 0.0, "lon": -77.07273383333333, "is_disabled": 0, "lat": 38.90909683333334, "fusion_lat": 0.0, "is_reserved": 0, "rental_uris": {"android": "https://dc.lft.to/lastmile_qr_scan", "ios": "https://dc.lft.to/lastmile_qr_scan"}, "bike_id": "cb7f7f7056ee3bf088a72ca52b95788e"}, {"name": "a06b1d3f93f9a2c0ef0754cc453f5d7c", "type": "electric_scooter", "fusion_lon": 0.0, "lon": -77.02698633333333, "is_disabled": 0, "lat": 38.906828833333336, "fusion_lat": 0.0, "is_reserved": 0, "rental_uris": {"android": "https://dc.lft.to/lastmile_qr_scan", "ios": "https://dc.lft.to/lastmile_qr_scan"}, "bike_id": "a06b1d3f93f9a2c0ef0754cc453f5d7c"}, {"name": "71ca63595989d5a5bc31a0413ef8fee3", "type": "electric_scooter", "fusion_lon": 0.0, "lon": -77.01145766666667, "is_disabled": 0, "lat": 38.900318, "fusion_lat": 0.0, "is_reserved": 0, "rental_uris": {"android": "https://dc.lft.to/lastmile_qr_scan", "ios": "https://dc.lft.to/lastmile_qr_scan"}, "bike_id": "71ca63595989d5a5bc31a0413ef8fee3"}, {"name": "68af5242e62aa5e4eda5d8ab929b202c", "type": "electric_scooter", "fusion_lon": 0.0, "lon": -76.97331633333333, "is_disabled": 0, "lat": 38.90406616666667, "fusion_lat": 0.0, "is_reserved": 0, "rental_uris": {"android": "https://dc.lft.to/lastmile_qr_scan", "ios": "https://dc.lft.to/lastmile_qr_scan"}, "bike_id": "68af5242e62aa5e4eda5d8ab929b202c"}, {"name": "267a75415d8db4f850c0a54c37afdd5d", "type": "electric_scooter", "fusion_lon": 0.0, "lon": -77.04551283333333, "is_disabled": 0, "lat": 38.9024125, "fusion_lat": 0.0, "is_reserved": 0, "rental_uris": {"android": "https://dc.lft.to/lastmile_qr_scan", "ios": "https://dc.lft.to/lastmile_qr_scan"}, "bike_id": "267a75415d8db4f850c0a54c37afdd5d"}, {"name": "3e8eb4ab3e3eea7143fc56cf1dd9d922", "type": "electric_scooter", "fusion_lon": 0.0, "lon": -77.05912433333333, "is_disabled": 0, "lat": 38.904548, "fusion_lat": 0.0, "is_reserved": 0, "rental_uris": {"android": "https://dc.lft.to/lastmile_qr_scan", "ios": "https://dc.lft.to/lastmile_qr_scan"}, "bike_id": "3e8eb4ab3e3eea7143fc56cf1dd9d922"}, {"name": "e0d56d6e60c409ca570f32d3fbffbcec", "type": "electric_scooter", "fusion_lon": 0.0, "lon": -77.06124483333333, "is_disabled": 0, "lat": 38.904812, "fusion_lat": 0.0, "is_reserved": 0, "rental_uris": {"android": "https://dc.lft.to/lastmile_qr_scan", "ios": "https://dc.lft.to/lastmile_qr_scan"}, "bike_id": "e0d56d6e60c409ca570f32d3fbffbcec"}, {"name": "27bed688e9eb46b5a495cf2fc4cbcb87", "type": "electric_scooter", "fusion_lon": 0.0, "lon": -76.996089, "is_disabled": 0, "lat": 38.88504616666667, "fusion_lat": 0.0, "is_reserved": 0, "rental_uris": {"android": "https://dc.lft.to/lastmile_qr_scan", "ios": "https://dc.lft.to/lastmile_qr_scan"}, "bike_id": "27bed688e9eb46b5a495cf2fc4cbcb87"}, {"name": "4528d2979f9b2acaa964d9151e157b19", "type": "electric_scooter", "fusion_lon": 0.0, "lon": -76.9950195, "is_disabled": 0, "lat": 38.901047166666665, "fusion_lat": 0.0, "is_reserved": 0, "rental_uris": {"android": "https://dc.lft.to/lastmile_qr_scan", "ios": "https://dc.lft.to/lastmile_qr_scan"}, "bike_id": "4528d2979f9b2acaa964d9151e157b19"}, {"name": "9a94f2d6fb32f0370042f5d4b492f622", "type": "electric_scooter", "fusion_lon": 0.0, "lon": -76.9852025, "is_disabled": 0, "lat": 38.8601055, "fusion_lat": 0.0, "is_reserved": 0, "rental_uris": {"android": "https://dc.lft.to/lastmile_qr_scan", "ios": "https://dc.lft.to/lastmile_qr_scan"}, "bike_id": "9a94f2d6fb32f0370042f5d4b492f622"}, {"name": "b0c4e07696da1d76de2e1aac93ebbad7", "type": "electric_scooter", "fusion_lon": 0.0, "lon": -77.0304035, "is_disabled": 0, "lat": 38.90257916666667, "fusion_lat": 0.0, "is_reserved": 0, "rental_uris": {"android": "https://dc.lft.to/lastmile_qr_scan", "ios": "https://dc.lft.to/lastmile_qr_scan"}, "bike_id": "b0c4e07696da1d76de2e1aac93ebbad7"}, {"name": "c8cbd58f576bda85aa524d004e74d60b", "type": "electric_bike", "fusion_lon": 0.0, "lon": -77.16244716666667, "is_disabled": 0, "lat": 38.886611, "fusion_lat": 0.0, "is_reserved": 0, "rental_uris": {"android": "https://dc.lft.to/lastmile_qr_scan", "ios": "https://dc.lft.to/lastmile_qr_scan"}, "bike_id": "c8cbd58f576bda85aa524d004e74d60b"}, {"name": "2c7bcbe96afaf5f1ced2e617a137d828", "type": "electric_scooter", "fusion_lon": 0.0, "lon": -77.0343325, "is_disabled": 0, "lat": 38.933238833333334, "fusion_lat": 0.0, "is_reserved": 0, "rental_uris": {"android": "https://dc.lft.to/lastmile_qr_scan", "ios": "https://dc.lft.to/lastmile_qr_scan"}, "bike_id": "2c7bcbe96afaf5f1ced2e617a137d828"}, {"name": "0476d41ba49e350f9a0282506e5044c8", "type": "electric_scooter", "fusion_lon": 0.0, "lon": -77.04156566666667, "is_disabled": 0, "lat": 38.91481733333333, "fusion_lat": 0.0, "is_reserved": 0, "rental_uris": {"android": "https://dc.lft.to/lastmile_qr_scan", "ios": "https://dc.lft.to/lastmile_qr_scan"}, "bike_id": "0476d41ba49e350f9a0282506e5044c8"}, {"name": "6e8f06e8331a2d4189abf5eac8589f39", "type": "electric_scooter", "fusion_lon": 0.0, "lon": -77.03087083333334, "is_disabled": 0, "lat": 38.935482, "fusion_lat": 0.0, "is_reserved": 0, "rental_uris": {"android": "https://dc.lft.to/lastmile_qr_scan", "ios": "https://dc.lft.to/lastmile_qr_scan"}, "bike_id": "6e8f06e8331a2d4189abf5eac8589f39"}, {"name": "471d26c37e2e2afd31057c5d646d9820", "type": "electric_scooter", "fusion_lon": 0.0, "lon": -77.00929916666666, "is_disabled": 0, "lat": 38.90741833333333, "fusion_lat": 0.0, "is_reserved": 0, "rental_uris": {"android": "https://dc.lft.to/lastmile_qr_scan", "ios": "https://dc.lft.to/lastmile_qr_scan"}, "bike_id": "471d26c37e2e2afd31057c5d646d9820"}, {"name": "ee66c627b773959e4e1f4e7e8dbca2fe", "type": "electric_scooter", "fusion_lon": 0.0, "lon": -77.03186316666667, "is_disabled": 0, "lat": 38.913504, "fusion_lat": 0.0, "is_reserved": 0, "rental_uris": {"android": "https://dc.lft.to/lastmile_qr_scan", "ios": "https://dc.lft.to/lastmile_qr_scan"}, "bike_id": "ee66c627b773959e4e1f4e7e8dbca2fe"}, {"name": "5584585902c5e5e32e80ec085104f0ce", "type": "electric_scooter", "fusion_lon": 0.0, "lon": -76.997625, "is_disabled": 0, "lat": 38.90898166666667, "fusion_lat": 0.0, "is_reserved": 0, "rental_uris": {"android": "https://dc.lft.to/lastmile_qr_scan", "ios": "https://dc.lft.to/lastmile_qr_scan"}, "bike_id": "5584585902c5e5e32e80ec085104f0ce"}, {"name": "f70246537c59afc3d0a570780efbc42d", "type": "electric_bike", "fusion_lon": 0.0, "lon": -77.10789066666666, "is_disabled": 0, "lat": 38.85251183333333, "fusion_lat": 0.0, "is_reserved": 0, "rental_uris": {"android": "https://dc.lft.to/lastmile_qr_scan", "ios": "https://dc.lft.to/lastmile_qr_scan"}, "bike_id": "f70246537c59afc3d0a570780efbc42d"}, {"name": "85749c217d74b19522fed5d41c8f3c41", "type": "electric_bike", "fusion_lon": 0.0, "lon": -76.99510133333334, "is_disabled": 0, "lat": 38.8217815, "fusion_lat": 0.0, "is_reserved": 0, "rental_uris": {"android": "https://dc.lft.to/lastmile_qr_scan", "ios": "https://dc.lft.to/lastmile_qr_scan"}, "bike_id": "85749c217d74b19522fed5d41c8f3c41"}, {"name": "93f9768deef0018c71ee71949979df98", "type": "electric_scooter", "fusion_lon": 0.0, "lon": -77.04502183333334, "is_disabled": 0, "lat": 38.899464, "fusion_lat": 0.0, "is_reserved": 0, "rental_uris": {"android": "https://dc.lft.to/lastmile_qr_scan", "ios": "https://dc.lft.to/lastmile_qr_scan"}, "bike_id": "93f9768deef0018c71ee71949979df98"}, {"name": "94856472f4295ed275883771af7b58f7", "type": "electric_scooter", "fusion_lon": 0.0, "lon": -77.01449316666667, "is_disabled": 0, "lat": 38.879376666666666, "fusion_lat": 0.0, "is_reserved": 0, "rental_uris": {"android": "https://dc.lft.to/lastmile_qr_scan", "ios": "https://dc.lft.to/lastmile_qr_scan"}, "bike_id": "94856472f4295ed275883771af7b58f7"}, {"name": "62be2ac868385922dc99413f5dde0b22", "type": "electric_scooter", "fusion_lon": 0.0, "lon": -76.9969415, "is_disabled": 0, "lat": 38.88420633333333, "fusion_lat": 0.0, "is_reserved": 0, "rental_uris": {"android": "https://dc.lft.to/lastmile_qr_scan", "ios": "https://dc.lft.to/lastmile_qr_scan"}, "bike_id": "62be2ac868385922dc99413f5dde0b22"}, {"name": "c1ff24d4a8244115051c3b49214fe937", "type": "electric_scooter", "fusion_lon": 0.0, "lon": -77.0483525, "is_disabled": 0, "lat": 38.91055883333333, "fusion_lat": 0.0, "is_reserved": 0, "rental_uris": {"android": "https://dc.lft.to/lastmile_qr_scan", "ios": "https://dc.lft.to/lastmile_qr_scan"}, "bike_id": "c1ff24d4a8244115051c3b49214fe937"}, {"name": "7cecdfbedbf61a64b18b6b53d7bd4f15", "type": "electric_scooter", "fusion_lon": 0.0, "lon": -77.03197466666667, "is_disabled": 0, "lat": 38.91783816666667, "fusion_lat": 0.0, "is_reserved": 0, "rental_uris": {"android": "https://dc.lft.to/lastmile_qr_scan", "ios": "https://dc.lft.to/lastmile_qr_scan"}, "bike_id": "7cecdfbedbf61a64b18b6b53d7bd4f15"}, {"name": "2b5e1d5646804e2b54fe5ecfd68688ef", "type": "electric_scooter", "fusion_lon": 0.0, "lon": -76.98543283333333, "is_disabled": 0, "lat": 38.86692333333333, "fusion_lat": 0.0, "is_reserved": 0, "rental_uris": {"android": "https://dc.lft.to/lastmile_qr_scan", "ios": "https://dc.lft.to/lastmile_qr_scan"}, "bike_id": "2b5e1d5646804e2b54fe5ecfd68688ef"}, {"name": "55b3b0b5aed10185d0a7ee44309be383", "type": "electric_scooter", "fusion_lon": 0.0, "lon": -77.02108283333334, "is_disabled": 0, "lat": 38.9216245, "fusion_lat": 0.0, "is_reserved": 0, "rental_uris": {"android": "https://dc.lft.to/lastmile_qr_scan", "ios": "https://dc.lft.to/lastmile_qr_scan"}, "bike_id": "55b3b0b5aed10185d0a7ee44309be383"}, {"name": "9a16760651e68511d13646f93b1f0e48", "type": "electric_scooter", "fusion_lon": 0.0, "lon": -77.023558, "is_disabled": 0, "lat": 38.9200165, "fusion_lat": 0.0, "is_reserved": 0, "rental_uris": {"android": "https://dc.lft.to/lastmile_qr_scan", "ios": "https://dc.lft.to/lastmile_qr_scan"}, "bike_id": "9a16760651e68511d13646f93b1f0e48"}, {"name": "289ccb032b8b35ce2cdfa7e858b9cf38", "type": "electric_scooter", "fusion_lon": 0.0, "lon": -76.991162, "is_disabled": 0, "lat": 38.84649533333334, "fusion_lat": 0.0, "is_reserved": 0, "rental_uris": {"android": "https://dc.lft.to/lastmile_qr_scan", "ios": "https://dc.lft.to/lastmile_qr_scan"}, "bike_id": "289ccb032b8b35ce2cdfa7e858b9cf38"}, {"name": "698d806ea62253686c1b932d78677c11", "type": "electric_scooter", "fusion_lon": 0.0, "lon": -77.03698533333333, "is_disabled": 0, "lat": 38.91812316666667, "fusion_lat": 0.0, "is_reserved": 0, "rental_uris": {"android": "https://dc.lft.to/lastmile_qr_scan", "ios": "https://dc.lft.to/lastmile_qr_scan"}, "bike_id": "698d806ea62253686c1b932d78677c11"}, {"name": "6d67c9bc64ba23aa1a14496304713e41", "type": "electric_scooter", "fusion_lon": 0.0, "lon": -76.99729933333333, "is_disabled": 0, "lat": 38.899426166666665, "fusion_lat": 0.0, "is_reserved": 0, "rental_uris": {"android": "https://dc.lft.to/lastmile_qr_scan", "ios": "https://dc.lft.to/lastmile_qr_scan"}, "bike_id": "6d67c9bc64ba23aa1a14496304713e41"}, {"name": "5614bdf1dd513da7692b85478881666d", "type": "electric_scooter", "fusion_lon": 0.0, "lon": -77.02558416666666, "is_disabled": 0, "lat": 38.94163416666667, "fusion_lat": 0.0, "is_reserved": 0, "rental_uris": {"android": "https://dc.lft.to/lastmile_qr_scan", "ios": "https://dc.lft.to/lastmile_qr_scan"}, "bike_id": "5614bdf1dd513da7692b85478881666d"}, {"name": "53289330b8b344bc34b4cfd7f89b8974", "type": "electric_scooter", "fusion_lon": 0.0, "lon": -77.03973366666666, "is_disabled": 0, "lat": 38.90059516666667, "fusion_lat": 0.0, "is_reserved": 0, "rental_uris": {"android": "https://dc.lft.to/lastmile_qr_scan", "ios": "https://dc.lft.to/lastmile_qr_scan"}, "bike_id": "53289330b8b344bc34b4cfd7f89b8974"}, {"name": "74ebbbb12445bc03f4bd78ea4b02b468", "type": "electric_scooter", "fusion_lon": 0.0, "lon": -77.02285733333333, "is_disabled": 0, "lat": 38.917701666666666, "fusion_lat": 0.0, "is_reserved": 0, "rental_uris": {"android": "https://dc.lft.to/lastmile_qr_scan", "ios": "https://dc.lft.to/lastmile_qr_scan"}, "bike_id": "74ebbbb12445bc03f4bd78ea4b02b468"}, {"name": "9bd375b97d7b5774e88158c4882b9785", "type": "electric_scooter", "fusion_lon": 0.0, "lon": -77.01642883333334, "is_disabled": 0, "lat": 38.881168, "fusion_lat": 0.0, "is_reserved": 0, "rental_uris": {"android": "https://dc.lft.to/lastmile_qr_scan", "ios": "https://dc.lft.to/lastmile_qr_scan"}, "bike_id": "9bd375b97d7b5774e88158c4882b9785"}, {"name": "53a495a34613efaa61dae22c1a76dc2b", "type": "electric_scooter", "fusion_lon": 0.0, "lon": -76.9462555, "is_disabled": 0, "lat": 38.89829983333333, "fusion_lat": 0.0, "is_reserved": 0, "rental_uris": {"android": "https://dc.lft.to/lastmile_qr_scan", "ios": "https://dc.lft.to/lastmile_qr_scan"}, "bike_id": "53a495a34613efaa61dae22c1a76dc2b"}, {"name": "2410217ce22d17b5413188b3334d0434", "type": "electric_scooter", "fusion_lon": 0.0, "lon": -77.03299666666666, "is_disabled": 0, "lat": 38.9288675, "fusion_lat": 0.0, "is_reserved": 0, "rental_uris": {"android": "https://dc.lft.to/lastmile_qr_scan", "ios": "https://dc.lft.to/lastmile_qr_scan"}, "bike_id": "2410217ce22d17b5413188b3334d0434"}, {"name": "31c0277d9f2c055fd9f830d8b495e025", "type": "electric_scooter", "fusion_lon": 0.0, "lon": -77.032789, "is_disabled": 0, "lat": 38.937704, "fusion_lat": 0.0, "is_reserved": 0, "rental_uris": {"android": "https://dc.lft.to/lastmile_qr_scan", "ios": "https://dc.lft.to/lastmile_qr_scan"}, "bike_id": "31c0277d9f2c055fd9f830d8b495e025"}, {"name": "2bae6a8b255aaa441e5e6fe69173b9fc", "type": "electric_scooter", "fusion_lon": 0.0, "lon": -77.0071145, "is_disabled": 0, "lat": 38.884917333333334, "fusion_lat": 0.0, "is_reserved": 0, "rental_uris": {"android": "https://dc.lft.to/lastmile_qr_scan", "ios": "https://dc.lft.to/lastmile_qr_scan"}, "bike_id": "2bae6a8b255aaa441e5e6fe69173b9fc"}, {"name": "3e67c6a5a1eb4d5216707d8ce4e04e73", "type": "electric_scooter", "fusion_lon": 0.0, "lon": -77.01638916666667, "is_disabled": 0, "lat": 38.901154166666664, "fusion_lat": 0.0, "is_reserved": 0, "rental_uris": {"android": "https://dc.lft.to/lastmile_qr_scan", "ios": "https://dc.lft.to/lastmile_qr_scan"}, "bike_id": "3e67c6a5a1eb4d5216707d8ce4e04e73"}, {"name": "abda9db20d5b11a11b661b702d1b7d8d", "type": "electric_scooter", "fusion_lon": 0.0, "lon": -77.04704583333333, "is_disabled": 0, "lat": 38.912698166666665, "fusion_lat": 0.0, "is_reserved": 0, "rental_uris": {"android": "https://dc.lft.to/lastmile_qr_scan", "ios": "https://dc.lft.to/lastmile_qr_scan"}, "bike_id": "abda9db20d5b11a11b661b702d1b7d8d"}, {"name": "84151f11ee72a8eed21577e6e2982d34", "type": "electric_scooter", "fusion_lon": 0.0, "lon": -77.02212083333333, "is_disabled": 0, "lat": 38.92613, "fusion_lat": 0.0, "is_reserved": 0, "rental_uris": {"android": "https://dc.lft.to/lastmile_qr_scan", "ios": "https://dc.lft.to/lastmile_qr_scan"}, "bike_id": "84151f11ee72a8eed21577e6e2982d34"}, {"name": "8e2d6845bce5c9c0a482e262f55a98d9", "type": "electric_scooter", "fusion_lon": 0.0, "lon": -77.0025295, "is_disabled": 0, "lat": 38.91198516666667, "fusion_lat": 0.0, "is_reserved": 0, "rental_uris": {"android": "https://dc.lft.to/lastmile_qr_scan", "ios": "https://dc.lft.to/lastmile_qr_scan"}, "bike_id": "8e2d6845bce5c9c0a482e262f55a98d9"}, {"name": "34692dad325ee315821fe86257f316f3", "type": "electric_scooter", "fusion_lon": 0.0, "lon": -77.01539583333333, "is_disabled": 0, "lat": 38.89167316666666, "fusion_lat": 0.0, "is_reserved": 0, "rental_uris": {"android": "https://dc.lft.to/lastmile_qr_scan", "ios": "https://dc.lft.to/lastmile_qr_scan"}, "bike_id": "34692dad325ee315821fe86257f316f3"}, {"name": "7368de37a5e26f6b3da9c1dba86d1117", "type": "electric_scooter", "fusion_lon": 0.0, "lon": -77.03337133333333, "is_disabled": 0, "lat": 38.91410533333333, "fusion_lat": 0.0, "is_reserved": 0, "rental_uris": {"android": "https://dc.lft.to/lastmile_qr_scan", "ios": "https://dc.lft.to/lastmile_qr_scan"}, "bike_id": "7368de37a5e26f6b3da9c1dba86d1117"}, {"name": "4af4118d92002cda1686edca6c6480f2", "type": "electric_scooter", "fusion_lon": 0.0, "lon": -77.03341466666667, "is_disabled": 0, "lat": 38.9170735, "fusion_lat": 0.0, "is_reserved": 0, "rental_uris": {"android": "https://dc.lft.to/lastmile_qr_scan", "ios": "https://dc.lft.to/lastmile_qr_scan"}, "bike_id": "4af4118d92002cda1686edca6c6480f2"}, {"name": "367c5dea3f432cfd7b95fc5008165523", "type": "electric_scooter", "fusion_lon": 0.0, "lon": -77.04139716666667, "is_disabled": 0, "lat": 38.92254483333333, "fusion_lat": 0.0, "is_reserved": 0, "rental_uris": {"android": "https://dc.lft.to/lastmile_qr_scan", "ios": "https://dc.lft.to/lastmile_qr_scan"}, "bike_id": "367c5dea3f432cfd7b95fc5008165523"}, {"name": "579f1e17a2189bda4c4035fa909b0c37", "type": "electric_scooter", "fusion_lon": 0.0, "lon": -77.03346266666667, "is_disabled": 0, "lat": 38.922369833333335, "fusion_lat": 0.0, "is_reserved": 0, "rental_uris": {"android": "https://dc.lft.to/lastmile_qr_scan", "ios": "https://dc.lft.to/lastmile_qr_scan"}, "bike_id": "579f1e17a2189bda4c4035fa909b0c37"}, {"name": "1cd3254b6c6137109190c85b25087d9d", "type": "electric_scooter", "fusion_lon": 0.0, "lon": -76.98698016666667, "is_disabled": 0, "lat": 38.867211, "fusion_lat": 0.0, "is_reserved": 0, "rental_uris": {"android": "https://dc.lft.to/lastmile_qr_scan", "ios": "https://dc.lft.to/lastmile_qr_scan"}, "bike_id": "1cd3254b6c6137109190c85b25087d9d"}, {"name": "004a8e9b61893972104fad5a47492778", "type": "electric_scooter", "fusion_lon": 0.0, "lon": -77.01354633333334, "is_disabled": 0, "lat": 38.916343166666664, "fusion_lat": 0.0, "is_reserved": 0, "rental_uris": {"android": "https://dc.lft.to/lastmile_qr_scan", "ios": "https://dc.lft.to/lastmile_qr_scan"}, "bike_id": "004a8e9b61893972104fad5a47492778"}, {"name": "db620d06d92160e73db0ceb0af832f4d", "type": "electric_scooter", "fusion_lon": 0.0, "lon": -77.04348733333333, "is_disabled": 0, "lat": 38.9042395, "fusion_lat": 0.0, "is_reserved": 0, "rental_uris": {"android": "https://dc.lft.to/lastmile_qr_scan", "ios": "https://dc.lft.to/lastmile_qr_scan"}, "bike_id": "db620d06d92160e73db0ceb0af832f4d"}, {"name": "bdbd4cb1a6a8e696b30375ea50052413", "type": "electric_scooter", "fusion_lon": 0.0, "lon": -77.01958466666666, "is_disabled": 0, "lat": 38.9233095, "fusion_lat": 0.0, "is_reserved": 0, "rental_uris": {"android": "https://dc.lft.to/lastmile_qr_scan", "ios": "https://dc.lft.to/lastmile_qr_scan"}, "bike_id": "bdbd4cb1a6a8e696b30375ea50052413"}, {"name": "000aa333482143160c59d31746e3c530", "type": "electric_scooter", "fusion_lon": 0.0, "lon": -77.04199716666666, "is_disabled": 0, "lat": 38.91970516666667, "fusion_lat": 0.0, "is_reserved": 0, "rental_uris": {"android": "https://dc.lft.to/lastmile_qr_scan", "ios": "https://dc.lft.to/lastmile_qr_scan"}, "bike_id": "000aa333482143160c59d31746e3c530"}, {"name": "1b0574921fb5ec18f0c9bfc134d93a6b", "type": "electric_scooter", "fusion_lon": 0.0, "lon": -77.03463666666667, "is_disabled": 0, "lat": 38.90324416666667, "fusion_lat": 0.0, "is_reserved": 0, "rental_uris": {"android": "https://dc.lft.to/lastmile_qr_scan", "ios": "https://dc.lft.to/lastmile_qr_scan"}, "bike_id": "1b0574921fb5ec18f0c9bfc134d93a6b"}, {"name": "86c6caeeff6c71c7782ade2886d85df6", "type": "electric_bike", "fusion_lon": 0.0, "lon": -77.10925066666667, "is_disabled": 0, "lat": 39.05192066666667, "fusion_lat": 0.0, "is_reserved": 0, "rental_uris": {"android": "https://dc.lft.to/lastmile_qr_scan", "ios": "https://dc.lft.to/lastmile_qr_scan"}, "bike_id": "86c6caeeff6c71c7782ade2886d85df6"}, {"name": "1281b14af02e5c5d0c6da47414f96452", "type": "electric_scooter", "fusion_lon": 0.0, "lon": -77.04173783333333, "is_disabled": 0, "lat": 38.91704683333333, "fusion_lat": 0.0, "is_reserved": 0, "rental_uris": {"android": "https://dc.lft.to/lastmile_qr_scan", "ios": "https://dc.lft.to/lastmile_qr_scan"}, "bike_id": "1281b14af02e5c5d0c6da47414f96452"}, {"name": "0649573e8f12369859143df7af76a039", "type": "electric_scooter", "fusion_lon": 0.0, "lon": -77.03179616666667, "is_disabled": 0, "lat": 38.915966833333336, "fusion_lat": 0.0, "is_reserved": 0, "rental_uris": {"android": "https://dc.lft.to/lastmile_qr_scan", "ios": "https://dc.lft.to/lastmile_qr_scan"}, "bike_id": "0649573e8f12369859143df7af76a039"}, {"name": "cc2b36a6a73df411007fd7f50a98f70e", "type": "electric_scooter", "fusion_lon": 0.0, "lon": -76.983355, "is_disabled": 0, "lat": 38.86563816666666, "fusion_lat": 0.0, "is_reserved": 0, "rental_uris": {"android": "https://dc.lft.to/lastmile_qr_scan", "ios": "https://dc.lft.to/lastmile_qr_scan"}, "bike_id": "cc2b36a6a73df411007fd7f50a98f70e"}, {"name": "0006a2a152afefed9844f028eb979635", "type": "electric_scooter", "fusion_lon": 0.0, "lon": -77.07153416666667, "is_disabled": 0, "lat": 38.90773033333333, "fusion_lat": 0.0, "is_reserved": 0, "rental_uris": {"android": "https://dc.lft.to/lastmile_qr_scan", "ios": "https://dc.lft.to/lastmile_qr_scan"}, "bike_id": "0006a2a152afefed9844f028eb979635"}, {"name": "f6d98803d22bf651eea161349888e294", "type": "electric_scooter", "fusion_lon": 0.0, "lon": -77.0451315, "is_disabled": 0, "lat": 38.89219166666667, "fusion_lat": 0.0, "is_reserved": 0, "rental_uris": {"android": "https://dc.lft.to/lastmile_qr_scan", "ios": "https://dc.lft.to/lastmile_qr_scan"}, "bike_id": "f6d98803d22bf651eea161349888e294"}, {"name": "1dd24cef81198aff306064f26c6cb1a2", "type": "electric_scooter", "fusion_lon": 0.0, "lon": -77.020361, "is_disabled": 0, "lat": 38.920878, "fusion_lat": 0.0, "is_reserved": 0, "rental_uris": {"android": "https://dc.lft.to/lastmile_qr_scan", "ios": "https://dc.lft.to/lastmile_qr_scan"}, "bike_id": "1dd24cef81198aff306064f26c6cb1a2"}, {"name": "bc0bf8da326f378da78bf3f104e6dbe8", "type": "electric_scooter", "fusion_lon": 0.0, "lon": -76.98541133333333, "is_disabled": 0, "lat": 38.866930333333336, "fusion_lat": 0.0, "is_reserved": 0, "rental_uris": {"android": "https://dc.lft.to/lastmile_qr_scan", "ios": "https://dc.lft.to/lastmile_qr_scan"}, "bike_id": "bc0bf8da326f378da78bf3f104e6dbe8"}, {"name": "411ccfd7fc1310f42e9c228c46e487d6", "type": "electric_scooter", "fusion_lon": 0.0, "lon": -76.99781466666667, "is_disabled": 0, "lat": 38.961483666666666, "fusion_lat": 0.0, "is_reserved": 0, "rental_uris": {"android": "https://dc.lft.to/lastmile_qr_scan", "ios": "https://dc.lft.to/lastmile_qr_scan"}, "bike_id": "411ccfd7fc1310f42e9c228c46e487d6"}, {"name": "4a5a39054b556370fe4f8acff4520fb1", "type": "electric_scooter", "fusion_lon": 0.0, "lon": -77.04366033333334, "is_disabled": 0, "lat": 38.9041135, "fusion_lat": 0.0, "is_reserved": 0, "rental_uris": {"android": "https://dc.lft.to/lastmile_qr_scan", "ios": "https://dc.lft.to/lastmile_qr_scan"}, "bike_id": "4a5a39054b556370fe4f8acff4520fb1"}, {"name": "cd7fc83a624440bb5b783ddf229bb8a2", "type": "electric_scooter", "fusion_lon": 0.0, "lon": -77.02967883333334, "is_disabled": 0, "lat": 38.93155516666667, "fusion_lat": 0.0, "is_reserved": 0, "rental_uris": {"android": "https://dc.lft.to/lastmile_qr_scan", "ios": "https://dc.lft.to/lastmile_qr_scan"}, "bike_id": "cd7fc83a624440bb5b783ddf229bb8a2"}, {"name": "7c972171b0b14ba3b3137d557aba31a0", "type": "electric_scooter", "fusion_lon": 0.0, "lon": -77.03959233333333, "is_disabled": 0, "lat": 38.90722683333333, "fusion_lat": 0.0, "is_reserved": 0, "rental_uris": {"android": "https://dc.lft.to/lastmile_qr_scan", "ios": "https://dc.lft.to/lastmile_qr_scan"}, "bike_id": "7c972171b0b14ba3b3137d557aba31a0"}, {"name": "887b065727a74e121d447ab1316635dc", "type": "electric_bike", "fusion_lon": 0.0, "lon": -77.04353133333333, "is_disabled": 0, "lat": 38.9013615, "fusion_lat": 0.0, "is_reserved": 0, "rental_uris": {"android": "https://dc.lft.to/lastmile_qr_scan", "ios": "https://dc.lft.to/lastmile_qr_scan"}, "bike_id": "887b065727a74e121d447ab1316635dc"}, {"name": "b3396dc02a6fd3a9a2f80ba25852bbdd", "type": "electric_scooter", "fusion_lon": 0.0, "lon": -77.0048765, "is_disabled": 0, "lat": 38.874661833333334, "fusion_lat": 0.0, "is_reserved": 0, "rental_uris": {"android": "https://dc.lft.to/lastmile_qr_scan", "ios": "https://dc.lft.to/lastmile_qr_scan"}, "bike_id": "b3396dc02a6fd3a9a2f80ba25852bbdd"}, {"name": "002bbc426d6f37ce1752580a7ae9abf6", "type": "electric_scooter", "fusion_lon": 0.0, "lon": -77.04182183333333, "is_disabled": 0, "lat": 38.920589, "fusion_lat": 0.0, "is_reserved": 0, "rental_uris": {"android": "https://dc.lft.to/lastmile_qr_scan", "ios": "https://dc.lft.to/lastmile_qr_scan"}, "bike_id": "002bbc426d6f37ce1752580a7ae9abf6"}, {"name": "5db80b55fdfc0c6aaf10c58559154871", "type": "electric_scooter", "fusion_lon": 0.0, "lon": -77.02480083333333, "is_disabled": 0, "lat": 38.939805, "fusion_lat": 0.0, "is_reserved": 0, "rental_uris": {"android": "https://dc.lft.to/lastmile_qr_scan", "ios": "https://dc.lft.to/lastmile_qr_scan"}, "bike_id": "5db80b55fdfc0c6aaf10c58559154871"}, {"name": "838b106d599f7474adbadf1160483aeb", "type": "electric_scooter", "fusion_lon": 0.0, "lon": -77.0619565, "is_disabled": 0, "lat": 38.91844966666667, "fusion_lat": 0.0, "is_reserved": 0, "rental_uris": {"android": "https://dc.lft.to/lastmile_qr_scan", "ios": "https://dc.lft.to/lastmile_qr_scan"}, "bike_id": "838b106d599f7474adbadf1160483aeb"}, {"name": "52291b2cbc26f1fc8c1d09132a8c18e4", "type": "electric_scooter", "fusion_lon": 0.0, "lon": -77.03847483333334, "is_disabled": 0, "lat": 38.915521166666664, "fusion_lat": 0.0, "is_reserved": 0, "rental_uris": {"android": "https://dc.lft.to/lastmile_qr_scan", "ios": "https://dc.lft.to/lastmile_qr_scan"}, "bike_id": "52291b2cbc26f1fc8c1d09132a8c18e4"}, {"name": "d4a83a2daef2929322eba5ac75c7172b", "type": "electric_scooter", "fusion_lon": 0.0, "lon": -77.0315355, "is_disabled": 0, "lat": 38.90444683333333, "fusion_lat": 0.0, "is_reserved": 0, "rental_uris": {"android": "https://dc.lft.to/lastmile_qr_scan", "ios": "https://dc.lft.to/lastmile_qr_scan"}, "bike_id": "d4a83a2daef2929322eba5ac75c7172b"}, {"name": "91ff2191acc7aced12e347bbb774431f", "type": "electric_scooter", "fusion_lon": 0.0, "lon": -77.09052833333334, "is_disabled": 0, "lat": 38.942488, "fusion_lat": 0.0, "is_reserved": 0, "rental_uris": {"android": "https://dc.lft.to/lastmile_qr_scan", "ios": "https://dc.lft.to/lastmile_qr_scan"}, "bike_id": "91ff2191acc7aced12e347bbb774431f"}, {"name": "cb73674ad852a9a81562f51fd9bc74c3", "type": "electric_bike", "fusion_lon": 0.0, "lon": -76.99858066666667, "is_disabled": 0, "lat": 38.8998725, "fusion_lat": 0.0, "is_reserved": 0, "rental_uris": {"android": "https://dc.lft.to/lastmile_qr_scan", "ios": "https://dc.lft.to/lastmile_qr_scan"}, "bike_id": "cb73674ad852a9a81562f51fd9bc74c3"}, {"name": "fb766629479bdeb512d8500acdd2930e", "type": "electric_scooter", "fusion_lon": 0.0, "lon": -77.03387483333333, "is_disabled": 0, "lat": 38.92049316666667, "fusion_lat": 0.0, "is_reserved": 0, "rental_uris": {"android": "https://dc.lft.to/lastmile_qr_scan", "ios": "https://dc.lft.to/lastmile_qr_scan"}, "bike_id": "fb766629479bdeb512d8500acdd2930e"}, {"name": "763c41560436db5d013cbae928b57330", "type": "electric_scooter", "fusion_lon": 0.0, "lon": -77.01901316666667, "is_disabled": 0, "lat": 38.92364633333333, "fusion_lat": 0.0, "is_reserved": 0, "rental_uris": {"android": "https://dc.lft.to/lastmile_qr_scan", "ios": "https://dc.lft.to/lastmile_qr_scan"}, "bike_id": "763c41560436db5d013cbae928b57330"}, {"name": "a741b952c83a8a81968977cf88964fe5", "type": "electric_scooter", "fusion_lon": 0.0, "lon": -77.041935, "is_disabled": 0, "lat": 38.8922425, "fusion_lat": 0.0, "is_reserved": 0, "rental_uris": {"android": "https://dc.lft.to/lastmile_qr_scan", "ios": "https://dc.lft.to/lastmile_qr_scan"}, "bike_id": "a741b952c83a8a81968977cf88964fe5"}, {"name": "cefdbb129fea0b720026d46e23ce4481", "type": "electric_scooter", "fusion_lon": 0.0, "lon": -77.0243945, "is_disabled": 0, "lat": 38.911582833333334, "fusion_lat": 0.0, "is_reserved": 0, "rental_uris": {"android": "https://dc.lft.to/lastmile_qr_scan", "ios": "https://dc.lft.to/lastmile_qr_scan"}, "bike_id": "cefdbb129fea0b720026d46e23ce4481"}, {"name": "2be89c0362d2b261d5c9d80aae57950f", "type": "electric_scooter", "fusion_lon": 0.0, "lon": -77.0245835, "is_disabled": 0, "lat": 38.88040133333333, "fusion_lat": 0.0, "is_reserved": 0, "rental_uris": {"android": "https://dc.lft.to/lastmile_qr_scan", "ios": "https://dc.lft.to/lastmile_qr_scan"}, "bike_id": "2be89c0362d2b261d5c9d80aae57950f"}, {"name": "266d15a8436105cb2f28e5ba85ad45de", "type": "electric_scooter", "fusion_lon": 0.0, "lon": -77.02734033333333, "is_disabled": 0, "lat": 38.927680333333335, "fusion_lat": 0.0, "is_reserved": 0, "rental_uris": {"android": "https://dc.lft.to/lastmile_qr_scan", "ios": "https://dc.lft.to/lastmile_qr_scan"}, "bike_id": "266d15a8436105cb2f28e5ba85ad45de"}, {"name": "88a126d8f50505f9b95d09708136374f", "type": "electric_scooter", "fusion_lon": 0.0, "lon": -77.01406833333333, "is_disabled": 0, "lat": 38.92853783333333, "fusion_lat": 0.0, "is_reserved": 0, "rental_uris": {"android": "https://dc.lft.to/lastmile_qr_scan", "ios": "https://dc.lft.to/lastmile_qr_scan"}, "bike_id": "88a126d8f50505f9b95d09708136374f"}, {"name": "cd4d1905bed695be3029012336aedb9a", "type": "electric_scooter", "fusion_lon": 0.0, "lon": -76.98416816666666, "is_disabled": 0, "lat": 38.846463666666665, "fusion_lat": 0.0, "is_reserved": 0, "rental_uris": {"android": "https://dc.lft.to/lastmile_qr_scan", "ios": "https://dc.lft.to/lastmile_qr_scan"}, "bike_id": "cd4d1905bed695be3029012336aedb9a"}, {"name": "85eee34a839132c5e3723e2408431525", "type": "electric_scooter", "fusion_lon": 0.0, "lon": -77.0282975, "is_disabled": 0, "lat": 38.898371833333336, "fusion_lat": 0.0, "is_reserved": 0, "rental_uris": {"android": "https://dc.lft.to/lastmile_qr_scan", "ios": "https://dc.lft.to/lastmile_qr_scan"}, "bike_id": "85eee34a839132c5e3723e2408431525"}, {"name": "06b69260c81397653d445304e20a151a", "type": "electric_scooter", "fusion_lon": 0.0, "lon": -76.99583633333333, "is_disabled": 0, "lat": 38.924423833333336, "fusion_lat": 0.0, "is_reserved": 0, "rental_uris": {"android": "https://dc.lft.to/lastmile_qr_scan", "ios": "https://dc.lft.to/lastmile_qr_scan"}, "bike_id": "06b69260c81397653d445304e20a151a"}, {"name": "d884ded6b1cda20340e792d17f4b8fc2", "type": "electric_scooter", "fusion_lon": 0.0, "lon": -76.94722266666666, "is_disabled": 0, "lat": 38.897412333333335, "fusion_lat": 0.0, "is_reserved": 0, "rental_uris": {"android": "https://dc.lft.to/lastmile_qr_scan", "ios": "https://dc.lft.to/lastmile_qr_scan"}, "bike_id": "d884ded6b1cda20340e792d17f4b8fc2"}, {"name": "6d02bbfda8ab679e935f90cf7ad59470", "type": "electric_scooter", "fusion_lon": 0.0, "lon": -77.04686316666667, "is_disabled": 0, "lat": 38.892252666666664, "fusion_lat": 0.0, "is_reserved": 0, "rental_uris": {"android": "https://dc.lft.to/lastmile_qr_scan", "ios": "https://dc.lft.to/lastmile_qr_scan"}, "bike_id": "6d02bbfda8ab679e935f90cf7ad59470"}, {"name": "1e10de5ce182fde5a6d1e0ebe68c5136", "type": "electric_scooter", "fusion_lon": 0.0, "lon": -77.03148066666667, "is_disabled": 0, "lat": 38.94178216666667, "fusion_lat": 0.0, "is_reserved": 0, "rental_uris": {"android": "https://dc.lft.to/lastmile_qr_scan", "ios": "https://dc.lft.to/lastmile_qr_scan"}, "bike_id": "1e10de5ce182fde5a6d1e0ebe68c5136"}, {"name": "01006e51617cb9af985b4fef477b26eb", "type": "electric_scooter", "fusion_lon": 0.0, "lon": -77.01475833333333, "is_disabled": 0, "lat": 38.9185255, "fusion_lat": 0.0, "is_reserved": 0, "rental_uris": {"android": "https://dc.lft.to/lastmile_qr_scan", "ios": "https://dc.lft.to/lastmile_qr_scan"}, "bike_id": "01006e51617cb9af985b4fef477b26eb"}, {"name": "4c01bd17472657d15e9891e21b5eb073", "type": "electric_scooter", "fusion_lon": 0.0, "lon": -77.023079, "is_disabled": 0, "lat": 38.917837666666664, "fusion_lat": 0.0, "is_reserved": 0, "rental_uris": {"android": "https://dc.lft.to/lastmile_qr_scan", "ios": "https://dc.lft.to/lastmile_qr_scan"}, "bike_id": "4c01bd17472657d15e9891e21b5eb073"}, {"name": "450282c1fe49ad8a3d18b5e7adc0818b", "type": "electric_scooter", "fusion_lon": 0.0, "lon": -77.023196, "is_disabled": 0, "lat": 38.895814666666666, "fusion_lat": 0.0, "is_reserved": 0, "rental_uris": {"android": "https://dc.lft.to/lastmile_qr_scan", "ios": "https://dc.lft.to/lastmile_qr_scan"}, "bike_id": "450282c1fe49ad8a3d18b5e7adc0818b"}, {"name": "9638e2ff79e0eca1b8b9340956a06dbd", "type": "electric_scooter", "fusion_lon": 0.0, "lon": -77.02195833333333, "is_disabled": 0, "lat": 38.89592583333334, "fusion_lat": 0.0, "is_reserved": 0, "rental_uris": {"android": "https://dc.lft.to/lastmile_qr_scan", "ios": "https://dc.lft.to/lastmile_qr_scan"}, "bike_id": "9638e2ff79e0eca1b8b9340956a06dbd"}, {"name": "560f1f10ae397840915c65b6f139ab63", "type": "electric_scooter", "fusion_lon": 0.0, "lon": -77.04344083333334, "is_disabled": 0, "lat": 38.913277666666666, "fusion_lat": 0.0, "is_reserved": 0, "rental_uris": {"android": "https://dc.lft.to/lastmile_qr_scan", "ios": "https://dc.lft.to/lastmile_qr_scan"}, "bike_id": "560f1f10ae397840915c65b6f139ab63"}, {"name": "edfe3a2dcfd8839f3afb036ad3e92330", "type": "electric_scooter", "fusion_lon": 0.0, "lon": -77.0219725, "is_disabled": 0, "lat": 38.8927375, "fusion_lat": 0.0, "is_reserved": 0, "rental_uris": {"android": "https://dc.lft.to/lastmile_qr_scan", "ios": "https://dc.lft.to/lastmile_qr_scan"}, "bike_id": "edfe3a2dcfd8839f3afb036ad3e92330"}, {"name": "8bdff4fe99576d315df39f74b3e0652a", "type": "electric_scooter", "fusion_lon": 0.0, "lon": -77.04357466666667, "is_disabled": 0, "lat": 38.907996833333335, "fusion_lat": 0.0, "is_reserved": 0, "rental_uris": {"android": "https://dc.lft.to/lastmile_qr_scan", "ios": "https://dc.lft.to/lastmile_qr_scan"}, "bike_id": "8bdff4fe99576d315df39f74b3e0652a"}, {"name": "32f2dbaf8694c765645a5d2cadca82cc", "type": "electric_scooter", "fusion_lon": 0.0, "lon": -77.052015, "is_disabled": 0, "lat": 38.92464483333333, "fusion_lat": 0.0, "is_reserved": 0, "rental_uris": {"android": "https://dc.lft.to/lastmile_qr_scan", "ios": "https://dc.lft.to/lastmile_qr_scan"}, "bike_id": "32f2dbaf8694c765645a5d2cadca82cc"}, {"name": "09ab97feac6bd873b0b4133cc8693390", "type": "electric_bike", "fusion_lon": 0.0, "lon": -76.99500466666667, "is_disabled": 0, "lat": 38.93248116666667, "fusion_lat": 0.0, "is_reserved": 0, "rental_uris": {"android": "https://dc.lft.to/lastmile_qr_scan", "ios": "https://dc.lft.to/lastmile_qr_scan"}, "bike_id": "09ab97feac6bd873b0b4133cc8693390"}, {"name": "a725dbb4028d4cf76fc9c54c7594ea5c", "type": "electric_scooter", "fusion_lon": 0.0, "lon": -77.02710966666666, "is_disabled": 0, "lat": 38.88132866666667, "fusion_lat": 0.0, "is_reserved": 0, "rental_uris": {"android": "https://dc.lft.to/lastmile_qr_scan", "ios": "https://dc.lft.to/lastmile_qr_scan"}, "bike_id": "a725dbb4028d4cf76fc9c54c7594ea5c"}, {"name": "420ca226e222fa9addd3059f919653b8", "type": "electric_scooter", "fusion_lon": 0.0, "lon": -77.022916, "is_disabled": 0, "lat": 38.917817, "fusion_lat": 0.0, "is_reserved": 0, "rental_uris": {"android": "https://dc.lft.to/lastmile_qr_scan", "ios": "https://dc.lft.to/lastmile_qr_scan"}, "bike_id": "420ca226e222fa9addd3059f919653b8"}, {"name": "2d3a89f8c10e2edcffe5456de02dccd5", "type": "electric_scooter", "fusion_lon": 0.0, "lon": -77.03305283333333, "is_disabled": 0, "lat": 38.956360833333335, "fusion_lat": 0.0, "is_reserved": 0, "rental_uris": {"android": "https://dc.lft.to/lastmile_qr_scan", "ios": "https://dc.lft.to/lastmile_qr_scan"}, "bike_id": "2d3a89f8c10e2edcffe5456de02dccd5"}, {"name": "cbea9e52fe8a3e8c41edff259dab32ec", "type": "electric_scooter", "fusion_lon": 0.0, "lon": -77.03854233333334, "is_disabled": 0, "lat": 38.908644333333335, "fusion_lat": 0.0, "is_reserved": 0, "rental_uris": {"android": "https://dc.lft.to/lastmile_qr_scan", "ios": "https://dc.lft.to/lastmile_qr_scan"}, "bike_id": "cbea9e52fe8a3e8c41edff259dab32ec"}, {"name": "11a82daf1c2053a64e8f46d8659ac512", "type": "electric_scooter", "fusion_lon": 0.0, "lon": -77.0071185, "is_disabled": 0, "lat": 38.88488733333333, "fusion_lat": 0.0, "is_reserved": 0, "rental_uris": {"android": "https://dc.lft.to/lastmile_qr_scan", "ios": "https://dc.lft.to/lastmile_qr_scan"}, "bike_id": "11a82daf1c2053a64e8f46d8659ac512"}, {"name": "86b5c0a9a714a2ae403340e02902bf60", "type": "electric_scooter", "fusion_lon": 0.0, "lon": -77.03770666666667, "is_disabled": 0, "lat": 38.94349966666667, "fusion_lat": 0.0, "is_reserved": 0, "rental_uris": {"android": "https://dc.lft.to/lastmile_qr_scan", "ios": "https://dc.lft.to/lastmile_qr_scan"}, "bike_id": "86b5c0a9a714a2ae403340e02902bf60"}, {"name": "aaa6d7a80ad6beb58d251d7cac0a9011", "type": "electric_scooter", "fusion_lon": 0.0, "lon": -76.982745, "is_disabled": 0, "lat": 38.86760566666667, "fusion_lat": 0.0, "is_reserved": 0, "rental_uris": {"android": "https://dc.lft.to/lastmile_qr_scan", "ios": "https://dc.lft.to/lastmile_qr_scan"}, "bike_id": "aaa6d7a80ad6beb58d251d7cac0a9011"}, {"name": "0a69c796243d6636f3eda6218c1d5da0", "type": "electric_scooter", "fusion_lon": 0.0, "lon": -77.01223233333333, "is_disabled": 0, "lat": 38.9260235, "fusion_lat": 0.0, "is_reserved": 0, "rental_uris": {"android": "https://dc.lft.to/lastmile_qr_scan", "ios": "https://dc.lft.to/lastmile_qr_scan"}, "bike_id": "0a69c796243d6636f3eda6218c1d5da0"}, {"name": "c2b1a9df0a127740614d61f0df282182", "type": "electric_scooter", "fusion_lon": 0.0, "lon": -77.04490066666666, "is_disabled": 0, "lat": 38.908059333333334, "fusion_lat": 0.0, "is_reserved": 0, "rental_uris": {"android": "https://dc.lft.to/lastmile_qr_scan", "ios": "https://dc.lft.to/lastmile_qr_scan"}, "bike_id": "c2b1a9df0a127740614d61f0df282182"}, {"name": "beeb57a38022576f3dbf87408271de32", "type": "electric_scooter", "fusion_lon": 0.0, "lon": -77.02716233333334, "is_disabled": 0, "lat": 38.90791133333333, "fusion_lat": 0.0, "is_reserved": 0, "rental_uris": {"android": "https://dc.lft.to/lastmile_qr_scan", "ios": "https://dc.lft.to/lastmile_qr_scan"}, "bike_id": "beeb57a38022576f3dbf87408271de32"}, {"name": "d57176b7966221a96ae6e1ac8b6fbbcc", "type": "electric_scooter", "fusion_lon": 0.0, "lon": -77.0363475, "is_disabled": 0, "lat": 38.90981566666667, "fusion_lat": 0.0, "is_reserved": 0, "rental_uris": {"android": "https://dc.lft.to/lastmile_qr_scan", "ios": "https://dc.lft.to/lastmile_qr_scan"}, "bike_id": "d57176b7966221a96ae6e1ac8b6fbbcc"}, {"name": "27e0259524ecad3ae18dc5a66b5a4312", "type": "electric_scooter", "fusion_lon": 0.0, "lon": -77.02365516666667, "is_disabled": 0, "lat": 38.920040666666665, "fusion_lat": 0.0, "is_reserved": 0, "rental_uris": {"android": "https://dc.lft.to/lastmile_qr_scan", "ios": "https://dc.lft.to/lastmile_qr_scan"}, "bike_id": "27e0259524ecad3ae18dc5a66b5a4312"}, {"name": "55023aecde35c73d2aff1f6ac8d12abd", "type": "electric_scooter", "fusion_lon": 0.0, "lon": -76.9524805, "is_disabled": 0, "lat": 38.8904505, "fusion_lat": 0.0, "is_reserved": 0, "rental_uris": {"android": "https://dc.lft.to/lastmile_qr_scan", "ios": "https://dc.lft.to/lastmile_qr_scan"}, "bike_id": "55023aecde35c73d2aff1f6ac8d12abd"}, {"name": "bbddd363fa0f9ab1c6be79b40dd412eb", "type": "electric_scooter", "fusion_lon": 0.0, "lon": -76.926573, "is_disabled": 0, "lat": 38.901715833333334, "fusion_lat": 0.0, "is_reserved": 0, "rental_uris": {"android": "https://dc.lft.to/lastmile_qr_scan", "ios": "https://dc.lft.to/lastmile_qr_scan"}, "bike_id": "bbddd363fa0f9ab1c6be79b40dd412eb"}, {"name": "8c09182e7d19a568368982e5b37f9560", "type": "electric_scooter", "fusion_lon": 0.0, "lon": -77.023754, "is_disabled": 0, "lat": 38.91960816666667, "fusion_lat": 0.0, "is_reserved": 0, "rental_uris": {"android": "https://dc.lft.to/lastmile_qr_scan", "ios": "https://dc.lft.to/lastmile_qr_scan"}, "bike_id": "8c09182e7d19a568368982e5b37f9560"}, {"name": "a4ea254e8e1585e5ad5966633ec0b520", "type": "electric_scooter", "fusion_lon": 0.0, "lon": -77.01358066666667, "is_disabled": 0, "lat": 38.89783766666667, "fusion_lat": 0.0, "is_reserved": 0, "rental_uris": {"android": "https://dc.lft.to/lastmile_qr_scan", "ios": "https://dc.lft.to/lastmile_qr_scan"}, "bike_id": "a4ea254e8e1585e5ad5966633ec0b520"}, {"name": "35f2be877e84c3e5d623c81bc53973cb", "type": "electric_scooter", "fusion_lon": 0.0, "lon": -77.0280645, "is_disabled": 0, "lat": 38.899499, "fusion_lat": 0.0, "is_reserved": 0, "rental_uris": {"android": "https://dc.lft.to/lastmile_qr_scan", "ios": "https://dc.lft.to/lastmile_qr_scan"}, "bike_id": "35f2be877e84c3e5d623c81bc53973cb"}, {"name": "7677b668e7a61de395db27e7059a79a8", "type": "electric_scooter", "fusion_lon": 0.0, "lon": -77.02638416666667, "is_disabled": 0, "lat": 38.9042465, "fusion_lat": 0.0, "is_reserved": 0, "rental_uris": {"android": "https://dc.lft.to/lastmile_qr_scan", "ios": "https://dc.lft.to/lastmile_qr_scan"}, "bike_id": "7677b668e7a61de395db27e7059a79a8"}, {"name": "616f3a6063292462354fc6921025083b", "type": "electric_scooter", "fusion_lon": 0.0, "lon": -77.0102855, "is_disabled": 0, "lat": 38.9203255, "fusion_lat": 0.0, "is_reserved": 0, "rental_uris": {"android": "https://dc.lft.to/lastmile_qr_scan", "ios": "https://dc.lft.to/lastmile_qr_scan"}, "bike_id": "616f3a6063292462354fc6921025083b"}, {"name": "c1a95c0b2e6d3bf035d885abd67fa4a2", "type": "electric_scooter", "fusion_lon": 0.0, "lon": -76.9813505, "is_disabled": 0, "lat": 38.89998716666667, "fusion_lat": 0.0, "is_reserved": 0, "rental_uris": {"android": "https://dc.lft.to/lastmile_qr_scan", "ios": "https://dc.lft.to/lastmile_qr_scan"}, "bike_id": "c1a95c0b2e6d3bf035d885abd67fa4a2"}, {"name": "8f5996e5ca34d0ee637c173fb0b824ec", "type": "electric_scooter", "fusion_lon": 0.0, "lon": -77.03291566666667, "is_disabled": 0, "lat": 38.89888366666667, "fusion_lat": 0.0, "is_reserved": 0, "rental_uris": {"android": "https://dc.lft.to/lastmile_qr_scan", "ios": "https://dc.lft.to/lastmile_qr_scan"}, "bike_id": "8f5996e5ca34d0ee637c173fb0b824ec"}, {"name": "53cac7d3c750ca4832e70305e0fee45a", "type": "electric_scooter", "fusion_lon": 0.0, "lon": -77.02524433333333, "is_disabled": 0, "lat": 38.9374855, "fusion_lat": 0.0, "is_reserved": 0, "rental_uris": {"android": "https://dc.lft.to/lastmile_qr_scan", "ios": "https://dc.lft.to/lastmile_qr_scan"}, "bike_id": "53cac7d3c750ca4832e70305e0fee45a"}, {"name": "977ce6250b618e16dc7af716424282ca", "type": "electric_scooter", "fusion_lon": 0.0, "lon": -76.9888405, "is_disabled": 0, "lat": 38.866597666666664, "fusion_lat": 0.0, "is_reserved": 0, "rental_uris": {"android": "https://dc.lft.to/lastmile_qr_scan", "ios": "https://dc.lft.to/lastmile_qr_scan"}, "bike_id": "977ce6250b618e16dc7af716424282ca"}, {"name": "97df8738c757ed07f1a8b0212a9f9969", "type": "electric_scooter", "fusion_lon": 0.0, "lon": -77.0185045, "is_disabled": 0, "lat": 38.91501866666667, "fusion_lat": 0.0, "is_reserved": 0, "rental_uris": {"android": "https://dc.lft.to/lastmile_qr_scan", "ios": "https://dc.lft.to/lastmile_qr_scan"}, "bike_id": "97df8738c757ed07f1a8b0212a9f9969"}, {"name": "6a274e1c212f13fbf69640fcbc1f4ff6", "type": "electric_scooter", "fusion_lon": 0.0, "lon": -76.98850216666666, "is_disabled": 0, "lat": 38.901916666666665, "fusion_lat": 0.0, "is_reserved": 0, "rental_uris": {"android": "https://dc.lft.to/lastmile_qr_scan", "ios": "https://dc.lft.to/lastmile_qr_scan"}, "bike_id": "6a274e1c212f13fbf69640fcbc1f4ff6"}, {"name": "679712924bcade088f04874c01a91ace", "type": "electric_bike", "fusion_lon": 0.0, "lon": -76.997386, "is_disabled": 0, "lat": 39.042355, "fusion_lat": 0.0, "is_reserved": 0, "rental_uris": {"android": "https://dc.lft.to/lastmile_qr_scan", "ios": "https://dc.lft.to/lastmile_qr_scan"}, "bike_id": "679712924bcade088f04874c01a91ace"}, {"name": "5ce4deb5cb47b68cb86d1115c75d1417", "type": "electric_scooter", "fusion_lon": 0.0, "lon": -77.05184116666666, "is_disabled": 0, "lat": 38.9242545, "fusion_lat": 0.0, "is_reserved": 0, "rental_uris": {"android": "https://dc.lft.to/lastmile_qr_scan", "ios": "https://dc.lft.to/lastmile_qr_scan"}, "bike_id": "5ce4deb5cb47b68cb86d1115c75d1417"}, {"name": "0fc7ec2790cf3b29cbb64da976b5df93", "type": "electric_scooter", "fusion_lon": 0.0, "lon": -77.03123583333333, "is_disabled": 0, "lat": 38.905316666666664, "fusion_lat": 0.0, "is_reserved": 0, "rental_uris": {"android": "https://dc.lft.to/lastmile_qr_scan", "ios": "https://dc.lft.to/lastmile_qr_scan"}, "bike_id": "0fc7ec2790cf3b29cbb64da976b5df93"}, {"name": "73851956dc95f3a8520c3f967a08e6a8", "type": "electric_scooter", "fusion_lon": 0.0, "lon": -77.00212166666667, "is_disabled": 0, "lat": 38.873851, "fusion_lat": 0.0, "is_reserved": 0, "rental_uris": {"android": "https://dc.lft.to/lastmile_qr_scan", "ios": "https://dc.lft.to/lastmile_qr_scan"}, "bike_id": "73851956dc95f3a8520c3f967a08e6a8"}, {"name": "3e5bb51d7e3539fb925f499d9e124775", "type": "electric_scooter", "fusion_lon": 0.0, "lon": -77.05257433333334, "is_disabled": 0, "lat": 38.927803833333336, "fusion_lat": 0.0, "is_reserved": 0, "rental_uris": {"android": "https://dc.lft.to/lastmile_qr_scan", "ios": "https://dc.lft.to/lastmile_qr_scan"}, "bike_id": "3e5bb51d7e3539fb925f499d9e124775"}, {"name": "c2d599e70b13e2afdd80d3261532221d", "type": "electric_scooter", "fusion_lon": 0.0, "lon": -77.00076983333334, "is_disabled": 0, "lat": 38.87435883333333, "fusion_lat": 0.0, "is_reserved": 0, "rental_uris": {"android": "https://dc.lft.to/lastmile_qr_scan", "ios": "https://dc.lft.to/lastmile_qr_scan"}, "bike_id": "c2d599e70b13e2afdd80d3261532221d"}, {"name": "6ab62a7f9a0325c9af8f3b8ea452580a", "type": "electric_scooter", "fusion_lon": 0.0, "lon": -76.9733855, "is_disabled": 0, "lat": 38.865099666666666, "fusion_lat": 0.0, "is_reserved": 0, "rental_uris": {"android": "https://dc.lft.to/lastmile_qr_scan", "ios": "https://dc.lft.to/lastmile_qr_scan"}, "bike_id": "6ab62a7f9a0325c9af8f3b8ea452580a"}, {"name": "054c2755f236cc1655a540339b3dbd04", "type": "electric_scooter", "fusion_lon": 0.0, "lon": -77.03822416666667, "is_disabled": 0, "lat": 38.92544433333333, "fusion_lat": 0.0, "is_reserved": 0, "rental_uris": {"android": "https://dc.lft.to/lastmile_qr_scan", "ios": "https://dc.lft.to/lastmile_qr_scan"}, "bike_id": "054c2755f236cc1655a540339b3dbd04"}, {"name": "da06e008c59fd978a3c302e3b0de1dec", "type": "electric_scooter", "fusion_lon": 0.0, "lon": -77.032165, "is_disabled": 0, "lat": 38.911983166666666, "fusion_lat": 0.0, "is_reserved": 0, "rental_uris": {"android": "https://dc.lft.to/lastmile_qr_scan", "ios": "https://dc.lft.to/lastmile_qr_scan"}, "bike_id": "da06e008c59fd978a3c302e3b0de1dec"}, {"name": "68d038c544d59623b307aad2973fc1da", "type": "electric_scooter", "fusion_lon": 0.0, "lon": -77.02609716666667, "is_disabled": 0, "lat": 38.9172085, "fusion_lat": 0.0, "is_reserved": 0, "rental_uris": {"android": "https://dc.lft.to/lastmile_qr_scan", "ios": "https://dc.lft.to/lastmile_qr_scan"}, "bike_id": "68d038c544d59623b307aad2973fc1da"}, {"name": "22bde8f9f7ba60ba4d1cf4859e6c23b6", "type": "electric_scooter", "fusion_lon": 0.0, "lon": -77.025272, "is_disabled": 0, "lat": 38.904279333333335, "fusion_lat": 0.0, "is_reserved": 0, "rental_uris": {"android": "https://dc.lft.to/lastmile_qr_scan", "ios": "https://dc.lft.to/lastmile_qr_scan"}, "bike_id": "22bde8f9f7ba60ba4d1cf4859e6c23b6"}, {"name": "b8b78fa0a1000b514acce5b806b6e710", "type": "electric_scooter", "fusion_lon": 0.0, "lon": -77.05673666666667, "is_disabled": 0, "lat": 38.90489216666667, "fusion_lat": 0.0, "is_reserved": 0, "rental_uris": {"android": "https://dc.lft.to/lastmile_qr_scan", "ios": "https://dc.lft.to/lastmile_qr_scan"}, "bike_id": "b8b78fa0a1000b514acce5b806b6e710"}, {"name": "83826463cf1fdfcc21ecd3d9b07c8b35", "type": "electric_scooter", "fusion_lon": 0.0, "lon": -77.00593416666666, "is_disabled": 0, "lat": 38.8779685, "fusion_lat": 0.0, "is_reserved": 0, "rental_uris": {"android": "https://dc.lft.to/lastmile_qr_scan", "ios": "https://dc.lft.to/lastmile_qr_scan"}, "bike_id": "83826463cf1fdfcc21ecd3d9b07c8b35"}, {"name": "8e3529457720199fc782c03bcb1bede2", "type": "electric_scooter", "fusion_lon": 0.0, "lon": -76.984327, "is_disabled": 0, "lat": 38.90581916666667, "fusion_lat": 0.0, "is_reserved": 0, "rental_uris": {"android": "https://dc.lft.to/lastmile_qr_scan", "ios": "https://dc.lft.to/lastmile_qr_scan"}, "bike_id": "8e3529457720199fc782c03bcb1bede2"}, {"name": "ad2dcebf3c8bda26585de439782c31e2", "type": "electric_scooter", "fusion_lon": 0.0, "lon": -77.0135735, "is_disabled": 0, "lat": 38.9195005, "fusion_lat": 0.0, "is_reserved": 0, "rental_uris": {"android": "https://dc.lft.to/lastmile_qr_scan", "ios": "https://dc.lft.to/lastmile_qr_scan"}, "bike_id": "ad2dcebf3c8bda26585de439782c31e2"}, {"name": "53218aa4f01a421bd52132e17cca3b9d", "type": "electric_scooter", "fusion_lon": 0.0, "lon": -77.021238, "is_disabled": 0, "lat": 38.922762166666665, "fusion_lat": 0.0, "is_reserved": 0, "rental_uris": {"android": "https://dc.lft.to/lastmile_qr_scan", "ios": "https://dc.lft.to/lastmile_qr_scan"}, "bike_id": "53218aa4f01a421bd52132e17cca3b9d"}, {"name": "e4b7ac3431194a533e0728b3bbb92fb1", "type": "electric_scooter", "fusion_lon": 0.0, "lon": -77.00935383333334, "is_disabled": 0, "lat": 38.876035333333334, "fusion_lat": 0.0, "is_reserved": 0, "rental_uris": {"android": "https://dc.lft.to/lastmile_qr_scan", "ios": "https://dc.lft.to/lastmile_qr_scan"}, "bike_id": "e4b7ac3431194a533e0728b3bbb92fb1"}, {"name": "a8bee67737eee19784cf425ae8f0ba87", "type": "electric_scooter", "fusion_lon": 0.0, "lon": -77.03475433333334, "is_disabled": 0, "lat": 38.92657633333334, "fusion_lat": 0.0, "is_reserved": 0, "rental_uris": {"android": "https://dc.lft.to/lastmile_qr_scan", "ios": "https://dc.lft.to/lastmile_qr_scan"}, "bike_id": "a8bee67737eee19784cf425ae8f0ba87"}, {"name": "ed4729b88b972c01f05a56f79bbe1ed2", "type": "electric_scooter", "fusion_lon": 0.0, "lon": -77.06050783333333, "is_disabled": 0, "lat": 38.9391425, "fusion_lat": 0.0, "is_reserved": 0, "rental_uris": {"android": "https://dc.lft.to/lastmile_qr_scan", "ios": "https://dc.lft.to/lastmile_qr_scan"}, "bike_id": "ed4729b88b972c01f05a56f79bbe1ed2"}, {"name": "da03ce7ba276c33adc43552935a6e58c", "type": "electric_bike", "fusion_lon": 0.0, "lon": -77.1874785, "is_disabled": 0, "lat": 38.893594666666665, "fusion_lat": 0.0, "is_reserved": 0, "rental_uris": {"android": "https://dc.lft.to/lastmile_qr_scan", "ios": "https://dc.lft.to/lastmile_qr_scan"}, "bike_id": "da03ce7ba276c33adc43552935a6e58c"}, {"name": "f3aae1889512b4aace8b65eb263ce6ad", "type": "electric_scooter", "fusion_lon": 0.0, "lon": -77.01447133333333, "is_disabled": 0, "lat": 38.909647166666666, "fusion_lat": 0.0, "is_reserved": 0, "rental_uris": {"android": "https://dc.lft.to/lastmile_qr_scan", "ios": "https://dc.lft.to/lastmile_qr_scan"}, "bike_id": "f3aae1889512b4aace8b65eb263ce6ad"}, {"name": "ab3fe2e8f30590d1e2aecd7cce272cd7", "type": "electric_scooter", "fusion_lon": 0.0, "lon": -77.00542983333334, "is_disabled": 0, "lat": 38.92789966666667, "fusion_lat": 0.0, "is_reserved": 0, "rental_uris": {"android": "https://dc.lft.to/lastmile_qr_scan", "ios": "https://dc.lft.to/lastmile_qr_scan"}, "bike_id": "ab3fe2e8f30590d1e2aecd7cce272cd7"}, {"name": "137cc29bf61fce1e4c27bf71a3f24ed5", "type": "electric_bike", "fusion_lon": 0.0, "lon": -76.952771, "is_disabled": 0, "lat": 38.86247016666667, "fusion_lat": 0.0, "is_reserved": 0, "rental_uris": {"android": "https://dc.lft.to/lastmile_qr_scan", "ios": "https://dc.lft.to/lastmile_qr_scan"}, "bike_id": "137cc29bf61fce1e4c27bf71a3f24ed5"}, {"name": "4b9e851303f006848a3a35ff02b53fdd", "type": "electric_scooter", "fusion_lon": 0.0, "lon": -77.04477566666667, "is_disabled": 0, "lat": 38.91865716666667, "fusion_lat": 0.0, "is_reserved": 0, "rental_uris": {"android": "https://dc.lft.to/lastmile_qr_scan", "ios": "https://dc.lft.to/lastmile_qr_scan"}, "bike_id": "4b9e851303f006848a3a35ff02b53fdd"}, {"name": "2f5f307e02f2b2653a77289383f7a56c", "type": "electric_scooter", "fusion_lon": 0.0, "lon": -76.99006916666667, "is_disabled": 0, "lat": 38.8650715, "fusion_lat": 0.0, "is_reserved": 0, "rental_uris": {"android": "https://dc.lft.to/lastmile_qr_scan", "ios": "https://dc.lft.to/lastmile_qr_scan"}, "bike_id": "2f5f307e02f2b2653a77289383f7a56c"}, {"name": "119f5881662f1aa5f957f54f8e967782", "type": "electric_bike", "fusion_lon": 0.0, "lon": -77.00513266666667, "is_disabled": 0, "lat": 38.89684916666667, "fusion_lat": 0.0, "is_reserved": 0, "rental_uris": {"android": "https://dc.lft.to/lastmile_qr_scan", "ios": "https://dc.lft.to/lastmile_qr_scan"}, "bike_id": "119f5881662f1aa5f957f54f8e967782"}, {"name": "ac199a710ab554ebfe402a6e962a2709", "type": "electric_scooter", "fusion_lon": 0.0, "lon": -77.02814333333333, "is_disabled": 0, "lat": 38.91776316666667, "fusion_lat": 0.0, "is_reserved": 0, "rental_uris": {"android": "https://dc.lft.to/lastmile_qr_scan", "ios": "https://dc.lft.to/lastmile_qr_scan"}, "bike_id": "ac199a710ab554ebfe402a6e962a2709"}, {"name": "e6e3518dc1f47dd0fb263be847a65ce0", "type": "electric_scooter", "fusion_lon": 0.0, "lon": -77.03231483333333, "is_disabled": 0, "lat": 38.9259485, "fusion_lat": 0.0, "is_reserved": 0, "rental_uris": {"android": "https://dc.lft.to/lastmile_qr_scan", "ios": "https://dc.lft.to/lastmile_qr_scan"}, "bike_id": "e6e3518dc1f47dd0fb263be847a65ce0"}, {"name": "e8252cb23f5748c72992c6efe4156490", "type": "electric_scooter", "fusion_lon": 0.0, "lon": -77.0074345, "is_disabled": 0, "lat": 38.8983105, "fusion_lat": 0.0, "is_reserved": 0, "rental_uris": {"android": "https://dc.lft.to/lastmile_qr_scan", "ios": "https://dc.lft.to/lastmile_qr_scan"}, "bike_id": "e8252cb23f5748c72992c6efe4156490"}, {"name": "6d34a7d12a09cc5546e5aaa1abc24a31", "type": "electric_scooter", "fusion_lon": 0.0, "lon": -77.04116833333333, "is_disabled": 0, "lat": 38.93457766666667, "fusion_lat": 0.0, "is_reserved": 0, "rental_uris": {"android": "https://dc.lft.to/lastmile_qr_scan", "ios": "https://dc.lft.to/lastmile_qr_scan"}, "bike_id": "6d34a7d12a09cc5546e5aaa1abc24a31"}, {"name": "b095853b504672135c9837ba315ecbc9", "type": "electric_scooter", "fusion_lon": 0.0, "lon": -77.03326766666666, "is_disabled": 0, "lat": 38.913170666666666, "fusion_lat": 0.0, "is_reserved": 0, "rental_uris": {"android": "https://dc.lft.to/lastmile_qr_scan", "ios": "https://dc.lft.to/lastmile_qr_scan"}, "bike_id": "b095853b504672135c9837ba315ecbc9"}, {"name": "ed220d64ccf9e6be92931b699cf6cee5", "type": "electric_bike", "fusion_lon": 0.0, "lon": -77.00298783333334, "is_disabled": 0, "lat": 38.833750333333334, "fusion_lat": 0.0, "is_reserved": 0, "rental_uris": {"android": "https://dc.lft.to/lastmile_qr_scan", "ios": "https://dc.lft.to/lastmile_qr_scan"}, "bike_id": "ed220d64ccf9e6be92931b699cf6cee5"}, {"name": "d5c08133273c5acd183a835abfa9eba7", "type": "electric_scooter", "fusion_lon": 0.0, "lon": -77.0499985, "is_disabled": 0, "lat": 38.892326833333335, "fusion_lat": 0.0, "is_reserved": 0, "rental_uris": {"android": "https://dc.lft.to/lastmile_qr_scan", "ios": "https://dc.lft.to/lastmile_qr_scan"}, "bike_id": "d5c08133273c5acd183a835abfa9eba7"}, {"name": "8da40b12274eac24e6c22cda0067d01f", "type": "electric_scooter", "fusion_lon": 0.0, "lon": -77.03611233333334, "is_disabled": 0, "lat": 38.9316095, "fusion_lat": 0.0, "is_reserved": 0, "rental_uris": {"android": "https://dc.lft.to/lastmile_qr_scan", "ios": "https://dc.lft.to/lastmile_qr_scan"}, "bike_id": "8da40b12274eac24e6c22cda0067d01f"}, {"name": "d9c5c1f8f22235276e3c78f072016bd3", "type": "electric_scooter", "fusion_lon": 0.0, "lon": -77.03706933333333, "is_disabled": 0, "lat": 38.9263865, "fusion_lat": 0.0, "is_reserved": 0, "rental_uris": {"android": "https://dc.lft.to/lastmile_qr_scan", "ios": "https://dc.lft.to/lastmile_qr_scan"}, "bike_id": "d9c5c1f8f22235276e3c78f072016bd3"}, {"name": "ac0b0c17851449fbeadbf2549c779481", "type": "electric_scooter", "fusion_lon": 0.0, "lon": -77.02423916666666, "is_disabled": 0, "lat": 38.8969195, "fusion_lat": 0.0, "is_reserved": 0, "rental_uris": {"android": "https://dc.lft.to/lastmile_qr_scan", "ios": "https://dc.lft.to/lastmile_qr_scan"}, "bike_id": "ac0b0c17851449fbeadbf2549c779481"}, {"name": "8f5c64c9a8899c4a6d9911d3e4e2073b", "type": "electric_scooter", "fusion_lon": 0.0, "lon": -77.036331, "is_disabled": 0, "lat": 38.9096, "fusion_lat": 0.0, "is_reserved": 0, "rental_uris": {"android": "https://dc.lft.to/lastmile_qr_scan", "ios": "https://dc.lft.to/lastmile_qr_scan"}, "bike_id": "8f5c64c9a8899c4a6d9911d3e4e2073b"}, {"name": "4e49b2798549a22d716c9a23ed18faa4", "type": "electric_scooter", "fusion_lon": 0.0, "lon": -77.029496, "is_disabled": 0, "lat": 38.922555833333334, "fusion_lat": 0.0, "is_reserved": 0, "rental_uris": {"android": "https://dc.lft.to/lastmile_qr_scan", "ios": "https://dc.lft.to/lastmile_qr_scan"}, "bike_id": "4e49b2798549a22d716c9a23ed18faa4"}, {"name": "45a077d94dbae95e35c5e0f153656c42", "type": "electric_scooter", "fusion_lon": 0.0, "lon": -77.00300833333333, "is_disabled": 0, "lat": 38.8949195, "fusion_lat": 0.0, "is_reserved": 0, "rental_uris": {"android": "https://dc.lft.to/lastmile_qr_scan", "ios": "https://dc.lft.to/lastmile_qr_scan"}, "bike_id": "45a077d94dbae95e35c5e0f153656c42"}, {"name": "014d6e512cdabb4107c3945047b11a7a", "type": "electric_scooter", "fusion_lon": 0.0, "lon": -77.01818, "is_disabled": 0, "lat": 38.922167333333334, "fusion_lat": 0.0, "is_reserved": 0, "rental_uris": {"android": "https://dc.lft.to/lastmile_qr_scan", "ios": "https://dc.lft.to/lastmile_qr_scan"}, "bike_id": "014d6e512cdabb4107c3945047b11a7a"}, {"name": "f027ad7f55531016b830a54f611fef89", "type": "electric_bike", "fusion_lon": 0.0, "lon": -76.9739845, "is_disabled": 0, "lat": 38.8452825, "fusion_lat": 0.0, "is_reserved": 0, "rental_uris": {"android": "https://dc.lft.to/lastmile_qr_scan", "ios": "https://dc.lft.to/lastmile_qr_scan"}, "bike_id": "f027ad7f55531016b830a54f611fef89"}, {"name": "839ec9c6ebaa6ce8b2cbc0207be99aaf", "type": "electric_scooter", "fusion_lon": 0.0, "lon": -76.94652883333333, "is_disabled": 0, "lat": 38.89829916666667, "fusion_lat": 0.0, "is_reserved": 0, "rental_uris": {"android": "https://dc.lft.to/lastmile_qr_scan", "ios": "https://dc.lft.to/lastmile_qr_scan"}, "bike_id": "839ec9c6ebaa6ce8b2cbc0207be99aaf"}, {"name": "f8133eb829c6ec2afa3c77ce05f099fb", "type": "electric_scooter", "fusion_lon": 0.0, "lon": -77.07153916666667, "is_disabled": 0, "lat": 38.9087175, "fusion_lat": 0.0, "is_reserved": 0, "rental_uris": {"android": "https://dc.lft.to/lastmile_qr_scan", "ios": "https://dc.lft.to/lastmile_qr_scan"}, "bike_id": "f8133eb829c6ec2afa3c77ce05f099fb"}, {"name": "12d126af8b505f96115e4104595df243", "type": "electric_scooter", "fusion_lon": 0.0, "lon": -77.023716, "is_disabled": 0, "lat": 38.953070333333336, "fusion_lat": 0.0, "is_reserved": 0, "rental_uris": {"android": "https://dc.lft.to/lastmile_qr_scan", "ios": "https://dc.lft.to/lastmile_qr_scan"}, "bike_id": "12d126af8b505f96115e4104595df243"}, {"name": "d8ea1699bc56c24a66c490e1bab4d871", "type": "electric_bike", "fusion_lon": 0.0, "lon": -76.97214233333334, "is_disabled": 0, "lat": 38.900358833333335, "fusion_lat": 0.0, "is_reserved": 0, "rental_uris": {"android": "https://dc.lft.to/lastmile_qr_scan", "ios": "https://dc.lft.to/lastmile_qr_scan"}, "bike_id": "d8ea1699bc56c24a66c490e1bab4d871"}, {"name": "350f8a30d6528610cc8a03ee33002b82", "type": "electric_scooter", "fusion_lon": 0.0, "lon": -77.03188283333333, "is_disabled": 0, "lat": 38.910045833333335, "fusion_lat": 0.0, "is_reserved": 0, "rental_uris": {"android": "https://dc.lft.to/lastmile_qr_scan", "ios": "https://dc.lft.to/lastmile_qr_scan"}, "bike_id": "350f8a30d6528610cc8a03ee33002b82"}, {"name": "ae0e54f8fa030c390d298c054830d219", "type": "electric_scooter", "fusion_lon": 0.0, "lon": -77.04718833333334, "is_disabled": 0, "lat": 38.90188916666666, "fusion_lat": 0.0, "is_reserved": 0, "rental_uris": {"android": "https://dc.lft.to/lastmile_qr_scan", "ios": "https://dc.lft.to/lastmile_qr_scan"}, "bike_id": "ae0e54f8fa030c390d298c054830d219"},