{"data": {"bikes": [{"is_disabled": 0, "fusion_lon": 0.0, "fusion_lat": 0.0, "lat": 38.918988166666665, "type": "electric_scooter", "lon": -77.0246545, "bike_id": "1c589e289ed84092e9b5a0a4083391ff", "rental_uris": {"android": "https://dc.lft.to/lastmile_qr_scan", "ios": "https://dc.lft.to/lastmile_qr_scan"}, "name": "1c589e289ed84092e9b5a0a4083391ff", "is_reserved": 0}, {"is_disabled": 0, "fusion_lon": 0.0, "fusion_lat": 0.0, "lat": 38.9056625, "type": "electric_scooter", "lon": -77.00554133333333, "bike_id": "0875df9234c3ec1d2a4bb87c0027839d", "rental_uris": {"android": "https://dc.lft.to/lastmile_qr_scan", "ios": "https://dc.lft.to/lastmile_qr_scan"}, "name": "0875df9234c3ec1d2a4bb87c0027839d", "is_reserved": 0}, {"is_disabled": 0, "fusion_lon": 0.0, "fusion_lat": 0.0, "lat": 38.935274, "type": "electric_scooter", "lon": -77.0249355, "bike_id": "d8d9e2a5cae92836b35ec8d7da82684c", "rental_uris": {"android": "https://dc.lft.to/lastmile_qr_scan", "ios": "https://dc.lft.to/lastmile_qr_scan"}, "name": "d8d9e2a5cae92836b35ec8d7da82684c", "is_reserved": 0}, {"is_disabled": 0, "fusion_lon": 0.0, "fusion_lat": 0.0, "lat": 38.84289583333333, "type": "electric_scooter", "lon": -76.99945466666667, "bike_id": "7a32b21dc720c5da1737215c87ee4e4a", "rental_uris": {"android": "https://dc.lft.to/lastmile_qr_scan", "ios": "https://dc.lft.to/lastmile_qr_scan"}, "name": "7a32b21dc720c5da1737215c87ee4e4a", "is_reserved": 0}, {"is_disabled": 0, "fusion_lon": 0.0, "fusion_lat": 0.0, "lat": 38.8870325, "type": "electric_scooter", "lon": -76.953569, "bike_id": "28f0a153048278a2b2c6cb76ae4fc3bd", "rental_uris": {"android": "https://dc.lft.to/lastmile_qr_scan", "ios": "https://dc.lft.to/lastmile_qr_scan"}, "name": "28f0a153048278a2b2c6cb76ae4fc3bd", "is_reserved": 0}, {"is_disabled": 0, "fusion_lon": 0.0, "fusion_lat": 0.0, "lat": 38.908321666666666, "type": "electric_scooter", "lon": -76.99697133333333, "bike_id": "f53b0e72e2c34b1ae40fe7214fdc3141", "rental_uris": {"android": "https://dc.lft.to/lastmile_qr_scan", "ios": "https://dc.lft.to/lastmile_qr_scan"}, "name": "f53b0e72e2c34b1ae40fe7214fdc3141", "is_reserved": 0}, {"is_disabled": 0, "fusion_lon": 0.0, "fusion_lat": 0.0, "lat": 38.914757, "type": "electric_scooter", "lon": -76.98449183333334, "bike_id": "ae7a59cf571fc057b28950c94afca153", "rental_uris": {"android": "https://dc.lft.to/lastmile_qr_scan", "ios": "https://dc.lft.to/lastmile_qr_scan"}, "name": "ae7a59cf571fc057b28950c94afca153", "is_reserved": 0}, {"is_disabled": 0, "fusion_lon": 0.0, "fusion_lat": 0.0, "lat": 38.92103866666667, "type": "electric_scooter", "lon": -77.01761933333333, "bike_id": "ec9e7c5b3c62047f3839a6c718597187", "rental_uris": {"android": "https://dc.lft.to/lastmile_qr_scan", "ios": "https://dc.lft.to/lastmile_qr_scan"}, "name": "ec9e7c5b3c62047f3839a6c718597187", "is_reserved": 0}, {"is_disabled": 0, "fusion_lon": 0.0, "fusion_lat": 0.0, "lat": 38.895218666666665, "type": "electric_scooter", "lon": -77.04852283333334, "bike_id": "48b8b4230a6bd2d90624cf65abd7ca06", "rental_uris": {"android": "https://dc.lft.to/lastmile_qr_scan", "ios": "https://dc.lft.to/lastmile_qr_scan"}, "name": "48b8b4230a6bd2d90624cf65abd7ca06", "is_reserved": 0}, {"is_disabled": 0, "fusion_lon": 0.0, "fusion_lat": 0.0, "lat": 38.93962033333333, "type": "electric_bike", "lon": -77.36088116666667, "bike_id": "0856831c09915b80092da305c00fca59", "rental_uris": {"android": "https://dc.lft.to/lastmile_qr_scan", "ios": "https://dc.lft.to/lastmile_qr_scan"}, "name": "0856831c09915b80092da305c00fca59", "is_reserved": 0}, {"is_disabled": 0, "fusion_lon": 0.0, "fusion_lat": 0.0, "lat": 38.905781833333336, "type": "electric_scooter", "lon": -77.055904, "bike_id": "00b44695f3069676fa025c7c0f15a702", "rental_uris": {"android": "https://dc.lft.to/lastmile_qr_scan", "ios": "https://dc.lft.to/lastmile_qr_scan"}, "name": "00b44695f3069676fa025c7c0f15a702", "is_reserved": 0}, {"is_disabled": 0, "fusion_lon": 0.0, "fusion_lat": 0.0, "lat": 38.9297335, "type": "electric_scooter", "lon": -77.02795083333334, "bike_id": "3ebae718d15b92eff3580f2b321e7da0", "rental_uris": {"android": "https://dc.lft.to/lastmile_qr_scan", "ios": "https://dc.lft.to/lastmile_qr_scan"}, "name": "3ebae718d15b92eff3580f2b321e7da0", "is_reserved": 0}, {"is_disabled": 0, "fusion_lon": 0.0, "fusion_lat": 0.0, "lat": 38.905377666666666, "type": "electric_scooter", "lon": -77.05002816666666, "bike_id": "b6a1f903375f213d1c052b64d629e36b", "rental_uris": {"android": "https://dc.lft.to/lastmile_qr_scan", "ios": "https://dc.lft.to/lastmile_qr_scan"}, "name": "b6a1f903375f213d1c052b64d629e36b", "is_reserved": 0}, {"is_disabled": 0, "fusion_lon": 0.0, "fusion_lat": 0.0, "lat": 38.940726, "type": "electric_scooter", "lon": -77.02901283333334, "bike_id": "2a90afb76a9564f1835975ac997358c8", "rental_uris": {"android": "https://dc.lft.to/lastmile_qr_scan", "ios": "https://dc.lft.to/lastmile_qr_scan"}, "name": "2a90afb76a9564f1835975ac997358c8", "is_reserved": 0}, {"is_disabled": 0, "fusion_lon": 0.0, "fusion_lat": 0.0, "lat": 38.924571, "type": "electric_scooter", "lon": -77.0786235, "bike_id": "4e29e57b804a01c7659be06fcef9cf16", "rental_uris": {"android": "https://dc.lft.to/lastmile_qr_scan", "ios": "https://dc.lft.to/lastmile_qr_scan"}, "name": "4e29e57b804a01c7659be06fcef9cf16", "is_reserved": 0}, {"is_disabled": 0, "fusion_lon": 0.0, "fusion_lat": 0.0, "lat": 38.92574, "type": "electric_scooter", "lon": -77.08054116666666, "bike_id": "d00477dec8b76e72186445a8bc091de4", "rental_uris": {"android": "https://dc.lft.to/lastmile_qr_scan", "ios": "https://dc.lft.to/lastmile_qr_scan"}, "name": "d00477dec8b76e72186445a8bc091de4", "is_reserved": 0}, {"is_disabled": 0, "fusion_lon": 0.0, "fusion_lat": 0.0, "lat": 38.8994045, "type": "electric_scooter", "lon": -77.03916666666667, "bike_id": "b9ce353d1748f0d55a56d3b2efe84c63", "rental_uris": {"android": "https://dc.lft.to/lastmile_qr_scan", "ios": "https://dc.lft.to/lastmile_qr_scan"}, "name": "b9ce353d1748f0d55a56d3b2efe84c63", "is_reserved": 0}, {"is_disabled": 0, "fusion_lon": 0.0, "fusion_lat": 0.0, "lat": 38.87757966666667, "type": "electric_bike", "lon": -76.97989916666667, "bike_id": "45cbfe95743c71d4fd5657fa2d843508", "rental_uris": {"android": "https://dc.lft.to/lastmile_qr_scan", "ios": "https://dc.lft.to/lastmile_qr_scan"}, "name": "45cbfe95743c71d4fd5657fa2d843508", "is_reserved": 0}, {"is_disabled": 0, "fusion_lon": 0.0, "fusion_lat": 0.0, "lat": 38.91012333333333, "type": "electric_scooter", "lon": -77.03837466666667, "bike_id": "53e78894e20641801b982b3c43569518", "rental_uris": {"android": "https://dc.lft.to/lastmile_qr_scan", "ios": "https://dc.lft.to/lastmile_qr_scan"}, "name": "53e78894e20641801b982b3c43569518", "is_reserved": 0}, {"is_disabled": 0, "fusion_lon": 0.0, "fusion_lat": 0.0, "lat": 38.956306833333336, "type": "electric_scooter", "lon": -77.0245445, "bike_id": "6bfc7fe75128025a8520b97075ce4eb8", "rental_uris": {"android": "https://dc.lft.to/lastmile_qr_scan", "ios": "https://dc.lft.to/lastmile_qr_scan"}, "name": "6bfc7fe75128025a8520b97075ce4eb8", "is_reserved": 0}, {"is_disabled": 0, "fusion_lon": 0.0, "fusion_lat": 0.0, "lat": 38.92034833333334, "type": "electric_scooter", "lon": -77.02581633333334, "bike_id": "60300e0f786be996788c20ca29848a59", "rental_uris": {"android": "https://dc.lft.to/lastmile_qr_scan", "ios": "https://dc.lft.to/lastmile_qr_scan"}, "name": "60300e0f786be996788c20ca29848a59", "is_reserved": 0}, {"is_disabled": 0, "fusion_lon": 0.0, "fusion_lat": 0.0, "lat": 38.90363116666666, "type": "electric_scooter", "lon": -77.0072845, "bike_id": "6346ecc98a8e3c47a3ef3ea46492627e", "rental_uris": {"android": "https://dc.lft.to/lastmile_qr_scan", "ios": "https://dc.lft.to/lastmile_qr_scan"}, "name": "6346ecc98a8e3c47a3ef3ea46492627e", "is_reserved": 0}, {"is_disabled": 0, "fusion_lon": 0.0, "fusion_lat": 0.0, "lat": 38.916035666666666, "type": "electric_scooter", "lon": -77.02346533333333, "bike_id": "d2ec567c0198b16a4259c48d7a825cdd", "rental_uris": {"android": "https://dc.lft.to/lastmile_qr_scan", "ios": "https://dc.lft.to/lastmile_qr_scan"}, "name": "d2ec567c0198b16a4259c48d7a825cdd", "is_reserved": 0}, {"is_disabled": 0, "fusion_lon": 0.0, "fusion_lat": 0.0, "lat": 38.924416, "type": "electric_scooter", "lon": -77.04022433333333, "bike_id": "6479bbfedf34ce35bb426d9b4abc9056", "rental_uris": {"android": "https://dc.lft.to/lastmile_qr_scan", "ios": "https://dc.lft.to/lastmile_qr_scan"}, "name": "6479bbfedf34ce35bb426d9b4abc9056", "is_reserved": 0}, {"is_disabled": 0, "fusion_lon": 0.0, "fusion_lat": 0.0, "lat": 38.9163035, "type": "electric_scooter", "lon": -77.04625083333333, "bike_id": "ea371ca8b24b90fe3474403284a60e9d", "rental_uris": {"android": "https://dc.lft.to/lastmile_qr_scan", "ios": "https://dc.lft.to/lastmile_qr_scan"}, "name": "ea371ca8b24b90fe3474403284a60e9d", "is_reserved": 0}, {"is_disabled": 0, "fusion_lon": 0.0, "fusion_lat": 0.0, "lat": 38.93043183333333, "type": "electric_scooter", "lon": -77.03616366666667, "bike_id": "4b7d5a2abe1012aa4f400dd38b15b4af", "rental_uris": {"android": "https://dc.lft.to/lastmile_qr_scan", "ios": "https://dc.lft.to/lastmile_qr_scan"}, "name": "4b7d5a2abe1012aa4f400dd38b15b4af", "is_reserved": 0}, {"is_disabled": 0, "fusion_lon": 0.0, "fusion_lat": 0.0, "lat": 38.902589, "type": "electric_scooter", "lon": -77.0342965, "bike_id": "36ac7997a35e94f9cc021bcca1181301", "rental_uris": {"android": "https://dc.lft.to/lastmile_qr_scan", "ios": "https://dc.lft.to/lastmile_qr_scan"}, "name": "36ac7997a35e94f9cc021bcca1181301", "is_reserved": 0}, {"is_disabled": 0, "fusion_lon": 0.0, "fusion_lat": 0.0, "lat": 38.97540866666667, "type": "electric_bike", "lon": -76.99529333333334, "bike_id": "968484aaa0e6e6682ff2b8ca7179f0ee", "rental_uris": {"android": "https://dc.lft.to/lastmile_qr_scan", "ios": "https://dc.lft.to/lastmile_qr_scan"}, "name": "968484aaa0e6e6682ff2b8ca7179f0ee", "is_reserved": 0}, {"is_disabled": 0, "fusion_lon": 0.0, "fusion_lat": 0.0, "lat": 38.92458283333333, "type": "electric_scooter", "lon": -77.0296305, "bike_id": "259b06055d0e6c451dbc51ecc757e1b8", "rental_uris": {"android": "https://dc.lft.to/lastmile_qr_scan", "ios": "https://dc.lft.to/lastmile_qr_scan"}, "name": "259b06055d0e6c451dbc51ecc757e1b8", "is_reserved": 0}, {"is_disabled": 0, "fusion_lon": 0.0, "fusion_lat": 0.0, "lat": 38.8691015, "type": "electric_bike", "lon": -77.13181066666667, "bike_id": "5799cd0c9d25c0c23c1cb8073cba6314", "rental_uris": {"android": "https://dc.lft.to/lastmile_qr_scan", "ios": "https://dc.lft.to/lastmile_qr_scan"}, "name": "5799cd0c9d25c0c23c1cb8073cba6314", "is_reserved": 0}, {"is_disabled": 0, "fusion_lon": 0.0, "fusion_lat": 0.0, "lat": 38.93581833333333, "type": "electric_bike", "lon": -77.08259083333333, "bike_id": "cc27e359ed3828f395e7df8e47a5025b", "rental_uris": {"android": "https://dc.lft.to/lastmile_qr_scan", "ios": "https://dc.lft.to/lastmile_qr_scan"}, "name": "cc27e359ed3828f395e7df8e47a5025b", "is_reserved": 0}, {"is_disabled": 0, "fusion_lon": 0.0, "fusion_lat": 0.0, "lat": 38.919884833333334, "type": "electric_bike", "lon": -76.97308216666667, "bike_id": "7f9e5e31463be36012c3042cb5db5ca4", "rental_uris": {"android": "https://dc.lft.to/lastmile_qr_scan", "ios": "https://dc.lft.to/lastmile_qr_scan"}, "name": "7f9e5e31463be36012c3042cb5db5ca4", "is_reserved": 0}, {"is_disabled": 0, "fusion_lon": 0.0, "fusion_lat": 0.0, "lat": 38.923304, "type": "electric_scooter", "lon": -77.04320883333334, "bike_id": "2acea63e24466634201b71307c50bf8c", "rental_uris": {"android": "https://dc.lft.to/lastmile_qr_scan", "ios": "https://dc.lft.to/lastmile_qr_scan"}, "name": "2acea63e24466634201b71307c50bf8c", "is_reserved": 0}, {"is_disabled": 0, "fusion_lon": 0.0, "fusion_lat": 0.0, "lat": 38.918550833333335, "type": "electric_scooter", "lon": -77.03217566666666, "bike_id": "9740f50147e3f39efcb8b76e26c40173", "rental_uris": {"android": "https://dc.lft.to/lastmile_qr_scan", "ios": "https://dc.lft.to/lastmile_qr_scan"}, "name": "9740f50147e3f39efcb8b76e26c40173", "is_reserved": 0}, {"is_disabled": 0, "fusion_lon": 0.0, "fusion_lat": 0.0, "lat": 38.92303783333333, "type": "electric_bike", "lon": -76.99777033333334, "bike_id": "0a8d4472ca85480dca6c79cb5f05b191", "rental_uris": {"android": "https://dc.lft.to/lastmile_qr_scan", "ios": "https://dc.lft.to/lastmile_qr_scan"}, "name": "0a8d4472ca85480dca6c79cb5f05b191", "is_reserved": 0}, {"is_disabled": 0, "fusion_lon": 0.0, "fusion_lat": 0.0, "lat": 38.900265833333336, "type": "electric_scooter", "lon": -76.99117416666667, "bike_id": "e56bafb01269258852137606c06ac7a6", "rental_uris": {"android": "https://dc.lft.to/lastmile_qr_scan", "ios": "https://dc.lft.to/lastmile_qr_scan"}, "name": "e56bafb01269258852137606c06ac7a6", "is_reserved": 0}, {"is_disabled": 0, "fusion_lon": 0.0, "fusion_lat": 0.0, "lat": 38.910264166666664, "type": "electric_scooter", "lon": -77.00760783333334, "bike_id": "3cf2b8fad8889e76e66bba87847d5b8d", "rental_uris": {"android": "https://dc.lft.to/lastmile_qr_scan", "ios": "https://dc.lft.to/lastmile_qr_scan"}, "name": "3cf2b8fad8889e76e66bba87847d5b8d", "is_reserved": 0}, {"is_disabled": 0, "fusion_lon": 0.0, "fusion_lat": 0.0, "lat": 38.915858666666665, "type": "electric_bike", "lon": -76.971475, "bike_id": "6ec04da4e827b552e3fcb0a80fddffd3", "rental_uris": {"android": "https://dc.lft.to/lastmile_qr_scan", "ios": "https://dc.lft.to/lastmile_qr_scan"}, "name": "6ec04da4e827b552e3fcb0a80fddffd3", "is_reserved": 0}, {"is_disabled": 0, "fusion_lon": 0.0, "fusion_lat": 0.0, "lat": 38.91345883333334, "type": "electric_scooter", "lon": -77.012175, "bike_id": "c1fc26a595ea328a388248cf0cd39dd6", "rental_uris": {"android": "https://dc.lft.to/lastmile_qr_scan", "ios": "https://dc.lft.to/lastmile_qr_scan"}, "name": "c1fc26a595ea328a388248cf0cd39dd6", "is_reserved": 0}, {"is_disabled": 0, "fusion_lon": 0.0, "fusion_lat": 0.0, "lat": 38.89933533333333, "type": "electric_scooter", "lon": -77.0295945, "bike_id": "a0fd5765ca16aabf9dfb37cea684a5ba", "rental_uris": {"android": "https://dc.lft.to/lastmile_qr_scan", "ios": "https://dc.lft.to/lastmile_qr_scan"}, "name": "a0fd5765ca16aabf9dfb37cea684a5ba", "is_reserved": 0}, {"is_disabled": 0, "fusion_lon": 0.0, "fusion_lat": 0.0, "lat": 38.895694, "type": "electric_scooter", "lon": -77.02320083333333, "bike_id": "b41ab12a0313396d521c596fd8d65a2a", "rental_uris": {"android": "https://dc.lft.to/lastmile_qr_scan", "ios": "https://dc.lft.to/lastmile_qr_scan"}, "name": "b41ab12a0313396d521c596fd8d65a2a", "is_reserved": 0}, {"is_disabled": 0, "fusion_lon": 0.0, "fusion_lat": 0.0, "lat": 38.93002366666666, "type": "electric_scooter", "lon": -77.02204583333334, "bike_id": "fb47742e64b39ace60b58e6cb26e6f87", "rental_uris": {"android": "https://dc.lft.to/lastmile_qr_scan", "ios": "https://dc.lft.to/lastmile_qr_scan"}, "name": "fb47742e64b39ace60b58e6cb26e6f87", "is_reserved": 0}, {"is_disabled": 0, "fusion_lon": 0.0, "fusion_lat": 0.0, "lat": 38.899916833333336, "type": "electric_scooter", "lon": -77.02920166666667, "bike_id": "4620af9bd90e68bb559472b1dc4a2a72", "rental_uris": {"android": "https://dc.lft.to/lastmile_qr_scan", "ios": "https://dc.lft.to/lastmile_qr_scan"}, "name": "4620af9bd90e68bb559472b1dc4a2a72", "is_reserved": 0}, {"is_disabled": 0, "fusion_lon": 0.0, "fusion_lat": 0.0, "lat": 38.9097405, "type": "electric_scooter", "lon": -77.03272583333333, "bike_id": "9c82b3b7eba60e570bd718d5ffbad3e3", "rental_uris": {"android": "https://dc.lft.to/lastmile_qr_scan", "ios": "https://dc.lft.to/lastmile_qr_scan"}, "name": "9c82b3b7eba60e570bd718d5ffbad3e3", "is_reserved": 0}, {"is_disabled": 0, "fusion_lon": 0.0, "fusion_lat": 0.0, "lat": 38.941806166666666, "type": "electric_scooter", "lon": -77.02386666666666, "bike_id": "5718149d4a798cf190266a96bbdabb09", "rental_uris": {"android": "https://dc.lft.to/lastmile_qr_scan", "ios": "https://dc.lft.to/lastmile_qr_scan"}, "name": "5718149d4a798cf190266a96bbdabb09", "is_reserved": 0}, {"is_disabled": 0, "fusion_lon": 0.0, "fusion_lat": 0.0, "lat": 38.8883305, "type": "electric_scooter", "lon": -77.04907083333333, "bike_id": "eb15310f385191b30036e94a1615f20a", "rental_uris": {"android": "https://dc.lft.to/lastmile_qr_scan", "ios": "https://dc.lft.to/lastmile_qr_scan"}, "name": "eb15310f385191b30036e94a1615f20a", "is_reserved": 0}, {"is_disabled": 0, "fusion_lon": 0.0, "fusion_lat": 0.0, "lat": 38.92882566666667, "type": "electric_scooter", "lon": -77.027092, "bike_id": "e8bbcfdd6e74decf6169f1461467be65", "rental_uris": {"android": "https://dc.lft.to/lastmile_qr_scan", "ios": "https://dc.lft.to/lastmile_qr_scan"}, "name": "e8bbcfdd6e74decf6169f1461467be65", "is_reserved": 0}, {"is_disabled": 0, "fusion_lon": 0.0, "fusion_lat": 0.0, "lat": 38.923329, "type": "electric_scooter", "lon": -77.05676833333334, "bike_id": "2022cf825c65d69b50eeb4d776c328ed", "rental_uris": {"android": "https://dc.lft.to/lastmile_qr_scan", "ios": "https://dc.lft.to/lastmile_qr_scan"}, "name": "2022cf825c65d69b50eeb4d776c328ed", "is_reserved": 0}, {"is_disabled": 0, "fusion_lon": 0.0, "fusion_lat": 0.0, "lat": 38.920488, "type": "electric_scooter", "lon": -77.033905, "bike_id": "548cb777d4acc39096c78dd66e0cd0fb", "rental_uris": {"android": "https://dc.lft.to/lastmile_qr_scan", "ios": "https://dc.lft.to/lastmile_qr_scan"}, "name": "548cb777d4acc39096c78dd66e0cd0fb", "is_reserved": 0}, {"is_disabled": 0, "fusion_lon": 0.0, "fusion_lat": 0.0, "lat": 38.921482833333336, "type": "electric_scooter", "lon": -77.04349566666667, "bike_id": "a60695780f850dd91fa04633aff6fca0", "rental_uris": {"android": "https://dc.lft.to/lastmile_qr_scan", "ios": "https://dc.lft.to/lastmile_qr_scan"}, "name": "a60695780f850dd91fa04633aff6fca0", "is_reserved": 0}, {"is_disabled": 0, "fusion_lon": 0.0, "fusion_lat": 0.0, "lat": 38.90035966666667, "type": "electric_scooter", "lon": -77.01227616666667, "bike_id": "a9fb917f86ab1a6a8c734638cc7ae309", "rental_uris": {"android": "https://dc.lft.to/lastmile_qr_scan", "ios": "https://dc.lft.to/lastmile_qr_scan"}, "name": "a9fb917f86ab1a6a8c734638cc7ae309", "is_reserved": 0}, {"is_disabled": 0, "fusion_lon": 0.0, "fusion_lat": 0.0, "lat": 38.83375616666667, "type": "electric_scooter", "lon": -76.99314566666666, "bike_id": "f4d0d5381a79f2d824a04d02f217c989", "rental_uris": {"android": "https://dc.lft.to/lastmile_qr_scan", "ios": "https://dc.lft.to/lastmile_qr_scan"}, "name": "f4d0d5381a79f2d824a04d02f217c989", "is_reserved": 0}, {"is_disabled": 0, "fusion_lon": 0.0, "fusion_lat": 0.0, "lat": 38.92149583333333, "type": "electric_scooter", "lon": -77.03515766666666, "bike_id": "31de127409d9a704015b05713ba81304", "rental_uris": {"android": "https://dc.lft.to/lastmile_qr_scan", "ios": "https://dc.lft.to/lastmile_qr_scan"}, "name": "31de127409d9a704015b05713ba81304", "is_reserved": 0}, {"is_disabled": 0, "fusion_lon": 0.0, "fusion_lat": 0.0, "lat": 38.9191015, "type": "electric_scooter", "lon": -77.01754616666666, "bike_id": "30f02ffb7d29d3cd7a4c4830dbdd707f", "rental_uris": {"android": "https://dc.lft.to/lastmile_qr_scan", "ios": "https://dc.lft.to/lastmile_qr_scan"}, "name": "30f02ffb7d29d3cd7a4c4830dbdd707f", "is_reserved": 0}, {"is_disabled": 0, "fusion_lon": 0.0, "fusion_lat": 0.0, "lat": 38.899995833333335, "type": "electric_scooter", "lon": -77.00669, "bike_id": "1e97b559aa43676764321235b74b9698", "rental_uris": {"android": "https://dc.lft.to/lastmile_qr_scan", "ios": "https://dc.lft.to/lastmile_qr_scan"}, "name": "1e97b559aa43676764321235b74b9698", "is_reserved": 0}, {"is_disabled": 0, "fusion_lon": 0.0, "fusion_lat": 0.0, "lat": 38.901532333333336, "type": "electric_scooter", "lon": -77.05919, "bike_id": "696721a300d45e2c84c6e9d32c897615", "rental_uris": {"android": "https://dc.lft.to/lastmile_qr_scan", "ios": "https://dc.lft.to/lastmile_qr_scan"}, "name": "696721a300d45e2c84c6e9d32c897615", "is_reserved": 0}, {"is_disabled": 0, "fusion_lon": 0.0, "fusion_lat": 0.0, "lat": 38.84886483333333, "type": "electric_scooter", "lon": -77.00520616666667, "bike_id": "87cba944cf21c55ca86ecda7cd9a7182", "rental_uris": {"android": "https://dc.lft.to/lastmile_qr_scan", "ios": "https://dc.lft.to/lastmile_qr_scan"}, "name": "87cba944cf21c55ca86ecda7cd9a7182", "is_reserved": 0}, {"is_disabled": 0, "fusion_lon": 0.0, "fusion_lat": 0.0, "lat": 38.877758, "type": "electric_scooter", "lon": -77.01436766666667, "bike_id": "c71244faaef7da7ca634b8ed589c8095", "rental_uris": {"android": "https://dc.lft.to/lastmile_qr_scan", "ios": "https://dc.lft.to/lastmile_qr_scan"}, "name": "c71244faaef7da7ca634b8ed589c8095", "is_reserved": 0}, {"is_disabled": 0, "fusion_lon": 0.0, "fusion_lat": 0.0, "lat": 38.90047883333333, "type": "electric_scooter", "lon": -77.00761966666667, "bike_id": "8de8dd9433390a535a71ce9aa9761f28", "rental_uris": {"android": "https://dc.lft.to/lastmile_qr_scan", "ios": "https://dc.lft.to/lastmile_qr_scan"}, "name": "8de8dd9433390a535a71ce9aa9761f28", "is_reserved": 0}, {"is_disabled": 0, "fusion_lon": 0.0, "fusion_lat": 0.0, "lat": 38.93703383333333, "type": "electric_scooter", "lon": -77.06099233333333, "bike_id": "8860d55dbc613bc16330a446efb2a376", "rental_uris": {"android": "https://dc.lft.to/lastmile_qr_scan", "ios": "https://dc.lft.to/lastmile_qr_scan"}, "name": "8860d55dbc613bc16330a446efb2a376", "is_reserved": 0}, {"is_disabled": 0, "fusion_lon": 0.0, "fusion_lat": 0.0, "lat": 38.981331833333336, "type": "electric_bike", "lon": -77.00760516666666, "bike_id": "6395b0606b00e006278afba5e04df6a7", "rental_uris": {"android": "https://dc.lft.to/lastmile_qr_scan", "ios": "https://dc.lft.to/lastmile_qr_scan"}, "name": "6395b0606b00e006278afba5e04df6a7", "is_reserved": 0}, {"is_disabled": 0, "fusion_lon": 0.0, "fusion_lat": 0.0, "lat": 38.905868166666664, "type": "electric_scooter", "lon": -77.05123616666667, "bike_id": "b1eb0328c608df1050f5d1e8c6a58004", "rental_uris": {"android": "https://dc.lft.to/lastmile_qr_scan", "ios": "https://dc.lft.to/lastmile_qr_scan"}, "name": "b1eb0328c608df1050f5d1e8c6a58004", "is_reserved": 0}, {"is_disabled": 0, "fusion_lon": 0.0, "fusion_lat": 0.0, "lat": 38.906222, "type": "electric_scooter", "lon": -77.02402466666666, "bike_id": "8c4c3f66f72b3a14488fe681e4bd7ee6", "rental_uris": {"android": "https://dc.lft.to/lastmile_qr_scan", "ios": "https://dc.lft.to/lastmile_qr_scan"}, "name": "8c4c3f66f72b3a14488fe681e4bd7ee6", "is_reserved": 0}, {"is_disabled": 0, "fusion_lon": 0.0, "fusion_lat": 0.0, "lat": 38.86351916666667, "type": "electric_scooter", "lon": -76.9906495, "bike_id": "08e864b7013f652d102771b6ded1fce4", "rental_uris": {"android": "https://dc.lft.to/lastmile_qr_scan", "ios": "https://dc.lft.to/lastmile_qr_scan"}, "name": "08e864b7013f652d102771b6ded1fce4", "is_reserved": 0}, {"is_disabled": 0, "fusion_lon": 0.0, "fusion_lat": 0.0, "lat": 38.912679833333335, "type": "electric_scooter", "lon": -77.02206633333333, "bike_id": "3f357171f4272d0241096b4b105039a0", "rental_uris": {"android": "https://dc.lft.to/lastmile_qr_scan", "ios": "https://dc.lft.to/lastmile_qr_scan"}, "name": "3f357171f4272d0241096b4b105039a0", "is_reserved": 0}, {"is_disabled": 0, "fusion_lon": 0.0, "fusion_lat": 0.0, "lat": 38.90138666666667, "type": "electric_scooter", "lon": -77.04182016666667, "bike_id": "31bc039ff1bbc071b1b94d7dd2d1cdcc", "rental_uris": {"android": "https://dc.lft.to/lastmile_qr_scan", "ios": "https://dc.lft.to/lastmile_qr_scan"}, "name": "31bc039ff1bbc071b1b94d7dd2d1cdcc", "is_reserved": 0}, {"is_disabled": 0, "fusion_lon": 0.0, "fusion_lat": 0.0, "lat": 38.90684533333334, "type": "electric_scooter", "lon": -77.03116466666667, "bike_id": "8ba081da10349dbb40a15910cbcdc14f", "rental_uris": {"android": "https://dc.lft.to/lastmile_qr_scan", "ios": "https://dc.lft.to/lastmile_qr_scan"}, "name": "8ba081da10349dbb40a15910cbcdc14f", "is_reserved": 0}, {"is_disabled": 0, "fusion_lon": 0.0, "fusion_lat": 0.0, "lat": 38.90300716666667, "type": "electric_scooter", "lon": -77.02249133333333, "bike_id": "6b2be2692562d27fc86eedc60f1a77ed", "rental_uris": {"android": "https://dc.lft.to/lastmile_qr_scan", "ios": "https://dc.lft.to/lastmile_qr_scan"}, "name": "6b2be2692562d27fc86eedc60f1a77ed", "is_reserved": 0}, {"is_disabled": 0, "fusion_lon": 0.0, "fusion_lat": 0.0, "lat": 38.945189, "type": "electric_scooter", "lon": -77.02984733333334, "bike_id": "83e6cf513c4518c79373e8be8b34379b", "rental_uris": {"android": "https://dc.lft.to/lastmile_qr_scan", "ios": "https://dc.lft.to/lastmile_qr_scan"}, "name": "83e6cf513c4518c79373e8be8b34379b", "is_reserved": 0}, {"is_disabled": 0, "fusion_lon": 0.0, "fusion_lat": 0.0, "lat": 38.91694533333333, "type": "electric_scooter", "lon": -77.02989816666667, "bike_id": "f821565b6be46e9a8d4dabe9d113021a", "rental_uris": {"android": "https://dc.lft.to/lastmile_qr_scan", "ios": "https://dc.lft.to/lastmile_qr_scan"}, "name": "f821565b6be46e9a8d4dabe9d113021a", "is_reserved": 0}, {"is_disabled": 0, "fusion_lon": 0.0, "fusion_lat": 0.0, "lat": 38.905949, "type": "electric_scooter", "lon": -77.06371833333333, "bike_id": "a00ae078456da83ece0c15f5fe2f2794", "rental_uris": {"android": "https://dc.lft.to/lastmile_qr_scan", "ios": "https://dc.lft.to/lastmile_qr_scan"}, "name": "a00ae078456da83ece0c15f5fe2f2794", "is_reserved": 0}, {"is_disabled": 0, "fusion_lon": 0.0, "fusion_lat": 0.0, "lat": 38.883770166666665, "type": "electric_scooter", "lon": -76.923731, "bike_id": "c10e39cfbc6d5d0fead59e1c2a4c4533", "rental_uris": {"android": "https://dc.lft.to/lastmile_qr_scan", "ios": "https://dc.lft.to/lastmile_qr_scan"}, "name": "c10e39cfbc6d5d0fead59e1c2a4c4533", "is_reserved": 0}, {"is_disabled": 0, "fusion_lon": 0.0, "fusion_lat": 0.0, "lat": 38.91809516666667, "type": "electric_scooter", "lon": -77.0343665, "bike_id": "3424b54b2e6af783d674897290398ed1", "rental_uris": {"android": "https://dc.lft.to/lastmile_qr_scan", "ios": "https://dc.lft.to/lastmile_qr_scan"}, "name": "3424b54b2e6af783d674897290398ed1", "is_reserved": 0}, {"is_disabled": 0, "fusion_lon": 0.0, "fusion_lat": 0.0, "lat": 38.919700166666665, "type": "electric_scooter", "lon": -77.04175733333334, "bike_id": "0b796ec4d04b75ccb7fb3db6bc8088b5", "rental_uris": {"android": "https://dc.lft.to/lastmile_qr_scan", "ios": "https://dc.lft.to/lastmile_qr_scan"}, "name": "0b796ec4d04b75ccb7fb3db6bc8088b5", "is_reserved": 0}, {"is_disabled": 0, "fusion_lon": 0.0, "fusion_lat": 0.0, "lat": 38.906218333333335, "type": "electric_scooter", "lon": -77.02807283333334, "bike_id": "c61696c0e667710fb6b842b3f1ba7ae4", "rental_uris": {"android": "https://dc.lft.to/lastmile_qr_scan", "ios": "https://dc.lft.to/lastmile_qr_scan"}, "name": "c61696c0e667710fb6b842b3f1ba7ae4", "is_reserved": 0}, {"is_disabled": 0, "fusion_lon": 0.0, "fusion_lat": 0.0, "lat": 38.907187666666665, "type": "electric_scooter", "lon": -77.03068016666667, "bike_id": "4de8f2a485e533c31fe192488442897c", "rental_uris": {"android": "https://dc.lft.to/lastmile_qr_scan", "ios": "https://dc.lft.to/lastmile_qr_scan"}, "name": "4de8f2a485e533c31fe192488442897c", "is_reserved": 0}, {"is_disabled": 0, "fusion_lon": 0.0, "fusion_lat": 0.0, "lat": 38.901538333333335, "type": "electric_scooter", "lon": -77.04159, "bike_id": "898ad2591bc5779ca9f805efa39dd92f", "rental_uris": {"android": "https://dc.lft.to/lastmile_qr_scan", "ios": "https://dc.lft.to/lastmile_qr_scan"}, "name": "898ad2591bc5779ca9f805efa39dd92f", "is_reserved": 0}, {"is_disabled": 0, "fusion_lon": 0.0, "fusion_lat": 0.0, "lat": 38.896499166666665, "type": "electric_scooter", "lon": -77.04353616666667, "bike_id": "a6d269e5b5e11679ce093e337c841a27", "rental_uris": {"android": "https://dc.lft.to/lastmile_qr_scan", "ios": "https://dc.lft.to/lastmile_qr_scan"}, "name": "a6d269e5b5e11679ce093e337c841a27", "is_reserved": 0}, {"is_disabled": 0, "fusion_lon": 0.0, "fusion_lat": 0.0, "lat": 38.901509833333336, "type": "electric_scooter", "lon": -77.04160833333333, "bike_id": "d1a627a3edaf861ee389ab5dd5f42294", "rental_uris": {"android": "https://dc.lft.to/lastmile_qr_scan", "ios": "https://dc.lft.to/lastmile_qr_scan"}, "name": "d1a627a3edaf861ee389ab5dd5f42294", "is_reserved": 0}, {"is_disabled": 0, "fusion_lon": 0.0, "fusion_lat": 0.0, "lat": 38.905635333333336, "type": "electric_scooter", "lon": -77.03361383333333, "bike_id": "aa7d8b65dc2c5a55b17bebb84d8995e1", "rental_uris": {"android": "https://dc.lft.to/lastmile_qr_scan", "ios": "https://dc.lft.to/lastmile_qr_scan"}, "name": "aa7d8b65dc2c5a55b17bebb84d8995e1", "is_reserved": 0}, {"is_disabled": 0, "fusion_lon": 0.0, "fusion_lat": 0.0, "lat": 38.89842816666667, "type": "electric_scooter", "lon": -77.03350883333333, "bike_id": "1a9f0d5eabd3485abd91dbf33725b111", "rental_uris": {"android": "https://dc.lft.to/lastmile_qr_scan", "ios": "https://dc.lft.to/lastmile_qr_scan"}, "name": "1a9f0d5eabd3485abd91dbf33725b111", "is_reserved": 0}, {"is_disabled": 0, "fusion_lon": 0.0, "fusion_lat": 0.0, "lat": 38.8886285, "type": "electric_scooter", "lon": -76.9773765, "bike_id": "cdf17f9308bbd6aa56c05507fd586f6f", "rental_uris": {"android": "https://dc.lft.to/lastmile_qr_scan", "ios": "https://dc.lft.to/lastmile_qr_scan"}, "name": "cdf17f9308bbd6aa56c05507fd586f6f", "is_reserved": 0}, {"is_disabled": 0, "fusion_lon": 0.0, "fusion_lat": 0.0, "lat": 38.8976945, "type": "electric_scooter", "lon": -77.021961, "bike_id": "8c2b95e2f232f7e8bf38b735343a112f", "rental_uris": {"android": "https://dc.lft.to/lastmile_qr_scan", "ios": "https://dc.lft.to/lastmile_qr_scan"}, "name": "8c2b95e2f232f7e8bf38b735343a112f", "is_reserved": 0}, {"is_disabled": 0, "fusion_lon": 0.0, "fusion_lat": 0.0, "lat": 38.900133, "type": "electric_scooter", "lon": -77.01188866666666, "bike_id": "fff32c0344f8ae327e08629d357b6b7b", "rental_uris": {"android": "https://dc.lft.to/lastmile_qr_scan", "ios": "https://dc.lft.to/lastmile_qr_scan"}, "name": "fff32c0344f8ae327e08629d357b6b7b", "is_reserved": 0}, {"is_disabled": 0, "fusion_lon": 0.0, "fusion_lat": 0.0, "lat": 38.827300666666666, "type": "electric_bike", "lon": -77.008625, "bike_id": "548da7170f2dc785a04b984b8b28c733", "rental_uris": {"android": "https://dc.lft.to/lastmile_qr_scan", "ios": "https://dc.lft.to/lastmile_qr_scan"}, "name": "548da7170f2dc785a04b984b8b28c733", "is_reserved": 0}, {"is_disabled": 0, "fusion_lon": 0.0, "fusion_lat": 0.0, "lat": 38.892341, "type": "electric_bike", "lon": -76.95221933333333, "bike_id": "f6b9d45623ce1d1338a2b2f115e0d5a4", "rental_uris": {"android": "https://dc.lft.to/lastmile_qr_scan", "ios": "https://dc.lft.to/lastmile_qr_scan"}, "name": "f6b9d45623ce1d1338a2b2f115e0d5a4", "is_reserved": 0}, {"is_disabled": 0, "fusion_lon": 0.0, "fusion_lat": 0.0, "lat": 38.97677083333333, "type": "electric_bike", "lon": -76.97166733333333, "bike_id": "71eea9f25d3fbc93035f304a268c8250", "rental_uris": {"android": "https://dc.lft.to/lastmile_qr_scan", "ios": "https://dc.lft.to/lastmile_qr_scan"}, "name": "71eea9f25d3fbc93035f304a268c8250", "is_reserved": 0}, {"is_disabled": 0, "fusion_lon": 0.0, "fusion_lat": 0.0, "lat": 38.925933666666666, "type": "electric_bike", "lon": -76.88904066666667, "bike_id": "c3b9e798de076bbacc38741044e59107", "rental_uris": {"android": "https://dc.lft.to/lastmile_qr_scan", "ios": "https://dc.lft.to/lastmile_qr_scan"}, "name": "c3b9e798de076bbacc38741044e59107", "is_reserved": 0}, {"is_disabled": 0, "fusion_lon": 0.0, "fusion_lat": 0.0, "lat": 38.913386, "type": "electric_scooter", "lon": -77.03180066666667, "bike_id": "f48be3e874bd771c6f907140b0102443", "rental_uris": {"android": "https://dc.lft.to/lastmile_qr_scan", "ios": "https://dc.lft.to/lastmile_qr_scan"}, "name": "f48be3e874bd771c6f907140b0102443", "is_reserved": 0}, {"is_disabled": 0, "fusion_lon": 0.0, "fusion_lat": 0.0, "lat": 38.896121, "type": "electric_scooter", "lon": -77.04760183333333, "bike_id": "cb625873e7cc137b82cd0ff6a9cd2aa2", "rental_uris": {"android": "https://dc.lft.to/lastmile_qr_scan", "ios": "https://dc.lft.to/lastmile_qr_scan"}, "name": "cb625873e7cc137b82cd0ff6a9cd2aa2", "is_reserved": 0}, {"is_disabled": 0, "fusion_lon": 0.0, "fusion_lat": 0.0, "lat": 38.95414733333333, "type": "electric_scooter", "lon": -77.028439, "bike_id": "8c1de3a46287aa8814204b19fa894185", "rental_uris": {"android": "https://dc.lft.to/lastmile_qr_scan", "ios": "https://dc.lft.to/lastmile_qr_scan"}, "name": "8c1de3a46287aa8814204b19fa894185", "is_reserved": 0}, {"is_disabled": 0, "fusion_lon": 0.0, "fusion_lat": 0.0, "lat": 38.91797733333333, "type": "electric_scooter", "lon": -77.0401365, "bike_id": "1d5618633001def2ec7cbdb3be2fc94b", "rental_uris": {"android": "https://dc.lft.to/lastmile_qr_scan", "ios": "https://dc.lft.to/lastmile_qr_scan"}, "name": "1d5618633001def2ec7cbdb3be2fc94b", "is_reserved": 0}, {"is_disabled": 0, "fusion_lon": 0.0, "fusion_lat": 0.0, "lat": 38.944936, "type": "electric_bike", "lon": -76.98659733333334, "bike_id": "6aa4c91957d2b9acb3f55f6c0532cdd1", "rental_uris": {"android": "https://dc.lft.to/lastmile_qr_scan", "ios": "https://dc.lft.to/lastmile_qr_scan"}, "name": "6aa4c91957d2b9acb3f55f6c0532cdd1", "is_reserved": 0}, {"is_disabled": 0, "fusion_lon": 0.0, "fusion_lat": 0.0, "lat": 38.894915166666664, "type": "electric_scooter", "lon": -77.02289283333333, "bike_id": "8ab3bbb3aca05fda3dd25250cd36450a", "rental_uris": {"android": "https://dc.lft.to/lastmile_qr_scan", "ios": "https://dc.lft.to/lastmile_qr_scan"}, "name": "8ab3bbb3aca05fda3dd25250cd36450a", "is_reserved": 0}, {"is_disabled": 0, "fusion_lon": 0.0, "fusion_lat": 0.0, "lat": 38.91401916666667, "type": "electric_scooter", "lon": -77.00329133333334, "bike_id": "c645119dc870def3949dd8b5958b0ef7", "rental_uris": {"android": "https://dc.lft.to/lastmile_qr_scan", "ios": "https://dc.lft.to/lastmile_qr_scan"}, "name": "c645119dc870def3949dd8b5958b0ef7", "is_reserved": 0}, {"is_disabled": 0, "fusion_lon": 0.0, "fusion_lat": 0.0, "lat": 38.91008566666667, "type": "electric_scooter", "lon": -77.03838566666667, "bike_id": "822c712b52582359fdd5a2c331bb3220", "rental_uris": {"android": "https://dc.lft.to/lastmile_qr_scan", "ios": "https://dc.lft.to/lastmile_qr_scan"}, "name": "822c712b52582359fdd5a2c331bb3220", "is_reserved": 0}, {"is_disabled": 0, "fusion_lon": 0.0, "fusion_lat": 0.0, "lat": 38.93548966666667, "type": "electric_scooter", "lon": -77.05810916666667, "bike_id": "b0679091a997cb13efbfa55887f9a159", "rental_uris": {"android": "https://dc.lft.to/lastmile_qr_scan", "ios": "https://dc.lft.to/lastmile_qr_scan"}, "name": "b0679091a997cb13efbfa55887f9a159", "is_reserved": 0}, {"is_disabled": 0, "fusion_lon": 0.0, "fusion_lat": 0.0, "lat": 38.932004166666665, "type": "electric_scooter", "lon": -77.03855366666667, "bike_id": "cd73bc66156ec250015de157dabf94f0", "rental_uris": {"android": "https://dc.lft.to/lastmile_qr_scan", "ios": "https://dc.lft.to/lastmile_qr_scan"}, "name": "cd73bc66156ec250015de157dabf94f0", "is_reserved": 0}, {"is_disabled": 0, "fusion_lon": 0.0, "fusion_lat": 0.0, "lat": 38.895677666666664, "type": "electric_scooter", "lon": -77.0231545, "bike_id": "eb8ea394b957251abf27e182dd09f481", "rental_uris": {"android": "https://dc.lft.to/lastmile_qr_scan", "ios": "https://dc.lft.to/lastmile_qr_scan"}, "name": "eb8ea394b957251abf27e182dd09f481", "is_reserved": 0}, {"is_disabled": 0, "fusion_lon": 0.0, "fusion_lat": 0.0, "lat": 38.91777316666666, "type": "electric_scooter", "lon": -77.0429705, "bike_id": "8e07de89abbfe365e1ac6c6659d75060", "rental_uris": {"android": "https://dc.lft.to/lastmile_qr_scan", "ios": "https://dc.lft.to/lastmile_qr_scan"}, "name": "8e07de89abbfe365e1ac6c6659d75060", "is_reserved": 0}, {"is_disabled": 0, "fusion_lon": 0.0, "fusion_lat": 0.0, "lat": 38.915589833333335, "type": "electric_scooter", "lon": -77.03266316666667, "bike_id": "b8a5d6a7ad7a25871a07374257eabe0d", "rental_uris": {"android": "https://dc.lft.to/lastmile_qr_scan", "ios": "https://dc.lft.to/lastmile_qr_scan"}, "name": "b8a5d6a7ad7a25871a07374257eabe0d", "is_reserved": 0}, {"is_disabled": 0, "fusion_lon": 0.0, "fusion_lat": 0.0, "lat": 38.92754733333334, "type": "electric_scooter", "lon": -77.0058955, "bike_id": "4954c939cb5e829d539451255f5d1825", "rental_uris": {"android": "https://dc.lft.to/lastmile_qr_scan", "ios": "https://dc.lft.to/lastmile_qr_scan"}, "name": "4954c939cb5e829d539451255f5d1825", "is_reserved": 0}, {"is_disabled": 0, "fusion_lon": 0.0, "fusion_lat": 0.0, "lat": 38.91937816666667, "type": "electric_scooter", "lon": -76.980732, "bike_id": "f6d2682f8abdaf3ecc1919d225ae0173", "rental_uris": {"android": "https://dc.lft.to/lastmile_qr_scan", "ios": "https://dc.lft.to/lastmile_qr_scan"}, "name": "f6d2682f8abdaf3ecc1919d225ae0173", "is_reserved": 0}, {"is_disabled": 0, "fusion_lon": 0.0, "fusion_lat": 0.0, "lat": 38.90394583333333, "type": "electric_scooter", "lon": -76.99003933333333, "bike_id": "09af66fa830e42f8c1e1708bedfd5269", "rental_uris": {"android": "https://dc.lft.to/lastmile_qr_scan", "ios": "https://dc.lft.to/lastmile_qr_scan"}, "name": "09af66fa830e42f8c1e1708bedfd5269", "is_reserved": 0}, {"is_disabled": 0, "fusion_lon": 0.0, "fusion_lat": 0.0, "lat": 38.88500533333333, "type": "electric_scooter", "lon": -76.9965535, "bike_id": "3de2c720d887847ac887115dd402e05e", "rental_uris": {"android": "https://dc.lft.to/lastmile_qr_scan", "ios": "https://dc.lft.to/lastmile_qr_scan"}, "name": "3de2c720d887847ac887115dd402e05e", "is_reserved": 0}, {"is_disabled": 0, "fusion_lon": 0.0, "fusion_lat": 0.0, "lat": 38.90963166666667, "type": "electric_scooter", "lon": -77.015664, "bike_id": "37fd1cedb9ab72e6a5286ab4f4e941f0", "rental_uris": {"android": "https://dc.lft.to/lastmile_qr_scan", "ios": "https://dc.lft.to/lastmile_qr_scan"}, "name": "37fd1cedb9ab72e6a5286ab4f4e941f0", "is_reserved": 0}, {"is_disabled": 0, "fusion_lon": 0.0, "fusion_lat": 0.0, "lat": 38.923561166666666, "type": "electric_scooter", "lon": -77.0503865, "bike_id": "03dc3a5a242232138ec8f877b2cd4f00", "rental_uris": {"android": "https://dc.lft.to/lastmile_qr_scan", "ios": "https://dc.lft.to/lastmile_qr_scan"}, "name": "03dc3a5a242232138ec8f877b2cd4f00", "is_reserved": 0}, {"is_disabled": 0, "fusion_lon": 0.0, "fusion_lat": 0.0, "lat": 38.85510033333333, "type": "electric_bike", "lon": -76.958369, "bike_id": "853674acdc380236a8cabc36a32920b3", "rental_uris": {"android": "https://dc.lft.to/lastmile_qr_scan", "ios": "https://dc.lft.to/lastmile_qr_scan"}, "name": "853674acdc380236a8cabc36a32920b3", "is_reserved": 0}, {"is_disabled": 0, "fusion_lon": 0.0, "fusion_lat": 0.0, "lat": 38.9056315, "type": "electric_scooter", "lon": -77.00550966666667, "bike_id": "6886503ec06cf15f28050032ba620c7f", "rental_uris": {"android": "https://dc.lft.to/lastmile_qr_scan", "ios": "https://dc.lft.to/lastmile_qr_scan"}, "name": "6886503ec06cf15f28050032ba620c7f", "is_reserved": 0}, {"is_disabled": 0, "fusion_lon": 0.0, "fusion_lat": 0.0, "lat": 38.904545166666665, "type": "electric_scooter", "lon": -77.0346985, "bike_id": "ee175e932f3496cf936f4bdc9e129444", "rental_uris": {"android": "https://dc.lft.to/lastmile_qr_scan", "ios": "https://dc.lft.to/lastmile_qr_scan"}, "name": "ee175e932f3496cf936f4bdc9e129444", "is_reserved": 0}, {"is_disabled": 0, "fusion_lon": 0.0, "fusion_lat": 0.0, "lat": 38.9611075, "type": "electric_bike", "lon": -77.0284965, "bike_id": "80d5b4bbb497e9395b7e5eb5eb181244", "rental_uris": {"android": "https://dc.lft.to/lastmile_qr_scan", "ios": "https://dc.lft.to/lastmile_qr_scan"}, "name": "80d5b4bbb497e9395b7e5eb5eb181244", "is_reserved": 0}, {"is_disabled": 0, "fusion_lon": 0.0, "fusion_lat": 0.0, "lat": 38.91415833333333, "type": "electric_scooter", "lon": -77.04501633333334, "bike_id": "2b322a2d7a8bf82e66fa4d15278dcaee", "rental_uris": {"android": "https://dc.lft.to/lastmile_qr_scan", "ios": "https://dc.lft.to/lastmile_qr_scan"}, "name": "2b322a2d7a8bf82e66fa4d15278dcaee", "is_reserved": 0}, {"is_disabled": 0, "fusion_lon": 0.0, "fusion_lat": 0.0, "lat": 38.90479966666667, "type": "electric_scooter", "lon": -77.03570666666667, "bike_id": "08876a7a581e9711aa706366f45e487f", "rental_uris": {"android": "https://dc.lft.to/lastmile_qr_scan", "ios": "https://dc.lft.to/lastmile_qr_scan"}, "name": "08876a7a581e9711aa706366f45e487f", "is_reserved": 0}, {"is_disabled": 0, "fusion_lon": 0.0, "fusion_lat": 0.0, "lat": 38.897352166666664, "type": "electric_scooter", "lon": -77.029978, "bike_id": "21efd75c59c3512250be2875a0ee5d4a", "rental_uris": {"android": "https://dc.lft.to/lastmile_qr_scan", "ios": "https://dc.lft.to/lastmile_qr_scan"}, "name": "21efd75c59c3512250be2875a0ee5d4a", "is_reserved": 0}, {"is_disabled": 0, "fusion_lon": 0.0, "fusion_lat": 0.0, "lat": 38.90427483333333, "type": "electric_scooter", "lon": -77.0288715, "bike_id": "821f3d3d35de4c26b6b1ef1ff9fc82c5", "rental_uris": {"android": "https://dc.lft.to/lastmile_qr_scan", "ios": "https://dc.lft.to/lastmile_qr_scan"}, "name": "821f3d3d35de4c26b6b1ef1ff9fc82c5", "is_reserved": 0}, {"is_disabled": 0, "fusion_lon": 0.0, "fusion_lat": 0.0, "lat": 38.9363955, "type": "electric_bike", "lon": -76.95453, "bike_id": "36d1155df151ef3eb069c04344b09258", "rental_uris": {"android": "https://dc.lft.to/lastmile_qr_scan", "ios": "https://dc.lft.to/lastmile_qr_scan"}, "name": "36d1155df151ef3eb069c04344b09258", "is_reserved": 0}, {"is_disabled": 0, "fusion_lon": 0.0, "fusion_lat": 0.0, "lat": 38.94577066666667, "type": "electric_bike", "lon": -76.98774133333333, "bike_id": "6fed66b7bf2d24817870463d1724e635", "rental_uris": {"android": "https://dc.lft.to/lastmile_qr_scan", "ios": "https://dc.lft.to/lastmile_qr_scan"}, "name": "6fed66b7bf2d24817870463d1724e635", "is_reserved": 0}, {"is_disabled": 0, "fusion_lon": 0.0, "fusion_lat": 0.0, "lat": 38.910418666666665, "type": "electric_scooter", "lon": -77.064567, "bike_id": "94cc2cbb993d2fe0e714e35f2e1baa78", "rental_uris": {"android": "https://dc.lft.to/lastmile_qr_scan", "ios": "https://dc.lft.to/lastmile_qr_scan"}, "name": "94cc2cbb993d2fe0e714e35f2e1baa78", "is_reserved": 0}, {"is_disabled": 0, "fusion_lon": 0.0, "fusion_lat": 0.0, "lat": 38.88139066666667, "type": "electric_scooter", "lon": -76.9961985, "bike_id": "f8a162a1d153d56bcc18a0d701b459e3", "rental_uris": {"android": "https://dc.lft.to/lastmile_qr_scan", "ios": "https://dc.lft.to/lastmile_qr_scan"}, "name": "f8a162a1d153d56bcc18a0d701b459e3", "is_reserved": 0}, {"is_disabled": 0, "fusion_lon": 0.0, "fusion_lat": 0.0, "lat": 38.91807216666667, "type": "electric_scooter", "lon": -77.02877733333334, "bike_id": "f913ebbe22543a15660911c29c8b0acb", "rental_uris": {"android": "https://dc.lft.to/lastmile_qr_scan", "ios": "https://dc.lft.to/lastmile_qr_scan"}, "name": "f913ebbe22543a15660911c29c8b0acb", "is_reserved": 0}, {"is_disabled": 0, "fusion_lon": 0.0, "fusion_lat": 0.0, "lat": 38.9307415, "type": "electric_scooter", "lon": -77.03156883333334, "bike_id": "62039961b933166c3798075431a2a04a", "rental_uris": {"android": "https://dc.lft.to/lastmile_qr_scan", "ios": "https://dc.lft.to/lastmile_qr_scan"}, "name": "62039961b933166c3798075431a2a04a", "is_reserved": 0}, {"is_disabled": 0, "fusion_lon": 0.0, "fusion_lat": 0.0, "lat": 38.921469, "type": "electric_scooter", "lon": -77.03351133333334, "bike_id": "05e084048a988e5cb05998de76920844", "rental_uris": {"android": "https://dc.lft.to/lastmile_qr_scan", "ios": "https://dc.lft.to/lastmile_qr_scan"}, "name": "05e084048a988e5cb05998de76920844", "is_reserved": 0}, {"is_disabled": 0, "fusion_lon": 0.0, "fusion_lat": 0.0, "lat": 38.916347, "type": "electric_scooter", "lon": -77.0230105, "bike_id": "61bcb3f017d0381490021e5284501341", "rental_uris": {"android": "https://dc.lft.to/lastmile_qr_scan", "ios": "https://dc.lft.to/lastmile_qr_scan"}, "name": "61bcb3f017d0381490021e5284501341", "is_reserved": 0}, {"is_disabled": 0, "fusion_lon": 0.0, "fusion_lat": 0.0, "lat": 39.052682833333336, "type": "electric_bike", "lon": -77.04382966666667, "bike_id": "b01e80ab053b305d95f21a1ceb8de12a", "rental_uris": {"android": "https://dc.lft.to/lastmile_qr_scan", "ios": "https://dc.lft.to/lastmile_qr_scan"}, "name": "b01e80ab053b305d95f21a1ceb8de12a", "is_reserved": 0}, {"is_disabled": 0, "fusion_lon": 0.0, "fusion_lat": 0.0, "lat": 38.9159585, "type": "electric_scooter", "lon": -77.0727685, "bike_id": "a4b2cbf598404b75d57030d93a7a1a9b", "rental_uris": {"android": "https://dc.lft.to/lastmile_qr_scan", "ios": "https://dc.lft.to/lastmile_qr_scan"}, "name": "a4b2cbf598404b75d57030d93a7a1a9b", "is_reserved": 0}, {"is_disabled": 0, "fusion_lon": 0.0, "fusion_lat": 0.0, "lat": 38.94889766666667, "type": "electric_bike", "lon": -76.96374833333333, "bike_id": "c3496ada23da7fe9d640725878fb8349", "rental_uris": {"android": "https://dc.lft.to/lastmile_qr_scan", "ios": "https://dc.lft.to/lastmile_qr_scan"}, "name": "c3496ada23da7fe9d640725878fb8349", "is_reserved": 0}, {"is_disabled": 0, "fusion_lon": 0.0, "fusion_lat": 0.0, "lat": 38.936988, "type": "electric_scooter", "lon": -77.05599666666667, "bike_id": "ed853e85b0ce47e41ab77c881f0c0c87", "rental_uris": {"android": "https://dc.lft.to/lastmile_qr_scan", "ios": "https://dc.lft.to/lastmile_qr_scan"}, "name": "ed853e85b0ce47e41ab77c881f0c0c87", "is_reserved": 0}, {"is_disabled": 0, "fusion_lon": 0.0, "fusion_lat": 0.0, "lat": 38.909588666666664, "type": "electric_scooter", "lon": -77.039464, "bike_id": "3e0bee39d24cee4da30115aae441f28b", "rental_uris": {"android": "https://dc.lft.to/lastmile_qr_scan", "ios": "https://dc.lft.to/lastmile_qr_scan"}, "name": "3e0bee39d24cee4da30115aae441f28b", "is_reserved": 0}, {"is_disabled": 0, "fusion_lon": 0.0, "fusion_lat": 0.0, "lat": 38.917008333333335, "type": "electric_scooter", "lon": -77.00114033333334, "bike_id": "7f2515de3bfa52ac731fc6559d2b1eed", "rental_uris": {"android": "https://dc.lft.to/lastmile_qr_scan", "ios": "https://dc.lft.to/lastmile_qr_scan"}, "name": "7f2515de3bfa52ac731fc6559d2b1eed", "is_reserved": 0}, {"is_disabled": 0, "fusion_lon": 0.0, "fusion_lat": 0.0, "lat": 38.90256683333333, "type": "electric_scooter", "lon": -77.02003866666666, "bike_id": "af0aedf5afbc68f16c12285a879ab89c", "rental_uris": {"android": "https://dc.lft.to/lastmile_qr_scan", "ios": "https://dc.lft.to/lastmile_qr_scan"}, "name": "af0aedf5afbc68f16c12285a879ab89c", "is_reserved": 0}, {"is_disabled": 0, "fusion_lon": 0.0, "fusion_lat": 0.0, "lat": 38.896194, "type": "electric_scooter", "lon": -76.99636183333334, "bike_id": "677d7bbb35fa0f822995e357ff6c8f68", "rental_uris": {"android": "https://dc.lft.to/lastmile_qr_scan", "ios": "https://dc.lft.to/lastmile_qr_scan"}, "name": "677d7bbb35fa0f822995e357ff6c8f68", "is_reserved": 0}, {"is_disabled": 0, "fusion_lon": 0.0, "fusion_lat": 0.0, "lat": 38.916383333333336, "type": "electric_scooter", "lon": -77.02292766666666, "bike_id": "c30cb3f540e75d9c6910daeb628b3243", "rental_uris": {"android": "https://dc.lft.to/lastmile_qr_scan", "ios": "https://dc.lft.to/lastmile_qr_scan"}, "name": "c30cb3f540e75d9c6910daeb628b3243", "is_reserved": 0}, {"is_disabled": 0, "fusion_lon": 0.0, "fusion_lat": 0.0, "lat": 38.909400833333336, "type": "electric_scooter", "lon": -77.0320385, "bike_id": "f1b83381294e1ce55ff55c54b3f914c7", "rental_uris": {"android": "https://dc.lft.to/lastmile_qr_scan", "ios": "https://dc.lft.to/lastmile_qr_scan"}, "name": "f1b83381294e1ce55ff55c54b3f914c7", "is_reserved": 0}, {"is_disabled": 0, "fusion_lon": 0.0, "fusion_lat": 0.0, "lat": 38.901813833333335, "type": "electric_scooter", "lon": -76.92826683333334, "bike_id": "3ce0a22bb65689d14a1cece2357e1f24", "rental_uris": {"android": "https://dc.lft.to/lastmile_qr_scan", "ios": "https://dc.lft.to/lastmile_qr_scan"}, "name": "3ce0a22bb65689d14a1cece2357e1f24", "is_reserved": 0}, {"is_disabled": 0, "fusion_lon": 0.0, "fusion_lat": 0.0, "lat": 38.914735, "type": "electric_scooter", "lon": -77.03220066666667, "bike_id": "d5530b472600a4280fcacc0269af4e3d", "rental_uris": {"android": "https://dc.lft.to/lastmile_qr_scan", "ios": "https://dc.lft.to/lastmile_qr_scan"}, "name": "d5530b472600a4280fcacc0269af4e3d", "is_reserved": 0}, {"is_disabled": 0, "fusion_lon": 0.0, "fusion_lat": 0.0, "lat": 38.9108545, "type": "electric_scooter", "lon": -77.038548, "bike_id": "0971323969b39cc9b0391633f024ccd9", "rental_uris": {"android": "https://dc.lft.to/lastmile_qr_scan", "ios": "https://dc.lft.to/lastmile_qr_scan"}, "name": "0971323969b39cc9b0391633f024ccd9", "is_reserved": 0}, {"is_disabled": 0, "fusion_lon": 0.0, "fusion_lat": 0.0, "lat": 38.90708466666667, "type": "electric_scooter", "lon": -77.0238805, "bike_id": "db572bb9b1a8a17c1818210d7b1bf2f3", "rental_uris": {"android": "https://dc.lft.to/lastmile_qr_scan", "ios": "https://dc.lft.to/lastmile_qr_scan"}, "name": "db572bb9b1a8a17c1818210d7b1bf2f3", "is_reserved": 0}, {"is_disabled": 0, "fusion_lon": 0.0, "fusion_lat": 0.0, "lat": 38.91565116666666, "type": "electric_scooter", "lon": -77.03273233333333, "bike_id": "5353c3437f5454704b4cb4edce5f3502", "rental_uris": {"android": "https://dc.lft.to/lastmile_qr_scan", "ios": "https://dc.lft.to/lastmile_qr_scan"}, "name": "5353c3437f5454704b4cb4edce5f3502", "is_reserved": 0}, {"is_disabled": 0, "fusion_lon": 0.0, "fusion_lat": 0.0, "lat": 38.947850333333335, "type": "electric_scooter", "lon": -77.09276016666666, "bike_id": "c97aaeccf1f797e1c7181a3b4d136b5d", "rental_uris": {"android": "https://dc.lft.to/lastmile_qr_scan", "ios": "https://dc.lft.to/lastmile_qr_scan"}, "name": "c97aaeccf1f797e1c7181a3b4d136b5d", "is_reserved": 0}, {"is_disabled": 0, "fusion_lon": 0.0, "fusion_lat": 0.0, "lat": 38.86573966666667, "type": "electric_scooter", "lon": -76.990427, "bike_id": "3051289d81e76ef9abba53928f71162b", "rental_uris": {"android": "https://dc.lft.to/lastmile_qr_scan", "ios": "https://dc.lft.to/lastmile_qr_scan"}, "name": "3051289d81e76ef9abba53928f71162b", "is_reserved": 0}, {"is_disabled": 0, "fusion_lon": 0.0, "fusion_lat": 0.0, "lat": 38.8871445, "type": "electric_scooter", "lon": -77.02833966666667, "bike_id": "99b265bfd86a762d6f5d54cc2a6dbe56", "rental_uris": {"android": "https://dc.lft.to/lastmile_qr_scan", "ios": "https://dc.lft.to/lastmile_qr_scan"}, "name": "99b265bfd86a762d6f5d54cc2a6dbe56", "is_reserved": 0}, {"is_disabled": 0, "fusion_lon": 0.0, "fusion_lat": 0.0, "lat": 38.92067766666667, "type": "electric_scooter", "lon": -77.01810383333333, "bike_id": "cc5661bd862ad89d39a417e94dbc5b84", "rental_uris": {"android": "https://dc.lft.to/lastmile_qr_scan", "ios": "https://dc.lft.to/lastmile_qr_scan"}, "name": "cc5661bd862ad89d39a417e94dbc5b84", "is_reserved": 0}, {"is_disabled": 0, "fusion_lon": 0.0, "fusion_lat": 0.0, "lat": 38.9310435, "type": "electric_scooter", "lon": -77.03485933333333, "bike_id": "68d00dafbeef6330fcee9182cf61e3d9", "rental_uris": {"android": "https://dc.lft.to/lastmile_qr_scan", "ios": "https://dc.lft.to/lastmile_qr_scan"}, "name": "68d00dafbeef6330fcee9182cf61e3d9", "is_reserved": 0}, {"is_disabled": 0, "fusion_lon": 0.0, "fusion_lat": 0.0, "lat": 38.9169035, "type": "electric_scooter", "lon": -77.02599366666666, "bike_id": "10f1a06ad2f4a6854dc2938742cfe899", "rental_uris": {"android": "https://dc.lft.to/lastmile_qr_scan", "ios": "https://dc.lft.to/lastmile_qr_scan"}, "name": "10f1a06ad2f4a6854dc2938742cfe899", "is_reserved": 0}, {"is_disabled": 0, "fusion_lon": 0.0, "fusion_lat": 0.0, "lat": 38.907203333333335, "type": "electric_scooter", "lon": -77.0459465, "bike_id": "3c01bbfab51465c7c21f99d9c1d49c45", "rental_uris": {"android": "https://dc.lft.to/lastmile_qr_scan", "ios": "https://dc.lft.to/lastmile_qr_scan"}, "name": "3c01bbfab51465c7c21f99d9c1d49c45", "is_reserved": 0}, {"is_disabled": 0, "fusion_lon": 0.0, "fusion_lat": 0.0, "lat": 38.933761, "type": "electric_scooter", "lon": -77.02379416666666, "bike_id": "c99d58efa7c119c3204e49f4578f72ea", "rental_uris": {"android": "https://dc.lft.to/lastmile_qr_scan", "ios": "https://dc.lft.to/lastmile_qr_scan"}, "name": "c99d58efa7c119c3204e49f4578f72ea", "is_reserved": 0}, {"is_disabled": 0, "fusion_lon": 0.0, "fusion_lat": 0.0, "lat": 38.90424183333333, "type": "electric_scooter", "lon": -77.0223945, "bike_id": "90832c5ca9be67f83821a33ad9354b9a", "rental_uris": {"android": "https://dc.lft.to/lastmile_qr_scan", "ios": "https://dc.lft.to/lastmile_qr_scan"}, "name": "90832c5ca9be67f83821a33ad9354b9a", "is_reserved": 0}, {"is_disabled": 0, "fusion_lon": 0.0, "fusion_lat": 0.0, "lat": 39.007813166666665, "type": "electric_bike", "lon": -76.99570966666667, "bike_id": "2b9113ab0cc344a1c61c0e18259cf92a", "rental_uris": {"android": "https://dc.lft.to/lastmile_qr_scan", "ios": "https://dc.lft.to/lastmile_qr_scan"}, "name": "2b9113ab0cc344a1c61c0e18259cf92a", "is_reserved": 0}, {"is_disabled": 0, "fusion_lon": 0.0, "fusion_lat": 0.0, "lat": 38.942852, "type": "electric_bike", "lon": -77.06921783333334, "bike_id": "c65d7337d50b9d4cedc48112223489a6", "rental_uris": {"android": "https://dc.lft.to/lastmile_qr_scan", "ios": "https://dc.lft.to/lastmile_qr_scan"}, "name": "c65d7337d50b9d4cedc48112223489a6", "is_reserved": 0}, {"is_disabled": 0, "fusion_lon": 0.0, "fusion_lat": 0.0, "lat": 38.93958333333333, "type": "electric_scooter", "lon": -77.03260816666666, "bike_id": "c2fe24237b046da46ad792ded5176d71", "rental_uris": {"android": "https://dc.lft.to/lastmile_qr_scan", "ios": "https://dc.lft.to/lastmile_qr_scan"}, "name": "c2fe24237b046da46ad792ded5176d71", "is_reserved": 0}, {"is_disabled": 0, "fusion_lon": 0.0, "fusion_lat": 0.0, "lat": 38.913552333333335, "type": "electric_scooter", "lon": -77.03964316666666, "bike_id": "9345099151e3ba6be6b9ed35f906cf32", "rental_uris": {"android": "https://dc.lft.to/lastmile_qr_scan", "ios": "https://dc.lft.to/lastmile_qr_scan"}, "name": "9345099151e3ba6be6b9ed35f906cf32", "is_reserved": 0}, {"is_disabled": 0, "fusion_lon": 0.0, "fusion_lat": 0.0, "lat": 38.906577666666664, "type": "electric_scooter", "lon": -77.04528133333334, "bike_id": "c49c2cb4e1c21be6a3d6a2f2335e3d7d", "rental_uris": {"android": "https://dc.lft.to/lastmile_qr_scan", "ios": "https://dc.lft.to/lastmile_qr_scan"}, "name": "c49c2cb4e1c21be6a3d6a2f2335e3d7d", "is_reserved": 0}, {"is_disabled": 0, "fusion_lon": 0.0, "fusion_lat": 0.0, "lat": 38.91462083333333, "type": "electric_scooter", "lon": -77.02287916666667, "bike_id": "e5ee84becd75f8b05f140900ae92df5c", "rental_uris": {"android": "https://dc.lft.to/lastmile_qr_scan", "ios": "https://dc.lft.to/lastmile_qr_scan"}, "name": "e5ee84becd75f8b05f140900ae92df5c", "is_reserved": 0}, {"is_disabled": 0, "fusion_lon": 0.0, "fusion_lat": 0.0, "lat": 38.89747416666667, "type": "electric_scooter", "lon": -76.99486683333333, "bike_id": "19c8694bc61cf3b989f53272bf3c12f2", "rental_uris": {"android": "https://dc.lft.to/lastmile_qr_scan", "ios": "https://dc.lft.to/lastmile_qr_scan"}, "name": "19c8694bc61cf3b989f53272bf3c12f2", "is_reserved": 0}, {"is_disabled": 0, "fusion_lon": 0.0, "fusion_lat": 0.0, "lat": 38.90189516666667, "type": "electric_scooter", "lon": -77.03954716666667, "bike_id": "af78e7b499f7718116d22d626fd47d88", "rental_uris": {"android": "https://dc.lft.to/lastmile_qr_scan", "ios": "https://dc.lft.to/lastmile_qr_scan"}, "name": "af78e7b499f7718116d22d626fd47d88", "is_reserved": 0}, {"is_disabled": 0, "fusion_lon": 0.0, "fusion_lat": 0.0, "lat": 38.90531083333333, "type": "electric_scooter", "lon": -77.0606395, "bike_id": "17bffb4bfe49812ea416526941762792", "rental_uris": {"android": "https://dc.lft.to/lastmile_qr_scan", "ios": "https://dc.lft.to/lastmile_qr_scan"}, "name": "17bffb4bfe49812ea416526941762792", "is_reserved": 0}, {"is_disabled": 0, "fusion_lon": 0.0, "fusion_lat": 0.0, "lat": 38.90835233333333, "type": "electric_scooter", "lon": -76.996956, "bike_id": "1398e06a68aed1d32628de2c5e692f18", "rental_uris": {"android": "https://dc.lft.to/lastmile_qr_scan", "ios": "https://dc.lft.to/lastmile_qr_scan"}, "name": "1398e06a68aed1d32628de2c5e692f18", "is_reserved": 0}, {"is_disabled": 0, "fusion_lon": 0.0, "fusion_lat": 0.0, "lat": 38.8451455, "type": "electric_bike", "lon": -77.0779475, "bike_id": "c4095f1c55142c50376161dcf8dac830", "rental_uris": {"android": "https://dc.lft.to/lastmile_qr_scan", "ios": "https://dc.lft.to/lastmile_qr_scan"}, "name": "c4095f1c55142c50376161dcf8dac830", "is_reserved": 0}, {"is_disabled": 0, "fusion_lon": 0.0, "fusion_lat": 0.0, "lat": 38.90156283333334, "type": "electric_scooter", "lon": -77.031757, "bike_id": "5da9fa52811c64a10ee024c940a8877e", "rental_uris": {"android": "https://dc.lft.to/lastmile_qr_scan", "ios": "https://dc.lft.to/lastmile_qr_scan"}, "name": "5da9fa52811c64a10ee024c940a8877e", "is_reserved": 0}, {"is_disabled": 0, "fusion_lon": 0.0, "fusion_lat": 0.0, "lat": 38.916761, "type": "electric_scooter", "lon": -77.02712783333334, "bike_id": "d1528fc5957824c57d0f03950cc9a2eb", "rental_uris": {"android": "https://dc.lft.to/lastmile_qr_scan", "ios": "https://dc.lft.to/lastmile_qr_scan"}, "name": "d1528fc5957824c57d0f03950cc9a2eb", "is_reserved": 0}, {"is_disabled": 0, "fusion_lon": 0.0, "fusion_lat": 0.0, "lat": 38.906822166666664, "type": "electric_scooter", "lon": -77.02688566666667, "bike_id": "286b8cc3244ffb30b3bea89c2ec00a09", "rental_uris": {"android": "https://dc.lft.to/lastmile_qr_scan", "ios": "https://dc.lft.to/lastmile_qr_scan"}, "name": "286b8cc3244ffb30b3bea89c2ec00a09", "is_reserved": 0}, {"is_disabled": 0, "fusion_lon": 0.0, "fusion_lat": 0.0, "lat": 38.9056725, "type": "electric_scooter", "lon": -77.03352683333334, "bike_id": "2ef38bc931493f45ec2aebd4ee3e05f5", "rental_uris": {"android": "https://dc.lft.to/lastmile_qr_scan", "ios": "https://dc.lft.to/lastmile_qr_scan"}, "name": "2ef38bc931493f45ec2aebd4ee3e05f5", "is_reserved": 0}, {"is_disabled": 0, "fusion_lon": 0.0, "fusion_lat": 0.0, "lat": 38.920474, "type": "electric_scooter", "lon": -77.02615266666666, "bike_id": "42f9ad588ef392f3e8b899be4b28bd6d", "rental_uris": {"android": "https://dc.lft.to/lastmile_qr_scan", "ios": "https://dc.lft.to/lastmile_qr_scan"}, "name": "42f9ad588ef392f3e8b899be4b28bd6d", "is_reserved": 0}, {"is_disabled": 0, "fusion_lon": 0.0, "fusion_lat": 0.0, "lat": 38.876932, "type": "electric_scooter", "lon": -77.007435, "bike_id": "431f4e3aa2e0db6ca1936a864b14e4d0", "rental_uris": {"android": "https://dc.lft.to/lastmile_qr_scan", "ios": "https://dc.lft.to/lastmile_qr_scan"}, "name": "431f4e3aa2e0db6ca1936a864b14e4d0", "is_reserved": 0}, {"is_disabled": 0, "fusion_lon": 0.0, "fusion_lat": 0.0, "lat": 38.897921833333335, "type": "electric_scooter", "lon": -76.93054266666667, "bike_id": "9ef50f045c0feb2c5e20398976d64fd0", "rental_uris": {"android": "https://dc.lft.to/lastmile_qr_scan", "ios": "https://dc.lft.to/lastmile_qr_scan"}, "name": "9ef50f045c0feb2c5e20398976d64fd0", "is_reserved": 0}, {"is_disabled": 0, "fusion_lon": 0.0, "fusion_lat": 0.0, "lat": 38.91104583333333, "type": "electric_scooter", "lon": -77.00215833333333, "bike_id": "439355988f7b69e6d1a9f46e25a26a1b", "rental_uris": {"android": "https://dc.lft.to/lastmile_qr_scan", "ios": "https://dc.lft.to/lastmile_qr_scan"}, "name": "439355988f7b69e6d1a9f46e25a26a1b", "is_reserved": 0}, {"is_disabled": 0, "fusion_lon": 0.0, "fusion_lat": 0.0, "lat": 38.949824666666665, "type": "electric_scooter", "lon": -77.02703266666667, "bike_id": "4de4798c072cdaca34dda0d1fd005ce3", "rental_uris": {"android": "https://dc.lft.to/lastmile_qr_scan", "ios": "https://dc.lft.to/lastmile_qr_scan"}, "name": "4de4798c072cdaca34dda0d1fd005ce3", "is_reserved": 0}, {"is_disabled": 0, "fusion_lon": 0.0, "fusion_lat": 0.0, "lat": 38.98823683333333, "type": "electric_bike", "lon": -77.02644733333334, "bike_id": "fbb2bafac97d9515ed863a8c07886a1f", "rental_uris": {"android": "https://dc.lft.to/lastmile_qr_scan", "ios": "https://dc.lft.to/lastmile_qr_scan"}, "name": "fbb2bafac97d9515ed863a8c07886a1f", "is_reserved": 0}, {"is_disabled": 0, "fusion_lon": 0.0, "fusion_lat": 0.0, "lat": 38.953081, "type": "electric_scooter", "lon": -77.03597166666667, "bike_id": "e701313132889494ef0c7c9babc603b0", "rental_uris": {"android": "https://dc.lft.to/lastmile_qr_scan", "ios": "https://dc.lft.to/lastmile_qr_scan"}, "name": "e701313132889494ef0c7c9babc603b0", "is_reserved": 0}, {"is_disabled": 0, "fusion_lon": 0.0, "fusion_lat": 0.0, "lat": 38.908441333333336, "type": "electric_scooter", "lon": -77.02385083333333, "bike_id": "ec9898542b94c7ce87793133cfb899cb", "rental_uris": {"android": "https://dc.lft.to/lastmile_qr_scan", "ios": "https://dc.lft.to/lastmile_qr_scan"}, "name": "ec9898542b94c7ce87793133cfb899cb", "is_reserved": 0}, {"is_disabled": 0, "fusion_lon": 0.0, "fusion_lat": 0.0, "lat": 38.8315265, "type": "electric_bike", "lon": -76.9969225, "bike_id": "555f27a2b0c51fc79665d763674243c0", "rental_uris": {"android": "https://dc.lft.to/lastmile_qr_scan", "ios": "https://dc.lft.to/lastmile_qr_scan"}, "name": "555f27a2b0c51fc79665d763674243c0", "is_reserved": 0}, {"is_disabled": 0, "fusion_lon": 0.0, "fusion_lat": 0.0, "lat": 38.901734, "type": "electric_scooter", "lon": -76.99386016666666, "bike_id": "005d8df7cc93e7596895a153ed16daf0", "rental_uris": {"android": "https://dc.lft.to/lastmile_qr_scan", "ios": "https://dc.lft.to/lastmile_qr_scan"}, "name": "005d8df7cc93e7596895a153ed16daf0", "is_reserved": 0}, {"is_disabled": 0, "fusion_lon": 0.0, "fusion_lat": 0.0, "lat": 38.88565216666667, "type": "electric_scooter", "lon": -77.00066316666667, "bike_id": "d9260d25ad512705a5a6a0f3b1690b04", "rental_uris": {"android": "https://dc.lft.to/lastmile_qr_scan", "ios": "https://dc.lft.to/lastmile_qr_scan"}, "name": "d9260d25ad512705a5a6a0f3b1690b04", "is_reserved": 0}, {"is_disabled": 0, "fusion_lon": 0.0, "fusion_lat": 0.0, "lat": 38.917306333333336, "type": "electric_scooter", "lon": -76.99179233333334, "bike_id": "c005f064d260b99dbf0ddcbb65f218ff", "rental_uris": {"android": "https://dc.lft.to/lastmile_qr_scan", "ios": "https://dc.lft.to/lastmile_qr_scan"}, "name": "c005f064d260b99dbf0ddcbb65f218ff", "is_reserved": 0}, {"is_disabled": 0, "fusion_lon": 0.0, "fusion_lat": 0.0, "lat": 38.89805116666667, "type": "electric_scooter", "lon": -77.02895533333333, "bike_id": "b46d936c3a6d32a2312811e61efe3cd0", "rental_uris": {"android": "https://dc.lft.to/lastmile_qr_scan", "ios": "https://dc.lft.to/lastmile_qr_scan"}, "name": "b46d936c3a6d32a2312811e61efe3cd0", "is_reserved": 0}, {"is_disabled": 0, "fusion_lon": 0.0, "fusion_lat": 0.0, "lat": 38.901948833333336, "type": "electric_scooter", "lon": -77.03952733333334, "bike_id": "2744be0546263d67b0ee14edda4f3e3a", "rental_uris": {"android": "https://dc.lft.to/lastmile_qr_scan", "ios": "https://dc.lft.to/lastmile_qr_scan"}, "name": "2744be0546263d67b0ee14edda4f3e3a", "is_reserved": 0}, {"is_disabled": 0, "fusion_lon": 0.0, "fusion_lat": 0.0, "lat": 38.91203683333333, "type": "electric_scooter", "lon": -76.98486883333334, "bike_id": "1437a3e59e3283bd3928477b091f9196", "rental_uris": {"android": "https://dc.lft.to/lastmile_qr_scan", "ios": "https://dc.lft.to/lastmile_qr_scan"}, "name": "1437a3e59e3283bd3928477b091f9196", "is_reserved": 0}, {"is_disabled": 0, "fusion_lon": 0.0, "fusion_lat": 0.0, "lat": 38.88014366666667, "type": "electric_scooter", "lon": -77.00587616666667, "bike_id": "ea9e38001356b817b48b7b6c1d2a72de", "rental_uris": {"android": "https://dc.lft.to/lastmile_qr_scan", "ios": "https://dc.lft.to/lastmile_qr_scan"}, "name": "ea9e38001356b817b48b7b6c1d2a72de", "is_reserved": 0}, {"is_disabled": 0, "fusion_lon": 0.0, "fusion_lat": 0.0, "lat": 38.88753833333333, "type": "electric_scooter", "lon": -77.002258, "bike_id": "df4b36be9d7222a6f4aee0d5f38be1a1", "rental_uris": {"android": "https://dc.lft.to/lastmile_qr_scan", "ios": "https://dc.lft.to/lastmile_qr_scan"}, "name": "df4b36be9d7222a6f4aee0d5f38be1a1", "is_reserved": 0}, {"is_disabled": 0, "fusion_lon": 0.0, "fusion_lat": 0.0, "lat": 38.97064533333333, "type": "electric_bike", "lon": -76.9604785, "bike_id": "8b3a1310431d99b02b7f520277da446f", "rental_uris": {"android": "https://dc.lft.to/lastmile_qr_scan", "ios": "https://dc.lft.to/lastmile_qr_scan"}, "name": "8b3a1310431d99b02b7f520277da446f", "is_reserved": 0}, {"is_disabled": 0, "fusion_lon": 0.0, "fusion_lat": 0.0, "lat": 38.94806716666667, "type": "electric_bike", "lon": -76.97212616666667, "bike_id": "55662ff8b7723489ee316fb7ce304303", "rental_uris": {"android": "https://dc.lft.to/lastmile_qr_scan", "ios": "https://dc.lft.to/lastmile_qr_scan"}, "name": "55662ff8b7723489ee316fb7ce304303", "is_reserved": 0}, {"is_disabled": 0, "fusion_lon": 0.0, "fusion_lat": 0.0, "lat": 38.92484233333333, "type": "electric_scooter", "lon": -77.02695216666666, "bike_id": "bfa79d6d089133aae56cd6f15ad13584", "rental_uris": {"android": "https://dc.lft.to/lastmile_qr_scan", "ios": "https://dc.lft.to/lastmile_qr_scan"}, "name": "bfa79d6d089133aae56cd6f15ad13584", "is_reserved": 0}, {"is_disabled": 0, "fusion_lon": 0.0, "fusion_lat": 0.0, "lat": 38.909302, "type": "electric_scooter", "lon": -77.02323733333333, "bike_id": "6aec7431e3ea0d0ebfc2f82389a5489e", "rental_uris": {"android": "https://dc.lft.to/lastmile_qr_scan", "ios": "https://dc.lft.to/lastmile_qr_scan"}, "name": "6aec7431e3ea0d0ebfc2f82389a5489e", "is_reserved": 0}, {"is_disabled": 0, "fusion_lon": 0.0, "fusion_lat": 0.0, "lat": 38.892599, "type": "electric_scooter", "lon": -76.94156566666666, "bike_id": "8c4b3a9b786e68b6a34bb67068d55cb1", "rental_uris": {"android": "https://dc.lft.to/lastmile_qr_scan", "ios": "https://dc.lft.to/lastmile_qr_scan"}, "name": "8c4b3a9b786e68b6a34bb67068d55cb1", "is_reserved": 0}, {"is_disabled": 0, "fusion_lon": 0.0, "fusion_lat": 0.0, "lat": 38.902829833333335, "type": "electric_scooter", "lon": -77.03641466666667, "bike_id": "5eebb0161477cc9c8d2fa0c65e3abf30", "rental_uris": {"android": "https://dc.lft.to/lastmile_qr_scan", "ios": "https://dc.lft.to/lastmile_qr_scan"}, "name": "5eebb0161477cc9c8d2fa0c65e3abf30", "is_reserved": 0}, {"is_disabled": 0, "fusion_lon": 0.0, "fusion_lat": 0.0, "lat": 38.90948783333333, "type": "electric_scooter", "lon": -77.01525916666667, "bike_id": "67c279720b00db0ac67e11534d1c62e9", "rental_uris": {"android": "https://dc.lft.to/lastmile_qr_scan", "ios": "https://dc.lft.to/lastmile_qr_scan"}, "name": "67c279720b00db0ac67e11534d1c62e9", "is_reserved": 0}, {"is_disabled": 0, "fusion_lon": 0.0, "fusion_lat": 0.0, "lat": 38.92385816666667, "type": "electric_scooter", "lon": -77.0276365, "bike_id": "ff496c7fe9dae4494d05313f7f78e92b", "rental_uris": {"android": "https://dc.lft.to/lastmile_qr_scan", "ios": "https://dc.lft.to/lastmile_qr_scan"}, "name": "ff496c7fe9dae4494d05313f7f78e92b", "is_reserved": 0}, {"is_disabled": 0, "fusion_lon": 0.0, "fusion_lat": 0.0, "lat": 38.877631666666666, "type": "electric_scooter", "lon": -77.00128516666666, "bike_id": "1f2bcff91c0bc63794261724019447b3", "rental_uris": {"android": "https://dc.lft.to/lastmile_qr_scan", "ios": "https://dc.lft.to/lastmile_qr_scan"}, "name": "1f2bcff91c0bc63794261724019447b3", "is_reserved": 0}, {"is_disabled": 0, "fusion_lon": 0.0, "fusion_lat": 0.0, "lat": 38.9757415, "type": "electric_bike", "lon": -76.96402816666667, "bike_id": "3e42e00078d208a0253b94c69a52bd6b", "rental_uris": {"android": "https://dc.lft.to/lastmile_qr_scan", "ios": "https://dc.lft.to/lastmile_qr_scan"}, "name": "3e42e00078d208a0253b94c69a52bd6b", "is_reserved": 0}, {"is_disabled": 0, "fusion_lon": 0.0, "fusion_lat": 0.0, "lat": 38.91617083333333, "type": "electric_scooter", "lon": -77.04369916666667, "bike_id": "6cecd35e909a3df4a47ba5b1fb652d51", "rental_uris": {"android": "https://dc.lft.to/lastmile_qr_scan", "ios": "https://dc.lft.to/lastmile_qr_scan"}, "name": "6cecd35e909a3df4a47ba5b1fb652d51", "is_reserved": 0}, {"is_disabled": 0, "fusion_lon": 0.0, "fusion_lat": 0.0, "lat": 38.887324166666666, "type": "electric_scooter", "lon": -77.02272233333333, "bike_id": "83565a36bfd89308f38f6436abaf3d91", "rental_uris": {"android": "https://dc.lft.to/lastmile_qr_scan", "ios": "https://dc.lft.to/lastmile_qr_scan"}, "name": "83565a36bfd89308f38f6436abaf3d91", "is_reserved": 0}, {"is_disabled": 0, "fusion_lon": 0.0, "fusion_lat": 0.0, "lat": 38.888144833333335, "type": "electric_bike", "lon": -77.12742133333333, "bike_id": "a05638609897cc91bdb2c333f0bca967", "rental_uris": {"android": "https://dc.lft.to/lastmile_qr_scan", "ios": "https://dc.lft.to/lastmile_qr_scan"}, "name": "a05638609897cc91bdb2c333f0bca967", "is_reserved": 0}, {"is_disabled": 0, "fusion_lon": 0.0, "fusion_lat": 0.0, "lat": 38.90830116666667, "type": "electric_bike", "lon": -76.94153483333334, "bike_id": "cda4a01d2ba7ad0ec040ab1c03948258", "rental_uris": {"android": "https://dc.lft.to/lastmile_qr_scan", "ios": "https://dc.lft.to/lastmile_qr_scan"}, "name": "cda4a01d2ba7ad0ec040ab1c03948258", "is_reserved": 0}, {"is_disabled": 0, "fusion_lon": 0.0, "fusion_lat": 0.0, "lat": 38.928649166666666, "type": "electric_scooter", "lon": -77.03095816666666, "bike_id": "923b668663ec94f8847ec94fc02644b9", "rental_uris": {"android": "https://dc.lft.to/lastmile_qr_scan", "ios": "https://dc.lft.to/lastmile_qr_scan"}, "name": "923b668663ec94f8847ec94fc02644b9", "is_reserved": 0}, {"is_disabled": 0, "fusion_lon": 0.0, "fusion_lat": 0.0, "lat": 38.990899, "type": "electric_bike", "lon": -76.874956, "bike_id": "ba1e11844e2cc89d55d31edfde202ade", "rental_uris": {"android": "https://dc.lft.to/lastmile_qr_scan", "ios": "https://dc.lft.to/lastmile_qr_scan"}, "name": "ba1e11844e2cc89d55d31edfde202ade", "is_reserved": 0}, {"is_disabled": 0, "fusion_lon": 0.0, "fusion_lat": 0.0, "lat": 38.93291983333334, "type": "electric_scooter", "lon": -77.0239095, "bike_id": "642c8b44058015e0c90c98aea905acb3", "rental_uris": {"android": "https://dc.lft.to/lastmile_qr_scan", "ios": "https://dc.lft.to/lastmile_qr_scan"}, "name": "642c8b44058015e0c90c98aea905acb3", "is_reserved": 0}, {"is_disabled": 0, "fusion_lon": 0.0, "fusion_lat": 0.0, "lat": 38.88970366666667, "type": "electric_bike", "lon": -76.948647, "bike_id": "b5eeea81954a460ed8069be7a0e0561f", "rental_uris": {"android": "https://dc.lft.to/lastmile_qr_scan", "ios": "https://dc.lft.to/lastmile_qr_scan"}, "name": "b5eeea81954a460ed8069be7a0e0561f", "is_reserved": 0}, {"is_disabled": 0, "fusion_lon": 0.0, "fusion_lat": 0.0, "lat": 38.916498833333335, "type": "electric_scooter", "lon": -77.02179016666666, "bike_id": "cc45ceef21b4d7f2e7acada48b1782b5", "rental_uris": {"android": "https://dc.lft.to/lastmile_qr_scan", "ios": "https://dc.lft.to/lastmile_qr_scan"}, "name": "cc45ceef21b4d7f2e7acada48b1782b5", "is_reserved": 0}, {"is_disabled": 0, "fusion_lon": 0.0, "fusion_lat": 0.0, "lat": 38.90778016666667, "type": "electric_scooter", "lon": -77.032681, "bike_id": "0868fcef57dffdf7e562b886e2bdea42", "rental_uris": {"android": "https://dc.lft.to/lastmile_qr_scan", "ios": "https://dc.lft.to/lastmile_qr_scan"}, "name": "0868fcef57dffdf7e562b886e2bdea42", "is_reserved": 0}, {"is_disabled": 0, "fusion_lon": 0.0, "fusion_lat": 0.0, "lat": 38.907341, "type": "electric_bike", "lon": -77.00754783333333, "bike_id": "f48b16b0ec1e367063cfd833ed587040", "rental_uris": {"android": "https://dc.lft.to/lastmile_qr_scan", "ios": "https://dc.lft.to/lastmile_qr_scan"}, "name": "f48b16b0ec1e367063cfd833ed587040", "is_reserved": 0}, {"is_disabled": 0, "fusion_lon": 0.0, "fusion_lat": 0.0, "lat": 38.9270385, "type": "electric_scooter", "lon": -77.0232715, "bike_id": "f1bb29779235ad35da968eec577660eb", "rental_uris": {"android": "https://dc.lft.to/lastmile_qr_scan", "ios": "https://dc.lft.to/lastmile_qr_scan"}, "name": "f1bb29779235ad35da968eec577660eb", "is_reserved": 0}, {"is_disabled": 0, "fusion_lon": 0.0, "fusion_lat": 0.0, "lat": 38.90159166666667, "type": "electric_scooter", "lon": -77.02923283333334, "bike_id": "f88aefeb90b016ac3e6aa9106d0c6539", "rental_uris": {"android": "https://dc.lft.to/lastmile_qr_scan", "ios": "https://dc.lft.to/lastmile_qr_scan"}, "name": "f88aefeb90b016ac3e6aa9106d0c6539", "is_reserved": 0}, {"is_disabled": 0, "fusion_lon": 0.0, "fusion_lat": 0.0, "lat": 38.928583, "type": "electric_scooter", "lon": -77.01391233333334, "bike_id": "2c0efc80f0deb618ac0cb7fddb284432", "rental_uris": {"android": "https://dc.lft.to/lastmile_qr_scan", "ios": "https://dc.lft.to/lastmile_qr_scan"}, "name": "2c0efc80f0deb618ac0cb7fddb284432", "is_reserved": 0}, {"is_disabled": 0, "fusion_lon": 0.0, "fusion_lat": 0.0, "lat": 38.92727, "type": "electric_scooter", "lon": -77.02248833333333, "bike_id": "c7c78ad7f9206cec648d1690871e1bb7", "rental_uris": {"android": "https://dc.lft.to/lastmile_qr_scan", "ios": "https://dc.lft.to/lastmile_qr_scan"}, "name": "c7c78ad7f9206cec648d1690871e1bb7", "is_reserved": 0}, {"is_disabled": 0, "fusion_lon": 0.0, "fusion_lat": 0.0, "lat": 38.900438, "type": "electric_scooter", "lon": -76.92271116666667, "bike_id": "0be7ea1ecd3c39d1d4369df74ab34fff", "rental_uris": {"android": "https://dc.lft.to/lastmile_qr_scan", "ios": "https://dc.lft.to/lastmile_qr_scan"}, "name": "0be7ea1ecd3c39d1d4369df74ab34fff", "is_reserved": 0}, {"is_disabled": 0, "fusion_lon": 0.0, "fusion_lat": 0.0, "lat": 38.86116116666667, "type": "electric_scooter", "lon": -76.98546316666666, "bike_id": "93c8cf482b057e31e0ea0352dc6707f0", "rental_uris": {"android": "https://dc.lft.to/lastmile_qr_scan", "ios": "https://dc.lft.to/lastmile_qr_scan"}, "name": "93c8cf482b057e31e0ea0352dc6707f0", "is_reserved": 0}, {"is_disabled": 0, "fusion_lon": 0.0, "fusion_lat": 0.0, "lat": 38.936752, "type": "electric_scooter", "lon": -77.02441283333333, "bike_id": "8fd7bcdeb5b1874c4a98175a86945ddd", "rental_uris": {"android": "https://dc.lft.to/lastmile_qr_scan", "ios": "https://dc.lft.to/lastmile_qr_scan"}, "name": "8fd7bcdeb5b1874c4a98175a86945ddd", "is_reserved": 0}, {"is_disabled": 0, "fusion_lon": 0.0, "fusion_lat": 0.0, "lat": 38.8937235, "type": "electric_scooter", "lon": -76.949975, "bike_id": "805579ff936fca9a0a6c91677160ff24", "rental_uris": {"android": "https://dc.lft.to/lastmile_qr_scan", "ios": "https://dc.lft.to/lastmile_qr_scan"}, "name": "805579ff936fca9a0a6c91677160ff24", "is_reserved": 0}, {"is_disabled": 0, "fusion_lon": 0.0, "fusion_lat": 0.0, "lat": 38.90027933333333, "type": "electric_scooter", "lon": -77.00189066666667, "bike_id": "c3a5b187b3f153331c73ac1ed3cc40e3", "rental_uris": {"android": "https://dc.lft.to/lastmile_qr_scan", "ios": "https://dc.lft.to/lastmile_qr_scan"}, "name": "c3a5b187b3f153331c73ac1ed3cc40e3", "is_reserved": 0}, {"is_disabled": 0, "fusion_lon": 0.0, "fusion_lat": 0.0, "lat": 38.887574, "type": "electric_bike", "lon": -76.90084583333334, "bike_id": "ae3d3d1c2c8f79f7533c4a0b43c5eb63", "rental_uris": {"android": "https://dc.lft.to/lastmile_qr_scan", "ios": "https://dc.lft.to/lastmile_qr_scan"}, "name": "ae3d3d1c2c8f79f7533c4a0b43c5eb63", "is_reserved": 0}, {"is_disabled": 0, "fusion_lon": 0.0, "fusion_lat": 0.0, "lat": 38.89680216666667, "type": "electric_scooter", "lon": -76.9978935, "bike_id": "ab6ca968f6799fb18deaff0f475acdc9", "rental_uris": {"android": "https://dc.lft.to/lastmile_qr_scan", "ios": "https://dc.lft.to/lastmile_qr_scan"}, "name": "ab6ca968f6799fb18deaff0f475acdc9", "is_reserved": 0}, {"is_disabled": 0, "fusion_lon": 0.0, "fusion_lat": 0.0, "lat": 38.9118325, "type": "electric_scooter", "lon": -77.0350735, "bike_id": "9b3c88d4ffa5afa64813531d5f0b7454", "rental_uris": {"android": "https://dc.lft.to/lastmile_qr_scan", "ios": "https://dc.lft.to/lastmile_qr_scan"}, "name": "9b3c88d4ffa5afa64813531d5f0b7454", "is_reserved": 0}, {"is_disabled": 0, "fusion_lon": 0.0, "fusion_lat": 0.0, "lat": 38.8920805, "type": "electric_scooter", "lon": -76.98808966666667, "bike_id": "e536a6a4ef6b8a260ea18ca15449d0c7", "rental_uris": {"android": "https://dc.lft.to/lastmile_qr_scan", "ios": "https://dc.lft.to/lastmile_qr_scan"}, "name": "e536a6a4ef6b8a260ea18ca15449d0c7", "is_reserved": 0}, {"is_disabled": 0, "fusion_lon": 0.0, "fusion_lat": 0.0, "lat": 38.92370016666667, "type": "electric_scooter", "lon": -77.02801016666666, "bike_id": "6c83075435cdba9188f4344962d384d0", "rental_uris": {"android": "https://dc.lft.to/lastmile_qr_scan", "ios": "https://dc.lft.to/lastmile_qr_scan"}, "name": "6c83075435cdba9188f4344962d384d0", "is_reserved": 0}, {"is_disabled": 0, "fusion_lon": 0.0, "fusion_lat": 0.0, "lat": 38.9147715, "type": "electric_scooter", "lon": -77.03468483333333, "bike_id": "e65e6238402ce886dd5dd71fdc5192e3", "rental_uris": {"android": "https://dc.lft.to/lastmile_qr_scan", "ios": "https://dc.lft.to/lastmile_qr_scan"}, "name": "e65e6238402ce886dd5dd71fdc5192e3", "is_reserved": 0}, {"is_disabled": 0, "fusion_lon": 0.0, "fusion_lat": 0.0, "lat": 38.9112465, "type": "electric_scooter", "lon": -77.04181166666666, "bike_id": "7a8caa36cf90fffab0c624bbe9247778", "rental_uris": {"android": "https://dc.lft.to/lastmile_qr_scan", "ios": "https://dc.lft.to/lastmile_qr_scan"}, "name": "7a8caa36cf90fffab0c624bbe9247778", "is_reserved": 0}, {"is_disabled": 0, "fusion_lon": 0.0, "fusion_lat": 0.0, "lat": 39.088406, "type": "electric_bike", "lon": -77.17801566666667, "bike_id": "98671b41808cf8cea03978094e87bdbf", "rental_uris": {"android": "https://dc.lft.to/lastmile_qr_scan", "ios": "https://dc.lft.to/lastmile_qr_scan"}, "name": "98671b41808cf8cea03978094e87bdbf", "is_reserved": 0}, {"is_disabled": 0, "fusion_lon": 0.0, "fusion_lat": 0.0, "lat": 38.884159833333335, "type": "electric_scooter", "lon": -76.954149, "bike_id": "0ff1bbd27cfb5fb65e99cea986a6e94f", "rental_uris": {"android": "https://dc.lft.to/lastmile_qr_scan", "ios": "https://dc.lft.to/lastmile_qr_scan"}, "name": "0ff1bbd27cfb5fb65e99cea986a6e94f", "is_reserved": 0}, {"is_disabled": 0, "fusion_lon": 0.0, "fusion_lat": 0.0, "lat": 38.903626333333335, "type": "electric_scooter", "lon": -77.04203933333334, "bike_id": "2ef5807701b474d9a31e6d58a5bec2f5", "rental_uris": {"android": "https://dc.lft.to/lastmile_qr_scan", "ios": "https://dc.lft.to/lastmile_qr_scan"}, "name": "2ef5807701b474d9a31e6d58a5bec2f5", "is_reserved": 0}, {"is_disabled": 0, "fusion_lon": 0.0, "fusion_lat": 0.0, "lat": 38.913234333333335, "type": "electric_scooter", "lon": -77.03262766666667, "bike_id": "68651495517183573d1df25214cda40b", "rental_uris": {"android": "https://dc.lft.to/lastmile_qr_scan", "ios": "https://dc.lft.to/lastmile_qr_scan"}, "name": "68651495517183573d1df25214cda40b", "is_reserved": 0}, {"is_disabled": 0, "fusion_lon": 0.0, "fusion_lat": 0.0, "lat": 38.9014335, "type": "electric_scooter", "lon": -77.01499933333334, "bike_id": "49343ebd126ca3eac301f1c8e43ce3bf", "rental_uris": {"android": "https://dc.lft.to/lastmile_qr_scan", "ios": "https://dc.lft.to/lastmile_qr_scan"}, "name": "49343ebd126ca3eac301f1c8e43ce3bf", "is_reserved": 0}, {"is_disabled": 0, "fusion_lon": 0.0, "fusion_lat": 0.0, "lat": 38.91817533333333, "type": "electric_scooter", "lon": -77.03133833333334, "bike_id": "4ad03172c750da3a33a5e9a0412865ed", "rental_uris": {"android": "https://dc.lft.to/lastmile_qr_scan", "ios": "https://dc.lft.to/lastmile_qr_scan"}, "name": "4ad03172c750da3a33a5e9a0412865ed", "is_reserved": 0}, {"is_disabled": 0, "fusion_lon": 0.0, "fusion_lat": 0.0, "lat": 38.907131666666665, "type": "electric_scooter", "lon": -77.02709133333333, "bike_id": "f91b955dc826679f4b2d1af46dc0822e", "rental_uris": {"android": "https://dc.lft.to/lastmile_qr_scan", "ios": "https://dc.lft.to/lastmile_qr_scan"}, "name": "f91b955dc826679f4b2d1af46dc0822e", "is_reserved": 0}, {"is_disabled": 0, "fusion_lon": 0.0, "fusion_lat": 0.0, "lat": 38.9070915, "type": "electric_scooter", "lon": -77.02392133333333, "bike_id": "04e79510bf72aa2b812390a05267b122", "rental_uris": {"android": "https://dc.lft.to/lastmile_qr_scan", "ios": "https://dc.lft.to/lastmile_qr_scan"}, "name": "04e79510bf72aa2b812390a05267b122", "is_reserved": 0}, {"is_disabled": 0, "fusion_lon": 0.0, "fusion_lat": 0.0, "lat": 38.91752266666667, "type": "electric_scooter", "lon": -77.04151016666667, "bike_id": "16ae48007395ff7d5459ccbb647a0f7d", "rental_uris": {"android": "https://dc.lft.to/lastmile_qr_scan", "ios": "https://dc.lft.to/lastmile_qr_scan"}, "name": "16ae48007395ff7d5459ccbb647a0f7d", "is_reserved": 0}, {"is_disabled": 0, "fusion_lon": 0.0, "fusion_lat": 0.0, "lat": 38.9171095, "type": "electric_scooter", "lon": -77.026173, "bike_id": "c8e51beda2881dd8fee365b1d3383ec8", "rental_uris": {"android": "https://dc.lft.to/lastmile_qr_scan", "ios": "https://dc.lft.to/lastmile_qr_scan"}, "name": "c8e51beda2881dd8fee365b1d3383ec8", "is_reserved": 0}, {"is_disabled": 0, "fusion_lon": 0.0, "fusion_lat": 0.0, "lat": 38.89224883333333, "type": "electric_scooter", "lon": -77.026317, "bike_id": "60cb7c19f43106f312105f7c35aefc9b", "rental_uris": {"android": "https://dc.lft.to/lastmile_qr_scan", "ios": "https://dc.lft.to/lastmile_qr_scan"}, "name": "60cb7c19f43106f312105f7c35aefc9b", "is_reserved": 0}, {"is_disabled": 0, "fusion_lon": 0.0, "fusion_lat": 0.0, "lat": 38.939202333333334, "type": "electric_scooter", "lon": -77.02503483333334, "bike_id": "34cd91d451a5d139140b62a85526edef", "rental_uris": {"android": "https://dc.lft.to/lastmile_qr_scan", "ios": "https://dc.lft.to/lastmile_qr_scan"}, "name": "34cd91d451a5d139140b62a85526edef", "is_reserved": 0}, {"is_disabled": 0, "fusion_lon": 0.0, "fusion_lat": 0.0, "lat": 38.91566366666667, "type": "electric_scooter", "lon": -77.02084083333334, "bike_id": "b5b8e2a500c84ff3078f01b067b04e0a", "rental_uris": {"android": "https://dc.lft.to/lastmile_qr_scan", "ios": "https://dc.lft.to/lastmile_qr_scan"}, "name": "b5b8e2a500c84ff3078f01b067b04e0a", "is_reserved": 0}, {"is_disabled": 0, "fusion_lon": 0.0, "fusion_lat": 0.0, "lat": 38.965580833333334, "type": "electric_bike", "lon": -77.022994, "bike_id": "363f2398fe5c876af40c79b64118cb22", "rental_uris": {"android": "https://dc.lft.to/lastmile_qr_scan", "ios": "https://dc.lft.to/lastmile_qr_scan"}, "name": "363f2398fe5c876af40c79b64118cb22", "is_reserved": 0}, {"is_disabled": 0, "fusion_lon": 0.0, "fusion_lat": 0.0, "lat": 38.894933, "type": "electric_scooter", "lon": -77.0229695, "bike_id": "8abb943f065eccacf646c0c74476e595", "rental_uris": {"android": "https://dc.lft.to/lastmile_qr_scan", "ios": "https://dc.lft.to/lastmile_qr_scan"}, "name": "8abb943f065eccacf646c0c74476e595", "is_reserved": 0}, {"is_disabled": 0, "fusion_lon": 0.0, "fusion_lat": 0.0, "lat": 38.93536816666666, "type": "electric_scooter", "lon": -77.034067, "bike_id": "c57b82e7dd7731a1b2207fbf3774be79", "rental_uris": {"android": "https://dc.lft.to/lastmile_qr_scan", "ios": "https://dc.lft.to/lastmile_qr_scan"}, "name": "c57b82e7dd7731a1b2207fbf3774be79", "is_reserved": 0}, {"is_disabled": 0, "fusion_lon": 0.0, "fusion_lat": 0.0, "lat": 38.904647, "type": "electric_scooter", "lon": -76.99213333333333, "bike_id": "50fb4a819487fd6c32e3f955cde64110", "rental_uris": {"android": "https://dc.lft.to/lastmile_qr_scan", "ios": "https://dc.lft.to/lastmile_qr_scan"}, "name": "50fb4a819487fd6c32e3f955cde64110", "is_reserved": 0}, {"is_disabled": 0, "fusion_lon": 0.0, "fusion_lat": 0.0, "lat": 38.92257983333333, "type": "electric_scooter", "lon": -77.0713195, "bike_id": "e8be45dc37d8b4db227895682d617376", "rental_uris": {"android": "https://dc.lft.to/lastmile_qr_scan", "ios": "https://dc.lft.to/lastmile_qr_scan"}, "name": "e8be45dc37d8b4db227895682d617376", "is_reserved": 0}, {"is_disabled": 0, "fusion_lon": 0.0, "fusion_lat": 0.0, "lat": 38.90010516666667, "type": "electric_scooter", "lon": -77.011911, "bike_id": "9221216c05127f39e58bee3ffeceae5c", "rental_uris": {"android": "https://dc.lft.to/lastmile_qr_scan", "ios": "https://dc.lft.to/lastmile_qr_scan"}, "name": "9221216c05127f39e58bee3ffeceae5c", "is_reserved": 0}, {"is_disabled": 0, "fusion_lon": 0.0, "fusion_lat": 0.0, "lat": 38.91150916666667, "type": "electric_scooter", "lon": -76.985027, "bike_id": "7ff13d7f7fcefdd08f7771e7e6a69c0c", "rental_uris": {"android": "https://dc.lft.to/lastmile_qr_scan", "ios": "https://dc.lft.to/lastmile_qr_scan"}, "name": "7ff13d7f7fcefdd08f7771e7e6a69c0c", "is_reserved": 0}, {"is_disabled": 0, "fusion_lon": 0.0, "fusion_lat": 0.0, "lat": 38.90036966666667, "type": "electric_scooter", "lon": -77.00198116666667, "bike_id": "4413ae494d9e35b8f6617f132ae19ea2", "rental_uris": {"android": "https://dc.lft.to/lastmile_qr_scan", "ios": "https://dc.lft.to/lastmile_qr_scan"}, "name": "4413ae494d9e35b8f6617f132ae19ea2", "is_reserved": 0}, {"is_disabled": 0, "fusion_lon": 0.0, "fusion_lat": 0.0, "lat": 38.91704883333333, "type": "electric_scooter", "lon": -77.0367085, "bike_id": "7a885b9379e8f04782ecb8d94d3f0f03", "rental_uris": {"android": "https://dc.lft.to/lastmile_qr_scan", "ios": "https://dc.lft.to/lastmile_qr_scan"}, "name": "7a885b9379e8f04782ecb8d94d3f0f03", "is_reserved": 0}, {"is_disabled": 0, "fusion_lon": 0.0, "fusion_lat": 0.0, "lat": 38.9461805, "type": "electric_scooter", "lon": -77.0362455, "bike_id": "22ff5cb3a24ede76b8738bb88ed20284", "rental_uris": {"android": "https://dc.lft.to/lastmile_qr_scan", "ios": "https://dc.lft.to/lastmile_qr_scan"}, "name": "22ff5cb3a24ede76b8738bb88ed20284", "is_reserved": 0}, {"is_disabled": 0, "fusion_lon": 0.0, "fusion_lat": 0.0, "lat": 38.92017583333333, "type": "electric_scooter", "lon": -77.0313955, "bike_id": "29cd22647153bf0ca5bae9c1b42287c0", "rental_uris": {"android": "https://dc.lft.to/lastmile_qr_scan", "ios": "https://dc.lft.to/lastmile_qr_scan"}, "name": "29cd22647153bf0ca5bae9c1b42287c0", "is_reserved": 0}, {"is_disabled": 0, "fusion_lon": 0.0, "fusion_lat": 0.0, "lat": 38.928102833333334, "type": "electric_scooter", "lon": -77.0433735, "bike_id": "be8cd2fd69f5ee202e047ccb6a58c052", "rental_uris": {"android": "https://dc.lft.to/lastmile_qr_scan", "ios": "https://dc.lft.to/lastmile_qr_scan"}, "name": "be8cd2fd69f5ee202e047ccb6a58c052", "is_reserved": 0}, {"is_disabled": 0, "fusion_lon": 0.0, "fusion_lat": 0.0, "lat": 38.913113333333335, "type": "electric_scooter", "lon": -77.00846183333333, "bike_id": "46f684854010f64d075e10b76b80f9af", "rental_uris": {"android": "https://dc.lft.to/lastmile_qr_scan", "ios": "https://dc.lft.to/lastmile_qr_scan"}, "name": "46f684854010f64d075e10b76b80f9af", "is_reserved": 0}, {"is_disabled": 0, "fusion_lon": 0.0, "fusion_lat": 0.0, "lat": 38.92965866666667, "type": "electric_scooter", "lon": -77.0419335, "bike_id": "70d969f716ece180c2f9c84ad7eaeadf", "rental_uris": {"android": "https://dc.lft.to/lastmile_qr_scan", "ios": "https://dc.lft.to/lastmile_qr_scan"}, "name": "70d969f716ece180c2f9c84ad7eaeadf", "is_reserved": 0}, {"is_disabled": 0, "fusion_lon": 0.0, "fusion_lat": 0.0, "lat": 38.951731333333335, "type": "electric_scooter", "lon": -77.0333625, "bike_id": "0d528bbec9055838c2bfa79d193ebdd3", "rental_uris": {"android": "https://dc.lft.to/lastmile_qr_scan", "ios": "https://dc.lft.to/lastmile_qr_scan"}, "name": "0d528bbec9055838c2bfa79d193ebdd3", "is_reserved": 0}, {"is_disabled": 0, "fusion_lon": 0.0, "fusion_lat": 0.0, "lat": 38.912664, "type": "electric_scooter", "lon": -77.03370033333333, "bike_id": "0fd865dfc3219758205ebca565bb7ee5", "rental_uris": {"android": "https://dc.lft.to/lastmile_qr_scan", "ios": "https://dc.lft.to/lastmile_qr_scan"}, "name": "0fd865dfc3219758205ebca565bb7ee5", "is_reserved": 0}, {"is_disabled": 0, "fusion_lon": 0.0, "fusion_lat": 0.0, "lat": 38.96612833333333, "type": "electric_scooter", "lon": -77.03534683333334, "bike_id": "b60065a8bbd2c68b764efe1a17f4ceeb", "rental_uris": {"android": "https://dc.lft.to/lastmile_qr_scan", "ios": "https://dc.lft.to/lastmile_qr_scan"}, "name": "b60065a8bbd2c68b764efe1a17f4ceeb", "is_reserved": 0}, {"is_disabled": 0, "fusion_lon": 0.0, "fusion_lat": 0.0, "lat": 39.10565866666666, "type": "electric_bike", "lon": -77.15266766666667, "bike_id": "953eb728e60a14450d147e7be164dd7c", "rental_uris": {"android": "https://dc.lft.to/lastmile_qr_scan", "ios": "https://dc.lft.to/lastmile_qr_scan"}, "name": "953eb728e60a14450d147e7be164dd7c", "is_reserved": 0}, {"is_disabled": 0, "fusion_lon": 0.0, "fusion_lat": 0.0, "lat": 38.9212055, "type": "electric_bike", "lon": -77.012098, "bike_id": "877bb890b804f2a431f7c850368fa2ba", "rental_uris": {"android": "https://dc.lft.to/lastmile_qr_scan", "ios": "https://dc.lft.to/lastmile_qr_scan"}, "name": "877bb890b804f2a431f7c850368fa2ba", "is_reserved": 0}, {"is_disabled": 0, "fusion_lon": 0.0, "fusion_lat": 0.0, "lat": 38.90274866666667, "type": "electric_scooter", "lon": -77.04260833333333, "bike_id": "63cadf76acb0f48bf2ada25d38962c91", "rental_uris": {"android": "https://dc.lft.to/lastmile_qr_scan", "ios": "https://dc.lft.to/lastmile_qr_scan"}, "name": "63cadf76acb0f48bf2ada25d38962c91", "is_reserved": 0}, {"is_disabled": 0, "fusion_lon": 0.0, "fusion_lat": 0.0, "lat": 38.93633366666667, "type": "electric_scooter", "lon": -77.03657766666667, "bike_id": "ffab023267fbdb56a8fe46ef0b49cfa2", "rental_uris": {"android": "https://dc.lft.to/lastmile_qr_scan", "ios": "https://dc.lft.to/lastmile_qr_scan"}, "name": "ffab023267fbdb56a8fe46ef0b49cfa2", "is_reserved": 0}, {"is_disabled": 0, "fusion_lon": 0.0, "fusion_lat": 0.0, "lat": 38.921089333333335, "type": "electric_scooter", "lon": -76.994195, "bike_id": "3c2e42b3477ca929f78ed0c2a73a16bb", "rental_uris": {"android": "https://dc.lft.to/lastmile_qr_scan", "ios": "https://dc.lft.to/lastmile_qr_scan"}, "name": "3c2e42b3477ca929f78ed0c2a73a16bb", "is_reserved": 0}, {"is_disabled": 0, "fusion_lon": 0.0, "fusion_lat": 0.0, "lat": 38.913368, "type": "electric_scooter", "lon": -77.03184483333334, "bike_id": "dbc0013dd67ae438d9443adcc4570578", "rental_uris": {"android": "https://dc.lft.to/lastmile_qr_scan", "ios": "https://dc.lft.to/lastmile_qr_scan"}, "name": "dbc0013dd67ae438d9443adcc4570578", "is_reserved": 0}, {"is_disabled": 0, "fusion_lon": 0.0, "fusion_lat": 0.0, "lat": 38.919783, "type": "electric_scooter", "lon": -77.00019433333334, "bike_id": "7134bd1196532e6c0318760d6a18cc48", "rental_uris": {"android": "https://dc.lft.to/lastmile_qr_scan", "ios": "https://dc.lft.to/lastmile_qr_scan"}, "name": "7134bd1196532e6c0318760d6a18cc48", "is_reserved": 0}, {"is_disabled": 0, "fusion_lon": 0.0, "fusion_lat": 0.0, "lat": 38.9453815, "type": "electric_bike", "lon": -77.02706366666666, "bike_id": "76558561d63c4a654df667c7116b33d6", "rental_uris": {"android": "https://dc.lft.to/lastmile_qr_scan", "ios": "https://dc.lft.to/lastmile_qr_scan"}, "name": "76558561d63c4a654df667c7116b33d6", "is_reserved": 0}, {"is_disabled": 0, "fusion_lon": 0.0, "fusion_lat": 0.0, "lat": 38.893716, "type": "electric_scooter", "lon": -76.94998583333333, "bike_id": "69de30ca51e53e9df5b9653f384bfc0d", "rental_uris": {"android": "https://dc.lft.to/lastmile_qr_scan", "ios": "https://dc.lft.to/lastmile_qr_scan"}, "name": "69de30ca51e53e9df5b9653f384bfc0d", "is_reserved": 0}, {"is_disabled": 0, "fusion_lon": 0.0, "fusion_lat": 0.0, "lat": 38.924433666666665, "type": "electric_bike", "lon": -76.9683225, "bike_id": "69f343bc1d3d30387c60d4235614142a", "rental_uris": {"android": "https://dc.lft.to/lastmile_qr_scan", "ios": "https://dc.lft.to/lastmile_qr_scan"}, "name": "69f343bc1d3d30387c60d4235614142a", "is_reserved": 0}, {"is_disabled": 0, "fusion_lon": 0.0, "fusion_lat": 0.0, "lat": 38.90709583333334, "type": "electric_scooter", "lon": -77.02390783333334, "bike_id": "77c36c9e21bf643d762b82f78e44991b", "rental_uris": {"android": "https://dc.lft.to/lastmile_qr_scan", "ios": "https://dc.lft.to/lastmile_qr_scan"}, "name": "77c36c9e21bf643d762b82f78e44991b", "is_reserved": 0}, {"is_disabled": 0, "fusion_lon": 0.0, "fusion_lat": 0.0, "lat": 38.90360116666667, "type": "electric_scooter", "lon": -77.00747, "bike_id": "a955d11a0f6eea7d3eb85a5610b649cf", "rental_uris": {"android": "https://dc.lft.to/lastmile_qr_scan", "ios": "https://dc.lft.to/lastmile_qr_scan"}, "name": "a955d11a0f6eea7d3eb85a5610b649cf", "is_reserved": 0}, {"is_disabled": 0, "fusion_lon": 0.0, "fusion_lat": 0.0, "lat": 38.90969483333333, "type": "electric_scooter", "lon": -77.03751216666667, "bike_id": "23cef91bb9e33cd72178ae4fc44f4a7f", "rental_uris": {"android": "https://dc.lft.to/lastmile_qr_scan", "ios": "https://dc.lft.to/lastmile_qr_scan"}, "name": "23cef91bb9e33cd72178ae4fc44f4a7f", "is_reserved": 0}, {"is_disabled": 0, "fusion_lon": 0.0, "fusion_lat": 0.0, "lat": 38.8875605, "type": "electric_scooter", "lon": -77.03381933333333, "bike_id": "37756197e51110503cde742bb1f8603c", "rental_uris": {"android": "https://dc.lft.to/lastmile_qr_scan", "ios": "https://dc.lft.to/lastmile_qr_scan"}, "name": "37756197e51110503cde742bb1f8603c", "is_reserved": 0}, {"is_disabled": 0, "fusion_lon": 0.0, "fusion_lat": 0.0, "lat": 38.929698333333334, "type": "electric_scooter", "lon": -77.00530783333333, "bike_id": "37fa89687f9be4e71f2c53ee61b8b6f5", "rental_uris": {"android": "https://dc.lft.to/lastmile_qr_scan", "ios": "https://dc.lft.to/lastmile_qr_scan"}, "name": "37fa89687f9be4e71f2c53ee61b8b6f5", "is_reserved": 0}, {"is_disabled": 0, "fusion_lon": 0.0, "fusion_lat": 0.0, "lat": 38.907554, "type": "electric_scooter", "lon": -77.03583633333334, "bike_id": "0209fa212a3e22383bfe96b9126a3386", "rental_uris": {"android": "https://dc.lft.to/lastmile_qr_scan", "ios": "https://dc.lft.to/lastmile_qr_scan"}, "name": "0209fa212a3e22383bfe96b9126a3386", "is_reserved": 0}, {"is_disabled": 0, "fusion_lon": 0.0, "fusion_lat": 0.0, "lat": 38.94153216666667, "type": "electric_bike", "lon": -77.00195, "bike_id": "4c0e6e1e044eee54baa51b43780d4e51", "rental_uris": {"android": "https://dc.lft.to/lastmile_qr_scan", "ios": "https://dc.lft.to/lastmile_qr_scan"}, "name": "4c0e6e1e044eee54baa51b43780d4e51", "is_reserved": 0}, {"is_disabled": 0, "fusion_lon": 0.0, "fusion_lat": 0.0, "lat": 39.05808116666667, "type": "electric_bike", "lon": -77.1262775, "bike_id": "922570b2012fc8b910368dc1389603ed", "rental_uris": {"android": "https://dc.lft.to/lastmile_qr_scan", "ios": "https://dc.lft.to/lastmile_qr_scan"}, "name": "922570b2012fc8b910368dc1389603ed", "is_reserved": 0}, {"is_disabled": 0, "fusion_lon": 0.0, "fusion_lat": 0.0, "lat": 38.8767625, "type": "electric_bike", "lon": -77.01445816666667, "bike_id": "af22c7846466054e45bff80cd6e0b197", "rental_uris": {"android": "https://dc.lft.to/lastmile_qr_scan", "ios": "https://dc.lft.to/lastmile_qr_scan"}, "name": "af22c7846466054e45bff80cd6e0b197", "is_reserved": 0}, {"is_disabled": 0, "fusion_lon": 0.0, "fusion_lat": 0.0, "lat": 38.88302266666667, "type": "electric_bike", "lon": -77.10439783333334, "bike_id": "04340b7c8c41ca3f6ca787e7fc76dd5b", "rental_uris": {"android": "https://dc.lft.to/lastmile_qr_scan", "ios": "https://dc.lft.to/lastmile_qr_scan"}, "name": "04340b7c8c41ca3f6ca787e7fc76dd5b", "is_reserved": 0}, {"is_disabled": 0, "fusion_lon": 0.0, "fusion_lat": 0.0, "lat": 38.922933666666665, "type": "electric_scooter", "lon": -77.04035866666666, "bike_id": "0927fd70e20c3ec8dc2cd56a1971d1bc", "rental_uris": {"android": "https://dc.lft.to/lastmile_qr_scan", "ios": "https://dc.lft.to/lastmile_qr_scan"}, "name": "0927fd70e20c3ec8dc2cd56a1971d1bc", "is_reserved": 0}, {"is_disabled": 0, "fusion_lon": 0.0, "fusion_lat": 0.0, "lat": 38.91867966666667, "type": "electric_scooter", "lon": -77.035181, "bike_id": "06bfb6709e197d8bcb5199fbcf9bf321", "rental_uris": {"android": "https://dc.lft.to/lastmile_qr_scan", "ios": "https://dc.lft.to/lastmile_qr_scan"}, "name": "06bfb6709e197d8bcb5199fbcf9bf321", "is_reserved": 0}, {"is_disabled": 0, "fusion_lon": 0.0, "fusion_lat": 0.0, "lat": 38.9205525, "type": "electric_scooter", "lon": -77.04189933333333, "bike_id": "6f22b58843c5a0fcc7b5e0ec2ae08876", "rental_uris": {"android": "https://dc.lft.to/lastmile_qr_scan", "ios": "https://dc.lft.to/lastmile_qr_scan"}, "name": "6f22b58843c5a0fcc7b5e0ec2ae08876", "is_reserved": 0}, {"is_disabled": 0, "fusion_lon": 0.0, "fusion_lat": 0.0, "lat": 38.903261, "type": "electric_scooter", "lon": -77.05016383333333, "bike_id": "d52f14fd7202d715ec04d82a36f51432", "rental_uris": {"android": "https://dc.lft.to/lastmile_qr_scan", "ios": "https://dc.lft.to/lastmile_qr_scan"}, "name": "d52f14fd7202d715ec04d82a36f51432", "is_reserved": 0}, {"is_disabled": 0, "fusion_lon": 0.0, "fusion_lat": 0.0, "lat": 38.92320933333333, "type": "electric_scooter", "lon": -77.04003416666667, "bike_id": "7e3a632dcba4ab365207e4cab0a30df0", "rental_uris": {"android": "https://dc.lft.to/lastmile_qr_scan", "ios": "https://dc.lft.to/lastmile_qr_scan"}, "name": "7e3a632dcba4ab365207e4cab0a30df0", "is_reserved": 0}, {"is_disabled": 0, "fusion_lon": 0.0, "fusion_lat": 0.0, "lat": 38.900381333333335, "type": "electric_scooter", "lon": -77.0465415, "bike_id": "50a2a14a398aef949025c2c13fb905a5", "rental_uris": {"android": "https://dc.lft.to/lastmile_qr_scan", "ios": "https://dc.lft.to/lastmile_qr_scan"}, "name": "50a2a14a398aef949025c2c13fb905a5", "is_reserved": 0}, {"is_disabled": 0, "fusion_lon": 0.0, "fusion_lat": 0.0, "lat": 38.91355566666667, "type": "electric_scooter", "lon": -77.04583183333334, "bike_id": "1a1ae2f7084d22276cb88e7c7b0db61c", "rental_uris": {"android": "https://dc.lft.to/lastmile_qr_scan", "ios": "https://dc.lft.to/lastmile_qr_scan"}, "name": "1a1ae2f7084d22276cb88e7c7b0db61c", "is_reserved": 0}, {"is_disabled": 0, "fusion_lon": 0.0, "fusion_lat": 0.0, "lat": 38.9095745, "type": "electric_scooter", "lon": -77.02743916666667, "bike_id": "ce58d66c2824d88939fb0e9868f5224d", "rental_uris": {"android": "https://dc.lft.to/lastmile_qr_scan", "ios": "https://dc.lft.to/lastmile_qr_scan"}, "name": "ce58d66c2824d88939fb0e9868f5224d", "is_reserved": 0}, {"is_disabled": 0, "fusion_lon": 0.0, "fusion_lat": 0.0, "lat": 38.930773333333335, "type": "electric_scooter", "lon": -77.03629516666666, "bike_id": "271ce837853b6266f63dd7dc07833592", "rental_uris": {"android": "https://dc.lft.to/lastmile_qr_scan", "ios": "https://dc.lft.to/lastmile_qr_scan"}, "name": "271ce837853b6266f63dd7dc07833592", "is_reserved": 0}, {"is_disabled": 0, "fusion_lon": 0.0, "fusion_lat": 0.0, "lat": 38.89844766666667, "type": "electric_scooter", "lon": -77.03348433333333, "bike_id": "323cb31c6d9e514d4095c7f380c51b96", "rental_uris": {"android": "https://dc.lft.to/lastmile_qr_scan", "ios": "https://dc.lft.to/lastmile_qr_scan"}, "name": "323cb31c6d9e514d4095c7f380c51b96", "is_reserved": 0}, {"is_disabled": 0, "fusion_lon": 0.0, "fusion_lat": 0.0, "lat": 39.026865, "type": "electric_bike", "lon": -77.12595633333333, "bike_id": "832cba196b290f3ed4fafc4d509c1408", "rental_uris": {"android": "https://dc.lft.to/lastmile_qr_scan", "ios": "https://dc.lft.to/lastmile_qr_scan"}, "name": "832cba196b290f3ed4fafc4d509c1408", "is_reserved": 0}, {"is_disabled": 0, "fusion_lon": 0.0, "fusion_lat": 0.0, "lat": 38.916865333333334, "type": "electric_scooter", "lon": -77.03775466666667, "bike_id": "05bcb22edaa6cff7ae8b70ed7308baf9", "rental_uris": {"android": "https://dc.lft.to/lastmile_qr_scan", "ios": "https://dc.lft.to/lastmile_qr_scan"}, "name": "05bcb22edaa6cff7ae8b70ed7308baf9", "is_reserved": 0}, {"is_disabled": 0, "fusion_lon": 0.0, "fusion_lat": 0.0, "lat": 38.90805983333333, "type": "electric_scooter", "lon": -77.04092883333334, "bike_id": "f1bd89070f33cb83f0de9cebb03db27e", "rental_uris": {"android": "https://dc.lft.to/lastmile_qr_scan", "ios": "https://dc.lft.to/lastmile_qr_scan"}, "name": "f1bd89070f33cb83f0de9cebb03db27e", "is_reserved": 0}, {"is_disabled": 0, "fusion_lon": 0.0, "fusion_lat": 0.0, "lat": 38.8733835, "type": "electric_bike", "lon": -77.01853083333333, "bike_id": "2b6fe123a7ae6162e324845a9e321330", "rental_uris": {"android": "https://dc.lft.to/lastmile_qr_scan", "ios": "https://dc.lft.to/lastmile_qr_scan"}, "name": "2b6fe123a7ae6162e324845a9e321330", "is_reserved": 0}, {"is_disabled": 0, "fusion_lon": 0.0, "fusion_lat": 0.0, "lat": 38.912544833333335, "type": "electric_scooter", "lon": -77.00934016666666, "bike_id": "2c36c6f6a16d69a3ff1fe3f8609a208a", "rental_uris": {"android": "https://dc.lft.to/lastmile_qr_scan", "ios": "https://dc.lft.to/lastmile_qr_scan"}, "name": "2c36c6f6a16d69a3ff1fe3f8609a208a", "is_reserved": 0}, {"is_disabled": 0, "fusion_lon": 0.0, "fusion_lat": 0.0, "lat": 38.95087983333333, "type": "electric_bike", "lon": -76.96558116666667, "bike_id": "f448d8aeeef08e034924acf9490ba2cc", "rental_uris": {"android": "https://dc.lft.to/lastmile_qr_scan", "ios": "https://dc.lft.to/lastmile_qr_scan"}, "name": "f448d8aeeef08e034924acf9490ba2cc", "is_reserved": 0},