{"data": {"bikes": [{"lon": -77.04334283333333, "lat": 38.911985666666666, "name": "a2a587837c408c7aae3f60698ba733ab", "fusion_lat": 0.0, "fusion_lon": 0.0, "rental_uris": {"android": "https://dc.lft.to/lastmile_qr_scan", "ios": "https://dc.lft.to/lastmile_qr_scan"}, "is_reserved": 0, "is_disabled": 0, "type": "electric_scooter", "bike_id": "a2a587837c408c7aae3f60698ba733ab"}, {"lon": -76.98760283333333, "lat": 38.84502033333333, "name": "6940833eb3c9ae46429394e0ee7df944", "fusion_lat": 0.0, "fusion_lon": 0.0, "rental_uris": {"android": "https://dc.lft.to/lastmile_qr_scan", "ios": "https://dc.lft.to/lastmile_qr_scan"}, "is_reserved": 0, "is_disabled": 0, "type": "electric_scooter", "bike_id": "6940833eb3c9ae46429394e0ee7df944"}, {"lon": -77.032469, "lat": 38.929916666666664, "name": "0db36893ea5610cc82009fd022ea2fd7", "fusion_lat": 0.0, "fusion_lon": 0.0, "rental_uris": {"android": "https://dc.lft.to/lastmile_qr_scan", "ios": "https://dc.lft.to/lastmile_qr_scan"}, "is_reserved": 0, "is_disabled": 0, "type": "electric_scooter", "bike_id": "0db36893ea5610cc82009fd022ea2fd7"}, {"lon": -76.99625583333334, "lat": 38.885652666666665, "name": "68017c5d24d9d522afae31a34b6ec00b", "fusion_lat": 0.0, "fusion_lon": 0.0, "rental_uris": {"android": "https://dc.lft.to/lastmile_qr_scan", "ios": "https://dc.lft.to/lastmile_qr_scan"}, "is_reserved": 0, "is_disabled": 0, "type": "electric_scooter", "bike_id": "68017c5d24d9d522afae31a34b6ec00b"}, {"lon": -77.00206633333333, "lat": 38.900298166666666, "name": "c0d668df7f8d3d57dc4f26373c56021b", "fusion_lat": 0.0, "fusion_lon": 0.0, "rental_uris": {"android": "https://dc.lft.to/lastmile_qr_scan", "ios": "https://dc.lft.to/lastmile_qr_scan"}, "is_reserved": 0, "is_disabled": 0, "type": "electric_scooter", "bike_id": "c0d668df7f8d3d57dc4f26373c56021b"}, {"lon": -77.05688066666667, "lat": 38.92329383333333, "name": "4fc1cc67b0df121eb96e6c306fbc72c0", "fusion_lat": 0.0, "fusion_lon": 0.0, "rental_uris": {"android": "https://dc.lft.to/lastmile_qr_scan", "ios": "https://dc.lft.to/lastmile_qr_scan"}, "is_reserved": 0, "is_disabled": 0, "type": "electric_scooter", "bike_id": "4fc1cc67b0df121eb96e6c306fbc72c0"}, {"lon": -76.99095716666666, "lat": 38.8635465, "name": "ac815a217a277c94bfc24f9863ae833a", "fusion_lat": 0.0, "fusion_lon": 0.0, "rental_uris": {"android": "https://dc.lft.to/lastmile_qr_scan", "ios": "https://dc.lft.to/lastmile_qr_scan"}, "is_reserved": 0, "is_disabled": 0, "type": "electric_scooter", "bike_id": "ac815a217a277c94bfc24f9863ae833a"}, {"lon": -77.02822183333333, "lat": 38.887419, "name": "e98c782f961aded0cd2c35692ac373cc", "fusion_lat": 0.0, "fusion_lon": 0.0, "rental_uris": {"android": "https://dc.lft.to/lastmile_qr_scan", "ios": "https://dc.lft.to/lastmile_qr_scan"}, "is_reserved": 0, "is_disabled": 0, "type": "electric_scooter", "bike_id": "e98c782f961aded0cd2c35692ac373cc"}, {"lon": -76.98427466666666, "lat": 38.8551385, "name": "159a73ab7d1952d94c21066c47872e7d", "fusion_lat": 0.0, "fusion_lon": 0.0, "rental_uris": {"android": "https://dc.lft.to/lastmile_qr_scan", "ios": "https://dc.lft.to/lastmile_qr_scan"}, "is_reserved": 0, "is_disabled": 0, "type": "electric_bike", "bike_id": "159a73ab7d1952d94c21066c47872e7d"}, {"lon": -77.07187366666666, "lat": 38.91995766666667, "name": "edc47609e92e4b2f8232e74c19a1023e", "fusion_lat": 0.0, "fusion_lon": 0.0, "rental_uris": {"android": "https://dc.lft.to/lastmile_qr_scan", "ios": "https://dc.lft.to/lastmile_qr_scan"}, "is_reserved": 0, "is_disabled": 0, "type": "electric_scooter", "bike_id": "edc47609e92e4b2f8232e74c19a1023e"}, {"lon": -77.03517016666666, "lat": 38.93590716666667, "name": "cc05e4e22d9a0e2e9fa6014c717d373b", "fusion_lat": 0.0, "fusion_lon": 0.0, "rental_uris": {"android": "https://dc.lft.to/lastmile_qr_scan", "ios": "https://dc.lft.to/lastmile_qr_scan"}, "is_reserved": 0, "is_disabled": 0, "type": "electric_scooter", "bike_id": "cc05e4e22d9a0e2e9fa6014c717d373b"}, {"lon": -77.052168, "lat": 38.935350666666665, "name": "ba6fe16029ae8485abae9d2d4a479c1d", "fusion_lat": 0.0, "fusion_lon": 0.0, "rental_uris": {"android": "https://dc.lft.to/lastmile_qr_scan", "ios": "https://dc.lft.to/lastmile_qr_scan"}, "is_reserved": 0, "is_disabled": 0, "type": "electric_bike", "bike_id": "ba6fe16029ae8485abae9d2d4a479c1d"}, {"lon": -77.04985933333333, "lat": 38.901247833333336, "name": "44667c9f4cb7963159c01f6819a7b5c8", "fusion_lat": 0.0, "fusion_lon": 0.0, "rental_uris": {"android": "https://dc.lft.to/lastmile_qr_scan", "ios": "https://dc.lft.to/lastmile_qr_scan"}, "is_reserved": 0, "is_disabled": 0, "type": "electric_scooter", "bike_id": "44667c9f4cb7963159c01f6819a7b5c8"}, {"lon": -76.94842516666667, "lat": 38.8948845, "name": "1a946b1227aabc51c0254715d103d8b6", "fusion_lat": 0.0, "fusion_lon": 0.0, "rental_uris": {"android": "https://dc.lft.to/lastmile_qr_scan", "ios": "https://dc.lft.to/lastmile_qr_scan"}, "is_reserved": 0, "is_disabled": 0, "type": "electric_scooter", "bike_id": "1a946b1227aabc51c0254715d103d8b6"}, {"lon": -77.097533, "lat": 38.85853016666667, "name": "6a0c4249d296521b65417032789d1eb8", "fusion_lat": 0.0, "fusion_lon": 0.0, "rental_uris": {"android": "https://dc.lft.to/lastmile_qr_scan", "ios": "https://dc.lft.to/lastmile_qr_scan"}, "is_reserved": 0, "is_disabled": 0, "type": "electric_bike", "bike_id": "6a0c4249d296521b65417032789d1eb8"}, {"lon": -77.0334505, "lat": 38.90831333333333, "name": "27cbd3dd1be21524c1e8486f9a796992", "fusion_lat": 0.0, "fusion_lon": 0.0, "rental_uris": {"android": "https://dc.lft.to/lastmile_qr_scan", "ios": "https://dc.lft.to/lastmile_qr_scan"}, "is_reserved": 0, "is_disabled": 0, "type": "electric_scooter", "bike_id": "27cbd3dd1be21524c1e8486f9a796992"}, {"lon": -77.03859383333334, "lat": 38.90770933333334, "name": "085a61ac82a52e64947fde8ef3b1e909", "fusion_lat": 0.0, "fusion_lon": 0.0, "rental_uris": {"android": "https://dc.lft.to/lastmile_qr_scan", "ios": "https://dc.lft.to/lastmile_qr_scan"}, "is_reserved": 0, "is_disabled": 0, "type": "electric_scooter", "bike_id": "085a61ac82a52e64947fde8ef3b1e909"}, {"lon": -77.04443116666667, "lat": 38.9036765, "name": "6c1294ed94ad713487b8bb2e3028932c", "fusion_lat": 0.0, "fusion_lon": 0.0, "rental_uris": {"android": "https://dc.lft.to/lastmile_qr_scan", "ios": "https://dc.lft.to/lastmile_qr_scan"}, "is_reserved": 0, "is_disabled": 0, "type": "electric_scooter", "bike_id": "6c1294ed94ad713487b8bb2e3028932c"}, {"lon": -77.02546066666666, "lat": 38.892273833333334, "name": "7ec2fa24f13d949a88708b8c1b1580f2", "fusion_lat": 0.0, "fusion_lon": 0.0, "rental_uris": {"android": "https://dc.lft.to/lastmile_qr_scan", "ios": "https://dc.lft.to/lastmile_qr_scan"}, "is_reserved": 0, "is_disabled": 0, "type": "electric_scooter", "bike_id": "7ec2fa24f13d949a88708b8c1b1580f2"}, {"lon": -77.07558583333334, "lat": 38.91039166666667, "name": "4ab22fc5f8c7b67cb1dd043af54569d0", "fusion_lat": 0.0, "fusion_lon": 0.0, "rental_uris": {"android": "https://dc.lft.to/lastmile_qr_scan", "ios": "https://dc.lft.to/lastmile_qr_scan"}, "is_reserved": 0, "is_disabled": 0, "type": "electric_bike", "bike_id": "4ab22fc5f8c7b67cb1dd043af54569d0"}, {"lon": -77.01119466666667, "lat": 38.90367716666667, "name": "91c33da822adc0f660998ef5a49b3784", "fusion_lat": 0.0, "fusion_lon": 0.0, "rental_uris": {"android": "https://dc.lft.to/lastmile_qr_scan", "ios": "https://dc.lft.to/lastmile_qr_scan"}, "is_reserved": 0, "is_disabled": 0, "type": "electric_scooter", "bike_id": "91c33da822adc0f660998ef5a49b3784"}, {"lon": -77.02574883333334, "lat": 38.99160216666667, "name": "bad4a4f26b5f0166f26bcd7e5f73f45f", "fusion_lat": 0.0, "fusion_lon": 0.0, "rental_uris": {"android": "https://dc.lft.to/lastmile_qr_scan", "ios": "https://dc.lft.to/lastmile_qr_scan"}, "is_reserved": 0, "is_disabled": 0, "type": "electric_bike", "bike_id": "bad4a4f26b5f0166f26bcd7e5f73f45f"}, {"lon": -77.04835016666667, "lat": 38.91331866666667, "name": "e294e32554efa450b09faea2d4b077d4", "fusion_lat": 0.0, "fusion_lon": 0.0, "rental_uris": {"android": "https://dc.lft.to/lastmile_qr_scan", "ios": "https://dc.lft.to/lastmile_qr_scan"}, "is_reserved": 0, "is_disabled": 0, "type": "electric_scooter", "bike_id": "e294e32554efa450b09faea2d4b077d4"}, {"lon": -77.004943, "lat": 38.896935166666665, "name": "c111d85d9fa9156d8431f20a9f75ef70", "fusion_lat": 0.0, "fusion_lon": 0.0, "rental_uris": {"android": "https://dc.lft.to/lastmile_qr_scan", "ios": "https://dc.lft.to/lastmile_qr_scan"}, "is_reserved": 0, "is_disabled": 0, "type": "electric_scooter", "bike_id": "c111d85d9fa9156d8431f20a9f75ef70"}, {"lon": -77.0269865, "lat": 38.90679766666667, "name": "0117c7b1df2d8b11a2942ea4ed832296", "fusion_lat": 0.0, "fusion_lon": 0.0, "rental_uris": {"android": "https://dc.lft.to/lastmile_qr_scan", "ios": "https://dc.lft.to/lastmile_qr_scan"}, "is_reserved": 0, "is_disabled": 0, "type": "electric_scooter", "bike_id": "0117c7b1df2d8b11a2942ea4ed832296"}, {"lon": -77.01929866666667, "lat": 38.94925966666667, "name": "ff0f78726388281ae62fc99966c08a9c", "fusion_lat": 0.0, "fusion_lon": 0.0, "rental_uris": {"android": "https://dc.lft.to/lastmile_qr_scan", "ios": "https://dc.lft.to/lastmile_qr_scan"}, "is_reserved": 0, "is_disabled": 0, "type": "electric_scooter", "bike_id": "ff0f78726388281ae62fc99966c08a9c"}, {"lon": -77.04500283333333, "lat": 38.9036385, "name": "2bb536d2200e8f42481866bcf35d8858", "fusion_lat": 0.0, "fusion_lon": 0.0, "rental_uris": {"android": "https://dc.lft.to/lastmile_qr_scan", "ios": "https://dc.lft.to/lastmile_qr_scan"}, "is_reserved": 0, "is_disabled": 0, "type": "electric_scooter", "bike_id": "2bb536d2200e8f42481866bcf35d8858"}, {"lon": -77.00019283333333, "lat": 38.919764, "name": "25d0e25acb05bd98a02fda4bc4495206", "fusion_lat": 0.0, "fusion_lon": 0.0, "rental_uris": {"android": "https://dc.lft.to/lastmile_qr_scan", "ios": "https://dc.lft.to/lastmile_qr_scan"}, "is_reserved": 0, "is_disabled": 0, "type": "electric_scooter", "bike_id": "25d0e25acb05bd98a02fda4bc4495206"}, {"lon": -76.99946716666666, "lat": 38.8429085, "name": "5b3c7e2a991c3aeffb10d20fe2ff3338", "fusion_lat": 0.0, "fusion_lon": 0.0, "rental_uris": {"android": "https://dc.lft.to/lastmile_qr_scan", "ios": "https://dc.lft.to/lastmile_qr_scan"}, "is_reserved": 0, "is_disabled": 0, "type": "electric_scooter", "bike_id": "5b3c7e2a991c3aeffb10d20fe2ff3338"}, {"lon": -77.04370783333333, "lat": 38.925680666666665, "name": "34bf3327530f6eb5af0a93d488643b62", "fusion_lat": 0.0, "fusion_lon": 0.0, "rental_uris": {"android": "https://dc.lft.to/lastmile_qr_scan", "ios": "https://dc.lft.to/lastmile_qr_scan"}, "is_reserved": 0, "is_disabled": 0, "type": "electric_scooter", "bike_id": "34bf3327530f6eb5af0a93d488643b62"}, {"lon": -77.0381055, "lat": 38.920561166666666, "name": "42abfa8a37b7cd167ccf6d5a9194a8dd", "fusion_lat": 0.0, "fusion_lon": 0.0, "rental_uris": {"android": "https://dc.lft.to/lastmile_qr_scan", "ios": "https://dc.lft.to/lastmile_qr_scan"}, "is_reserved": 0, "is_disabled": 0, "type": "electric_scooter", "bike_id": "42abfa8a37b7cd167ccf6d5a9194a8dd"}, {"lon": -77.05331016666666, "lat": 38.90509183333333, "name": "eb763191f882a6e373dfe1e36143da5a", "fusion_lat": 0.0, "fusion_lon": 0.0, "rental_uris": {"android": "https://dc.lft.to/lastmile_qr_scan", "ios": "https://dc.lft.to/lastmile_qr_scan"}, "is_reserved": 0, "is_disabled": 0, "type": "electric_scooter", "bike_id": "eb763191f882a6e373dfe1e36143da5a"}, {"lon": -77.04509533333334, "lat": 38.9078175, "name": "97e69ce3876a50be572f4ba06fed3581", "fusion_lat": 0.0, "fusion_lon": 0.0, "rental_uris": {"android": "https://dc.lft.to/lastmile_qr_scan", "ios": "https://dc.lft.to/lastmile_qr_scan"}, "is_reserved": 0, "is_disabled": 0, "type": "electric_scooter", "bike_id": "97e69ce3876a50be572f4ba06fed3581"}, {"lon": -77.02802083333333, "lat": 38.8960215, "name": "601e768fbeece960ed8fd3c497e0d165", "fusion_lat": 0.0, "fusion_lon": 0.0, "rental_uris": {"android": "https://dc.lft.to/lastmile_qr_scan", "ios": "https://dc.lft.to/lastmile_qr_scan"}, "is_reserved": 0, "is_disabled": 0, "type": "electric_scooter", "bike_id": "601e768fbeece960ed8fd3c497e0d165"}, {"lon": -77.03324366666666, "lat": 38.898262833333334, "name": "b514f0f88ea9abcca7d7fc18d53e627c", "fusion_lat": 0.0, "fusion_lon": 0.0, "rental_uris": {"android": "https://dc.lft.to/lastmile_qr_scan", "ios": "https://dc.lft.to/lastmile_qr_scan"}, "is_reserved": 0, "is_disabled": 0, "type": "electric_scooter", "bike_id": "b514f0f88ea9abcca7d7fc18d53e627c"}, {"lon": -77.03255666666666, "lat": 38.93068516666666, "name": "e5703cd2ccced4e3c14a78eab1ea824c", "fusion_lat": 0.0, "fusion_lon": 0.0, "rental_uris": {"android": "https://dc.lft.to/lastmile_qr_scan", "ios": "https://dc.lft.to/lastmile_qr_scan"}, "is_reserved": 0, "is_disabled": 0, "type": "electric_scooter", "bike_id": "e5703cd2ccced4e3c14a78eab1ea824c"}, {"lon": -77.012388, "lat": 38.872064, "name": "28f4af05a1aa0f2d4b20214007fcc5f5", "fusion_lat": 0.0, "fusion_lon": 0.0, "rental_uris": {"android": "https://dc.lft.to/lastmile_qr_scan", "ios": "https://dc.lft.to/lastmile_qr_scan"}, "is_reserved": 0, "is_disabled": 0, "type": "electric_scooter", "bike_id": "28f4af05a1aa0f2d4b20214007fcc5f5"}, {"lon": -77.03785833333333, "lat": 38.9121605, "name": "ca209422a12cff80dee8d1cd0d3f130a", "fusion_lat": 0.0, "fusion_lon": 0.0, "rental_uris": {"android": "https://dc.lft.to/lastmile_qr_scan", "ios": "https://dc.lft.to/lastmile_qr_scan"}, "is_reserved": 0, "is_disabled": 0, "type": "electric_scooter", "bike_id": "ca209422a12cff80dee8d1cd0d3f130a"}, {"lon": -77.0254005, "lat": 38.920731, "name": "a067be00dcf89e0835fe219021fd5879", "fusion_lat": 0.0, "fusion_lon": 0.0, "rental_uris": {"android": "https://dc.lft.to/lastmile_qr_scan", "ios": "https://dc.lft.to/lastmile_qr_scan"}, "is_reserved": 0, "is_disabled": 0, "type": "electric_scooter", "bike_id": "a067be00dcf89e0835fe219021fd5879"}, {"lon": -77.0697985, "lat": 38.95269533333333, "name": "34a4179c22a7600971e226e7e2596577", "fusion_lat": 0.0, "fusion_lon": 0.0, "rental_uris": {"android": "https://dc.lft.to/lastmile_qr_scan", "ios": "https://dc.lft.to/lastmile_qr_scan"}, "is_reserved": 0, "is_disabled": 0, "type": "electric_bike", "bike_id": "34a4179c22a7600971e226e7e2596577"}, {"lon": -76.96525433333333, "lat": 38.87626016666667, "name": "772534b57b8904a55ccccf2a1132335e", "fusion_lat": 0.0, "fusion_lon": 0.0, "rental_uris": {"android": "https://dc.lft.to/lastmile_qr_scan", "ios": "https://dc.lft.to/lastmile_qr_scan"}, "is_reserved": 0, "is_disabled": 0, "type": "electric_scooter", "bike_id": "772534b57b8904a55ccccf2a1132335e"}, {"lon": -77.02691683333333, "lat": 38.90945816666667, "name": "66c47947b450a9274af6261fc0d87b0e", "fusion_lat": 0.0, "fusion_lon": 0.0, "rental_uris": {"android": "https://dc.lft.to/lastmile_qr_scan", "ios": "https://dc.lft.to/lastmile_qr_scan"}, "is_reserved": 0, "is_disabled": 0, "type": "electric_scooter", "bike_id": "66c47947b450a9274af6261fc0d87b0e"}, {"lon": -77.02716816666667, "lat": 38.89216716666667, "name": "25681a9ba3a680e0ca65fad625dd4e34", "fusion_lat": 0.0, "fusion_lon": 0.0, "rental_uris": {"android": "https://dc.lft.to/lastmile_qr_scan", "ios": "https://dc.lft.to/lastmile_qr_scan"}, "is_reserved": 0, "is_disabled": 0, "type": "electric_scooter", "bike_id": "25681a9ba3a680e0ca65fad625dd4e34"}, {"lon": -77.011075, "lat": 38.90355683333333, "name": "9f5f61e90a01606e19773e1ce5d71eb7", "fusion_lat": 0.0, "fusion_lon": 0.0, "rental_uris": {"android": "https://dc.lft.to/lastmile_qr_scan", "ios": "https://dc.lft.to/lastmile_qr_scan"}, "is_reserved": 0, "is_disabled": 0, "type": "electric_scooter", "bike_id": "9f5f61e90a01606e19773e1ce5d71eb7"}, {"lon": -77.06624666666667, "lat": 38.947382166666664, "name": "5d687f08dfcd5a7ee9cfdfb455b3c92c", "fusion_lat": 0.0, "fusion_lon": 0.0, "rental_uris": {"android": "https://dc.lft.to/lastmile_qr_scan", "ios": "https://dc.lft.to/lastmile_qr_scan"}, "is_reserved": 0, "is_disabled": 0, "type": "electric_bike", "bike_id": "5d687f08dfcd5a7ee9cfdfb455b3c92c"}, {"lon": -77.02821033333333, "lat": 38.91595816666667, "name": "49bc6c89a225fff56c398d2a5af02dfa", "fusion_lat": 0.0, "fusion_lon": 0.0, "rental_uris": {"android": "https://dc.lft.to/lastmile_qr_scan", "ios": "https://dc.lft.to/lastmile_qr_scan"}, "is_reserved": 0, "is_disabled": 0, "type": "electric_scooter", "bike_id": "49bc6c89a225fff56c398d2a5af02dfa"}, {"lon": -77.02230233333333, "lat": 38.91270216666667, "name": "a5e605b8746971b8a83485a59eb63e02", "fusion_lat": 0.0, "fusion_lon": 0.0, "rental_uris": {"android": "https://dc.lft.to/lastmile_qr_scan", "ios": "https://dc.lft.to/lastmile_qr_scan"}, "is_reserved": 0, "is_disabled": 0, "type": "electric_scooter", "bike_id": "a5e605b8746971b8a83485a59eb63e02"}, {"lon": -77.05232483333333, "lat": 38.92468, "name": "0fdec7ae17b78c3a7dcaa2395a7bf945", "fusion_lat": 0.0, "fusion_lon": 0.0, "rental_uris": {"android": "https://dc.lft.to/lastmile_qr_scan", "ios": "https://dc.lft.to/lastmile_qr_scan"}, "is_reserved": 0, "is_disabled": 0, "type": "electric_scooter", "bike_id": "0fdec7ae17b78c3a7dcaa2395a7bf945"}, {"lon": -77.00210816666667, "lat": 38.90216316666667, "name": "8f383b082f8777fc124c8b3ac519d479", "fusion_lat": 0.0, "fusion_lon": 0.0, "rental_uris": {"android": "https://dc.lft.to/lastmile_qr_scan", "ios": "https://dc.lft.to/lastmile_qr_scan"}, "is_reserved": 0, "is_disabled": 0, "type": "electric_scooter", "bike_id": "8f383b082f8777fc124c8b3ac519d479"}, {"lon": -77.02349933333333, "lat": 38.922764666666666, "name": "8fee41ee3e20aa6e3cbf5d4abc19ad58", "fusion_lat": 0.0, "fusion_lon": 0.0, "rental_uris": {"android": "https://dc.lft.to/lastmile_qr_scan", "ios": "https://dc.lft.to/lastmile_qr_scan"}, "is_reserved": 0, "is_disabled": 0, "type": "electric_scooter", "bike_id": "8fee41ee3e20aa6e3cbf5d4abc19ad58"}, {"lon": -77.02009766666667, "lat": 38.92417566666666, "name": "649f6ca6a270614baaea33bfafe3be12", "fusion_lat": 0.0, "fusion_lon": 0.0, "rental_uris": {"android": "https://dc.lft.to/lastmile_qr_scan", "ios": "https://dc.lft.to/lastmile_qr_scan"}, "is_reserved": 0, "is_disabled": 0, "type": "electric_scooter", "bike_id": "649f6ca6a270614baaea33bfafe3be12"}, {"lon": -77.01843833333334, "lat": 38.949935833333335, "name": "e889173d70080da7a2452c31963ea2f6", "fusion_lat": 0.0, "fusion_lon": 0.0, "rental_uris": {"android": "https://dc.lft.to/lastmile_qr_scan", "ios": "https://dc.lft.to/lastmile_qr_scan"}, "is_reserved": 0, "is_disabled": 0, "type": "electric_scooter", "bike_id": "e889173d70080da7a2452c31963ea2f6"}, {"lon": -77.00737266666667, "lat": 38.955216666666665, "name": "fa99a0ea70b881dadef7d73d6cc1726a", "fusion_lat": 0.0, "fusion_lon": 0.0, "rental_uris": {"android": "https://dc.lft.to/lastmile_qr_scan", "ios": "https://dc.lft.to/lastmile_qr_scan"}, "is_reserved": 0, "is_disabled": 0, "type": "electric_scooter", "bike_id": "fa99a0ea70b881dadef7d73d6cc1726a"}, {"lon": -77.031823, "lat": 38.919278, "name": "0d251455871eada13542b2c574cdcff8", "fusion_lat": 0.0, "fusion_lon": 0.0, "rental_uris": {"android": "https://dc.lft.to/lastmile_qr_scan", "ios": "https://dc.lft.to/lastmile_qr_scan"}, "is_reserved": 0, "is_disabled": 0, "type": "electric_scooter", "bike_id": "0d251455871eada13542b2c574cdcff8"}, {"lon": -77.03301916666666, "lat": 38.930324166666665, "name": "d339742bd0fb77f41fe783591dddd268", "fusion_lat": 0.0, "fusion_lon": 0.0, "rental_uris": {"android": "https://dc.lft.to/lastmile_qr_scan", "ios": "https://dc.lft.to/lastmile_qr_scan"}, "is_reserved": 0, "is_disabled": 0, "type": "electric_scooter", "bike_id": "d339742bd0fb77f41fe783591dddd268"}, {"lon": -77.024942, "lat": 38.939707, "name": "01f94b7d0649853caa96838fcb30de49", "fusion_lat": 0.0, "fusion_lon": 0.0, "rental_uris": {"android": "https://dc.lft.to/lastmile_qr_scan", "ios": "https://dc.lft.to/lastmile_qr_scan"}, "is_reserved": 0, "is_disabled": 0, "type": "electric_scooter", "bike_id": "01f94b7d0649853caa96838fcb30de49"}, {"lon": -77.03214816666667, "lat": 38.92007383333333, "name": "4d670f6b22cad983737d67a82f76cebe", "fusion_lat": 0.0, "fusion_lon": 0.0, "rental_uris": {"android": "https://dc.lft.to/lastmile_qr_scan", "ios": "https://dc.lft.to/lastmile_qr_scan"}, "is_reserved": 0, "is_disabled": 0, "type": "electric_scooter", "bike_id": "4d670f6b22cad983737d67a82f76cebe"}, {"lon": -77.06778966666667, "lat": 38.952098666666664, "name": "529979ae61c00d0fcc159018ff42d473", "fusion_lat": 0.0, "fusion_lon": 0.0, "rental_uris": {"android": "https://dc.lft.to/lastmile_qr_scan", "ios": "https://dc.lft.to/lastmile_qr_scan"}, "is_reserved": 0, "is_disabled": 0, "type": "electric_scooter", "bike_id": "529979ae61c00d0fcc159018ff42d473"}, {"lon": -77.02816116666666, "lat": 38.92871566666667, "name": "8091165d9c342a47cf6bc2ed62840c1c", "fusion_lat": 0.0, "fusion_lon": 0.0, "rental_uris": {"android": "https://dc.lft.to/lastmile_qr_scan", "ios": "https://dc.lft.to/lastmile_qr_scan"}, "is_reserved": 0, "is_disabled": 0, "type": "electric_scooter", "bike_id": "8091165d9c342a47cf6bc2ed62840c1c"}, {"lon": -77.02889233333333, "lat": 38.9002075, "name": "4e77fcaf191bfbba3c67f6cff2118c88", "fusion_lat": 0.0, "fusion_lon": 0.0, "rental_uris": {"android": "https://dc.lft.to/lastmile_qr_scan", "ios": "https://dc.lft.to/lastmile_qr_scan"}, "is_reserved": 0, "is_disabled": 0, "type": "electric_scooter", "bike_id": "4e77fcaf191bfbba3c67f6cff2118c88"}, {"lon": -76.98995616666667, "lat": 38.90387783333333, "name": "7108fc6dad1622432abd4e508f88f54a", "fusion_lat": 0.0, "fusion_lon": 0.0, "rental_uris": {"android": "https://dc.lft.to/lastmile_qr_scan", "ios": "https://dc.lft.to/lastmile_qr_scan"}, "is_reserved": 0, "is_disabled": 0, "type": "electric_scooter", "bike_id": "7108fc6dad1622432abd4e508f88f54a"}, {"lon": -76.98449666666667, "lat": 38.89956633333333, "name": "2665ed4c58eb30498290ee793b445103", "fusion_lat": 0.0, "fusion_lon": 0.0, "rental_uris": {"android": "https://dc.lft.to/lastmile_qr_scan", "ios": "https://dc.lft.to/lastmile_qr_scan"}, "is_reserved": 0, "is_disabled": 0, "type": "electric_scooter", "bike_id": "2665ed4c58eb30498290ee793b445103"}, {"lon": -77.04155033333333, "lat": 38.919050666666664, "name": "86e684bc2fac1b6e96f9c0373dc8a7fe", "fusion_lat": 0.0, "fusion_lon": 0.0, "rental_uris": {"android": "https://dc.lft.to/lastmile_qr_scan", "ios": "https://dc.lft.to/lastmile_qr_scan"}, "is_reserved": 0, "is_disabled": 0, "type": "electric_scooter", "bike_id": "86e684bc2fac1b6e96f9c0373dc8a7fe"}, {"lon": -77.038573, "lat": 38.931984, "name": "532ee09adfdd08931ede6e21feeb8105", "fusion_lat": 0.0, "fusion_lon": 0.0, "rental_uris": {"android": "https://dc.lft.to/lastmile_qr_scan", "ios": "https://dc.lft.to/lastmile_qr_scan"}, "is_reserved": 0, "is_disabled": 0, "type": "electric_scooter", "bike_id": "532ee09adfdd08931ede6e21feeb8105"}, {"lon": -77.0335205, "lat": 38.899661333333334, "name": "9f024b4a3bbb4343785b3de96f8af889", "fusion_lat": 0.0, "fusion_lon": 0.0, "rental_uris": {"android": "https://dc.lft.to/lastmile_qr_scan", "ios": "https://dc.lft.to/lastmile_qr_scan"}, "is_reserved": 0, "is_disabled": 0, "type": "electric_scooter", "bike_id": "9f024b4a3bbb4343785b3de96f8af889"}, {"lon": -77.04717816666667, "lat": 38.91866816666667, "name": "264767f766037d2bfcc26061ec8ea6c3", "fusion_lat": 0.0, "fusion_lon": 0.0, "rental_uris": {"android": "https://dc.lft.to/lastmile_qr_scan", "ios": "https://dc.lft.to/lastmile_qr_scan"}, "is_reserved": 0, "is_disabled": 0, "type": "electric_scooter", "bike_id": "264767f766037d2bfcc26061ec8ea6c3"}, {"lon": -77.01026083333333, "lat": 38.9180515, "name": "dc23fd345260d971c921402fdc0de89d", "fusion_lat": 0.0, "fusion_lon": 0.0, "rental_uris": {"android": "https://dc.lft.to/lastmile_qr_scan", "ios": "https://dc.lft.to/lastmile_qr_scan"}, "is_reserved": 0, "is_disabled": 0, "type": "electric_scooter", "bike_id": "dc23fd345260d971c921402fdc0de89d"}, {"lon": -77.05005966666667, "lat": 38.892263666666665, "name": "b03d8d0a495be19f476bd76d6779bba2", "fusion_lat": 0.0, "fusion_lon": 0.0, "rental_uris": {"android": "https://dc.lft.to/lastmile_qr_scan", "ios": "https://dc.lft.to/lastmile_qr_scan"}, "is_reserved": 0, "is_disabled": 0, "type": "electric_scooter", "bike_id": "b03d8d0a495be19f476bd76d6779bba2"}, {"lon": -76.96525883333334, "lat": 38.87624483333333, "name": "db7d2c210f0c905fc6690a2d67df2f20", "fusion_lat": 0.0, "fusion_lon": 0.0, "rental_uris": {"android": "https://dc.lft.to/lastmile_qr_scan", "ios": "https://dc.lft.to/lastmile_qr_scan"}, "is_reserved": 0, "is_disabled": 0, "type": "electric_scooter", "bike_id": "db7d2c210f0c905fc6690a2d67df2f20"}, {"lon": -77.0399595, "lat": 38.888698166666664, "name": "02ffe9930fc021be19d27c8dcd3d392c", "fusion_lat": 0.0, "fusion_lon": 0.0, "rental_uris": {"android": "https://dc.lft.to/lastmile_qr_scan", "ios": "https://dc.lft.to/lastmile_qr_scan"}, "is_reserved": 0, "is_disabled": 0, "type": "electric_scooter", "bike_id": "02ffe9930fc021be19d27c8dcd3d392c"}, {"lon": -77.029284, "lat": 38.88218966666667, "name": "f9ef90e1c584863dcf4a13768a88f8e5", "fusion_lat": 0.0, "fusion_lon": 0.0, "rental_uris": {"android": "https://dc.lft.to/lastmile_qr_scan", "ios": "https://dc.lft.to/lastmile_qr_scan"}, "is_reserved": 0, "is_disabled": 0, "type": "electric_scooter", "bike_id": "f9ef90e1c584863dcf4a13768a88f8e5"}, {"lon": -77.01869483333333, "lat": 38.94889633333333, "name": "9101a517f2aae4b42efa2b913088ed11", "fusion_lat": 0.0, "fusion_lon": 0.0, "rental_uris": {"android": "https://dc.lft.to/lastmile_qr_scan", "ios": "https://dc.lft.to/lastmile_qr_scan"}, "is_reserved": 0, "is_disabled": 0, "type": "electric_scooter", "bike_id": "9101a517f2aae4b42efa2b913088ed11"}, {"lon": -77.03933316666667, "lat": 38.914107666666666, "name": "f6e2671a2139b2b416610c13f6b66a3d", "fusion_lat": 0.0, "fusion_lon": 0.0, "rental_uris": {"android": "https://dc.lft.to/lastmile_qr_scan", "ios": "https://dc.lft.to/lastmile_qr_scan"}, "is_reserved": 0, "is_disabled": 0, "type": "electric_scooter", "bike_id": "f6e2671a2139b2b416610c13f6b66a3d"}, {"lon": -77.011013, "lat": 38.905747833333336, "name": "9a222cf05b2c0e23ef0aa5af2de9e307", "fusion_lat": 0.0, "fusion_lon": 0.0, "rental_uris": {"android": "https://dc.lft.to/lastmile_qr_scan", "ios": "https://dc.lft.to/lastmile_qr_scan"}, "is_reserved": 0, "is_disabled": 0, "type": "electric_scooter", "bike_id": "9a222cf05b2c0e23ef0aa5af2de9e307"}, {"lon": -76.9816265, "lat": 38.95959666666667, "name": "fecd5701fa49290211343929c12d4147", "fusion_lat": 0.0, "fusion_lon": 0.0, "rental_uris": {"android": "https://dc.lft.to/lastmile_qr_scan", "ios": "https://dc.lft.to/lastmile_qr_scan"}, "is_reserved": 0, "is_disabled": 0, "type": "electric_bike", "bike_id": "fecd5701fa49290211343929c12d4147"}, {"lon": -77.035647, "lat": 38.9181645, "name": "e833ed3a4eb32b4483bf6ecdec3110d8", "fusion_lat": 0.0, "fusion_lon": 0.0, "rental_uris": {"android": "https://dc.lft.to/lastmile_qr_scan", "ios": "https://dc.lft.to/lastmile_qr_scan"}, "is_reserved": 0, "is_disabled": 0, "type": "electric_scooter", "bike_id": "e833ed3a4eb32b4483bf6ecdec3110d8"}, {"lon": -77.05562333333333, "lat": 38.899817166666665, "name": "8ca51f655389f302cacc6f4bae93b33f", "fusion_lat": 0.0, "fusion_lon": 0.0, "rental_uris": {"android": "https://dc.lft.to/lastmile_qr_scan", "ios": "https://dc.lft.to/lastmile_qr_scan"}, "is_reserved": 0, "is_disabled": 0, "type": "electric_scooter", "bike_id": "8ca51f655389f302cacc6f4bae93b33f"}, {"lon": -77.03650233333333, "lat": 38.902772166666665, "name": "040ba66e7260b7b1c8233e1cf5bb82c7", "fusion_lat": 0.0, "fusion_lon": 0.0, "rental_uris": {"android": "https://dc.lft.to/lastmile_qr_scan", "ios": "https://dc.lft.to/lastmile_qr_scan"}, "is_reserved": 0, "is_disabled": 0, "type": "electric_scooter", "bike_id": "040ba66e7260b7b1c8233e1cf5bb82c7"}, {"lon": -76.96103933333333, "lat": 38.928686666666664, "name": "b2c66e1306c5d1f90d11bf13275e1a2f", "fusion_lat": 0.0, "fusion_lon": 0.0, "rental_uris": {"android": "https://dc.lft.to/lastmile_qr_scan", "ios": "https://dc.lft.to/lastmile_qr_scan"}, "is_reserved": 0, "is_disabled": 0, "type": "electric_bike", "bike_id": "b2c66e1306c5d1f90d11bf13275e1a2f"}, {"lon": -77.03203316666666, "lat": 38.938640666666664, "name": "f577d370fe1bdf247554bcbd5eeb3990", "fusion_lat": 0.0, "fusion_lon": 0.0, "rental_uris": {"android": "https://dc.lft.to/lastmile_qr_scan", "ios": "https://dc.lft.to/lastmile_qr_scan"}, "is_reserved": 0, "is_disabled": 0, "type": "electric_scooter", "bike_id": "f577d370fe1bdf247554bcbd5eeb3990"}, {"lon": -77.03235333333333, "lat": 38.92151533333333, "name": "0c183ce8fb08079c26d3c85e8bf3a6bb", "fusion_lat": 0.0, "fusion_lon": 0.0, "rental_uris": {"android": "https://dc.lft.to/lastmile_qr_scan", "ios": "https://dc.lft.to/lastmile_qr_scan"}, "is_reserved": 0, "is_disabled": 0, "type": "electric_scooter", "bike_id": "0c183ce8fb08079c26d3c85e8bf3a6bb"}, {"lon": -77.00710666666667, "lat": 38.88487716666667, "name": "76cb8696767a90292b1acd431d6c285c", "fusion_lat": 0.0, "fusion_lon": 0.0, "rental_uris": {"android": "https://dc.lft.to/lastmile_qr_scan", "ios": "https://dc.lft.to/lastmile_qr_scan"}, "is_reserved": 0, "is_disabled": 0, "type": "electric_scooter", "bike_id": "76cb8696767a90292b1acd431d6c285c"}, {"lon": -77.04667366666666, "lat": 38.90740483333333, "name": "a521415e0f258a4fc38617c2ed591ec2", "fusion_lat": 0.0, "fusion_lon": 0.0, "rental_uris": {"android": "https://dc.lft.to/lastmile_qr_scan", "ios": "https://dc.lft.to/lastmile_qr_scan"}, "is_reserved": 0, "is_disabled": 0, "type": "electric_scooter", "bike_id": "a521415e0f258a4fc38617c2ed591ec2"}, {"lon": -77.00342216666667, "lat": 38.897350333333335, "name": "51ddad6b0f416f5f82f8788dd6d52674", "fusion_lat": 0.0, "fusion_lon": 0.0, "rental_uris": {"android": "https://dc.lft.to/lastmile_qr_scan", "ios": "https://dc.lft.to/lastmile_qr_scan"}, "is_reserved": 0, "is_disabled": 0, "type": "electric_scooter", "bike_id": "51ddad6b0f416f5f82f8788dd6d52674"}, {"lon": -77.001938, "lat": 38.898816, "name": "7b5adc5eebc08ff089987086677b56d8", "fusion_lat": 0.0, "fusion_lon": 0.0, "rental_uris": {"android": "https://dc.lft.to/lastmile_qr_scan", "ios": "https://dc.lft.to/lastmile_qr_scan"}, "is_reserved": 0, "is_disabled": 0, "type": "electric_scooter", "bike_id": "7b5adc5eebc08ff089987086677b56d8"}, {"lon": -77.0118225, "lat": 38.900324833333336, "name": "25bdf2eac9096f5f6c6e2218d9b4a4f1", "fusion_lat": 0.0, "fusion_lon": 0.0, "rental_uris": {"android": "https://dc.lft.to/lastmile_qr_scan", "ios": "https://dc.lft.to/lastmile_qr_scan"}, "is_reserved": 0, "is_disabled": 0, "type": "electric_scooter", "bike_id": "25bdf2eac9096f5f6c6e2218d9b4a4f1"}, {"lon": -77.00181883333333, "lat": 38.907504833333334, "name": "7a6cbb71076111cbb0b1920c3f137177", "fusion_lat": 0.0, "fusion_lon": 0.0, "rental_uris": {"android": "https://dc.lft.to/lastmile_qr_scan", "ios": "https://dc.lft.to/lastmile_qr_scan"}, "is_reserved": 0, "is_disabled": 0, "type": "electric_scooter", "bike_id": "7a6cbb71076111cbb0b1920c3f137177"}, {"lon": -76.98860533333334, "lat": 38.900312666666665, "name": "e4f4c2b576d3046fcabb2267d89620e8", "fusion_lat": 0.0, "fusion_lon": 0.0, "rental_uris": {"android": "https://dc.lft.to/lastmile_qr_scan", "ios": "https://dc.lft.to/lastmile_qr_scan"}, "is_reserved": 0, "is_disabled": 0, "type": "electric_scooter", "bike_id": "e4f4c2b576d3046fcabb2267d89620e8"}, {"lon": -77.02153216666666, "lat": 38.925987666666664, "name": "2b624bd97224b2ef3077065775eaaa15", "fusion_lat": 0.0, "fusion_lon": 0.0, "rental_uris": {"android": "https://dc.lft.to/lastmile_qr_scan", "ios": "https://dc.lft.to/lastmile_qr_scan"}, "is_reserved": 0, "is_disabled": 0, "type": "electric_scooter", "bike_id": "2b624bd97224b2ef3077065775eaaa15"}, {"lon": -77.0027825, "lat": 38.90748083333333, "name": "e1aa1fa667e5c968169f50c37fe956f6", "fusion_lat": 0.0, "fusion_lon": 0.0, "rental_uris": {"android": "https://dc.lft.to/lastmile_qr_scan", "ios": "https://dc.lft.to/lastmile_qr_scan"}, "is_reserved": 0, "is_disabled": 0, "type": "electric_scooter", "bike_id": "e1aa1fa667e5c968169f50c37fe956f6"}, {"lon": -76.94652516666666, "lat": 38.898256, "name": "e8f546d47dabf061cbb7f0b0b38d9825", "fusion_lat": 0.0, "fusion_lon": 0.0, "rental_uris": {"android": "https://dc.lft.to/lastmile_qr_scan", "ios": "https://dc.lft.to/lastmile_qr_scan"}, "is_reserved": 0, "is_disabled": 0, "type": "electric_scooter", "bike_id": "e8f546d47dabf061cbb7f0b0b38d9825"}, {"lon": -77.03343616666666, "lat": 38.897301666666664, "name": "ce05606dfdc4d82cf80834d8788ae2e8", "fusion_lat": 0.0, "fusion_lon": 0.0, "rental_uris": {"android": "https://dc.lft.to/lastmile_qr_scan", "ios": "https://dc.lft.to/lastmile_qr_scan"}, "is_reserved": 0, "is_disabled": 0, "type": "electric_scooter", "bike_id": "ce05606dfdc4d82cf80834d8788ae2e8"}, {"lon": -77.04273516666667, "lat": 38.923103833333336, "name": "d4dd7b6e1b9c0f87de63127f23f8ac96", "fusion_lat": 0.0, "fusion_lon": 0.0, "rental_uris": {"android": "https://dc.lft.to/lastmile_qr_scan", "ios": "https://dc.lft.to/lastmile_qr_scan"}, "is_reserved": 0, "is_disabled": 0, "type": "electric_scooter", "bike_id": "d4dd7b6e1b9c0f87de63127f23f8ac96"}, {"lon": -77.0759455, "lat": 38.912138, "name": "a105fe5bd23fe55da23e32346b53b7ec", "fusion_lat": 0.0, "fusion_lon": 0.0, "rental_uris": {"android": "https://dc.lft.to/lastmile_qr_scan", "ios": "https://dc.lft.to/lastmile_qr_scan"}, "is_reserved": 0, "is_disabled": 0, "type": "electric_scooter", "bike_id": "a105fe5bd23fe55da23e32346b53b7ec"}, {"lon": -76.95660283333333, "lat": 38.89606916666666, "name": "b4ca462989be7106194694a5a62fd4d3", "fusion_lat": 0.0, "fusion_lon": 0.0, "rental_uris": {"android": "https://dc.lft.to/lastmile_qr_scan", "ios": "https://dc.lft.to/lastmile_qr_scan"}, "is_reserved": 0, "is_disabled": 0, "type": "electric_scooter", "bike_id": "b4ca462989be7106194694a5a62fd4d3"}, {"lon": -77.03814466666667, "lat": 38.93118233333333, "name": "5edad05d41ab1ff94f4cfdf6574b3f1e", "fusion_lat": 0.0, "fusion_lon": 0.0, "rental_uris": {"android": "https://dc.lft.to/lastmile_qr_scan", "ios": "https://dc.lft.to/lastmile_qr_scan"}, "is_reserved": 0, "is_disabled": 0, "type": "electric_scooter", "bike_id": "5edad05d41ab1ff94f4cfdf6574b3f1e"}, {"lon": -76.97252133333333, "lat": 38.957396833333334, "name": "7a8e4d3bb8d7c530ab5f6fcc25d11265", "fusion_lat": 0.0, "fusion_lon": 0.0, "rental_uris": {"android": "https://dc.lft.to/lastmile_qr_scan", "ios": "https://dc.lft.to/lastmile_qr_scan"}, "is_reserved": 0, "is_disabled": 0, "type": "electric_bike", "bike_id": "7a8e4d3bb8d7c530ab5f6fcc25d11265"}, {"lon": -77.03838566666667, "lat": 38.91207933333333, "name": "0b27c03d9194fe3d94cd63ce53f97a0a", "fusion_lat": 0.0, "fusion_lon": 0.0, "rental_uris": {"android": "https://dc.lft.to/lastmile_qr_scan", "ios": "https://dc.lft.to/lastmile_qr_scan"}, "is_reserved": 0, "is_disabled": 0, "type": "electric_scooter", "bike_id": "0b27c03d9194fe3d94cd63ce53f97a0a"}, {"lon": -77.051415, "lat": 38.90821033333334, "name": "fbd853034eef3eeaaff113f1e89c7764", "fusion_lat": 0.0, "fusion_lon": 0.0, "rental_uris": {"android": "https://dc.lft.to/lastmile_qr_scan", "ios": "https://dc.lft.to/lastmile_qr_scan"}, "is_reserved": 0, "is_disabled": 0, "type": "electric_scooter", "bike_id": "fbd853034eef3eeaaff113f1e89c7764"}, {"lon": -76.9941635, "lat": 38.9013685, "name": "8eb35ed0b113f995a6ed59ec664a4a5d", "fusion_lat": 0.0, "fusion_lon": 0.0, "rental_uris": {"android": "https://dc.lft.to/lastmile_qr_scan", "ios": "https://dc.lft.to/lastmile_qr_scan"}, "is_reserved": 0, "is_disabled": 0, "type": "electric_scooter", "bike_id": "8eb35ed0b113f995a6ed59ec664a4a5d"}, {"lon": -77.01864333333333, "lat": 38.91482116666667, "name": "a54519f4747a26c37dfdd6104dfb809c", "fusion_lat": 0.0, "fusion_lon": 0.0, "rental_uris": {"android": "https://dc.lft.to/lastmile_qr_scan", "ios": "https://dc.lft.to/lastmile_qr_scan"}, "is_reserved": 0, "is_disabled": 0, "type": "electric_scooter", "bike_id": "a54519f4747a26c37dfdd6104dfb809c"}, {"lon": -77.02402116666667, "lat": 38.93479466666667, "name": "bbee89cac1f2378f2b1d9226df138c42", "fusion_lat": 0.0, "fusion_lon": 0.0, "rental_uris": {"android": "https://dc.lft.to/lastmile_qr_scan", "ios": "https://dc.lft.to/lastmile_qr_scan"}, "is_reserved": 0, "is_disabled": 0, "type": "electric_scooter", "bike_id": "bbee89cac1f2378f2b1d9226df138c42"}, {"lon": -77.00339083333333, "lat": 38.893559333333336, "name": "a7bc695ffdb79f88354b25835699d84a", "fusion_lat": 0.0, "fusion_lon": 0.0, "rental_uris": {"android": "https://dc.lft.to/lastmile_qr_scan", "ios": "https://dc.lft.to/lastmile_qr_scan"}, "is_reserved": 0, "is_disabled": 0, "type": "electric_scooter", "bike_id": "a7bc695ffdb79f88354b25835699d84a"}, {"lon": -76.93432466666667, "lat": 38.89958816666667, "name": "4f7028aaa4c598c10c82d63c63fb2571", "fusion_lat": 0.0, "fusion_lon": 0.0, "rental_uris": {"android": "https://dc.lft.to/lastmile_qr_scan", "ios": "https://dc.lft.to/lastmile_qr_scan"}, "is_reserved": 0, "is_disabled": 0, "type": "electric_scooter", "bike_id": "4f7028aaa4c598c10c82d63c63fb2571"}, {"lon": -76.99271566666667, "lat": 38.89980533333333, "name": "34a2353ff9183653ced4225763e17804", "fusion_lat": 0.0, "fusion_lon": 0.0, "rental_uris": {"android": "https://dc.lft.to/lastmile_qr_scan", "ios": "https://dc.lft.to/lastmile_qr_scan"}, "is_reserved": 0, "is_disabled": 0, "type": "electric_scooter", "bike_id": "34a2353ff9183653ced4225763e17804"}, {"lon": -77.02310333333334, "lat": 38.9177025, "name": "5e0a009cda201642c0f1df4576e5c354", "fusion_lat": 0.0, "fusion_lon": 0.0, "rental_uris": {"android": "https://dc.lft.to/lastmile_qr_scan", "ios": "https://dc.lft.to/lastmile_qr_scan"}, "is_reserved": 0, "is_disabled": 0, "type": "electric_scooter", "bike_id": "5e0a009cda201642c0f1df4576e5c354"}, {"lon": -76.990015, "lat": 38.86507666666667, "name": "5cb029d9a2bc38606f2e514e84a59c99", "fusion_lat": 0.0, "fusion_lon": 0.0, "rental_uris": {"android": "https://dc.lft.to/lastmile_qr_scan", "ios": "https://dc.lft.to/lastmile_qr_scan"}, "is_reserved": 0, "is_disabled": 0, "type": "electric_scooter", "bike_id": "5cb029d9a2bc38606f2e514e84a59c99"}, {"lon": -77.07271366666667, "lat": 38.934800833333334, "name": "6e108d731984a4751e0be174a6cddfb5", "fusion_lat": 0.0, "fusion_lon": 0.0, "rental_uris": {"android": "https://dc.lft.to/lastmile_qr_scan", "ios": "https://dc.lft.to/lastmile_qr_scan"}, "is_reserved": 0, "is_disabled": 0, "type": "electric_scooter", "bike_id": "6e108d731984a4751e0be174a6cddfb5"}, {"lon": -77.05318333333334, "lat": 38.9026765, "name": "71d531560bfc112e721cb86efc4ca7b7", "fusion_lat": 0.0, "fusion_lon": 0.0, "rental_uris": {"android": "https://dc.lft.to/lastmile_qr_scan", "ios": "https://dc.lft.to/lastmile_qr_scan"}, "is_reserved": 0, "is_disabled": 0, "type": "electric_scooter", "bike_id": "71d531560bfc112e721cb86efc4ca7b7"}, {"lon": -76.9856855, "lat": 38.855811333333335, "name": "646a8a268500877df01e0dc98b263081", "fusion_lat": 0.0, "fusion_lon": 0.0, "rental_uris": {"android": "https://dc.lft.to/lastmile_qr_scan", "ios": "https://dc.lft.to/lastmile_qr_scan"}, "is_reserved": 0, "is_disabled": 0, "type": "electric_scooter", "bike_id": "646a8a268500877df01e0dc98b263081"}, {"lon": -77.032079, "lat": 38.917185833333335, "name": "8e2842b48c1e6e57f0444f2aa04db0e0", "fusion_lat": 0.0, "fusion_lon": 0.0, "rental_uris": {"android": "https://dc.lft.to/lastmile_qr_scan", "ios": "https://dc.lft.to/lastmile_qr_scan"}, "is_reserved": 0, "is_disabled": 0, "type": "electric_scooter", "bike_id": "8e2842b48c1e6e57f0444f2aa04db0e0"}, {"lon": -77.0241375, "lat": 38.92074983333333, "name": "40a9def7bb881533939f7a0e40b025bc", "fusion_lat": 0.0, "fusion_lon": 0.0, "rental_uris": {"android": "https://dc.lft.to/lastmile_qr_scan", "ios": "https://dc.lft.to/lastmile_qr_scan"}, "is_reserved": 0, "is_disabled": 0, "type": "electric_scooter", "bike_id": "40a9def7bb881533939f7a0e40b025bc"}, {"lon": -77.04154516666667, "lat": 38.90728983333333, "name": "d8171d096557ffb894cb1c8e457bf257", "fusion_lat": 0.0, "fusion_lon": 0.0, "rental_uris": {"android": "https://dc.lft.to/lastmile_qr_scan", "ios": "https://dc.lft.to/lastmile_qr_scan"}, "is_reserved": 0, "is_disabled": 0, "type": "electric_scooter", "bike_id": "d8171d096557ffb894cb1c8e457bf257"}, {"lon": -77.03348183333334, "lat": 38.8996365, "name": "772cc0669b7d1f2a464a016f9703a0ce", "fusion_lat": 0.0, "fusion_lon": 0.0, "rental_uris": {"android": "https://dc.lft.to/lastmile_qr_scan", "ios": "https://dc.lft.to/lastmile_qr_scan"}, "is_reserved": 0, "is_disabled": 0, "type": "electric_scooter", "bike_id": "772cc0669b7d1f2a464a016f9703a0ce"}, {"lon": -77.0261, "lat": 38.900519833333334, "name": "9ebbfe51102e3d02b579268a4ee8bd91", "fusion_lat": 0.0, "fusion_lon": 0.0, "rental_uris": {"android": "https://dc.lft.to/lastmile_qr_scan", "ios": "https://dc.lft.to/lastmile_qr_scan"}, "is_reserved": 0, "is_disabled": 0, "type": "electric_scooter", "bike_id": "9ebbfe51102e3d02b579268a4ee8bd91"}, {"lon": -77.034686, "lat": 38.908745333333336, "name": "21a0278b905969ee2d4d384ae090dd31", "fusion_lat": 0.0, "fusion_lon": 0.0, "rental_uris": {"android": "https://dc.lft.to/lastmile_qr_scan", "ios": "https://dc.lft.to/lastmile_qr_scan"}, "is_reserved": 0, "is_disabled": 0, "type": "electric_scooter", "bike_id": "21a0278b905969ee2d4d384ae090dd31"}, {"lon": -77.00862483333333, "lat": 38.82728866666667, "name": "5878c6acb54a025552307e0f4af5e1c9", "fusion_lat": 0.0, "fusion_lon": 0.0, "rental_uris": {"android": "https://dc.lft.to/lastmile_qr_scan", "ios": "https://dc.lft.to/lastmile_qr_scan"}, "is_reserved": 0, "is_disabled": 0, "type": "electric_bike", "bike_id": "5878c6acb54a025552307e0f4af5e1c9"}, {"lon": -77.00353766666667, "lat": 38.89933166666667, "name": "63336e525e2b1773afcee150795fadfb", "fusion_lat": 0.0, "fusion_lon": 0.0, "rental_uris": {"android": "https://dc.lft.to/lastmile_qr_scan", "ios": "https://dc.lft.to/lastmile_qr_scan"}, "is_reserved": 0, "is_disabled": 0, "type": "electric_scooter", "bike_id": "63336e525e2b1773afcee150795fadfb"}, {"lon": -77.07366266666666, "lat": 38.94324016666667, "name": "bd77e05eabcdea8d79dd1656f003ace8", "fusion_lat": 0.0, "fusion_lon": 0.0, "rental_uris": {"android": "https://dc.lft.to/lastmile_qr_scan", "ios": "https://dc.lft.to/lastmile_qr_scan"}, "is_reserved": 0, "is_disabled": 0, "type": "electric_scooter", "bike_id": "bd77e05eabcdea8d79dd1656f003ace8"}, {"lon": -77.02482433333333, "lat": 38.938779, "name": "16bca29af66593b5e3dfdd61029799da", "fusion_lat": 0.0, "fusion_lon": 0.0, "rental_uris": {"android": "https://dc.lft.to/lastmile_qr_scan", "ios": "https://dc.lft.to/lastmile_qr_scan"}, "is_reserved": 0, "is_disabled": 0, "type": "electric_scooter", "bike_id": "16bca29af66593b5e3dfdd61029799da"}, {"lon": -76.93019583333333, "lat": 38.9008235, "name": "5ef55d66aca3335f1de610bdee1ddb55", "fusion_lat": 0.0, "fusion_lon": 0.0, "rental_uris": {"android": "https://dc.lft.to/lastmile_qr_scan", "ios": "https://dc.lft.to/lastmile_qr_scan"}, "is_reserved": 0, "is_disabled": 0, "type": "electric_scooter", "bike_id": "5ef55d66aca3335f1de610bdee1ddb55"}, {"lon": -77.0396175, "lat": 38.9022375, "name": "02d225e404a3ac643bdd92b5c990de74", "fusion_lat": 0.0, "fusion_lon": 0.0, "rental_uris": {"android": "https://dc.lft.to/lastmile_qr_scan", "ios": "https://dc.lft.to/lastmile_qr_scan"}, "is_reserved": 0, "is_disabled": 0, "type": "electric_scooter", "bike_id": "02d225e404a3ac643bdd92b5c990de74"}, {"lon": -77.03844316666667, "lat": 38.918229333333336, "name": "30cbd821f46e1ec167e8c22da7aa20f1", "fusion_lat": 0.0, "fusion_lon": 0.0, "rental_uris": {"android": "https://dc.lft.to/lastmile_qr_scan", "ios": "https://dc.lft.to/lastmile_qr_scan"}, "is_reserved": 0, "is_disabled": 0, "type": "electric_scooter", "bike_id": "30cbd821f46e1ec167e8c22da7aa20f1"}, {"lon": -77.03317216666666, "lat": 38.901539666666665, "name": "f48ca4c40c920408cdcde4a82b0415ef", "fusion_lat": 0.0, "fusion_lon": 0.0, "rental_uris": {"android": "https://dc.lft.to/lastmile_qr_scan", "ios": "https://dc.lft.to/lastmile_qr_scan"}, "is_reserved": 0, "is_disabled": 0, "type": "electric_scooter", "bike_id": "f48ca4c40c920408cdcde4a82b0415ef"}, {"lon": -76.95754783333334, "lat": 38.884297, "name": "2dbe1338f07adfc64b4230bcbaa61048", "fusion_lat": 0.0, "fusion_lon": 0.0, "rental_uris": {"android": "https://dc.lft.to/lastmile_qr_scan", "ios": "https://dc.lft.to/lastmile_qr_scan"}, "is_reserved": 0, "is_disabled": 0, "type": "electric_scooter", "bike_id": "2dbe1338f07adfc64b4230bcbaa61048"}, {"lon": -77.03297016666667, "lat": 38.956397333333335, "name": "ecc1e4e30e1ac531b45321a5db8d8e4a", "fusion_lat": 0.0, "fusion_lon": 0.0, "rental_uris": {"android": "https://dc.lft.to/lastmile_qr_scan", "ios": "https://dc.lft.to/lastmile_qr_scan"}, "is_reserved": 0, "is_disabled": 0, "type": "electric_scooter", "bike_id": "ecc1e4e30e1ac531b45321a5db8d8e4a"}, {"lon": -77.022309, "lat": 38.91109516666667, "name": "0d409cb99d07b9e1e097120205b25cf9", "fusion_lat": 0.0, "fusion_lon": 0.0, "rental_uris": {"android": "https://dc.lft.to/lastmile_qr_scan", "ios": "https://dc.lft.to/lastmile_qr_scan"}, "is_reserved": 0, "is_disabled": 0, "type": "electric_scooter", "bike_id": "0d409cb99d07b9e1e097120205b25cf9"}, {"lon": -77.021691, "lat": 38.916272666666664, "name": "a750ac916b348f35579839b300a648ca", "fusion_lat": 0.0, "fusion_lon": 0.0, "rental_uris": {"android": "https://dc.lft.to/lastmile_qr_scan", "ios": "https://dc.lft.to/lastmile_qr_scan"}, "is_reserved": 0, "is_disabled": 0, "type": "electric_scooter", "bike_id": "a750ac916b348f35579839b300a648ca"}, {"lon": -77.048361, "lat": 38.90070516666667, "name": "63a8dbbc6d44a78033df08448dabcc65", "fusion_lat": 0.0, "fusion_lon": 0.0, "rental_uris": {"android": "https://dc.lft.to/lastmile_qr_scan", "ios": "https://dc.lft.to/lastmile_qr_scan"}, "is_reserved": 0, "is_disabled": 0, "type": "electric_scooter", "bike_id": "63a8dbbc6d44a78033df08448dabcc65"}, {"lon": -77.05642283333333, "lat": 38.924157666666666, "name": "458864fae0f2e8e0d3cd36b11b7b700b", "fusion_lat": 0.0, "fusion_lon": 0.0, "rental_uris": {"android": "https://dc.lft.to/lastmile_qr_scan", "ios": "https://dc.lft.to/lastmile_qr_scan"}, "is_reserved": 0, "is_disabled": 0, "type": "electric_scooter", "bike_id": "458864fae0f2e8e0d3cd36b11b7b700b"}, {"lon": -77.028341, "lat": 38.8876745, "name": "2714045ebdaf2a699c28732c7f82db16", "fusion_lat": 0.0, "fusion_lon": 0.0, "rental_uris": {"android": "https://dc.lft.to/lastmile_qr_scan", "ios": "https://dc.lft.to/lastmile_qr_scan"}, "is_reserved": 0, "is_disabled": 0, "type": "electric_scooter", "bike_id": "2714045ebdaf2a699c28732c7f82db16"}, {"lon": -77.04260766666667, "lat": 38.91703233333333, "name": "b760a08880db509ac017d9651a37b6a4", "fusion_lat": 0.0, "fusion_lon": 0.0, "rental_uris": {"android": "https://dc.lft.to/lastmile_qr_scan", "ios": "https://dc.lft.to/lastmile_qr_scan"}, "is_reserved": 0, "is_disabled": 0, "type": "electric_scooter", "bike_id": "b760a08880db509ac017d9651a37b6a4"}, {"lon": -77.03456533333333, "lat": 38.9031105, "name": "2b84000ca422be0b09aa3e10899ebd86", "fusion_lat": 0.0, "fusion_lon": 0.0, "rental_uris": {"android": "https://dc.lft.to/lastmile_qr_scan", "ios": "https://dc.lft.to/lastmile_qr_scan"}, "is_reserved": 0, "is_disabled": 0, "type": "electric_scooter", "bike_id": "2b84000ca422be0b09aa3e10899ebd86"}, {"lon": -77.03960983333333, "lat": 38.9036705, "name": "10c5ed549cf9befdd35702ec0d357929", "fusion_lat": 0.0, "fusion_lon": 0.0, "rental_uris": {"android": "https://dc.lft.to/lastmile_qr_scan", "ios": "https://dc.lft.to/lastmile_qr_scan"}, "is_reserved": 0, "is_disabled": 0, "type": "electric_scooter", "bike_id": "10c5ed549cf9befdd35702ec0d357929"}, {"lon": -77.092195, "lat": 38.917039333333335, "name": "0ef273fda401de88a24cbf525391494e", "fusion_lat": 0.0, "fusion_lon": 0.0, "rental_uris": {"android": "https://dc.lft.to/lastmile_qr_scan", "ios": "https://dc.lft.to/lastmile_qr_scan"}, "is_reserved": 0, "is_disabled": 0, "type": "electric_scooter", "bike_id": "0ef273fda401de88a24cbf525391494e"}, {"lon": -77.03616466666666, "lat": 38.932552333333334, "name": "b1d294ac4c1a607e982ed4c529583d44", "fusion_lat": 0.0, "fusion_lon": 0.0, "rental_uris": {"android": "https://dc.lft.to/lastmile_qr_scan", "ios": "https://dc.lft.to/lastmile_qr_scan"}, "is_reserved": 0, "is_disabled": 0, "type": "electric_scooter", "bike_id": "b1d294ac4c1a607e982ed4c529583d44"}, {"lon": -77.02691833333333, "lat": 38.9126845, "name": "f12ecc53e654706bf81740747e210318", "fusion_lat": 0.0, "fusion_lon": 0.0, "rental_uris": {"android": "https://dc.lft.to/lastmile_qr_scan", "ios": "https://dc.lft.to/lastmile_qr_scan"}, "is_reserved": 0, "is_disabled": 0, "type": "electric_scooter", "bike_id": "f12ecc53e654706bf81740747e210318"}, {"lon": -77.03250716666666, "lat": 38.95932216666667, "name": "fb12dee2f805f138a6f407b736bb0806", "fusion_lat": 0.0, "fusion_lon": 0.0, "rental_uris": {"android": "https://dc.lft.to/lastmile_qr_scan", "ios": "https://dc.lft.to/lastmile_qr_scan"}, "is_reserved": 0, "is_disabled": 0, "type": "electric_scooter", "bike_id": "fb12dee2f805f138a6f407b736bb0806"}, {"lon": -77.0269375, "lat": 38.912697, "name": "4d4b464c6e7df6cfdec6969a7bef1b9d", "fusion_lat": 0.0, "fusion_lon": 0.0, "rental_uris": {"android": "https://dc.lft.to/lastmile_qr_scan", "ios": "https://dc.lft.to/lastmile_qr_scan"}, "is_reserved": 0, "is_disabled": 0, "type": "electric_scooter", "bike_id": "4d4b464c6e7df6cfdec6969a7bef1b9d"}, {"lon": -77.03423883333333, "lat": 38.9104265, "name": "573eb16a5a2ac841e7adfdacae8b4594", "fusion_lat": 0.0, "fusion_lon": 0.0, "rental_uris": {"android": "https://dc.lft.to/lastmile_qr_scan", "ios": "https://dc.lft.to/lastmile_qr_scan"}, "is_reserved": 0, "is_disabled": 0, "type": "electric_scooter", "bike_id": "573eb16a5a2ac841e7adfdacae8b4594"}, {"lon": -77.014571, "lat": 38.91770133333333, "name": "e0da71ccc6356de800f83ae3a10d68e2", "fusion_lat": 0.0, "fusion_lon": 0.0, "rental_uris": {"android": "https://dc.lft.to/lastmile_qr_scan", "ios": "https://dc.lft.to/lastmile_qr_scan"}, "is_reserved": 0, "is_disabled": 0, "type": "electric_scooter", "bike_id": "e0da71ccc6356de800f83ae3a10d68e2"}, {"lon": -77.05289783333333, "lat": 38.926181166666666, "name": "457d086820ad580d29dbec686222de2f", "fusion_lat": 0.0, "fusion_lon": 0.0, "rental_uris": {"android": "https://dc.lft.to/lastmile_qr_scan", "ios": "https://dc.lft.to/lastmile_qr_scan"}, "is_reserved": 0, "is_disabled": 0, "type": "electric_scooter", "bike_id": "457d086820ad580d29dbec686222de2f"}, {"lon": -77.03354683333333, "lat": 38.88501133333333, "name": "9f20e74d119adbafe365dd5138889113", "fusion_lat": 0.0, "fusion_lon": 0.0, "rental_uris": {"android": "https://dc.lft.to/lastmile_qr_scan", "ios": "https://dc.lft.to/lastmile_qr_scan"}, "is_reserved": 0, "is_disabled": 0, "type": "electric_scooter", "bike_id": "9f20e74d119adbafe365dd5138889113"}, {"lon": -76.93173316666666, "lat": 38.898838166666664, "name": "9562b604f137f109083140d8e00cf443", "fusion_lat": 0.0, "fusion_lon": 0.0, "rental_uris": {"android": "https://dc.lft.to/lastmile_qr_scan", "ios": "https://dc.lft.to/lastmile_qr_scan"}, "is_reserved": 0, "is_disabled": 0, "type": "electric_scooter", "bike_id": "9562b604f137f109083140d8e00cf443"}, {"lon": -76.99320266666666, "lat": 38.85757016666667, "name": "ad6c0eb055088d853077a04fedf42c5b", "fusion_lat": 0.0, "fusion_lon": 0.0, "rental_uris": {"android": "https://dc.lft.to/lastmile_qr_scan", "ios": "https://dc.lft.to/lastmile_qr_scan"}, "is_reserved": 0, "is_disabled": 0, "type": "electric_scooter", "bike_id": "ad6c0eb055088d853077a04fedf42c5b"}, {"lon": -76.9484, "lat": 38.894868333333335, "name": "5915bfb1be98b2922ed921b4dbe6bc20", "fusion_lat": 0.0, "fusion_lon": 0.0, "rental_uris": {"android": "https://dc.lft.to/lastmile_qr_scan", "ios": "https://dc.lft.to/lastmile_qr_scan"}, "is_reserved": 0, "is_disabled": 0, "type": "electric_scooter", "bike_id": "5915bfb1be98b2922ed921b4dbe6bc20"}, {"lon": -77.04153833333334, "lat": 38.907304, "name": "af2ae68029ca05a5cb3a406356d63985", "fusion_lat": 0.0, "fusion_lon": 0.0, "rental_uris": {"android": "https://dc.lft.to/lastmile_qr_scan", "ios": "https://dc.lft.to/lastmile_qr_scan"}, "is_reserved": 0, "is_disabled": 0, "type": "electric_scooter", "bike_id": "af2ae68029ca05a5cb3a406356d63985"}, {"lon": -76.9927185, "lat": 38.89689466666667, "name": "4ced7279eabbe9d533dc6e5b057d0da0", "fusion_lat": 0.0, "fusion_lon": 0.0, "rental_uris": {"android": "https://dc.lft.to/lastmile_qr_scan", "ios": "https://dc.lft.to/lastmile_qr_scan"}, "is_reserved": 0, "is_disabled": 0, "type": "electric_scooter", "bike_id": "4ced7279eabbe9d533dc6e5b057d0da0"}, {"lon": -77.0328145, "lat": 38.938765, "name": "e47f038312a24f6a01942dd7b7296630", "fusion_lat": 0.0, "fusion_lon": 0.0, "rental_uris": {"android": "https://dc.lft.to/lastmile_qr_scan", "ios": "https://dc.lft.to/lastmile_qr_scan"}, "is_reserved": 0, "is_disabled": 0, "type": "electric_scooter", "bike_id": "e47f038312a24f6a01942dd7b7296630"}, {"lon": -76.94854266666667, "lat": 38.883025333333336, "name": "4d58fd8be75f850c057113f3dad9d9cd", "fusion_lat": 0.0, "fusion_lon": 0.0, "rental_uris": {"android": "https://dc.lft.to/lastmile_qr_scan", "ios": "https://dc.lft.to/lastmile_qr_scan"}, "is_reserved": 0, "is_disabled": 0, "type": "electric_scooter", "bike_id": "4d58fd8be75f850c057113f3dad9d9cd"}, {"lon": -77.04575283333334, "lat": 38.92129583333333, "name": "af9b9ad42f6138d3d94f5be3ff8d9042", "fusion_lat": 0.0, "fusion_lon": 0.0, "rental_uris": {"android": "https://dc.lft.to/lastmile_qr_scan", "ios": "https://dc.lft.to/lastmile_qr_scan"}, "is_reserved": 0, "is_disabled": 0, "type": "electric_scooter", "bike_id": "af9b9ad42f6138d3d94f5be3ff8d9042"}, {"lon": -76.99514616666667, "lat": 38.89482816666667, "name": "205c260cae00cc339687dbf705680224", "fusion_lat": 0.0, "fusion_lon": 0.0, "rental_uris": {"android": "https://dc.lft.to/lastmile_qr_scan", "ios": "https://dc.lft.to/lastmile_qr_scan"}, "is_reserved": 0, "is_disabled": 0, "type": "electric_scooter", "bike_id": "205c260cae00cc339687dbf705680224"}, {"lon": -77.03660666666667, "lat": 38.921208166666666, "name": "ecb9f5c9336fb7ec45e504275d09db55", "fusion_lat": 0.0, "fusion_lon": 0.0, "rental_uris": {"android": "https://dc.lft.to/lastmile_qr_scan", "ios": "https://dc.lft.to/lastmile_qr_scan"}, "is_reserved": 0, "is_disabled": 0, "type": "electric_scooter", "bike_id": "ecb9f5c9336fb7ec45e504275d09db55"}, {"lon": -76.98438016666667, "lat": 38.914241, "name": "883a3effac053feb9cb40b71ea033a88", "fusion_lat": 0.0, "fusion_lon": 0.0, "rental_uris": {"android": "https://dc.lft.to/lastmile_qr_scan", "ios": "https://dc.lft.to/lastmile_qr_scan"}, "is_reserved": 0, "is_disabled": 0, "type": "electric_scooter", "bike_id": "883a3effac053feb9cb40b71ea033a88"}, {"lon": -77.0652925, "lat": 38.93473516666667, "name": "155391652826ec9048a5a138bc84b8c1", "fusion_lat": 0.0, "fusion_lon": 0.0, "rental_uris": {"android": "https://dc.lft.to/lastmile_qr_scan", "ios": "https://dc.lft.to/lastmile_qr_scan"}, "is_reserved": 0, "is_disabled": 0, "type": "electric_scooter", "bike_id": "155391652826ec9048a5a138bc84b8c1"}, {"lon": -77.0258475, "lat": 38.8924605, "name": "e3a4810651f30af4bdfa81328e6d4531", "fusion_lat": 0.0, "fusion_lon": 0.0, "rental_uris": {"android": "https://dc.lft.to/lastmile_qr_scan", "ios": "https://dc.lft.to/lastmile_qr_scan"}, "is_reserved": 0, "is_disabled": 0, "type": "electric_scooter", "bike_id": "e3a4810651f30af4bdfa81328e6d4531"}, {"lon": -77.04858266666666, "lat": 38.90491266666667, "name": "d557da7fa88bcb3e2e162eb1a5eb2cea", "fusion_lat": 0.0, "fusion_lon": 0.0, "rental_uris": {"android": "https://dc.lft.to/lastmile_qr_scan", "ios": "https://dc.lft.to/lastmile_qr_scan"}, "is_reserved": 0, "is_disabled": 0, "type": "electric_scooter", "bike_id": "d557da7fa88bcb3e2e162eb1a5eb2cea"}, {"lon": -77.03447916666667, "lat": 38.9073205, "name": "c392573d391219e201682dcdc00be661", "fusion_lat": 0.0, "fusion_lon": 0.0, "rental_uris": {"android": "https://dc.lft.to/lastmile_qr_scan", "ios": "https://dc.lft.to/lastmile_qr_scan"}, "is_reserved": 0, "is_disabled": 0, "type": "electric_scooter", "bike_id": "c392573d391219e201682dcdc00be661"}, {"lon": -77.02810033333333, "lat": 38.90429116666667, "name": "2faf207f41e66f9112a4faf91e49a84d", "fusion_lat": 0.0, "fusion_lon": 0.0, "rental_uris": {"android": "https://dc.lft.to/lastmile_qr_scan", "ios": "https://dc.lft.to/lastmile_qr_scan"}, "is_reserved": 0, "is_disabled": 0, "type": "electric_scooter", "bike_id": "2faf207f41e66f9112a4faf91e49a84d"}, {"lon": -77.0319985, "lat": 38.929791333333334, "name": "997c11d0dc04e388d011dfa93c6821fa", "fusion_lat": 0.0, "fusion_lon": 0.0, "rental_uris": {"android": "https://dc.lft.to/lastmile_qr_scan", "ios": "https://dc.lft.to/lastmile_qr_scan"}, "is_reserved": 0, "is_disabled": 0, "type": "electric_scooter", "bike_id": "997c11d0dc04e388d011dfa93c6821fa"}, {"lon": -76.90817033333333, "lat": 38.994520666666666, "name": "a297c2ed9f01b7dce44a80d0c29f63c9", "fusion_lat": 0.0, "fusion_lon": 0.0, "rental_uris": {"android": "https://dc.lft.to/lastmile_qr_scan", "ios": "https://dc.lft.to/lastmile_qr_scan"}, "is_reserved": 0, "is_disabled": 0, "type": "electric_bike", "bike_id": "a297c2ed9f01b7dce44a80d0c29f63c9"}, {"lon": -77.0481345, "lat": 38.913293, "name": "4f94b551e71cb3b849ed7da274944caa", "fusion_lat": 0.0, "fusion_lon": 0.0, "rental_uris": {"android": "https://dc.lft.to/lastmile_qr_scan", "ios": "https://dc.lft.to/lastmile_qr_scan"}, "is_reserved": 0, "is_disabled": 0, "type": "electric_scooter", "bike_id": "4f94b551e71cb3b849ed7da274944caa"}, {"lon": -77.057235, "lat": 38.933680333333335, "name": "5c5943148f0df39f1f900c388178c60f", "fusion_lat": 0.0, "fusion_lon": 0.0, "rental_uris": {"android": "https://dc.lft.to/lastmile_qr_scan", "ios": "https://dc.lft.to/lastmile_qr_scan"}, "is_reserved": 0, "is_disabled": 0, "type": "electric_scooter", "bike_id": "5c5943148f0df39f1f900c388178c60f"}, {"lon": -76.93160466666667, "lat": 38.89882566666667, "name": "82658f16f188f179a3f91de42bd2e834", "fusion_lat": 0.0, "fusion_lon": 0.0, "rental_uris": {"android": "https://dc.lft.to/lastmile_qr_scan", "ios": "https://dc.lft.to/lastmile_qr_scan"}, "is_reserved": 0, "is_disabled": 0, "type": "electric_scooter", "bike_id": "82658f16f188f179a3f91de42bd2e834"}, {"lon": -77.00203966666666, "lat": 38.900297, "name": "f223d72f8c99ded85532b81adb1f4e85", "fusion_lat": 0.0, "fusion_lon": 0.0, "rental_uris": {"android": "https://dc.lft.to/lastmile_qr_scan", "ios": "https://dc.lft.to/lastmile_qr_scan"}, "is_reserved": 0, "is_disabled": 0, "type": "electric_scooter", "bike_id": "f223d72f8c99ded85532b81adb1f4e85"}, {"lon": -77.02698516666666, "lat": 38.906989333333335, "name": "ec9d31920858c4236ba171f87dfbf79a", "fusion_lat": 0.0, "fusion_lon": 0.0, "rental_uris": {"android": "https://dc.lft.to/lastmile_qr_scan", "ios": "https://dc.lft.to/lastmile_qr_scan"}, "is_reserved": 0, "is_disabled": 0, "type": "electric_scooter", "bike_id": "ec9d31920858c4236ba171f87dfbf79a"}, {"lon": -76.87496166666666, "lat": 38.990901, "name": "05c075b83ea3820a419ad7d5f10fb9ce", "fusion_lat": 0.0, "fusion_lon": 0.0, "rental_uris": {"android": "https://dc.lft.to/lastmile_qr_scan", "ios": "https://dc.lft.to/lastmile_qr_scan"}, "is_reserved": 0, "is_disabled": 0, "type": "electric_bike", "bike_id": "05c075b83ea3820a419ad7d5f10fb9ce"}, {"lon": -77.0313195, "lat": 38.915611166666665, "name": "844ccb73b477057830ef876e3aa51816", "fusion_lat": 0.0, "fusion_lon": 0.0, "rental_uris": {"android": "https://dc.lft.to/lastmile_qr_scan", "ios": "https://dc.lft.to/lastmile_qr_scan"}, "is_reserved": 0, "is_disabled": 0, "type": "electric_scooter", "bike_id": "844ccb73b477057830ef876e3aa51816"}, {"lon": -76.996244, "lat": 38.88026716666667, "name": "6c2b95e498c451f1f363e2e195b961d9", "fusion_lat": 0.0, "fusion_lon": 0.0, "rental_uris": {"android": "https://dc.lft.to/lastmile_qr_scan", "ios": "https://dc.lft.to/lastmile_qr_scan"}, "is_reserved": 0, "is_disabled": 0, "type": "electric_scooter", "bike_id": "6c2b95e498c451f1f363e2e195b961d9"}, {"lon": -77.03319666666667, "lat": 38.89819683333333, "name": "c311c89e44d92b6f60bc3076b173bbe0", "fusion_lat": 0.0, "fusion_lon": 0.0, "rental_uris": {"android": "https://dc.lft.to/lastmile_qr_scan", "ios": "https://dc.lft.to/lastmile_qr_scan"}, "is_reserved": 0, "is_disabled": 0, "type": "electric_scooter", "bike_id": "c311c89e44d92b6f60bc3076b173bbe0"}, {"lon": -77.11215683333333, "lat": 38.8287415, "name": "f683fb715427504d68f1323780d3d1e2", "fusion_lat": 0.0, "fusion_lon": 0.0, "rental_uris": {"android": "https://dc.lft.to/lastmile_qr_scan", "ios": "https://dc.lft.to/lastmile_qr_scan"}, "is_reserved": 0, "is_disabled": 0, "type": "electric_bike", "bike_id": "f683fb715427504d68f1323780d3d1e2"}, {"lon": -77.0349925, "lat": 38.92149216666667, "name": "8345960ea4b77dc74f4077a8a0f04018", "fusion_lat": 0.0, "fusion_lon": 0.0, "rental_uris": {"android": "https://dc.lft.to/lastmile_qr_scan", "ios": "https://dc.lft.to/lastmile_qr_scan"}, "is_reserved": 0, "is_disabled": 0, "type": "electric_scooter", "bike_id": "8345960ea4b77dc74f4077a8a0f04018"}, {"lon": -77.02415783333333, "lat": 38.9207625, "name": "c941fba13a65a6ad2b21c225efea103e", "fusion_lat": 0.0, "fusion_lon": 0.0, "rental_uris": {"android": "https://dc.lft.to/lastmile_qr_scan", "ios": "https://dc.lft.to/lastmile_qr_scan"}, "is_reserved": 0, "is_disabled": 0, "type": "electric_scooter", "bike_id": "c941fba13a65a6ad2b21c225efea103e"}, {"lon": -77.01448233333333, "lat": 38.911984, "name": "3053e9a5d24e2e2276edbeb1bac1a2ce", "fusion_lat": 0.0, "fusion_lon": 0.0, "rental_uris": {"android": "https://dc.lft.to/lastmile_qr_scan", "ios": "https://dc.lft.to/lastmile_qr_scan"}, "is_reserved": 0, "is_disabled": 0, "type": "electric_scooter", "bike_id": "3053e9a5d24e2e2276edbeb1bac1a2ce"}, {"lon": -77.03429266666667, "lat": 38.902704166666666, "name": "c57e8efb5d74ef4b311dac242230a7e3", "fusion_lat": 0.0, "fusion_lon": 0.0, "rental_uris": {"android": "https://dc.lft.to/lastmile_qr_scan", "ios": "https://dc.lft.to/lastmile_qr_scan"}, "is_reserved": 0, "is_disabled": 0, "type": "electric_scooter", "bike_id": "c57e8efb5d74ef4b311dac242230a7e3"}, {"lon": -76.96521666666666, "lat": 38.8747995, "name": "5baa14e707d54b6b5c1add189ed9d24b", "fusion_lat": 0.0, "fusion_lon": 0.0, "rental_uris": {"android": "https://dc.lft.to/lastmile_qr_scan", "ios": "https://dc.lft.to/lastmile_qr_scan"}, "is_reserved": 0, "is_disabled": 0, "type": "electric_scooter", "bike_id": "5baa14e707d54b6b5c1add189ed9d24b"}, {"lon": -76.98852666666667, "lat": 38.90010383333333, "name": "7d3db52f7055ea8a40740438d7382b55", "fusion_lat": 0.0, "fusion_lon": 0.0, "rental_uris": {"android": "https://dc.lft.to/lastmile_qr_scan", "ios": "https://dc.lft.to/lastmile_qr_scan"}, "is_reserved": 0, "is_disabled": 0, "type": "electric_scooter", "bike_id": "7d3db52f7055ea8a40740438d7382b55"}, {"lon": -77.01764266666666, "lat": 38.90245266666667, "name": "c11c0208a4e4de5222df8d854ec2a3f9", "fusion_lat": 0.0, "fusion_lon": 0.0, "rental_uris": {"android": "https://dc.lft.to/lastmile_qr_scan", "ios": "https://dc.lft.to/lastmile_qr_scan"}, "is_reserved": 0, "is_disabled": 0, "type": "electric_scooter", "bike_id": "c11c0208a4e4de5222df8d854ec2a3f9"}, {"lon": -77.0375295, "lat": 38.908692, "name": "116a890785180cc1d70d1663cf3c126c", "fusion_lat": 0.0, "fusion_lon": 0.0, "rental_uris": {"android": "https://dc.lft.to/lastmile_qr_scan", "ios": "https://dc.lft.to/lastmile_qr_scan"}, "is_reserved": 0, "is_disabled": 0, "type": "electric_scooter", "bike_id": "116a890785180cc1d70d1663cf3c126c"}, {"lon": -77.01377283333333, "lat": 38.928537, "name": "24a5c460afd6f7d9204fd5bec43a1a00", "fusion_lat": 0.0, "fusion_lon": 0.0, "rental_uris": {"android": "https://dc.lft.to/lastmile_qr_scan", "ios": "https://dc.lft.to/lastmile_qr_scan"}, "is_reserved": 0, "is_disabled": 0, "type": "electric_scooter", "bike_id": "24a5c460afd6f7d9204fd5bec43a1a00"}, {"lon": -77.02703, "lat": 38.949977833333335, "name": "349efd0b7154f67cb539e33904a3677d", "fusion_lat": 0.0, "fusion_lon": 0.0, "rental_uris": {"android": "https://dc.lft.to/lastmile_qr_scan", "ios": "https://dc.lft.to/lastmile_qr_scan"}, "is_reserved": 0, "is_disabled": 0, "type": "electric_scooter", "bike_id": "349efd0b7154f67cb539e33904a3677d"}, {"lon": -77.032648, "lat": 38.93337, "name": "7553782a27a7e100893940118c115ad8", "fusion_lat": 0.0, "fusion_lon": 0.0, "rental_uris": {"android": "https://dc.lft.to/lastmile_qr_scan", "ios": "https://dc.lft.to/lastmile_qr_scan"}, "is_reserved": 0, "is_disabled": 0, "type": "electric_scooter", "bike_id": "7553782a27a7e100893940118c115ad8"}, {"lon": -77.0124695, "lat": 38.90868066666667, "name": "392e12c2ddcc559d417fc9fb6024c3ff", "fusion_lat": 0.0, "fusion_lon": 0.0, "rental_uris": {"android": "https://dc.lft.to/lastmile_qr_scan", "ios": "https://dc.lft.to/lastmile_qr_scan"}, "is_reserved": 0, "is_disabled": 0, "type": "electric_scooter", "bike_id": "392e12c2ddcc559d417fc9fb6024c3ff"}, {"lon": -77.01806, "lat": 38.914392166666666, "name": "7a14ffa1b528610495cfb344abd36409", "fusion_lat": 0.0, "fusion_lon": 0.0, "rental_uris": {"android": "https://dc.lft.to/lastmile_qr_scan", "ios": "https://dc.lft.to/lastmile_qr_scan"}, "is_reserved": 0, "is_disabled": 0, "type": "electric_scooter", "bike_id": "7a14ffa1b528610495cfb344abd36409"}, {"lon": -77.04151833333333, "lat": 38.91408583333333, "name": "a3028106da5e045edae6856ae9c69fdb", "fusion_lat": 0.0, "fusion_lon": 0.0, "rental_uris": {"android": "https://dc.lft.to/lastmile_qr_scan", "ios": "https://dc.lft.to/lastmile_qr_scan"}, "is_reserved": 0, "is_disabled": 0, "type": "electric_scooter", "bike_id": "a3028106da5e045edae6856ae9c69fdb"}, {"lon": -77.00213283333333, "lat": 38.90070683333333, "name": "4ade8669a41937ece8d119beaf3af3b0", "fusion_lat": 0.0, "fusion_lon": 0.0, "rental_uris": {"android": "https://dc.lft.to/lastmile_qr_scan", "ios": "https://dc.lft.to/lastmile_qr_scan"}, "is_reserved": 0, "is_disabled": 0, "type": "electric_scooter", "bike_id": "4ade8669a41937ece8d119beaf3af3b0"}, {"lon": -77.02690433333333, "lat": 38.90939566666667, "name": "1b9bfcf99e994ef673e915140dba004f", "fusion_lat": 0.0, "fusion_lon": 0.0, "rental_uris": {"android": "https://dc.lft.to/lastmile_qr_scan", "ios": "https://dc.lft.to/lastmile_qr_scan"}, "is_reserved": 0, "is_disabled": 0, "type": "electric_scooter", "bike_id": "1b9bfcf99e994ef673e915140dba004f"}, {"lon": -76.990543, "lat": 38.90403116666667, "name": "d760bc4edfb7117f3262557e59eeab68", "fusion_lat": 0.0, "fusion_lon": 0.0, "rental_uris": {"android": "https://dc.lft.to/lastmile_qr_scan", "ios": "https://dc.lft.to/lastmile_qr_scan"}, "is_reserved": 0, "is_disabled": 0, "type": "electric_scooter", "bike_id": "d760bc4edfb7117f3262557e59eeab68"}, {"lon": -77.0317725, "lat": 38.8938915, "name": "233c9bb9c7cec26a58bc705bd52bc5ce", "fusion_lat": 0.0, "fusion_lon": 0.0, "rental_uris": {"android": "https://dc.lft.to/lastmile_qr_scan", "ios": "https://dc.lft.to/lastmile_qr_scan"}, "is_reserved": 0, "is_disabled": 0, "type": "electric_scooter", "bike_id": "233c9bb9c7cec26a58bc705bd52bc5ce"}, {"lon": -77.04152783333333, "lat": 38.91487, "name": "824bb5712ab0562e46a785b033ed7585", "fusion_lat": 0.0, "fusion_lon": 0.0, "rental_uris": {"android": "https://dc.lft.to/lastmile_qr_scan", "ios": "https://dc.lft.to/lastmile_qr_scan"}, "is_reserved": 0, "is_disabled": 0, "type": "electric_scooter", "bike_id": "824bb5712ab0562e46a785b033ed7585"}, {"lon": -77.01837616666667, "lat": 38.913438166666666, "name": "2ce8e5aabd5e37c361f6283b78e88f23", "fusion_lat": 0.0, "fusion_lon": 0.0, "rental_uris": {"android": "https://dc.lft.to/lastmile_qr_scan", "ios": "https://dc.lft.to/lastmile_qr_scan"}, "is_reserved": 0, "is_disabled": 0, "type": "electric_scooter", "bike_id": "2ce8e5aabd5e37c361f6283b78e88f23"}, {"lon": -77.03280133333334, "lat": 38.937936, "name": "8486ae917fad18ffd1a303485d050036", "fusion_lat": 0.0, "fusion_lon": 0.0, "rental_uris": {"android": "https://dc.lft.to/lastmile_qr_scan", "ios": "https://dc.lft.to/lastmile_qr_scan"}, "is_reserved": 0, "is_disabled": 0, "type": "electric_scooter", "bike_id": "8486ae917fad18ffd1a303485d050036"}, {"lon": -76.98559316666666, "lat": 38.868906333333335, "name": "66c099ab31c42dce9b6bd1344cb313c4", "fusion_lat": 0.0, "fusion_lon": 0.0, "rental_uris": {"android": "https://dc.lft.to/lastmile_qr_scan", "ios": "https://dc.lft.to/lastmile_qr_scan"}, "is_reserved": 0, "is_disabled": 0, "type": "electric_bike", "bike_id": "66c099ab31c42dce9b6bd1344cb313c4"}, {"lon": -76.981243, "lat": 38.89195983333333, "name": "7dcf807f3770a7b53537c76d753acef5", "fusion_lat": 0.0, "fusion_lon": 0.0, "rental_uris": {"android": "https://dc.lft.to/lastmile_qr_scan", "ios": "https://dc.lft.to/lastmile_qr_scan"}, "is_reserved": 0, "is_disabled": 0, "type": "electric_scooter", "bike_id": "7dcf807f3770a7b53537c76d753acef5"}, {"lon": -77.02196866666667, "lat": 38.91688, "name": "8b4f4f28d54076bcb43528e8bf418150", "fusion_lat": 0.0, "fusion_lon": 0.0, "rental_uris": {"android": "https://dc.lft.to/lastmile_qr_scan", "ios": "https://dc.lft.to/lastmile_qr_scan"}, "is_reserved": 0, "is_disabled": 0, "type": "electric_scooter", "bike_id": "8b4f4f28d54076bcb43528e8bf418150"}, {"lon": -77.06287433333334, "lat": 38.904560833333335, "name": "3b3760a1a069a167d6aca26569c8510f", "fusion_lat": 0.0, "fusion_lon": 0.0, "rental_uris": {"android": "https://dc.lft.to/lastmile_qr_scan", "ios": "https://dc.lft.to/lastmile_qr_scan"}, "is_reserved": 0, "is_disabled": 0, "type": "electric_scooter", "bike_id": "3b3760a1a069a167d6aca26569c8510f"}, {"lon": -76.95516033333334, "lat": 38.890515666666666, "name": "670c45162157ff95a90ede17cb1ccd84", "fusion_lat": 0.0, "fusion_lon": 0.0, "rental_uris": {"android": "https://dc.lft.to/lastmile_qr_scan", "ios": "https://dc.lft.to/lastmile_qr_scan"}, "is_reserved": 0, "is_disabled": 0, "type": "electric_scooter", "bike_id": "670c45162157ff95a90ede17cb1ccd84"}, {"lon": -77.04513733333333, "lat": 38.892226, "name": "ef3e86aa3b46dcc523cf4f40bbb59ec8", "fusion_lat": 0.0, "fusion_lon": 0.0, "rental_uris": {"android": "https://dc.lft.to/lastmile_qr_scan", "ios": "https://dc.lft.to/lastmile_qr_scan"}, "is_reserved": 0, "is_disabled": 0, "type": "electric_scooter", "bike_id": "ef3e86aa3b46dcc523cf4f40bbb59ec8"}, {"lon": -77.02192083333334, "lat": 38.91131983333333, "name": "1c9999573cb2e3212e3a0391e8124d91", "fusion_lat": 0.0, "fusion_lon": 0.0, "rental_uris": {"android": "https://dc.lft.to/lastmile_qr_scan", "ios": "https://dc.lft.to/lastmile_qr_scan"}, "is_reserved": 0, "is_disabled": 0, "type": "electric_scooter", "bike_id": "1c9999573cb2e3212e3a0391e8124d91"}, {"lon": -76.939096, "lat": 38.95517383333333, "name": "6e0c54c91059217b3f1f0fa2d2308843", "fusion_lat": 0.0, "fusion_lon": 0.0, "rental_uris": {"android": "https://dc.lft.to/lastmile_qr_scan", "ios": "https://dc.lft.to/lastmile_qr_scan"}, "is_reserved": 0, "is_disabled": 0, "type": "electric_bike", "bike_id": "6e0c54c91059217b3f1f0fa2d2308843"}, {"lon": -77.03442166666666, "lat": 38.907410666666664, "name": "e97bf3ac469704f7f93fa0fe44150b25", "fusion_lat": 0.0, "fusion_lon": 0.0, "rental_uris": {"android": "https://dc.lft.to/lastmile_qr_scan", "ios": "https://dc.lft.to/lastmile_qr_scan"}, "is_reserved": 0, "is_disabled": 0, "type": "electric_scooter", "bike_id": "e97bf3ac469704f7f93fa0fe44150b25"}, {"lon": -77.076627, "lat": 38.9062275, "name": "35577c2ed6d8bd5731ada654269b268d", "fusion_lat": 0.0, "fusion_lon": 0.0, "rental_uris": {"android": "https://dc.lft.to/lastmile_qr_scan", "ios": "https://dc.lft.to/lastmile_qr_scan"}, "is_reserved": 0, "is_disabled": 0, "type": "electric_scooter", "bike_id": "35577c2ed6d8bd5731ada654269b268d"}, {"lon": -77.03644483333333, "lat": 38.91255666666667, "name": "85167cf03a5b4fd4a994982b7403bd0f", "fusion_lat": 0.0, "fusion_lon": 0.0, "rental_uris": {"android": "https://dc.lft.to/lastmile_qr_scan", "ios": "https://dc.lft.to/lastmile_qr_scan"}, "is_reserved": 0, "is_disabled": 0, "type": "electric_scooter", "bike_id": "85167cf03a5b4fd4a994982b7403bd0f"}, {"lon": -77.04225583333333, "lat": 38.911077666666664, "name": "5113d48a1a1ec30a22e6e9089b940b6b", "fusion_lat": 0.0, "fusion_lon": 0.0, "rental_uris": {"android": "https://dc.lft.to/lastmile_qr_scan", "ios": "https://dc.lft.to/lastmile_qr_scan"}, "is_reserved": 0, "is_disabled": 0, "type": "electric_scooter", "bike_id": "5113d48a1a1ec30a22e6e9089b940b6b"}, {"lon": -77.0329655, "lat": 38.90347116666667, "name": "d691436d754a36bcf2c491d6b3598530", "fusion_lat": 0.0, "fusion_lon": 0.0, "rental_uris": {"android": "https://dc.lft.to/lastmile_qr_scan", "ios": "https://dc.lft.to/lastmile_qr_scan"}, "is_reserved": 0, "is_disabled": 0, "type": "electric_scooter", "bike_id": "d691436d754a36bcf2c491d6b3598530"}, {"lon": -77.04034566666667, "lat": 38.92375933333334, "name": "a279e80e94896198e9d2a1e36f812186", "fusion_lat": 0.0, "fusion_lon": 0.0, "rental_uris": {"android": "https://dc.lft.to/lastmile_qr_scan", "ios": "https://dc.lft.to/lastmile_qr_scan"}, "is_reserved": 0, "is_disabled": 0, "type": "electric_scooter", "bike_id": "a279e80e94896198e9d2a1e36f812186"}, {"lon": -77.02210416666667, "lat": 38.88762833333333, "name": "0e42d467a62d1e264485d907372cc974", "fusion_lat": 0.0, "fusion_lon": 0.0, "rental_uris": {"android": "https://dc.lft.to/lastmile_qr_scan", "ios": "https://dc.lft.to/lastmile_qr_scan"}, "is_reserved": 0, "is_disabled": 0, "type": "electric_scooter", "bike_id": "0e42d467a62d1e264485d907372cc974"}, {"lon": -77.03635166666666, "lat": 38.916275, "name": "e8ac0adabcbc770f7285c39935b6a596", "fusion_lat": 0.0, "fusion_lon": 0.0, "rental_uris": {"android": "https://dc.lft.to/lastmile_qr_scan", "ios": "https://dc.lft.to/lastmile_qr_scan"}, "is_reserved": 0, "is_disabled": 0, "type": "electric_scooter", "bike_id": "e8ac0adabcbc770f7285c39935b6a596"}, {"lon": -76.98361283333334, "lat": 38.86483333333334, "name": "9a685a31c702ea83d508ee9250f78c34", "fusion_lat": 0.0, "fusion_lon": 0.0, "rental_uris": {"android": "https://dc.lft.to/lastmile_qr_scan", "ios": "https://dc.lft.to/lastmile_qr_scan"}, "is_reserved": 0, "is_disabled": 0, "type": "electric_scooter", "bike_id": "9a685a31c702ea83d508ee9250f78c34"}, {"lon": -77.00336483333334, "lat": 38.8935725, "name": "6ce535eecf62653cea4cfab207c9c2f4", "fusion_lat": 0.0, "fusion_lon": 0.0, "rental_uris": {"android": "https://dc.lft.to/lastmile_qr_scan", "ios": "https://dc.lft.to/lastmile_qr_scan"}, "is_reserved": 0, "is_disabled": 0, "type": "electric_scooter", "bike_id": "6ce535eecf62653cea4cfab207c9c2f4"}, {"lon": -77.1142875, "lat": 38.852453833333335, "name": "9b271bfc3112fdc81579d54ec3dd510a", "fusion_lat": 0.0, "fusion_lon": 0.0, "rental_uris": {"android": "https://dc.lft.to/lastmile_qr_scan", "ios": "https://dc.lft.to/lastmile_qr_scan"}, "is_reserved": 0, "is_disabled": 0, "type": "electric_bike", "bike_id": "9b271bfc3112fdc81579d54ec3dd510a"}, {"lon": -76.99730183333334, "lat": 38.907929833333334, "name": "fab0d97964b8dfe54ead929ff9425aeb", "fusion_lat": 0.0, "fusion_lon": 0.0, "rental_uris": {"android": "https://dc.lft.to/lastmile_qr_scan", "ios": "https://dc.lft.to/lastmile_qr_scan"}, "is_reserved": 0, "is_disabled": 0, "type": "electric_scooter", "bike_id": "fab0d97964b8dfe54ead929ff9425aeb"}, {"lon": -76.9977025, "lat": 38.92264516666667, "name": "e23df2b73ca2a1f17742c104527b6775", "fusion_lat": 0.0, "fusion_lon": 0.0, "rental_uris": {"android": "https://dc.lft.to/lastmile_qr_scan", "ios": "https://dc.lft.to/lastmile_qr_scan"}, "is_reserved": 0, "is_disabled": 0, "type": "electric_scooter", "bike_id": "e23df2b73ca2a1f17742c104527b6775"}, {"lon": -77.03383033333333, "lat": 38.92154333333333, "name": "ec0ce3ecd7b71952b282040845a48d79", "fusion_lat": 0.0, "fusion_lon": 0.0, "rental_uris": {"android": "https://dc.lft.to/lastmile_qr_scan", "ios": "https://dc.lft.to/lastmile_qr_scan"}, "is_reserved": 0, "is_disabled": 0, "type": "electric_scooter", "bike_id": "ec0ce3ecd7b71952b282040845a48d79"}, {"lon": -76.97090233333333, "lat": 38.87878, "name": "394b7e187f483405c436de8cd10449b7", "fusion_lat": 0.0, "fusion_lon": 0.0, "rental_uris": {"android": "https://dc.lft.to/lastmile_qr_scan", "ios": "https://dc.lft.to/lastmile_qr_scan"}, "is_reserved": 0, "is_disabled": 0, "type": "electric_scooter", "bike_id": "394b7e187f483405c436de8cd10449b7"}, {"lon": -77.0447715, "lat": 38.911066, "name": "20ac7107af39507e1a4baaeef2cf6372", "fusion_lat": 0.0, "fusion_lon": 0.0, "rental_uris": {"android": "https://dc.lft.to/lastmile_qr_scan", "ios": "https://dc.lft.to/lastmile_qr_scan"}, "is_reserved": 0, "is_disabled": 0, "type": "electric_scooter", "bike_id": "20ac7107af39507e1a4baaeef2cf6372"}, {"lon": -77.03831183333334, "lat": 38.911886833333334, "name": "d8c8eb17a6ab365f3a2a289c94a71c6a", "fusion_lat": 0.0, "fusion_lon": 0.0, "rental_uris": {"android": "https://dc.lft.to/lastmile_qr_scan", "ios": "https://dc.lft.to/lastmile_qr_scan"}, "is_reserved": 0, "is_disabled": 0, "type": "electric_scooter", "bike_id": "d8c8eb17a6ab365f3a2a289c94a71c6a"}, {"lon": -77.03373516666667, "lat": 38.9038365, "name": "81cbf7b19b918c371d8f2c28b16dc387", "fusion_lat": 0.0, "fusion_lon": 0.0, "rental_uris": {"android": "https://dc.lft.to/lastmile_qr_scan", "ios": "https://dc.lft.to/lastmile_qr_scan"}, "is_reserved": 0, "is_disabled": 0, "type": "electric_scooter", "bike_id": "81cbf7b19b918c371d8f2c28b16dc387"}, {"lon": -77.04013816666667, "lat": 38.92410916666667, "name": "0874a147e2508d5a105e5ae70dc102f7", "fusion_lat": 0.0, "fusion_lon": 0.0, "rental_uris": {"android": "https://dc.lft.to/lastmile_qr_scan", "ios": "https://dc.lft.to/lastmile_qr_scan"}, "is_reserved": 0, "is_disabled": 0, "type": "electric_scooter", "bike_id": "0874a147e2508d5a105e5ae70dc102f7"}, {"lon": -77.015032, "lat": 38.885229833333334, "name": "a18c317c8f8146adf395e5c694e13b72", "fusion_lat": 0.0, "fusion_lon": 0.0, "rental_uris": {"android": "https://dc.lft.to/lastmile_qr_scan", "ios": "https://dc.lft.to/lastmile_qr_scan"}, "is_reserved": 0, "is_disabled": 0, "type": "electric_bike", "bike_id": "a18c317c8f8146adf395e5c694e13b72"}, {"lon": -77.04348316666666, "lat": 38.905783166666666, "name": "6b53209c940110e9f3397144cfe6448a", "fusion_lat": 0.0, "fusion_lon": 0.0, "rental_uris": {"android": "https://dc.lft.to/lastmile_qr_scan", "ios": "https://dc.lft.to/lastmile_qr_scan"}, "is_reserved": 0, "is_disabled": 0, "type": "electric_scooter", "bike_id": "6b53209c940110e9f3397144cfe6448a"}, {"lon": -77.02818866666667, "lat": 38.91657283333333, "name": "6a2cfa67d4fde2dee67673038399b7ef", "fusion_lat": 0.0, "fusion_lon": 0.0, "rental_uris": {"android": "https://dc.lft.to/lastmile_qr_scan", "ios": "https://dc.lft.to/lastmile_qr_scan"}, "is_reserved": 0, "is_disabled": 0, "type": "electric_scooter", "bike_id": "6a2cfa67d4fde2dee67673038399b7ef"}, {"lon": -77.126242, "lat": 39.05812233333333, "name": "75139576e96b99658797cf99775fba17", "fusion_lat": 0.0, "fusion_lon": 0.0, "rental_uris": {"android": "https://dc.lft.to/lastmile_qr_scan", "ios": "https://dc.lft.to/lastmile_qr_scan"}, "is_reserved": 0, "is_disabled": 0, "type": "electric_bike", "bike_id": "75139576e96b99658797cf99775fba17"}, {"lon": -76.983976, "lat": 38.9219535, "name": "9c06037ecd6216e9f5756d453d630b3e", "fusion_lat": 0.0, "fusion_lon": 0.0, "rental_uris": {"android": "https://dc.lft.to/lastmile_qr_scan", "ios": "https://dc.lft.to/lastmile_qr_scan"}, "is_reserved": 0, "is_disabled": 0, "type": "electric_bike", "bike_id": "9c06037ecd6216e9f5756d453d630b3e"}, {"lon": -77.0532715, "lat": 38.90507516666667, "name": "fd104861c28ac580bb75adc470235c04", "fusion_lat": 0.0, "fusion_lon": 0.0, "rental_uris": {"android": "https://dc.lft.to/lastmile_qr_scan", "ios": "https://dc.lft.to/lastmile_qr_scan"}, "is_reserved": 0, "is_disabled": 0, "type": "electric_scooter", "bike_id": "fd104861c28ac580bb75adc470235c04"}, {"lon": -77.04349116666667, "lat": 38.9036125, "name": "7ddb1cc77fd3a4cb32a9e6bdc392ded1", "fusion_lat": 0.0, "fusion_lon": 0.0, "rental_uris": {"android": "https://dc.lft.to/lastmile_qr_scan", "ios": "https://dc.lft.to/lastmile_qr_scan"}, "is_reserved": 0, "is_disabled": 0, "type": "electric_scooter", "bike_id": "7ddb1cc77fd3a4cb32a9e6bdc392ded1"}, {"lon": -77.03270033333334, "lat": 38.8988425, "name": "ce12cd415f7bac45bcd1df09d669e47d", "fusion_lat": 0.0, "fusion_lon": 0.0, "rental_uris": {"android": "https://dc.lft.to/lastmile_qr_scan", "ios": "https://dc.lft.to/lastmile_qr_scan"}, "is_reserved": 0, "is_disabled": 0, "type": "electric_scooter", "bike_id": "ce12cd415f7bac45bcd1df09d669e47d"}, {"lon": -77.0330095, "lat": 38.903429, "name": "02388b5e0766ce6205ce7fbc22cf82cd", "fusion_lat": 0.0, "fusion_lon": 0.0, "rental_uris": {"android": "https://dc.lft.to/lastmile_qr_scan", "ios": "https://dc.lft.to/lastmile_qr_scan"}, "is_reserved": 0, "is_disabled": 0, "type": "electric_scooter", "bike_id": "02388b5e0766ce6205ce7fbc22cf82cd"}, {"lon": -77.01862883333334, "lat": 38.97366233333333, "name": "4b36dc31067a83587368230eefd45449", "fusion_lat": 0.0, "fusion_lon": 0.0, "rental_uris": {"android": "https://dc.lft.to/lastmile_qr_scan", "ios": "https://dc.lft.to/lastmile_qr_scan"}, "is_reserved": 0, "is_disabled": 0, "type": "electric_scooter", "bike_id": "4b36dc31067a83587368230eefd45449"}, {"lon": -77.0317205, "lat": 38.919171166666665, "name": "8461acfe8e7b5f8ebc624a13db871c26", "fusion_lat": 0.0, "fusion_lon": 0.0, "rental_uris": {"android": "https://dc.lft.to/lastmile_qr_scan", "ios": "https://dc.lft.to/lastmile_qr_scan"}, "is_reserved": 0, "is_disabled": 0, "type": "electric_scooter", "bike_id": "8461acfe8e7b5f8ebc624a13db871c26"}, {"lon": -76.998281, "lat": 38.844197666666666, "name": "aefb22bd3bbb0da6a6d5fa84609c92c1", "fusion_lat": 0.0, "fusion_lon": 0.0, "rental_uris": {"android": "https://dc.lft.to/lastmile_qr_scan", "ios": "https://dc.lft.to/lastmile_qr_scan"}, "is_reserved": 0, "is_disabled": 0, "type": "electric_scooter", "bike_id": "aefb22bd3bbb0da6a6d5fa84609c92c1"}, {"lon": -77.0295885, "lat": 38.892222333333336, "name": "a2bc44324dcd511e4773a3677b8cce8f", "fusion_lat": 0.0, "fusion_lon": 0.0, "rental_uris": {"android": "https://dc.lft.to/lastmile_qr_scan", "ios": "https://dc.lft.to/lastmile_qr_scan"}, "is_reserved": 0, "is_disabled": 0, "type": "electric_scooter", "bike_id": "a2bc44324dcd511e4773a3677b8cce8f"}, {"lon": -77.03648383333334, "lat": 38.95590116666666, "name": "a249caa6f0a30bb03606ead9b538053a", "fusion_lat": 0.0, "fusion_lon": 0.0, "rental_uris": {"android": "https://dc.lft.to/lastmile_qr_scan", "ios": "https://dc.lft.to/lastmile_qr_scan"}, "is_reserved": 0, "is_disabled": 0, "type": "electric_scooter", "bike_id": "a249caa6f0a30bb03606ead9b538053a"}, {"lon": -76.96545533333334, "lat": 38.95119733333333, "name": "b582b124af7de0c9b6aac4e7a020ac28", "fusion_lat": 0.0, "fusion_lon": 0.0, "rental_uris": {"android": "https://dc.lft.to/lastmile_qr_scan", "ios": "https://dc.lft.to/lastmile_qr_scan"}, "is_reserved": 0, "is_disabled": 0, "type": "electric_bike", "bike_id": "b582b124af7de0c9b6aac4e7a020ac28"}, {"lon": -77.03129166666666, "lat": 38.910303666666664, "name": "e14bd5be2641f66dbd6327532e286dde", "fusion_lat": 0.0, "fusion_lon": 0.0, "rental_uris": {"android": "https://dc.lft.to/lastmile_qr_scan", "ios": "https://dc.lft.to/lastmile_qr_scan"}, "is_reserved": 0, "is_disabled": 0, "type": "electric_scooter", "bike_id": "e14bd5be2641f66dbd6327532e286dde"}, {"lon": -76.9874315, "lat": 38.85789333333334, "name": "f0bd37e9ecc77fcb1c532c7fb591bff3", "fusion_lat": 0.0, "fusion_lon": 0.0, "rental_uris": {"android": "https://dc.lft.to/lastmile_qr_scan", "ios": "https://dc.lft.to/lastmile_qr_scan"}, "is_reserved": 0, "is_disabled": 0, "type": "electric_bike", "bike_id": "f0bd37e9ecc77fcb1c532c7fb591bff3"}, {"lon": -77.03426783333333, "lat": 38.91927583333333, "name": "c82c534f4e42ce8c420c140c53e11b33", "fusion_lat": 0.0, "fusion_lon": 0.0, "rental_uris": {"android": "https://dc.lft.to/lastmile_qr_scan", "ios": "https://dc.lft.to/lastmile_qr_scan"}, "is_reserved": 0, "is_disabled": 0, "type": "electric_scooter", "bike_id": "c82c534f4e42ce8c420c140c53e11b33"}, {"lon": -77.04902516666667, "lat": 38.87492133333333, "name": "25b1fe637e85438709eaaf2267c5adb1", "fusion_lat": 0.0, "fusion_lon": 0.0, "rental_uris": {"android": "https://dc.lft.to/lastmile_qr_scan", "ios": "https://dc.lft.to/lastmile_qr_scan"}, "is_reserved": 0, "is_disabled": 0, "type": "electric_bike", "bike_id": "25b1fe637e85438709eaaf2267c5adb1"}, {"lon": -77.04093133333333, "lat": 38.9125415, "name": "15ee3d5c275c1d5b5a2649400e66bb1a", "fusion_lat": 0.0, "fusion_lon": 0.0, "rental_uris": {"android": "https://dc.lft.to/lastmile_qr_scan", "ios": "https://dc.lft.to/lastmile_qr_scan"}, "is_reserved": 0, "is_disabled": 0, "type": "electric_scooter", "bike_id": "15ee3d5c275c1d5b5a2649400e66bb1a"}, {"lon": -77.02479716666667, "lat": 38.93876433333333, "name": "5293fe60d4f91e73d631c51a4afac7cc", "fusion_lat": 0.0, "fusion_lon": 0.0, "rental_uris": {"android": "https://dc.lft.to/lastmile_qr_scan", "ios": "https://dc.lft.to/lastmile_qr_scan"}, "is_reserved": 0, "is_disabled": 0, "type": "electric_scooter", "bike_id": "5293fe60d4f91e73d631c51a4afac7cc"}, {"lon": -77.03547, "lat": 38.92323483333333, "name": "c51a6f2643d795b4c73701c3bc0df764", "fusion_lat": 0.0, "fusion_lon": 0.0, "rental_uris": {"android": "https://dc.lft.to/lastmile_qr_scan", "ios": "https://dc.lft.to/lastmile_qr_scan"}, "is_reserved": 0, "is_disabled": 0, "type": "electric_scooter", "bike_id": "c51a6f2643d795b4c73701c3bc0df764"}, {"lon": -76.94653816666667, "lat": 38.898262, "name": "0105e85208b4166115202eb4287806ff", "fusion_lat": 0.0, "fusion_lon": 0.0, "rental_uris": {"android": "https://dc.lft.to/lastmile_qr_scan", "ios": "https://dc.lft.to/lastmile_qr_scan"}, "is_reserved": 0, "is_disabled": 0, "type": "electric_scooter", "bike_id": "0105e85208b4166115202eb4287806ff"}, {"lon": -77.04987916666667, "lat": 38.901278833333336, "name": "f347872345980d7daf20cf7e2c356a6b", "fusion_lat": 0.0, "fusion_lon": 0.0, "rental_uris": {"android": "https://dc.lft.to/lastmile_qr_scan", "ios": "https://dc.lft.to/lastmile_qr_scan"}, "is_reserved": 0, "is_disabled": 0, "type": "electric_scooter", "bike_id": "f347872345980d7daf20cf7e2c356a6b"}, {"lon": -77.03702666666666, "lat": 38.92771183333333, "name": "29c2771a34a58f3c1d9e6a44d3b167b9", "fusion_lat": 0.0, "fusion_lon": 0.0, "rental_uris": {"android": "https://dc.lft.to/lastmile_qr_scan", "ios": "https://dc.lft.to/lastmile_qr_scan"}, "is_reserved": 0, "is_disabled": 0, "type": "electric_scooter", "bike_id": "29c2771a34a58f3c1d9e6a44d3b167b9"}, {"lon": -76.98571233333334, "lat": 38.89884216666667, "name": "a45511e711949d2a9668379956b4223a", "fusion_lat": 0.0, "fusion_lon": 0.0, "rental_uris": {"android": "https://dc.lft.to/lastmile_qr_scan", "ios": "https://dc.lft.to/lastmile_qr_scan"}, "is_reserved": 0, "is_disabled": 0, "type": "electric_scooter", "bike_id": "a45511e711949d2a9668379956b4223a"}, {"lon": -77.009969, "lat": 38.906907833333335, "name": "900d31112fbe74d6d4cd28f05664e0c1", "fusion_lat": 0.0, "fusion_lon": 0.0, "rental_uris": {"android": "https://dc.lft.to/lastmile_qr_scan", "ios": "https://dc.lft.to/lastmile_qr_scan"}, "is_reserved": 0, "is_disabled": 0, "type": "electric_scooter", "bike_id": "900d31112fbe74d6d4cd28f05664e0c1"}, {"lon": -77.0242415, "lat": 38.89213983333333, "name": "0d620c1ba518e6fb8ac43e912a967c24", "fusion_lat": 0.0, "fusion_lon": 0.0, "rental_uris": {"android": "https://dc.lft.to/lastmile_qr_scan", "ios": "https://dc.lft.to/lastmile_qr_scan"}, "is_reserved": 0, "is_disabled": 0, "type": "electric_scooter", "bike_id": "0d620c1ba518e6fb8ac43e912a967c24"}, {"lon": -77.03285483333333, "lat": 38.93758166666667, "name": "8c52ddd10b43f72fc2e3fa03d2a616e3", "fusion_lat": 0.0, "fusion_lon": 0.0, "rental_uris": {"android": "https://dc.lft.to/lastmile_qr_scan", "ios": "https://dc.lft.to/lastmile_qr_scan"}, "is_reserved": 0, "is_disabled": 0, "type": "electric_scooter", "bike_id": "8c52ddd10b43f72fc2e3fa03d2a616e3"}, {"lon": -77.018124, "lat": 38.91191233333333, "name": "67e16f3956ec1e0a36fc5bd57d1d6cc5", "fusion_lat": 0.0, "fusion_lon": 0.0, "rental_uris": {"android": "https://dc.lft.to/lastmile_qr_scan", "ios": "https://dc.lft.to/lastmile_qr_scan"}, "is_reserved": 0, "is_disabled": 0, "type": "electric_scooter", "bike_id": "67e16f3956ec1e0a36fc5bd57d1d6cc5"}, {"lon": -77.04434433333333, "lat": 38.9326575, "name": "5c7e80b8d13b02b895a9bfcda2cfbe06", "fusion_lat": 0.0, "fusion_lon": 0.0, "rental_uris": {"android": "https://dc.lft.to/lastmile_qr_scan", "ios": "https://dc.lft.to/lastmile_qr_scan"}, "is_reserved": 0, "is_disabled": 0, "type": "electric_scooter", "bike_id": "5c7e80b8d13b02b895a9bfcda2cfbe06"}, {"lon": -77.04183666666667, "lat": 38.92048533333333, "name": "3a7f4f9e898040f6ed39d093d397c331", "fusion_lat": 0.0, "fusion_lon": 0.0, "rental_uris": {"android": "https://dc.lft.to/lastmile_qr_scan", "ios": "https://dc.lft.to/lastmile_qr_scan"}, "is_reserved": 0, "is_disabled": 0, "type": "electric_scooter", "bike_id": "3a7f4f9e898040f6ed39d093d397c331"}, {"lon": -77.03898766666667, "lat": 38.91713716666667, "name": "690a3696003cfec80fbcac8807b3ccb2", "fusion_lat": 0.0, "fusion_lon": 0.0, "rental_uris": {"android": "https://dc.lft.to/lastmile_qr_scan", "ios": "https://dc.lft.to/lastmile_qr_scan"}, "is_reserved": 0, "is_disabled": 0, "type": "electric_scooter", "bike_id": "690a3696003cfec80fbcac8807b3ccb2"}, {"lon": -77.04756516666667, "lat": 38.90533033333333, "name": "ee62401783fffe27e0c1850352816922", "fusion_lat": 0.0, "fusion_lon": 0.0, "rental_uris": {"android": "https://dc.lft.to/lastmile_qr_scan", "ios": "https://dc.lft.to/lastmile_qr_scan"}, "is_reserved": 0, "is_disabled": 0, "type": "electric_scooter", "bike_id": "ee62401783fffe27e0c1850352816922"}, {"lon": -77.02142233333333, "lat": 38.9248495, "name": "b50016037e2040026a62757cefd381c7", "fusion_lat": 0.0, "fusion_lon": 0.0, "rental_uris": {"android": "https://dc.lft.to/lastmile_qr_scan", "ios": "https://dc.lft.to/lastmile_qr_scan"}, "is_reserved": 0, "is_disabled": 0, "type": "electric_scooter", "bike_id": "b50016037e2040026a62757cefd381c7"}, {"lon": -77.00612416666667, "lat": 38.90713866666667, "name": "dc68cbb3e1de596632c160a41428e0c8", "fusion_lat": 0.0, "fusion_lon": 0.0, "rental_uris": {"android": "https://dc.lft.to/lastmile_qr_scan", "ios": "https://dc.lft.to/lastmile_qr_scan"}, "is_reserved": 0, "is_disabled": 0, "type": "electric_scooter", "bike_id": "dc68cbb3e1de596632c160a41428e0c8"}, {"lon": -77.10031483333333, "lat": 38.9906035, "name": "bcc1f6ec4dcde321aae697055640b596", "fusion_lat": 0.0, "fusion_lon": 0.0, "rental_uris": {"android": "https://dc.lft.to/lastmile_qr_scan", "ios": "https://dc.lft.to/lastmile_qr_scan"}, "is_reserved": 0, "is_disabled": 0, "type": "electric_bike", "bike_id": "bcc1f6ec4dcde321aae697055640b596"}, {"lon": -76.96999966666667, "lat": 38.89765966666667, "name": "3afd2d05eb71c09faa3135ccdc46a9d9", "fusion_lat": 0.0, "fusion_lon": 0.0, "rental_uris": {"android": "https://dc.lft.to/lastmile_qr_scan", "ios": "https://dc.lft.to/lastmile_qr_scan"}, "is_reserved": 0, "is_disabled": 0, "type": "electric_scooter", "bike_id": "3afd2d05eb71c09faa3135ccdc46a9d9"}, {"lon": -77.0002665, "lat": 38.873917666666664, "name": "8b8157fdf6efb858c5c5c72586291b34", "fusion_lat": 0.0, "fusion_lon": 0.0, "rental_uris": {"android": "https://dc.lft.to/lastmile_qr_scan", "ios": "https://dc.lft.to/lastmile_qr_scan"}, "is_reserved": 0, "is_disabled": 0, "type": "electric_scooter", "bike_id": "8b8157fdf6efb858c5c5c72586291b34"}, {"lon": -76.9868395, "lat": 38.88206666666667, "name": "6b14b2ce4a8ce8cc3ab44470b3d4baef", "fusion_lat": 0.0, "fusion_lon": 0.0, "rental_uris": {"android": "https://dc.lft.to/lastmile_qr_scan", "ios": "https://dc.lft.to/lastmile_qr_scan"}, "is_reserved": 0, "is_disabled": 0, "type": "electric_scooter", "bike_id": "6b14b2ce4a8ce8cc3ab44470b3d4baef"}, {"lon": -77.05330716666667, "lat": 38.90502983333333, "name": "c8c88cde99a1b922cd2acddba28b29b3", "fusion_lat": 0.0, "fusion_lon": 0.0, "rental_uris": {"android": "https://dc.lft.to/lastmile_qr_scan", "ios": "https://dc.lft.to/lastmile_qr_scan"}, "is_reserved": 0, "is_disabled": 0, "type": "electric_scooter", "bike_id": "c8c88cde99a1b922cd2acddba28b29b3"}, {"lon": -77.0417365, "lat": 38.9160955, "name": "2a29fb7134b236fc4e88a38d7b4c9062", "fusion_lat": 0.0, "fusion_lon": 0.0, "rental_uris": {"android": "https://dc.lft.to/lastmile_qr_scan", "ios": "https://dc.lft.to/lastmile_qr_scan"}, "is_reserved": 0, "is_disabled": 0, "type": "electric_scooter", "bike_id": "2a29fb7134b236fc4e88a38d7b4c9062"}, {"lon": -77.03283733333333, "lat": 38.91026516666667, "name": "863ba21c1c96dac4ac14cb6239cb4e29", "fusion_lat": 0.0, "fusion_lon": 0.0, "rental_uris": {"android": "https://dc.lft.to/lastmile_qr_scan", "ios": "https://dc.lft.to/lastmile_qr_scan"}, "is_reserved": 0, "is_disabled": 0, "type": "electric_scooter", "bike_id": "863ba21c1c96dac4ac14cb6239cb4e29"}, {"lon": -77.02851366666667, "lat": 38.96502616666667, "name": "bbf3d2fbe065cddbb0db8dcae759a2fd", "fusion_lat": 0.0, "fusion_lon": 0.0, "rental_uris": {"android": "https://dc.lft.to/lastmile_qr_scan", "ios": "https://dc.lft.to/lastmile_qr_scan"}, "is_reserved": 0, "is_disabled": 0, "type": "electric_scooter", "bike_id": "bbf3d2fbe065cddbb0db8dcae759a2fd"}, {"lon": -77.01116866666666, "lat": 38.89518116666667, "name": "ac2825c5884ebfad26136e0a638fb9c5", "fusion_lat": 0.0, "fusion_lon": 0.0, "rental_uris": {"android": "https://dc.lft.to/lastmile_qr_scan", "ios": "https://dc.lft.to/lastmile_qr_scan"}, "is_reserved": 0, "is_disabled": 0, "type": "electric_scooter", "bike_id": "ac2825c5884ebfad26136e0a638fb9c5"}, {"lon": -77.03280666666667, "lat": 38.93991116666667, "name": "544c06bd2ecc464dd18aa8beec7c9d79", "fusion_lat": 0.0, "fusion_lon": 0.0, "rental_uris": {"android": "https://dc.lft.to/lastmile_qr_scan", "ios": "https://dc.lft.to/lastmile_qr_scan"}, "is_reserved": 0, "is_disabled": 0, "type": "electric_scooter", "bike_id": "544c06bd2ecc464dd18aa8beec7c9d79"}, {"lon": -77.04671416666666, "lat": 38.907379666666664, "name": "7ccc9b56570f387686481665f6d3c479", "fusion_lat": 0.0, "fusion_lon": 0.0, "rental_uris": {"android": "https://dc.lft.to/lastmile_qr_scan", "ios": "https://dc.lft.to/lastmile_qr_scan"}, "is_reserved": 0, "is_disabled": 0, "type": "electric_scooter", "bike_id": "7ccc9b56570f387686481665f6d3c479"}, {"lon": -76.97623666666667, "lat": 38.9057215, "name": "92ef1777e154509bf9cddc7aae28367c", "fusion_lat": 0.0, "fusion_lon": 0.0, "rental_uris": {"android": "https://dc.lft.to/lastmile_qr_scan", "ios": "https://dc.lft.to/lastmile_qr_scan"}, "is_reserved": 0, "is_disabled": 0, "type": "electric_scooter", "bike_id": "92ef1777e154509bf9cddc7aae28367c"}, {"lon": -77.02380733333334, "lat": 38.91149083333333, "name": "c2cc5fe14f8a2b25f7139dc5060c204c", "fusion_lat": 0.0, "fusion_lon": 0.0, "rental_uris": {"android": "https://dc.lft.to/lastmile_qr_scan", "ios": "https://dc.lft.to/lastmile_qr_scan"}, "is_reserved": 0, "is_disabled": 0, "type": "electric_scooter", "bike_id": "c2cc5fe14f8a2b25f7139dc5060c204c"}, {"lon": -77.02697133333334, "lat": 38.915991166666664, "name": "f3be7969e788c00749f226dbc7321c43", "fusion_lat": 0.0, "fusion_lon": 0.0, "rental_uris": {"android": "https://dc.lft.to/lastmile_qr_scan", "ios": "https://dc.lft.to/lastmile_qr_scan"}, "is_reserved": 0, "is_disabled": 0, "type": "electric_scooter", "bike_id": "f3be7969e788c00749f226dbc7321c43"}, {"lon": -77.04185283333334, "lat": 38.901116333333334, "name": "c29abdd092915ff50a84cb649ff93f45", "fusion_lat": 0.0, "fusion_lon": 0.0, "rental_uris": {"android": "https://dc.lft.to/lastmile_qr_scan", "ios": "https://dc.lft.to/lastmile_qr_scan"}, "is_reserved": 0, "is_disabled": 0, "type": "electric_scooter", "bike_id": "c29abdd092915ff50a84cb649ff93f45"}, {"lon": -77.02475916666667, "lat": 38.926543833333334, "name": "be20ed9168ee8be54c36d54fe459f494", "fusion_lat": 0.0, "fusion_lon": 0.0, "rental_uris": {"android": "https://dc.lft.to/lastmile_qr_scan", "ios": "https://dc.lft.to/lastmile_qr_scan"}, "is_reserved": 0, "is_disabled": 0, "type": "electric_scooter", "bike_id": "be20ed9168ee8be54c36d54fe459f494"}, {"lon": -76.94896983333334, "lat": 38.89527616666667, "name": "57aa24d5570c81b1ea75c35309b9a0cb", "fusion_lat": 0.0, "fusion_lon": 0.0, "rental_uris": {"android": "https://dc.lft.to/lastmile_qr_scan", "ios": "https://dc.lft.to/lastmile_qr_scan"}, "is_reserved": 0, "is_disabled": 0, "type": "electric_scooter", "bike_id": "57aa24d5570c81b1ea75c35309b9a0cb"}, {"lon": -77.0422995, "lat": 38.90125466666667, "name": "e11a3170372e11146020515aa02ddfa2", "fusion_lat": 0.0, "fusion_lon": 0.0, "rental_uris": {"android": "https://dc.lft.to/lastmile_qr_scan", "ios": "https://dc.lft.to/lastmile_qr_scan"}, "is_reserved": 0, "is_disabled": 0, "type": "electric_scooter", "bike_id": "e11a3170372e11146020515aa02ddfa2"}, {"lon": -77.03355, "lat": 38.88756683333333, "name": "4d1655bd034b391b6ec272f51bcbe5f6", "fusion_lat": 0.0, "fusion_lon": 0.0, "rental_uris": {"android": "https://dc.lft.to/lastmile_qr_scan", "ios": "https://dc.lft.to/lastmile_qr_scan"}, "is_reserved": 0, "is_disabled": 0, "type": "electric_scooter", "bike_id": "4d1655bd034b391b6ec272f51bcbe5f6"}, {"lon": -77.03197933333334, "lat": 38.893669833333334, "name": "15b158581519956ee1900a6226a8d2a1", "fusion_lat": 0.0, "fusion_lon": 0.0, "rental_uris": {"android": "https://dc.lft.to/lastmile_qr_scan", "ios": "https://dc.lft.to/lastmile_qr_scan"}, "is_reserved": 0, "is_disabled": 0, "type": "electric_scooter", "bike_id": "15b158581519956ee1900a6226a8d2a1"}, {"lon": -77.04507833333334, "lat": 38.907800333333334, "name": "cb91e854033d6e2c137ad178cd2b1e99", "fusion_lat": 0.0, "fusion_lon": 0.0, "rental_uris": {"android": "https://dc.lft.to/lastmile_qr_scan", "ios": "https://dc.lft.to/lastmile_qr_scan"}, "is_reserved": 0, "is_disabled": 0, "type": "electric_scooter", "bike_id": "cb91e854033d6e2c137ad178cd2b1e99"}, {"lon": -77.0295645, "lat": 38.893096, "name": "521d3f5611c37c4c322013b5704b7bb0", "fusion_lat": 0.0, "fusion_lon": 0.0, "rental_uris": {"android": "https://dc.lft.to/lastmile_qr_scan", "ios": "https://dc.lft.to/lastmile_qr_scan"}, "is_reserved": 0, "is_disabled": 0, "type": "electric_scooter", "bike_id": "521d3f5611c37c4c322013b5704b7bb0"}, {"lon": -77.02371733333334, "lat": 38.919042, "name": "87a0389716c51efe597606387b1e2f30", "fusion_lat": 0.0, "fusion_lon": 0.0, "rental_uris": {"android": "https://dc.lft.to/lastmile_qr_scan", "ios": "https://dc.lft.to/lastmile_qr_scan"}, "is_reserved": 0, "is_disabled": 0, "type": "electric_scooter", "bike_id": "87a0389716c51efe597606387b1e2f30"}, {"lon": -77.02183366666667, "lat": 38.89247533333333, "name": "040a05d7e685e844a95d39802cd2fbfc", "fusion_lat": 0.0, "fusion_lon": 0.0, "rental_uris": {"android": "https://dc.lft.to/lastmile_qr_scan", "ios": "https://dc.lft.to/lastmile_qr_scan"}, "is_reserved": 0, "is_disabled": 0, "type": "electric_scooter", "bike_id": "040a05d7e685e844a95d39802cd2fbfc"}, {"lon": -77.02176883333334, "lat": 38.909768666666665, "name": "5a2c87a9d41f890d2cda3e9221ed85e1", "fusion_lat": 0.0, "fusion_lon": 0.0, "rental_uris": {"android": "https://dc.lft.to/lastmile_qr_scan", "ios": "https://dc.lft.to/lastmile_qr_scan"}, "is_reserved": 0, "is_disabled": 0, "type": "electric_scooter", "bike_id": "5a2c87a9d41f890d2cda3e9221ed85e1"}, {"lon": -76.92401416666667, "lat": 38.889868666666665, "name": "770493cab3a4b2aeda516f0429fe2899", "fusion_lat": 0.0, "fusion_lon": 0.0, "rental_uris": {"android": "https://dc.lft.to/lastmile_qr_scan", "ios": "https://dc.lft.to/lastmile_qr_scan"}, "is_reserved": 0, "is_disabled": 0, "type": "electric_scooter", "bike_id": "770493cab3a4b2aeda516f0429fe2899"}, {"lon": -76.99167483333333, "lat": 38.879162, "name": "940c7d021efc799fdaf218cf89ab28c1", "fusion_lat": 0.0, "fusion_lon": 0.0, "rental_uris": {"android": "https://dc.lft.to/lastmile_qr_scan", "ios": "https://dc.lft.to/lastmile_qr_scan"},