{"data": {"bikes": [{"is_disabled": 0, "fusion_lon": 0.0, "fusion_lat": 0.0, "lat": 38.91036616666667, "type": "electric_scooter", "lon": -77.04059, "bike_id": "ae493ad0c74a6d4e58784571941f50eb", "rental_uris": {"android": "https://dc.lft.to/lastmile_qr_scan", "ios": "https://dc.lft.to/lastmile_qr_scan"}, "name": "ae493ad0c74a6d4e58784571941f50eb", "is_reserved": 0}, {"is_disabled": 0, "fusion_lon": 0.0, "fusion_lat": 0.0, "lat": 38.900258666666666, "type": "electric_scooter", "lon": -76.99827866666666, "bike_id": "dd780f65db2cbe2a85dce3d26373e164", "rental_uris": {"android": "https://dc.lft.to/lastmile_qr_scan", "ios": "https://dc.lft.to/lastmile_qr_scan"}, "name": "dd780f65db2cbe2a85dce3d26373e164", "is_reserved": 0}, {"is_disabled": 0, "fusion_lon": 0.0, "fusion_lat": 0.0, "lat": 38.89876483333333, "type": "electric_scooter", "lon": -76.93185366666667, "bike_id": "ccd2f9670796c86ed12d7c99375beb3d", "rental_uris": {"android": "https://dc.lft.to/lastmile_qr_scan", "ios": "https://dc.lft.to/lastmile_qr_scan"}, "name": "ccd2f9670796c86ed12d7c99375beb3d", "is_reserved": 0}, {"is_disabled": 0, "fusion_lon": 0.0, "fusion_lat": 0.0, "lat": 38.9050245, "type": "electric_scooter", "lon": -76.9885235, "bike_id": "5a6257360b72fc60a047ca81e4157c4d", "rental_uris": {"android": "https://dc.lft.to/lastmile_qr_scan", "ios": "https://dc.lft.to/lastmile_qr_scan"}, "name": "5a6257360b72fc60a047ca81e4157c4d", "is_reserved": 0}, {"is_disabled": 0, "fusion_lon": 0.0, "fusion_lat": 0.0, "lat": 38.926201166666665, "type": "electric_scooter", "lon": -77.0569915, "bike_id": "c91cb16250327d23ccae92fdedecab59", "rental_uris": {"android": "https://dc.lft.to/lastmile_qr_scan", "ios": "https://dc.lft.to/lastmile_qr_scan"}, "name": "c91cb16250327d23ccae92fdedecab59", "is_reserved": 0}, {"is_disabled": 0, "fusion_lon": 0.0, "fusion_lat": 0.0, "lat": 38.887345, "type": "electric_scooter", "lon": -77.0282765, "bike_id": "1322f18bda2a423f6d14cb5129c9e600", "rental_uris": {"android": "https://dc.lft.to/lastmile_qr_scan", "ios": "https://dc.lft.to/lastmile_qr_scan"}, "name": "1322f18bda2a423f6d14cb5129c9e600", "is_reserved": 0}, {"is_disabled": 0, "fusion_lon": 0.0, "fusion_lat": 0.0, "lat": 38.936093, "type": "electric_scooter", "lon": -77.058617, "bike_id": "6e5167d57cf388a92b6cd612ac431ade", "rental_uris": {"android": "https://dc.lft.to/lastmile_qr_scan", "ios": "https://dc.lft.to/lastmile_qr_scan"}, "name": "6e5167d57cf388a92b6cd612ac431ade", "is_reserved": 0}, {"is_disabled": 0, "fusion_lon": 0.0, "fusion_lat": 0.0, "lat": 38.959621166666665, "type": "electric_bike", "lon": -76.98166666666667, "bike_id": "e63d7cb22ef01a7b68015565dc1ac504", "rental_uris": {"android": "https://dc.lft.to/lastmile_qr_scan", "ios": "https://dc.lft.to/lastmile_qr_scan"}, "name": "e63d7cb22ef01a7b68015565dc1ac504", "is_reserved": 0}, {"is_disabled": 0, "fusion_lon": 0.0, "fusion_lat": 0.0, "lat": 38.88766483333333, "type": "electric_scooter", "lon": -76.9567405, "bike_id": "daa92fbb9ccca7ec8a02bbe6f98252eb", "rental_uris": {"android": "https://dc.lft.to/lastmile_qr_scan", "ios": "https://dc.lft.to/lastmile_qr_scan"}, "name": "daa92fbb9ccca7ec8a02bbe6f98252eb", "is_reserved": 0}, {"is_disabled": 0, "fusion_lon": 0.0, "fusion_lat": 0.0, "lat": 38.90419333333333, "type": "electric_scooter", "lon": -76.98513633333333, "bike_id": "cfe010fffa578ffceef345414a709298", "rental_uris": {"android": "https://dc.lft.to/lastmile_qr_scan", "ios": "https://dc.lft.to/lastmile_qr_scan"}, "name": "cfe010fffa578ffceef345414a709298", "is_reserved": 0}, {"is_disabled": 0, "fusion_lon": 0.0, "fusion_lat": 0.0, "lat": 38.82599666666667, "type": "electric_bike", "lon": -77.00747516666667, "bike_id": "ff44e6031c67452d0708369b3060e9b7", "rental_uris": {"android": "https://dc.lft.to/lastmile_qr_scan", "ios": "https://dc.lft.to/lastmile_qr_scan"}, "name": "ff44e6031c67452d0708369b3060e9b7", "is_reserved": 0}, {"is_disabled": 0, "fusion_lon": 0.0, "fusion_lat": 0.0, "lat": 38.93324833333333, "type": "electric_scooter", "lon": -77.02929866666666, "bike_id": "f93d1827e2484b6a462f765cf5b4673a", "rental_uris": {"android": "https://dc.lft.to/lastmile_qr_scan", "ios": "https://dc.lft.to/lastmile_qr_scan"}, "name": "f93d1827e2484b6a462f765cf5b4673a", "is_reserved": 0}, {"is_disabled": 0, "fusion_lon": 0.0, "fusion_lat": 0.0, "lat": 38.92198, "type": "electric_scooter", "lon": -76.9970235, "bike_id": "37cc5ab7aba369930124908c940a2737", "rental_uris": {"android": "https://dc.lft.to/lastmile_qr_scan", "ios": "https://dc.lft.to/lastmile_qr_scan"}, "name": "37cc5ab7aba369930124908c940a2737", "is_reserved": 0}, {"is_disabled": 0, "fusion_lon": 0.0, "fusion_lat": 0.0, "lat": 38.904162166666666, "type": "electric_scooter", "lon": -76.99062033333334, "bike_id": "31bb6bee4732f122db9f45457d67c57f", "rental_uris": {"android": "https://dc.lft.to/lastmile_qr_scan", "ios": "https://dc.lft.to/lastmile_qr_scan"}, "name": "31bb6bee4732f122db9f45457d67c57f", "is_reserved": 0}, {"is_disabled": 0, "fusion_lon": 0.0, "fusion_lat": 0.0, "lat": 39.000027333333335, "type": "electric_bike", "lon": -76.9180255, "bike_id": "6f74745aa654c0ce3263c9e3e8d16b8a", "rental_uris": {"android": "https://dc.lft.to/lastmile_qr_scan", "ios": "https://dc.lft.to/lastmile_qr_scan"}, "name": "6f74745aa654c0ce3263c9e3e8d16b8a", "is_reserved": 0}, {"is_disabled": 0, "fusion_lon": 0.0, "fusion_lat": 0.0, "lat": 38.90544333333333, "type": "electric_scooter", "lon": -77.04903066666667, "bike_id": "9c8f7c94d94812c6d3e49bb9a4ee08ad", "rental_uris": {"android": "https://dc.lft.to/lastmile_qr_scan", "ios": "https://dc.lft.to/lastmile_qr_scan"}, "name": "9c8f7c94d94812c6d3e49bb9a4ee08ad", "is_reserved": 0}, {"is_disabled": 0, "fusion_lon": 0.0, "fusion_lat": 0.0, "lat": 38.9111795, "type": "electric_scooter", "lon": -77.02235316666666, "bike_id": "a3e3a3966e056146bd5d51b9bef1a43f", "rental_uris": {"android": "https://dc.lft.to/lastmile_qr_scan", "ios": "https://dc.lft.to/lastmile_qr_scan"}, "name": "a3e3a3966e056146bd5d51b9bef1a43f", "is_reserved": 0}, {"is_disabled": 0, "fusion_lon": 0.0, "fusion_lat": 0.0, "lat": 38.90573233333333, "type": "electric_scooter", "lon": -77.021759, "bike_id": "b4003dcdefeee6a64a41cfb09df4bf19", "rental_uris": {"android": "https://dc.lft.to/lastmile_qr_scan", "ios": "https://dc.lft.to/lastmile_qr_scan"}, "name": "b4003dcdefeee6a64a41cfb09df4bf19", "is_reserved": 0}, {"is_disabled": 0, "fusion_lon": 0.0, "fusion_lat": 0.0, "lat": 38.90472033333333, "type": "electric_scooter", "lon": -77.04845666666667, "bike_id": "a6260311a85919fe32d7767c4f301675", "rental_uris": {"android": "https://dc.lft.to/lastmile_qr_scan", "ios": "https://dc.lft.to/lastmile_qr_scan"}, "name": "a6260311a85919fe32d7767c4f301675", "is_reserved": 0}, {"is_disabled": 0, "fusion_lon": 0.0, "fusion_lat": 0.0, "lat": 38.94981116666666, "type": "electric_scooter", "lon": -77.06761816666666, "bike_id": "a1cff1d0dd45390cd5903269b90314e5", "rental_uris": {"android": "https://dc.lft.to/lastmile_qr_scan", "ios": "https://dc.lft.to/lastmile_qr_scan"}, "name": "a1cff1d0dd45390cd5903269b90314e5", "is_reserved": 0}, {"is_disabled": 0, "fusion_lon": 0.0, "fusion_lat": 0.0, "lat": 38.94196566666667, "type": "electric_scooter", "lon": -77.02576833333333, "bike_id": "508dea713b7f6ca6fc7a414773a5509e", "rental_uris": {"android": "https://dc.lft.to/lastmile_qr_scan", "ios": "https://dc.lft.to/lastmile_qr_scan"}, "name": "508dea713b7f6ca6fc7a414773a5509e", "is_reserved": 0}, {"is_disabled": 0, "fusion_lon": 0.0, "fusion_lat": 0.0, "lat": 38.920765833333334, "type": "electric_scooter", "lon": -77.031776, "bike_id": "a6c69a56f86911a7091db84baedd24a0", "rental_uris": {"android": "https://dc.lft.to/lastmile_qr_scan", "ios": "https://dc.lft.to/lastmile_qr_scan"}, "name": "a6c69a56f86911a7091db84baedd24a0", "is_reserved": 0}, {"is_disabled": 0, "fusion_lon": 0.0, "fusion_lat": 0.0, "lat": 38.901476833333334, "type": "electric_scooter", "lon": -77.03982366666666, "bike_id": "eee85e0e903efb0d220553776ceb416f", "rental_uris": {"android": "https://dc.lft.to/lastmile_qr_scan", "ios": "https://dc.lft.to/lastmile_qr_scan"}, "name": "eee85e0e903efb0d220553776ceb416f", "is_reserved": 0}, {"is_disabled": 0, "fusion_lon": 0.0, "fusion_lat": 0.0, "lat": 38.893597666666665, "type": "electric_scooter", "lon": -76.98474066666667, "bike_id": "9032b7a83ce2b5c520f9425a373fc42f", "rental_uris": {"android": "https://dc.lft.to/lastmile_qr_scan", "ios": "https://dc.lft.to/lastmile_qr_scan"}, "name": "9032b7a83ce2b5c520f9425a373fc42f", "is_reserved": 0}, {"is_disabled": 0, "fusion_lon": 0.0, "fusion_lat": 0.0, "lat": 38.90015116666667, "type": "electric_scooter", "lon": -77.00218066666666, "bike_id": "52a920ee59fb3b747e2a58848547050a", "rental_uris": {"android": "https://dc.lft.to/lastmile_qr_scan", "ios": "https://dc.lft.to/lastmile_qr_scan"}, "name": "52a920ee59fb3b747e2a58848547050a", "is_reserved": 0}, {"is_disabled": 0, "fusion_lon": 0.0, "fusion_lat": 0.0, "lat": 38.91417666666667, "type": "electric_scooter", "lon": -77.03997883333334, "bike_id": "005c0129f38b1061610722e333a2615c", "rental_uris": {"android": "https://dc.lft.to/lastmile_qr_scan", "ios": "https://dc.lft.to/lastmile_qr_scan"}, "name": "005c0129f38b1061610722e333a2615c", "is_reserved": 0}, {"is_disabled": 0, "fusion_lon": 0.0, "fusion_lat": 0.0, "lat": 38.88740383333333, "type": "electric_scooter", "lon": -77.01533016666667, "bike_id": "359eb0571dffe4a816065e14a54772ca", "rental_uris": {"android": "https://dc.lft.to/lastmile_qr_scan", "ios": "https://dc.lft.to/lastmile_qr_scan"}, "name": "359eb0571dffe4a816065e14a54772ca", "is_reserved": 0}, {"is_disabled": 0, "fusion_lon": 0.0, "fusion_lat": 0.0, "lat": 38.904990833333336, "type": "electric_scooter", "lon": -77.03432583333333, "bike_id": "a424410d50ec8f96314b89464286709e", "rental_uris": {"android": "https://dc.lft.to/lastmile_qr_scan", "ios": "https://dc.lft.to/lastmile_qr_scan"}, "name": "a424410d50ec8f96314b89464286709e", "is_reserved": 0}, {"is_disabled": 0, "fusion_lon": 0.0, "fusion_lat": 0.0, "lat": 38.883353666666665, "type": "electric_scooter", "lon": -77.01632533333333, "bike_id": "29c8314e53cfdd725a0e10364b01ea46", "rental_uris": {"android": "https://dc.lft.to/lastmile_qr_scan", "ios": "https://dc.lft.to/lastmile_qr_scan"}, "name": "29c8314e53cfdd725a0e10364b01ea46", "is_reserved": 0}, {"is_disabled": 0, "fusion_lon": 0.0, "fusion_lat": 0.0, "lat": 38.92487216666667, "type": "electric_scooter", "lon": -77.02816483333334, "bike_id": "ae2814b04f01184bdf79c928e0c81290", "rental_uris": {"android": "https://dc.lft.to/lastmile_qr_scan", "ios": "https://dc.lft.to/lastmile_qr_scan"}, "name": "ae2814b04f01184bdf79c928e0c81290", "is_reserved": 0}, {"is_disabled": 0, "fusion_lon": 0.0, "fusion_lat": 0.0, "lat": 38.90161783333333, "type": "electric_scooter", "lon": -77.02582083333333, "bike_id": "561a0361240d12d590d431e26f8e963c", "rental_uris": {"android": "https://dc.lft.to/lastmile_qr_scan", "ios": "https://dc.lft.to/lastmile_qr_scan"}, "name": "561a0361240d12d590d431e26f8e963c", "is_reserved": 0}, {"is_disabled": 0, "fusion_lon": 0.0, "fusion_lat": 0.0, "lat": 38.89221933333334, "type": "electric_scooter", "lon": -77.03185716666667, "bike_id": "b10d8b8b9accfc746235b718e44c58ee", "rental_uris": {"android": "https://dc.lft.to/lastmile_qr_scan", "ios": "https://dc.lft.to/lastmile_qr_scan"}, "name": "b10d8b8b9accfc746235b718e44c58ee", "is_reserved": 0}, {"is_disabled": 0, "fusion_lon": 0.0, "fusion_lat": 0.0, "lat": 38.90964316666667, "type": "electric_scooter", "lon": -77.0217705, "bike_id": "57c3a6e8969b39fad66342387b8e789b", "rental_uris": {"android": "https://dc.lft.to/lastmile_qr_scan", "ios": "https://dc.lft.to/lastmile_qr_scan"}, "name": "57c3a6e8969b39fad66342387b8e789b", "is_reserved": 0}, {"is_disabled": 0, "fusion_lon": 0.0, "fusion_lat": 0.0, "lat": 38.8793935, "type": "electric_bike", "lon": -77.014675, "bike_id": "90977d91465197598c03de85ee9fcebf", "rental_uris": {"android": "https://dc.lft.to/lastmile_qr_scan", "ios": "https://dc.lft.to/lastmile_qr_scan"}, "name": "90977d91465197598c03de85ee9fcebf", "is_reserved": 0}, {"is_disabled": 0, "fusion_lon": 0.0, "fusion_lat": 0.0, "lat": 38.91792783333333, "type": "electric_scooter", "lon": -77.03173616666666, "bike_id": "bb873b9766d90897557009e166e13bb1", "rental_uris": {"android": "https://dc.lft.to/lastmile_qr_scan", "ios": "https://dc.lft.to/lastmile_qr_scan"}, "name": "bb873b9766d90897557009e166e13bb1", "is_reserved": 0}, {"is_disabled": 0, "fusion_lon": 0.0, "fusion_lat": 0.0, "lat": 38.9151755, "type": "electric_scooter", "lon": -77.01981666666667, "bike_id": "0ac5ebd762798828f7bbd418ecc8ec58", "rental_uris": {"android": "https://dc.lft.to/lastmile_qr_scan", "ios": "https://dc.lft.to/lastmile_qr_scan"}, "name": "0ac5ebd762798828f7bbd418ecc8ec58", "is_reserved": 0}, {"is_disabled": 0, "fusion_lon": 0.0, "fusion_lat": 0.0, "lat": 38.9282365, "type": "electric_scooter", "lon": -77.036351, "bike_id": "02f840fa2aaa0ab6308a426652171f65", "rental_uris": {"android": "https://dc.lft.to/lastmile_qr_scan", "ios": "https://dc.lft.to/lastmile_qr_scan"}, "name": "02f840fa2aaa0ab6308a426652171f65", "is_reserved": 0}, {"is_disabled": 0, "fusion_lon": 0.0, "fusion_lat": 0.0, "lat": 38.91996483333333, "type": "electric_scooter", "lon": -77.0327535, "bike_id": "bf004685082ddda62b3fae65a971f2b6", "rental_uris": {"android": "https://dc.lft.to/lastmile_qr_scan", "ios": "https://dc.lft.to/lastmile_qr_scan"}, "name": "bf004685082ddda62b3fae65a971f2b6", "is_reserved": 0}, {"is_disabled": 0, "fusion_lon": 0.0, "fusion_lat": 0.0, "lat": 38.93300166666667, "type": "electric_scooter", "lon": -77.024514, "bike_id": "620e75541804c5e27b3cca9d9ba33fe6", "rental_uris": {"android": "https://dc.lft.to/lastmile_qr_scan", "ios": "https://dc.lft.to/lastmile_qr_scan"}, "name": "620e75541804c5e27b3cca9d9ba33fe6", "is_reserved": 0}, {"is_disabled": 0, "fusion_lon": 0.0, "fusion_lat": 0.0, "lat": 38.910526, "type": "electric_scooter", "lon": -77.0433575, "bike_id": "ca0bda3b414a0b8f015d6b02ceda0ceb", "rental_uris": {"android": "https://dc.lft.to/lastmile_qr_scan", "ios": "https://dc.lft.to/lastmile_qr_scan"}, "name": "ca0bda3b414a0b8f015d6b02ceda0ceb", "is_reserved": 0}, {"is_disabled": 0, "fusion_lon": 0.0, "fusion_lat": 0.0, "lat": 38.9054555, "type": "electric_scooter", "lon": -77.007016, "bike_id": "aae2c96fb458a02719d4c1f404691784", "rental_uris": {"android": "https://dc.lft.to/lastmile_qr_scan", "ios": "https://dc.lft.to/lastmile_qr_scan"}, "name": "aae2c96fb458a02719d4c1f404691784", "is_reserved": 0}, {"is_disabled": 0, "fusion_lon": 0.0, "fusion_lat": 0.0, "lat": 38.91427566666667, "type": "electric_scooter", "lon": -77.03202266666666, "bike_id": "2a2b7c2ad9d79c1770307ef425bca27a", "rental_uris": {"android": "https://dc.lft.to/lastmile_qr_scan", "ios": "https://dc.lft.to/lastmile_qr_scan"}, "name": "2a2b7c2ad9d79c1770307ef425bca27a", "is_reserved": 0}, {"is_disabled": 0, "fusion_lon": 0.0, "fusion_lat": 0.0, "lat": 38.89968566666667, "type": "electric_scooter", "lon": -76.9398215, "bike_id": "01377872f6692d8cc64fd5e417d9e2ff", "rental_uris": {"android": "https://dc.lft.to/lastmile_qr_scan", "ios": "https://dc.lft.to/lastmile_qr_scan"}, "name": "01377872f6692d8cc64fd5e417d9e2ff", "is_reserved": 0}, {"is_disabled": 0, "fusion_lon": 0.0, "fusion_lat": 0.0, "lat": 38.892215666666665, "type": "electric_scooter", "lon": -77.0226225, "bike_id": "330a98266137a5f691d73e085ec5301c", "rental_uris": {"android": "https://dc.lft.to/lastmile_qr_scan", "ios": "https://dc.lft.to/lastmile_qr_scan"}, "name": "330a98266137a5f691d73e085ec5301c", "is_reserved": 0}, {"is_disabled": 0, "fusion_lon": 0.0, "fusion_lat": 0.0, "lat": 38.915937166666666, "type": "electric_scooter", "lon": -77.02289416666666, "bike_id": "67c4d1bc1b3cdc899146dba8437b192e", "rental_uris": {"android": "https://dc.lft.to/lastmile_qr_scan", "ios": "https://dc.lft.to/lastmile_qr_scan"}, "name": "67c4d1bc1b3cdc899146dba8437b192e", "is_reserved": 0}, {"is_disabled": 0, "fusion_lon": 0.0, "fusion_lat": 0.0, "lat": 38.863628166666665, "type": "electric_scooter", "lon": -76.99062266666667, "bike_id": "a516fa0b86baa223dd1daed45287f9ca", "rental_uris": {"android": "https://dc.lft.to/lastmile_qr_scan", "ios": "https://dc.lft.to/lastmile_qr_scan"}, "name": "a516fa0b86baa223dd1daed45287f9ca", "is_reserved": 0}, {"is_disabled": 0, "fusion_lon": 0.0, "fusion_lat": 0.0, "lat": 38.827826, "type": "electric_bike", "lon": -77.110813, "bike_id": "eb41d6de507dbf91931b1c6dea770f8b", "rental_uris": {"android": "https://dc.lft.to/lastmile_qr_scan", "ios": "https://dc.lft.to/lastmile_qr_scan"}, "name": "eb41d6de507dbf91931b1c6dea770f8b", "is_reserved": 0}, {"is_disabled": 0, "fusion_lon": 0.0, "fusion_lat": 0.0, "lat": 38.9227345, "type": "electric_scooter", "lon": -77.04238516666666, "bike_id": "0c2a98a322f8b5e7498bc236d838a12c", "rental_uris": {"android": "https://dc.lft.to/lastmile_qr_scan", "ios": "https://dc.lft.to/lastmile_qr_scan"}, "name": "0c2a98a322f8b5e7498bc236d838a12c", "is_reserved": 0}, {"is_disabled": 0, "fusion_lon": 0.0, "fusion_lat": 0.0, "lat": 38.92159683333333, "type": "electric_scooter", "lon": -77.034407, "bike_id": "85614bffb3c2d19dba946f79c4db0ab6", "rental_uris": {"android": "https://dc.lft.to/lastmile_qr_scan", "ios": "https://dc.lft.to/lastmile_qr_scan"}, "name": "85614bffb3c2d19dba946f79c4db0ab6", "is_reserved": 0}, {"is_disabled": 0, "fusion_lon": 0.0, "fusion_lat": 0.0, "lat": 38.824463333333334, "type": "electric_bike", "lon": -77.07045683333334, "bike_id": "5ccd8bbed5ebd0040d18d82386e2094f", "rental_uris": {"android": "https://dc.lft.to/lastmile_qr_scan", "ios": "https://dc.lft.to/lastmile_qr_scan"}, "name": "5ccd8bbed5ebd0040d18d82386e2094f", "is_reserved": 0}, {"is_disabled": 0, "fusion_lon": 0.0, "fusion_lat": 0.0, "lat": 38.905239, "type": "electric_scooter", "lon": -77.06780616666667, "bike_id": "33037f64ba7bb3c0f8ea80036f2b3f0d", "rental_uris": {"android": "https://dc.lft.to/lastmile_qr_scan", "ios": "https://dc.lft.to/lastmile_qr_scan"}, "name": "33037f64ba7bb3c0f8ea80036f2b3f0d", "is_reserved": 0}, {"is_disabled": 0, "fusion_lon": 0.0, "fusion_lat": 0.0, "lat": 38.9228365, "type": "electric_scooter", "lon": -77.04460133333333, "bike_id": "cff517f94368e705f796346c4767289b", "rental_uris": {"android": "https://dc.lft.to/lastmile_qr_scan", "ios": "https://dc.lft.to/lastmile_qr_scan"}, "name": "cff517f94368e705f796346c4767289b", "is_reserved": 0}, {"is_disabled": 0, "fusion_lon": 0.0, "fusion_lat": 0.0, "lat": 38.90554133333333, "type": "electric_scooter", "lon": -77.00621266666667, "bike_id": "3db71d41608c2f2d9a6013c102517f8c", "rental_uris": {"android": "https://dc.lft.to/lastmile_qr_scan", "ios": "https://dc.lft.to/lastmile_qr_scan"}, "name": "3db71d41608c2f2d9a6013c102517f8c", "is_reserved": 0}, {"is_disabled": 0, "fusion_lon": 0.0, "fusion_lat": 0.0, "lat": 38.865361166666666, "type": "electric_bike", "lon": -77.1281795, "bike_id": "68c996cac2f39672e86bc246445aea63", "rental_uris": {"android": "https://dc.lft.to/lastmile_qr_scan", "ios": "https://dc.lft.to/lastmile_qr_scan"}, "name": "68c996cac2f39672e86bc246445aea63", "is_reserved": 0}, {"is_disabled": 0, "fusion_lon": 0.0, "fusion_lat": 0.0, "lat": 38.92054016666667, "type": "electric_scooter", "lon": -77.03282183333333, "bike_id": "eab5ffa225dd576de799697b9723a7a7", "rental_uris": {"android": "https://dc.lft.to/lastmile_qr_scan", "ios": "https://dc.lft.to/lastmile_qr_scan"}, "name": "eab5ffa225dd576de799697b9723a7a7", "is_reserved": 0}, {"is_disabled": 0, "fusion_lon": 0.0, "fusion_lat": 0.0, "lat": 38.920928, "type": "electric_scooter", "lon": -77.02588616666667, "bike_id": "946656f3d7f501f623c8bf59d3b6b2fc", "rental_uris": {"android": "https://dc.lft.to/lastmile_qr_scan", "ios": "https://dc.lft.to/lastmile_qr_scan"}, "name": "946656f3d7f501f623c8bf59d3b6b2fc", "is_reserved": 0}, {"is_disabled": 0, "fusion_lon": 0.0, "fusion_lat": 0.0, "lat": 38.90844416666667, "type": "electric_scooter", "lon": -77.03449083333334, "bike_id": "c9830dd4a8ca319f6c47c2ecbbd7c708", "rental_uris": {"android": "https://dc.lft.to/lastmile_qr_scan", "ios": "https://dc.lft.to/lastmile_qr_scan"}, "name": "c9830dd4a8ca319f6c47c2ecbbd7c708", "is_reserved": 0}, {"is_disabled": 0, "fusion_lon": 0.0, "fusion_lat": 0.0, "lat": 38.89579533333333, "type": "electric_bike", "lon": -76.97616533333333, "bike_id": "129e59e6cd4073454896322c2d93c6ce", "rental_uris": {"android": "https://dc.lft.to/lastmile_qr_scan", "ios": "https://dc.lft.to/lastmile_qr_scan"}, "name": "129e59e6cd4073454896322c2d93c6ce", "is_reserved": 0}, {"is_disabled": 0, "fusion_lon": 0.0, "fusion_lat": 0.0, "lat": 38.91987266666667, "type": "electric_scooter", "lon": -77.041597, "bike_id": "5fa6b9a90f9c4d599b349b67860eaf48", "rental_uris": {"android": "https://dc.lft.to/lastmile_qr_scan", "ios": "https://dc.lft.to/lastmile_qr_scan"}, "name": "5fa6b9a90f9c4d599b349b67860eaf48", "is_reserved": 0}, {"is_disabled": 0, "fusion_lon": 0.0, "fusion_lat": 0.0, "lat": 38.906826833333334, "type": "electric_scooter", "lon": -77.03773033333333, "bike_id": "f366dfcb515dd89b44c2c9e7b69aabe1", "rental_uris": {"android": "https://dc.lft.to/lastmile_qr_scan", "ios": "https://dc.lft.to/lastmile_qr_scan"}, "name": "f366dfcb515dd89b44c2c9e7b69aabe1", "is_reserved": 0}, {"is_disabled": 0, "fusion_lon": 0.0, "fusion_lat": 0.0, "lat": 38.884519166666664, "type": "electric_scooter", "lon": -76.950975, "bike_id": "66af5163e2703e2ba1ed7f10e8ffe497", "rental_uris": {"android": "https://dc.lft.to/lastmile_qr_scan", "ios": "https://dc.lft.to/lastmile_qr_scan"}, "name": "66af5163e2703e2ba1ed7f10e8ffe497", "is_reserved": 0}, {"is_disabled": 0, "fusion_lon": 0.0, "fusion_lat": 0.0, "lat": 38.87707916666667, "type": "electric_scooter", "lon": -77.01760883333333, "bike_id": "bb8c3d660b4e76fa360d7a9c3d49828a", "rental_uris": {"android": "https://dc.lft.to/lastmile_qr_scan", "ios": "https://dc.lft.to/lastmile_qr_scan"}, "name": "bb8c3d660b4e76fa360d7a9c3d49828a", "is_reserved": 0}, {"is_disabled": 0, "fusion_lon": 0.0, "fusion_lat": 0.0, "lat": 38.90853833333333, "type": "electric_scooter", "lon": -77.04363783333334, "bike_id": "3ca714d034e60c9297bc7274f47af95e", "rental_uris": {"android": "https://dc.lft.to/lastmile_qr_scan", "ios": "https://dc.lft.to/lastmile_qr_scan"}, "name": "3ca714d034e60c9297bc7274f47af95e", "is_reserved": 0}, {"is_disabled": 0, "fusion_lon": 0.0, "fusion_lat": 0.0, "lat": 38.90072383333333, "type": "electric_scooter", "lon": -77.04783233333333, "bike_id": "bfe60ddc28cccc49c0a293cbb3ecf6a2", "rental_uris": {"android": "https://dc.lft.to/lastmile_qr_scan", "ios": "https://dc.lft.to/lastmile_qr_scan"}, "name": "bfe60ddc28cccc49c0a293cbb3ecf6a2", "is_reserved": 0}, {"is_disabled": 0, "fusion_lon": 0.0, "fusion_lat": 0.0, "lat": 38.934144333333336, "type": "electric_scooter", "lon": -77.04266266666667, "bike_id": "b13ccc445c2846e5eb389e35957972fe", "rental_uris": {"android": "https://dc.lft.to/lastmile_qr_scan", "ios": "https://dc.lft.to/lastmile_qr_scan"}, "name": "b13ccc445c2846e5eb389e35957972fe", "is_reserved": 0}, {"is_disabled": 0, "fusion_lon": 0.0, "fusion_lat": 0.0, "lat": 38.92350283333333, "type": "electric_scooter", "lon": -77.0390255, "bike_id": "585797503369d705a09df6f448e742f8", "rental_uris": {"android": "https://dc.lft.to/lastmile_qr_scan", "ios": "https://dc.lft.to/lastmile_qr_scan"}, "name": "585797503369d705a09df6f448e742f8", "is_reserved": 0}, {"is_disabled": 0, "fusion_lon": 0.0, "fusion_lat": 0.0, "lat": 38.93566083333333, "type": "electric_scooter", "lon": -77.0249635, "bike_id": "5321b3a37b46d9f5697a83fa15787c6b", "rental_uris": {"android": "https://dc.lft.to/lastmile_qr_scan", "ios": "https://dc.lft.to/lastmile_qr_scan"}, "name": "5321b3a37b46d9f5697a83fa15787c6b", "is_reserved": 0}, {"is_disabled": 0, "fusion_lon": 0.0, "fusion_lat": 0.0, "lat": 38.90043816666667, "type": "electric_scooter", "lon": -77.00184666666667, "bike_id": "b5f74160fb298cac1c9e6429bbdf8200", "rental_uris": {"android": "https://dc.lft.to/lastmile_qr_scan", "ios": "https://dc.lft.to/lastmile_qr_scan"}, "name": "b5f74160fb298cac1c9e6429bbdf8200", "is_reserved": 0}, {"is_disabled": 0, "fusion_lon": 0.0, "fusion_lat": 0.0, "lat": 38.90690716666667, "type": "electric_bike", "lon": -76.95190333333333, "bike_id": "2363d1e61189a32884377e1d3f9015fc", "rental_uris": {"android": "https://dc.lft.to/lastmile_qr_scan", "ios": "https://dc.lft.to/lastmile_qr_scan"}, "name": "2363d1e61189a32884377e1d3f9015fc", "is_reserved": 0}, {"is_disabled": 0, "fusion_lon": 0.0, "fusion_lat": 0.0, "lat": 38.916238, "type": "electric_scooter", "lon": -77.03147483333333, "bike_id": "842cb675f51d65b04688e979c17d4dbd", "rental_uris": {"android": "https://dc.lft.to/lastmile_qr_scan", "ios": "https://dc.lft.to/lastmile_qr_scan"}, "name": "842cb675f51d65b04688e979c17d4dbd", "is_reserved": 0}, {"is_disabled": 0, "fusion_lon": 0.0, "fusion_lat": 0.0, "lat": 38.946184, "type": "electric_scooter", "lon": -77.0362765, "bike_id": "22173e07821151fddefae5c75fa2ded7", "rental_uris": {"android": "https://dc.lft.to/lastmile_qr_scan", "ios": "https://dc.lft.to/lastmile_qr_scan"}, "name": "22173e07821151fddefae5c75fa2ded7", "is_reserved": 0}, {"is_disabled": 0, "fusion_lon": 0.0, "fusion_lat": 0.0, "lat": 38.86698466666667, "type": "electric_scooter", "lon": -76.987091, "bike_id": "61308b0309251091d634484e83b1e6c4", "rental_uris": {"android": "https://dc.lft.to/lastmile_qr_scan", "ios": "https://dc.lft.to/lastmile_qr_scan"}, "name": "61308b0309251091d634484e83b1e6c4", "is_reserved": 0}, {"is_disabled": 0, "fusion_lon": 0.0, "fusion_lat": 0.0, "lat": 38.93096933333333, "type": "electric_scooter", "lon": -77.02653766666667, "bike_id": "dd000868729ad0bf1ba2717a7aa26d66", "rental_uris": {"android": "https://dc.lft.to/lastmile_qr_scan", "ios": "https://dc.lft.to/lastmile_qr_scan"}, "name": "dd000868729ad0bf1ba2717a7aa26d66", "is_reserved": 0}, {"is_disabled": 0, "fusion_lon": 0.0, "fusion_lat": 0.0, "lat": 38.90389483333333, "type": "electric_scooter", "lon": -77.03013133333333, "bike_id": "8201c02c0954b19ed180e3b4fb30e79f", "rental_uris": {"android": "https://dc.lft.to/lastmile_qr_scan", "ios": "https://dc.lft.to/lastmile_qr_scan"}, "name": "8201c02c0954b19ed180e3b4fb30e79f", "is_reserved": 0}, {"is_disabled": 0, "fusion_lon": 0.0, "fusion_lat": 0.0, "lat": 38.920360333333335, "type": "electric_scooter", "lon": -77.03159466666666, "bike_id": "a63bf228169622a67055f24d46c558d7", "rental_uris": {"android": "https://dc.lft.to/lastmile_qr_scan", "ios": "https://dc.lft.to/lastmile_qr_scan"}, "name": "a63bf228169622a67055f24d46c558d7", "is_reserved": 0}, {"is_disabled": 0, "fusion_lon": 0.0, "fusion_lat": 0.0, "lat": 38.8690675, "type": "electric_scooter", "lon": -77.013767, "bike_id": "6f0a039e28cb8c7e91a57cd1397d4451", "rental_uris": {"android": "https://dc.lft.to/lastmile_qr_scan", "ios": "https://dc.lft.to/lastmile_qr_scan"}, "name": "6f0a039e28cb8c7e91a57cd1397d4451", "is_reserved": 0}, {"is_disabled": 0, "fusion_lon": 0.0, "fusion_lat": 0.0, "lat": 38.9333775, "type": "electric_bike", "lon": -77.04211216666667, "bike_id": "7d93feff7832bb3aaeaf073e0ec7bf91", "rental_uris": {"android": "https://dc.lft.to/lastmile_qr_scan", "ios": "https://dc.lft.to/lastmile_qr_scan"}, "name": "7d93feff7832bb3aaeaf073e0ec7bf91", "is_reserved": 0}, {"is_disabled": 0, "fusion_lon": 0.0, "fusion_lat": 0.0, "lat": 38.92970866666667, "type": "electric_scooter", "lon": -77.04205416666667, "bike_id": "2a654f62d4e16aee3f27195214dc0f76", "rental_uris": {"android": "https://dc.lft.to/lastmile_qr_scan", "ios": "https://dc.lft.to/lastmile_qr_scan"}, "name": "2a654f62d4e16aee3f27195214dc0f76", "is_reserved": 0}, {"is_disabled": 0, "fusion_lon": 0.0, "fusion_lat": 0.0, "lat": 38.865040666666665, "type": "electric_scooter", "lon": -76.99002416666667, "bike_id": "c0bca9ced5b81b552e311a5e67345c5d", "rental_uris": {"android": "https://dc.lft.to/lastmile_qr_scan", "ios": "https://dc.lft.to/lastmile_qr_scan"}, "name": "c0bca9ced5b81b552e311a5e67345c5d", "is_reserved": 0}, {"is_disabled": 0, "fusion_lon": 0.0, "fusion_lat": 0.0, "lat": 39.052633, "type": "electric_bike", "lon": -77.0438845, "bike_id": "2e165fc0da984bea7a0985909764307a", "rental_uris": {"android": "https://dc.lft.to/lastmile_qr_scan", "ios": "https://dc.lft.to/lastmile_qr_scan"}, "name": "2e165fc0da984bea7a0985909764307a", "is_reserved": 0}, {"is_disabled": 0, "fusion_lon": 0.0, "fusion_lat": 0.0, "lat": 38.899697833333335, "type": "electric_scooter", "lon": -77.01621066666667, "bike_id": "e5498f2ce36ebc0235f5ecb89f02c655", "rental_uris": {"android": "https://dc.lft.to/lastmile_qr_scan", "ios": "https://dc.lft.to/lastmile_qr_scan"}, "name": "e5498f2ce36ebc0235f5ecb89f02c655", "is_reserved": 0}, {"is_disabled": 0, "fusion_lon": 0.0, "fusion_lat": 0.0, "lat": 38.933697, "type": "electric_scooter", "lon": -77.05747033333333, "bike_id": "62126d04164405679807baae7df0342d", "rental_uris": {"android": "https://dc.lft.to/lastmile_qr_scan", "ios": "https://dc.lft.to/lastmile_qr_scan"}, "name": "62126d04164405679807baae7df0342d", "is_reserved": 0}, {"is_disabled": 0, "fusion_lon": 0.0, "fusion_lat": 0.0, "lat": 38.948957, "type": "electric_bike", "lon": -76.96372766666667, "bike_id": "7d0895faa2ef1ce4cf205c1934adb70a", "rental_uris": {"android": "https://dc.lft.to/lastmile_qr_scan", "ios": "https://dc.lft.to/lastmile_qr_scan"}, "name": "7d0895faa2ef1ce4cf205c1934adb70a", "is_reserved": 0}, {"is_disabled": 0, "fusion_lon": 0.0, "fusion_lat": 0.0, "lat": 38.917055833333336, "type": "electric_bike", "lon": -77.09562133333333, "bike_id": "3cc657bf2e81226d53feb22d6b2a8401", "rental_uris": {"android": "https://dc.lft.to/lastmile_qr_scan", "ios": "https://dc.lft.to/lastmile_qr_scan"}, "name": "3cc657bf2e81226d53feb22d6b2a8401", "is_reserved": 0}, {"is_disabled": 0, "fusion_lon": 0.0, "fusion_lat": 0.0, "lat": 38.90953966666667, "type": "electric_scooter", "lon": -77.03947216666667, "bike_id": "a8564deb346fbe2aab2dc0164bdc0d7e", "rental_uris": {"android": "https://dc.lft.to/lastmile_qr_scan", "ios": "https://dc.lft.to/lastmile_qr_scan"}, "name": "a8564deb346fbe2aab2dc0164bdc0d7e", "is_reserved": 0}, {"is_disabled": 0, "fusion_lon": 0.0, "fusion_lat": 0.0, "lat": 38.9277135, "type": "electric_scooter", "lon": -77.027823, "bike_id": "adb9dff18e95898f3017f700d10db1e1", "rental_uris": {"android": "https://dc.lft.to/lastmile_qr_scan", "ios": "https://dc.lft.to/lastmile_qr_scan"}, "name": "adb9dff18e95898f3017f700d10db1e1", "is_reserved": 0}, {"is_disabled": 0, "fusion_lon": 0.0, "fusion_lat": 0.0, "lat": 38.92813183333333, "type": "electric_scooter", "lon": -77.02346266666666, "bike_id": "67c1205405240d2ef98e93e8f205cb0f", "rental_uris": {"android": "https://dc.lft.to/lastmile_qr_scan", "ios": "https://dc.lft.to/lastmile_qr_scan"}, "name": "67c1205405240d2ef98e93e8f205cb0f", "is_reserved": 0}, {"is_disabled": 0, "fusion_lon": 0.0, "fusion_lat": 0.0, "lat": 38.934129, "type": "electric_scooter", "lon": -77.019669, "bike_id": "6a5f91ed111812f8451bdebb401b9be4", "rental_uris": {"android": "https://dc.lft.to/lastmile_qr_scan", "ios": "https://dc.lft.to/lastmile_qr_scan"}, "name": "6a5f91ed111812f8451bdebb401b9be4", "is_reserved": 0}, {"is_disabled": 0, "fusion_lon": 0.0, "fusion_lat": 0.0, "lat": 38.91362483333333, "type": "electric_scooter", "lon": -77.03955783333333, "bike_id": "043b837e1daa5ba40d83b25434c63307", "rental_uris": {"android": "https://dc.lft.to/lastmile_qr_scan", "ios": "https://dc.lft.to/lastmile_qr_scan"}, "name": "043b837e1daa5ba40d83b25434c63307", "is_reserved": 0}, {"is_disabled": 0, "fusion_lon": 0.0, "fusion_lat": 0.0, "lat": 38.93250716666667, "type": "electric_scooter", "lon": -77.0327385, "bike_id": "7b5dca30a87546af81e0139c78baf23e", "rental_uris": {"android": "https://dc.lft.to/lastmile_qr_scan", "ios": "https://dc.lft.to/lastmile_qr_scan"}, "name": "7b5dca30a87546af81e0139c78baf23e", "is_reserved": 0}, {"is_disabled": 0, "fusion_lon": 0.0, "fusion_lat": 0.0, "lat": 38.88400733333334, "type": "electric_bike", "lon": -77.03083016666666, "bike_id": "d0960e1820400c4d4065f64e2b9f72d9", "rental_uris": {"android": "https://dc.lft.to/lastmile_qr_scan", "ios": "https://dc.lft.to/lastmile_qr_scan"}, "name": "d0960e1820400c4d4065f64e2b9f72d9", "is_reserved": 0}, {"is_disabled": 0, "fusion_lon": 0.0, "fusion_lat": 0.0, "lat": 38.879402166666665, "type": "electric_scooter", "lon": -77.00721433333334, "bike_id": "f2f233c3dad3f755c868dbfd062fad5f", "rental_uris": {"android": "https://dc.lft.to/lastmile_qr_scan", "ios": "https://dc.lft.to/lastmile_qr_scan"}, "name": "f2f233c3dad3f755c868dbfd062fad5f", "is_reserved": 0}, {"is_disabled": 0, "fusion_lon": 0.0, "fusion_lat": 0.0, "lat": 38.846090833333335, "type": "electric_bike", "lon": -76.968794, "bike_id": "b21fad917a423dd3b78e993935510da7", "rental_uris": {"android": "https://dc.lft.to/lastmile_qr_scan", "ios": "https://dc.lft.to/lastmile_qr_scan"}, "name": "b21fad917a423dd3b78e993935510da7", "is_reserved": 0}, {"is_disabled": 0, "fusion_lon": 0.0, "fusion_lat": 0.0, "lat": 38.887379833333334, "type": "electric_scooter", "lon": -77.01532, "bike_id": "f820ddb3d584c466e9c92d3010136624", "rental_uris": {"android": "https://dc.lft.to/lastmile_qr_scan", "ios": "https://dc.lft.to/lastmile_qr_scan"}, "name": "f820ddb3d584c466e9c92d3010136624", "is_reserved": 0}, {"is_disabled": 0, "fusion_lon": 0.0, "fusion_lat": 0.0, "lat": 38.935679666666665, "type": "electric_scooter", "lon": -77.082019, "bike_id": "0d4d82ba3434894c0ebd8a227b3842e4", "rental_uris": {"android": "https://dc.lft.to/lastmile_qr_scan", "ios": "https://dc.lft.to/lastmile_qr_scan"}, "name": "0d4d82ba3434894c0ebd8a227b3842e4", "is_reserved": 0}, {"is_disabled": 0, "fusion_lon": 0.0, "fusion_lat": 0.0, "lat": 38.91059883333333, "type": "electric_scooter", "lon": -76.9850335, "bike_id": "46bf4d3538bcf998c98be16daded7103", "rental_uris": {"android": "https://dc.lft.to/lastmile_qr_scan", "ios": "https://dc.lft.to/lastmile_qr_scan"}, "name": "46bf4d3538bcf998c98be16daded7103", "is_reserved": 0}, {"is_disabled": 0, "fusion_lon": 0.0, "fusion_lat": 0.0, "lat": 38.9563275, "type": "electric_scooter", "lon": -77.0297955, "bike_id": "a302b574a848fc2a3e4fd0925cb8ed35", "rental_uris": {"android": "https://dc.lft.to/lastmile_qr_scan", "ios": "https://dc.lft.to/lastmile_qr_scan"}, "name": "a302b574a848fc2a3e4fd0925cb8ed35", "is_reserved": 0}, {"is_disabled": 0, "fusion_lon": 0.0, "fusion_lat": 0.0, "lat": 38.927475333333334, "type": "electric_scooter", "lon": -77.0759285, "bike_id": "68def84a5130172be60d394d2a3376a3", "rental_uris": {"android": "https://dc.lft.to/lastmile_qr_scan", "ios": "https://dc.lft.to/lastmile_qr_scan"}, "name": "68def84a5130172be60d394d2a3376a3", "is_reserved": 0}, {"is_disabled": 0, "fusion_lon": 0.0, "fusion_lat": 0.0, "lat": 38.93280133333333, "type": "electric_scooter", "lon": -77.03632133333333, "bike_id": "a9da7521e0311ea2a4d05907b1335c26", "rental_uris": {"android": "https://dc.lft.to/lastmile_qr_scan", "ios": "https://dc.lft.to/lastmile_qr_scan"}, "name": "a9da7521e0311ea2a4d05907b1335c26", "is_reserved": 0}, {"is_disabled": 0, "fusion_lon": 0.0, "fusion_lat": 0.0, "lat": 38.897778833333334, "type": "electric_scooter", "lon": -77.024886, "bike_id": "afcdb50b1cafcf1868d89f62f311cd08", "rental_uris": {"android": "https://dc.lft.to/lastmile_qr_scan", "ios": "https://dc.lft.to/lastmile_qr_scan"}, "name": "afcdb50b1cafcf1868d89f62f311cd08", "is_reserved": 0}, {"is_disabled": 0, "fusion_lon": 0.0, "fusion_lat": 0.0, "lat": 38.901979, "type": "electric_scooter", "lon": -77.04810966666666, "bike_id": "11da08e26e74375aca16509e602802cc", "rental_uris": {"android": "https://dc.lft.to/lastmile_qr_scan", "ios": "https://dc.lft.to/lastmile_qr_scan"}, "name": "11da08e26e74375aca16509e602802cc", "is_reserved": 0}, {"is_disabled": 0, "fusion_lon": 0.0, "fusion_lat": 0.0, "lat": 38.90035866666667, "type": "electric_scooter", "lon": -77.00217483333333, "bike_id": "145f3c7e8cef4b2ea24009f2cf6870a9", "rental_uris": {"android": "https://dc.lft.to/lastmile_qr_scan", "ios": "https://dc.lft.to/lastmile_qr_scan"}, "name": "145f3c7e8cef4b2ea24009f2cf6870a9", "is_reserved": 0}, {"is_disabled": 0, "fusion_lon": 0.0, "fusion_lat": 0.0, "lat": 38.95644766666667, "type": "electric_scooter", "lon": -77.01497933333333, "bike_id": "02cdc722588cb2815784fbff7d82b543", "rental_uris": {"android": "https://dc.lft.to/lastmile_qr_scan", "ios": "https://dc.lft.to/lastmile_qr_scan"}, "name": "02cdc722588cb2815784fbff7d82b543", "is_reserved": 0}, {"is_disabled": 0, "fusion_lon": 0.0, "fusion_lat": 0.0, "lat": 38.9215935, "type": "electric_scooter", "lon": -77.03382133333334, "bike_id": "ab5ecdbb9d8533972da29409ea555e62", "rental_uris": {"android": "https://dc.lft.to/lastmile_qr_scan", "ios": "https://dc.lft.to/lastmile_qr_scan"}, "name": "ab5ecdbb9d8533972da29409ea555e62", "is_reserved": 0}, {"is_disabled": 0, "fusion_lon": 0.0, "fusion_lat": 0.0, "lat": 38.89486616666667, "type": "electric_scooter", "lon": -77.0021175, "bike_id": "185630089839e6e4082292e1c300b6bc", "rental_uris": {"android": "https://dc.lft.to/lastmile_qr_scan", "ios": "https://dc.lft.to/lastmile_qr_scan"}, "name": "185630089839e6e4082292e1c300b6bc", "is_reserved": 0}, {"is_disabled": 0, "fusion_lon": 0.0, "fusion_lat": 0.0, "lat": 38.91348683333333, "type": "electric_scooter", "lon": -77.03196133333333, "bike_id": "6334d2420dae7cc8a60de7e75e2e21ec", "rental_uris": {"android": "https://dc.lft.to/lastmile_qr_scan", "ios": "https://dc.lft.to/lastmile_qr_scan"}, "name": "6334d2420dae7cc8a60de7e75e2e21ec", "is_reserved": 0}, {"is_disabled": 0, "fusion_lon": 0.0, "fusion_lat": 0.0, "lat": 38.91814816666667, "type": "electric_scooter", "lon": -77.04002633333333, "bike_id": "47dfc26f8cce635ac36d918576ba883b", "rental_uris": {"android": "https://dc.lft.to/lastmile_qr_scan", "ios": "https://dc.lft.to/lastmile_qr_scan"}, "name": "47dfc26f8cce635ac36d918576ba883b", "is_reserved": 0}, {"is_disabled": 0, "fusion_lon": 0.0, "fusion_lat": 0.0, "lat": 38.91817533333333, "type": "electric_scooter", "lon": -77.02717733333333, "bike_id": "9bba6ef0a615e127ea5c984d5f68cceb", "rental_uris": {"android": "https://dc.lft.to/lastmile_qr_scan", "ios": "https://dc.lft.to/lastmile_qr_scan"}, "name": "9bba6ef0a615e127ea5c984d5f68cceb", "is_reserved": 0}, {"is_disabled": 0, "fusion_lon": 0.0, "fusion_lat": 0.0, "lat": 38.941811666666666, "type": "electric_scooter", "lon": -77.03656366666667, "bike_id": "8d371a37225e64f76700ccdaafb8c4cb", "rental_uris": {"android": "https://dc.lft.to/lastmile_qr_scan", "ios": "https://dc.lft.to/lastmile_qr_scan"}, "name": "8d371a37225e64f76700ccdaafb8c4cb", "is_reserved": 0}, {"is_disabled": 0, "fusion_lon": 0.0, "fusion_lat": 0.0, "lat": 38.90956833333333, "type": "electric_scooter", "lon": -77.04528016666667, "bike_id": "8cd163666e1544518f141d9418a3ff4b", "rental_uris": {"android": "https://dc.lft.to/lastmile_qr_scan", "ios": "https://dc.lft.to/lastmile_qr_scan"}, "name": "8cd163666e1544518f141d9418a3ff4b", "is_reserved": 0}, {"is_disabled": 0, "fusion_lon": 0.0, "fusion_lat": 0.0, "lat": 38.87730583333333, "type": "electric_scooter", "lon": -77.00068116666667, "bike_id": "b225be2af6c46f78cd2dd585929f8927", "rental_uris": {"android": "https://dc.lft.to/lastmile_qr_scan", "ios": "https://dc.lft.to/lastmile_qr_scan"}, "name": "b225be2af6c46f78cd2dd585929f8927", "is_reserved": 0}, {"is_disabled": 0, "fusion_lon": 0.0, "fusion_lat": 0.0, "lat": 38.90707166666667, "type": "electric_scooter", "lon": -77.0631305, "bike_id": "3329ffb56d58565df35d4fc856cd4cb1", "rental_uris": {"android": "https://dc.lft.to/lastmile_qr_scan", "ios": "https://dc.lft.to/lastmile_qr_scan"}, "name": "3329ffb56d58565df35d4fc856cd4cb1", "is_reserved": 0}, {"is_disabled": 0, "fusion_lon": 0.0, "fusion_lat": 0.0, "lat": 38.89556266666666, "type": "electric_scooter", "lon": -77.00405416666666, "bike_id": "21ab38da2afbcf33e7e30fd6ac8a659a", "rental_uris": {"android": "https://dc.lft.to/lastmile_qr_scan", "ios": "https://dc.lft.to/lastmile_qr_scan"}, "name": "21ab38da2afbcf33e7e30fd6ac8a659a", "is_reserved": 0}, {"is_disabled": 0, "fusion_lon": 0.0, "fusion_lat": 0.0, "lat": 38.90279566666667, "type": "electric_scooter", "lon": -77.02418616666667, "bike_id": "bebf494a46883c1d265f7d0628c54ec1", "rental_uris": {"android": "https://dc.lft.to/lastmile_qr_scan", "ios": "https://dc.lft.to/lastmile_qr_scan"}, "name": "bebf494a46883c1d265f7d0628c54ec1", "is_reserved": 0}, {"is_disabled": 0, "fusion_lon": 0.0, "fusion_lat": 0.0, "lat": 38.91070233333333, "type": "electric_scooter", "lon": -76.98658516666667, "bike_id": "63126b7c8d0f5c22299dcf64edfaccb1", "rental_uris": {"android": "https://dc.lft.to/lastmile_qr_scan", "ios": "https://dc.lft.to/lastmile_qr_scan"}, "name": "63126b7c8d0f5c22299dcf64edfaccb1", "is_reserved": 0}, {"is_disabled": 0, "fusion_lon": 0.0, "fusion_lat": 0.0, "lat": 38.8987755, "type": "electric_scooter", "lon": -76.931851, "bike_id": "57f597431b3340252df45c5928ea66a2", "rental_uris": {"android": "https://dc.lft.to/lastmile_qr_scan", "ios": "https://dc.lft.to/lastmile_qr_scan"}, "name": "57f597431b3340252df45c5928ea66a2", "is_reserved": 0}, {"is_disabled": 0, "fusion_lon": 0.0, "fusion_lat": 0.0, "lat": 38.85880383333333, "type": "electric_scooter", "lon": -76.9903185, "bike_id": "88c62b1047dedc81887a97d2d27a6b8a", "rental_uris": {"android": "https://dc.lft.to/lastmile_qr_scan", "ios": "https://dc.lft.to/lastmile_qr_scan"}, "name": "88c62b1047dedc81887a97d2d27a6b8a", "is_reserved": 0}, {"is_disabled": 0, "fusion_lon": 0.0, "fusion_lat": 0.0, "lat": 38.98029733333333, "type": "electric_bike", "lon": -76.92918183333333, "bike_id": "dc7ad287458f6d925733fb1c84e14d51", "rental_uris": {"android": "https://dc.lft.to/lastmile_qr_scan", "ios": "https://dc.lft.to/lastmile_qr_scan"}, "name": "dc7ad287458f6d925733fb1c84e14d51", "is_reserved": 0}, {"is_disabled": 0, "fusion_lon": 0.0, "fusion_lat": 0.0, "lat": 38.905468, "type": "electric_scooter", "lon": -77.05078783333333, "bike_id": "b2a22ecf3b4d625e16c2371025b49f89", "rental_uris": {"android": "https://dc.lft.to/lastmile_qr_scan", "ios": "https://dc.lft.to/lastmile_qr_scan"}, "name": "b2a22ecf3b4d625e16c2371025b49f89", "is_reserved": 0}, {"is_disabled": 0, "fusion_lon": 0.0, "fusion_lat": 0.0, "lat": 38.9201745, "type": "electric_scooter", "lon": -77.032017, "bike_id": "d7ba4d12657d24e4a0e6d1c783c57e1e", "rental_uris": {"android": "https://dc.lft.to/lastmile_qr_scan", "ios": "https://dc.lft.to/lastmile_qr_scan"}, "name": "d7ba4d12657d24e4a0e6d1c783c57e1e", "is_reserved": 0}, {"is_disabled": 0, "fusion_lon": 0.0, "fusion_lat": 0.0, "lat": 38.9180275, "type": "electric_scooter", "lon": -77.03247766666667, "bike_id": "4b9c85af8dca4262c06ce97662985059", "rental_uris": {"android": "https://dc.lft.to/lastmile_qr_scan", "ios": "https://dc.lft.to/lastmile_qr_scan"}, "name": "4b9c85af8dca4262c06ce97662985059", "is_reserved": 0}, {"is_disabled": 0, "fusion_lon": 0.0, "fusion_lat": 0.0, "lat": 38.94478316666667, "type": "electric_bike", "lon": -77.006482, "bike_id": "3992babd87ce61bea30a495bac513b47", "rental_uris": {"android": "https://dc.lft.to/lastmile_qr_scan", "ios": "https://dc.lft.to/lastmile_qr_scan"}, "name": "3992babd87ce61bea30a495bac513b47", "is_reserved": 0}, {"is_disabled": 0, "fusion_lon": 0.0, "fusion_lat": 0.0, "lat": 38.945617166666665, "type": "electric_bike", "lon": -77.05107966666667, "bike_id": "539efa5ecbf8e415dcf04b0bfa1cfc4c", "rental_uris": {"android": "https://dc.lft.to/lastmile_qr_scan", "ios": "https://dc.lft.to/lastmile_qr_scan"}, "name": "539efa5ecbf8e415dcf04b0bfa1cfc4c", "is_reserved": 0}, {"is_disabled": 0, "fusion_lon": 0.0, "fusion_lat": 0.0, "lat": 38.886842666666666, "type": "electric_scooter", "lon": -76.95477733333334, "bike_id": "932d3dc9f55ed10b2a87cbfc5daee626", "rental_uris": {"android": "https://dc.lft.to/lastmile_qr_scan", "ios": "https://dc.lft.to/lastmile_qr_scan"}, "name": "932d3dc9f55ed10b2a87cbfc5daee626", "is_reserved": 0}, {"is_disabled": 0, "fusion_lon": 0.0, "fusion_lat": 0.0, "lat": 38.9282715, "type": "electric_scooter", "lon": -77.02257933333334, "bike_id": "1eba9130c11baf3e5332dc38d08eb2d7", "rental_uris": {"android": "https://dc.lft.to/lastmile_qr_scan", "ios": "https://dc.lft.to/lastmile_qr_scan"}, "name": "1eba9130c11baf3e5332dc38d08eb2d7", "is_reserved": 0}, {"is_disabled": 0, "fusion_lon": 0.0, "fusion_lat": 0.0, "lat": 38.9068275, "type": "electric_scooter", "lon": -77.07463383333334, "bike_id": "1244b9441d6d802bf4753d5b57a558f4", "rental_uris": {"android": "https://dc.lft.to/lastmile_qr_scan", "ios": "https://dc.lft.to/lastmile_qr_scan"}, "name": "1244b9441d6d802bf4753d5b57a558f4", "is_reserved": 0}, {"is_disabled": 0, "fusion_lon": 0.0, "fusion_lat": 0.0, "lat": 38.9052875, "type": "electric_scooter", "lon": -77.05020166666667, "bike_id": "48eabe33c2fa97f44e1df7c79fed6268", "rental_uris": {"android": "https://dc.lft.to/lastmile_qr_scan", "ios": "https://dc.lft.to/lastmile_qr_scan"}, "name": "48eabe33c2fa97f44e1df7c79fed6268", "is_reserved": 0}, {"is_disabled": 0, "fusion_lon": 0.0, "fusion_lat": 0.0, "lat": 38.93425633333333, "type": "electric_scooter", "lon": -77.05839083333333, "bike_id": "82bdba673a97a089575ec2d3df138302", "rental_uris": {"android": "https://dc.lft.to/lastmile_qr_scan", "ios": "https://dc.lft.to/lastmile_qr_scan"}, "name": "82bdba673a97a089575ec2d3df138302", "is_reserved": 0}, {"is_disabled": 0, "fusion_lon": 0.0, "fusion_lat": 0.0, "lat": 38.928141833333335, "type": "electric_scooter", "lon": -77.023495, "bike_id": "0276dd15692207b9377e263bdfb9a511", "rental_uris": {"android": "https://dc.lft.to/lastmile_qr_scan", "ios": "https://dc.lft.to/lastmile_qr_scan"}, "name": "0276dd15692207b9377e263bdfb9a511", "is_reserved": 0}, {"is_disabled": 0, "fusion_lon": 0.0, "fusion_lat": 0.0, "lat": 38.89831366666667, "type": "electric_scooter", "lon": -77.02970583333334, "bike_id": "a4ffc11e3e9addcf37087ea0b01720ba", "rental_uris": {"android": "https://dc.lft.to/lastmile_qr_scan", "ios": "https://dc.lft.to/lastmile_qr_scan"}, "name": "a4ffc11e3e9addcf37087ea0b01720ba", "is_reserved": 0}, {"is_disabled": 0, "fusion_lon": 0.0, "fusion_lat": 0.0, "lat": 38.900166, "type": "electric_scooter", "lon": -77.0438535, "bike_id": "4b54f8bbd28db76ea6af512138e07e73", "rental_uris": {"android": "https://dc.lft.to/lastmile_qr_scan", "ios": "https://dc.lft.to/lastmile_qr_scan"}, "name": "4b54f8bbd28db76ea6af512138e07e73", "is_reserved": 0}, {"is_disabled": 0, "fusion_lon": 0.0, "fusion_lat": 0.0, "lat": 38.881222666666666, "type": "electric_scooter", "lon": -76.99599983333333, "bike_id": "1fe57494af47b525aa0b05e426dd4049", "rental_uris": {"android": "https://dc.lft.to/lastmile_qr_scan", "ios": "https://dc.lft.to/lastmile_qr_scan"}, "name": "1fe57494af47b525aa0b05e426dd4049", "is_reserved": 0}, {"is_disabled": 0, "fusion_lon": 0.0, "fusion_lat": 0.0, "lat": 38.9055035, "type": "electric_scooter", "lon": -77.00699416666667, "bike_id": "ff1547473a46d9eb007b4412c65b4fb9", "rental_uris": {"android": "https://dc.lft.to/lastmile_qr_scan", "ios": "https://dc.lft.to/lastmile_qr_scan"}, "name": "ff1547473a46d9eb007b4412c65b4fb9", "is_reserved": 0}, {"is_disabled": 0, "fusion_lon": 0.0, "fusion_lat": 0.0, "lat": 38.896052, "type": "electric_scooter", "lon": -77.0111565, "bike_id": "0de90229e2229d108232fa6eaebd9100", "rental_uris": {"android": "https://dc.lft.to/lastmile_qr_scan", "ios": "https://dc.lft.to/lastmile_qr_scan"}, "name": "0de90229e2229d108232fa6eaebd9100", "is_reserved": 0}, {"is_disabled": 0, "fusion_lon": 0.0, "fusion_lat": 0.0, "lat": 38.95635633333333, "type": "electric_scooter", "lon": -77.02982616666667, "bike_id": "c1e0e38ca38b44354ed96dc540d1fab8", "rental_uris": {"android": "https://dc.lft.to/lastmile_qr_scan", "ios": "https://dc.lft.to/lastmile_qr_scan"}, "name": "c1e0e38ca38b44354ed96dc540d1fab8", "is_reserved": 0}, {"is_disabled": 0, "fusion_lon": 0.0, "fusion_lat": 0.0, "lat": 38.9161485, "type": "electric_scooter", "lon": -77.02483533333333, "bike_id": "8123312733998bb9cebfe52522673275", "rental_uris": {"android": "https://dc.lft.to/lastmile_qr_scan", "ios": "https://dc.lft.to/lastmile_qr_scan"}, "name": "8123312733998bb9cebfe52522673275", "is_reserved": 0}, {"is_disabled": 0, "fusion_lon": 0.0, "fusion_lat": 0.0, "lat": 38.880737833333335, "type": "electric_scooter", "lon": -77.00641316666666, "bike_id": "4ed7e267465755aca5f8686e80481da8", "rental_uris": {"android": "https://dc.lft.to/lastmile_qr_scan", "ios": "https://dc.lft.to/lastmile_qr_scan"}, "name": "4ed7e267465755aca5f8686e80481da8", "is_reserved": 0}, {"is_disabled": 0, "fusion_lon": 0.0, "fusion_lat": 0.0, "lat": 38.906643833333334, "type": "electric_scooter", "lon": -77.0375425, "bike_id": "0a050d930c3729d14f4822f161ae1b0f", "rental_uris": {"android": "https://dc.lft.to/lastmile_qr_scan", "ios": "https://dc.lft.to/lastmile_qr_scan"}, "name": "0a050d930c3729d14f4822f161ae1b0f", "is_reserved": 0}, {"is_disabled": 0, "fusion_lon": 0.0, "fusion_lat": 0.0, "lat": 38.905771, "type": "electric_scooter", "lon": -77.02393783333333, "bike_id": "eff54830451df1131e75496ad1fff69d", "rental_uris": {"android": "https://dc.lft.to/lastmile_qr_scan", "ios": "https://dc.lft.to/lastmile_qr_scan"}, "name": "eff54830451df1131e75496ad1fff69d", "is_reserved": 0}, {"is_disabled": 0, "fusion_lon": 0.0, "fusion_lat": 0.0, "lat": 38.85069, "type": "electric_bike", "lon": -76.97332416666667, "bike_id": "08dc1f969eb55cc3e437aae2781c050e", "rental_uris": {"android": "https://dc.lft.to/lastmile_qr_scan", "ios": "https://dc.lft.to/lastmile_qr_scan"}, "name": "08dc1f969eb55cc3e437aae2781c050e", "is_reserved": 0}, {"is_disabled": 0, "fusion_lon": 0.0, "fusion_lat": 0.0, "lat": 38.909443333333336, "type": "electric_bike", "lon": -76.99756616666667, "bike_id": "2e7e568c9707b89356a886935be3af91", "rental_uris": {"android": "https://dc.lft.to/lastmile_qr_scan", "ios": "https://dc.lft.to/lastmile_qr_scan"}, "name": "2e7e568c9707b89356a886935be3af91", "is_reserved": 0}, {"is_disabled": 0, "fusion_lon": 0.0, "fusion_lat": 0.0, "lat": 38.9520305, "type": "electric_bike", "lon": -77.02369966666667, "bike_id": "d049af5cb36863d62fb95e1ec60e3d11", "rental_uris": {"android": "https://dc.lft.to/lastmile_qr_scan", "ios": "https://dc.lft.to/lastmile_qr_scan"}, "name": "d049af5cb36863d62fb95e1ec60e3d11", "is_reserved": 0}, {"is_disabled": 0, "fusion_lon": 0.0, "fusion_lat": 0.0, "lat": 38.928459, "type": "electric_bike", "lon": -77.02058616666666, "bike_id": "ffda523eab7a2d1bcc01303b02a6dc52", "rental_uris": {"android": "https://dc.lft.to/lastmile_qr_scan", "ios": "https://dc.lft.to/lastmile_qr_scan"}, "name": "ffda523eab7a2d1bcc01303b02a6dc52", "is_reserved": 0}, {"is_disabled": 0, "fusion_lon": 0.0, "fusion_lat": 0.0, "lat": 38.913875166666664, "type": "electric_scooter", "lon": -77.03852883333333, "bike_id": "aafa64e6dc2a5947a0637c44554367ac", "rental_uris": {"android": "https://dc.lft.to/lastmile_qr_scan", "ios": "https://dc.lft.to/lastmile_qr_scan"}, "name": "aafa64e6dc2a5947a0637c44554367ac", "is_reserved": 0}, {"is_disabled": 0, "fusion_lon": 0.0, "fusion_lat": 0.0, "lat": 38.90735866666667, "type": "electric_scooter", "lon": -77.031864, "bike_id": "e5912aca2af241c09680eeb0644fef95", "rental_uris": {"android": "https://dc.lft.to/lastmile_qr_scan", "ios": "https://dc.lft.to/lastmile_qr_scan"}, "name": "e5912aca2af241c09680eeb0644fef95", "is_reserved": 0}, {"is_disabled": 0, "fusion_lon": 0.0, "fusion_lat": 0.0, "lat": 38.9054205, "type": "electric_scooter", "lon": -77.0511535, "bike_id": "741e3ba101c2986a4c1fc16d1faf25df", "rental_uris": {"android": "https://dc.lft.to/lastmile_qr_scan", "ios": "https://dc.lft.to/lastmile_qr_scan"}, "name": "741e3ba101c2986a4c1fc16d1faf25df", "is_reserved": 0}, {"is_disabled": 0, "fusion_lon": 0.0, "fusion_lat": 0.0, "lat": 38.90788216666667, "type": "electric_scooter", "lon": -77.0409445, "bike_id": "a23fcadc4de40b922240adfbfe73beb0", "rental_uris": {"android": "https://dc.lft.to/lastmile_qr_scan", "ios": "https://dc.lft.to/lastmile_qr_scan"}, "name": "a23fcadc4de40b922240adfbfe73beb0", "is_reserved": 0}, {"is_disabled": 0, "fusion_lon": 0.0, "fusion_lat": 0.0, "lat": 38.912701166666665, "type": "electric_scooter", "lon": -77.02225883333334, "bike_id": "7582d39dd04e6c0aa81be249f18bfb9a", "rental_uris": {"android": "https://dc.lft.to/lastmile_qr_scan", "ios": "https://dc.lft.to/lastmile_qr_scan"}, "name": "7582d39dd04e6c0aa81be249f18bfb9a", "is_reserved": 0}, {"is_disabled": 0, "fusion_lon": 0.0, "fusion_lat": 0.0, "lat": 38.95091266666667, "type": "electric_bike", "lon": -76.96559366666666, "bike_id": "da4b64a7580767adb21a1d1700477f31", "rental_uris": {"android": "https://dc.lft.to/lastmile_qr_scan", "ios": "https://dc.lft.to/lastmile_qr_scan"}, "name": "da4b64a7580767adb21a1d1700477f31", "is_reserved": 0}, {"is_disabled": 0, "fusion_lon": 0.0, "fusion_lat": 0.0, "lat": 38.92209066666667, "type": "electric_bike", "lon": -77.03657516666667, "bike_id": "6ebed16c78ed25c21ae78deb4b5e08b4", "rental_uris": {"android": "https://dc.lft.to/lastmile_qr_scan", "ios": "https://dc.lft.to/lastmile_qr_scan"}, "name": "6ebed16c78ed25c21ae78deb4b5e08b4", "is_reserved": 0}, {"is_disabled": 0, "fusion_lon": 0.0, "fusion_lat": 0.0, "lat": 38.90731516666666, "type": "electric_scooter", "lon": -77.02366933333333, "bike_id": "74db0873c1d26a6350bbd3eaf978cd44", "rental_uris": {"android": "https://dc.lft.to/lastmile_qr_scan", "ios": "https://dc.lft.to/lastmile_qr_scan"}, "name": "74db0873c1d26a6350bbd3eaf978cd44", "is_reserved": 0}, {"is_disabled": 0, "fusion_lon": 0.0, "fusion_lat": 0.0, "lat": 38.912562, "type": "electric_scooter", "lon": -77.00929583333334, "bike_id": "d26cc232235374c4c2ddf46115724f52", "rental_uris": {"android": "https://dc.lft.to/lastmile_qr_scan", "ios": "https://dc.lft.to/lastmile_qr_scan"}, "name": "d26cc232235374c4c2ddf46115724f52", "is_reserved": 0}, {"is_disabled": 0, "fusion_lon": 0.0, "fusion_lat": 0.0, "lat": 38.89359533333333, "type": "electric_scooter", "lon": -76.9398735, "bike_id": "2ba114ac79fb5c1aff62f34fc5898589", "rental_uris": {"android": "https://dc.lft.to/lastmile_qr_scan", "ios": "https://dc.lft.to/lastmile_qr_scan"}, "name": "2ba114ac79fb5c1aff62f34fc5898589", "is_reserved": 0}, {"is_disabled": 0, "fusion_lon": 0.0, "fusion_lat": 0.0, "lat": 38.8982585, "type": "electric_scooter", "lon": -77.029725, "bike_id": "66be806dc6d25ec747e866b0112c2f76", "rental_uris": {"android": "https://dc.lft.to/lastmile_qr_scan", "ios": "https://dc.lft.to/lastmile_qr_scan"}, "name": "66be806dc6d25ec747e866b0112c2f76", "is_reserved": 0}, {"is_disabled": 0, "fusion_lon": 0.0, "fusion_lat": 0.0, "lat": 38.878985166666666, "type": "electric_scooter", "lon": -76.93522316666666, "bike_id": "8632e57e454405c791d6c089a1e5d76d", "rental_uris": {"android": "https://dc.lft.to/lastmile_qr_scan", "ios": "https://dc.lft.to/lastmile_qr_scan"}, "name": "8632e57e454405c791d6c089a1e5d76d", "is_reserved": 0}, {"is_disabled": 0, "fusion_lon": 0.0, "fusion_lat": 0.0, "lat": 38.87701933333334, "type": "electric_scooter", "lon": -77.0049365, "bike_id": "f6d0206942062306eebf450a4f2b886f", "rental_uris": {"android": "https://dc.lft.to/lastmile_qr_scan", "ios": "https://dc.lft.to/lastmile_qr_scan"}, "name": "f6d0206942062306eebf450a4f2b886f", "is_reserved": 0}, {"is_disabled": 0, "fusion_lon": 0.0, "fusion_lat": 0.0, "lat": 38.97403466666667, "type": "electric_bike", "lon": -77.02497833333334, "bike_id": "32de3a480cc78d3e07a910d440ab0987", "rental_uris": {"android": "https://dc.lft.to/lastmile_qr_scan", "ios": "https://dc.lft.to/lastmile_qr_scan"}, "name": "32de3a480cc78d3e07a910d440ab0987", "is_reserved": 0}, {"is_disabled": 0, "fusion_lon": 0.0, "fusion_lat": 0.0, "lat": 38.90060616666667, "type": "electric_scooter", "lon": -76.933846, "bike_id": "f248763843eb8bd154284a6fbc8e6375", "rental_uris": {"android": "https://dc.lft.to/lastmile_qr_scan", "ios": "https://dc.lft.to/lastmile_qr_scan"}, "name": "f248763843eb8bd154284a6fbc8e6375", "is_reserved": 0}, {"is_disabled": 0, "fusion_lon": 0.0, "fusion_lat": 0.0, "lat": 38.9077305, "type": "electric_scooter", "lon": -77.02697616666667, "bike_id": "484141af6ebc8b0343a66e328c2ff7a5", "rental_uris": {"android": "https://dc.lft.to/lastmile_qr_scan", "ios": "https://dc.lft.to/lastmile_qr_scan"}, "name": "484141af6ebc8b0343a66e328c2ff7a5", "is_reserved": 0}, {"is_disabled": 0, "fusion_lon": 0.0, "fusion_lat": 0.0, "lat": 38.927455, "type": "electric_scooter", "lon": -77.03478983333333, "bike_id": "f987360bd0a7534a86f802329362d169", "rental_uris": {"android": "https://dc.lft.to/lastmile_qr_scan", "ios": "https://dc.lft.to/lastmile_qr_scan"}, "name": "f987360bd0a7534a86f802329362d169", "is_reserved": 0}, {"is_disabled": 0, "fusion_lon": 0.0, "fusion_lat": 0.0, "lat": 38.91136633333333, "type": "electric_scooter", "lon": -77.02193183333333, "bike_id": "d152a0d4f741690c0101f35dcfb05145", "rental_uris": {"android": "https://dc.lft.to/lastmile_qr_scan", "ios": "https://dc.lft.to/lastmile_qr_scan"}, "name": "d152a0d4f741690c0101f35dcfb05145", "is_reserved": 0}, {"is_disabled": 0, "fusion_lon": 0.0, "fusion_lat": 0.0, "lat": 38.931387666666666, "type": "electric_scooter", "lon": -77.0573145, "bike_id": "e3a683a0cdddd88c9564d7177af57f0f", "rental_uris": {"android": "https://dc.lft.to/lastmile_qr_scan", "ios": "https://dc.lft.to/lastmile_qr_scan"}, "name": "e3a683a0cdddd88c9564d7177af57f0f", "is_reserved": 0}, {"is_disabled": 0, "fusion_lon": 0.0, "fusion_lat": 0.0, "lat": 38.8936185, "type": "electric_scooter", "lon": -77.039624, "bike_id": "146c3ca211d6f808abcd7be47c1ad375", "rental_uris": {"android": "https://dc.lft.to/lastmile_qr_scan", "ios": "https://dc.lft.to/lastmile_qr_scan"}, "name": "146c3ca211d6f808abcd7be47c1ad375", "is_reserved": 0}, {"is_disabled": 0, "fusion_lon": 0.0, "fusion_lat": 0.0, "lat": 38.8922075, "type": "electric_scooter", "lon": -77.02262083333333, "bike_id": "2db269f417b98d1bdf389db4c4e00532", "rental_uris": {"android": "https://dc.lft.to/lastmile_qr_scan", "ios": "https://dc.lft.to/lastmile_qr_scan"}, "name": "2db269f417b98d1bdf389db4c4e00532", "is_reserved": 0}, {"is_disabled": 0, "fusion_lon": 0.0, "fusion_lat": 0.0, "lat": 38.903858666666665, "type": "electric_scooter", "lon": -77.04875683333333, "bike_id": "ef3a9008c6488b0569c41e8ab54cb81b", "rental_uris": {"android": "https://dc.lft.to/lastmile_qr_scan", "ios": "https://dc.lft.to/lastmile_qr_scan"}, "name": "ef3a9008c6488b0569c41e8ab54cb81b", "is_reserved": 0}, {"is_disabled": 0, "fusion_lon": 0.0, "fusion_lat": 0.0, "lat": 38.9142735, "type": "electric_scooter", "lon": -77.03179133333333, "bike_id": "0003944ba7dd81dc66e6ca9789e1bcae", "rental_uris": {"android": "https://dc.lft.to/lastmile_qr_scan", "ios": "https://dc.lft.to/lastmile_qr_scan"}, "name": "0003944ba7dd81dc66e6ca9789e1bcae", "is_reserved": 0}, {"is_disabled": 0, "fusion_lon": 0.0, "fusion_lat": 0.0, "lat": 38.92526183333333, "type": "electric_scooter", "lon": -77.04418716666666, "bike_id": "8fdc42e6647f2245a35c500b6bc16589", "rental_uris": {"android": "https://dc.lft.to/lastmile_qr_scan", "ios": "https://dc.lft.to/lastmile_qr_scan"}, "name": "8fdc42e6647f2245a35c500b6bc16589", "is_reserved": 0}, {"is_disabled": 0, "fusion_lon": 0.0, "fusion_lat": 0.0, "lat": 38.9053855, "type": "electric_scooter", "lon": -77.05085216666667, "bike_id": "b0f2276f5995ab1876f3e20f16f98bdf", "rental_uris": {"android": "https://dc.lft.to/lastmile_qr_scan", "ios": "https://dc.lft.to/lastmile_qr_scan"}, "name": "b0f2276f5995ab1876f3e20f16f98bdf", "is_reserved": 0}, {"is_disabled": 0, "fusion_lon": 0.0, "fusion_lat": 0.0, "lat": 38.90005383333333, "type": "electric_scooter", "lon": -76.99873383333333, "bike_id": "8f45fd38c297d4d8ff4f87a1fb5000bf", "rental_uris": {"android": "https://dc.lft.to/lastmile_qr_scan", "ios": "https://dc.lft.to/lastmile_qr_scan"}, "name": "8f45fd38c297d4d8ff4f87a1fb5000bf", "is_reserved": 0}, {"is_disabled": 0, "fusion_lon": 0.0, "fusion_lat": 0.0, "lat": 38.916356666666665, "type": "electric_scooter", "lon": -77.040196, "bike_id": "c72b6092abad19287a98409d88f29ab2", "rental_uris": {"android": "https://dc.lft.to/lastmile_qr_scan", "ios": "https://dc.lft.to/lastmile_qr_scan"}, "name": "c72b6092abad19287a98409d88f29ab2", "is_reserved": 0}, {"is_disabled": 0, "fusion_lon": 0.0, "fusion_lat": 0.0, "lat": 38.91570166666666, "type": "electric_scooter", "lon": -77.03151133333333, "bike_id": "e9bb012951591fc35d5521d803d189e3", "rental_uris": {"android": "https://dc.lft.to/lastmile_qr_scan", "ios": "https://dc.lft.to/lastmile_qr_scan"}, "name": "e9bb012951591fc35d5521d803d189e3", "is_reserved": 0}, {"is_disabled": 0, "fusion_lon": 0.0, "fusion_lat": 0.0, "lat": 38.90470366666667, "type": "electric_scooter", "lon": -77.00125816666667, "bike_id": "9eff77f8ab335b117dea0e88625e31c0", "rental_uris": {"android": "https://dc.lft.to/lastmile_qr_scan", "ios": "https://dc.lft.to/lastmile_qr_scan"}, "name": "9eff77f8ab335b117dea0e88625e31c0", "is_reserved": 0}, {"is_disabled": 0, "fusion_lon": 0.0, "fusion_lat": 0.0, "lat": 38.895370166666666, "type": "electric_scooter", "lon": -77.041296, "bike_id": "b95dff00315d33e260a726562cc87dc7", "rental_uris": {"android": "https://dc.lft.to/lastmile_qr_scan", "ios": "https://dc.lft.to/lastmile_qr_scan"}, "name": "b95dff00315d33e260a726562cc87dc7", "is_reserved": 0}, {"is_disabled": 0, "fusion_lon": 0.0, "fusion_lat": 0.0, "lat": 38.8983345, "type": "electric_scooter", "lon": -76.94633866666666, "bike_id": "56fc6abcbd7adef52aff3ffe6efd6e77", "rental_uris": {"android": "https://dc.lft.to/lastmile_qr_scan", "ios": "https://dc.lft.to/lastmile_qr_scan"}, "name": "56fc6abcbd7adef52aff3ffe6efd6e77", "is_reserved": 0}, {"is_disabled": 0, "fusion_lon": 0.0, "fusion_lat": 0.0, "lat": 38.91126516666667, "type": "electric_scooter", "lon": -77.05933083333333, "bike_id": "8ca24198bae646eaabe36c354720ac5c", "rental_uris": {"android": "https://dc.lft.to/lastmile_qr_scan", "ios": "https://dc.lft.to/lastmile_qr_scan"}, "name": "8ca24198bae646eaabe36c354720ac5c", "is_reserved": 0}, {"is_disabled": 0, "fusion_lon": 0.0, "fusion_lat": 0.0, "lat": 38.88488433333333, "type": "electric_scooter", "lon": -76.92964266666667, "bike_id": "0007c52be455f0399941ce93b9aa3620", "rental_uris": {"android": "https://dc.lft.to/lastmile_qr_scan", "ios": "https://dc.lft.to/lastmile_qr_scan"}, "name": "0007c52be455f0399941ce93b9aa3620", "is_reserved": 0}, {"is_disabled": 0, "fusion_lon": 0.0, "fusion_lat": 0.0, "lat": 38.92895466666667, "type": "electric_scooter", "lon": -77.03229866666666, "bike_id": "c544c8ac4a0f0904e463d1e1690a09b0", "rental_uris": {"android": "https://dc.lft.to/lastmile_qr_scan", "ios": "https://dc.lft.to/lastmile_qr_scan"}, "name": "c544c8ac4a0f0904e463d1e1690a09b0", "is_reserved": 0}, {"is_disabled": 0, "fusion_lon": 0.0, "fusion_lat": 0.0, "lat": 39.0300125, "type": "electric_bike", "lon": -77.1065165, "bike_id": "f47f092984a53e0f33331c8b800abb73", "rental_uris": {"android": "https://dc.lft.to/lastmile_qr_scan", "ios": "https://dc.lft.to/lastmile_qr_scan"}, "name": "f47f092984a53e0f33331c8b800abb73", "is_reserved": 0}, {"is_disabled": 0, "fusion_lon": 0.0, "fusion_lat": 0.0, "lat": 38.924844666666665, "type": "electric_scooter", "lon": -77.027265, "bike_id": "f96d2d457018cf0ed3cb79f488c3dd98", "rental_uris": {"android": "https://dc.lft.to/lastmile_qr_scan", "ios": "https://dc.lft.to/lastmile_qr_scan"}, "name": "f96d2d457018cf0ed3cb79f488c3dd98", "is_reserved": 0}, {"is_disabled": 0, "fusion_lon": 0.0, "fusion_lat": 0.0, "lat": 38.842926166666665, "type": "electric_scooter", "lon": -76.999461, "bike_id": "fa3fd26f1cb58495db6432ac37fc0233", "rental_uris": {"android": "https://dc.lft.to/lastmile_qr_scan", "ios": "https://dc.lft.to/lastmile_qr_scan"}, "name": "fa3fd26f1cb58495db6432ac37fc0233", "is_reserved": 0}, {"is_disabled": 0, "fusion_lon": 0.0, "fusion_lat": 0.0, "lat": 38.918256166666666, "type": "electric_scooter", "lon": -77.03639683333333, "bike_id": "0f8c59f860c5154b5c822b426d17e13c", "rental_uris": {"android": "https://dc.lft.to/lastmile_qr_scan", "ios": "https://dc.lft.to/lastmile_qr_scan"}, "name": "0f8c59f860c5154b5c822b426d17e13c", "is_reserved": 0}, {"is_disabled": 0, "fusion_lon": 0.0, "fusion_lat": 0.0, "lat": 38.90833283333333, "type": "electric_scooter", "lon": -76.99703933333333, "bike_id": "a6cd5b6a6ab18a1b4cb3eb534e5fa7a3", "rental_uris": {"android": "https://dc.lft.to/lastmile_qr_scan", "ios": "https://dc.lft.to/lastmile_qr_scan"}, "name": "a6cd5b6a6ab18a1b4cb3eb534e5fa7a3", "is_reserved": 0}, {"is_disabled": 0, "fusion_lon": 0.0, "fusion_lat": 0.0, "lat": 38.897302333333336, "type": "electric_scooter", "lon": -77.04674766666666, "bike_id": "140feb03adf7f2bb0094d873108d814e", "rental_uris": {"android": "https://dc.lft.to/lastmile_qr_scan", "ios": "https://dc.lft.to/lastmile_qr_scan"}, "name": "140feb03adf7f2bb0094d873108d814e", "is_reserved": 0}, {"is_disabled": 0, "fusion_lon": 0.0, "fusion_lat": 0.0, "lat": 38.94038, "type": "electric_scooter", "lon": -77.02517883333333, "bike_id": "8ac375ccf3427b156b91ca9105f0a1c5", "rental_uris": {"android": "https://dc.lft.to/lastmile_qr_scan", "ios": "https://dc.lft.to/lastmile_qr_scan"}, "name": "8ac375ccf3427b156b91ca9105f0a1c5", "is_reserved": 0}, {"is_disabled": 0, "fusion_lon": 0.0, "fusion_lat": 0.0, "lat": 38.91415966666667, "type": "electric_scooter", "lon": -77.022313, "bike_id": "46106eb7d2d4cb4436cf7d6fbb708f11", "rental_uris": {"android": "https://dc.lft.to/lastmile_qr_scan", "ios": "https://dc.lft.to/lastmile_qr_scan"}, "name": "46106eb7d2d4cb4436cf7d6fbb708f11", "is_reserved": 0}, {"is_disabled": 0, "fusion_lon": 0.0, "fusion_lat": 0.0, "lat": 38.910659333333335, "type": "electric_scooter", "lon": -77.08241583333333, "bike_id": "a5aa6da249f0d23c79ddec79add93bf6", "rental_uris": {"android": "https://dc.lft.to/lastmile_qr_scan", "ios": "https://dc.lft.to/lastmile_qr_scan"}, "name": "a5aa6da249f0d23c79ddec79add93bf6", "is_reserved": 0}, {"is_disabled": 0, "fusion_lon": 0.0, "fusion_lat": 0.0, "lat": 38.911897333333336, "type": "electric_scooter", "lon": -77.01877566666667, "bike_id": "90f08978403a67db22da2658fc56e26b", "rental_uris": {"android": "https://dc.lft.to/lastmile_qr_scan", "ios": "https://dc.lft.to/lastmile_qr_scan"}, "name": "90f08978403a67db22da2658fc56e26b", "is_reserved": 0}, {"is_disabled": 0, "fusion_lon": 0.0, "fusion_lat": 0.0, "lat": 38.98563816666667, "type": "electric_bike", "lon": -76.988271, "bike_id": "a5fd1e744c520f01a003760d9ac1b8e3", "rental_uris": {"android": "https://dc.lft.to/lastmile_qr_scan", "ios": "https://dc.lft.to/lastmile_qr_scan"}, "name": "a5fd1e744c520f01a003760d9ac1b8e3", "is_reserved": 0}, {"is_disabled": 0, "fusion_lon": 0.0, "fusion_lat": 0.0, "lat": 38.90527633333333, "type": "electric_scooter", "lon": -77.05083683333334, "bike_id": "5b97f580ec2ec77ea06cd18573c9e78a", "rental_uris": {"android": "https://dc.lft.to/lastmile_qr_scan", "ios": "https://dc.lft.to/lastmile_qr_scan"}, "name": "5b97f580ec2ec77ea06cd18573c9e78a", "is_reserved": 0}, {"is_disabled": 0, "fusion_lon": 0.0, "fusion_lat": 0.0, "lat": 38.89957666666667, "type": "electric_scooter", "lon": -77.0522, "bike_id": "f2f38bac56488379155da3ff39afb145", "rental_uris": {"android": "https://dc.lft.to/lastmile_qr_scan", "ios": "https://dc.lft.to/lastmile_qr_scan"}, "name": "f2f38bac56488379155da3ff39afb145", "is_reserved": 0}, {"is_disabled": 0, "fusion_lon": 0.0, "fusion_lat": 0.0, "lat": 38.89261533333333, "type": "electric_scooter", "lon": -76.94159216666667, "bike_id": "980deb41aeb9ce51e9b1cd67b6ea8399", "rental_uris": {"android": "https://dc.lft.to/lastmile_qr_scan", "ios": "https://dc.lft.to/lastmile_qr_scan"}, "name": "980deb41aeb9ce51e9b1cd67b6ea8399", "is_reserved": 0}, {"is_disabled": 0, "fusion_lon": 0.0, "fusion_lat": 0.0, "lat": 38.922616, "type": "electric_scooter", "lon": -77.03522483333333, "bike_id": "987b894a85447447e23329f407894b70", "rental_uris": {"android": "https://dc.lft.to/lastmile_qr_scan", "ios": "https://dc.lft.to/lastmile_qr_scan"}, "name": "987b894a85447447e23329f407894b70", "is_reserved": 0}, {"is_disabled": 0, "fusion_lon": 0.0, "fusion_lat": 0.0, "lat": 38.892207666666664, "type": "electric_scooter", "lon": -77.01556016666666, "bike_id": "18ec119502ec84fa95de9166f9f4ee72", "rental_uris": {"android": "https://dc.lft.to/lastmile_qr_scan", "ios": "https://dc.lft.to/lastmile_qr_scan"}, "name": "18ec119502ec84fa95de9166f9f4ee72", "is_reserved": 0}, {"is_disabled": 0, "fusion_lon": 0.0, "fusion_lat": 0.0, "lat": 38.865053833333334, "type": "electric_scooter", "lon": -76.9900205, "bike_id": "045be85b2c93f6f89dbfac5c7b63580e", "rental_uris": {"android": "https://dc.lft.to/lastmile_qr_scan", "ios": "https://dc.lft.to/lastmile_qr_scan"}, "name": "045be85b2c93f6f89dbfac5c7b63580e", "is_reserved": 0}, {"is_disabled": 0, "fusion_lon": 0.0, "fusion_lat": 0.0, "lat": 38.91878216666667, "type": "electric_scooter", "lon": -77.04183383333333, "bike_id": "b9c3bf8ea35af669b59ffc3767ebcb48", "rental_uris": {"android": "https://dc.lft.to/lastmile_qr_scan", "ios": "https://dc.lft.to/lastmile_qr_scan"}, "name": "b9c3bf8ea35af669b59ffc3767ebcb48", "is_reserved": 0}, {"is_disabled": 0, "fusion_lon": 0.0, "fusion_lat": 0.0, "lat": 38.90948616666667, "type": "electric_scooter", "lon": -77.01525183333334, "bike_id": "991625dc2eaba29621c7496ee4208970", "rental_uris": {"android": "https://dc.lft.to/lastmile_qr_scan", "ios": "https://dc.lft.to/lastmile_qr_scan"}, "name": "991625dc2eaba29621c7496ee4208970", "is_reserved": 0}, {"is_disabled": 0, "fusion_lon": 0.0, "fusion_lat": 0.0, "lat": 38.92160583333333, "type": "electric_scooter", "lon": -77.0325525, "bike_id": "d79b534550cb3dfe638039c94d1fb5ae", "rental_uris": {"android": "https://dc.lft.to/lastmile_qr_scan", "ios": "https://dc.lft.to/lastmile_qr_scan"}, "name": "d79b534550cb3dfe638039c94d1fb5ae", "is_reserved": 0}, {"is_disabled": 0, "fusion_lon": 0.0, "fusion_lat": 0.0, "lat": 38.88632, "type": "electric_scooter", "lon": -77.02254383333333, "bike_id": "5401b24f43a746ab3ec89e678678e693", "rental_uris": {"android": "https://dc.lft.to/lastmile_qr_scan", "ios": "https://dc.lft.to/lastmile_qr_scan"}, "name": "5401b24f43a746ab3ec89e678678e693", "is_reserved": 0}, {"is_disabled": 0, "fusion_lon": 0.0, "fusion_lat": 0.0, "lat": 38.917427333333336, "type": "electric_scooter", "lon": -77.036583, "bike_id": "fbb144814ad78d073a543efb0f5e3040", "rental_uris": {"android": "https://dc.lft.to/lastmile_qr_scan", "ios": "https://dc.lft.to/lastmile_qr_scan"}, "name": "fbb144814ad78d073a543efb0f5e3040", "is_reserved": 0}, {"is_disabled": 0, "fusion_lon": 0.0, "fusion_lat": 0.0, "lat": 38.89849, "type": "electric_scooter", "lon": -77.03113116666667, "bike_id": "f2230fe02b61b6a2246f71d8104abd0d", "rental_uris": {"android": "https://dc.lft.to/lastmile_qr_scan", "ios": "https://dc.lft.to/lastmile_qr_scan"}, "name": "f2230fe02b61b6a2246f71d8104abd0d", "is_reserved": 0}, {"is_disabled": 0, "fusion_lon": 0.0, "fusion_lat": 0.0, "lat": 38.901345166666665, "type": "electric_scooter", "lon": -77.0418245, "bike_id": "5312750e36454a4346c771bd82fb2448", "rental_uris": {"android": "https://dc.lft.to/lastmile_qr_scan", "ios": "https://dc.lft.to/lastmile_qr_scan"}, "name": "5312750e36454a4346c771bd82fb2448", "is_reserved": 0}, {"is_disabled": 0, "fusion_lon": 0.0, "fusion_lat": 0.0, "lat": 38.9452, "type": "electric_scooter", "lon": -77.02976466666667, "bike_id": "59e5a793ef88fdfd6dabc24e2cfe4bac", "rental_uris": {"android": "https://dc.lft.to/lastmile_qr_scan", "ios": "https://dc.lft.to/lastmile_qr_scan"}, "name": "59e5a793ef88fdfd6dabc24e2cfe4bac", "is_reserved": 0}, {"is_disabled": 0, "fusion_lon": 0.0, "fusion_lat": 0.0, "lat": 38.907689500000004, "type": "electric_scooter", "lon": -77.0385915, "bike_id": "739f022d39b86c85de20b76877f73023", "rental_uris": {"android": "https://dc.lft.to/lastmile_qr_scan", "ios": "https://dc.lft.to/lastmile_qr_scan"}, "name": "739f022d39b86c85de20b76877f73023", "is_reserved": 0}, {"is_disabled": 0, "fusion_lon": 0.0, "fusion_lat": 0.0, "lat": 38.910174166666664, "type": "electric_scooter", "lon": -77.0364695, "bike_id": "77aaf89a17429e7821060436c934d02d", "rental_uris": {"android": "https://dc.lft.to/lastmile_qr_scan", "ios": "https://dc.lft.to/lastmile_qr_scan"}, "name": "77aaf89a17429e7821060436c934d02d", "is_reserved": 0}, {"is_disabled": 0, "fusion_lon": 0.0, "fusion_lat": 0.0, "lat": 38.88377066666666, "type": "electric_scooter", "lon": -76.92372533333334, "bike_id": "7621d0b7877d9aa117cc09873d6cb3a5", "rental_uris": {"android": "https://dc.lft.to/lastmile_qr_scan", "ios": "https://dc.lft.to/lastmile_qr_scan"}, "name": "7621d0b7877d9aa117cc09873d6cb3a5", "is_reserved": 0}, {"is_disabled": 0, "fusion_lon": 0.0, "fusion_lat": 0.0, "lat": 38.88380516666667, "type": "electric_scooter", "lon": -77.01951366666667, "bike_id": "4c60523c1dd11e01ad8da123ab9152e3", "rental_uris": {"android": "https://dc.lft.to/lastmile_qr_scan", "ios": "https://dc.lft.to/lastmile_qr_scan"}, "name": "4c60523c1dd11e01ad8da123ab9152e3", "is_reserved": 0}, {"is_disabled": 0, "fusion_lon": 0.0, "fusion_lat": 0.0, "lat": 38.9027985, "type": "electric_scooter", "lon": -77.03638483333333, "bike_id": "c2639fb990ec64a8765069dddfdf258d", "rental_uris": {"android": "https://dc.lft.to/lastmile_qr_scan", "ios": "https://dc.lft.to/lastmile_qr_scan"}, "name": "c2639fb990ec64a8765069dddfdf258d", "is_reserved": 0}, {"is_disabled": 0, "fusion_lon": 0.0, "fusion_lat": 0.0, "lat": 38.926702666666664, "type": "electric_bike", "lon": -77.00812633333334, "bike_id": "89ba9477da886c022b6f4afa1ca8ac71", "rental_uris": {"android": "https://dc.lft.to/lastmile_qr_scan", "ios": "https://dc.lft.to/lastmile_qr_scan"}, "name": "89ba9477da886c022b6f4afa1ca8ac71", "is_reserved": 0}, {"is_disabled": 0, "fusion_lon": 0.0, "fusion_lat": 0.0, "lat": 38.906828, "type": "electric_scooter", "lon": -77.03113966666666, "bike_id": "e4ad00b8dd1328c29198680ae78e2747", "rental_uris": {"android": "https://dc.lft.to/lastmile_qr_scan", "ios": "https://dc.lft.to/lastmile_qr_scan"}, "name": "e4ad00b8dd1328c29198680ae78e2747", "is_reserved": 0}, {"is_disabled": 0, "fusion_lon": 0.0, "fusion_lat": 0.0, "lat": 38.902039333333335, "type": "electric_scooter", "lon": -76.981923, "bike_id": "00a38cde406eebb4a997d1d179e0f432", "rental_uris": {"android": "https://dc.lft.to/lastmile_qr_scan", "ios": "https://dc.lft.to/lastmile_qr_scan"}, "name": "00a38cde406eebb4a997d1d179e0f432", "is_reserved": 0}, {"is_disabled": 0, "fusion_lon": 0.0, "fusion_lat": 0.0, "lat": 38.90068516666667, "type": "electric_scooter", "lon": -77.04873183333333, "bike_id": "432c966659c0c7d7a3f7aa2a062312b0", "rental_uris": {"android": "https://dc.lft.to/lastmile_qr_scan", "ios": "https://dc.lft.to/lastmile_qr_scan"}, "name": "432c966659c0c7d7a3f7aa2a062312b0", "is_reserved": 0}, {"is_disabled": 0, "fusion_lon": 0.0, "fusion_lat": 0.0, "lat": 38.91806366666667, "type": "electric_scooter", "lon": -77.03436166666667, "bike_id": "37c9406edacbb89c7218f0b89f2fa8e9", "rental_uris": {"android": "https://dc.lft.to/lastmile_qr_scan", "ios": "https://dc.lft.to/lastmile_qr_scan"}, "name": "37c9406edacbb89c7218f0b89f2fa8e9", "is_reserved": 0}, {"is_disabled": 0, "fusion_lon": 0.0, "fusion_lat": 0.0, "lat": 38.906001333333336, "type": "electric_scooter", "lon": -77.063744, "bike_id": "b1442595ea973e8f80857b4136abb0f5", "rental_uris": {"android": "https://dc.lft.to/lastmile_qr_scan", "ios": "https://dc.lft.to/lastmile_qr_scan"}, "name": "b1442595ea973e8f80857b4136abb0f5", "is_reserved": 0}, {"is_disabled": 0, "fusion_lon": 0.0, "fusion_lat": 0.0, "lat": 38.8949445, "type": "electric_scooter", "lon": -77.022006, "bike_id": "5e163916c20d022490d69fb200c259ff", "rental_uris": {"android": "https://dc.lft.to/lastmile_qr_scan", "ios": "https://dc.lft.to/lastmile_qr_scan"}, "name": "5e163916c20d022490d69fb200c259ff", "is_reserved": 0}, {"is_disabled": 0, "fusion_lon": 0.0, "fusion_lat": 0.0, "lat": 38.915394166666665, "type": "electric_scooter", "lon": -77.03210116666666, "bike_id": "e2b0d2929c03d17c12773fc112ca0d49", "rental_uris": {"android": "https://dc.lft.to/lastmile_qr_scan", "ios": "https://dc.lft.to/lastmile_qr_scan"}, "name": "e2b0d2929c03d17c12773fc112ca0d49", "is_reserved": 0}, {"is_disabled": 0, "fusion_lon": 0.0, "fusion_lat": 0.0, "lat": 38.827318166666664, "type": "electric_bike", "lon": -77.00861016666667, "bike_id": "ff5d5df38343e95f95813cb857b5a6cd", "rental_uris": {"android": "https://dc.lft.to/lastmile_qr_scan", "ios": "https://dc.lft.to/lastmile_qr_scan"}, "name": "ff5d5df38343e95f95813cb857b5a6cd", "is_reserved": 0}, {"is_disabled": 0, "fusion_lon": 0.0, "fusion_lat": 0.0, "lat": 38.850692333333335, "type": "electric_scooter", "lon": -76.965304, "bike_id": "e1df185d0ee09effd6e3394a94d16825", "rental_uris": {"android": "https://dc.lft.to/lastmile_qr_scan", "ios": "https://dc.lft.to/lastmile_qr_scan"}, "name": "e1df185d0ee09effd6e3394a94d16825", "is_reserved": 0}, {"is_disabled": 0, "fusion_lon": 0.0, "fusion_lat": 0.0, "lat": 38.90150416666667, "type": "electric_scooter", "lon": -77.0415475, "bike_id": "9a484430cf214483a66b49f2db8cf86b", "rental_uris": {"android": "https://dc.lft.to/lastmile_qr_scan", "ios": "https://dc.lft.to/lastmile_qr_scan"}, "name": "9a484430cf214483a66b49f2db8cf86b", "is_reserved": 0}, {"is_disabled": 0, "fusion_lon": 0.0, "fusion_lat": 0.0, "lat": 38.907279, "type": "electric_scooter", "lon": -77.04010316666667, "bike_id": "75753daaf0ba99beb24782f079190616", "rental_uris": {"android": "https://dc.lft.to/lastmile_qr_scan", "ios": "https://dc.lft.to/lastmile_qr_scan"}, "name": "75753daaf0ba99beb24782f079190616", "is_reserved": 0}, {"is_disabled": 0, "fusion_lon": 0.0, "fusion_lat": 0.0, "lat": 38.9057535, "type": "electric_scooter", "lon": -77.03363116666667, "bike_id": "eaca8a9adcdafbf5d1baf358e1637fd3", "rental_uris": {"android": "https://dc.lft.to/lastmile_qr_scan", "ios": "https://dc.lft.to/lastmile_qr_scan"}, "name": "eaca8a9adcdafbf5d1baf358e1637fd3", "is_reserved": 0}, {"is_disabled": 0, "fusion_lon": 0.0, "fusion_lat": 0.0, "lat": 38.91547933333333, "type": "electric_scooter", "lon": -77.03853, "bike_id": "37f8ccb251ac7ef230a100b1db21553c", "rental_uris": {"android": "https://dc.lft.to/lastmile_qr_scan", "ios": "https://dc.lft.to/lastmile_qr_scan"}, "name": "37f8ccb251ac7ef230a100b1db21553c", "is_reserved": 0}, {"is_disabled": 0, "fusion_lon": 0.0, "fusion_lat": 0.0, "lat": 38.905724666666664, "type": "electric_scooter", "lon": -77.02178133333334, "bike_id": "8e276a76abf35021ad729384ed682529", "rental_uris": {"android": "https://dc.lft.to/lastmile_qr_scan", "ios": "https://dc.lft.to/lastmile_qr_scan"}, "name": "8e276a76abf35021ad729384ed682529", "is_reserved": 0}, {"is_disabled": 0, "fusion_lon": 0.0, "fusion_lat": 0.0, "lat": 38.83122316666667, "type": "electric_bike", "lon": -77.04323066666667, "bike_id": "5dda5cc48bd98fdb9be64ac24c33c769", "rental_uris": {"android": "https://dc.lft.to/lastmile_qr_scan", "ios": "https://dc.lft.to/lastmile_qr_scan"}, "name": "5dda5cc48bd98fdb9be64ac24c33c769", "is_reserved": 0}, {"is_disabled": 0, "fusion_lon": 0.0, "fusion_lat": 0.0, "lat": 38.897219, "type": "electric_scooter", "lon": -77.0207485, "bike_id": "559237f40b338052717efe0596c8fbba", "rental_uris": {"android": "https://dc.lft.to/lastmile_qr_scan", "ios": "https://dc.lft.to/lastmile_qr_scan"}, "name": "559237f40b338052717efe0596c8fbba", "is_reserved": 0}, {"is_disabled": 0, "fusion_lon": 0.0, "fusion_lat": 0.0, "lat": 38.90044283333334, "type": "electric_scooter", "lon": -76.98817566666666, "bike_id": "a525dc68779200141d78485bac02740e", "rental_uris": {"android": "https://dc.lft.to/lastmile_qr_scan", "ios": "https://dc.lft.to/lastmile_qr_scan"}, "name": "a525dc68779200141d78485bac02740e", "is_reserved": 0}, {"is_disabled": 0, "fusion_lon": 0.0, "fusion_lat": 0.0, "lat": 38.888653833333336, "type": "electric_scooter", "lon": -76.97735066666667, "bike_id": "722265d1512125310d422a482b138ed0", "rental_uris": {"android": "https://dc.lft.to/lastmile_qr_scan", "ios": "https://dc.lft.to/lastmile_qr_scan"}, "name": "722265d1512125310d422a482b138ed0", "is_reserved": 0}, {"is_disabled": 0, "fusion_lon": 0.0, "fusion_lat": 0.0, "lat": 38.893155, "type": "electric_scooter", "lon": -77.01961466666667, "bike_id": "ccda7bfcf7e2d9f0e1bddce6e2aed9be", "rental_uris": {"android": "https://dc.lft.to/lastmile_qr_scan", "ios": "https://dc.lft.to/lastmile_qr_scan"}, "name": "ccda7bfcf7e2d9f0e1bddce6e2aed9be", "is_reserved": 0}, {"is_disabled": 0, "fusion_lon": 0.0, "fusion_lat": 0.0, "lat": 38.9015385, "type": "electric_scooter", "lon": -77.04177883333334, "bike_id": "fadde34eb3ec7b6abd19526f1cff635d", "rental_uris": {"android": "https://dc.lft.to/lastmile_qr_scan", "ios": "https://dc.lft.to/lastmile_qr_scan"}, "name": "fadde34eb3ec7b6abd19526f1cff635d", "is_reserved": 0}, {"is_disabled": 0, "fusion_lon": 0.0, "fusion_lat": 0.0, "lat": 38.907359166666666, "type": "electric_scooter", "lon": -77.03468816666667, "bike_id": "42f720d5729a8d714ec7da5b43263b24", "rental_uris": {"android": "https://dc.lft.to/lastmile_qr_scan", "ios": "https://dc.lft.to/lastmile_qr_scan"}, "name": "42f720d5729a8d714ec7da5b43263b24", "is_reserved": 0}, {"is_disabled": 0, "fusion_lon": 0.0, "fusion_lat": 0.0, "lat": 38.89210883333333, "type": "electric_bike", "lon": -76.98551516666667, "bike_id": "ae5fe1a4f882cf806d7096d1496f185d", "rental_uris": {"android": "https://dc.lft.to/lastmile_qr_scan", "ios": "https://dc.lft.to/lastmile_qr_scan"}, "name": "ae5fe1a4f882cf806d7096d1496f185d", "is_reserved": 0}, {"is_disabled": 0, "fusion_lon": 0.0, "fusion_lat": 0.0, "lat": 38.95608633333333, "type": "electric_scooter", "lon": -77.027922, "bike_id": "21a77a4413c257f797f3526573d4f89a", "rental_uris": {"android": "https://dc.lft.to/lastmile_qr_scan", "ios": "https://dc.lft.to/lastmile_qr_scan"}, "name": "21a77a4413c257f797f3526573d4f89a", "is_reserved": 0}, {"is_disabled": 0, "fusion_lon": 0.0, "fusion_lat": 0.0, "lat": 38.9386635, "type": "electric_scooter", "lon": -77.02648766666667, "bike_id": "93acf8dac9b2be2dfc0c24b28cbc6153", "rental_uris": {"android": "https://dc.lft.to/lastmile_qr_scan", "ios": "https://dc.lft.to/lastmile_qr_scan"}, "name": "93acf8dac9b2be2dfc0c24b28cbc6153", "is_reserved": 0}, {"is_disabled": 0, "fusion_lon": 0.0, "fusion_lat": 0.0, "lat": 38.87656, "type": "electric_scooter", "lon": -77.00810283333334, "bike_id": "ea5a003b186fd3b20144adbe2b5c3f8d", "rental_uris": {"android": "https://dc.lft.to/lastmile_qr_scan", "ios": "https://dc.lft.to/lastmile_qr_scan"}, "name": "ea5a003b186fd3b20144adbe2b5c3f8d", "is_reserved": 0}, {"is_disabled": 0, "fusion_lon": 0.0, "fusion_lat": 0.0, "lat": 38.917077666666664, "type": "electric_bike", "lon": -77.220979, "bike_id": "0611be20e15edff027b6ebbd0291ffae", "rental_uris": {"android": "https://dc.lft.to/lastmile_qr_scan", "ios": "https://dc.lft.to/lastmile_qr_scan"}, "name": "0611be20e15edff027b6ebbd0291ffae", "is_reserved": 0}, {"is_disabled": 0, "fusion_lon": 0.0, "fusion_lat": 0.0, "lat": 39.03884983333333, "type": "electric_bike", "lon": -77.10909666666667, "bike_id": "cbe78de01b635c6693881868f8611136", "rental_uris": {"android": "https://dc.lft.to/lastmile_qr_scan", "ios": "https://dc.lft.to/lastmile_qr_scan"}, "name": "cbe78de01b635c6693881868f8611136", "is_reserved": 0}, {"is_disabled": 0, "fusion_lon": 0.0, "fusion_lat": 0.0, "lat": 38.86659616666667, "type": "electric_scooter", "lon": -76.98881583333333, "bike_id": "088fe22736f6777a835fbb69d644411a", "rental_uris": {"android": "https://dc.lft.to/lastmile_qr_scan", "ios": "https://dc.lft.to/lastmile_qr_scan"}, "name": "088fe22736f6777a835fbb69d644411a", "is_reserved": 0}, {"is_disabled": 0, "fusion_lon": 0.0, "fusion_lat": 0.0, "lat": 38.89838533333333, "type": "electric_scooter", "lon": -77.02976983333333, "bike_id": "4abdcb39c128d93435000915122bc9ca", "rental_uris": {"android": "https://dc.lft.to/lastmile_qr_scan", "ios": "https://dc.lft.to/lastmile_qr_scan"}, "name": "4abdcb39c128d93435000915122bc9ca", "is_reserved": 0}, {"is_disabled": 0, "fusion_lon": 0.0, "fusion_lat": 0.0, "lat": 38.95327733333333, "type": "electric_scooter", "lon": -77.06852333333333, "bike_id": "580a0a4b34b4fd81c2d2b7e238cc886d", "rental_uris": {"android": "https://dc.lft.to/lastmile_qr_scan", "ios": "https://dc.lft.to/lastmile_qr_scan"}, "name": "580a0a4b34b4fd81c2d2b7e238cc886d", "is_reserved": 0}, {"is_disabled": 0, "fusion_lon": 0.0, "fusion_lat": 0.0, "lat": 38.93671233333333, "type": "electric_bike", "lon": -76.9520525, "bike_id": "1fa85ed0876c9a087c7c266617385975", "rental_uris": {"android": "https://dc.lft.to/lastmile_qr_scan", "ios": "https://dc.lft.to/lastmile_qr_scan"}, "name": "1fa85ed0876c9a087c7c266617385975", "is_reserved": 0}, {"is_disabled": 0, "fusion_lon": 0.0, "fusion_lat": 0.0, "lat": 38.8973485, "type": "electric_scooter", "lon": -77.00375133333333, "bike_id": "75f9115e50ccd4670e356b6580e2d812", "rental_uris": {"android": "https://dc.lft.to/lastmile_qr_scan", "ios": "https://dc.lft.to/lastmile_qr_scan"}, "name": "75f9115e50ccd4670e356b6580e2d812", "is_reserved": 0}, {"is_disabled": 0, "fusion_lon": 0.0, "fusion_lat": 0.0, "lat": 38.90539233333333, "type": "electric_scooter", "lon": -77.048876, "bike_id": "0070304b93c2fe5953b42ae85bc5a46e", "rental_uris": {"android": "https://dc.lft.to/lastmile_qr_scan", "ios": "https://dc.lft.to/lastmile_qr_scan"}, "name": "0070304b93c2fe5953b42ae85bc5a46e", "is_reserved": 0}, {"is_disabled": 0, "fusion_lon": 0.0, "fusion_lat": 0.0, "lat": 38.91479533333333, "type": "electric_scooter", "lon": -77.03465566666667, "bike_id": "2707cb00f1f4ae7cc63dba7fdf287fed", "rental_uris": {"android": "https://dc.lft.to/lastmile_qr_scan", "ios": "https://dc.lft.to/lastmile_qr_scan"}, "name": "2707cb00f1f4ae7cc63dba7fdf287fed", "is_reserved": 0}, {"is_disabled": 0, "fusion_lon": 0.0, "fusion_lat": 0.0, "lat": 38.898263, "type": "electric_scooter", "lon": -77.03349683333333, "bike_id": "234ef89c748d68f2303b61cf026b33e1", "rental_uris": {"android": "https://dc.lft.to/lastmile_qr_scan", "ios": "https://dc.lft.to/lastmile_qr_scan"}, "name": "234ef89c748d68f2303b61cf026b33e1", "is_reserved": 0}, {"is_disabled": 0, "fusion_lon": 0.0, "fusion_lat": 0.0, "lat": 38.913388166666664, "type": "electric_scooter", "lon": -77.03269933333333, "bike_id": "f1ac00f8de03b116a60a710b9e1907e9", "rental_uris": {"android": "https://dc.lft.to/lastmile_qr_scan", "ios": "https://dc.lft.to/lastmile_qr_scan"}, "name": "f1ac00f8de03b116a60a710b9e1907e9", "is_reserved": 0}, {"is_disabled": 0, "fusion_lon": 0.0, "fusion_lat": 0.0, "lat": 38.884259666666665, "type": "electric_scooter", "lon": -76.954175, "bike_id": "05ccbffa092a6488d13d1939eadcfbba", "rental_uris": {"android": "https://dc.lft.to/lastmile_qr_scan", "ios": "https://dc.lft.to/lastmile_qr_scan"}, "name": "05ccbffa092a6488d13d1939eadcfbba", "is_reserved": 0}, {"is_disabled": 0, "fusion_lon": 0.0, "fusion_lat": 0.0, "lat": 38.892072166666665, "type": "electric_scooter", "lon": -76.9880855, "bike_id": "a7fbcd8413136fbc5ee79697d736ea33", "rental_uris": {"android": "https://dc.lft.to/lastmile_qr_scan", "ios": "https://dc.lft.to/lastmile_qr_scan"}, "name": "a7fbcd8413136fbc5ee79697d736ea33", "is_reserved": 0}, {"is_disabled": 0, "fusion_lon": 0.0, "fusion_lat": 0.0, "lat": 38.917904166666666, "type": "electric_scooter", "lon": -77.034518, "bike_id": "7637c24d5400d47f01f607c777bd8905", "rental_uris": {"android": "https://dc.lft.to/lastmile_qr_scan", "ios": "https://dc.lft.to/lastmile_qr_scan"}, "name": "7637c24d5400d47f01f607c777bd8905", "is_reserved": 0}, {"is_disabled": 0, "fusion_lon": 0.0, "fusion_lat": 0.0, "lat": 39.0884305, "type": "electric_bike", "lon": -77.17801233333333, "bike_id": "b0783110b5eebd5747e31d967b30ca0b", "rental_uris": {"android": "https://dc.lft.to/lastmile_qr_scan", "ios": "https://dc.lft.to/lastmile_qr_scan"}, "name": "b0783110b5eebd5747e31d967b30ca0b", "is_reserved": 0}, {"is_disabled": 0, "fusion_lon": 0.0, "fusion_lat": 0.0, "lat": 38.9243945, "type": "electric_bike", "lon": -76.907599, "bike_id": "65030d34df373203c71f9cd90dbeeab4", "rental_uris": {"android": "https://dc.lft.to/lastmile_qr_scan", "ios": "https://dc.lft.to/lastmile_qr_scan"}, "name": "65030d34df373203c71f9cd90dbeeab4", "is_reserved": 0}, {"is_disabled": 0, "fusion_lon": 0.0, "fusion_lat": 0.0, "lat": 38.91539683333333, "type": "electric_scooter", "lon": -77.03208483333333, "bike_id": "405eb1bc15f08132bd88a89d69d3870d", "rental_uris": {"android": "https://dc.lft.to/lastmile_qr_scan", "ios": "https://dc.lft.to/lastmile_qr_scan"}, "name": "405eb1bc15f08132bd88a89d69d3870d", "is_reserved": 0}, {"is_disabled": 0, "fusion_lon": 0.0, "fusion_lat": 0.0, "lat": 38.90697316666667, "type": "electric_scooter", "lon": -77.06304416666667, "bike_id": "af8f7fb95a0f08d1ffd45577d58af6c8", "rental_uris": {"android": "https://dc.lft.to/lastmile_qr_scan", "ios": "https://dc.lft.to/lastmile_qr_scan"}, "name": "af8f7fb95a0f08d1ffd45577d58af6c8", "is_reserved": 0}, {"is_disabled": 0, "fusion_lon": 0.0, "fusion_lat": 0.0, "lat": 38.928681, "type": "electric_scooter", "lon": -77.02732033333334, "bike_id": "b8334dd03a214b0d1ffad98daa312b93", "rental_uris": {"android": "https://dc.lft.to/lastmile_qr_scan", "ios": "https://dc.lft.to/lastmile_qr_scan"}, "name": "b8334dd03a214b0d1ffad98daa312b93", "is_reserved": 0}, {"is_disabled": 0, "fusion_lon": 0.0, "fusion_lat": 0.0, "lat": 38.917948833333334, "type": "electric_scooter", "lon": -77.031772, "bike_id": "2b02fbb5c09b55c70072626790c8b2a5", "rental_uris": {"android": "https://dc.lft.to/lastmile_qr_scan", "ios": "https://dc.lft.to/lastmile_qr_scan"}, "name": "2b02fbb5c09b55c70072626790c8b2a5", "is_reserved": 0}, {"is_disabled": 0, "fusion_lon": 0.0, "fusion_lat": 0.0, "lat": 38.917029666666664, "type": "electric_scooter", "lon": -77.02616933333333, "bike_id": "848b9cbe7ec4e484091df0f9a5504168", "rental_uris": {"android": "https://dc.lft.to/lastmile_qr_scan", "ios": "https://dc.lft.to/lastmile_qr_scan"}, "name": "848b9cbe7ec4e484091df0f9a5504168", "is_reserved": 0}, {"is_disabled": 0, "fusion_lon": 0.0, "fusion_lat": 0.0, "lat": 38.91440166666667, "type": "electric_scooter", "lon": -77.00888766666667, "bike_id": "56fdf84d43adb7617e838c9c5103f565", "rental_uris": {"android": "https://dc.lft.to/lastmile_qr_scan", "ios": "https://dc.lft.to/lastmile_qr_scan"}, "name": "56fdf84d43adb7617e838c9c5103f565", "is_reserved": 0}, {"is_disabled": 0, "fusion_lon": 0.0, "fusion_lat": 0.0, "lat": 38.91978233333333, "type": "electric_scooter", "lon": -77.04182566666667, "bike_id": "6c37df987db1c4081e36066e5e86ccb6", "rental_uris": {"android": "https://dc.lft.to/lastmile_qr_scan", "ios": "https://dc.lft.to/lastmile_qr_scan"}, "name": "6c37df987db1c4081e36066e5e86ccb6", "is_reserved": 0}, {"is_disabled": 0, "fusion_lon": 0.0, "fusion_lat": 0.0, "lat": 38.89833383333333, "type": "electric_scooter", "lon": -77.02208683333333, "bike_id": "36a32b1f7e864737eb7a5dbfff4be56b", "rental_uris": {"android": "https://dc.lft.to/lastmile_qr_scan", "ios": "https://dc.lft.to/lastmile_qr_scan"}, "name": "36a32b1f7e864737eb7a5dbfff4be56b", "is_reserved": 0}, {"is_disabled": 0, "fusion_lon": 0.0, "fusion_lat": 0.0, "lat": 38.95616883333334, "type": "electric_scooter", "lon": -77.02761566666666, "bike_id": "484bc904d33c5799561b23967d54b320", "rental_uris": {"android": "https://dc.lft.to/lastmile_qr_scan", "ios": "https://dc.lft.to/lastmile_qr_scan"}, "name": "484bc904d33c5799561b23967d54b320", "is_reserved": 0}, {"is_disabled": 0, "fusion_lon": 0.0, "fusion_lat": 0.0, "lat": 38.897400833333336, "type": "electric_scooter", "lon": -77.01595366666666, "bike_id": "211e5ced9eda14e072d9e277bf4a568c", "rental_uris": {"android": "https://dc.lft.to/lastmile_qr_scan", "ios": "https://dc.lft.to/lastmile_qr_scan"}, "name": "211e5ced9eda14e072d9e277bf4a568c", "is_reserved": 0}, {"is_disabled": 0, "fusion_lon": 0.0, "fusion_lat": 0.0, "lat": 38.912031666666664, "type": "electric_scooter", "lon": -77.00079516666666, "bike_id": "3b2a94ff3323cde95978f0965b535518", "rental_uris": {"android": "https://dc.lft.to/lastmile_qr_scan", "ios": "https://dc.lft.to/lastmile_qr_scan"}, "name": "3b2a94ff3323cde95978f0965b535518", "is_reserved": 0}, {"is_disabled": 0, "fusion_lon": 0.0, "fusion_lat": 0.0, "lat": 38.8997115, "type": "electric_scooter", "lon": -77.01619666666667, "bike_id": "a32c462cba586dd60b4cb0d1873712a9", "rental_uris": {"android": "https://dc.lft.to/lastmile_qr_scan", "ios": "https://dc.lft.to/lastmile_qr_scan"}, "name": "a32c462cba586dd60b4cb0d1873712a9", "is_reserved": 0}, {"is_disabled": 0, "fusion_lon": 0.0, "fusion_lat": 0.0, "lat": 38.9444145, "type": "electric_scooter", "lon": -77.06030616666666, "bike_id": "e0ff4937ecf6a57b05e36e7ae72e4e78", "rental_uris": {"android": "https://dc.lft.to/lastmile_qr_scan", "ios": "https://dc.lft.to/lastmile_qr_scan"}, "name": "e0ff4937ecf6a57b05e36e7ae72e4e78", "is_reserved": 0}, {"is_disabled": 0, "fusion_lon": 0.0, "fusion_lat": 0.0, "lat": 38.91140033333333, "type": "electric_scooter", "lon": -76.98484983333333, "bike_id": "d3db9efe782bbe88668b3c14b4afd801", "rental_uris": {"android": "https://dc.lft.to/lastmile_qr_scan", "ios": "https://dc.lft.to/lastmile_qr_scan"}, "name": "d3db9efe782bbe88668b3c14b4afd801", "is_reserved": 0}, {"is_disabled": 0, "fusion_lon": 0.0, "fusion_lat": 0.0, "lat": 38.9163855, "type": "electric_scooter", "lon": -77.050606, "bike_id": "da0781840b529411ac1d42df9f19d134", "rental_uris": {"android": "https://dc.lft.to/lastmile_qr_scan", "ios": "https://dc.lft.to/lastmile_qr_scan"}, "name": "da0781840b529411ac1d42df9f19d134", "is_reserved": 0}, {"is_disabled": 0, "fusion_lon": 0.0, "fusion_lat": 0.0, "lat": 38.92477933333333, "type": "electric_scooter", "lon": -77.02666033333334, "bike_id": "20132552049279c2e64ab5208f3f2d4f", "rental_uris": {"android": "https://dc.lft.to/lastmile_qr_scan", "ios": "https://dc.lft.to/lastmile_qr_scan"}, "name": "20132552049279c2e64ab5208f3f2d4f", "is_reserved": 0}, {"is_disabled": 0, "fusion_lon": 0.0, "fusion_lat": 0.0, "lat": 38.8947575, "type": "electric_scooter", "lon": -76.9772715, "bike_id": "eb36994b9ae310a580ed6255a6d0ba60", "rental_uris": {"android": "https://dc.lft.to/lastmile_qr_scan", "ios": "https://dc.lft.to/lastmile_qr_scan"}, "name": "eb36994b9ae310a580ed6255a6d0ba60", "is_reserved": 0}, {"is_disabled": 0, "fusion_lon": 0.0, "fusion_lat": 0.0, "lat": 38.909334666666666, "type": "electric_scooter", "lon": -76.9920985, "bike_id": "de3e46848b969e67cc88765a7f6b1a53", "rental_uris": {"android": "https://dc.lft.to/lastmile_qr_scan", "ios": "https://dc.lft.to/lastmile_qr_scan"}, "name": "de3e46848b969e67cc88765a7f6b1a53", "is_reserved": 0}, {"is_disabled": 0, "fusion_lon": 0.0, "fusion_lat": 0.0, "lat": 38.900090666666664, "type": "electric_scooter", "lon": -77.006579, "bike_id": "cc2dfa770adfb41864682c3675c43e03", "rental_uris": {"android": "https://dc.lft.to/lastmile_qr_scan", "ios": "https://dc.lft.to/lastmile_qr_scan"}, "name": "cc2dfa770adfb41864682c3675c43e03", "is_reserved": 0}, {"is_disabled": 0, "fusion_lon": 0.0, "fusion_lat": 0.0, "lat": 38.904276, "type": "electric_scooter", "lon": -77.02604833333334, "bike_id": "0d59063af9547bcf2856cdfbde2cb90a", "rental_uris": {"android": "https://dc.lft.to/lastmile_qr_scan", "ios": "https://dc.lft.to/lastmile_qr_scan"}, "name": "0d59063af9547bcf2856cdfbde2cb90a", "is_reserved": 0}, {"is_disabled": 0, "fusion_lon": 0.0, "fusion_lat": 0.0, "lat": 38.8429215, "type": "electric_scooter", "lon": -76.99948066666667, "bike_id": "28a86817bc664939b4fa223ea4b76834", "rental_uris": {"android": "https://dc.lft.to/lastmile_qr_scan", "ios": "https://dc.lft.to/lastmile_qr_scan"}, "name": "28a86817bc664939b4fa223ea4b76834", "is_reserved": 0}, {"is_disabled": 0, "fusion_lon": 0.0, "fusion_lat": 0.0, "lat": 38.902454, "type": "electric_scooter", "lon": -77.05220466666667, "bike_id": "48e21939651fc48a6c808145540f50c2", "rental_uris": {"android": "https://dc.lft.to/lastmile_qr_scan", "ios": "https://dc.lft.to/lastmile_qr_scan"}, "name": "48e21939651fc48a6c808145540f50c2", "is_reserved": 0}, {"is_disabled": 0, "fusion_lon": 0.0, "fusion_lat": 0.0, "lat": 38.91681333333333, "type": "electric_scooter", "lon": -77.0269055, "bike_id": "f5d01fa0b1cd657e559099bbbce308ce", "rental_uris": {"android": "https://dc.lft.to/lastmile_qr_scan", "ios": "https://dc.lft.to/lastmile_qr_scan"}, "name": "f5d01fa0b1cd657e559099bbbce308ce", "is_reserved": 0}, {"is_disabled": 0, "fusion_lon": 0.0, "fusion_lat": 0.0, "lat": 38.91742633333333, "type": "electric_scooter", "lon": -77.03655866666666, "bike_id": "79c2258cf0118a4a115dc09d2f0199fd", "rental_uris": {"android": "https://dc.lft.to/lastmile_qr_scan", "ios": "https://dc.lft.to/lastmile_qr_scan"}, "name": "79c2258cf0118a4a115dc09d2f0199fd", "is_reserved": 0}, {"is_disabled": 0, "fusion_lon": 0.0, "fusion_lat": 0.0, "lat": 38.8870635, "type": "electric_scooter", "lon": -76.9536375, "bike_id": "4f2ed59b25367a6141d9a47d9f896cbf", "rental_uris": {"android": "https://dc.lft.to/lastmile_qr_scan", "ios": "https://dc.lft.to/lastmile_qr_scan"}, "name": "4f2ed59b25367a6141d9a47d9f896cbf", "is_reserved": 0}, {"is_disabled": 0, "fusion_lon": 0.0, "fusion_lat": 0.0, "lat": 38.9199455, "type": "electric_scooter", "lon": -76.98396266666667, "bike_id": "17f3a50e947f283352c12bffbbde51ec", "rental_uris": {"android": "https://dc.lft.to/lastmile_qr_scan", "ios": "https://dc.lft.to/lastmile_qr_scan"}, "name": "17f3a50e947f283352c12bffbbde51ec", "is_reserved": 0}, {"is_disabled": 0, "fusion_lon": 0.0, "fusion_lat": 0.0, "lat": 38.917672833333334, "type": "electric_scooter", "lon": -77.03209866666667, "bike_id": "3796e2755990849af1a2359d91f2ed2b", "rental_uris": {"android": "https://dc.lft.to/lastmile_qr_scan", "ios": "https://dc.lft.to/lastmile_qr_scan"}, "name": "3796e2755990849af1a2359d91f2ed2b", "is_reserved": 0}, {"is_disabled": 0, "fusion_lon": 0.0, "fusion_lat": 0.0, "lat": 38.915533, "type": "electric_scooter", "lon": -77.038726, "bike_id": "f93662766b6a1f46a351b061dafbc8ba", "rental_uris": {"android": "https://dc.lft.to/lastmile_qr_scan", "ios": "https://dc.lft.to/lastmile_qr_scan"}, "name": "f93662766b6a1f46a351b061dafbc8ba", "is_reserved": 0}, {"is_disabled": 0, "fusion_lon": 0.0, "fusion_lat": 0.0, "lat": 38.89747466666667, "type": "electric_scooter", "lon": -77.051243, "bike_id": "85f961b0ce31436b7c40c0e3f87bbb26", "rental_uris": {"android": "https://dc.lft.to/lastmile_qr_scan", "ios": "https://dc.lft.to/lastmile_qr_scan"}, "name": "85f961b0ce31436b7c40c0e3f87bbb26", "is_reserved": 0}, {"is_disabled": 0, "fusion_lon": 0.0, "fusion_lat": 0.0, "lat": 38.865956, "type": "electric_bike", "lon": -76.93231416666667, "bike_id": "a485c12985c0c0abe50b4572e5dc71e4", "rental_uris": {"android": "https://dc.lft.to/lastmile_qr_scan", "ios": "https://dc.lft.to/lastmile_qr_scan"}, "name": "a485c12985c0c0abe50b4572e5dc71e4", "is_reserved": 0}, {"is_disabled": 0, "fusion_lon": 0.0, "fusion_lat": 0.0, "lat": 38.85216333333334, "type": "electric_bike", "lon": -77.127635, "bike_id": "5b347753f24872e9364c7788b49dabab", "rental_uris": {"android": "https://dc.lft.to/lastmile_qr_scan", "ios": "https://dc.lft.to/lastmile_qr_scan"}, "name": "5b347753f24872e9364c7788b49dabab", "is_reserved": 0}, {"is_disabled": 0, "fusion_lon": 0.0, "fusion_lat": 0.0, "lat": 38.89746983333333, "type": "electric_scooter", "lon": -77.04718633333333, "bike_id": "b2a9143d099bc15f2c365d64602020b7", "rental_uris": {"android": "https://dc.lft.to/lastmile_qr_scan", "ios": "https://dc.lft.to/lastmile_qr_scan"}, "name": "b2a9143d099bc15f2c365d64602020b7", "is_reserved": 0}, {"is_disabled": 0, "fusion_lon": 0.0, "fusion_lat": 0.0, "lat": 38.94499316666667, "type": "electric_bike", "lon": -77.006798, "bike_id": "29b528b95986133df11604d622052f9a", "rental_uris": {"android": "https://dc.lft.to/lastmile_qr_scan", "ios": "https://dc.lft.to/lastmile_qr_scan"}, "name": "29b528b95986133df11604d622052f9a", "is_reserved": 0},