{"data": {"bikes": [{"bike_id": "967827acc5d0228a2e79f0263727df8f", "fusion_lon": 0.0, "lon": -76.98457433333333, "name": "967827acc5d0228a2e79f0263727df8f", "is_disabled": 0, "rental_uris": {"android": "https://dc.lft.to/lastmile_qr_scan", "ios": "https://dc.lft.to/lastmile_qr_scan"}, "type": "electric_scooter", "lat": 38.880182833333336, "is_reserved": 0, "fusion_lat": 0.0}, {"bike_id": "4157efd430b2a41d0cd7dcae168f5130", "fusion_lon": 0.0, "lon": -77.1101915, "name": "4157efd430b2a41d0cd7dcae168f5130", "is_disabled": 0, "rental_uris": {"android": "https://dc.lft.to/lastmile_qr_scan", "ios": "https://dc.lft.to/lastmile_qr_scan"}, "type": "electric_bike", "lat": 38.847476, "is_reserved": 0, "fusion_lat": 0.0}, {"bike_id": "c1d0bf6da7828d370b40e0a6ddd4be53", "fusion_lon": 0.0, "lon": -77.0271195, "name": "c1d0bf6da7828d370b40e0a6ddd4be53", "is_disabled": 0, "rental_uris": {"android": "https://dc.lft.to/lastmile_qr_scan", "ios": "https://dc.lft.to/lastmile_qr_scan"}, "type": "electric_scooter", "lat": 38.881495, "is_reserved": 0, "fusion_lat": 0.0}, {"bike_id": "0558e64ac85e597abecb4ff1ab08230a", "fusion_lon": 0.0, "lon": -77.01672466666666, "name": "0558e64ac85e597abecb4ff1ab08230a", "is_disabled": 0, "rental_uris": {"android": "https://dc.lft.to/lastmile_qr_scan", "ios": "https://dc.lft.to/lastmile_qr_scan"}, "type": "electric_scooter", "lat": 38.881155166666666, "is_reserved": 0, "fusion_lat": 0.0}, {"bike_id": "70ec6c82feb9da8d9397ee628a1b4dc2", "fusion_lon": 0.0, "lon": -77.023523, "name": "70ec6c82feb9da8d9397ee628a1b4dc2", "is_disabled": 0, "rental_uris": {"android": "https://dc.lft.to/lastmile_qr_scan", "ios": "https://dc.lft.to/lastmile_qr_scan"}, "type": "electric_scooter", "lat": 38.907252166666666, "is_reserved": 0, "fusion_lat": 0.0}, {"bike_id": "59244430ac8217748d189f92f70f07a8", "fusion_lon": 0.0, "lon": -76.9862405, "name": "59244430ac8217748d189f92f70f07a8", "is_disabled": 0, "rental_uris": {"android": "https://dc.lft.to/lastmile_qr_scan", "ios": "https://dc.lft.to/lastmile_qr_scan"}, "type": "electric_scooter", "lat": 38.880508166666665, "is_reserved": 0, "fusion_lat": 0.0}, {"bike_id": "f1792d4f9fe1fda18010c4b4366e60b5", "fusion_lon": 0.0, "lon": -77.05088016666667, "name": "f1792d4f9fe1fda18010c4b4366e60b5", "is_disabled": 0, "rental_uris": {"android": "https://dc.lft.to/lastmile_qr_scan", "ios": "https://dc.lft.to/lastmile_qr_scan"}, "type": "electric_bike", "lat": 38.81332966666667, "is_reserved": 0, "fusion_lat": 0.0}, {"bike_id": "b13b61c56cedf75216b3d0b84a3fd2da", "fusion_lon": 0.0, "lon": -77.02152883333333, "name": "b13b61c56cedf75216b3d0b84a3fd2da", "is_disabled": 0, "rental_uris": {"android": "https://dc.lft.to/lastmile_qr_scan", "ios": "https://dc.lft.to/lastmile_qr_scan"}, "type": "electric_scooter", "lat": 38.90955983333333, "is_reserved": 0, "fusion_lat": 0.0}, {"bike_id": "5b46d08c324cf00a63b36163985b035e", "fusion_lon": 0.0, "lon": -77.11598533333333, "name": "5b46d08c324cf00a63b36163985b035e", "is_disabled": 0, "rental_uris": {"android": "https://dc.lft.to/lastmile_qr_scan", "ios": "https://dc.lft.to/lastmile_qr_scan"}, "type": "electric_bike", "lat": 39.07491683333333, "is_reserved": 0, "fusion_lat": 0.0}, {"bike_id": "50b944f9318afef9f3b459b75e2b6974", "fusion_lon": 0.0, "lon": -77.03642083333334, "name": "50b944f9318afef9f3b459b75e2b6974", "is_disabled": 0, "rental_uris": {"android": "https://dc.lft.to/lastmile_qr_scan", "ios": "https://dc.lft.to/lastmile_qr_scan"}, "type": "electric_scooter", "lat": 38.923872333333335, "is_reserved": 0, "fusion_lat": 0.0}, {"bike_id": "172743eb2a27da66922609e4e637025b", "fusion_lon": 0.0, "lon": -76.98824183333333, "name": "172743eb2a27da66922609e4e637025b", "is_disabled": 0, "rental_uris": {"android": "https://dc.lft.to/lastmile_qr_scan", "ios": "https://dc.lft.to/lastmile_qr_scan"}, "type": "electric_scooter", "lat": 38.90035183333333, "is_reserved": 0, "fusion_lat": 0.0}, {"bike_id": "6fd1cc86bc488828d5164ec3236680c6", "fusion_lon": 0.0, "lon": -77.03477316666667, "name": "6fd1cc86bc488828d5164ec3236680c6", "is_disabled": 0, "rental_uris": {"android": "https://dc.lft.to/lastmile_qr_scan", "ios": "https://dc.lft.to/lastmile_qr_scan"}, "type": "electric_scooter", "lat": 38.91705683333333, "is_reserved": 0, "fusion_lat": 0.0}, {"bike_id": "e364f1e3beee281c5b7c05bb9db59eed", "fusion_lon": 0.0, "lon": -77.02687066666667, "name": "e364f1e3beee281c5b7c05bb9db59eed", "is_disabled": 0, "rental_uris": {"android": "https://dc.lft.to/lastmile_qr_scan", "ios": "https://dc.lft.to/lastmile_qr_scan"}, "type": "electric_scooter", "lat": 38.92379116666667, "is_reserved": 0, "fusion_lat": 0.0}, {"bike_id": "3e5fc20f7734abcc0cca776c9ff52745", "fusion_lon": 0.0, "lon": -77.03100816666667, "name": "3e5fc20f7734abcc0cca776c9ff52745", "is_disabled": 0, "rental_uris": {"android": "https://dc.lft.to/lastmile_qr_scan", "ios": "https://dc.lft.to/lastmile_qr_scan"}, "type": "electric_scooter", "lat": 38.8947195, "is_reserved": 0, "fusion_lat": 0.0}, {"bike_id": "3731e05bed07900b08a21248fc14c1ee", "fusion_lon": 0.0, "lon": -77.05499733333333, "name": "3731e05bed07900b08a21248fc14c1ee", "is_disabled": 0, "rental_uris": {"android": "https://dc.lft.to/lastmile_qr_scan", "ios": "https://dc.lft.to/lastmile_qr_scan"}, "type": "electric_scooter", "lat": 38.93667033333333, "is_reserved": 0, "fusion_lat": 0.0}, {"bike_id": "c1fbea1b92520cb93dd011020605fe4a", "fusion_lon": 0.0, "lon": -77.02114516666667, "name": "c1fbea1b92520cb93dd011020605fe4a", "is_disabled": 0, "rental_uris": {"android": "https://dc.lft.to/lastmile_qr_scan", "ios": "https://dc.lft.to/lastmile_qr_scan"}, "type": "electric_scooter", "lat": 38.917375166666666, "is_reserved": 0, "fusion_lat": 0.0}, {"bike_id": "48e4d8cb8b7b4a2ce0926fb2fd5ddb72", "fusion_lon": 0.0, "lon": -77.1175935, "name": "48e4d8cb8b7b4a2ce0926fb2fd5ddb72", "is_disabled": 0, "rental_uris": {"android": "https://dc.lft.to/lastmile_qr_scan", "ios": "https://dc.lft.to/lastmile_qr_scan"}, "type": "electric_bike", "lat": 39.0490805, "is_reserved": 0, "fusion_lat": 0.0}, {"bike_id": "842d0d66d9a81f3b922d00cdf4c16a5d", "fusion_lon": 0.0, "lon": -76.99219033333333, "name": "842d0d66d9a81f3b922d00cdf4c16a5d", "is_disabled": 0, "rental_uris": {"android": "https://dc.lft.to/lastmile_qr_scan", "ios": "https://dc.lft.to/lastmile_qr_scan"}, "type": "electric_bike", "lat": 38.8973985, "is_reserved": 0, "fusion_lat": 0.0}, {"bike_id": "7ac76a6ba04ff699a8e76a23451480a2", "fusion_lon": 0.0, "lon": -77.01132483333333, "name": "7ac76a6ba04ff699a8e76a23451480a2", "is_disabled": 0, "rental_uris": {"android": "https://dc.lft.to/lastmile_qr_scan", "ios": "https://dc.lft.to/lastmile_qr_scan"}, "type": "electric_scooter", "lat": 38.8852395, "is_reserved": 0, "fusion_lat": 0.0}, {"bike_id": "c5418104d976576a2a042656245a83e3", "fusion_lon": 0.0, "lon": -77.04308083333333, "name": "c5418104d976576a2a042656245a83e3", "is_disabled": 0, "rental_uris": {"android": "https://dc.lft.to/lastmile_qr_scan", "ios": "https://dc.lft.to/lastmile_qr_scan"}, "type": "electric_scooter", "lat": 38.881070333333334, "is_reserved": 0, "fusion_lat": 0.0}, {"bike_id": "6eff979be2e7e03f28b3e2fcb3981ebd", "fusion_lon": 0.0, "lon": -76.99370916666666, "name": "6eff979be2e7e03f28b3e2fcb3981ebd", "is_disabled": 0, "rental_uris": {"android": "https://dc.lft.to/lastmile_qr_scan", "ios": "https://dc.lft.to/lastmile_qr_scan"}, "type": "electric_scooter", "lat": 38.924018333333336, "is_reserved": 0, "fusion_lat": 0.0}, {"bike_id": "2f7e8418266da3eb4ecdc85b9888eb35", "fusion_lon": 0.0, "lon": -77.0217115, "name": "2f7e8418266da3eb4ecdc85b9888eb35", "is_disabled": 0, "rental_uris": {"android": "https://dc.lft.to/lastmile_qr_scan", "ios": "https://dc.lft.to/lastmile_qr_scan"}, "type": "electric_scooter", "lat": 38.9429515, "is_reserved": 0, "fusion_lat": 0.0}, {"bike_id": "84308ee34a43f1e66ddc13bc248452ea", "fusion_lon": 0.0, "lon": -77.06607866666667, "name": "84308ee34a43f1e66ddc13bc248452ea", "is_disabled": 0, "rental_uris": {"android": "https://dc.lft.to/lastmile_qr_scan", "ios": "https://dc.lft.to/lastmile_qr_scan"}, "type": "electric_scooter", "lat": 38.90375433333333, "is_reserved": 0, "fusion_lat": 0.0}, {"bike_id": "bb0ba2e4f1e0792ac0ff751fbf8dc459", "fusion_lon": 0.0, "lon": -77.02364383333334, "name": "bb0ba2e4f1e0792ac0ff751fbf8dc459", "is_disabled": 0, "rental_uris": {"android": "https://dc.lft.to/lastmile_qr_scan", "ios": "https://dc.lft.to/lastmile_qr_scan"}, "type": "electric_scooter", "lat": 38.8847545, "is_reserved": 0, "fusion_lat": 0.0}, {"bike_id": "69f92706a5354c8eae6dd8bef0719d67", "fusion_lon": 0.0, "lon": -76.97185033333334, "name": "69f92706a5354c8eae6dd8bef0719d67", "is_disabled": 0, "rental_uris": {"android": "https://dc.lft.to/lastmile_qr_scan", "ios": "https://dc.lft.to/lastmile_qr_scan"}, "type": "electric_bike", "lat": 38.9179425, "is_reserved": 0, "fusion_lat": 0.0}, {"bike_id": "8f74f82dab79af36775d95f9a941da05", "fusion_lon": 0.0, "lon": -77.05007933333333, "name": "8f74f82dab79af36775d95f9a941da05", "is_disabled": 0, "rental_uris": {"android": "https://dc.lft.to/lastmile_qr_scan", "ios": "https://dc.lft.to/lastmile_qr_scan"}, "type": "electric_scooter", "lat": 38.905377333333334, "is_reserved": 0, "fusion_lat": 0.0}, {"bike_id": "0063c10500f99018d3e92f85fe18059f", "fusion_lon": 0.0, "lon": -77.131437, "name": "0063c10500f99018d3e92f85fe18059f", "is_disabled": 0, "rental_uris": {"android": "https://dc.lft.to/lastmile_qr_scan", "ios": "https://dc.lft.to/lastmile_qr_scan"}, "type": "electric_bike", "lat": 38.8617195, "is_reserved": 0, "fusion_lat": 0.0}, {"bike_id": "7b1f8b572588b72ad60ab75cfe30b70a", "fusion_lon": 0.0, "lon": -77.0249105, "name": "7b1f8b572588b72ad60ab75cfe30b70a", "is_disabled": 0, "rental_uris": {"android": "https://dc.lft.to/lastmile_qr_scan", "ios": "https://dc.lft.to/lastmile_qr_scan"}, "type": "electric_scooter", "lat": 38.9418605, "is_reserved": 0, "fusion_lat": 0.0}, {"bike_id": "08b786c5b361ba4ce786c5b0656c65a5", "fusion_lon": 0.0, "lon": -77.0204055, "name": "08b786c5b361ba4ce786c5b0656c65a5", "is_disabled": 0, "rental_uris": {"android": "https://dc.lft.to/lastmile_qr_scan", "ios": "https://dc.lft.to/lastmile_qr_scan"}, "type": "electric_scooter", "lat": 38.90158383333333, "is_reserved": 0, "fusion_lat": 0.0}, {"bike_id": "5c8aa7eebb18f171ff1e31858c8bf096", "fusion_lon": 0.0, "lon": -77.03897166666667, "name": "5c8aa7eebb18f171ff1e31858c8bf096", "is_disabled": 0, "rental_uris": {"android": "https://dc.lft.to/lastmile_qr_scan", "ios": "https://dc.lft.to/lastmile_qr_scan"}, "type": "electric_scooter", "lat": 38.92204816666667, "is_reserved": 0, "fusion_lat": 0.0}, {"bike_id": "a579a78fd43b4816d6b8c7ebf7e07fa9", "fusion_lon": 0.0, "lon": -77.04188383333333, "name": "a579a78fd43b4816d6b8c7ebf7e07fa9", "is_disabled": 0, "rental_uris": {"android": "https://dc.lft.to/lastmile_qr_scan", "ios": "https://dc.lft.to/lastmile_qr_scan"}, "type": "electric_scooter", "lat": 38.920292333333336, "is_reserved": 0, "fusion_lat": 0.0}, {"bike_id": "cc5f1ebec426dfe293a3bbd940dc56ee", "fusion_lon": 0.0, "lon": -76.99537566666666, "name": "cc5f1ebec426dfe293a3bbd940dc56ee", "is_disabled": 0, "rental_uris": {"android": "https://dc.lft.to/lastmile_qr_scan", "ios": "https://dc.lft.to/lastmile_qr_scan"}, "type": "electric_scooter", "lat": 38.86246366666666, "is_reserved": 0, "fusion_lat": 0.0}, {"bike_id": "ba1009036dc4fd5bfe31518c740802e2", "fusion_lon": 0.0, "lon": -77.04140366666667, "name": "ba1009036dc4fd5bfe31518c740802e2", "is_disabled": 0, "rental_uris": {"android": "https://dc.lft.to/lastmile_qr_scan", "ios": "https://dc.lft.to/lastmile_qr_scan"}, "type": "electric_scooter", "lat": 38.92268466666667, "is_reserved": 0, "fusion_lat": 0.0}, {"bike_id": "fa74548b52b6f6b0862455fe6ab44f25", "fusion_lon": 0.0, "lon": -77.04333333333334, "name": "fa74548b52b6f6b0862455fe6ab44f25", "is_disabled": 0, "rental_uris": {"android": "https://dc.lft.to/lastmile_qr_scan", "ios": "https://dc.lft.to/lastmile_qr_scan"}, "type": "electric_scooter", "lat": 38.902550833333336, "is_reserved": 0, "fusion_lat": 0.0}, {"bike_id": "d4d0ac02b59b3200d3f36d39324986f1", "fusion_lon": 0.0, "lon": -77.00205733333334, "name": "d4d0ac02b59b3200d3f36d39324986f1", "is_disabled": 0, "rental_uris": {"android": "https://dc.lft.to/lastmile_qr_scan", "ios": "https://dc.lft.to/lastmile_qr_scan"}, "type": "electric_scooter", "lat": 38.900712, "is_reserved": 0, "fusion_lat": 0.0}, {"bike_id": "bfef637abee7c0aa686f204062076e9d", "fusion_lon": 0.0, "lon": -77.031627, "name": "bfef637abee7c0aa686f204062076e9d", "is_disabled": 0, "rental_uris": {"android": "https://dc.lft.to/lastmile_qr_scan", "ios": "https://dc.lft.to/lastmile_qr_scan"}, "type": "electric_scooter", "lat": 38.90443783333333, "is_reserved": 0, "fusion_lat": 0.0}, {"bike_id": "efde2a90f67dada86191ffbd6d84c96f", "fusion_lon": 0.0, "lon": -77.04044166666667, "name": "efde2a90f67dada86191ffbd6d84c96f", "is_disabled": 0, "rental_uris": {"android": "https://dc.lft.to/lastmile_qr_scan", "ios": "https://dc.lft.to/lastmile_qr_scan"}, "type": "electric_scooter", "lat": 38.89079516666666, "is_reserved": 0, "fusion_lat": 0.0}, {"bike_id": "fa7aeefc0a94c79dc39c83f43b6a1d14", "fusion_lon": 0.0, "lon": -77.03869333333333, "name": "fa7aeefc0a94c79dc39c83f43b6a1d14", "is_disabled": 0, "rental_uris": {"android": "https://dc.lft.to/lastmile_qr_scan", "ios": "https://dc.lft.to/lastmile_qr_scan"}, "type": "electric_scooter", "lat": 38.93248333333333, "is_reserved": 0, "fusion_lat": 0.0}, {"bike_id": "96123555df09cd2acce6fb22f95caf87", "fusion_lon": 0.0, "lon": -76.979712, "name": "96123555df09cd2acce6fb22f95caf87", "is_disabled": 0, "rental_uris": {"android": "https://dc.lft.to/lastmile_qr_scan", "ios": "https://dc.lft.to/lastmile_qr_scan"}, "type": "electric_bike", "lat": 38.95370416666667, "is_reserved": 0, "fusion_lat": 0.0}, {"bike_id": "df1d469ee9d89a3b45524cdd70cec4d1", "fusion_lon": 0.0, "lon": -76.99484383333333, "name": "df1d469ee9d89a3b45524cdd70cec4d1", "is_disabled": 0, "rental_uris": {"android": "https://dc.lft.to/lastmile_qr_scan", "ios": "https://dc.lft.to/lastmile_qr_scan"}, "type": "electric_scooter", "lat": 38.909843, "is_reserved": 0, "fusion_lat": 0.0}, {"bike_id": "fbb7c0749f7d9a54611ff9472355076f", "fusion_lon": 0.0, "lon": -77.0413695, "name": "fbb7c0749f7d9a54611ff9472355076f", "is_disabled": 0, "rental_uris": {"android": "https://dc.lft.to/lastmile_qr_scan", "ios": "https://dc.lft.to/lastmile_qr_scan"}, "type": "electric_scooter", "lat": 38.931285333333335, "is_reserved": 0, "fusion_lat": 0.0}, {"bike_id": "45eea4a85844eb4f5f1d2331b20d0550", "fusion_lon": 0.0, "lon": -77.008368, "name": "45eea4a85844eb4f5f1d2331b20d0550", "is_disabled": 0, "rental_uris": {"android": "https://dc.lft.to/lastmile_qr_scan", "ios": "https://dc.lft.to/lastmile_qr_scan"}, "type": "electric_bike", "lat": 38.82911683333333, "is_reserved": 0, "fusion_lat": 0.0}, {"bike_id": "520817f2902d382effc5ac8293fb97e2", "fusion_lon": 0.0, "lon": -77.03244216666667, "name": "520817f2902d382effc5ac8293fb97e2", "is_disabled": 0, "rental_uris": {"android": "https://dc.lft.to/lastmile_qr_scan", "ios": "https://dc.lft.to/lastmile_qr_scan"}, "type": "electric_scooter", "lat": 38.9296925, "is_reserved": 0, "fusion_lat": 0.0}, {"bike_id": "08012b9d1be52f04853207048b906772", "fusion_lon": 0.0, "lon": -77.02718366666667, "name": "08012b9d1be52f04853207048b906772", "is_disabled": 0, "rental_uris": {"android": "https://dc.lft.to/lastmile_qr_scan", "ios": "https://dc.lft.to/lastmile_qr_scan"}, "type": "electric_scooter", "lat": 38.94957816666667, "is_reserved": 0, "fusion_lat": 0.0}, {"bike_id": "226d8b65fc872aae521c68700fb6b991", "fusion_lon": 0.0, "lon": -77.00564033333333, "name": "226d8b65fc872aae521c68700fb6b991", "is_disabled": 0, "rental_uris": {"android": "https://dc.lft.to/lastmile_qr_scan", "ios": "https://dc.lft.to/lastmile_qr_scan"}, "type": "electric_scooter", "lat": 38.885064, "is_reserved": 0, "fusion_lat": 0.0}, {"bike_id": "cd38523da7b10e105f7a411a7ebdcfec", "fusion_lon": 0.0, "lon": -77.01611433333333, "name": "cd38523da7b10e105f7a411a7ebdcfec", "is_disabled": 0, "rental_uris": {"android": "https://dc.lft.to/lastmile_qr_scan", "ios": "https://dc.lft.to/lastmile_qr_scan"}, "type": "electric_scooter", "lat": 38.895014833333335, "is_reserved": 0, "fusion_lat": 0.0}, {"bike_id": "603db68a2a6a7feb5b701fbd36bb57df", "fusion_lon": 0.0, "lon": -76.99946466666667, "name": "603db68a2a6a7feb5b701fbd36bb57df", "is_disabled": 0, "rental_uris": {"android": "https://dc.lft.to/lastmile_qr_scan", "ios": "https://dc.lft.to/lastmile_qr_scan"}, "type": "electric_scooter", "lat": 38.842953666666666, "is_reserved": 0, "fusion_lat": 0.0}, {"bike_id": "1937c55c089a4343bdbc13c560e150a7", "fusion_lon": 0.0, "lon": -77.01806333333333, "name": "1937c55c089a4343bdbc13c560e150a7", "is_disabled": 0, "rental_uris": {"android": "https://dc.lft.to/lastmile_qr_scan", "ios": "https://dc.lft.to/lastmile_qr_scan"}, "type": "electric_scooter", "lat": 38.921294, "is_reserved": 0, "fusion_lat": 0.0}, {"bike_id": "e39e59dea2b13c53578aa38bf78400d0", "fusion_lon": 0.0, "lon": -76.99713616666666, "name": "e39e59dea2b13c53578aa38bf78400d0", "is_disabled": 0, "rental_uris": {"android": "https://dc.lft.to/lastmile_qr_scan", "ios": "https://dc.lft.to/lastmile_qr_scan"}, "type": "electric_bike", "lat": 38.91105016666667, "is_reserved": 0, "fusion_lat": 0.0}, {"bike_id": "67fbdc0c5a53f10fc87c391a39e7ebf1", "fusion_lon": 0.0, "lon": -76.99388666666667, "name": "67fbdc0c5a53f10fc87c391a39e7ebf1", "is_disabled": 0, "rental_uris": {"android": "https://dc.lft.to/lastmile_qr_scan", "ios": "https://dc.lft.to/lastmile_qr_scan"}, "type": "electric_scooter", "lat": 38.897338166666664, "is_reserved": 0, "fusion_lat": 0.0}, {"bike_id": "84b6e951f542b58ad9a38bddaf2e37d7", "fusion_lon": 0.0, "lon": -77.06408133333333, "name": "84b6e951f542b58ad9a38bddaf2e37d7", "is_disabled": 0, "rental_uris": {"android": "https://dc.lft.to/lastmile_qr_scan", "ios": "https://dc.lft.to/lastmile_qr_scan"}, "type": "electric_scooter", "lat": 38.913758, "is_reserved": 0, "fusion_lat": 0.0}, {"bike_id": "af832d65866e8feebe7f58e22811a01c", "fusion_lon": 0.0, "lon": -77.03638566666666, "name": "af832d65866e8feebe7f58e22811a01c", "is_disabled": 0, "rental_uris": {"android": "https://dc.lft.to/lastmile_qr_scan", "ios": "https://dc.lft.to/lastmile_qr_scan"}, "type": "electric_scooter", "lat": 38.931763, "is_reserved": 0, "fusion_lat": 0.0}, {"bike_id": "8f9995a71ec5ef0c7b52dc71f680542a", "fusion_lon": 0.0, "lon": -77.01990566666667, "name": "8f9995a71ec5ef0c7b52dc71f680542a", "is_disabled": 0, "rental_uris": {"android": "https://dc.lft.to/lastmile_qr_scan", "ios": "https://dc.lft.to/lastmile_qr_scan"}, "type": "electric_scooter", "lat": 38.8955825, "is_reserved": 0, "fusion_lat": 0.0}, {"bike_id": "b4118d25c211f7b3bd2cdfcfa7839842", "fusion_lon": 0.0, "lon": -77.02961866666666, "name": "b4118d25c211f7b3bd2cdfcfa7839842", "is_disabled": 0, "rental_uris": {"android": "https://dc.lft.to/lastmile_qr_scan", "ios": "https://dc.lft.to/lastmile_qr_scan"}, "type": "electric_scooter", "lat": 38.92326283333333, "is_reserved": 0, "fusion_lat": 0.0}, {"bike_id": "70f45e04a396582f005e15f8b29c6040", "fusion_lon": 0.0, "lon": -77.03072233333333, "name": "70f45e04a396582f005e15f8b29c6040", "is_disabled": 0, "rental_uris": {"android": "https://dc.lft.to/lastmile_qr_scan", "ios": "https://dc.lft.to/lastmile_qr_scan"}, "type": "electric_scooter", "lat": 38.917508166666664, "is_reserved": 0, "fusion_lat": 0.0}, {"bike_id": "3b5161e9975d493e17ca2bf9d26b5099", "fusion_lon": 0.0, "lon": -76.98616783333334, "name": "3b5161e9975d493e17ca2bf9d26b5099", "is_disabled": 0, "rental_uris": {"android": "https://dc.lft.to/lastmile_qr_scan", "ios": "https://dc.lft.to/lastmile_qr_scan"}, "type": "electric_scooter", "lat": 38.93829683333333, "is_reserved": 0, "fusion_lat": 0.0}, {"bike_id": "649df2edf1bfe658e36a3668b33d702b", "fusion_lon": 0.0, "lon": -77.0416705, "name": "649df2edf1bfe658e36a3668b33d702b", "is_disabled": 0, "rental_uris": {"android": "https://dc.lft.to/lastmile_qr_scan", "ios": "https://dc.lft.to/lastmile_qr_scan"}, "type": "electric_scooter", "lat": 38.91649616666667, "is_reserved": 0, "fusion_lat": 0.0}, {"bike_id": "701690efad43d454048aa81e4a591a36", "fusion_lon": 0.0, "lon": -77.03202483333334, "name": "701690efad43d454048aa81e4a591a36", "is_disabled": 0, "rental_uris": {"android": "https://dc.lft.to/lastmile_qr_scan", "ios": "https://dc.lft.to/lastmile_qr_scan"}, "type": "electric_scooter", "lat": 38.9071915, "is_reserved": 0, "fusion_lat": 0.0}, {"bike_id": "8ea8de6051efc8a9eafe86bfeafaa3d5", "fusion_lon": 0.0, "lon": -77.03861433333333, "name": "8ea8de6051efc8a9eafe86bfeafaa3d5", "is_disabled": 0, "rental_uris": {"android": "https://dc.lft.to/lastmile_qr_scan", "ios": "https://dc.lft.to/lastmile_qr_scan"}, "type": "electric_scooter", "lat": 38.911003, "is_reserved": 0, "fusion_lat": 0.0}, {"bike_id": "630440a29a5621b1cff8e157898d511b", "fusion_lon": 0.0, "lon": -77.02485566666667, "name": "630440a29a5621b1cff8e157898d511b", "is_disabled": 0, "rental_uris": {"android": "https://dc.lft.to/lastmile_qr_scan", "ios": "https://dc.lft.to/lastmile_qr_scan"}, "type": "electric_scooter", "lat": 38.90316816666667, "is_reserved": 0, "fusion_lat": 0.0}, {"bike_id": "949c9c63e720fb79dd515effa11df34d", "fusion_lon": 0.0, "lon": -77.01775183333334, "name": "949c9c63e720fb79dd515effa11df34d", "is_disabled": 0, "rental_uris": {"android": "https://dc.lft.to/lastmile_qr_scan", "ios": "https://dc.lft.to/lastmile_qr_scan"}, "type": "electric_scooter", "lat": 38.911091666666664, "is_reserved": 0, "fusion_lat": 0.0}, {"bike_id": "5c68f2886ec05c898a198e47686cb0f2", "fusion_lon": 0.0, "lon": -77.04147816666666, "name": "5c68f2886ec05c898a198e47686cb0f2", "is_disabled": 0, "rental_uris": {"android": "https://dc.lft.to/lastmile_qr_scan", "ios": "https://dc.lft.to/lastmile_qr_scan"}, "type": "electric_scooter", "lat": 38.915534, "is_reserved": 0, "fusion_lat": 0.0}, {"bike_id": "4e1a9810d708b9fa3dc47485476a7a23", "fusion_lon": 0.0, "lon": -77.04340683333334, "name": "4e1a9810d708b9fa3dc47485476a7a23", "is_disabled": 0, "rental_uris": {"android": "https://dc.lft.to/lastmile_qr_scan", "ios": "https://dc.lft.to/lastmile_qr_scan"}, "type": "electric_scooter", "lat": 38.89732583333333, "is_reserved": 0, "fusion_lat": 0.0}, {"bike_id": "9ac933640e474ab03bdde94c20d4e8ba", "fusion_lon": 0.0, "lon": -76.98062883333333, "name": "9ac933640e474ab03bdde94c20d4e8ba", "is_disabled": 0, "rental_uris": {"android": "https://dc.lft.to/lastmile_qr_scan", "ios": "https://dc.lft.to/lastmile_qr_scan"}, "type": "electric_scooter", "lat": 38.884933333333336, "is_reserved": 0, "fusion_lat": 0.0}, {"bike_id": "62d7b7f74bada21b0dad63e593d301d9", "fusion_lon": 0.0, "lon": -77.04552116666666, "name": "62d7b7f74bada21b0dad63e593d301d9", "is_disabled": 0, "rental_uris": {"android": "https://dc.lft.to/lastmile_qr_scan", "ios": "https://dc.lft.to/lastmile_qr_scan"}, "type": "electric_scooter", "lat": 38.917677833333336, "is_reserved": 0, "fusion_lat": 0.0}, {"bike_id": "ed6fe0ff0b884cc0a1437c0225393860", "fusion_lon": 0.0, "lon": -77.03906066666667, "name": "ed6fe0ff0b884cc0a1437c0225393860", "is_disabled": 0, "rental_uris": {"android": "https://dc.lft.to/lastmile_qr_scan", "ios": "https://dc.lft.to/lastmile_qr_scan"}, "type": "electric_scooter", "lat": 38.9141725, "is_reserved": 0, "fusion_lat": 0.0}, {"bike_id": "b8917d8ae9991da04261b3976f8a3dcd", "fusion_lon": 0.0, "lon": -77.02185566666667, "name": "b8917d8ae9991da04261b3976f8a3dcd", "is_disabled": 0, "rental_uris": {"android": "https://dc.lft.to/lastmile_qr_scan", "ios": "https://dc.lft.to/lastmile_qr_scan"}, "type": "electric_scooter", "lat": 38.910579166666665, "is_reserved": 0, "fusion_lat": 0.0}, {"bike_id": "3dc1b88776a95863bf8b26517da5efff", "fusion_lon": 0.0, "lon": -76.993877, "name": "3dc1b88776a95863bf8b26517da5efff", "is_disabled": 0, "rental_uris": {"android": "https://dc.lft.to/lastmile_qr_scan", "ios": "https://dc.lft.to/lastmile_qr_scan"}, "type": "electric_scooter", "lat": 38.897280333333335, "is_reserved": 0, "fusion_lat": 0.0}, {"bike_id": "e9d724040f169a5077dd44ef0f28f113", "fusion_lon": 0.0, "lon": -77.0185095, "name": "e9d724040f169a5077dd44ef0f28f113", "is_disabled": 0, "rental_uris": {"android": "https://dc.lft.to/lastmile_qr_scan", "ios": "https://dc.lft.to/lastmile_qr_scan"}, "type": "electric_scooter", "lat": 38.9040495, "is_reserved": 0, "fusion_lat": 0.0}, {"bike_id": "11fdbde688312e3ca78ecfa4b7913767", "fusion_lon": 0.0, "lon": -77.01524266666667, "name": "11fdbde688312e3ca78ecfa4b7913767", "is_disabled": 0, "rental_uris": {"android": "https://dc.lft.to/lastmile_qr_scan", "ios": "https://dc.lft.to/lastmile_qr_scan"}, "type": "electric_scooter", "lat": 38.88741616666667, "is_reserved": 0, "fusion_lat": 0.0}, {"bike_id": "2a4aaa80e2b8c1c788bd5201cf783df8", "fusion_lon": 0.0, "lon": -77.0296605, "name": "2a4aaa80e2b8c1c788bd5201cf783df8", "is_disabled": 0, "rental_uris": {"android": "https://dc.lft.to/lastmile_qr_scan", "ios": "https://dc.lft.to/lastmile_qr_scan"}, "type": "electric_scooter", "lat": 38.926926333333334, "is_reserved": 0, "fusion_lat": 0.0}, {"bike_id": "192c247db06272fdfd9d4d5bfd4504ab", "fusion_lon": 0.0, "lon": -77.01971883333333, "name": "192c247db06272fdfd9d4d5bfd4504ab", "is_disabled": 0, "rental_uris": {"android": "https://dc.lft.to/lastmile_qr_scan", "ios": "https://dc.lft.to/lastmile_qr_scan"}, "type": "electric_scooter", "lat": 38.886164666666666, "is_reserved": 0, "fusion_lat": 0.0}, {"bike_id": "3e9d87ef7d8a8cbebbf40a4c880cb777", "fusion_lon": 0.0, "lon": -77.00211, "name": "3e9d87ef7d8a8cbebbf40a4c880cb777", "is_disabled": 0, "rental_uris": {"android": "https://dc.lft.to/lastmile_qr_scan", "ios": "https://dc.lft.to/lastmile_qr_scan"}, "type": "electric_scooter", "lat": 38.89722116666667, "is_reserved": 0, "fusion_lat": 0.0}, {"bike_id": "53990775a28be5e0abb168de73201448", "fusion_lon": 0.0, "lon": -77.08190266666666, "name": "53990775a28be5e0abb168de73201448", "is_disabled": 0, "rental_uris": {"android": "https://dc.lft.to/lastmile_qr_scan", "ios": "https://dc.lft.to/lastmile_qr_scan"}, "type": "electric_scooter", "lat": 38.935530666666665, "is_reserved": 0, "fusion_lat": 0.0}, {"bike_id": "7802c3356b00f60b35b047d40bf8c213", "fusion_lon": 0.0, "lon": -77.0037405, "name": "7802c3356b00f60b35b047d40bf8c213", "is_disabled": 0, "rental_uris": {"android": "https://dc.lft.to/lastmile_qr_scan", "ios": "https://dc.lft.to/lastmile_qr_scan"}, "type": "electric_scooter", "lat": 38.882645333333336, "is_reserved": 0, "fusion_lat": 0.0}, {"bike_id": "e93a3e5e7b949b8797d68fd56be3e902", "fusion_lon": 0.0, "lon": -77.0065615, "name": "e93a3e5e7b949b8797d68fd56be3e902", "is_disabled": 0, "rental_uris": {"android": "https://dc.lft.to/lastmile_qr_scan", "ios": "https://dc.lft.to/lastmile_qr_scan"}, "type": "electric_scooter", "lat": 38.944641833333336, "is_reserved": 0, "fusion_lat": 0.0}, {"bike_id": "9dba2c078585a8b5f20f301aec69bd39", "fusion_lon": 0.0, "lon": -76.98839516666666, "name": "9dba2c078585a8b5f20f301aec69bd39", "is_disabled": 0, "rental_uris": {"android": "https://dc.lft.to/lastmile_qr_scan", "ios": "https://dc.lft.to/lastmile_qr_scan"}, "type": "electric_bike", "lat": 38.84275816666667, "is_reserved": 0, "fusion_lat": 0.0}, {"bike_id": "0177bb7a888e036baf5badd8793f3c08", "fusion_lon": 0.0, "lon": -77.04084, "name": "0177bb7a888e036baf5badd8793f3c08", "is_disabled": 0, "rental_uris": {"android": "https://dc.lft.to/lastmile_qr_scan", "ios": "https://dc.lft.to/lastmile_qr_scan"}, "type": "electric_scooter", "lat": 38.90571466666667, "is_reserved": 0, "fusion_lat": 0.0}, {"bike_id": "e7e5e97fc71c2adc77d36b5df11ee6cb", "fusion_lon": 0.0, "lon": -77.036746, "name": "e7e5e97fc71c2adc77d36b5df11ee6cb", "is_disabled": 0, "rental_uris": {"android": "https://dc.lft.to/lastmile_qr_scan", "ios": "https://dc.lft.to/lastmile_qr_scan"}, "type": "electric_scooter", "lat": 38.917129333333335, "is_reserved": 0, "fusion_lat": 0.0}, {"bike_id": "4732bf2d1921db2e4e57c5a7b0a9187b", "fusion_lon": 0.0, "lon": -77.027202, "name": "4732bf2d1921db2e4e57c5a7b0a9187b", "is_disabled": 0, "rental_uris": {"android": "https://dc.lft.to/lastmile_qr_scan", "ios": "https://dc.lft.to/lastmile_qr_scan"}, "type": "electric_scooter", "lat": 38.949627666666665, "is_reserved": 0, "fusion_lat": 0.0}, {"bike_id": "6d30ff445137578d9463713a5a6b9f3f", "fusion_lon": 0.0, "lon": -77.03848066666667, "name": "6d30ff445137578d9463713a5a6b9f3f", "is_disabled": 0, "rental_uris": {"android": "https://dc.lft.to/lastmile_qr_scan", "ios": "https://dc.lft.to/lastmile_qr_scan"}, "type": "electric_scooter", "lat": 38.91547633333333, "is_reserved": 0, "fusion_lat": 0.0}, {"bike_id": "217eae865253ab303ceb019021d87824", "fusion_lon": 0.0, "lon": -77.01305066666667, "name": "217eae865253ab303ceb019021d87824", "is_disabled": 0, "rental_uris": {"android": "https://dc.lft.to/lastmile_qr_scan", "ios": "https://dc.lft.to/lastmile_qr_scan"}, "type": "electric_scooter", "lat": 38.900537666666665, "is_reserved": 0, "fusion_lat": 0.0}, {"bike_id": "50395db9a433910eb40fc84009613876", "fusion_lon": 0.0, "lon": -77.11708483333334, "name": "50395db9a433910eb40fc84009613876", "is_disabled": 0, "rental_uris": {"android": "https://dc.lft.to/lastmile_qr_scan", "ios": "https://dc.lft.to/lastmile_qr_scan"}, "type": "electric_bike", "lat": 38.867456833333335, "is_reserved": 0, "fusion_lat": 0.0}, {"bike_id": "fcecbb43bd8ac0cb78eb4209ceff4062", "fusion_lon": 0.0, "lon": -77.03079383333333, "name": "fcecbb43bd8ac0cb78eb4209ceff4062", "is_disabled": 0, "rental_uris": {"android": "https://dc.lft.to/lastmile_qr_scan", "ios": "https://dc.lft.to/lastmile_qr_scan"}, "type": "electric_bike", "lat": 38.933202, "is_reserved": 0, "fusion_lat": 0.0}, {"bike_id": "886ef7dd0d9346fc70554fbf6ef2ccea", "fusion_lon": 0.0, "lon": -77.05006516666667, "name": "886ef7dd0d9346fc70554fbf6ef2ccea", "is_disabled": 0, "rental_uris": {"android": "https://dc.lft.to/lastmile_qr_scan", "ios": "https://dc.lft.to/lastmile_qr_scan"}, "type": "electric_scooter", "lat": 38.9063015, "is_reserved": 0, "fusion_lat": 0.0}, {"bike_id": "0a7e943138eb267251d3c7d2444523d4", "fusion_lon": 0.0, "lon": -77.02304933333333, "name": "0a7e943138eb267251d3c7d2444523d4", "is_disabled": 0, "rental_uris": {"android": "https://dc.lft.to/lastmile_qr_scan", "ios": "https://dc.lft.to/lastmile_qr_scan"}, "type": "electric_scooter", "lat": 38.927565666666666, "is_reserved": 0, "fusion_lat": 0.0}, {"bike_id": "0163210aea2a03485bc93d5fe22b80e1", "fusion_lon": 0.0, "lon": -77.05122566666667, "name": "0163210aea2a03485bc93d5fe22b80e1", "is_disabled": 0, "rental_uris": {"android": "https://dc.lft.to/lastmile_qr_scan", "ios": "https://dc.lft.to/lastmile_qr_scan"}, "type": "electric_scooter", "lat": 38.90527316666667, "is_reserved": 0, "fusion_lat": 0.0}, {"bike_id": "bc7c5a9a2d0a5431980821dce4d4d9a3", "fusion_lon": 0.0, "lon": -77.02324666666667, "name": "bc7c5a9a2d0a5431980821dce4d4d9a3", "is_disabled": 0, "rental_uris": {"android": "https://dc.lft.to/lastmile_qr_scan", "ios": "https://dc.lft.to/lastmile_qr_scan"}, "type": "electric_scooter", "lat": 38.92940733333333, "is_reserved": 0, "fusion_lat": 0.0}, {"bike_id": "9eeaed8f9c5d87a0430a758454f19d39", "fusion_lon": 0.0, "lon": -77.031099, "name": "9eeaed8f9c5d87a0430a758454f19d39", "is_disabled": 0, "rental_uris": {"android": "https://dc.lft.to/lastmile_qr_scan", "ios": "https://dc.lft.to/lastmile_qr_scan"}, "type": "electric_scooter", "lat": 38.9464795, "is_reserved": 0, "fusion_lat": 0.0}, {"bike_id": "4e5c3ba3a4a6f58460e1f20715cf12b7", "fusion_lon": 0.0, "lon": -77.026158, "name": "4e5c3ba3a4a6f58460e1f20715cf12b7", "is_disabled": 0, "rental_uris": {"android": "https://dc.lft.to/lastmile_qr_scan", "ios": "https://dc.lft.to/lastmile_qr_scan"}, "type": "electric_scooter", "lat": 38.9280755, "is_reserved": 0, "fusion_lat": 0.0}, {"bike_id": "ac0066fb3d256699cc9adedf1cd469a9", "fusion_lon": 0.0, "lon": -76.99514766666667, "name": "ac0066fb3d256699cc9adedf1cd469a9", "is_disabled": 0, "rental_uris": {"android": "https://dc.lft.to/lastmile_qr_scan", "ios": "https://dc.lft.to/lastmile_qr_scan"}, "type": "electric_scooter", "lat": 38.909813, "is_reserved": 0, "fusion_lat": 0.0}, {"bike_id": "3aec55909da77898127e0be21041d566", "fusion_lon": 0.0, "lon": -77.0190315, "name": "3aec55909da77898127e0be21041d566", "is_disabled": 0, "rental_uris": {"android": "https://dc.lft.to/lastmile_qr_scan", "ios": "https://dc.lft.to/lastmile_qr_scan"}, "type": "electric_bike", "lat": 38.902550166666664, "is_reserved": 0, "fusion_lat": 0.0}, {"bike_id": "00be405fd4f3ad82fa2993ffb073df36", "fusion_lon": 0.0, "lon": -77.03164316666667, "name": "00be405fd4f3ad82fa2993ffb073df36", "is_disabled": 0, "rental_uris": {"android": "https://dc.lft.to/lastmile_qr_scan", "ios": "https://dc.lft.to/lastmile_qr_scan"}, "type": "electric_scooter", "lat": 38.89219833333333, "is_reserved": 0, "fusion_lat": 0.0}, {"bike_id": "e205c593414acc18f6c314323916e50e", "fusion_lon": 0.0, "lon": -77.03861433333333, "name": "e205c593414acc18f6c314323916e50e", "is_disabled": 0, "rental_uris": {"android": "https://dc.lft.to/lastmile_qr_scan", "ios": "https://dc.lft.to/lastmile_qr_scan"}, "type": "electric_scooter", "lat": 38.90784383333333, "is_reserved": 0, "fusion_lat": 0.0}, {"bike_id": "550772ed59be31287bca66c4969e22f8", "fusion_lon": 0.0, "lon": -77.04022666666667, "name": "550772ed59be31287bca66c4969e22f8", "is_disabled": 0, "rental_uris": {"android": "https://dc.lft.to/lastmile_qr_scan", "ios": "https://dc.lft.to/lastmile_qr_scan"}, "type": "electric_scooter", "lat": 38.92167366666666, "is_reserved": 0, "fusion_lat": 0.0}, {"bike_id": "2f0656b51d739ac527cefa8b31f01260", "fusion_lon": 0.0, "lon": -77.03889466666666, "name": "2f0656b51d739ac527cefa8b31f01260", "is_disabled": 0, "rental_uris": {"android": "https://dc.lft.to/lastmile_qr_scan", "ios": "https://dc.lft.to/lastmile_qr_scan"}, "type": "electric_scooter", "lat": 38.9324375, "is_reserved": 0, "fusion_lat": 0.0}, {"bike_id": "ee33a8841bdb8b3de069df46032418e7", "fusion_lon": 0.0, "lon": -77.00204166666667, "name": "ee33a8841bdb8b3de069df46032418e7", "is_disabled": 0, "rental_uris": {"android": "https://dc.lft.to/lastmile_qr_scan", "ios": "https://dc.lft.to/lastmile_qr_scan"}, "type": "electric_scooter", "lat": 38.92052016666667, "is_reserved": 0, "fusion_lat": 0.0}, {"bike_id": "8a3b2d80e82e7e9a4a4704565c5230c3", "fusion_lon": 0.0, "lon": -76.99516283333334, "name": "8a3b2d80e82e7e9a4a4704565c5230c3", "is_disabled": 0, "rental_uris": {"android": "https://dc.lft.to/lastmile_qr_scan", "ios": "https://dc.lft.to/lastmile_qr_scan"}, "type": "electric_scooter", "lat": 38.862569, "is_reserved": 0, "fusion_lat": 0.0}, {"bike_id": "db9b5d3557c653c1aa4d1fb2617cd9f1", "fusion_lon": 0.0, "lon": -77.00114666666667, "name": "db9b5d3557c653c1aa4d1fb2617cd9f1", "is_disabled": 0, "rental_uris": {"android": "https://dc.lft.to/lastmile_qr_scan", "ios": "https://dc.lft.to/lastmile_qr_scan"}, "type": "electric_scooter", "lat": 38.877917, "is_reserved": 0, "fusion_lat": 0.0}, {"bike_id": "2c795a748a5b0cdf9ea4cdaaff759ad8", "fusion_lon": 0.0, "lon": -77.03316283333334, "name": "2c795a748a5b0cdf9ea4cdaaff759ad8", "is_disabled": 0, "rental_uris": {"android": "https://dc.lft.to/lastmile_qr_scan", "ios": "https://dc.lft.to/lastmile_qr_scan"}, "type": "electric_scooter", "lat": 38.929097, "is_reserved": 0, "fusion_lat": 0.0}, {"bike_id": "48de2993dc47f78a75cdcd0a09ca64bd", "fusion_lon": 0.0, "lon": -77.01216116666667, "name": "48de2993dc47f78a75cdcd0a09ca64bd", "is_disabled": 0, "rental_uris": {"android": "https://dc.lft.to/lastmile_qr_scan", "ios": "https://dc.lft.to/lastmile_qr_scan"}, "type": "electric_scooter", "lat": 38.9152565, "is_reserved": 0, "fusion_lat": 0.0}, {"bike_id": "cee16040a554195c77cdfe2833a055e0", "fusion_lon": 0.0, "lon": -76.98991666666667, "name": "cee16040a554195c77cdfe2833a055e0", "is_disabled": 0, "rental_uris": {"android": "https://dc.lft.to/lastmile_qr_scan", "ios": "https://dc.lft.to/lastmile_qr_scan"}, "type": "electric_scooter", "lat": 38.86496183333333, "is_reserved": 0, "fusion_lat": 0.0}, {"bike_id": "eb8081430cca9810e6d907fa7c0c8b55", "fusion_lon": 0.0, "lon": -77.04970866666666, "name": "eb8081430cca9810e6d907fa7c0c8b55", "is_disabled": 0, "rental_uris": {"android": "https://dc.lft.to/lastmile_qr_scan", "ios": "https://dc.lft.to/lastmile_qr_scan"}, "type": "electric_bike", "lat": 38.832231, "is_reserved": 0, "fusion_lat": 0.0}, {"bike_id": "3a2ebd8e3c8af75c0372edb92def0d67", "fusion_lon": 0.0, "lon": -77.021542, "name": "3a2ebd8e3c8af75c0372edb92def0d67", "is_disabled": 0, "rental_uris": {"android": "https://dc.lft.to/lastmile_qr_scan", "ios": "https://dc.lft.to/lastmile_qr_scan"}, "type": "electric_scooter", "lat": 38.89905016666667, "is_reserved": 0, "fusion_lat": 0.0}, {"bike_id": "8c6de7922140b0160e1870e49ae13698", "fusion_lon": 0.0, "lon": -77.02685533333333, "name": "8c6de7922140b0160e1870e49ae13698", "is_disabled": 0, "rental_uris": {"android": "https://dc.lft.to/lastmile_qr_scan", "ios": "https://dc.lft.to/lastmile_qr_scan"}, "type": "electric_scooter", "lat": 38.912641, "is_reserved": 0, "fusion_lat": 0.0}, {"bike_id": "f0e9c11e392e5610cfe8359ee8faa934", "fusion_lon": 0.0, "lon": -77.02212216666666, "name": "f0e9c11e392e5610cfe8359ee8faa934", "is_disabled": 0, "rental_uris": {"android": "https://dc.lft.to/lastmile_qr_scan", "ios": "https://dc.lft.to/lastmile_qr_scan"}, "type": "electric_scooter", "lat": 38.902287333333334, "is_reserved": 0, "fusion_lat": 0.0}, {"bike_id": "c26fed54df9a4e10625a4eb66ef84340", "fusion_lon": 0.0, "lon": -77.02448833333334, "name": "c26fed54df9a4e10625a4eb66ef84340", "is_disabled": 0, "rental_uris": {"android": "https://dc.lft.to/lastmile_qr_scan", "ios": "https://dc.lft.to/lastmile_qr_scan"}, "type": "electric_scooter", "lat": 38.91264683333333, "is_reserved": 0, "fusion_lat": 0.0}, {"bike_id": "1c472490119bb30bfbdaf25bd2cc1668", "fusion_lon": 0.0, "lon": -77.05545183333334, "name": "1c472490119bb30bfbdaf25bd2cc1668", "is_disabled": 0, "rental_uris": {"android": "https://dc.lft.to/lastmile_qr_scan", "ios": "https://dc.lft.to/lastmile_qr_scan"}, "type": "electric_scooter", "lat": 38.93010066666667, "is_reserved": 0, "fusion_lat": 0.0}, {"bike_id": "ee85ad8568da57773dc09cd465d658bc", "fusion_lon": 0.0, "lon": -76.98689116666667, "name": "ee85ad8568da57773dc09cd465d658bc", "is_disabled": 0, "rental_uris": {"android": "https://dc.lft.to/lastmile_qr_scan", "ios": "https://dc.lft.to/lastmile_qr_scan"}, "type": "electric_bike", "lat": 38.944737, "is_reserved": 0, "fusion_lat": 0.0}, {"bike_id": "9eabc6fbb7ce89165bda7ccb11869e83", "fusion_lon": 0.0, "lon": -77.01411783333333, "name": "9eabc6fbb7ce89165bda7ccb11869e83", "is_disabled": 0, "rental_uris": {"android": "https://dc.lft.to/lastmile_qr_scan", "ios": "https://dc.lft.to/lastmile_qr_scan"}, "type": "electric_scooter", "lat": 38.9278285, "is_reserved": 0, "fusion_lat": 0.0}, {"bike_id": "e56280067bf621518af0cbf5447120da", "fusion_lon": 0.0, "lon": -77.05977216666666, "name": "e56280067bf621518af0cbf5447120da", "is_disabled": 0, "rental_uris": {"android": "https://dc.lft.to/lastmile_qr_scan", "ios": "https://dc.lft.to/lastmile_qr_scan"}, "type": "electric_scooter", "lat": 38.901793, "is_reserved": 0, "fusion_lat": 0.0}, {"bike_id": "cab8f7b8cda258818b8765094c03a3db", "fusion_lon": 0.0, "lon": -77.02396033333333, "name": "cab8f7b8cda258818b8765094c03a3db", "is_disabled": 0, "rental_uris": {"android": "https://dc.lft.to/lastmile_qr_scan", "ios": "https://dc.lft.to/lastmile_qr_scan"}, "type": "electric_scooter", "lat": 38.915225666666664, "is_reserved": 0, "fusion_lat": 0.0}, {"bike_id": "d6a92b0667f8db468c0ddc921853484a", "fusion_lon": 0.0, "lon": -77.02712683333333, "name": "d6a92b0667f8db468c0ddc921853484a", "is_disabled": 0, "rental_uris": {"android": "https://dc.lft.to/lastmile_qr_scan", "ios": "https://dc.lft.to/lastmile_qr_scan"}, "type": "electric_scooter", "lat": 38.909533333333336, "is_reserved": 0, "fusion_lat": 0.0}, {"bike_id": "67997e742212c9bf34550be782740eb7", "fusion_lon": 0.0, "lon": -76.99916083333333, "name": "67997e742212c9bf34550be782740eb7", "is_disabled": 0, "rental_uris": {"android": "https://dc.lft.to/lastmile_qr_scan", "ios": "https://dc.lft.to/lastmile_qr_scan"}, "type": "electric_scooter", "lat": 38.94828666666667, "is_reserved": 0, "fusion_lat": 0.0}, {"bike_id": "44645aee49d9c1d3e547d2e49f2002f2", "fusion_lon": 0.0, "lon": -76.98712316666666, "name": "44645aee49d9c1d3e547d2e49f2002f2", "is_disabled": 0, "rental_uris": {"android": "https://dc.lft.to/lastmile_qr_scan", "ios": "https://dc.lft.to/lastmile_qr_scan"}, "type": "electric_scooter", "lat": 38.900672, "is_reserved": 0, "fusion_lat": 0.0}, {"bike_id": "b45c106e2518961bcc4613024c1960fd", "fusion_lon": 0.0, "lon": -77.02495483333334, "name": "b45c106e2518961bcc4613024c1960fd", "is_disabled": 0, "rental_uris": {"android": "https://dc.lft.to/lastmile_qr_scan", "ios": "https://dc.lft.to/lastmile_qr_scan"}, "type": "electric_scooter", "lat": 38.9431115, "is_reserved": 0, "fusion_lat": 0.0}, {"bike_id": "c51588b5e5ca259a06a53a236652aaf0", "fusion_lon": 0.0, "lon": -77.0511405, "name": "c51588b5e5ca259a06a53a236652aaf0", "is_disabled": 0, "rental_uris": {"android": "https://dc.lft.to/lastmile_qr_scan", "ios": "https://dc.lft.to/lastmile_qr_scan"}, "type": "electric_scooter", "lat": 38.90522333333333, "is_reserved": 0, "fusion_lat": 0.0}, {"bike_id": "b4debf5535c107592973d5a9f44abbce", "fusion_lon": 0.0, "lon": -77.03146666666666, "name": "b4debf5535c107592973d5a9f44abbce", "is_disabled": 0, "rental_uris": {"android": "https://dc.lft.to/lastmile_qr_scan", "ios": "https://dc.lft.to/lastmile_qr_scan"}, "type": "electric_scooter", "lat": 38.91795233333333, "is_reserved": 0, "fusion_lat": 0.0}, {"bike_id": "50a2c350e9bb2e81993cdd2ec910a33b", "fusion_lon": 0.0, "lon": -77.01755466666667, "name": "50a2c350e9bb2e81993cdd2ec910a33b", "is_disabled": 0, "rental_uris": {"android": "https://dc.lft.to/lastmile_qr_scan", "ios": "https://dc.lft.to/lastmile_qr_scan"}, "type": "electric_scooter", "lat": 38.8832645, "is_reserved": 0, "fusion_lat": 0.0}, {"bike_id": "468ab8f1773f8181907db7222d7e82c2", "fusion_lon": 0.0, "lon": -77.027101, "name": "468ab8f1773f8181907db7222d7e82c2", "is_disabled": 0, "rental_uris": {"android": "https://dc.lft.to/lastmile_qr_scan", "ios": "https://dc.lft.to/lastmile_qr_scan"}, "type": "electric_scooter", "lat": 38.90688466666667, "is_reserved": 0, "fusion_lat": 0.0}, {"bike_id": "07e412957239fa18879f6523ec0fddc4", "fusion_lon": 0.0, "lon": -77.03568866666667, "name": "07e412957239fa18879f6523ec0fddc4", "is_disabled": 0, "rental_uris": {"android": "https://dc.lft.to/lastmile_qr_scan", "ios": "https://dc.lft.to/lastmile_qr_scan"}, "type": "electric_scooter", "lat": 38.92329333333333, "is_reserved": 0, "fusion_lat": 0.0}, {"bike_id": "80f8d8d74d38998802245a744f9f5b8b", "fusion_lon": 0.0, "lon": -77.02709083333333, "name": "80f8d8d74d38998802245a744f9f5b8b", "is_disabled": 0, "rental_uris": {"android": "https://dc.lft.to/lastmile_qr_scan", "ios": "https://dc.lft.to/lastmile_qr_scan"}, "type": "electric_scooter", "lat": 38.90671433333333, "is_reserved": 0, "fusion_lat": 0.0}, {"bike_id": "caff4e88b8f97d2dd4dedec62e47fafb", "fusion_lon": 0.0, "lon": -76.99348466666666, "name": "caff4e88b8f97d2dd4dedec62e47fafb", "is_disabled": 0, "rental_uris": {"android": "https://dc.lft.to/lastmile_qr_scan", "ios": "https://dc.lft.to/lastmile_qr_scan"}, "type": "electric_bike", "lat": 38.84506866666667, "is_reserved": 0, "fusion_lat": 0.0}, {"bike_id": "65e46a65aad32afff5cc12375c7d821a", "fusion_lon": 0.0, "lon": -77.00724016666666, "name": "65e46a65aad32afff5cc12375c7d821a", "is_disabled": 0, "rental_uris": {"android": "https://dc.lft.to/lastmile_qr_scan", "ios": "https://dc.lft.to/lastmile_qr_scan"}, "type": "electric_scooter", "lat": 38.884917, "is_reserved": 0, "fusion_lat": 0.0}, {"bike_id": "5dda38e115f4bea25944b4b3d85be90e", "fusion_lon": 0.0, "lon": -77.05271983333333, "name": "5dda38e115f4bea25944b4b3d85be90e", "is_disabled": 0, "rental_uris": {"android": "https://dc.lft.to/lastmile_qr_scan", "ios": "https://dc.lft.to/lastmile_qr_scan"}, "type": "electric_scooter", "lat": 38.9254215, "is_reserved": 0, "fusion_lat": 0.0}, {"bike_id": "f0c5fe86605226fc1c479057e6e75bf1", "fusion_lon": 0.0, "lon": -77.01763366666667, "name": "f0c5fe86605226fc1c479057e6e75bf1", "is_disabled": 0, "rental_uris": {"android": "https://dc.lft.to/lastmile_qr_scan", "ios": "https://dc.lft.to/lastmile_qr_scan"}, "type": "electric_scooter", "lat": 38.87715216666667, "is_reserved": 0, "fusion_lat": 0.0}, {"bike_id": "98674cac04840d9127cdbfcc39cc267e", "fusion_lon": 0.0, "lon": -76.998218, "name": "98674cac04840d9127cdbfcc39cc267e", "is_disabled": 0, "rental_uris": {"android": "https://dc.lft.to/lastmile_qr_scan", "ios": "https://dc.lft.to/lastmile_qr_scan"}, "type": "electric_scooter", "lat": 38.908242, "is_reserved": 0, "fusion_lat": 0.0}, {"bike_id": "f17c2f1689bdf11d7345fa38b5d00a05", "fusion_lon": 0.0, "lon": -77.04455816666666, "name": "f17c2f1689bdf11d7345fa38b5d00a05", "is_disabled": 0, "rental_uris": {"android": "https://dc.lft.to/lastmile_qr_scan", "ios": "https://dc.lft.to/lastmile_qr_scan"}, "type": "electric_scooter", "lat": 38.918551666666666, "is_reserved": 0, "fusion_lat": 0.0}, {"bike_id": "842f47db3fa6588b218d10d7a7553648", "fusion_lon": 0.0, "lon": -77.03286533333333, "name": "842f47db3fa6588b218d10d7a7553648", "is_disabled": 0, "rental_uris": {"android": "https://dc.lft.to/lastmile_qr_scan", "ios": "https://dc.lft.to/lastmile_qr_scan"}, "type": "electric_scooter", "lat": 38.92069266666667, "is_reserved": 0, "fusion_lat": 0.0}, {"bike_id": "012e6819a3166a92b476f93078cb3867", "fusion_lon": 0.0, "lon": -77.03932583333334, "name": "012e6819a3166a92b476f93078cb3867", "is_disabled": 0, "rental_uris": {"android": "https://dc.lft.to/lastmile_qr_scan", "ios": "https://dc.lft.to/lastmile_qr_scan"}, "type": "electric_scooter", "lat": 38.924925, "is_reserved": 0, "fusion_lat": 0.0}, {"bike_id": "ab36010c508cf409244db4c11dba4f68", "fusion_lon": 0.0, "lon": -77.0018795, "name": "ab36010c508cf409244db4c11dba4f68", "is_disabled": 0, "rental_uris": {"android": "https://dc.lft.to/lastmile_qr_scan", "ios": "https://dc.lft.to/lastmile_qr_scan"}, "type": "electric_scooter", "lat": 38.90237466666667, "is_reserved": 0, "fusion_lat": 0.0}, {"bike_id": "51b875b7f433426254a1f721df298410", "fusion_lon": 0.0, "lon": -77.03150283333333, "name": "51b875b7f433426254a1f721df298410", "is_disabled": 0, "rental_uris": {"android": "https://dc.lft.to/lastmile_qr_scan", "ios": "https://dc.lft.to/lastmile_qr_scan"}, "type": "electric_bike", "lat": 38.999508666666664, "is_reserved": 0, "fusion_lat": 0.0}, {"bike_id": "60924a79fc669d146e726d4a3d403920", "fusion_lon": 0.0, "lon": -76.983683, "name": "60924a79fc669d146e726d4a3d403920", "is_disabled": 0, "rental_uris": {"android": "https://dc.lft.to/lastmile_qr_scan", "ios": "https://dc.lft.to/lastmile_qr_scan"}, "type": "electric_scooter", "lat": 38.885914, "is_reserved": 0, "fusion_lat": 0.0}, {"bike_id": "a88ec85dc7962659976b1dc6853c4927", "fusion_lon": 0.0, "lon": -77.04664483333333, "name": "a88ec85dc7962659976b1dc6853c4927", "is_disabled": 0, "rental_uris": {"android": "https://dc.lft.to/lastmile_qr_scan", "ios": "https://dc.lft.to/lastmile_qr_scan"}, "type": "electric_scooter", "lat": 38.90599616666667, "is_reserved": 0, "fusion_lat": 0.0}, {"bike_id": "d52e30fb08a5b0b59eb925c8aa3ba284", "fusion_lon": 0.0, "lon": -77.0447185, "name": "d52e30fb08a5b0b59eb925c8aa3ba284", "is_disabled": 0, "rental_uris": {"android": "https://dc.lft.to/lastmile_qr_scan", "ios": "https://dc.lft.to/lastmile_qr_scan"}, "type": "electric_scooter", "lat": 38.895435, "is_reserved": 0, "fusion_lat": 0.0}, {"bike_id": "425f4c3f695c96cc28d95ee373fc780a", "fusion_lon": 0.0, "lon": -77.07008566666667, "name": "425f4c3f695c96cc28d95ee373fc780a", "is_disabled": 0, "rental_uris": {"android": "https://dc.lft.to/lastmile_qr_scan", "ios": "https://dc.lft.to/lastmile_qr_scan"}, "type": "electric_bike", "lat": 38.9276765, "is_reserved": 0, "fusion_lat": 0.0}, {"bike_id": "bb33e027afa5622b541323c19ba9ecd8", "fusion_lon": 0.0, "lon": -77.03554483333333, "name": "bb33e027afa5622b541323c19ba9ecd8", "is_disabled": 0, "rental_uris": {"android": "https://dc.lft.to/lastmile_qr_scan", "ios": "https://dc.lft.to/lastmile_qr_scan"}, "type": "electric_scooter", "lat": 38.928786333333335, "is_reserved": 0, "fusion_lat": 0.0}, {"bike_id": "c25d8484d9c58541293a71dd418faab8", "fusion_lon": 0.0, "lon": -76.98032983333333, "name": "c25d8484d9c58541293a71dd418faab8", "is_disabled": 0, "rental_uris": {"android": "https://dc.lft.to/lastmile_qr_scan", "ios": "https://dc.lft.to/lastmile_qr_scan"}, "type": "electric_scooter", "lat": 38.90786216666667, "is_reserved": 0, "fusion_lat": 0.0}, {"bike_id": "4ad71fb62a425a3bd0e0d1852c98f8dc", "fusion_lon": 0.0, "lon": -77.05066166666667, "name": "4ad71fb62a425a3bd0e0d1852c98f8dc", "is_disabled": 0, "rental_uris": {"android": "https://dc.lft.to/lastmile_qr_scan", "ios": "https://dc.lft.to/lastmile_qr_scan"}, "type": "electric_scooter", "lat": 38.92343916666667, "is_reserved": 0, "fusion_lat": 0.0}, {"bike_id": "40b1c1950657da59d35574cae0a594b6", "fusion_lon": 0.0, "lon": -77.00343933333333, "name": "40b1c1950657da59d35574cae0a594b6", "is_disabled": 0, "rental_uris": {"android": "https://dc.lft.to/lastmile_qr_scan", "ios": "https://dc.lft.to/lastmile_qr_scan"}, "type": "electric_scooter", "lat": 38.889933, "is_reserved": 0, "fusion_lat": 0.0}, {"bike_id": "65172bcf2f6f07ec28ee91d1a39a9765", "fusion_lon": 0.0, "lon": -77.02963583333333, "name": "65172bcf2f6f07ec28ee91d1a39a9765", "is_disabled": 0, "rental_uris": {"android": "https://dc.lft.to/lastmile_qr_scan", "ios": "https://dc.lft.to/lastmile_qr_scan"}, "type": "electric_scooter", "lat": 38.931925166666666, "is_reserved": 0, "fusion_lat": 0.0}, {"bike_id": "fb67474f5854f57913250ba03fc68b3e", "fusion_lon": 0.0, "lon": -77.04349116666667, "name": "fb67474f5854f57913250ba03fc68b3e", "is_disabled": 0, "rental_uris": {"android": "https://dc.lft.to/lastmile_qr_scan", "ios": "https://dc.lft.to/lastmile_qr_scan"}, "type": "electric_scooter", "lat": 38.91303166666667, "is_reserved": 0, "fusion_lat": 0.0}, {"bike_id": "05f9fcf65441fe35a47a38dd56ada0eb", "fusion_lon": 0.0, "lon": -77.07808833333333, "name": "05f9fcf65441fe35a47a38dd56ada0eb", "is_disabled": 0, "rental_uris": {"android": "https://dc.lft.to/lastmile_qr_scan", "ios": "https://dc.lft.to/lastmile_qr_scan"}, "type": "electric_scooter", "lat": 38.912741833333335, "is_reserved": 0, "fusion_lat": 0.0}, {"bike_id": "bfcfb9a324d95bb951006eb5684401ca", "fusion_lon": 0.0, "lon": -77.03257, "name": "bfcfb9a324d95bb951006eb5684401ca", "is_disabled": 0, "rental_uris": {"android": "https://dc.lft.to/lastmile_qr_scan", "ios": "https://dc.lft.to/lastmile_qr_scan"}, "type": "electric_scooter", "lat": 38.9140675, "is_reserved": 0, "fusion_lat": 0.0}, {"bike_id": "04b003e1a61f0ff2eeb9646207e3d84e", "fusion_lon": 0.0, "lon": -76.9718135, "name": "04b003e1a61f0ff2eeb9646207e3d84e", "is_disabled": 0, "rental_uris": {"android": "https://dc.lft.to/lastmile_qr_scan", "ios": "https://dc.lft.to/lastmile_qr_scan"}, "type": "electric_bike", "lat": 38.933204, "is_reserved": 0, "fusion_lat": 0.0}, {"bike_id": "f149e24b5c4244ded4728ce35e204600", "fusion_lon": 0.0, "lon": -77.03361033333333, "name": "f149e24b5c4244ded4728ce35e204600", "is_disabled": 0, "rental_uris": {"android": "https://dc.lft.to/lastmile_qr_scan", "ios": "https://dc.lft.to/lastmile_qr_scan"}, "type": "electric_scooter", "lat": 38.9314795, "is_reserved": 0, "fusion_lat": 0.0}, {"bike_id": "e2f5df2c5fcffc470901e894cf182051", "fusion_lon": 0.0, "lon": -77.02706166666667, "name": "e2f5df2c5fcffc470901e894cf182051", "is_disabled": 0, "rental_uris": {"android": "https://dc.lft.to/lastmile_qr_scan", "ios": "https://dc.lft.to/lastmile_qr_scan"}, "type": "electric_scooter", "lat": 38.920625333333334, "is_reserved": 0, "fusion_lat": 0.0}, {"bike_id": "e122983ed884d1f93cc04113bebd8711", "fusion_lon": 0.0, "lon": -77.02953716666667, "name": "e122983ed884d1f93cc04113bebd8711", "is_disabled": 0, "rental_uris": {"android": "https://dc.lft.to/lastmile_qr_scan", "ios": "https://dc.lft.to/lastmile_qr_scan"}, "type": "electric_bike", "lat": 38.95052333333334, "is_reserved": 0, "fusion_lat": 0.0}, {"bike_id": "05196c6c50cec18bbbb3db1ee1feb85d", "fusion_lon": 0.0, "lon": -77.01306283333334, "name": "05196c6c50cec18bbbb3db1ee1feb85d", "is_disabled": 0, "rental_uris": {"android": "https://dc.lft.to/lastmile_qr_scan", "ios": "https://dc.lft.to/lastmile_qr_scan"}, "type": "electric_scooter", "lat": 38.91411433333333, "is_reserved": 0, "fusion_lat": 0.0}, {"bike_id": "fa6bb66737ec1ca3c70fbdf878690a60", "fusion_lon": 0.0, "lon": -77.01342066666666, "name": "fa6bb66737ec1ca3c70fbdf878690a60", "is_disabled": 0, "rental_uris": {"android": "https://dc.lft.to/lastmile_qr_scan", "ios": "https://dc.lft.to/lastmile_qr_scan"}, "type": "electric_scooter", "lat": 38.91961916666666, "is_reserved": 0, "fusion_lat": 0.0}, {"bike_id": "0d9df1c500699975485cf5b914e22dbe", "fusion_lon": 0.0, "lon": -77.035919, "name": "0d9df1c500699975485cf5b914e22dbe", "is_disabled": 0, "rental_uris": {"android": "https://dc.lft.to/lastmile_qr_scan", "ios": "https://dc.lft.to/lastmile_qr_scan"}, "type": "electric_scooter", "lat": 38.936736333333336, "is_reserved": 0, "fusion_lat": 0.0}, {"bike_id": "f9af48f517fd4d7c4e21bdbcb517c927", "fusion_lon": 0.0, "lon": -77.02153366666667, "name": "f9af48f517fd4d7c4e21bdbcb517c927", "is_disabled": 0, "rental_uris": {"android": "https://dc.lft.to/lastmile_qr_scan", "ios": "https://dc.lft.to/lastmile_qr_scan"}, "type": "electric_scooter", "lat": 38.92496516666667, "is_reserved": 0, "fusion_lat": 0.0}, {"bike_id": "5da8070d9c7ec76ee71a661ed959fb2d", "fusion_lon": 0.0, "lon": -77.01282433333333, "name": "5da8070d9c7ec76ee71a661ed959fb2d", "is_disabled": 0, "rental_uris": {"android": "https://dc.lft.to/lastmile_qr_scan", "ios": "https://dc.lft.to/lastmile_qr_scan"}, "type": "electric_bike", "lat": 39.003831, "is_reserved": 0, "fusion_lat": 0.0}, {"bike_id": "5cd84ad25696f1f51d0509454e748894", "fusion_lon": 0.0, "lon": -77.02371483333333, "name": "5cd84ad25696f1f51d0509454e748894", "is_disabled": 0, "rental_uris": {"android": "https://dc.lft.to/lastmile_qr_scan", "ios": "https://dc.lft.to/lastmile_qr_scan"}, "type": "electric_scooter", "lat": 38.9020295, "is_reserved": 0, "fusion_lat": 0.0}, {"bike_id": "bbddfb98a2fba8f52f8c3c2ddcc96510", "fusion_lon": 0.0, "lon": -77.03360866666667, "name": "bbddfb98a2fba8f52f8c3c2ddcc96510", "is_disabled": 0, "rental_uris": {"android": "https://dc.lft.to/lastmile_qr_scan", "ios": "https://dc.lft.to/lastmile_qr_scan"}, "type": "electric_scooter", "lat": 38.92163133333333, "is_reserved": 0, "fusion_lat": 0.0}, {"bike_id": "53cb1adc84f655809317c302b0fccfce", "fusion_lon": 0.0, "lon": -77.01698566666667, "name": "53cb1adc84f655809317c302b0fccfce", "is_disabled": 0, "rental_uris": {"android": "https://dc.lft.to/lastmile_qr_scan", "ios": "https://dc.lft.to/lastmile_qr_scan"}, "type": "electric_scooter", "lat": 38.911800166666666, "is_reserved": 0, "fusion_lat": 0.0}, {"bike_id": "35730e7456b30d3ad0b25be03229ad29", "fusion_lon": 0.0, "lon": -77.05875533333334, "name": "35730e7456b30d3ad0b25be03229ad29", "is_disabled": 0, "rental_uris": {"android": "https://dc.lft.to/lastmile_qr_scan", "ios": "https://dc.lft.to/lastmile_qr_scan"}, "type": "electric_bike", "lat": 38.958959, "is_reserved": 0, "fusion_lat": 0.0}, {"bike_id": "cd99b93f99283dfa813c27015fb0293e", "fusion_lon": 0.0, "lon": -77.216473, "name": "cd99b93f99283dfa813c27015fb0293e", "is_disabled": 0, "rental_uris": {"android": "https://dc.lft.to/lastmile_qr_scan", "ios": "https://dc.lft.to/lastmile_qr_scan"}, "type": "electric_bike", "lat": 38.930136833333336, "is_reserved": 0, "fusion_lat": 0.0}, {"bike_id": "8c9159e34c4af0189fdd1d5e6126e951", "fusion_lon": 0.0, "lon": -77.036887, "name": "8c9159e34c4af0189fdd1d5e6126e951", "is_disabled": 0, "rental_uris": {"android": "https://dc.lft.to/lastmile_qr_scan", "ios": "https://dc.lft.to/lastmile_qr_scan"}, "type": "electric_bike", "lat": 38.93967833333333, "is_reserved": 0, "fusion_lat": 0.0}, {"bike_id": "729763233190ac1762c2540569d5cac3", "fusion_lon": 0.0, "lon": -77.04852183333334, "name": "729763233190ac1762c2540569d5cac3", "is_disabled": 0, "rental_uris": {"android": "https://dc.lft.to/lastmile_qr_scan", "ios": "https://dc.lft.to/lastmile_qr_scan"}, "type": "electric_scooter", "lat": 38.904684333333336, "is_reserved": 0, "fusion_lat": 0.0}, {"bike_id": "65c390de7c92d272193f141c42988f75", "fusion_lon": 0.0, "lon": -77.02873066666666, "name": "65c390de7c92d272193f141c42988f75", "is_disabled": 0, "rental_uris": {"android": "https://dc.lft.to/lastmile_qr_scan", "ios": "https://dc.lft.to/lastmile_qr_scan"}, "type": "electric_bike", "lat": 38.998739, "is_reserved": 0, "fusion_lat": 0.0}, {"bike_id": "aacc2d4ced7b26ac568be5f34aacd20c", "fusion_lon": 0.0, "lon": -77.03418883333333, "name": "aacc2d4ced7b26ac568be5f34aacd20c", "is_disabled": 0, "rental_uris": {"android": "https://dc.lft.to/lastmile_qr_scan", "ios": "https://dc.lft.to/lastmile_qr_scan"}, "type": "electric_scooter", "lat": 38.9072, "is_reserved": 0, "fusion_lat": 0.0}, {"bike_id": "febfd5fbed484bc3345a55090791aa43", "fusion_lon": 0.0, "lon": -77.04146316666667, "name": "febfd5fbed484bc3345a55090791aa43", "is_disabled": 0, "rental_uris": {"android": "https://dc.lft.to/lastmile_qr_scan", "ios": "https://dc.lft.to/lastmile_qr_scan"}, "type": "electric_scooter", "lat": 38.922971, "is_reserved": 0, "fusion_lat": 0.0}, {"bike_id": "638d00e7883cdf7bd9614429a9fe12ea", "fusion_lon": 0.0, "lon": -76.93734383333333, "name": "638d00e7883cdf7bd9614429a9fe12ea", "is_disabled": 0, "rental_uris": {"android": "https://dc.lft.to/lastmile_qr_scan", "ios": "https://dc.lft.to/lastmile_qr_scan"}, "type": "electric_scooter", "lat": 38.89015466666667, "is_reserved": 0, "fusion_lat": 0.0}, {"bike_id": "18f7af584f27507e9916629bbcb108e5", "fusion_lon": 0.0, "lon": -76.97263666666667, "name": "18f7af584f27507e9916629bbcb108e5", "is_disabled": 0, "rental_uris": {"android": "https://dc.lft.to/lastmile_qr_scan", "ios": "https://dc.lft.to/lastmile_qr_scan"}, "type": "electric_bike", "lat": 38.919603333333335, "is_reserved": 0, "fusion_lat": 0.0}, {"bike_id": "eba5dc30c1881084eadd9ec215ff2545", "fusion_lon": 0.0, "lon": -77.04645216666667, "name": "eba5dc30c1881084eadd9ec215ff2545", "is_disabled": 0, "rental_uris": {"android": "https://dc.lft.to/lastmile_qr_scan", "ios": "https://dc.lft.to/lastmile_qr_scan"}, "type": "electric_bike", "lat": 39.05500133333334, "is_reserved": 0, "fusion_lat": 0.0}, {"bike_id": "c365264ee5b596b74cebb49cbf4e6a64", "fusion_lon": 0.0, "lon": -77.03198066666667, "name": "c365264ee5b596b74cebb49cbf4e6a64", "is_disabled": 0, "rental_uris": {"android": "https://dc.lft.to/lastmile_qr_scan", "ios": "https://dc.lft.to/lastmile_qr_scan"}, "type": "electric_scooter", "lat": 38.90948816666667, "is_reserved": 0, "fusion_lat": 0.0}, {"bike_id": "2547db5cbd5d13ec257de51afcfb503e", "fusion_lon": 0.0, "lon": -77.02186116666667, "name": "2547db5cbd5d13ec257de51afcfb503e", "is_disabled": 0, "rental_uris": {"android": "https://dc.lft.to/lastmile_qr_scan", "ios": "https://dc.lft.to/lastmile_qr_scan"}, "type": "electric_scooter", "lat": 38.88497366666667, "is_reserved": 0, "fusion_lat": 0.0}, {"bike_id": "51ce245ac1787eb058fc15d29d783ab3", "fusion_lon": 0.0, "lon": -76.9873495, "name": "51ce245ac1787eb058fc15d29d783ab3", "is_disabled": 0, "rental_uris": {"android": "https://dc.lft.to/lastmile_qr_scan", "ios": "https://dc.lft.to/lastmile_qr_scan"}, "type": "electric_scooter", "lat": 38.86635916666667, "is_reserved": 0, "fusion_lat": 0.0}, {"bike_id": "a01c59246edb2d415b0e14390562fc44", "fusion_lon": 0.0, "lon": -77.04640366666666, "name": "a01c59246edb2d415b0e14390562fc44", "is_disabled": 0, "rental_uris": {"android": "https://dc.lft.to/lastmile_qr_scan", "ios": "https://dc.lft.to/lastmile_qr_scan"}, "type": "electric_scooter", "lat": 38.895286, "is_reserved": 0, "fusion_lat": 0.0}, {"bike_id": "2f8bbd3ac97a1bd55b1e5f52e4c60d63", "fusion_lon": 0.0, "lon": -77.03302083333334, "name": "2f8bbd3ac97a1bd55b1e5f52e4c60d63", "is_disabled": 0, "rental_uris": {"android": "https://dc.lft.to/lastmile_qr_scan", "ios": "https://dc.lft.to/lastmile_qr_scan"}, "type": "electric_scooter", "lat": 38.907419166666664, "is_reserved": 0, "fusion_lat": 0.0}, {"bike_id": "860dba82a51bdabed2e18a251f2e7243", "fusion_lon": 0.0, "lon": -77.02163633333333, "name": "860dba82a51bdabed2e18a251f2e7243", "is_disabled": 0, "rental_uris": {"android": "https://dc.lft.to/lastmile_qr_scan", "ios": "https://dc.lft.to/lastmile_qr_scan"}, "type": "electric_scooter", "lat": 38.897108, "is_reserved": 0, "fusion_lat": 0.0}, {"bike_id": "ceef84dd29a5fd107713f4de5b997a27", "fusion_lon": 0.0, "lon": -77.022803, "name": "ceef84dd29a5fd107713f4de5b997a27", "is_disabled": 0, "rental_uris": {"android": "https://dc.lft.to/lastmile_qr_scan", "ios": "https://dc.lft.to/lastmile_qr_scan"}, "type": "electric_scooter", "lat": 38.91625633333334, "is_reserved": 0, "fusion_lat": 0.0}, {"bike_id": "96e542c73f06e1f8a1c0a35f7e2bcedd", "fusion_lon": 0.0, "lon": -76.94730983333334, "name": "96e542c73f06e1f8a1c0a35f7e2bcedd", "is_disabled": 0, "rental_uris": {"android": "https://dc.lft.to/lastmile_qr_scan", "ios": "https://dc.lft.to/lastmile_qr_scan"}, "type": "electric_scooter", "lat": 38.896706333333334, "is_reserved": 0, "fusion_lat": 0.0}, {"bike_id": "d678398533bc5855af8650f72e581e23", "fusion_lon": 0.0, "lon": -77.06075283333334, "name": "d678398533bc5855af8650f72e581e23", "is_disabled": 0, "rental_uris": {"android": "https://dc.lft.to/lastmile_qr_scan", "ios": "https://dc.lft.to/lastmile_qr_scan"}, "type": "electric_bike", "lat": 38.8858105, "is_reserved": 0, "fusion_lat": 0.0}, {"bike_id": "8bebcb56c88af9f6d87b5a25319f604e", "fusion_lon": 0.0, "lon": -77.04334033333333, "name": "8bebcb56c88af9f6d87b5a25319f604e", "is_disabled": 0, "rental_uris": {"android": "https://dc.lft.to/lastmile_qr_scan", "ios": "https://dc.lft.to/lastmile_qr_scan"}, "type": "electric_scooter", "lat": 38.907340166666664, "is_reserved": 0, "fusion_lat": 0.0}, {"bike_id": "a16b55b2fe2c651ab6e567560436540d", "fusion_lon": 0.0, "lon": -77.0335945, "name": "a16b55b2fe2c651ab6e567560436540d", "is_disabled": 0, "rental_uris": {"android": "https://dc.lft.to/lastmile_qr_scan", "ios": "https://dc.lft.to/lastmile_qr_scan"}, "type": "electric_scooter", "lat": 38.93230616666666, "is_reserved": 0, "fusion_lat": 0.0}, {"bike_id": "c5b2bfb28acb12dd6172e0fa6b2e4e86", "fusion_lon": 0.0, "lon": -77.02782316666666, "name": "c5b2bfb28acb12dd6172e0fa6b2e4e86", "is_disabled": 0, "rental_uris": {"android": "https://dc.lft.to/lastmile_qr_scan", "ios": "https://dc.lft.to/lastmile_qr_scan"}, "type": "electric_scooter", "lat": 38.930620833333336, "is_reserved": 0, "fusion_lat": 0.0}, {"bike_id": "09c7a30c807d53d4f0e888bec3fa394d", "fusion_lon": 0.0, "lon": -77.09475566666667, "name": "09c7a30c807d53d4f0e888bec3fa394d", "is_disabled": 0, "rental_uris": {"android": "https://dc.lft.to/lastmile_qr_scan", "ios": "https://dc.lft.to/lastmile_qr_scan"}, "type": "electric_bike", "lat": 39.03051416666667, "is_reserved": 0, "fusion_lat": 0.0}, {"bike_id": "e37fbd3e02e268586126194b828fb1f6", "fusion_lon": 0.0, "lon": -77.03208166666667, "name": "e37fbd3e02e268586126194b828fb1f6", "is_disabled": 0, "rental_uris": {"android": "https://dc.lft.to/lastmile_qr_scan", "ios": "https://dc.lft.to/lastmile_qr_scan"}, "type": "electric_scooter", "lat": 38.914751, "is_reserved": 0, "fusion_lat": 0.0}, {"bike_id": "e3c51d619b68061486922ba18bf6f900", "fusion_lon": 0.0, "lon": -77.01944816666666, "name": "e3c51d619b68061486922ba18bf6f900", "is_disabled": 0, "rental_uris": {"android": "https://dc.lft.to/lastmile_qr_scan", "ios": "https://dc.lft.to/lastmile_qr_scan"}, "type": "electric_scooter", "lat": 38.92417366666667, "is_reserved": 0, "fusion_lat": 0.0}, {"bike_id": "b22d186fd80f0dcd1c5e6ad53aefe1f7", "fusion_lon": 0.0, "lon": -77.05104633333333, "name": "b22d186fd80f0dcd1c5e6ad53aefe1f7", "is_disabled": 0, "rental_uris": {"android": "https://dc.lft.to/lastmile_qr_scan", "ios": "https://dc.lft.to/lastmile_qr_scan"}, "type": "electric_scooter", "lat": 38.905233333333335, "is_reserved": 0, "fusion_lat": 0.0}, {"bike_id": "d3b29c9ee10bed0fb6b0365cb8cad60e", "fusion_lon": 0.0, "lon": -77.02683483333334, "name": "d3b29c9ee10bed0fb6b0365cb8cad60e", "is_disabled": 0, "rental_uris": {"android": "https://dc.lft.to/lastmile_qr_scan", "ios": "https://dc.lft.to/lastmile_qr_scan"}, "type": "electric_scooter", "lat": 38.90672683333333, "is_reserved": 0, "fusion_lat": 0.0}, {"bike_id": "774da5f6e015737943f38abfc4401581", "fusion_lon": 0.0, "lon": -77.01471466666666, "name": "774da5f6e015737943f38abfc4401581", "is_disabled": 0, "rental_uris": {"android": "https://dc.lft.to/lastmile_qr_scan", "ios": "https://dc.lft.to/lastmile_qr_scan"}, "type": "electric_scooter", "lat": 38.87647883333333, "is_reserved": 0, "fusion_lat": 0.0}, {"bike_id": "f0661bdce33aa934146420d96c80abce", "fusion_lon": 0.0, "lon": -77.1310665, "name": "f0661bdce33aa934146420d96c80abce", "is_disabled": 0, "rental_uris": {"android": "https://dc.lft.to/lastmile_qr_scan", "ios": "https://dc.lft.to/lastmile_qr_scan"}, "type": "electric_bike", "lat": 39.02443516666666, "is_reserved": 0, "fusion_lat": 0.0}, {"bike_id": "925758fbca0e740ec4f44d3b25f40644", "fusion_lon": 0.0, "lon": -77.0274705, "name": "925758fbca0e740ec4f44d3b25f40644", "is_disabled": 0, "rental_uris": {"android": "https://dc.lft.to/lastmile_qr_scan", "ios": "https://dc.lft.to/lastmile_qr_scan"}, "type": "electric_scooter", "lat": 38.951692666666666, "is_reserved": 0, "fusion_lat": 0.0}, {"bike_id": "46ac705eed81e4ca80de3c284c7a97c2", "fusion_lon": 0.0, "lon": -76.990009, "name": "46ac705eed81e4ca80de3c284c7a97c2", "is_disabled": 0, "rental_uris": {"android": "https://dc.lft.to/lastmile_qr_scan", "ios": "https://dc.lft.to/lastmile_qr_scan"}, "type": "electric_scooter", "lat": 38.92452566666667, "is_reserved": 0, "fusion_lat": 0.0}, {"bike_id": "9d443786bd7499bd37e8219deed93cf1", "fusion_lon": 0.0, "lon": -77.02092516666667, "name": "9d443786bd7499bd37e8219deed93cf1", "is_disabled": 0, "rental_uris": {"android": "https://dc.lft.to/lastmile_qr_scan", "ios": "https://dc.lft.to/lastmile_qr_scan"}, "type": "electric_scooter", "lat": 38.9220925, "is_reserved": 0, "fusion_lat": 0.0}, {"bike_id": "0113eab02efd5c9e51bb631b28a5ba11", "fusion_lon": 0.0, "lon": -77.02224666666666, "name": "0113eab02efd5c9e51bb631b28a5ba11", "is_disabled": 0, "rental_uris": {"android": "https://dc.lft.to/lastmile_qr_scan", "ios": "https://dc.lft.to/lastmile_qr_scan"}, "type": "electric_scooter", "lat": 38.892236, "is_reserved": 0, "fusion_lat": 0.0}, {"bike_id": "4d2130af979a456708913f69e18a2405", "fusion_lon": 0.0, "lon": -77.014029, "name": "4d2130af979a456708913f69e18a2405", "is_disabled": 0, "rental_uris": {"android": "https://dc.lft.to/lastmile_qr_scan", "ios": "https://dc.lft.to/lastmile_qr_scan"}, "type": "electric_scooter", "lat": 38.881241333333335, "is_reserved": 0, "fusion_lat": 0.0}, {"bike_id": "ef7bd7df4e4ac0ab8daa7a5b429ef867", "fusion_lon": 0.0, "lon": -76.93619383333333, "name": "ef7bd7df4e4ac0ab8daa7a5b429ef867", "is_disabled": 0, "rental_uris": {"android": "https://dc.lft.to/lastmile_qr_scan", "ios": "https://dc.lft.to/lastmile_qr_scan"}, "type": "electric_bike", "lat": 38.97071916666667, "is_reserved": 0, "fusion_lat": 0.0}, {"bike_id": "a7ee351482b5299af4db93e68f5ecd2d", "fusion_lon": 0.0, "lon": -77.028862, "name": "a7ee351482b5299af4db93e68f5ecd2d", "is_disabled": 0, "rental_uris": {"android": "https://dc.lft.to/lastmile_qr_scan", "ios": "https://dc.lft.to/lastmile_qr_scan"}, "type": "electric_scooter", "lat": 38.939778833333335, "is_reserved": 0, "fusion_lat": 0.0}, {"bike_id": "9864a28077dc49411e8b4a8ea3198fc1", "fusion_lon": 0.0, "lon": -77.01434833333333, "name": "9864a28077dc49411e8b4a8ea3198fc1", "is_disabled": 0, "rental_uris": {"android": "https://dc.lft.to/lastmile_qr_scan", "ios": "https://dc.lft.to/lastmile_qr_scan"}, "type": "electric_scooter", "lat": 38.9196775, "is_reserved": 0, "fusion_lat": 0.0}, {"bike_id": "86c039c45d9a92cb4a97b838b627afbc", "fusion_lon": 0.0, "lon": -77.04117483333333, "name": "86c039c45d9a92cb4a97b838b627afbc", "is_disabled": 0, "rental_uris": {"android": "https://dc.lft.to/lastmile_qr_scan", "ios": "https://dc.lft.to/lastmile_qr_scan"}, "type": "electric_scooter", "lat": 38.909650166666665, "is_reserved": 0, "fusion_lat": 0.0}, {"bike_id": "3a05080e2712765574709bcdefd216ce", "fusion_lon": 0.0, "lon": -76.988512, "name": "3a05080e2712765574709bcdefd216ce", "is_disabled": 0, "rental_uris": {"android": "https://dc.lft.to/lastmile_qr_scan", "ios": "https://dc.lft.to/lastmile_qr_scan"}, "type": "electric_scooter", "lat": 38.90035, "is_reserved": 0, "fusion_lat": 0.0}, {"bike_id": "28b907ea28df7424d5745b86517896dc", "fusion_lon": 0.0, "lon": -77.04392466666667, "name": "28b907ea28df7424d5745b86517896dc", "is_disabled": 0, "rental_uris": {"android": "https://dc.lft.to/lastmile_qr_scan", "ios": "https://dc.lft.to/lastmile_qr_scan"}, "type": "electric_scooter", "lat": 38.90150716666667, "is_reserved": 0, "fusion_lat": 0.0}, {"bike_id": "11a61e5d7d79116d61b538b460e423ed", "fusion_lon": 0.0, "lon": -77.00895316666667, "name": "11a61e5d7d79116d61b538b460e423ed", "is_disabled": 0, "rental_uris": {"android": "https://dc.lft.to/lastmile_qr_scan", "ios": "https://dc.lft.to/lastmile_qr_scan"}, "type": "electric_scooter", "lat": 38.88172216666667, "is_reserved": 0, "fusion_lat": 0.0}, {"bike_id": "ea021bd7303a599a07d28a231669a9fd", "fusion_lon": 0.0, "lon": -77.00197516666667, "name": "ea021bd7303a599a07d28a231669a9fd", "is_disabled": 0, "rental_uris": {"android": "https://dc.lft.to/lastmile_qr_scan", "ios": "https://dc.lft.to/lastmile_qr_scan"}, "type": "electric_scooter", "lat": 38.90242216666667, "is_reserved": 0, "fusion_lat": 0.0}, {"bike_id": "248059e7389faf3cbb3911e054c3e562", "fusion_lon": 0.0, "lon": -77.0323535, "name": "248059e7389faf3cbb3911e054c3e562", "is_disabled": 0, "rental_uris": {"android": "https://dc.lft.to/lastmile_qr_scan", "ios": "https://dc.lft.to/lastmile_qr_scan"}, "type": "electric_scooter", "lat": 38.92758383333333, "is_reserved": 0, "fusion_lat": 0.0}, {"bike_id": "542cac11d4f9cf0ab03425e8ce818b61", "fusion_lon": 0.0, "lon": -77.0732915, "name": "542cac11d4f9cf0ab03425e8ce818b61", "is_disabled": 0, "rental_uris": {"android": "https://dc.lft.to/lastmile_qr_scan", "ios": "https://dc.lft.to/lastmile_qr_scan"}, "type": "electric_scooter", "lat": 38.925683666666664, "is_reserved": 0, "fusion_lat": 0.0}, {"bike_id": "24ee2704551adc9d0056d439b71fb71d", "fusion_lon": 0.0, "lon": -76.98178566666667, "name": "24ee2704551adc9d0056d439b71fb71d", "is_disabled": 0, "rental_uris": {"android": "https://dc.lft.to/lastmile_qr_scan", "ios": "https://dc.lft.to/lastmile_qr_scan"}, "type": "electric_bike", "lat": 38.8462975, "is_reserved": 0, "fusion_lat": 0.0}, {"bike_id": "e8fbf74a704d449b3b3d8fcd4b7ad790", "fusion_lon": 0.0, "lon": -77.00202083333333, "name": "e8fbf74a704d449b3b3d8fcd4b7ad790", "is_disabled": 0, "rental_uris": {"android": "https://dc.lft.to/lastmile_qr_scan", "ios": "https://dc.lft.to/lastmile_qr_scan"}, "type": "electric_scooter", "lat": 38.900416166666666, "is_reserved": 0, "fusion_lat": 0.0}, {"bike_id": "3e01e779bf85144c730e8ff9d30dec76", "fusion_lon": 0.0, "lon": -77.02494166666666, "name": "3e01e779bf85144c730e8ff9d30dec76", "is_disabled": 0, "rental_uris": {"android": "https://dc.lft.to/lastmile_qr_scan", "ios": "https://dc.lft.to/lastmile_qr_scan"}, "type": "electric_scooter", "lat": 38.90730966666667, "is_reserved": 0, "fusion_lat": 0.0}, {"bike_id": "3ec912bddb08917fe0aa1ad2efbdd5f2", "fusion_lon": 0.0, "lon": -77.04892866666667, "name": "3ec912bddb08917fe0aa1ad2efbdd5f2", "is_disabled": 0, "rental_uris": {"android": "https://dc.lft.to/lastmile_qr_scan", "ios": "https://dc.lft.to/lastmile_qr_scan"}, "type": "electric_scooter", "lat": 38.90066266666667, "is_reserved": 0, "fusion_lat": 0.0}, {"bike_id": "9a400ddc0894d3722cbc68bfef00659a", "fusion_lon": 0.0, "lon": -77.0149095, "name": "9a400ddc0894d3722cbc68bfef00659a", "is_disabled": 0, "rental_uris": {"android": "https://dc.lft.to/lastmile_qr_scan", "ios": "https://dc.lft.to/lastmile_qr_scan"}, "type": "electric_scooter", "lat": 38.8993165, "is_reserved": 0, "fusion_lat": 0.0}, {"bike_id": "5934724f44d2b58dad4db096895cd324", "fusion_lon": 0.0, "lon": -77.03359616666667, "name": "5934724f44d2b58dad4db096895cd324", "is_disabled": 0, "rental_uris": {"android": "https://dc.lft.to/lastmile_qr_scan", "ios": "https://dc.lft.to/lastmile_qr_scan"}, "type": "electric_scooter", "lat": 38.928970666666665, "is_reserved": 0, "fusion_lat": 0.0}, {"bike_id": "6d99b69208c52dc2532b397f0cdaa9ad", "fusion_lon": 0.0, "lon": -77.05928066666667, "name": "6d99b69208c52dc2532b397f0cdaa9ad", "is_disabled": 0, "rental_uris": {"android": "https://dc.lft.to/lastmile_qr_scan", "ios": "https://dc.lft.to/lastmile_qr_scan"}, "type": "electric_scooter", "lat": 38.90946483333333, "is_reserved": 0, "fusion_lat": 0.0}, {"bike_id": "e330c54743a920e9b7407c9b807f2cea", "fusion_lon": 0.0, "lon": -77.0369295, "name": "e330c54743a920e9b7407c9b807f2cea", "is_disabled": 0, "rental_uris": {"android": "https://dc.lft.to/lastmile_qr_scan", "ios": "https://dc.lft.to/lastmile_qr_scan"}, "type": "electric_scooter", "lat": 38.926476666666666, "is_reserved": 0, "fusion_lat": 0.0}, {"bike_id": "036d7cc2d43d27c5d5cfe64bbfb6e5eb", "fusion_lon": 0.0, "lon": -77.06931466666667, "name": "036d7cc2d43d27c5d5cfe64bbfb6e5eb", "is_disabled": 0, "rental_uris": {"android": "https://dc.lft.to/lastmile_qr_scan", "ios": "https://dc.lft.to/lastmile_qr_scan"}, "type": "electric_scooter", "lat": 38.9077845, "is_reserved": 0, "fusion_lat": 0.0}, {"bike_id": "dbf5e0334d60c591461cddaef5422cec", "fusion_lon": 0.0, "lon": -77.00226366666666, "name": "dbf5e0334d60c591461cddaef5422cec", "is_disabled": 0, "rental_uris": {"android": "https://dc.lft.to/lastmile_qr_scan", "ios": "https://dc.lft.to/lastmile_qr_scan"}, "type": "electric_scooter", "lat": 38.92508933333333, "is_reserved": 0, "fusion_lat": 0.0}, {"bike_id": "f7a8375ed859f0a73b3b751e7e75ea77", "fusion_lon": 0.0, "lon": -77.02774866666667, "name": "f7a8375ed859f0a73b3b751e7e75ea77", "is_disabled": 0, "rental_uris": {"android": "https://dc.lft.to/lastmile_qr_scan", "ios": "https://dc.lft.to/lastmile_qr_scan"}, "type": "electric_scooter", "lat": 38.89219966666667, "is_reserved": 0, "fusion_lat": 0.0}, {"bike_id": "44578e91382a80c93a2651b4982a8f77", "fusion_lon": 0.0, "lon": -77.04167383333333, "name": "44578e91382a80c93a2651b4982a8f77", "is_disabled": 0, "rental_uris": {"android": "https://dc.lft.to/lastmile_qr_scan", "ios": "https://dc.lft.to/lastmile_qr_scan"}, "type": "electric_scooter", "lat": 38.90375083333333, "is_reserved": 0, "fusion_lat": 0.0}, {"bike_id": "5464e0a0265321b3f80d2e3619f0563c", "fusion_lon": 0.0, "lon": -77.03090966666667, "name": "5464e0a0265321b3f80d2e3619f0563c", "is_disabled": 0, "rental_uris": {"android": "https://dc.lft.to/lastmile_qr_scan", "ios": "https://dc.lft.to/lastmile_qr_scan"}, "type": "electric_scooter", "lat": 38.937569333333336, "is_reserved": 0, "fusion_lat": 0.0}, {"bike_id": "b1f4415133e34a717e334fa5b09e0dee", "fusion_lon": 0.0, "lon": -77.04618766666667, "name": "b1f4415133e34a717e334fa5b09e0dee", "is_disabled": 0, "rental_uris": {"android": "https://dc.lft.to/lastmile_qr_scan", "ios": "https://dc.lft.to/lastmile_qr_scan"}, "type": "electric_scooter", "lat": 38.9192215, "is_reserved": 0, "fusion_lat": 0.0}, {"bike_id": "4bcd94e02a48b2b0fc3447c562c33b58", "fusion_lon": 0.0, "lon": -76.98371683333333, "name": "4bcd94e02a48b2b0fc3447c562c33b58", "is_disabled": 0, "rental_uris": {"android": "https://dc.lft.to/lastmile_qr_scan", "ios": "https://dc.lft.to/lastmile_qr_scan"}, "type": "electric_scooter", "lat": 38.885865, "is_reserved": 0, "fusion_lat": 0.0}, {"bike_id": "bcea1c7cf9ba728512cc4ec0591887fb", "fusion_lon": 0.0, "lon": -77.02796466666666, "name": "bcea1c7cf9ba728512cc4ec0591887fb", "is_disabled": 0, "rental_uris": {"android": "https://dc.lft.to/lastmile_qr_scan", "ios": "https://dc.lft.to/lastmile_qr_scan"}, "type": "electric_scooter", "lat": 38.9297085, "is_reserved": 0, "fusion_lat": 0.0}, {"bike_id": "2918650e96364223a299d98d5e47e0f2", "fusion_lon": 0.0, "lon": -77.0019485, "name": "2918650e96364223a299d98d5e47e0f2", "is_disabled": 0, "rental_uris": {"android": "https://dc.lft.to/lastmile_qr_scan", "ios": "https://dc.lft.to/lastmile_qr_scan"}, "type": "electric_scooter", "lat": 38.902421333333336, "is_reserved": 0, "fusion_lat": 0.0}, {"bike_id": "7e58b47316e28a890efe26704013ba2b", "fusion_lon": 0.0, "lon": -76.96857133333333, "name": "7e58b47316e28a890efe26704013ba2b", "is_disabled": 0, "rental_uris": {"android": "https://dc.lft.to/lastmile_qr_scan", "ios": "https://dc.lft.to/lastmile_qr_scan"}, "type": "electric_scooter", "lat": 38.870933666666666, "is_reserved": 0, "fusion_lat": 0.0}, {"bike_id": "6c5968dd994e94359cfa9951019f4f8a", "fusion_lon": 0.0, "lon": -77.04824133333334, "name": "6c5968dd994e94359cfa9951019f4f8a", "is_disabled": 0, "rental_uris": {"android": "https://dc.lft.to/lastmile_qr_scan", "ios": "https://dc.lft.to/lastmile_qr_scan"}, "type": "electric_scooter", "lat": 38.888906166666665, "is_reserved": 0, "fusion_lat": 0.0}, {"bike_id": "ee1aa21d3399fcbdc1dca9238dc5a1ea", "fusion_lon": 0.0, "lon": -76.9364165, "name": "ee1aa21d3399fcbdc1dca9238dc5a1ea", "is_disabled": 0, "rental_uris": {"android": "https://dc.lft.to/lastmile_qr_scan", "ios": "https://dc.lft.to/lastmile_qr_scan"}, "type": "electric_bike", "lat": 38.87149183333333, "is_reserved": 0, "fusion_lat": 0.0}, {"bike_id": "d18cc12098110f8b9a9b62ec2ba27255", "fusion_lon": 0.0, "lon": -77.006338, "name": "d18cc12098110f8b9a9b62ec2ba27255", "is_disabled": 0, "rental_uris": {"android": "https://dc.lft.to/lastmile_qr_scan", "ios": "https://dc.lft.to/lastmile_qr_scan"}, "type": "electric_bike", "lat": 38.94835616666667, "is_reserved": 0, "fusion_lat": 0.0}, {"bike_id": "f59a1fbeb8ba80f06464883151ff17af", "fusion_lon": 0.0, "lon": -77.0270515, "name": "f59a1fbeb8ba80f06464883151ff17af", "is_disabled": 0, "rental_uris": {"android": "https://dc.lft.to/lastmile_qr_scan", "ios": "https://dc.lft.to/lastmile_qr_scan"}, "type": "electric_scooter", "lat": 38.906744, "is_reserved": 0, "fusion_lat": 0.0}, {"bike_id": "504b88c7ccf8dd9495e52c612df51c00", "fusion_lon": 0.0, "lon": -77.03200766666667, "name": "504b88c7ccf8dd9495e52c612df51c00", "is_disabled": 0, "rental_uris": {"android": "https://dc.lft.to/lastmile_qr_scan", "ios": "https://dc.lft.to/lastmile_qr_scan"}, "type": "electric_scooter", "lat": 38.899604, "is_reserved": 0, "fusion_lat": 0.0}, {"bike_id": "837e83961a29c10ba8de1d0154b2a664", "fusion_lon": 0.0, "lon": -76.933485, "name": "837e83961a29c10ba8de1d0154b2a664", "is_disabled": 0, "rental_uris": {"android": "https://dc.lft.to/lastmile_qr_scan", "ios": "https://dc.lft.to/lastmile_qr_scan"}, "type": "electric_scooter", "lat": 38.89912283333334, "is_reserved": 0, "fusion_lat": 0.0}, {"bike_id": "ff4c3130051468272a6c1f4f73940dd0", "fusion_lon": 0.0, "lon": -77.03443383333334, "name": "ff4c3130051468272a6c1f4f73940dd0", "is_disabled": 0, "rental_uris": {"android": "https://dc.lft.to/lastmile_qr_scan", "ios": "https://dc.lft.to/lastmile_qr_scan"}, "type": "electric_scooter", "lat": 38.904432666666665, "is_reserved": 0, "fusion_lat": 0.0}, {"bike_id": "ff494df44f0581def518a35119514bbc", "fusion_lon": 0.0, "lon": -76.96603883333333, "name": "ff494df44f0581def518a35119514bbc", "is_disabled": 0, "rental_uris": {"android": "https://dc.lft.to/lastmile_qr_scan", "ios": "https://dc.lft.to/lastmile_qr_scan"}, "type": "electric_scooter", "lat": 38.8738955, "is_reserved": 0, "fusion_lat": 0.0}, {"bike_id": "25038bad03de271528a66b9474fddcd5", "fusion_lon": 0.0, "lon": -77.02324416666667, "name": "25038bad03de271528a66b9474fddcd5", "is_disabled": 0, "rental_uris": {"android": "https://dc.lft.to/lastmile_qr_scan", "ios": "https://dc.lft.to/lastmile_qr_scan"}, "type": "electric_scooter", "lat": 38.91678066666667, "is_reserved": 0, "fusion_lat": 0.0}, {"bike_id": "a86a8189f92cc0eb064d05088ac09afa", "fusion_lon": 0.0, "lon": -77.036264, "name": "a86a8189f92cc0eb064d05088ac09afa", "is_disabled": 0, "rental_uris": {"android": "https://dc.lft.to/lastmile_qr_scan", "ios": "https://dc.lft.to/lastmile_qr_scan"}, "type": "electric_scooter", "lat": 38.918701666666664, "is_reserved": 0, "fusion_lat": 0.0}, {"bike_id": "41aa84c313e54f8dc9db1e7b0b4222ae", "fusion_lon": 0.0, "lon": -77.02980416666666, "name": "41aa84c313e54f8dc9db1e7b0b4222ae", "is_disabled": 0, "rental_uris": {"android": "https://dc.lft.to/lastmile_qr_scan", "ios": "https://dc.lft.to/lastmile_qr_scan"}, "type": "electric_bike", "lat": 38.9369715, "is_reserved": 0, "fusion_lat": 0.0}, {"bike_id": "713aecf375ac5892c33961da0d1e67e1", "fusion_lon": 0.0, "lon": -76.94957616666667, "name": "713aecf375ac5892c33961da0d1e67e1", "is_disabled": 0, "rental_uris": {"android": "https://dc.lft.to/lastmile_qr_scan", "ios": "https://dc.lft.to/lastmile_qr_scan"}, "type": "electric_scooter", "lat": 38.904954333333336, "is_reserved": 0, "fusion_lat": 0.0}, {"bike_id": "d1a416f9347434044bcf41916e50383a", "fusion_lon": 0.0, "lon": -76.95976516666667, "name": "d1a416f9347434044bcf41916e50383a", "is_disabled": 0, "rental_uris": {"android": "https://dc.lft.to/lastmile_qr_scan", "ios": "https://dc.lft.to/lastmile_qr_scan"}, "type": "electric_bike", "lat": 38.870076, "is_reserved": 0, "fusion_lat": 0.0}, {"bike_id": "7ff82a667b322dd52f1f223bc91bebb1", "fusion_lon": 0.0, "lon": -77.03827316666667, "name": "7ff82a667b322dd52f1f223bc91bebb1", "is_disabled": 0, "rental_uris": {"android": "https://dc.lft.to/lastmile_qr_scan", "ios": "https://dc.lft.to/lastmile_qr_scan"}, "type": "electric_scooter", "lat": 38.918156833333335, "is_reserved": 0, "fusion_lat": 0.0}, {"bike_id": "0dc9580d74012eb6cd8c315b82e92229", "fusion_lon": 0.0, "lon": -77.03124883333334, "name": "0dc9580d74012eb6cd8c315b82e92229", "is_disabled": 0, "rental_uris": {"android": "https://dc.lft.to/lastmile_qr_scan", "ios": "https://dc.lft.to/lastmile_qr_scan"}, "type": "electric_scooter", "lat": 38.9149075, "is_reserved": 0, "fusion_lat": 0.0}, {"bike_id": "1680be527a49bd32f62400707b767ab5", "fusion_lon": 0.0, "lon": -77.0446815, "name": "1680be527a49bd32f62400707b767ab5", "is_disabled": 0, "rental_uris": {"android": "https://dc.lft.to/lastmile_qr_scan", "ios": "https://dc.lft.to/lastmile_qr_scan"}, "type": "electric_scooter", "lat": 38.915403833333336, "is_reserved": 0, "fusion_lat": 0.0}, {"bike_id": "d6e2c45210c2f7397a1156cb383790b9", "fusion_lon": 0.0, "lon": -77.03316633333333, "name": "d6e2c45210c2f7397a1156cb383790b9", "is_disabled": 0, "rental_uris": {"android": "https://dc.lft.to/lastmile_qr_scan", "ios": "https://dc.lft.to/lastmile_qr_scan"}, "type": "electric_bike", "lat": 38.936869333333334, "is_reserved": 0, "fusion_lat": 0.0}, {"bike_id": "c046133929d998a80c48e8de23d450d7", "fusion_lon": 0.0, "lon": -77.05228183333334, "name": "c046133929d998a80c48e8de23d450d7", "is_disabled": 0, "rental_uris": {"android": "https://dc.lft.to/lastmile_qr_scan", "ios": "https://dc.lft.to/lastmile_qr_scan"}, "type": "electric_scooter", "lat": 38.924603, "is_reserved": 0, "fusion_lat": 0.0}, {"bike_id": "ecb5fd6dc92b24a32b8386a5f31855d5", "fusion_lon": 0.0, "lon": -77.01882683333334, "name": "ecb5fd6dc92b24a32b8386a5f31855d5", "is_disabled": 0, "rental_uris": {"android": "https://dc.lft.to/lastmile_qr_scan", "ios": "https://dc.lft.to/lastmile_qr_scan"}, "type": "electric_scooter", "lat": 38.9060825, "is_reserved": 0, "fusion_lat": 0.0}, {"bike_id": "7e29aaaa082a2cb1bf889199af286a34", "fusion_lon": 0.0, "lon": -77.050591, "name": "7e29aaaa082a2cb1bf889199af286a34", "is_disabled": 0, "rental_uris": {"android": "https://dc.lft.to/lastmile_qr_scan", "ios": "https://dc.lft.to/lastmile_qr_scan"}, "type": "electric_scooter", "lat": 38.9241875, "is_reserved": 0, "fusion_lat": 0.0}, {"bike_id": "bef9ea896bc16e0116aac7024a59082b", "fusion_lon": 0.0, "lon": -77.0405195, "name": "bef9ea896bc16e0116aac7024a59082b", "is_disabled": 0, "rental_uris": {"android": "https://dc.lft.to/lastmile_qr_scan", "ios": "https://dc.lft.to/lastmile_qr_scan"}, "type": "electric_scooter", "lat": 38.91335816666667, "is_reserved": 0, "fusion_lat": 0.0}, {"bike_id": "bca052d04a03f8a912e0d0f6d16785e2", "fusion_lon": 0.0, "lon": -76.975302, "name": "bca052d04a03f8a912e0d0f6d16785e2", "is_disabled": 0, "rental_uris": {"android": "https://dc.lft.to/lastmile_qr_scan", "ios": "https://dc.lft.to/lastmile_qr_scan"}, "type": "electric_bike", "lat": 38.90331533333333, "is_reserved": 0, "fusion_lat": 0.0}, {"bike_id": "a50d6ef8a53bbd2be701421bf6cfee78", "fusion_lon": 0.0, "lon": -76.95746483333333, "name": "a50d6ef8a53bbd2be701421bf6cfee78", "is_disabled": 0, "rental_uris": {"android": "https://dc.lft.to/lastmile_qr_scan", "ios": "https://dc.lft.to/lastmile_qr_scan"}, "type": "electric_scooter", "lat": 38.8842915, "is_reserved": 0, "fusion_lat": 0.0}, {"bike_id": "3003f6427773f705908c0a29ceccf342", "fusion_lon": 0.0, "lon": -76.997782, "name": "3003f6427773f705908c0a29ceccf342", "is_disabled": 0, "rental_uris": {"android": "https://dc.lft.to/lastmile_qr_scan", "ios": "https://dc.lft.to/lastmile_qr_scan"}, "type": "electric_scooter", "lat": 38.844296, "is_reserved": 0, "fusion_lat": 0.0}, {"bike_id": "2113b2fba7ba6600b1769bd9e4b33fda", "fusion_lon": 0.0, "lon": -76.98313433333334, "name": "2113b2fba7ba6600b1769bd9e4b33fda", "is_disabled": 0, "rental_uris": {"android": "https://dc.lft.to/lastmile_qr_scan", "ios": "https://dc.lft.to/lastmile_qr_scan"}, "type": "electric_scooter", "lat": 38.868923, "is_reserved": 0, "fusion_lat": 0.0}, {"bike_id": "fe522c2d587f53660386346b2db1a7eb", "fusion_lon": 0.0, "lon": -77.04340333333333, "name": "fe522c2d587f53660386346b2db1a7eb", "is_disabled": 0, "rental_uris": {"android": "https://dc.lft.to/lastmile_qr_scan", "ios": "https://dc.lft.to/lastmile_qr_scan"}, "type": "electric_scooter", "lat": 38.921604333333335, "is_reserved": 0, "fusion_lat": 0.0}, {"bike_id": "44e411e7b722cfdd3698a8b580806dfd", "fusion_lon": 0.0, "lon": -77.02708833333334, "name": "44e411e7b722cfdd3698a8b580806dfd", "is_disabled": 0, "rental_uris": {"android": "https://dc.lft.to/lastmile_qr_scan", "ios": "https://dc.lft.to/lastmile_qr_scan"}, "type": "electric_scooter", "lat": 38.89602383333333, "is_reserved": 0, "fusion_lat": 0.0}, {"bike_id": "48d414372832c0e1d58efe64d95f78e4", "fusion_lon": 0.0, "lon": -77.02946433333334, "name": "48d414372832c0e1d58efe64d95f78e4", "is_disabled": 0, "rental_uris": {"android": "https://dc.lft.to/lastmile_qr_scan", "ios": "https://dc.lft.to/lastmile_qr_scan"}, "type": "electric_scooter", "lat": 38.9049245, "is_reserved": 0, "fusion_lat": 0.0}, {"bike_id": "71b12456c882c230c9fa3e01614de9f1", "fusion_lon": 0.0, "lon": -77.03053066666666, "name": "71b12456c882c230c9fa3e01614de9f1", "is_disabled": 0, "rental_uris": {"android": "https://dc.lft.to/lastmile_qr_scan", "ios": "https://dc.lft.to/lastmile_qr_scan"}, "type": "electric_scooter", "lat": 38.88410183333333, "is_reserved": 0, "fusion_lat": 0.0}, {"bike_id": "68b91116c58e28a0a6b7cf66b020310b", "fusion_lon": 0.0, "lon": -77.041544, "name": "68b91116c58e28a0a6b7cf66b020310b", "is_disabled": 0, "rental_uris": {"android": "https://dc.lft.to/lastmile_qr_scan", "ios": "https://dc.lft.to/lastmile_qr_scan"}, "type": "electric_scooter", "lat": 38.91652083333334, "is_reserved": 0, "fusion_lat": 0.0}, {"bike_id": "46a0c658e42684441a435b77b77a0757", "fusion_lon": 0.0, "lon": -76.98277916666666, "name": "46a0c658e42684441a435b77b77a0757", "is_disabled": 0, "rental_uris": {"android": "https://dc.lft.to/lastmile_qr_scan", "ios": "https://dc.lft.to/lastmile_qr_scan"}, "type": "electric_scooter", "lat": 38.904325666666665, "is_reserved": 0, "fusion_lat": 0.0}, {"bike_id": "634ec988d1254053f3803ffacef4ae11", "fusion_lon": 0.0, "lon": -76.99559566666667, "name": "634ec988d1254053f3803ffacef4ae11", "is_disabled": 0, "rental_uris": {"android": "https://dc.lft.to/lastmile_qr_scan", "ios": "https://dc.lft.to/lastmile_qr_scan"}, "type": "electric_scooter", "lat": 38.862592666666664, "is_reserved": 0, "fusion_lat": 0.0}, {"bike_id": "41376da06d554eecf57c1a6479671f0f", "fusion_lon": 0.0, "lon": -77.02253383333333, "name": "41376da06d554eecf57c1a6479671f0f", "is_disabled": 0, "rental_uris": {"android": "https://dc.lft.to/lastmile_qr_scan", "ios": "https://dc.lft.to/lastmile_qr_scan"}, "type": "electric_scooter", "lat": 38.923102, "is_reserved": 0, "fusion_lat": 0.0}, {"bike_id": "c4f67f387ea44dbdbd3ed25414dd995e", "fusion_lon": 0.0, "lon": -77.03957066666666, "name": "c4f67f387ea44dbdbd3ed25414dd995e", "is_disabled": 0, "rental_uris": {"android": "https://dc.lft.to/lastmile_qr_scan", "ios": "https://dc.lft.to/lastmile_qr_scan"}, "type": "electric_scooter", "lat": 38.902679666666664, "is_reserved": 0, "fusion_lat": 0.0}, {"bike_id": "49535a8a59cb05d1119f3e5735b29fac", "fusion_lon": 0.0, "lon": -76.9955525, "name": "49535a8a59cb05d1119f3e5735b29fac", "is_disabled": 0, "rental_uris": {"android": "https://dc.lft.to/lastmile_qr_scan", "ios": "https://dc.lft.to/lastmile_qr_scan"}, "type": "electric_scooter", "lat": 38.88265883333333, "is_reserved": 0, "fusion_lat": 0.0}, {"bike_id": "4bb3d40c8867acb0bde84ce71b3ce167", "fusion_lon": 0.0, "lon": -77.0295325, "name": "4bb3d40c8867acb0bde84ce71b3ce167", "is_disabled": 0, "rental_uris": {"android": "https://dc.lft.to/lastmile_qr_scan", "ios": "https://dc.lft.to/lastmile_qr_scan"}, "type": "electric_scooter", "lat": 38.90696166666667, "is_reserved": 0, "fusion_lat": 0.0}, {"bike_id": "854b36412c17e346f58aecc88f0a1799", "fusion_lon": 0.0, "lon": -77.039066, "name": "854b36412c17e346f58aecc88f0a1799", "is_disabled": 0, "rental_uris": {"android": "https://dc.lft.to/lastmile_qr_scan", "ios": "https://dc.lft.to/lastmile_qr_scan"}, "type": "electric_scooter", "lat": 38.9141885, "is_reserved": 0, "fusion_lat": 0.0}, {"bike_id": "45315db7e8584a46ebaba2a89db1fdf4", "fusion_lon": 0.0, "lon": -77.04163233333334, "name": "45315db7e8584a46ebaba2a89db1fdf4", "is_disabled": 0, "rental_uris": {"android": "https://dc.lft.to/lastmile_qr_scan", "ios": "https://dc.lft.to/lastmile_qr_scan"}, "type": "electric_scooter", "lat": 38.91302016666667, "is_reserved": 0, "fusion_lat": 0.0}, {"bike_id": "cc5d06d88b766db150372e766aeb389e", "fusion_lon": 0.0, "lon": -77.02897083333333, "name": "cc5d06d88b766db150372e766aeb389e", "is_disabled": 0, "rental_uris": {"android": "https://dc.lft.to/lastmile_qr_scan", "ios": "https://dc.lft.to/lastmile_qr_scan"}, "type": "electric_scooter", "lat": 38.91555816666666, "is_reserved": 0, "fusion_lat": 0.0}, {"bike_id": "dcffcffb4f5b88fce50af115faf4f2b2", "fusion_lon": 0.0, "lon": -76.99482616666667, "name": "dcffcffb4f5b88fce50af115faf4f2b2", "is_disabled": 0, "rental_uris": {"android": "https://dc.lft.to/lastmile_qr_scan", "ios": "https://dc.lft.to/lastmile_qr_scan"}, "type": "electric_scooter", "lat": 38.904169333333336, "is_reserved": 0, "fusion_lat": 0.0}, {"bike_id": "1843cae776014a57505fc40284c5dd29", "fusion_lon": 0.0, "lon": -77.07709516666667, "name": "1843cae776014a57505fc40284c5dd29", "is_disabled": 0, "rental_uris": {"android": "https://dc.lft.to/lastmile_qr_scan", "ios": "https://dc.lft.to/lastmile_qr_scan"}, "type": "electric_scooter", "lat": 38.943878166666664, "is_reserved": 0, "fusion_lat": 0.0}, {"bike_id": "58ae0c06ae7fe737a5039c057db69e08", "fusion_lon": 0.0, "lon": -77.04335433333334, "name": "58ae0c06ae7fe737a5039c057db69e08", "is_disabled": 0, "rental_uris": {"android": "https://dc.lft.to/lastmile_qr_scan", "ios": "https://dc.lft.to/lastmile_qr_scan"}, "type": "electric_scooter", "lat": 38.8952365, "is_reserved": 0, "fusion_lat": 0.0}, {"bike_id": "5ff4b642f11ad85ed5a64b004bcf2abe", "fusion_lon": 0.0, "lon": -77.00354433333334, "name": "5ff4b642f11ad85ed5a64b004bcf2abe", "is_disabled": 0, "rental_uris": {"android": "https://dc.lft.to/lastmile_qr_scan", "ios": "https://dc.lft.to/lastmile_qr_scan"}, "type": "electric_scooter", "lat": 38.907338833333334, "is_reserved": 0, "fusion_lat": 0.0}, {"bike_id": "7213ac09e93ef9509fbccf67d565a22d", "fusion_lon": 0.0, "lon": -77.02977383333334, "name": "7213ac09e93ef9509fbccf67d565a22d", "is_disabled": 0, "rental_uris": {"android": "https://dc.lft.to/lastmile_qr_scan", "ios": "https://dc.lft.to/lastmile_qr_scan"}, "type": "electric_scooter", "lat": 38.93120866666667, "is_reserved": 0, "fusion_lat": 0.0}, {"bike_id": "3f6c3dab4227f647ab8465b1dd51da2f", "fusion_lon": 0.0, "lon": -77.044275, "name": "3f6c3dab4227f647ab8465b1dd51da2f", "is_disabled": 0, "rental_uris": {"android": "https://dc.lft.to/lastmile_qr_scan", "ios": "https://dc.lft.to/lastmile_qr_scan"}, "type": "electric_scooter", "lat": 38.92127966666666, "is_reserved": 0, "fusion_lat": 0.0}, {"bike_id": "88bd36f900333dd972adb23643d02fd6", "fusion_lon": 0.0, "lon": -77.04929233333333, "name": "88bd36f900333dd972adb23643d02fd6", "is_disabled": 0, "rental_uris": {"android": "https://dc.lft.to/lastmile_qr_scan", "ios": "https://dc.lft.to/lastmile_qr_scan"}, "type": "electric_bike", "lat": 39.029351, "is_reserved": 0, "fusion_lat": 0.0}, {"bike_id": "8614e2af0c22ebd6c5af6b2f0f9b7e8c", "fusion_lon": 0.0, "lon": -76.98154983333333, "name": "8614e2af0c22ebd6c5af6b2f0f9b7e8c", "is_disabled": 0, "rental_uris": {"android": "https://dc.lft.to/lastmile_qr_scan", "ios": "https://dc.lft.to/lastmile_qr_scan"}, "type": "electric_bike", "lat": 38.92265233333333, "is_reserved": 0, "fusion_lat": 0.0}, {"bike_id": "7f1eaabd428eb592006c8aaba7285dcc", "fusion_lon": 0.0, "lon": -76.9959445, "name": "7f1eaabd428eb592006c8aaba7285dcc", "is_disabled": 0, "rental_uris": {"android": "https://dc.lft.to/lastmile_qr_scan", "ios": "https://dc.lft.to/lastmile_qr_scan"}, "type": "electric_bike", "lat": 38.9507055, "is_reserved": 0, "fusion_lat": 0.0}, {"bike_id": "4f170f5a75afbedaf0c061c6ce0f4ba8", "fusion_lon": 0.0, "lon": -77.0279985, "name": "4f170f5a75afbedaf0c061c6ce0f4ba8", "is_disabled": 0, "rental_uris": {"android": "https://dc.lft.to/lastmile_qr_scan", "ios": "https://dc.lft.to/lastmile_qr_scan"}, "type": "electric_scooter", "lat": 38.916859, "is_reserved": 0, "fusion_lat": 0.0}, {"bike_id": "588f9958d6521ea336471b7fb9185934", "fusion_lon": 0.0, "lon": -77.02214016666667, "name": "588f9958d6521ea336471b7fb9185934", "is_disabled": 0, "rental_uris": {"android": "https://dc.lft.to/lastmile_qr_scan", "ios": "https://dc.lft.to/lastmile_qr_scan"}, "type": "electric_scooter", "lat": 38.91561683333333, "is_reserved": 0, "fusion_lat": 0.0}, {"bike_id": "a363b90b7ba5e3a388b4219840860645", "fusion_lon": 0.0, "lon": -77.07307016666667, "name": "a363b90b7ba5e3a388b4219840860645", "is_disabled": 0, "rental_uris": {"android": "https://dc.lft.to/lastmile_qr_scan", "ios": "https://dc.lft.to/lastmile_qr_scan"}, "type": "electric_scooter", "lat": 38.93571133333333, "is_reserved": 0, "fusion_lat": 0.0}, {"bike_id": "c794e723becd699343a748ee85f3fa63", "fusion_lon": 0.0, "lon": -77.08592033333333, "name": "c794e723becd699343a748ee85f3fa63", "is_disabled": 0, "rental_uris": {"android": "https://dc.lft.to/lastmile_qr_scan", "ios": "https://dc.lft.to/lastmile_qr_scan"}, "type": "electric_scooter", "lat": 38.90874916666667, "is_reserved": 0, "fusion_lat": 0.0}, {"bike_id": "ff5a468a82bcfbaa8399d59b20c84ea8", "fusion_lon": 0.0, "lon": -77.04337733333334, "name": "ff5a468a82bcfbaa8399d59b20c84ea8", "is_disabled": 0, "rental_uris": {"android": "https://dc.lft.to/lastmile_qr_scan", "ios": "https://dc.lft.to/lastmile_qr_scan"}, "type": "electric_scooter", "lat": 38.895237, "is_reserved": 0, "fusion_lat": 0.0}, {"bike_id": "8b2e99714f33b9c540a1bc135f854188", "fusion_lon": 0.0, "lon": -76.964672, "name": "8b2e99714f33b9c540a1bc135f854188", "is_disabled": 0, "rental_uris": {"android": "https://dc.lft.to/lastmile_qr_scan", "ios": "https://dc.lft.to/lastmile_qr_scan"}, "type": "electric_scooter", "lat": 38.9344795, "is_reserved": 0, "fusion_lat": 0.0}, {"bike_id": "2c2c7eab5f9ae9f1cd4ea9bc1e13892e", "fusion_lon": 0.0, "lon": -77.04408133333334, "name": "2c2c7eab5f9ae9f1cd4ea9bc1e13892e", "is_disabled": 0, "rental_uris": {"android": "https://dc.lft.to/lastmile_qr_scan", "ios": "https://dc.lft.to/lastmile_qr_scan"}, "type": "electric_scooter", "lat": 38.910867333333336, "is_reserved": 0, "fusion_lat": 0.0}, {"bike_id": "42ba89180beee77e606b295a36c10588", "fusion_lon": 0.0, "lon": -76.999417, "name": "42ba89180beee77e606b295a36c10588", "is_disabled": 0, "rental_uris": {"android": "https://dc.lft.to/lastmile_qr_scan", "ios": "https://dc.lft.to/lastmile_qr_scan"}, "type": "electric_scooter", "lat": 38.842985, "is_reserved": 0, "fusion_lat": 0.0}, {"bike_id": "81301e90b7e8d60c0eedd504a9ea2680", "fusion_lon": 0.0, "lon": -77.042875, "name": "81301e90b7e8d60c0eedd504a9ea2680", "is_disabled": 0, "rental_uris": {"android": "https://dc.lft.to/lastmile_qr_scan", "ios": "https://dc.lft.to/lastmile_qr_scan"}, "type": "electric_scooter", "lat": 38.910457, "is_reserved": 0, "fusion_lat": 0.0}, {"bike_id": "93bea619697a5f5ba6d7fc4e36f81f86", "fusion_lon": 0.0, "lon": -77.0318215, "name": "93bea619697a5f5ba6d7fc4e36f81f86", "is_disabled": 0, "rental_uris": {"android": "https://dc.lft.to/lastmile_qr_scan", "ios": "https://dc.lft.to/lastmile_qr_scan"}, "type": "electric_scooter", "lat": 38.924830166666666, "is_reserved": 0, "fusion_lat": 0.0}, {"bike_id": "3890d7a89d3d001f4f0c66ed17b8ecb2", "fusion_lon": 0.0, "lon": -77.0445005, "name": "3890d7a89d3d001f4f0c66ed17b8ecb2", "is_disabled": 0, "rental_uris": {"android": "https://dc.lft.to/lastmile_qr_scan", "ios": "https://dc.lft.to/lastmile_qr_scan"}, "type": "electric_scooter", "lat": 38.911855833333334, "is_reserved": 0, "fusion_lat": 0.0}, {"bike_id": "075768a1c47e3b42d262fea43c27f451", "fusion_lon": 0.0, "lon": -77.018531, "name": "075768a1c47e3b42d262fea43c27f451", "is_disabled": 0, "rental_uris": {"android": "https://dc.lft.to/lastmile_qr_scan", "ios": "https://dc.lft.to/lastmile_qr_scan"}, "type": "electric_scooter", "lat": 38.877174833333335, "is_reserved": 0, "fusion_lat": 0.0}, {"bike_id": "3d24121458a875fbb91284b57b81e266", "fusion_lon": 0.0, "lon": -77.0249385, "name": "3d24121458a875fbb91284b57b81e266", "is_disabled": 0, "rental_uris": {"android": "https://dc.lft.to/lastmile_qr_scan", "ios": "https://dc.lft.to/lastmile_qr_scan"}, "type": "electric_scooter", "lat": 38.903175, "is_reserved": 0, "fusion_lat": 0.0}, {"bike_id": "2096348751dc5a58f8da284f0a03a04a", "fusion_lon": 0.0, "lon": -77.01776866666667, "name": "2096348751dc5a58f8da284f0a03a04a", "is_disabled": 0, "rental_uris": {"android": "https://dc.lft.to/lastmile_qr_scan", "ios": "https://dc.lft.to/lastmile_qr_scan"}, "type": "electric_scooter", "lat": 38.87721233333333, "is_reserved": 0, "fusion_lat": 0.0}, {"bike_id": "6f972509522fba154b15c4851ddfa485", "fusion_lon": 0.0, "lon": -77.04190116666666, "name": "6f972509522fba154b15c4851ddfa485", "is_disabled": 0, "rental_uris": {"android": "https://dc.lft.to/lastmile_qr_scan", "ios": "https://dc.lft.to/lastmile_qr_scan"}, "type": "electric_scooter", "lat": 38.92044283333333, "is_reserved": 0, "fusion_lat": 0.0}, {"bike_id": "dc9a9a5889af07355310e9f336f9ce2e", "fusion_lon": 0.0, "lon": -77.02784666666666, "name": "dc9a9a5889af07355310e9f336f9ce2e", "is_disabled": 0, "rental_uris": {"android": "https://dc.lft.to/lastmile_qr_scan", "ios": "https://dc.lft.to/lastmile_qr_scan"}, "type": "electric_scooter", "lat": 38.92763083333333, "is_reserved": 0, "fusion_lat": 0.0},