{"data": {"bikes": [{"rental_uris": {"ios": "https://dc.lft.to/lastmile_qr_scan", "android": "https://dc.lft.to/lastmile_qr_scan"}, "lon": -77.05678266666666, "type": "electric_scooter", "fusion_lat": 0.0, "lat": 38.90517066666666, "name": "3a9f1900b2331f09b450933f6d5687e7", "fusion_lon": 0.0, "bike_id": "3a9f1900b2331f09b450933f6d5687e7", "is_disabled": 0, "is_reserved": 0}, {"rental_uris": {"ios": "https://dc.lft.to/lastmile_qr_scan", "android": "https://dc.lft.to/lastmile_qr_scan"}, "lon": -77.02466433333333, "type": "electric_scooter", "fusion_lat": 0.0, "lat": 38.897273166666665, "name": "534c67b802b80973ceead5dda47e14fc", "fusion_lon": 0.0, "bike_id": "534c67b802b80973ceead5dda47e14fc", "is_disabled": 0, "is_reserved": 0}, {"rental_uris": {"ios": "https://dc.lft.to/lastmile_qr_scan", "android": "https://dc.lft.to/lastmile_qr_scan"}, "lon": -77.01976883333333, "type": "electric_scooter", "fusion_lat": 0.0, "lat": 38.878439, "name": "ae2e44a8e5c41aae1a01ac20fa84a8aa", "fusion_lon": 0.0, "bike_id": "ae2e44a8e5c41aae1a01ac20fa84a8aa", "is_disabled": 0, "is_reserved": 0}, {"rental_uris": {"ios": "https://dc.lft.to/lastmile_qr_scan", "android": "https://dc.lft.to/lastmile_qr_scan"}, "lon": -77.0029125, "type": "electric_scooter", "fusion_lat": 0.0, "lat": 38.9056615, "name": "2a0224b166540ddc984d4ba5967af0c1", "fusion_lon": 0.0, "bike_id": "2a0224b166540ddc984d4ba5967af0c1", "is_disabled": 0, "is_reserved": 0}, {"rental_uris": {"ios": "https://dc.lft.to/lastmile_qr_scan", "android": "https://dc.lft.to/lastmile_qr_scan"}, "lon": -77.07619883333334, "type": "electric_scooter", "fusion_lat": 0.0, "lat": 38.912584833333334, "name": "783b6bfe64b099588055c2b2b4e0e359", "fusion_lon": 0.0, "bike_id": "783b6bfe64b099588055c2b2b4e0e359", "is_disabled": 0, "is_reserved": 0}, {"rental_uris": {"ios": "https://dc.lft.to/lastmile_qr_scan", "android": "https://dc.lft.to/lastmile_qr_scan"}, "lon": -77.00134883333334, "type": "electric_scooter", "fusion_lat": 0.0, "lat": 38.90412633333333, "name": "6c7f195a544fb8d5ed58f025eec652e0", "fusion_lon": 0.0, "bike_id": "6c7f195a544fb8d5ed58f025eec652e0", "is_disabled": 0, "is_reserved": 0}, {"rental_uris": {"ios": "https://dc.lft.to/lastmile_qr_scan", "android": "https://dc.lft.to/lastmile_qr_scan"}, "lon": -77.05122566666667, "type": "electric_scooter", "fusion_lat": 0.0, "lat": 38.9235965, "name": "8924d0a45abd31f7082c095b4df9ebe6", "fusion_lon": 0.0, "bike_id": "8924d0a45abd31f7082c095b4df9ebe6", "is_disabled": 0, "is_reserved": 0}, {"rental_uris": {"ios": "https://dc.lft.to/lastmile_qr_scan", "android": "https://dc.lft.to/lastmile_qr_scan"}, "lon": -77.009287, "type": "electric_scooter", "fusion_lat": 0.0, "lat": 38.8960815, "name": "080ec7a903d480835f618a338019a99f", "fusion_lon": 0.0, "bike_id": "080ec7a903d480835f618a338019a99f", "is_disabled": 0, "is_reserved": 0}, {"rental_uris": {"ios": "https://dc.lft.to/lastmile_qr_scan", "android": "https://dc.lft.to/lastmile_qr_scan"}, "lon": -77.03448516666667, "type": "electric_scooter", "fusion_lat": 0.0, "lat": 38.918414166666665, "name": "07c5269783ed69bd755a976f12860513", "fusion_lon": 0.0, "bike_id": "07c5269783ed69bd755a976f12860513", "is_disabled": 0, "is_reserved": 0}, {"rental_uris": {"ios": "https://dc.lft.to/lastmile_qr_scan", "android": "https://dc.lft.to/lastmile_qr_scan"}, "lon": -76.99161533333333, "type": "electric_scooter", "fusion_lat": 0.0, "lat": 38.89339183333333, "name": "82dc57c20c9815efb24b15c0ec2b18f7", "fusion_lon": 0.0, "bike_id": "82dc57c20c9815efb24b15c0ec2b18f7", "is_disabled": 0, "is_reserved": 0}, {"rental_uris": {"ios": "https://dc.lft.to/lastmile_qr_scan", "android": "https://dc.lft.to/lastmile_qr_scan"}, "lon": -76.998766, "type": "electric_scooter", "fusion_lat": 0.0, "lat": 38.9002865, "name": "dd62dee952f692e19ff4dc88d8759f8a", "fusion_lon": 0.0, "bike_id": "dd62dee952f692e19ff4dc88d8759f8a", "is_disabled": 0, "is_reserved": 0}, {"rental_uris": {"ios": "https://dc.lft.to/lastmile_qr_scan", "android": "https://dc.lft.to/lastmile_qr_scan"}, "lon": -77.03121733333333, "type": "electric_scooter", "fusion_lat": 0.0, "lat": 38.89726666666667, "name": "e22938ce198934f08390762dd812906a", "fusion_lon": 0.0, "bike_id": "e22938ce198934f08390762dd812906a", "is_disabled": 0, "is_reserved": 0}, {"rental_uris": {"ios": "https://dc.lft.to/lastmile_qr_scan", "android": "https://dc.lft.to/lastmile_qr_scan"}, "lon": -77.04503133333333, "type": "electric_scooter", "fusion_lat": 0.0, "lat": 38.90559916666667, "name": "c8890382da9b86d9c5a71459892b7080", "fusion_lon": 0.0, "bike_id": "c8890382da9b86d9c5a71459892b7080", "is_disabled": 0, "is_reserved": 0}, {"rental_uris": {"ios": "https://dc.lft.to/lastmile_qr_scan", "android": "https://dc.lft.to/lastmile_qr_scan"}, "lon": -77.04429583333334, "type": "electric_scooter", "fusion_lat": 0.0, "lat": 38.90572983333333, "name": "d42aed12971d8b7842f9b850b126ca80", "fusion_lon": 0.0, "bike_id": "d42aed12971d8b7842f9b850b126ca80", "is_disabled": 0, "is_reserved": 0}, {"rental_uris": {"ios": "https://dc.lft.to/lastmile_qr_scan", "android": "https://dc.lft.to/lastmile_qr_scan"}, "lon": -77.01208733333333, "type": "electric_scooter", "fusion_lat": 0.0, "lat": 38.91518933333333, "name": "c25d01d3b4822d9cf24ca3442d6e2a12", "fusion_lon": 0.0, "bike_id": "c25d01d3b4822d9cf24ca3442d6e2a12", "is_disabled": 0, "is_reserved": 0}, {"rental_uris": {"ios": "https://dc.lft.to/lastmile_qr_scan", "android": "https://dc.lft.to/lastmile_qr_scan"}, "lon": -77.027028, "type": "electric_scooter", "fusion_lat": 0.0, "lat": 38.9186445, "name": "fbecaecae3045ee59b0fbc8fbe94de29", "fusion_lon": 0.0, "bike_id": "fbecaecae3045ee59b0fbc8fbe94de29", "is_disabled": 0, "is_reserved": 0}, {"rental_uris": {"ios": "https://dc.lft.to/lastmile_qr_scan", "android": "https://dc.lft.to/lastmile_qr_scan"}, "lon": -77.0318595, "type": "electric_scooter", "fusion_lat": 0.0, "lat": 38.91349533333333, "name": "eac552f2036028d743a94c937ae6b95f", "fusion_lon": 0.0, "bike_id": "eac552f2036028d743a94c937ae6b95f", "is_disabled": 0, "is_reserved": 0}, {"rental_uris": {"ios": "https://dc.lft.to/lastmile_qr_scan", "android": "https://dc.lft.to/lastmile_qr_scan"}, "lon": -76.97954683333333, "type": "electric_scooter", "fusion_lat": 0.0, "lat": 38.90380733333333, "name": "dd6de1dfa03efed19549b4fbe0aeb467", "fusion_lon": 0.0, "bike_id": "dd6de1dfa03efed19549b4fbe0aeb467", "is_disabled": 0, "is_reserved": 0}, {"rental_uris": {"ios": "https://dc.lft.to/lastmile_qr_scan", "android": "https://dc.lft.to/lastmile_qr_scan"}, "lon": -77.00288533333334, "type": "electric_scooter", "fusion_lat": 0.0, "lat": 38.89482683333333, "name": "d2c0fdfb66620fa0f3d724f7bbe43601", "fusion_lon": 0.0, "bike_id": "d2c0fdfb66620fa0f3d724f7bbe43601", "is_disabled": 0, "is_reserved": 0}, {"rental_uris": {"ios": "https://dc.lft.to/lastmile_qr_scan", "android": "https://dc.lft.to/lastmile_qr_scan"}, "lon": -77.04752633333334, "type": "electric_scooter", "fusion_lat": 0.0, "lat": 38.91293866666667, "name": "dc70e70d9411fa5ed974e9da5094352b", "fusion_lon": 0.0, "bike_id": "dc70e70d9411fa5ed974e9da5094352b", "is_disabled": 0, "is_reserved": 0}, {"rental_uris": {"ios": "https://dc.lft.to/lastmile_qr_scan", "android": "https://dc.lft.to/lastmile_qr_scan"}, "lon": -77.03267066666666, "type": "electric_scooter", "fusion_lat": 0.0, "lat": 38.94786366666666, "name": "93b5636dafbd28cbe5120e3f32db5c37", "fusion_lon": 0.0, "bike_id": "93b5636dafbd28cbe5120e3f32db5c37", "is_disabled": 0, "is_reserved": 0}, {"rental_uris": {"ios": "https://dc.lft.to/lastmile_qr_scan", "android": "https://dc.lft.to/lastmile_qr_scan"}, "lon": -77.03332, "type": "electric_scooter", "fusion_lat": 0.0, "lat": 38.918231166666665, "name": "b2a58018ab5f1bf25d53090b961b45db", "fusion_lon": 0.0, "bike_id": "b2a58018ab5f1bf25d53090b961b45db", "is_disabled": 0, "is_reserved": 0}, {"rental_uris": {"ios": "https://dc.lft.to/lastmile_qr_scan", "android": "https://dc.lft.to/lastmile_qr_scan"}, "lon": -77.02959383333334, "type": "electric_scooter", "fusion_lat": 0.0, "lat": 38.91600716666667, "name": "fe08da4ae3936f4d525b2db01158ba52", "fusion_lon": 0.0, "bike_id": "fe08da4ae3936f4d525b2db01158ba52", "is_disabled": 0, "is_reserved": 0}, {"rental_uris": {"ios": "https://dc.lft.to/lastmile_qr_scan", "android": "https://dc.lft.to/lastmile_qr_scan"}, "lon": -76.98677666666667, "type": "electric_scooter", "fusion_lat": 0.0, "lat": 38.88221933333333, "name": "9e6386f152a993f284589a480a773f2c", "fusion_lon": 0.0, "bike_id": "9e6386f152a993f284589a480a773f2c", "is_disabled": 0, "is_reserved": 0}, {"rental_uris": {"ios": "https://dc.lft.to/lastmile_qr_scan", "android": "https://dc.lft.to/lastmile_qr_scan"}, "lon": -77.05888066666667, "type": "electric_scooter", "fusion_lat": 0.0, "lat": 38.936345833333334, "name": "7fb6fb3069361d67a3adcc75336bb806", "fusion_lon": 0.0, "bike_id": "7fb6fb3069361d67a3adcc75336bb806", "is_disabled": 0, "is_reserved": 0}, {"rental_uris": {"ios": "https://dc.lft.to/lastmile_qr_scan", "android": "https://dc.lft.to/lastmile_qr_scan"}, "lon": -77.04315483333333, "type": "electric_scooter", "fusion_lat": 0.0, "lat": 38.9232905, "name": "40499646abd633f67d33b8b41aa8a898", "fusion_lon": 0.0, "bike_id": "40499646abd633f67d33b8b41aa8a898", "is_disabled": 0, "is_reserved": 0}, {"rental_uris": {"ios": "https://dc.lft.to/lastmile_qr_scan", "android": "https://dc.lft.to/lastmile_qr_scan"}, "lon": -77.0098435, "type": "electric_scooter", "fusion_lat": 0.0, "lat": 38.914835333333336, "name": "d6234ff3b59a6bd280921d39bedad9ab", "fusion_lon": 0.0, "bike_id": "d6234ff3b59a6bd280921d39bedad9ab", "is_disabled": 0, "is_reserved": 0}, {"rental_uris": {"ios": "https://dc.lft.to/lastmile_qr_scan", "android": "https://dc.lft.to/lastmile_qr_scan"}, "lon": -76.938035, "type": "electric_scooter", "fusion_lat": 0.0, "lat": 38.88234883333333, "name": "7befe6d1323a2c565f39516c3477208c", "fusion_lon": 0.0, "bike_id": "7befe6d1323a2c565f39516c3477208c", "is_disabled": 0, "is_reserved": 0}, {"rental_uris": {"ios": "https://dc.lft.to/lastmile_qr_scan", "android": "https://dc.lft.to/lastmile_qr_scan"}, "lon": -77.01769533333334, "type": "electric_scooter", "fusion_lat": 0.0, "lat": 38.90041683333333, "name": "c1fe969e94ecce07226c952998d31e40", "fusion_lon": 0.0, "bike_id": "c1fe969e94ecce07226c952998d31e40", "is_disabled": 0, "is_reserved": 0}, {"rental_uris": {"ios": "https://dc.lft.to/lastmile_qr_scan", "android": "https://dc.lft.to/lastmile_qr_scan"}, "lon": -77.010522, "type": "electric_scooter", "fusion_lat": 0.0, "lat": 38.8793025, "name": "eae494476eb66825e4598c2a79b115b7", "fusion_lon": 0.0, "bike_id": "eae494476eb66825e4598c2a79b115b7", "is_disabled": 0, "is_reserved": 0}, {"rental_uris": {"ios": "https://dc.lft.to/lastmile_qr_scan", "android": "https://dc.lft.to/lastmile_qr_scan"}, "lon": -77.02599766666667, "type": "electric_scooter", "fusion_lat": 0.0, "lat": 38.89597783333333, "name": "76525f6d66ca68c4a66a9d0028420976", "fusion_lon": 0.0, "bike_id": "76525f6d66ca68c4a66a9d0028420976", "is_disabled": 0, "is_reserved": 0}, {"rental_uris": {"ios": "https://dc.lft.to/lastmile_qr_scan", "android": "https://dc.lft.to/lastmile_qr_scan"}, "lon": -77.018028, "type": "electric_scooter", "fusion_lat": 0.0, "lat": 38.887477, "name": "9a719fc0482154c427bea5be181c2b73", "fusion_lon": 0.0, "bike_id": "9a719fc0482154c427bea5be181c2b73", "is_disabled": 0, "is_reserved": 0}, {"rental_uris": {"ios": "https://dc.lft.to/lastmile_qr_scan", "android": "https://dc.lft.to/lastmile_qr_scan"}, "lon": -77.030068, "type": "electric_scooter", "fusion_lat": 0.0, "lat": 38.90501033333334, "name": "60840bcab2ef096c39eef02b77628bbc", "fusion_lon": 0.0, "bike_id": "60840bcab2ef096c39eef02b77628bbc", "is_disabled": 0, "is_reserved": 0}, {"rental_uris": {"ios": "https://dc.lft.to/lastmile_qr_scan", "android": "https://dc.lft.to/lastmile_qr_scan"}, "lon": -77.02106566666667, "type": "electric_scooter", "fusion_lat": 0.0, "lat": 38.91307966666667, "name": "a94fe84048203c14e42dcdc50200f402", "fusion_lon": 0.0, "bike_id": "a94fe84048203c14e42dcdc50200f402", "is_disabled": 0, "is_reserved": 0}, {"rental_uris": {"ios": "https://dc.lft.to/lastmile_qr_scan", "android": "https://dc.lft.to/lastmile_qr_scan"}, "lon": -77.03911716666667, "type": "electric_scooter", "fusion_lat": 0.0, "lat": 38.903726166666665, "name": "f70d4737730051fd456ac647188226ad", "fusion_lon": 0.0, "bike_id": "f70d4737730051fd456ac647188226ad", "is_disabled": 0, "is_reserved": 0}, {"rental_uris": {"ios": "https://dc.lft.to/lastmile_qr_scan", "android": "https://dc.lft.to/lastmile_qr_scan"}, "lon": -76.966299, "type": "electric_bike", "fusion_lat": 0.0, "lat": 38.94202883333333, "name": "a561e431186ca3f47d6f0a519a86e05e", "fusion_lon": 0.0, "bike_id": "a561e431186ca3f47d6f0a519a86e05e", "is_disabled": 0, "is_reserved": 0}, {"rental_uris": {"ios": "https://dc.lft.to/lastmile_qr_scan", "android": "https://dc.lft.to/lastmile_qr_scan"}, "lon": -77.02973833333333, "type": "electric_scooter", "fusion_lat": 0.0, "lat": 38.91682983333333, "name": "c472768489327e614bfbeacec904662d", "fusion_lon": 0.0, "bike_id": "c472768489327e614bfbeacec904662d", "is_disabled": 0, "is_reserved": 0}, {"rental_uris": {"ios": "https://dc.lft.to/lastmile_qr_scan", "android": "https://dc.lft.to/lastmile_qr_scan"}, "lon": -77.02298033333334, "type": "electric_scooter", "fusion_lat": 0.0, "lat": 38.932899, "name": "217ba519de5be54ef46d67cd95920632", "fusion_lon": 0.0, "bike_id": "217ba519de5be54ef46d67cd95920632", "is_disabled": 0, "is_reserved": 0}, {"rental_uris": {"ios": "https://dc.lft.to/lastmile_qr_scan", "android": "https://dc.lft.to/lastmile_qr_scan"}, "lon": -77.02393533333333, "type": "electric_scooter", "fusion_lat": 0.0, "lat": 38.952925666666665, "name": "812b252d68f9badce2912c0403f03d94", "fusion_lon": 0.0, "bike_id": "812b252d68f9badce2912c0403f03d94", "is_disabled": 0, "is_reserved": 0}, {"rental_uris": {"ios": "https://dc.lft.to/lastmile_qr_scan", "android": "https://dc.lft.to/lastmile_qr_scan"}, "lon": -77.00574616666667, "type": "electric_scooter", "fusion_lat": 0.0, "lat": 38.88597933333333, "name": "a3304c10f0b592fe4b73c7b510d74b17", "fusion_lon": 0.0, "bike_id": "a3304c10f0b592fe4b73c7b510d74b17", "is_disabled": 0, "is_reserved": 0}, {"rental_uris": {"ios": "https://dc.lft.to/lastmile_qr_scan", "android": "https://dc.lft.to/lastmile_qr_scan"}, "lon": -76.93176033333333, "type": "electric_scooter", "fusion_lat": 0.0, "lat": 38.89883966666667, "name": "a4776cb689afe58393bfd94c29e771da", "fusion_lon": 0.0, "bike_id": "a4776cb689afe58393bfd94c29e771da", "is_disabled": 0, "is_reserved": 0}, {"rental_uris": {"ios": "https://dc.lft.to/lastmile_qr_scan", "android": "https://dc.lft.to/lastmile_qr_scan"}, "lon": -77.353158, "type": "electric_bike", "fusion_lat": 0.0, "lat": 38.9499635, "name": "665e75bcd3231e76e566adce9bc889e2", "fusion_lon": 0.0, "bike_id": "665e75bcd3231e76e566adce9bc889e2", "is_disabled": 0, "is_reserved": 0}, {"rental_uris": {"ios": "https://dc.lft.to/lastmile_qr_scan", "android": "https://dc.lft.to/lastmile_qr_scan"}, "lon": -77.029697, "type": "electric_scooter", "fusion_lat": 0.0, "lat": 38.90603683333333, "name": "dbf650f34182b8af7ba136aabe53886c", "fusion_lon": 0.0, "bike_id": "dbf650f34182b8af7ba136aabe53886c", "is_disabled": 0, "is_reserved": 0}, {"rental_uris": {"ios": "https://dc.lft.to/lastmile_qr_scan", "android": "https://dc.lft.to/lastmile_qr_scan"}, "lon": -76.99876983333333, "type": "electric_scooter", "fusion_lat": 0.0, "lat": 38.90747866666667, "name": "bf9e74b06613bd68117a2581f6fe1b38", "fusion_lon": 0.0, "bike_id": "bf9e74b06613bd68117a2581f6fe1b38", "is_disabled": 0, "is_reserved": 0}, {"rental_uris": {"ios": "https://dc.lft.to/lastmile_qr_scan", "android": "https://dc.lft.to/lastmile_qr_scan"}, "lon": -77.02844933333333, "type": "electric_scooter", "fusion_lat": 0.0, "lat": 38.94261816666667, "name": "38e14717fdc3a155792e013cdb64fb60", "fusion_lon": 0.0, "bike_id": "38e14717fdc3a155792e013cdb64fb60", "is_disabled": 0, "is_reserved": 0}, {"rental_uris": {"ios": "https://dc.lft.to/lastmile_qr_scan", "android": "https://dc.lft.to/lastmile_qr_scan"}, "lon": -77.04175333333333, "type": "electric_scooter", "fusion_lat": 0.0, "lat": 38.90845566666667, "name": "d1e2b66cc5458ce933a77d09421a3476", "fusion_lon": 0.0, "bike_id": "d1e2b66cc5458ce933a77d09421a3476", "is_disabled": 0, "is_reserved": 0}, {"rental_uris": {"ios": "https://dc.lft.to/lastmile_qr_scan", "android": "https://dc.lft.to/lastmile_qr_scan"}, "lon": -76.99490633333333, "type": "electric_scooter", "fusion_lat": 0.0, "lat": 38.8623605, "name": "efd474c322a2731eccd939bba59a049f", "fusion_lon": 0.0, "bike_id": "efd474c322a2731eccd939bba59a049f", "is_disabled": 0, "is_reserved": 0}, {"rental_uris": {"ios": "https://dc.lft.to/lastmile_qr_scan", "android": "https://dc.lft.to/lastmile_qr_scan"}, "lon": -77.04153233333334, "type": "electric_scooter", "fusion_lat": 0.0, "lat": 38.9178655, "name": "b4da5182d2aac98457860bd9b263dad3", "fusion_lon": 0.0, "bike_id": "b4da5182d2aac98457860bd9b263dad3", "is_disabled": 0, "is_reserved": 0}, {"rental_uris": {"ios": "https://dc.lft.to/lastmile_qr_scan", "android": "https://dc.lft.to/lastmile_qr_scan"}, "lon": -76.95755216666667, "type": "electric_scooter", "fusion_lat": 0.0, "lat": 38.88690116666667, "name": "98d9e4d059dcb98f48c510fe4d122d2c", "fusion_lon": 0.0, "bike_id": "98d9e4d059dcb98f48c510fe4d122d2c", "is_disabled": 0, "is_reserved": 0}, {"rental_uris": {"ios": "https://dc.lft.to/lastmile_qr_scan", "android": "https://dc.lft.to/lastmile_qr_scan"}, "lon": -76.93569683333334, "type": "electric_bike", "fusion_lat": 0.0, "lat": 38.88526366666667, "name": "2dafb43e46691174f31518b39d109144", "fusion_lon": 0.0, "bike_id": "2dafb43e46691174f31518b39d109144", "is_disabled": 0, "is_reserved": 0}, {"rental_uris": {"ios": "https://dc.lft.to/lastmile_qr_scan", "android": "https://dc.lft.to/lastmile_qr_scan"}, "lon": -76.98021516666667, "type": "electric_scooter", "fusion_lat": 0.0, "lat": 38.903758833333335, "name": "026b5c5c33496e6bde1021dd6091258f", "fusion_lon": 0.0, "bike_id": "026b5c5c33496e6bde1021dd6091258f", "is_disabled": 0, "is_reserved": 0}, {"rental_uris": {"ios": "https://dc.lft.to/lastmile_qr_scan", "android": "https://dc.lft.to/lastmile_qr_scan"}, "lon": -76.99512516666667, "type": "electric_scooter", "fusion_lat": 0.0, "lat": 38.886251, "name": "8e88f96f585dde25a9f2b5e7d445771d", "fusion_lon": 0.0, "bike_id": "8e88f96f585dde25a9f2b5e7d445771d", "is_disabled": 0, "is_reserved": 0}, {"rental_uris": {"ios": "https://dc.lft.to/lastmile_qr_scan", "android": "https://dc.lft.to/lastmile_qr_scan"}, "lon": -77.02489533333333, "type": "electric_scooter", "fusion_lat": 0.0, "lat": 38.89732383333333, "name": "910143dcaf5fcc95071f1a22742c3148", "fusion_lon": 0.0, "bike_id": "910143dcaf5fcc95071f1a22742c3148", "is_disabled": 0, "is_reserved": 0}, {"rental_uris": {"ios": "https://dc.lft.to/lastmile_qr_scan", "android": "https://dc.lft.to/lastmile_qr_scan"}, "lon": -77.02565733333333, "type": "electric_scooter", "fusion_lat": 0.0, "lat": 38.887471166666664, "name": "a38a9946df109ac06e093aac59a619e0", "fusion_lon": 0.0, "bike_id": "a38a9946df109ac06e093aac59a619e0", "is_disabled": 0, "is_reserved": 0}, {"rental_uris": {"ios": "https://dc.lft.to/lastmile_qr_scan", "android": "https://dc.lft.to/lastmile_qr_scan"}, "lon": -77.0049915, "type": "electric_scooter", "fusion_lat": 0.0, "lat": 38.878936833333334, "name": "40364c800dcea3cbe48e8ff0ae8fad0d", "fusion_lon": 0.0, "bike_id": "40364c800dcea3cbe48e8ff0ae8fad0d", "is_disabled": 0, "is_reserved": 0}, {"rental_uris": {"ios": "https://dc.lft.to/lastmile_qr_scan", "android": "https://dc.lft.to/lastmile_qr_scan"}, "lon": -77.02121033333333, "type": "electric_scooter", "fusion_lat": 0.0, "lat": 38.94408766666667, "name": "6aa67dadb90aa976c4e4f6bb1f84104c", "fusion_lon": 0.0, "bike_id": "6aa67dadb90aa976c4e4f6bb1f84104c", "is_disabled": 0, "is_reserved": 0}, {"rental_uris": {"ios": "https://dc.lft.to/lastmile_qr_scan", "android": "https://dc.lft.to/lastmile_qr_scan"}, "lon": -77.032078, "type": "electric_scooter", "fusion_lat": 0.0, "lat": 38.8922265, "name": "45b5d1f153482a1f91e592ccb55fc573", "fusion_lon": 0.0, "bike_id": "45b5d1f153482a1f91e592ccb55fc573", "is_disabled": 0, "is_reserved": 0}, {"rental_uris": {"ios": "https://dc.lft.to/lastmile_qr_scan", "android": "https://dc.lft.to/lastmile_qr_scan"}, "lon": -77.06534383333333, "type": "electric_scooter", "fusion_lat": 0.0, "lat": 38.9048015, "name": "d6daa28a309b5300c0ecf92770778046", "fusion_lon": 0.0, "bike_id": "d6daa28a309b5300c0ecf92770778046", "is_disabled": 0, "is_reserved": 0}, {"rental_uris": {"ios": "https://dc.lft.to/lastmile_qr_scan", "android": "https://dc.lft.to/lastmile_qr_scan"}, "lon": -77.0314535, "type": "electric_scooter", "fusion_lat": 0.0, "lat": 38.90967766666667, "name": "8ee586cc0987948d3cb586f5b74a4718", "fusion_lon": 0.0, "bike_id": "8ee586cc0987948d3cb586f5b74a4718", "is_disabled": 0, "is_reserved": 0}, {"rental_uris": {"ios": "https://dc.lft.to/lastmile_qr_scan", "android": "https://dc.lft.to/lastmile_qr_scan"}, "lon": -76.99847683333333, "type": "electric_bike", "fusion_lat": 0.0, "lat": 38.83916166666667, "name": "523c8b5624c95034e21d0858525f7d80", "fusion_lon": 0.0, "bike_id": "523c8b5624c95034e21d0858525f7d80", "is_disabled": 0, "is_reserved": 0}, {"rental_uris": {"ios": "https://dc.lft.to/lastmile_qr_scan", "android": "https://dc.lft.to/lastmile_qr_scan"}, "lon": -77.0299625, "type": "electric_scooter", "fusion_lat": 0.0, "lat": 38.93463716666667, "name": "69d45d81911c0d30a3a1d7b85f2e4acd", "fusion_lon": 0.0, "bike_id": "69d45d81911c0d30a3a1d7b85f2e4acd", "is_disabled": 0, "is_reserved": 0}, {"rental_uris": {"ios": "https://dc.lft.to/lastmile_qr_scan", "android": "https://dc.lft.to/lastmile_qr_scan"}, "lon": -77.04272666666667, "type": "electric_scooter", "fusion_lat": 0.0, "lat": 38.91699066666666, "name": "72cad15899481d5f91a99d6335a3ed5d", "fusion_lon": 0.0, "bike_id": "72cad15899481d5f91a99d6335a3ed5d", "is_disabled": 0, "is_reserved": 0}, {"rental_uris": {"ios": "https://dc.lft.to/lastmile_qr_scan", "android": "https://dc.lft.to/lastmile_qr_scan"}, "lon": -77.03317433333333, "type": "electric_scooter", "fusion_lat": 0.0, "lat": 38.90019266666667, "name": "85a0b01eacfac22f4d1baedc2658c371", "fusion_lon": 0.0, "bike_id": "85a0b01eacfac22f4d1baedc2658c371", "is_disabled": 0, "is_reserved": 0}, {"rental_uris": {"ios": "https://dc.lft.to/lastmile_qr_scan", "android": "https://dc.lft.to/lastmile_qr_scan"}, "lon": -76.9749645, "type": "electric_bike", "fusion_lat": 0.0, "lat": 38.92007133333333, "name": "b39f0faf0e2c8845bad4e67d42303ce1", "fusion_lon": 0.0, "bike_id": "b39f0faf0e2c8845bad4e67d42303ce1", "is_disabled": 0, "is_reserved": 0}, {"rental_uris": {"ios": "https://dc.lft.to/lastmile_qr_scan", "android": "https://dc.lft.to/lastmile_qr_scan"}, "lon": -77.002299, "type": "electric_scooter", "fusion_lat": 0.0, "lat": 38.91183566666667, "name": "4a4da7bba98bb0a2a2f8685830ff00d3", "fusion_lon": 0.0, "bike_id": "4a4da7bba98bb0a2a2f8685830ff00d3", "is_disabled": 0, "is_reserved": 0}, {"rental_uris": {"ios": "https://dc.lft.to/lastmile_qr_scan", "android": "https://dc.lft.to/lastmile_qr_scan"}, "lon": -77.01794033333333, "type": "electric_scooter", "fusion_lat": 0.0, "lat": 38.892379166666665, "name": "4ef6da0ae4d412cfbadb76cc77811f7c", "fusion_lon": 0.0, "bike_id": "4ef6da0ae4d412cfbadb76cc77811f7c", "is_disabled": 0, "is_reserved": 0}, {"rental_uris": {"ios": "https://dc.lft.to/lastmile_qr_scan", "android": "https://dc.lft.to/lastmile_qr_scan"}, "lon": -76.937186, "type": "electric_scooter", "fusion_lat": 0.0, "lat": 38.89585183333333, "name": "7241bac05795c7b0460276a4ba83c494", "fusion_lon": 0.0, "bike_id": "7241bac05795c7b0460276a4ba83c494", "is_disabled": 0, "is_reserved": 0}, {"rental_uris": {"ios": "https://dc.lft.to/lastmile_qr_scan", "android": "https://dc.lft.to/lastmile_qr_scan"}, "lon": -77.02466366666667, "type": "electric_scooter", "fusion_lat": 0.0, "lat": 38.9025735, "name": "698f0d0f6057a7e616b26125ce3f92ae", "fusion_lon": 0.0, "bike_id": "698f0d0f6057a7e616b26125ce3f92ae", "is_disabled": 0, "is_reserved": 0}, {"rental_uris": {"ios": "https://dc.lft.to/lastmile_qr_scan", "android": "https://dc.lft.to/lastmile_qr_scan"}, "lon": -77.039682, "type": "electric_scooter", "fusion_lat": 0.0, "lat": 38.9035555, "name": "f2e394c1053fed5626d31aaeec4599c2", "fusion_lon": 0.0, "bike_id": "f2e394c1053fed5626d31aaeec4599c2", "is_disabled": 0, "is_reserved": 0}, {"rental_uris": {"ios": "https://dc.lft.to/lastmile_qr_scan", "android": "https://dc.lft.to/lastmile_qr_scan"}, "lon": -77.04183716666667, "type": "electric_scooter", "fusion_lat": 0.0, "lat": 38.905400666666665, "name": "1875d4c6ec9240914a5490c1fd24219b", "fusion_lon": 0.0, "bike_id": "1875d4c6ec9240914a5490c1fd24219b", "is_disabled": 0, "is_reserved": 0}, {"rental_uris": {"ios": "https://dc.lft.to/lastmile_qr_scan", "android": "https://dc.lft.to/lastmile_qr_scan"}, "lon": -77.04111633333333, "type": "electric_scooter", "fusion_lat": 0.0, "lat": 38.924491833333335, "name": "7622bc799641f9d47c6093cd20d59f1e", "fusion_lon": 0.0, "bike_id": "7622bc799641f9d47c6093cd20d59f1e", "is_disabled": 0, "is_reserved": 0}, {"rental_uris": {"ios": "https://dc.lft.to/lastmile_qr_scan", "android": "https://dc.lft.to/lastmile_qr_scan"}, "lon": -77.03138916666667, "type": "electric_scooter", "fusion_lat": 0.0, "lat": 38.9182275, "name": "98de49f6af0eef48f9a6df0463811ea6", "fusion_lon": 0.0, "bike_id": "98de49f6af0eef48f9a6df0463811ea6", "is_disabled": 0, "is_reserved": 0}, {"rental_uris": {"ios": "https://dc.lft.to/lastmile_qr_scan", "android": "https://dc.lft.to/lastmile_qr_scan"}, "lon": -76.99856183333333, "type": "electric_scooter", "fusion_lat": 0.0, "lat": 38.899966666666664, "name": "9f34e5946c0ead47aa2857cf5b605365", "fusion_lon": 0.0, "bike_id": "9f34e5946c0ead47aa2857cf5b605365", "is_disabled": 0, "is_reserved": 0}, {"rental_uris": {"ios": "https://dc.lft.to/lastmile_qr_scan", "android": "https://dc.lft.to/lastmile_qr_scan"}, "lon": -76.97943616666667, "type": "electric_scooter", "fusion_lat": 0.0, "lat": 38.906702833333334, "name": "6e4be66c1421a25d6aeae780b8b9a476", "fusion_lon": 0.0, "bike_id": "6e4be66c1421a25d6aeae780b8b9a476", "is_disabled": 0, "is_reserved": 0}, {"rental_uris": {"ios": "https://dc.lft.to/lastmile_qr_scan", "android": "https://dc.lft.to/lastmile_qr_scan"}, "lon": -77.03344333333334, "type": "electric_scooter", "fusion_lat": 0.0, "lat": 38.9118725, "name": "93aea09b2a9d66df23290cb299a01ddd", "fusion_lon": 0.0, "bike_id": "93aea09b2a9d66df23290cb299a01ddd", "is_disabled": 0, "is_reserved": 0}, {"rental_uris": {"ios": "https://dc.lft.to/lastmile_qr_scan", "android": "https://dc.lft.to/lastmile_qr_scan"}, "lon": -77.03474516666667, "type": "electric_scooter", "fusion_lat": 0.0, "lat": 38.91266816666667, "name": "dafaeeb1328129455b62d7f463193bd9", "fusion_lon": 0.0, "bike_id": "dafaeeb1328129455b62d7f463193bd9", "is_disabled": 0, "is_reserved": 0}, {"rental_uris": {"ios": "https://dc.lft.to/lastmile_qr_scan", "android": "https://dc.lft.to/lastmile_qr_scan"}, "lon": -76.97413116666667, "type": "electric_scooter", "fusion_lat": 0.0, "lat": 38.90158366666667, "name": "f9f4ddddc2db15c4ba0bf2d363478ed4", "fusion_lon": 0.0, "bike_id": "f9f4ddddc2db15c4ba0bf2d363478ed4", "is_disabled": 0, "is_reserved": 0}, {"rental_uris": {"ios": "https://dc.lft.to/lastmile_qr_scan", "android": "https://dc.lft.to/lastmile_qr_scan"}, "lon": -77.03365133333334, "type": "electric_scooter", "fusion_lat": 0.0, "lat": 38.91972766666667, "name": "7107fa93756e9e6c27925893d8122a68", "fusion_lon": 0.0, "bike_id": "7107fa93756e9e6c27925893d8122a68", "is_disabled": 0, "is_reserved": 0}, {"rental_uris": {"ios": "https://dc.lft.to/lastmile_qr_scan", "android": "https://dc.lft.to/lastmile_qr_scan"}, "lon": -77.00356233333333, "type": "electric_scooter", "fusion_lat": 0.0, "lat": 38.8976705, "name": "c9fd282b01b264226a126b317757780e", "fusion_lon": 0.0, "bike_id": "c9fd282b01b264226a126b317757780e", "is_disabled": 0, "is_reserved": 0}, {"rental_uris": {"ios": "https://dc.lft.to/lastmile_qr_scan", "android": "https://dc.lft.to/lastmile_qr_scan"}, "lon": -76.98568233333333, "type": "electric_scooter", "fusion_lat": 0.0, "lat": 38.898914, "name": "4345fde533e2c918a671f6c02b69c6c3", "fusion_lon": 0.0, "bike_id": "4345fde533e2c918a671f6c02b69c6c3", "is_disabled": 0, "is_reserved": 0}, {"rental_uris": {"ios": "https://dc.lft.to/lastmile_qr_scan", "android": "https://dc.lft.to/lastmile_qr_scan"}, "lon": -77.02781966666667, "type": "electric_scooter", "fusion_lat": 0.0, "lat": 38.91811766666667, "name": "c5e0d3cb6029daf0d663c4c5e91d3bca", "fusion_lon": 0.0, "bike_id": "c5e0d3cb6029daf0d663c4c5e91d3bca", "is_disabled": 0, "is_reserved": 0}, {"rental_uris": {"ios": "https://dc.lft.to/lastmile_qr_scan", "android": "https://dc.lft.to/lastmile_qr_scan"}, "lon": -77.0328395, "type": "electric_scooter", "fusion_lat": 0.0, "lat": 38.936415333333336, "name": "0a938da120c1d6bbb12c15a598929a6e", "fusion_lon": 0.0, "bike_id": "0a938da120c1d6bbb12c15a598929a6e", "is_disabled": 0, "is_reserved": 0}, {"rental_uris": {"ios": "https://dc.lft.to/lastmile_qr_scan", "android": "https://dc.lft.to/lastmile_qr_scan"}, "lon": -77.03215483333334, "type": "electric_scooter", "fusion_lat": 0.0, "lat": 38.96242066666667, "name": "c4e3d9b05fb3180cd9b28a785bce5ce6", "fusion_lon": 0.0, "bike_id": "c4e3d9b05fb3180cd9b28a785bce5ce6", "is_disabled": 0, "is_reserved": 0}, {"rental_uris": {"ios": "https://dc.lft.to/lastmile_qr_scan", "android": "https://dc.lft.to/lastmile_qr_scan"}, "lon": -77.03973283333333, "type": "electric_scooter", "fusion_lat": 0.0, "lat": 38.9245, "name": "33b780d26f81fd8193ef10d8e8877045", "fusion_lon": 0.0, "bike_id": "33b780d26f81fd8193ef10d8e8877045", "is_disabled": 0, "is_reserved": 0}, {"rental_uris": {"ios": "https://dc.lft.to/lastmile_qr_scan", "android": "https://dc.lft.to/lastmile_qr_scan"}, "lon": -77.04900133333334, "type": "electric_bike", "fusion_lat": 0.0, "lat": 38.8749685, "name": "2c3cd0c262d23368269b0b2681591d90", "fusion_lon": 0.0, "bike_id": "2c3cd0c262d23368269b0b2681591d90", "is_disabled": 0, "is_reserved": 0}, {"rental_uris": {"ios": "https://dc.lft.to/lastmile_qr_scan", "android": "https://dc.lft.to/lastmile_qr_scan"}, "lon": -77.06278983333333, "type": "electric_scooter", "fusion_lat": 0.0, "lat": 38.90679183333334, "name": "f233650031604133c9b912199808c542", "fusion_lon": 0.0, "bike_id": "f233650031604133c9b912199808c542", "is_disabled": 0, "is_reserved": 0}, {"rental_uris": {"ios": "https://dc.lft.to/lastmile_qr_scan", "android": "https://dc.lft.to/lastmile_qr_scan"}, "lon": -77.10032183333334, "type": "electric_bike", "fusion_lat": 0.0, "lat": 38.99062833333333, "name": "4e5b01a9fb1dd67c1544463d4d7dd456", "fusion_lon": 0.0, "bike_id": "4e5b01a9fb1dd67c1544463d4d7dd456", "is_disabled": 0, "is_reserved": 0}, {"rental_uris": {"ios": "https://dc.lft.to/lastmile_qr_scan", "android": "https://dc.lft.to/lastmile_qr_scan"}, "lon": -77.02202016666666, "type": "electric_scooter", "fusion_lat": 0.0, "lat": 38.910428, "name": "73814ab20a817f9d0af21d325c130596", "fusion_lon": 0.0, "bike_id": "73814ab20a817f9d0af21d325c130596", "is_disabled": 0, "is_reserved": 0}, {"rental_uris": {"ios": "https://dc.lft.to/lastmile_qr_scan", "android": "https://dc.lft.to/lastmile_qr_scan"}, "lon": -77.04185466666667, "type": "electric_scooter", "fusion_lat": 0.0, "lat": 38.92305133333333, "name": "9151e70528207974eeef44184a868412", "fusion_lon": 0.0, "bike_id": "9151e70528207974eeef44184a868412", "is_disabled": 0, "is_reserved": 0}, {"rental_uris": {"ios": "https://dc.lft.to/lastmile_qr_scan", "android": "https://dc.lft.to/lastmile_qr_scan"}, "lon": -76.946554, "type": "electric_scooter", "fusion_lat": 0.0, "lat": 38.898268, "name": "d00392423d03f8885f08e769bb40cad1", "fusion_lon": 0.0, "bike_id": "d00392423d03f8885f08e769bb40cad1", "is_disabled": 0, "is_reserved": 0}, {"rental_uris": {"ios": "https://dc.lft.to/lastmile_qr_scan", "android": "https://dc.lft.to/lastmile_qr_scan"}, "lon": -77.039743, "type": "electric_scooter", "fusion_lat": 0.0, "lat": 38.9001625, "name": "0d1141a630a80079ff7bef0b664bb45a", "fusion_lon": 0.0, "bike_id": "0d1141a630a80079ff7bef0b664bb45a", "is_disabled": 0, "is_reserved": 0}, {"rental_uris": {"ios": "https://dc.lft.to/lastmile_qr_scan", "android": "https://dc.lft.to/lastmile_qr_scan"}, "lon": -77.06652016666666, "type": "electric_scooter", "fusion_lat": 0.0, "lat": 38.94963966666667, "name": "62e35d2c49da3fcc9f1fc6f072d36a9c", "fusion_lon": 0.0, "bike_id": "62e35d2c49da3fcc9f1fc6f072d36a9c", "is_disabled": 0, "is_reserved": 0}, {"rental_uris": {"ios": "https://dc.lft.to/lastmile_qr_scan", "android": "https://dc.lft.to/lastmile_qr_scan"}, "lon": -77.01744416666666, "type": "electric_scooter", "fusion_lat": 0.0, "lat": 38.905686, "name": "e240c714d14bb292ffab70f465985d07", "fusion_lon": 0.0, "bike_id": "e240c714d14bb292ffab70f465985d07", "is_disabled": 0, "is_reserved": 0}, {"rental_uris": {"ios": "https://dc.lft.to/lastmile_qr_scan", "android": "https://dc.lft.to/lastmile_qr_scan"}, "lon": -76.9499565, "type": "electric_scooter", "fusion_lat": 0.0, "lat": 38.89367983333333, "name": "8f78e30390b2bf65516516ce45a23af3", "fusion_lon": 0.0, "bike_id": "8f78e30390b2bf65516516ce45a23af3", "is_disabled": 0, "is_reserved": 0}, {"rental_uris": {"ios": "https://dc.lft.to/lastmile_qr_scan", "android": "https://dc.lft.to/lastmile_qr_scan"}, "lon": -76.99023966666667, "type": "electric_scooter", "fusion_lat": 0.0, "lat": 38.8586845, "name": "21dbbf853a77ea7113a58850d4db7a4d", "fusion_lon": 0.0, "bike_id": "21dbbf853a77ea7113a58850d4db7a4d", "is_disabled": 0, "is_reserved": 0}, {"rental_uris": {"ios": "https://dc.lft.to/lastmile_qr_scan", "android": "https://dc.lft.to/lastmile_qr_scan"}, "lon": -77.03177166666667, "type": "electric_scooter", "fusion_lat": 0.0, "lat": 38.91714616666667, "name": "193da3a4a7caec1c9a6231c905ed2852", "fusion_lon": 0.0, "bike_id": "193da3a4a7caec1c9a6231c905ed2852", "is_disabled": 0, "is_reserved": 0}, {"rental_uris": {"ios": "https://dc.lft.to/lastmile_qr_scan", "android": "https://dc.lft.to/lastmile_qr_scan"}, "lon": -77.018613, "type": "electric_scooter", "fusion_lat": 0.0, "lat": 38.89261283333333, "name": "dd85b58952d5add6e8270126d0da8a1c", "fusion_lon": 0.0, "bike_id": "dd85b58952d5add6e8270126d0da8a1c", "is_disabled": 0, "is_reserved": 0}, {"rental_uris": {"ios": "https://dc.lft.to/lastmile_qr_scan", "android": "https://dc.lft.to/lastmile_qr_scan"}, "lon": -77.02553083333333, "type": "electric_scooter", "fusion_lat": 0.0, "lat": 38.89228166666667, "name": "8d180272eeae1ba0a7c5f0e932c052bd", "fusion_lon": 0.0, "bike_id": "8d180272eeae1ba0a7c5f0e932c052bd", "is_disabled": 0, "is_reserved": 0}, {"rental_uris": {"ios": "https://dc.lft.to/lastmile_qr_scan", "android": "https://dc.lft.to/lastmile_qr_scan"}, "lon": -77.0362105, "type": "electric_scooter", "fusion_lat": 0.0, "lat": 38.9373735, "name": "d649a6810dd747f889438e4b76e605f7", "fusion_lon": 0.0, "bike_id": "d649a6810dd747f889438e4b76e605f7", "is_disabled": 0, "is_reserved": 0}, {"rental_uris": {"ios": "https://dc.lft.to/lastmile_qr_scan", "android": "https://dc.lft.to/lastmile_qr_scan"}, "lon": -77.06458166666667, "type": "electric_scooter", "fusion_lat": 0.0, "lat": 38.91047716666667, "name": "2b2882da345d1a6bfbe9951a26368b62", "fusion_lon": 0.0, "bike_id": "2b2882da345d1a6bfbe9951a26368b62", "is_disabled": 0, "is_reserved": 0}, {"rental_uris": {"ios": "https://dc.lft.to/lastmile_qr_scan", "android": "https://dc.lft.to/lastmile_qr_scan"}, "lon": -77.03302983333333, "type": "electric_scooter", "fusion_lat": 0.0, "lat": 38.901448, "name": "cbdd085f8c327bb46fa92cf35f523e13", "fusion_lon": 0.0, "bike_id": "cbdd085f8c327bb46fa92cf35f523e13", "is_disabled": 0, "is_reserved": 0}, {"rental_uris": {"ios": "https://dc.lft.to/lastmile_qr_scan", "android": "https://dc.lft.to/lastmile_qr_scan"}, "lon": -77.03882, "type": "electric_scooter", "fusion_lat": 0.0, "lat": 38.90813, "name": "7c4b288d23d3c8d1eec885ff915d253d", "fusion_lon": 0.0, "bike_id": "7c4b288d23d3c8d1eec885ff915d253d", "is_disabled": 0, "is_reserved": 0}, {"rental_uris": {"ios": "https://dc.lft.to/lastmile_qr_scan", "android": "https://dc.lft.to/lastmile_qr_scan"}, "lon": -77.06185983333333, "type": "electric_scooter", "fusion_lat": 0.0, "lat": 38.90270666666667, "name": "6fbc3be73e93eaf7e4829a5a7fe9ef8d", "fusion_lon": 0.0, "bike_id": "6fbc3be73e93eaf7e4829a5a7fe9ef8d", "is_disabled": 0, "is_reserved": 0}, {"rental_uris": {"ios": "https://dc.lft.to/lastmile_qr_scan", "android": "https://dc.lft.to/lastmile_qr_scan"}, "lon": -77.18300366666666, "type": "electric_bike", "fusion_lat": 0.0, "lat": 38.883454, "name": "a23cb043a3a7f6e5a03cc948f03bb303", "fusion_lon": 0.0, "bike_id": "a23cb043a3a7f6e5a03cc948f03bb303", "is_disabled": 0, "is_reserved": 0}, {"rental_uris": {"ios": "https://dc.lft.to/lastmile_qr_scan", "android": "https://dc.lft.to/lastmile_qr_scan"}, "lon": -76.97821416666666, "type": "electric_scooter", "fusion_lat": 0.0, "lat": 38.8951635, "name": "169e8042c26b1b154e04352ee64c62f9", "fusion_lon": 0.0, "bike_id": "169e8042c26b1b154e04352ee64c62f9", "is_disabled": 0, "is_reserved": 0}, {"rental_uris": {"ios": "https://dc.lft.to/lastmile_qr_scan", "android": "https://dc.lft.to/lastmile_qr_scan"}, "lon": -77.04175066666667, "type": "electric_scooter", "fusion_lat": 0.0, "lat": 38.91938483333333, "name": "958b642ab8816be4c7f83805bdbf86db", "fusion_lon": 0.0, "bike_id": "958b642ab8816be4c7f83805bdbf86db", "is_disabled": 0, "is_reserved": 0}, {"rental_uris": {"ios": "https://dc.lft.to/lastmile_qr_scan", "android": "https://dc.lft.to/lastmile_qr_scan"}, "lon": -77.0498805, "type": "electric_scooter", "fusion_lat": 0.0, "lat": 38.907975666666665, "name": "2500bf7c7e11ff09fa41768b60693b33", "fusion_lon": 0.0, "bike_id": "2500bf7c7e11ff09fa41768b60693b33", "is_disabled": 0, "is_reserved": 0}, {"rental_uris": {"ios": "https://dc.lft.to/lastmile_qr_scan", "android": "https://dc.lft.to/lastmile_qr_scan"}, "lon": -77.12500233333333, "type": "electric_bike", "fusion_lat": 0.0, "lat": 39.024246833333336, "name": "a596d882e05d50c5cfde0512879fc357", "fusion_lon": 0.0, "bike_id": "a596d882e05d50c5cfde0512879fc357", "is_disabled": 0, "is_reserved": 0}, {"rental_uris": {"ios": "https://dc.lft.to/lastmile_qr_scan", "android": "https://dc.lft.to/lastmile_qr_scan"}, "lon": -77.02342633333333, "type": "electric_scooter", "fusion_lat": 0.0, "lat": 38.96208033333333, "name": "ad06387a864ae1e672b1bf683f7cdce3", "fusion_lon": 0.0, "bike_id": "ad06387a864ae1e672b1bf683f7cdce3", "is_disabled": 0, "is_reserved": 0}, {"rental_uris": {"ios": "https://dc.lft.to/lastmile_qr_scan", "android": "https://dc.lft.to/lastmile_qr_scan"}, "lon": -77.03473783333334, "type": "electric_scooter", "fusion_lat": 0.0, "lat": 38.917088666666665, "name": "5d1afd97103064ca5fd7b8913eb08141", "fusion_lon": 0.0, "bike_id": "5d1afd97103064ca5fd7b8913eb08141", "is_disabled": 0, "is_reserved": 0}, {"rental_uris": {"ios": "https://dc.lft.to/lastmile_qr_scan", "android": "https://dc.lft.to/lastmile_qr_scan"}, "lon": -77.04201866666666, "type": "electric_scooter", "fusion_lat": 0.0, "lat": 38.90759416666667, "name": "8dbb45b8036c4cd31b838a8586415ec7", "fusion_lon": 0.0, "bike_id": "8dbb45b8036c4cd31b838a8586415ec7", "is_disabled": 0, "is_reserved": 0}, {"rental_uris": {"ios": "https://dc.lft.to/lastmile_qr_scan", "android": "https://dc.lft.to/lastmile_qr_scan"}, "lon": -77.0284785, "type": "electric_scooter", "fusion_lat": 0.0, "lat": 38.93071916666667, "name": "56fcd3f6a9c678a12a3c424c44566974", "fusion_lon": 0.0, "bike_id": "56fcd3f6a9c678a12a3c424c44566974", "is_disabled": 0, "is_reserved": 0}, {"rental_uris": {"ios": "https://dc.lft.to/lastmile_qr_scan", "android": "https://dc.lft.to/lastmile_qr_scan"}, "lon": -77.05711683333334, "type": "electric_scooter", "fusion_lat": 0.0, "lat": 38.9053605, "name": "8eeb35d98c3e3535c3f0710055616127", "fusion_lon": 0.0, "bike_id": "8eeb35d98c3e3535c3f0710055616127", "is_disabled": 0, "is_reserved": 0}, {"rental_uris": {"ios": "https://dc.lft.to/lastmile_qr_scan", "android": "https://dc.lft.to/lastmile_qr_scan"}, "lon": -77.04299033333334, "type": "electric_scooter", "fusion_lat": 0.0, "lat": 38.92297816666667, "name": "b192f5145618624be6aab3a0250ca02b", "fusion_lon": 0.0, "bike_id": "b192f5145618624be6aab3a0250ca02b", "is_disabled": 0, "is_reserved": 0}, {"rental_uris": {"ios": "https://dc.lft.to/lastmile_qr_scan", "android": "https://dc.lft.to/lastmile_qr_scan"}, "lon": -77.03271666666667, "type": "electric_scooter", "fusion_lat": 0.0, "lat": 38.9292255, "name": "1ea037ff1de5bc5164e6e501357871dc", "fusion_lon": 0.0, "bike_id": "1ea037ff1de5bc5164e6e501357871dc", "is_disabled": 0, "is_reserved": 0}, {"rental_uris": {"ios": "https://dc.lft.to/lastmile_qr_scan", "android": "https://dc.lft.to/lastmile_qr_scan"}, "lon": -77.0058835, "type": "electric_scooter", "fusion_lat": 0.0, "lat": 38.91560166666667, "name": "5fce9e52074f47ff3377cb64e4c95aa0", "fusion_lon": 0.0, "bike_id": "5fce9e52074f47ff3377cb64e4c95aa0", "is_disabled": 0, "is_reserved": 0}, {"rental_uris": {"ios": "https://dc.lft.to/lastmile_qr_scan", "android": "https://dc.lft.to/lastmile_qr_scan"}, "lon": -76.93176633333333, "type": "electric_scooter", "fusion_lat": 0.0, "lat": 38.89882433333333, "name": "bed3f8923fe1109e3f5980c83856e4d2", "fusion_lon": 0.0, "bike_id": "bed3f8923fe1109e3f5980c83856e4d2", "is_disabled": 0, "is_reserved": 0}, {"rental_uris": {"ios": "https://dc.lft.to/lastmile_qr_scan", "android": "https://dc.lft.to/lastmile_qr_scan"}, "lon": -77.04665716666666, "type": "electric_scooter", "fusion_lat": 0.0, "lat": 38.893287, "name": "a3a6d768501d9fdf9ad1beb28eb20249", "fusion_lon": 0.0, "bike_id": "a3a6d768501d9fdf9ad1beb28eb20249", "is_disabled": 0, "is_reserved": 0}, {"rental_uris": {"ios": "https://dc.lft.to/lastmile_qr_scan", "android": "https://dc.lft.to/lastmile_qr_scan"}, "lon": -77.0517825, "type": "electric_scooter", "fusion_lat": 0.0, "lat": 38.8976935, "name": "b757e37c738fc601f8b7fbbaf0c6ebe1", "fusion_lon": 0.0, "bike_id": "b757e37c738fc601f8b7fbbaf0c6ebe1", "is_disabled": 0, "is_reserved": 0}, {"rental_uris": {"ios": "https://dc.lft.to/lastmile_qr_scan", "android": "https://dc.lft.to/lastmile_qr_scan"}, "lon": -77.00211916666666, "type": "electric_scooter", "fusion_lat": 0.0, "lat": 38.90221183333333, "name": "e3b97d241fabd411a1fb115699834ce1", "fusion_lon": 0.0, "bike_id": "e3b97d241fabd411a1fb115699834ce1", "is_disabled": 0, "is_reserved": 0}, {"rental_uris": {"ios": "https://dc.lft.to/lastmile_qr_scan", "android": "https://dc.lft.to/lastmile_qr_scan"}, "lon": -76.94979716666667, "type": "electric_scooter", "fusion_lat": 0.0, "lat": 38.893641333333335, "name": "a1b7e4d2fae4234edefe31dc8a7ef26d", "fusion_lon": 0.0, "bike_id": "a1b7e4d2fae4234edefe31dc8a7ef26d", "is_disabled": 0, "is_reserved": 0}, {"rental_uris": {"ios": "https://dc.lft.to/lastmile_qr_scan", "android": "https://dc.lft.to/lastmile_qr_scan"}, "lon": -77.02640433333333, "type": "electric_bike", "fusion_lat": 0.0, "lat": 38.93671, "name": "b9ef7864d6d7324d34680d130698d124", "fusion_lon": 0.0, "bike_id": "b9ef7864d6d7324d34680d130698d124", "is_disabled": 0, "is_reserved": 0}, {"rental_uris": {"ios": "https://dc.lft.to/lastmile_qr_scan", "android": "https://dc.lft.to/lastmile_qr_scan"}, "lon": -77.12049116666667, "type": "electric_bike", "fusion_lat": 0.0, "lat": 38.855061166666665, "name": "157a2ed193417421d861d5b82965f42a", "fusion_lon": 0.0, "bike_id": "157a2ed193417421d861d5b82965f42a", "is_disabled": 0, "is_reserved": 0}, {"rental_uris": {"ios": "https://dc.lft.to/lastmile_qr_scan", "android": "https://dc.lft.to/lastmile_qr_scan"}, "lon": -77.04540783333333, "type": "electric_scooter", "fusion_lat": 0.0, "lat": 38.894794166666664, "name": "394b4ceaf93f4d0be9d13d192b6d5112", "fusion_lon": 0.0, "bike_id": "394b4ceaf93f4d0be9d13d192b6d5112", "is_disabled": 0, "is_reserved": 0}, {"rental_uris": {"ios": "https://dc.lft.to/lastmile_qr_scan", "android": "https://dc.lft.to/lastmile_qr_scan"}, "lon": -77.028682, "type": "electric_scooter", "fusion_lat": 0.0, "lat": 38.89753783333333, "name": "97fb065bea7a6952ce91fddc6b6c2d43", "fusion_lon": 0.0, "bike_id": "97fb065bea7a6952ce91fddc6b6c2d43", "is_disabled": 0, "is_reserved": 0}, {"rental_uris": {"ios": "https://dc.lft.to/lastmile_qr_scan", "android": "https://dc.lft.to/lastmile_qr_scan"}, "lon": -77.0244255, "type": "electric_scooter", "fusion_lat": 0.0, "lat": 38.9225665, "name": "a2254c4ce8a20b20ed9d31f68c8c6344", "fusion_lon": 0.0, "bike_id": "a2254c4ce8a20b20ed9d31f68c8c6344", "is_disabled": 0, "is_reserved": 0}, {"rental_uris": {"ios": "https://dc.lft.to/lastmile_qr_scan", "android": "https://dc.lft.to/lastmile_qr_scan"}, "lon": -77.032056, "type": "electric_scooter", "fusion_lat": 0.0, "lat": 38.900245, "name": "baf30db1403b051abe3fcb256a88036c", "fusion_lon": 0.0, "bike_id": "baf30db1403b051abe3fcb256a88036c", "is_disabled": 0, "is_reserved": 0}, {"rental_uris": {"ios": "https://dc.lft.to/lastmile_qr_scan", "android": "https://dc.lft.to/lastmile_qr_scan"}, "lon": -77.0330235, "type": "electric_scooter", "fusion_lat": 0.0, "lat": 38.90906183333333, "name": "e30d333d9d0a0be799eec977de5b5d6f", "fusion_lon": 0.0, "bike_id": "e30d333d9d0a0be799eec977de5b5d6f", "is_disabled": 0, "is_reserved": 0}, {"rental_uris": {"ios": "https://dc.lft.to/lastmile_qr_scan", "android": "https://dc.lft.to/lastmile_qr_scan"}, "lon": -77.00648183333334, "type": "electric_scooter", "fusion_lat": 0.0, "lat": 38.876213166666666, "name": "2ce5025a49d30b7058ec79a9cc5b57d1", "fusion_lon": 0.0, "bike_id": "2ce5025a49d30b7058ec79a9cc5b57d1", "is_disabled": 0, "is_reserved": 0}, {"rental_uris": {"ios": "https://dc.lft.to/lastmile_qr_scan", "android": "https://dc.lft.to/lastmile_qr_scan"}, "lon": -76.9835185, "type": "electric_scooter", "fusion_lat": 0.0, "lat": 38.915374166666666, "name": "be1c80307b5ff186d69259f1733b960c", "fusion_lon": 0.0, "bike_id": "be1c80307b5ff186d69259f1733b960c", "is_disabled": 0, "is_reserved": 0}, {"rental_uris": {"ios": "https://dc.lft.to/lastmile_qr_scan", "android": "https://dc.lft.to/lastmile_qr_scan"}, "lon": -77.0319185, "type": "electric_scooter", "fusion_lat": 0.0, "lat": 38.8982355, "name": "7de1bbd862aad446e7f0bf166daf83d2", "fusion_lon": 0.0, "bike_id": "7de1bbd862aad446e7f0bf166daf83d2", "is_disabled": 0, "is_reserved": 0}, {"rental_uris": {"ios": "https://dc.lft.to/lastmile_qr_scan", "android": "https://dc.lft.to/lastmile_qr_scan"}, "lon": -76.95473483333333, "type": "electric_bike", "fusion_lat": 0.0, "lat": 38.886369, "name": "43431d5fb20fd1aec9cff92ab6637c6f", "fusion_lon": 0.0, "bike_id": "43431d5fb20fd1aec9cff92ab6637c6f", "is_disabled": 0, "is_reserved": 0}, {"rental_uris": {"ios": "https://dc.lft.to/lastmile_qr_scan", "android": "https://dc.lft.to/lastmile_qr_scan"}, "lon": -76.99059983333333, "type": "electric_scooter", "fusion_lat": 0.0, "lat": 38.86355316666667, "name": "a57ea689323c94fd6499e243d68555af", "fusion_lon": 0.0, "bike_id": "a57ea689323c94fd6499e243d68555af", "is_disabled": 0, "is_reserved": 0}, {"rental_uris": {"ios": "https://dc.lft.to/lastmile_qr_scan", "android": "https://dc.lft.to/lastmile_qr_scan"}, "lon": -77.021995, "type": "electric_scooter", "fusion_lat": 0.0, "lat": 38.89451583333334, "name": "b29756fe95c2c7bb848317db8e5eaa3e", "fusion_lon": 0.0, "bike_id": "b29756fe95c2c7bb848317db8e5eaa3e", "is_disabled": 0, "is_reserved": 0}, {"rental_uris": {"ios": "https://dc.lft.to/lastmile_qr_scan", "android": "https://dc.lft.to/lastmile_qr_scan"}, "lon": -77.03531033333333, "type": "electric_scooter", "fusion_lat": 0.0, "lat": 38.921598333333336, "name": "05c5458ae50e0baefa80aec6649807f9", "fusion_lon": 0.0, "bike_id": "05c5458ae50e0baefa80aec6649807f9", "is_disabled": 0, "is_reserved": 0}, {"rental_uris": {"ios": "https://dc.lft.to/lastmile_qr_scan", "android": "https://dc.lft.to/lastmile_qr_scan"}, "lon": -77.05982283333333, "type": "electric_scooter", "fusion_lat": 0.0, "lat": 38.93547433333333, "name": "b26a25b5f6a8f087d9353332a7291c43", "fusion_lon": 0.0, "bike_id": "b26a25b5f6a8f087d9353332a7291c43", "is_disabled": 0, "is_reserved": 0}, {"rental_uris": {"ios": "https://dc.lft.to/lastmile_qr_scan", "android": "https://dc.lft.to/lastmile_qr_scan"}, "lon": -77.0320995, "type": "electric_scooter", "fusion_lat": 0.0, "lat": 38.892329833333335, "name": "1ff3fdb1537ff381a2403b687053d5d3", "fusion_lon": 0.0, "bike_id": "1ff3fdb1537ff381a2403b687053d5d3", "is_disabled": 0, "is_reserved": 0}, {"rental_uris": {"ios": "https://dc.lft.to/lastmile_qr_scan", "android": "https://dc.lft.to/lastmile_qr_scan"}, "lon": -77.00609833333333, "type": "electric_scooter", "fusion_lat": 0.0, "lat": 38.871816, "name": "6b66993ac7dabc7dc9d2457c3af814f8", "fusion_lon": 0.0, "bike_id": "6b66993ac7dabc7dc9d2457c3af814f8", "is_disabled": 0, "is_reserved": 0}, {"rental_uris": {"ios": "https://dc.lft.to/lastmile_qr_scan", "android": "https://dc.lft.to/lastmile_qr_scan"}, "lon": -77.03856666666667, "type": "electric_scooter", "fusion_lat": 0.0, "lat": 38.92648833333333, "name": "5598ab2bc5fdbe8cc4a3fbdfabc1f0dd", "fusion_lon": 0.0, "bike_id": "5598ab2bc5fdbe8cc4a3fbdfabc1f0dd", "is_disabled": 0, "is_reserved": 0}, {"rental_uris": {"ios": "https://dc.lft.to/lastmile_qr_scan", "android": "https://dc.lft.to/lastmile_qr_scan"}, "lon": -77.02713366666667, "type": "electric_scooter", "fusion_lat": 0.0, "lat": 38.90672083333333, "name": "88c725fa397f32cdb73ac959d3aea18a", "fusion_lon": 0.0, "bike_id": "88c725fa397f32cdb73ac959d3aea18a", "is_disabled": 0, "is_reserved": 0}, {"rental_uris": {"ios": "https://dc.lft.to/lastmile_qr_scan", "android": "https://dc.lft.to/lastmile_qr_scan"}, "lon": -76.996353, "type": "electric_bike", "fusion_lat": 0.0, "lat": 38.887398833333336, "name": "04303d32445889ce69c908075a218642", "fusion_lon": 0.0, "bike_id": "04303d32445889ce69c908075a218642", "is_disabled": 0, "is_reserved": 0}, {"rental_uris": {"ios": "https://dc.lft.to/lastmile_qr_scan", "android": "https://dc.lft.to/lastmile_qr_scan"}, "lon": -77.02150383333333, "type": "electric_scooter", "fusion_lat": 0.0, "lat": 38.8972735, "name": "cd87ef4e4a0bcd0e265c5ced13b5c0e6", "fusion_lon": 0.0, "bike_id": "cd87ef4e4a0bcd0e265c5ced13b5c0e6", "is_disabled": 0, "is_reserved": 0}, {"rental_uris": {"ios": "https://dc.lft.to/lastmile_qr_scan", "android": "https://dc.lft.to/lastmile_qr_scan"}, "lon": -77.022124, "type": "electric_scooter", "fusion_lat": 0.0, "lat": 38.8926435, "name": "13e7580e368be32ee306b689b355bb84", "fusion_lon": 0.0, "bike_id": "13e7580e368be32ee306b689b355bb84", "is_disabled": 0, "is_reserved": 0}, {"rental_uris": {"ios": "https://dc.lft.to/lastmile_qr_scan", "android": "https://dc.lft.to/lastmile_qr_scan"}, "lon": -77.020992, "type": "electric_scooter", "fusion_lat": 0.0, "lat": 38.91009866666667, "name": "ed0fc325b0378b4c4d42bbe7d0cf3269", "fusion_lon": 0.0, "bike_id": "ed0fc325b0378b4c4d42bbe7d0cf3269", "is_disabled": 0, "is_reserved": 0}, {"rental_uris": {"ios": "https://dc.lft.to/lastmile_qr_scan", "android": "https://dc.lft.to/lastmile_qr_scan"}, "lon": -77.03000383333334, "type": "electric_scooter", "fusion_lat": 0.0, "lat": 38.9248015, "name": "5727d5dbaaf02b9a0cd4e477f82e6c2b", "fusion_lon": 0.0, "bike_id": "5727d5dbaaf02b9a0cd4e477f82e6c2b", "is_disabled": 0, "is_reserved": 0}, {"rental_uris": {"ios": "https://dc.lft.to/lastmile_qr_scan", "android": "https://dc.lft.to/lastmile_qr_scan"}, "lon": -77.03180283333333, "type": "electric_scooter", "fusion_lat": 0.0, "lat": 38.8870415, "name": "448ce547c7baf161e719caecba917fb9", "fusion_lon": 0.0, "bike_id": "448ce547c7baf161e719caecba917fb9", "is_disabled": 0, "is_reserved": 0}, {"rental_uris": {"ios": "https://dc.lft.to/lastmile_qr_scan", "android": "https://dc.lft.to/lastmile_qr_scan"}, "lon": -77.36095416666667, "type": "electric_bike", "fusion_lat": 0.0, "lat": 38.939625, "name": "fdb07233d20d1400bc21a6909cb643ae", "fusion_lon": 0.0, "bike_id": "fdb07233d20d1400bc21a6909cb643ae", "is_disabled": 0, "is_reserved": 0}, {"rental_uris": {"ios": "https://dc.lft.to/lastmile_qr_scan", "android": "https://dc.lft.to/lastmile_qr_scan"}, "lon": -77.04078766666666, "type": "electric_scooter", "fusion_lat": 0.0, "lat": 38.907256333333336, "name": "ab9176ce1a1c32db59511613d6f011be", "fusion_lon": 0.0, "bike_id": "ab9176ce1a1c32db59511613d6f011be", "is_disabled": 0, "is_reserved": 0}, {"rental_uris": {"ios": "https://dc.lft.to/lastmile_qr_scan", "android": "https://dc.lft.to/lastmile_qr_scan"}, "lon": -77.03351016666667, "type": "electric_scooter", "fusion_lat": 0.0, "lat": 38.895300166666665, "name": "2a24f0c5217b2b1de86df96b6f49fd8d", "fusion_lon": 0.0, "bike_id": "2a24f0c5217b2b1de86df96b6f49fd8d", "is_disabled": 0, "is_reserved": 0}, {"rental_uris": {"ios": "https://dc.lft.to/lastmile_qr_scan", "android": "https://dc.lft.to/lastmile_qr_scan"}, "lon": -77.01088966666667, "type": "electric_scooter", "fusion_lat": 0.0, "lat": 38.91814683333333, "name": "ee313779a46302eaecec08f7bebfc4de", "fusion_lon": 0.0, "bike_id": "ee313779a46302eaecec08f7bebfc4de", "is_disabled": 0, "is_reserved": 0}, {"rental_uris": {"ios": "https://dc.lft.to/lastmile_qr_scan", "android": "https://dc.lft.to/lastmile_qr_scan"}, "lon": -76.97983766666667, "type": "electric_bike", "fusion_lat": 0.0, "lat": 38.87755383333333, "name": "bb1c02de0cf6dd808b9c2d7230c8709e", "fusion_lon": 0.0, "bike_id": "bb1c02de0cf6dd808b9c2d7230c8709e", "is_disabled": 0, "is_reserved": 0}, {"rental_uris": {"ios": "https://dc.lft.to/lastmile_qr_scan", "android": "https://dc.lft.to/lastmile_qr_scan"}, "lon": -77.0329705, "type": "electric_scooter", "fusion_lat": 0.0, "lat": 38.92218533333333, "name": "566eff5f0af751dda58b6defd2d91d1b", "fusion_lon": 0.0, "bike_id": "566eff5f0af751dda58b6defd2d91d1b", "is_disabled": 0, "is_reserved": 0}, {"rental_uris": {"ios": "https://dc.lft.to/lastmile_qr_scan", "android": "https://dc.lft.to/lastmile_qr_scan"}, "lon": -77.04998833333333, "type": "electric_scooter", "fusion_lat": 0.0, "lat": 38.89229983333333, "name": "c4acfa3b5d61d9d4fd2deee34e069ea9", "fusion_lon": 0.0, "bike_id": "c4acfa3b5d61d9d4fd2deee34e069ea9", "is_disabled": 0, "is_reserved": 0}, {"rental_uris": {"ios": "https://dc.lft.to/lastmile_qr_scan", "android": "https://dc.lft.to/lastmile_qr_scan"}, "lon": -77.03950516666667, "type": "electric_scooter", "fusion_lat": 0.0, "lat": 38.8985615, "name": "89b80a8c6485d6e8f8d688baed5cb32b", "fusion_lon": 0.0, "bike_id": "89b80a8c6485d6e8f8d688baed5cb32b", "is_disabled": 0, "is_reserved": 0}, {"rental_uris": {"ios": "https://dc.lft.to/lastmile_qr_scan", "android": "https://dc.lft.to/lastmile_qr_scan"}, "lon": -77.0125895, "type": "electric_scooter", "fusion_lat": 0.0, "lat": 38.91263983333333, "name": "ad2e6643776093278ed4afbd8244289a", "fusion_lon": 0.0, "bike_id": "ad2e6643776093278ed4afbd8244289a", "is_disabled": 0, "is_reserved": 0}, {"rental_uris": {"ios": "https://dc.lft.to/lastmile_qr_scan", "android": "https://dc.lft.to/lastmile_qr_scan"}, "lon": -76.99508033333333, "type": "electric_scooter", "fusion_lat": 0.0, "lat": 38.87781016666667, "name": "590b161f75584736d202525a14ca3701", "fusion_lon": 0.0, "bike_id": "590b161f75584736d202525a14ca3701", "is_disabled": 0, "is_reserved": 0}, {"rental_uris": {"ios": "https://dc.lft.to/lastmile_qr_scan", "android": "https://dc.lft.to/lastmile_qr_scan"}, "lon": -77.02349183333334, "type": "electric_scooter", "fusion_lat": 0.0, "lat": 38.933985, "name": "bc3c3dac05dc6f1e92dcddcb3cec8226", "fusion_lon": 0.0, "bike_id": "bc3c3dac05dc6f1e92dcddcb3cec8226", "is_disabled": 0, "is_reserved": 0}, {"rental_uris": {"ios": "https://dc.lft.to/lastmile_qr_scan", "android": "https://dc.lft.to/lastmile_qr_scan"}, "lon": -76.97261283333333, "type": "electric_bike", "fusion_lat": 0.0, "lat": 38.919138333333336, "name": "83470f0438be87fa6903b1350dd00932", "fusion_lon": 0.0, "bike_id": "83470f0438be87fa6903b1350dd00932", "is_disabled": 0, "is_reserved": 0}, {"rental_uris": {"ios": "https://dc.lft.to/lastmile_qr_scan", "android": "https://dc.lft.to/lastmile_qr_scan"}, "lon": -77.11929833333333, "type": "electric_bike", "fusion_lat": 0.0, "lat": 38.84096733333333, "name": "0b26af2a08f45b072f8b90ac64856926", "fusion_lon": 0.0, "bike_id": "0b26af2a08f45b072f8b90ac64856926", "is_disabled": 0, "is_reserved": 0}, {"rental_uris": {"ios": "https://dc.lft.to/lastmile_qr_scan", "android": "https://dc.lft.to/lastmile_qr_scan"}, "lon": -76.93617183333333, "type": "electric_bike", "fusion_lat": 0.0, "lat": 38.970621, "name": "4ab45862c1a4e355648ac7cf1cedafc2", "fusion_lon": 0.0, "bike_id": "4ab45862c1a4e355648ac7cf1cedafc2", "is_disabled": 0, "is_reserved": 0}, {"rental_uris": {"ios": "https://dc.lft.to/lastmile_qr_scan", "android": "https://dc.lft.to/lastmile_qr_scan"}, "lon": -77.01441066666666, "type": "electric_scooter", "fusion_lat": 0.0, "lat": 38.919639833333335, "name": "52ed13ecaebf2d04f2fdd5979e0ce769", "fusion_lon": 0.0, "bike_id": "52ed13ecaebf2d04f2fdd5979e0ce769", "is_disabled": 0, "is_reserved": 0}, {"rental_uris": {"ios": "https://dc.lft.to/lastmile_qr_scan", "android": "https://dc.lft.to/lastmile_qr_scan"}, "lon": -77.079043, "type": "electric_bike", "fusion_lat": 0.0, "lat": 38.839318, "name": "a092d86d39c58b0c5b985faba30982ab", "fusion_lon": 0.0, "bike_id": "a092d86d39c58b0c5b985faba30982ab", "is_disabled": 0, "is_reserved": 0}, {"rental_uris": {"ios": "https://dc.lft.to/lastmile_qr_scan", "android": "https://dc.lft.to/lastmile_qr_scan"}, "lon": -77.02978033333333, "type": "electric_scooter", "fusion_lat": 0.0, "lat": 38.89566416666667, "name": "49405838bc191e8981b960da9657e200", "fusion_lon": 0.0, "bike_id": "49405838bc191e8981b960da9657e200", "is_disabled": 0, "is_reserved": 0}, {"rental_uris": {"ios": "https://dc.lft.to/lastmile_qr_scan", "android": "https://dc.lft.to/lastmile_qr_scan"}, "lon": -77.02706666666667, "type": "electric_scooter", "fusion_lat": 0.0, "lat": 38.881418, "name": "33d489c3567ad8416030a0e8e71b5e7e", "fusion_lon": 0.0, "bike_id": "33d489c3567ad8416030a0e8e71b5e7e", "is_disabled": 0, "is_reserved": 0}, {"rental_uris": {"ios": "https://dc.lft.to/lastmile_qr_scan", "android": "https://dc.lft.to/lastmile_qr_scan"}, "lon": -76.99964016666667, "type": "electric_scooter", "fusion_lat": 0.0, "lat": 38.90921, "name": "a082e380e04f20829af0ba64e077a179", "fusion_lon": 0.0, "bike_id": "a082e380e04f20829af0ba64e077a179", "is_disabled": 0, "is_reserved": 0}, {"rental_uris": {"ios": "https://dc.lft.to/lastmile_qr_scan", "android": "https://dc.lft.to/lastmile_qr_scan"}, "lon": -77.035604, "type": "electric_bike", "fusion_lat": 0.0, "lat": 38.96466783333334, "name": "6616b15054db4a3537ea4c9409860689", "fusion_lon": 0.0, "bike_id": "6616b15054db4a3537ea4c9409860689", "is_disabled": 0, "is_reserved": 0}, {"rental_uris": {"ios": "https://dc.lft.to/lastmile_qr_scan", "android": "https://dc.lft.to/lastmile_qr_scan"}, "lon": -77.04173733333333, "type": "electric_scooter", "fusion_lat": 0.0, "lat": 38.919350666666666, "name": "f93a69a80831f035fc9a4c0b1747a5d7", "fusion_lon": 0.0, "bike_id": "f93a69a80831f035fc9a4c0b1747a5d7", "is_disabled": 0, "is_reserved": 0}, {"rental_uris": {"ios": "https://dc.lft.to/lastmile_qr_scan", "android": "https://dc.lft.to/lastmile_qr_scan"}, "lon": -77.04177416666667, "type": "electric_scooter", "fusion_lat": 0.0, "lat": 38.90846966666667, "name": "430b4c061439c00a890862848939ae9d", "fusion_lon": 0.0, "bike_id": "430b4c061439c00a890862848939ae9d", "is_disabled": 0, "is_reserved": 0}, {"rental_uris": {"ios": "https://dc.lft.to/lastmile_qr_scan", "android": "https://dc.lft.to/lastmile_qr_scan"}, "lon": -77.005999, "type": "electric_scooter", "fusion_lat": 0.0, "lat": 38.876850833333336, "name": "664b42c00c2c061b946e409c137da509", "fusion_lon": 0.0, "bike_id": "664b42c00c2c061b946e409c137da509", "is_disabled": 0, "is_reserved": 0}, {"rental_uris": {"ios": "https://dc.lft.to/lastmile_qr_scan", "android": "https://dc.lft.to/lastmile_qr_scan"}, "lon": -77.018232, "type": "electric_scooter", "fusion_lat": 0.0, "lat": 38.89967733333334, "name": "056b4147417d9db18190ffdd51c46ad8", "fusion_lon": 0.0, "bike_id": "056b4147417d9db18190ffdd51c46ad8", "is_disabled": 0, "is_reserved": 0}, {"rental_uris": {"ios": "https://dc.lft.to/lastmile_qr_scan", "android": "https://dc.lft.to/lastmile_qr_scan"}, "lon": -77.03522066666666, "type": "electric_scooter", "fusion_lat": 0.0, "lat": 38.922199, "name": "77877902bc65e4b9380a8746244d2c7b", "fusion_lon": 0.0, "bike_id": "77877902bc65e4b9380a8746244d2c7b", "is_disabled": 0, "is_reserved": 0}, {"rental_uris": {"ios": "https://dc.lft.to/lastmile_qr_scan", "android": "https://dc.lft.to/lastmile_qr_scan"}, "lon": -77.03310333333333, "type": "electric_scooter", "fusion_lat": 0.0, "lat": 38.90427283333333, "name": "3d072cd1f8ddbcb5692c9e19ab9b8ca6", "fusion_lon": 0.0, "bike_id": "3d072cd1f8ddbcb5692c9e19ab9b8ca6", "is_disabled": 0, "is_reserved": 0}, {"rental_uris": {"ios": "https://dc.lft.to/lastmile_qr_scan", "android": "https://dc.lft.to/lastmile_qr_scan"}, "lon": -76.9981915, "type": "electric_scooter", "fusion_lat": 0.0, "lat": 38.8887025, "name": "a7a634e6d2abcfb2b691514ae22d29bd", "fusion_lon": 0.0, "bike_id": "a7a634e6d2abcfb2b691514ae22d29bd", "is_disabled": 0, "is_reserved": 0}, {"rental_uris": {"ios": "https://dc.lft.to/lastmile_qr_scan", "android": "https://dc.lft.to/lastmile_qr_scan"}, "lon": -77.03209033333333, "type": "electric_scooter", "fusion_lat": 0.0, "lat": 38.90947633333333, "name": "d8bbcaf9d62e2e94f0ec8757e5e3eb39", "fusion_lon": 0.0, "bike_id": "d8bbcaf9d62e2e94f0ec8757e5e3eb39", "is_disabled": 0, "is_reserved": 0}, {"rental_uris": {"ios": "https://dc.lft.to/lastmile_qr_scan", "android": "https://dc.lft.to/lastmile_qr_scan"}, "lon": -77.04317133333333, "type": "electric_scooter", "fusion_lat": 0.0, "lat": 38.905559333333336, "name": "d4f31c20f5e71f0736264367126ac700", "fusion_lon": 0.0, "bike_id": "d4f31c20f5e71f0736264367126ac700", "is_disabled": 0, "is_reserved": 0}, {"rental_uris": {"ios": "https://dc.lft.to/lastmile_qr_scan", "android": "https://dc.lft.to/lastmile_qr_scan"}, "lon": -77.04339833333333, "type": "electric_scooter", "fusion_lat": 0.0, "lat": 38.896555666666664, "name": "469662d2a276225bb96dd8ff6a5b290e", "fusion_lon": 0.0, "bike_id": "469662d2a276225bb96dd8ff6a5b290e", "is_disabled": 0, "is_reserved": 0}, {"rental_uris": {"ios": "https://dc.lft.to/lastmile_qr_scan", "android": "https://dc.lft.to/lastmile_qr_scan"}, "lon": -77.0162945, "type": "electric_scooter", "fusion_lat": 0.0, "lat": 38.90709316666667, "name": "4c61752eb1176befa479ebffce8871ef", "fusion_lon": 0.0, "bike_id": "4c61752eb1176befa479ebffce8871ef", "is_disabled": 0, "is_reserved": 0}, {"rental_uris": {"ios": "https://dc.lft.to/lastmile_qr_scan", "android": "https://dc.lft.to/lastmile_qr_scan"}, "lon": -77.03178283333334, "type": "electric_bike", "fusion_lat": 0.0, "lat": 38.930494833333334, "name": "d39bd285a0b0e648c36152c153cf780c", "fusion_lon": 0.0, "bike_id": "d39bd285a0b0e648c36152c153cf780c", "is_disabled": 0, "is_reserved": 0}, {"rental_uris": {"ios": "https://dc.lft.to/lastmile_qr_scan", "android": "https://dc.lft.to/lastmile_qr_scan"}, "lon": -77.043727, "type": "electric_scooter", "fusion_lat": 0.0, "lat": 38.9178535, "name": "185fa00a77a4cf4772467bf94565e87e", "fusion_lon": 0.0, "bike_id": "185fa00a77a4cf4772467bf94565e87e", "is_disabled": 0, "is_reserved": 0}, {"rental_uris": {"ios": "https://dc.lft.to/lastmile_qr_scan", "android": "https://dc.lft.to/lastmile_qr_scan"}, "lon": -77.06022266666666, "type": "electric_bike", "fusion_lat": 0.0, "lat": 38.904125, "name": "0d6963fa128a21454cf2a6052c60fc26", "fusion_lon": 0.0, "bike_id": "0d6963fa128a21454cf2a6052c60fc26", "is_disabled": 0, "is_reserved": 0}, {"rental_uris": {"ios": "https://dc.lft.to/lastmile_qr_scan", "android": "https://dc.lft.to/lastmile_qr_scan"}, "lon": -76.98512683333334, "type": "electric_scooter", "fusion_lat": 0.0, "lat": 38.9060885, "name": "597af5975ac919620335f77d2d25a49f", "fusion_lon": 0.0, "bike_id": "597af5975ac919620335f77d2d25a49f", "is_disabled": 0, "is_reserved": 0}, {"rental_uris": {"ios": "https://dc.lft.to/lastmile_qr_scan", "android": "https://dc.lft.to/lastmile_qr_scan"}, "lon": -77.02838283333334, "type": "electric_scooter", "fusion_lat": 0.0, "lat": 38.89520266666667, "name": "6223f4055c70ca03745647a2f3c22ea3", "fusion_lon": 0.0, "bike_id": "6223f4055c70ca03745647a2f3c22ea3", "is_disabled": 0, "is_reserved": 0}, {"rental_uris": {"ios": "https://dc.lft.to/lastmile_qr_scan", "android": "https://dc.lft.to/lastmile_qr_scan"}, "lon": -76.9856835, "type": "electric_scooter", "fusion_lat": 0.0, "lat": 38.85586083333333, "name": "23dee8331e68f708a4c8ad66efcae76f", "fusion_lon": 0.0, "bike_id": "23dee8331e68f708a4c8ad66efcae76f", "is_disabled": 0, "is_reserved": 0}, {"rental_uris": {"ios": "https://dc.lft.to/lastmile_qr_scan", "android": "https://dc.lft.to/lastmile_qr_scan"}, "lon": -77.017356, "type": "electric_scooter", "fusion_lat": 0.0, "lat": 38.90254933333333, "name": "ee4f38acdeb756d46dcd05b4c4f2f240", "fusion_lon": 0.0, "bike_id": "ee4f38acdeb756d46dcd05b4c4f2f240", "is_disabled": 0, "is_reserved": 0}, {"rental_uris": {"ios": "https://dc.lft.to/lastmile_qr_scan", "android": "https://dc.lft.to/lastmile_qr_scan"}, "lon": -77.04196233333333, "type": "electric_scooter", "fusion_lat": 0.0, "lat": 38.90342183333333, "name": "c4c7f2ecd7841ec88bd8d67ee5b7d0e7", "fusion_lon": 0.0, "bike_id": "c4c7f2ecd7841ec88bd8d67ee5b7d0e7", "is_disabled": 0, "is_reserved": 0}, {"rental_uris": {"ios": "https://dc.lft.to/lastmile_qr_scan", "android": "https://dc.lft.to/lastmile_qr_scan"}, "lon": -77.0449255, "type": "electric_scooter", "fusion_lat": 0.0, "lat": 38.919518833333335, "name": "da3108852edf1aad7c598785ea85cca2", "fusion_lon": 0.0, "bike_id": "da3108852edf1aad7c598785ea85cca2", "is_disabled": 0, "is_reserved": 0}, {"rental_uris": {"ios": "https://dc.lft.to/lastmile_qr_scan", "android": "https://dc.lft.to/lastmile_qr_scan"}, "lon": -77.02383216666666, "type": "electric_scooter", "fusion_lat": 0.0, "lat": 38.93229983333333, "name": "1c7102f6b01e1139b1a8dd7c4211e41a", "fusion_lon": 0.0, "bike_id": "1c7102f6b01e1139b1a8dd7c4211e41a", "is_disabled": 0, "is_reserved": 0}, {"rental_uris": {"ios": "https://dc.lft.to/lastmile_qr_scan", "android": "https://dc.lft.to/lastmile_qr_scan"}, "lon": -77.00864633333333, "type": "electric_bike", "fusion_lat": 0.0, "lat": 38.82729783333333, "name": "b3f0b671cb6117dd6acab21115b8df19", "fusion_lon": 0.0, "bike_id": "b3f0b671cb6117dd6acab21115b8df19", "is_disabled": 0, "is_reserved": 0}, {"rental_uris": {"ios": "https://dc.lft.to/lastmile_qr_scan", "android": "https://dc.lft.to/lastmile_qr_scan"}, "lon": -77.02398433333333, "type": "electric_scooter", "fusion_lat": 0.0, "lat": 38.9069705, "name": "a52af67ad98810d589e64d214df47f08", "fusion_lon": 0.0, "bike_id": "a52af67ad98810d589e64d214df47f08", "is_disabled": 0, "is_reserved": 0}, {"rental_uris": {"ios": "https://dc.lft.to/lastmile_qr_scan", "android": "https://dc.lft.to/lastmile_qr_scan"}, "lon": -77.047076, "type": "electric_scooter", "fusion_lat": 0.0, "lat": 38.922367333333334, "name": "98a3b5d334ca547497c0a7b7b06038ba", "fusion_lon": 0.0, "bike_id": "98a3b5d334ca547497c0a7b7b06038ba", "is_disabled": 0, "is_reserved": 0}, {"rental_uris": {"ios": "https://dc.lft.to/lastmile_qr_scan", "android": "https://dc.lft.to/lastmile_qr_scan"}, "lon": -77.02582516666666, "type": "electric_scooter", "fusion_lat": 0.0, "lat": 38.892458166666664, "name": "5adefdab6180382fb3813bfe26830ba0", "fusion_lon": 0.0, "bike_id": "5adefdab6180382fb3813bfe26830ba0", "is_disabled": 0, "is_reserved": 0}, {"rental_uris": {"ios": "https://dc.lft.to/lastmile_qr_scan", "android": "https://dc.lft.to/lastmile_qr_scan"}, "lon": -77.067606, "type": "electric_scooter", "fusion_lat": 0.0, "lat": 38.90355116666667, "name": "eb39458db372e10bbc63eeb6d0dd14b9", "fusion_lon": 0.0, "bike_id": "eb39458db372e10bbc63eeb6d0dd14b9", "is_disabled": 0, "is_reserved": 0}, {"rental_uris": {"ios": "https://dc.lft.to/lastmile_qr_scan", "android": "https://dc.lft.to/lastmile_qr_scan"}, "lon": -77.050011, "type": "electric_scooter", "fusion_lat": 0.0, "lat": 38.901362, "name": "2fa8da395cf2fb2f98aab9642d1e08aa", "fusion_lon": 0.0, "bike_id": "2fa8da395cf2fb2f98aab9642d1e08aa", "is_disabled": 0, "is_reserved": 0}, {"rental_uris": {"ios": "https://dc.lft.to/lastmile_qr_scan", "android": "https://dc.lft.to/lastmile_qr_scan"}, "lon": -77.0194875, "type": "electric_scooter", "fusion_lat": 0.0, "lat": 38.92417983333333, "name": "f8504fbcba15e9d2ec8da62dce08f4b1", "fusion_lon": 0.0, "bike_id": "f8504fbcba15e9d2ec8da62dce08f4b1", "is_disabled": 0, "is_reserved": 0}, {"rental_uris": {"ios": "https://dc.lft.to/lastmile_qr_scan", "android": "https://dc.lft.to/lastmile_qr_scan"}, "lon": -77.032134, "type": "electric_scooter", "fusion_lat": 0.0, "lat": 38.89216066666667, "name": "de6a41b070c6da9b2beeaa9001e05040", "fusion_lon": 0.0, "bike_id": "de6a41b070c6da9b2beeaa9001e05040", "is_disabled": 0, "is_reserved": 0}, {"rental_uris": {"ios": "https://dc.lft.to/lastmile_qr_scan", "android": "https://dc.lft.to/lastmile_qr_scan"}, "lon": -77.00379433333333, "type": "electric_scooter", "fusion_lat": 0.0, "lat": 38.8766295, "name": "c28eeb5b5f19af505a23b497e1740863", "fusion_lon": 0.0, "bike_id": "c28eeb5b5f19af505a23b497e1740863", "is_disabled": 0, "is_reserved": 0}, {"rental_uris": {"ios": "https://dc.lft.to/lastmile_qr_scan", "android": "https://dc.lft.to/lastmile_qr_scan"}, "lon": -77.032111, "type": "electric_scooter", "fusion_lat": 0.0, "lat": 38.92581116666667, "name": "127d1e83184ac444a1ae46c552369c7c", "fusion_lon": 0.0, "bike_id": "127d1e83184ac444a1ae46c552369c7c", "is_disabled": 0, "is_reserved": 0}, {"rental_uris": {"ios": "https://dc.lft.to/lastmile_qr_scan", "android": "https://dc.lft.to/lastmile_qr_scan"}, "lon": -76.94895866666667, "type": "electric_scooter", "fusion_lat": 0.0, "lat": 38.89528466666667, "name": "c547fd34a1d7b6b9ca4a9e86a1470ed3", "fusion_lon": 0.0, "bike_id": "c547fd34a1d7b6b9ca4a9e86a1470ed3", "is_disabled": 0, "is_reserved": 0}, {"rental_uris": {"ios": "https://dc.lft.to/lastmile_qr_scan", "android": "https://dc.lft.to/lastmile_qr_scan"}, "lon": -77.00977316666666, "type": "electric_scooter", "fusion_lat": 0.0, "lat": 38.895994, "name": "11f0d67fd98b74dd21b795a13c3d5907", "fusion_lon": 0.0, "bike_id": "11f0d67fd98b74dd21b795a13c3d5907", "is_disabled": 0, "is_reserved": 0}, {"rental_uris": {"ios": "https://dc.lft.to/lastmile_qr_scan", "android": "https://dc.lft.to/lastmile_qr_scan"}, "lon": -77.07071933333333, "type": "electric_scooter", "fusion_lat": 0.0, "lat": 38.95217516666666, "name": "dc880c024ea65bcb062566c7636dcd46", "fusion_lon": 0.0, "bike_id": "dc880c024ea65bcb062566c7636dcd46", "is_disabled": 0, "is_reserved": 0}, {"rental_uris": {"ios": "https://dc.lft.to/lastmile_qr_scan", "android": "https://dc.lft.to/lastmile_qr_scan"}, "lon": -77.02217983333334, "type": "electric_scooter", "fusion_lat": 0.0, "lat": 38.9155375, "name": "8076b004e33c22cc7b45524b78bb69ed", "fusion_lon": 0.0, "bike_id": "8076b004e33c22cc7b45524b78bb69ed", "is_disabled": 0, "is_reserved": 0}, {"rental_uris": {"ios": "https://dc.lft.to/lastmile_qr_scan", "android": "https://dc.lft.to/lastmile_qr_scan"}, "lon": -76.99544533333334, "type": "electric_scooter", "fusion_lat": 0.0, "lat": 38.926657166666665, "name": "ec503984b899be0b65ab4a4287c84f4f", "fusion_lon": 0.0, "bike_id": "ec503984b899be0b65ab4a4287c84f4f", "is_disabled": 0, "is_reserved": 0}, {"rental_uris": {"ios": "https://dc.lft.to/lastmile_qr_scan", "android": "https://dc.lft.to/lastmile_qr_scan"}, "lon": -77.05171566666667, "type": "electric_scooter", "fusion_lat": 0.0, "lat": 38.92426666666667, "name": "44c4c06ab24fc2419802672118bb64bf", "fusion_lon": 0.0, "bike_id": "44c4c06ab24fc2419802672118bb64bf", "is_disabled": 0, "is_reserved": 0}, {"rental_uris": {"ios": "https://dc.lft.to/lastmile_qr_scan", "android": "https://dc.lft.to/lastmile_qr_scan"}, "lon": -76.98500633333333, "type": "electric_scooter", "fusion_lat": 0.0, "lat": 38.86046533333333, "name": "00cbd03e28c6c4f3d061afdcf46352e7", "fusion_lon": 0.0, "bike_id": "00cbd03e28c6c4f3d061afdcf46352e7", "is_disabled": 0, "is_reserved": 0}, {"rental_uris": {"ios": "https://dc.lft.to/lastmile_qr_scan", "android": "https://dc.lft.to/lastmile_qr_scan"}, "lon": -77.0332795, "type": "electric_scooter", "fusion_lat": 0.0, "lat": 38.897487, "name": "f6c4bbd17e9a26a7d74fc5638704aa28", "fusion_lon": 0.0, "bike_id": "f6c4bbd17e9a26a7d74fc5638704aa28", "is_disabled": 0, "is_reserved": 0}, {"rental_uris": {"ios": "https://dc.lft.to/lastmile_qr_scan", "android": "https://dc.lft.to/lastmile_qr_scan"}, "lon": -76.9951585, "type": "electric_scooter", "fusion_lat": 0.0, "lat": 38.844638333333336, "name": "0f3aa960137c63b028cc07be17dbdc13", "fusion_lon": 0.0, "bike_id": "0f3aa960137c63b028cc07be17dbdc13", "is_disabled": 0, "is_reserved": 0}, {"rental_uris": {"ios": "https://dc.lft.to/lastmile_qr_scan", "android": "https://dc.lft.to/lastmile_qr_scan"}, "lon": -76.968883, "type": "electric_bike", "fusion_lat": 0.0, "lat": 38.84595366666667, "name": "46e9f1efaf4ef0052664c533b513334c", "fusion_lon": 0.0, "bike_id": "46e9f1efaf4ef0052664c533b513334c", "is_disabled": 0, "is_reserved": 0}, {"rental_uris": {"ios": "https://dc.lft.to/lastmile_qr_scan", "android": "https://dc.lft.to/lastmile_qr_scan"}, "lon": -76.9948795, "type": "electric_scooter", "fusion_lat": 0.0, "lat": 38.8811065, "name": "b4b6d2ad8ef6a85a9e33e9cb0bd86f33", "fusion_lon": 0.0, "bike_id": "b4b6d2ad8ef6a85a9e33e9cb0bd86f33", "is_disabled": 0, "is_reserved": 0}, {"rental_uris": {"ios": "https://dc.lft.to/lastmile_qr_scan", "android": "https://dc.lft.to/lastmile_qr_scan"}, "lon": -77.100962, "type": "electric_bike", "fusion_lat": 0.0, "lat": 38.959548833333336, "name": "2def0abebb13b657b25c40a552bb186d", "fusion_lon": 0.0, "bike_id": "2def0abebb13b657b25c40a552bb186d", "is_disabled": 0, "is_reserved": 0}, {"rental_uris": {"ios": "https://dc.lft.to/lastmile_qr_scan", "android": "https://dc.lft.to/lastmile_qr_scan"}, "lon": -77.02910166666666, "type": "electric_scooter", "fusion_lat": 0.0, "lat": 38.900125333333335, "name": "0e7c40b8a3eb5387b663b891b1dca1bc", "fusion_lon": 0.0, "bike_id": "0e7c40b8a3eb5387b663b891b1dca1bc", "is_disabled": 0, "is_reserved": 0}, {"rental_uris": {"ios": "https://dc.lft.to/lastmile_qr_scan", "android": "https://dc.lft.to/lastmile_qr_scan"}, "lon": -77.0237325, "type": "electric_scooter", "fusion_lat": 0.0, "lat": 38.89217266666667, "name": "473111ade91c25ef75355aeced8c8d98", "fusion_lon": 0.0, "bike_id": "473111ade91c25ef75355aeced8c8d98", "is_disabled": 0, "is_reserved": 0}, {"rental_uris": {"ios": "https://dc.lft.to/lastmile_qr_scan", "android": "https://dc.lft.to/lastmile_qr_scan"}, "lon": -77.01395883333333, "type": "electric_scooter", "fusion_lat": 0.0, "lat": 38.970132, "name": "6895baa6aee634e9ae40023f26632a66", "fusion_lon": 0.0, "bike_id": "6895baa6aee634e9ae40023f26632a66", "is_disabled": 0, "is_reserved": 0}, {"rental_uris": {"ios": "https://dc.lft.to/lastmile_qr_scan", "android": "https://dc.lft.to/lastmile_qr_scan"}, "lon": -77.04172483333333, "type": "electric_scooter", "fusion_lat": 0.0, "lat": 38.91951566666667, "name": "2534382a8b5d6fa1049cbbf07b67ffad", "fusion_lon": 0.0, "bike_id": "2534382a8b5d6fa1049cbbf07b67ffad", "is_disabled": 0, "is_reserved": 0}, {"rental_uris": {"ios": "https://dc.lft.to/lastmile_qr_scan", "android": "https://dc.lft.to/lastmile_qr_scan"}, "lon": -76.98841016666667, "type": "electric_bike", "fusion_lat": 0.0, "lat": 38.84270166666667, "name": "a93b20938281fc333e01d9ed3ae70183", "fusion_lon": 0.0, "bike_id": "a93b20938281fc333e01d9ed3ae70183", "is_disabled": 0, "is_reserved": 0}, {"rental_uris": {"ios": "https://dc.lft.to/lastmile_qr_scan", "android": "https://dc.lft.to/lastmile_qr_scan"}, "lon": -76.9760205, "type": "electric_scooter", "fusion_lat": 0.0, "lat": 38.90206883333333, "name": "e31b213d6fe0844b4c8daf581497c335", "fusion_lon": 0.0, "bike_id": "e31b213d6fe0844b4c8daf581497c335", "is_disabled": 0, "is_reserved": 0}, {"rental_uris": {"ios": "https://dc.lft.to/lastmile_qr_scan", "android": "https://dc.lft.to/lastmile_qr_scan"}, "lon": -77.0500395, "type": "electric_scooter", "fusion_lat": 0.0, "lat": 38.89227316666667, "name": "e1ea1ee557ae00834729939aff3bf2e4", "fusion_lon": 0.0, "bike_id": "e1ea1ee557ae00834729939aff3bf2e4", "is_disabled": 0, "is_reserved": 0}, {"rental_uris": {"ios": "https://dc.lft.to/lastmile_qr_scan", "android": "https://dc.lft.to/lastmile_qr_scan"}, "lon": -77.02490933333333, "type": "electric_scooter", "fusion_lat": 0.0, "lat": 38.903239666666664, "name": "0a5ad5a14ae8e625742dd7f574caec27", "fusion_lon": 0.0, "bike_id": "0a5ad5a14ae8e625742dd7f574caec27", "is_disabled": 0, "is_reserved": 0}, {"rental_uris": {"ios": "https://dc.lft.to/lastmile_qr_scan", "android": "https://dc.lft.to/lastmile_qr_scan"}, "lon": -77.03188, "type": "electric_scooter", "fusion_lat": 0.0, "lat": 38.9109475, "name": "5bebbbb6604414341c5b8ae55a7be8a2", "fusion_lon": 0.0, "bike_id": "5bebbbb6604414341c5b8ae55a7be8a2", "is_disabled": 0, "is_reserved": 0}, {"rental_uris": {"ios": "https://dc.lft.to/lastmile_qr_scan", "android": "https://dc.lft.to/lastmile_qr_scan"}, "lon": -76.99418116666666, "type": "electric_bike", "fusion_lat": 0.0, "lat": 38.975142, "name": "f3558b02020e509152471311988868a0", "fusion_lon": 0.0, "bike_id": "f3558b02020e509152471311988868a0", "is_disabled": 0, "is_reserved": 0}, {"rental_uris": {"ios": "https://dc.lft.to/lastmile_qr_scan", "android": "https://dc.lft.to/lastmile_qr_scan"}, "lon": -76.94439416666667, "type": "electric_bike", "fusion_lat": 0.0, "lat": 38.90292983333333, "name": "e6782227eb17e2182e2a5bb232826113", "fusion_lon": 0.0, "bike_id": "e6782227eb17e2182e2a5bb232826113", "is_disabled": 0, "is_reserved": 0}, {"rental_uris": {"ios": "https://dc.lft.to/lastmile_qr_scan", "android": "https://dc.lft.to/lastmile_qr_scan"}, "lon": -77.03299483333333, "type": "electric_scooter", "fusion_lat": 0.0, "lat": 38.900399, "name": "41c37f8a1c061edcd6b36eb753ea0be5", "fusion_lon": 0.0, "bike_id": "41c37f8a1c061edcd6b36eb753ea0be5", "is_disabled": 0, "is_reserved": 0}, {"rental_uris": {"ios": "https://dc.lft.to/lastmile_qr_scan", "android": "https://dc.lft.to/lastmile_qr_scan"}, "lon": -76.97711283333334, "type": "electric_scooter", "fusion_lat": 0.0, "lat": 38.89903666666667, "name": "affee4e3d16bb0df56468f4833e78c2c", "fusion_lon": 0.0, "bike_id": "affee4e3d16bb0df56468f4833e78c2c", "is_disabled": 0, "is_reserved": 0}, {"rental_uris": {"ios": "https://dc.lft.to/lastmile_qr_scan", "android": "https://dc.lft.to/lastmile_qr_scan"}, "lon": -76.9721995, "type": "electric_bike", "fusion_lat": 0.0, "lat": 38.84477916666667, "name": "693e928f6d3f79057606fea03b963062", "fusion_lon": 0.0, "bike_id": "693e928f6d3f79057606fea03b963062", "is_disabled": 0, "is_reserved": 0}, {"rental_uris": {"ios": "https://dc.lft.to/lastmile_qr_scan", "android": "https://dc.lft.to/lastmile_qr_scan"}, "lon": -77.03466066666667, "type": "electric_scooter", "fusion_lat": 0.0, "lat": 38.92345916666667, "name": "0991d3e2b0932694d9d4a93e2bea812b", "fusion_lon": 0.0, "bike_id": "0991d3e2b0932694d9d4a93e2bea812b", "is_disabled": 0, "is_reserved": 0}, {"rental_uris": {"ios": "https://dc.lft.to/lastmile_qr_scan", "android": "https://dc.lft.to/lastmile_qr_scan"}, "lon": -77.03765, "type": "electric_scooter", "fusion_lat": 0.0, "lat": 38.91695166666667, "name": "d5332a0876b16c7aba6a60a49ef43a4b", "fusion_lon": 0.0, "bike_id": "d5332a0876b16c7aba6a60a49ef43a4b", "is_disabled": 0, "is_reserved": 0}, {"rental_uris": {"ios": "https://dc.lft.to/lastmile_qr_scan", "android": "https://dc.lft.to/lastmile_qr_scan"}, "lon": -77.0321485, "type": "electric_scooter", "fusion_lat": 0.0, "lat": 38.92060033333333, "name": "e41657d9cbec9bdedc6f82733b9675e6", "fusion_lon": 0.0, "bike_id": "e41657d9cbec9bdedc6f82733b9675e6", "is_disabled": 0, "is_reserved": 0}, {"rental_uris": {"ios": "https://dc.lft.to/lastmile_qr_scan", "android": "https://dc.lft.to/lastmile_qr_scan"}, "lon": -77.04167483333333, "type": "electric_scooter", "fusion_lat": 0.0, "lat": 38.9187105, "name": "816290f406c07a4dc11a1b75b0ed62bb", "fusion_lon": 0.0, "bike_id": "816290f406c07a4dc11a1b75b0ed62bb", "is_disabled": 0, "is_reserved": 0}, {"rental_uris": {"ios": "https://dc.lft.to/lastmile_qr_scan", "android": "https://dc.lft.to/lastmile_qr_scan"}, "lon": -77.04793766666667, "type": "electric_scooter", "fusion_lat": 0.0, "lat": 38.8995485, "name": "789abb58ee4ca0af2af0a59d2ea2f5ea", "fusion_lon": 0.0, "bike_id": "789abb58ee4ca0af2af0a59d2ea2f5ea", "is_disabled": 0, "is_reserved": 0}, {"rental_uris": {"ios": "https://dc.lft.to/lastmile_qr_scan", "android": "https://dc.lft.to/lastmile_qr_scan"}, "lon": -77.02193616666666, "type": "electric_scooter", "fusion_lat": 0.0, "lat": 38.88031216666667, "name": "42fe8d7c03d76813caef37a1bfb9e459", "fusion_lon": 0.0, "bike_id": "42fe8d7c03d76813caef37a1bfb9e459", "is_disabled": 0, "is_reserved": 0}, {"rental_uris": {"ios": "https://dc.lft.to/lastmile_qr_scan", "android": "https://dc.lft.to/lastmile_qr_scan"}, "lon": -77.02493216666667, "type": "electric_scooter", "fusion_lat": 0.0, "lat": 38.9389675, "name": "af5fbc4a7789cdca5a814e8761fc2965", "fusion_lon": 0.0, "bike_id": "af5fbc4a7789cdca5a814e8761fc2965", "is_disabled": 0, "is_reserved": 0}, {"rental_uris": {"ios": "https://dc.lft.to/lastmile_qr_scan", "android": "https://dc.lft.to/lastmile_qr_scan"}, "lon": -77.011844, "type": "electric_bike", "fusion_lat": 0.0, "lat": 38.87227016666667, "name": "0eede38c2f57f2cfc24db1255b12c2e6", "fusion_lon": 0.0, "bike_id": "0eede38c2f57f2cfc24db1255b12c2e6", "is_disabled": 0, "is_reserved": 0}, {"rental_uris": {"ios": "https://dc.lft.to/lastmile_qr_scan", "android": "https://dc.lft.to/lastmile_qr_scan"}, "lon": -76.98095516666666, "type": "electric_bike", "fusion_lat": 0.0, "lat": 38.8813505, "name": "e9a0a25588c91f7ba49a1e4963dbebe7", "fusion_lon": 0.0, "bike_id": "e9a0a25588c91f7ba49a1e4963dbebe7", "is_disabled": 0, "is_reserved": 0}, {"rental_uris": {"ios": "https://dc.lft.to/lastmile_qr_scan", "android": "https://dc.lft.to/lastmile_qr_scan"}, "lon": -76.98390233333333, "type": "electric_scooter", "fusion_lat": 0.0, "lat": 38.878395833333336, "name": "5605ab6c58b4f3db3e745689dcbe0370", "fusion_lon": 0.0, "bike_id": "5605ab6c58b4f3db3e745689dcbe0370", "is_disabled": 0, "is_reserved": 0}, {"rental_uris": {"ios": "https://dc.lft.to/lastmile_qr_scan", "android": "https://dc.lft.to/lastmile_qr_scan"}, "lon": -77.07101866666666, "type": "electric_bike", "fusion_lat": 0.0, "lat": 38.914467333333334, "name": "8162409f0f967bf4931acb1b5463e61b", "fusion_lon": 0.0, "bike_id": "8162409f0f967bf4931acb1b5463e61b", "is_disabled": 0, "is_reserved": 0}, {"rental_uris": {"ios": "https://dc.lft.to/lastmile_qr_scan", "android": "https://dc.lft.to/lastmile_qr_scan"}, "lon": -77.077242, "type": "electric_scooter", "fusion_lat": 0.0, "lat": 38.9470375, "name": "e4e612f9898e6f0c97ba7749f384bf5f", "fusion_lon": 0.0, "bike_id": "e4e612f9898e6f0c97ba7749f384bf5f", "is_disabled": 0, "is_reserved": 0}, {"rental_uris": {"ios": "https://dc.lft.to/lastmile_qr_scan", "android": "https://dc.lft.to/lastmile_qr_scan"}, "lon": -77.03214466666667, "type": "electric_scooter", "fusion_lat": 0.0, "lat": 38.926768333333335, "name": "12c2086daa9a49ff8edf4483b538644f", "fusion_lon": 0.0, "bike_id": "12c2086daa9a49ff8edf4483b538644f", "is_disabled": 0, "is_reserved": 0}, {"rental_uris": {"ios": "https://dc.lft.to/lastmile_qr_scan", "android": "https://dc.lft.to/lastmile_qr_scan"}, "lon": -76.98261666666667, "type": "electric_scooter", "fusion_lat": 0.0, "lat": 38.90864533333333, "name": "c5e8688d7916536ef07bdbb91304e1e1", "fusion_lon": 0.0, "bike_id": "c5e8688d7916536ef07bdbb91304e1e1", "is_disabled": 0, "is_reserved": 0}, {"rental_uris": {"ios": "https://dc.lft.to/lastmile_qr_scan", "android": "https://dc.lft.to/lastmile_qr_scan"}, "lon": -76.9097405, "type": "electric_bike", "fusion_lat": 0.0, "lat": 38.854341166666664, "name": "d0a16d88feb8a51d88688bfce626c9eb", "fusion_lon": 0.0, "bike_id": "d0a16d88feb8a51d88688bfce626c9eb", "is_disabled": 0, "is_reserved": 0}, {"rental_uris": {"ios": "https://dc.lft.to/lastmile_qr_scan", "android": "https://dc.lft.to/lastmile_qr_scan"}, "lon": -77.009782, "type": "electric_scooter", "fusion_lat": 0.0, "lat": 38.91922233333333, "name": "9ecef234a2cfa2d128148016e6211708", "fusion_lon": 0.0, "bike_id": "9ecef234a2cfa2d128148016e6211708", "is_disabled": 0, "is_reserved": 0}, {"rental_uris": {"ios": "https://dc.lft.to/lastmile_qr_scan", "android": "https://dc.lft.to/lastmile_qr_scan"}, "lon": -77.02184566666666, "type": "electric_scooter", "fusion_lat": 0.0, "lat": 38.9394605, "name": "6e11fe94c49000d1e819921c457961a5", "fusion_lon": 0.0, "bike_id": "6e11fe94c49000d1e819921c457961a5", "is_disabled": 0, "is_reserved": 0}, {"rental_uris": {"ios": "https://dc.lft.to/lastmile_qr_scan", "android": "https://dc.lft.to/lastmile_qr_scan"}, "lon": -77.03018116666667, "type": "electric_scooter", "fusion_lat": 0.0, "lat": 38.91009416666667, "name": "5b3474ba014c71fd418a73afadfdbe2f", "fusion_lon": 0.0, "bike_id": "5b3474ba014c71fd418a73afadfdbe2f", "is_disabled": 0, "is_reserved": 0}, {"rental_uris": {"ios": "https://dc.lft.to/lastmile_qr_scan", "android": "https://dc.lft.to/lastmile_qr_scan"}, "lon": -76.94892033333333, "type": "electric_scooter", "fusion_lat": 0.0, "lat": 38.89528266666667, "name": "da1d8ba4375200fcfdedf2456761413a", "fusion_lon": 0.0, "bike_id": "da1d8ba4375200fcfdedf2456761413a", "is_disabled": 0, "is_reserved": 0}, {"rental_uris": {"ios": "https://dc.lft.to/lastmile_qr_scan", "android": "https://dc.lft.to/lastmile_qr_scan"}, "lon": -77.045506, "type": "electric_scooter", "fusion_lat": 0.0, "lat": 38.93395266666667, "name": "4ac40e4f9cd0b204d08fef067f0e70ad", "fusion_lon": 0.0, "bike_id": "4ac40e4f9cd0b204d08fef067f0e70ad", "is_disabled": 0, "is_reserved": 0}, {"rental_uris": {"ios": "https://dc.lft.to/lastmile_qr_scan", "android": "https://dc.lft.to/lastmile_qr_scan"}, "lon": -77.04189933333333, "type": "electric_scooter", "fusion_lat": 0.0, "lat": 38.920238166666664, "name": "fe43a7b322ec8bc462c33b479414b4a2", "fusion_lon": 0.0, "bike_id": "fe43a7b322ec8bc462c33b479414b4a2", "is_disabled": 0, "is_reserved": 0}, {"rental_uris": {"ios": "https://dc.lft.to/lastmile_qr_scan", "android": "https://dc.lft.to/lastmile_qr_scan"}, "lon": -76.98179366666666, "type": "electric_scooter", "fusion_lat": 0.0, "lat": 38.8958015, "name": "507aee48d70a6138d2fc329c85d11fd1", "fusion_lon": 0.0, "bike_id": "507aee48d70a6138d2fc329c85d11fd1", "is_disabled": 0, "is_reserved": 0}, {"rental_uris": {"ios": "https://dc.lft.to/lastmile_qr_scan", "android": "https://dc.lft.to/lastmile_qr_scan"}, "lon": -77.04675316666666, "type": "electric_scooter", "fusion_lat": 0.0, "lat": 38.90138683333333, "name": "cfc2b4ecaca5992a72ff3d57391d9d1d", "fusion_lon": 0.0, "bike_id": "cfc2b4ecaca5992a72ff3d57391d9d1d", "is_disabled": 0, "is_reserved": 0}, {"rental_uris": {"ios": "https://dc.lft.to/lastmile_qr_scan", "android": "https://dc.lft.to/lastmile_qr_scan"}, "lon": -77.031472, "type": "electric_scooter", "fusion_lat": 0.0, "lat": 38.91261766666667, "name": "52a058d4e467ff2533d47117ff810412", "fusion_lon": 0.0, "bike_id": "52a058d4e467ff2533d47117ff810412", "is_disabled": 0, "is_reserved": 0}, {"rental_uris": {"ios": "https://dc.lft.to/lastmile_qr_scan", "android": "https://dc.lft.to/lastmile_qr_scan"}, "lon": -77.02948816666667, "type": "electric_scooter", "fusion_lat": 0.0, "lat": 38.91584183333333, "name": "e6d2fa722737decb29cd5901ee52d667", "fusion_lon": 0.0, "bike_id": "e6d2fa722737decb29cd5901ee52d667", "is_disabled": 0, "is_reserved": 0}, {"rental_uris": {"ios": "https://dc.lft.to/lastmile_qr_scan", "android": "https://dc.lft.to/lastmile_qr_scan"}, "lon": -77.01873166666667, "type": "electric_scooter", "fusion_lat": 0.0, "lat": 38.88747583333333, "name": "9090ffe414e74a70ac2a5b18ee6c7049", "fusion_lon": 0.0, "bike_id": "9090ffe414e74a70ac2a5b18ee6c7049", "is_disabled": 0, "is_reserved": 0}, {"rental_uris": {"ios": "https://dc.lft.to/lastmile_qr_scan", "android": "https://dc.lft.to/lastmile_qr_scan"}, "lon": -77.03180416666666, "type": "electric_scooter", "fusion_lat": 0.0, "lat": 38.913218666666666, "name": "ebf926c2e9e486fc237ec7578690ffc8", "fusion_lon": 0.0, "bike_id": "ebf926c2e9e486fc237ec7578690ffc8", "is_disabled": 0, "is_reserved": 0}, {"rental_uris": {"ios": "https://dc.lft.to/lastmile_qr_scan", "android": "https://dc.lft.to/lastmile_qr_scan"}, "lon": -77.04473083333333, "type": "electric_scooter", "fusion_lat": 0.0, "lat": 38.908753833333336, "name": "50fbf79b318576c9b9869eff4f7a35b8", "fusion_lon": 0.0, "bike_id": "50fbf79b318576c9b9869eff4f7a35b8", "is_disabled": 0, "is_reserved": 0}, {"rental_uris": {"ios": "https://dc.lft.to/lastmile_qr_scan", "android": "https://dc.lft.to/lastmile_qr_scan"}, "lon": -77.0465815, "type": "electric_scooter", "fusion_lat": 0.0, "lat": 38.91275666666667, "name": "e65a10a9c33c012e9c84706b0988249c", "fusion_lon": 0.0, "bike_id": "e65a10a9c33c012e9c84706b0988249c", "is_disabled": 0, "is_reserved": 0}, {"rental_uris": {"ios": "https://dc.lft.to/lastmile_qr_scan", "android": "https://dc.lft.to/lastmile_qr_scan"}, "lon": -77.05634883333333, "type": "electric_scooter", "fusion_lat": 0.0, "lat": 38.927560666666665, "name": "a3d28c04eadfa88334478b53d668d47d", "fusion_lon": 0.0, "bike_id": "a3d28c04eadfa88334478b53d668d47d", "is_disabled": 0, "is_reserved": 0}, {"rental_uris": {"ios": "https://dc.lft.to/lastmile_qr_scan", "android": "https://dc.lft.to/lastmile_qr_scan"}, "lon": -77.005282, "type": "electric_scooter", "fusion_lat": 0.0, "lat": 38.9290105, "name": "79e31c51ed5ec8041f9d33547ec00ba7", "fusion_lon": 0.0, "bike_id": "79e31c51ed5ec8041f9d33547ec00ba7", "is_disabled": 0, "is_reserved": 0}, {"rental_uris": {"ios": "https://dc.lft.to/lastmile_qr_scan", "android": "https://dc.lft.to/lastmile_qr_scan"}, "lon": -77.07229433333333, "type": "electric_scooter", "fusion_lat": 0.0, "lat": 38.9338605, "name": "b00db0d8cca87cf80628262115cb5fbf", "fusion_lon": 0.0, "bike_id": "b00db0d8cca87cf80628262115cb5fbf", "is_disabled": 0, "is_reserved": 0}, {"rental_uris": {"ios": "https://dc.lft.to/lastmile_qr_scan", "android": "https://dc.lft.to/lastmile_qr_scan"}, "lon": -77.03958633333333, "type": "electric_scooter", "fusion_lat": 0.0, "lat": 38.91487266666667, "name": "47dfd4f6201fb551df8b370afced21c0", "fusion_lon": 0.0, "bike_id": "47dfd4f6201fb551df8b370afced21c0", "is_disabled": 0, "is_reserved": 0}, {"rental_uris": {"ios": "https://dc.lft.to/lastmile_qr_scan", "android": "https://dc.lft.to/lastmile_qr_scan"}, "lon": -77.04032633333334, "type": "electric_scooter", "fusion_lat": 0.0, "lat": 38.9244395, "name": "258841ac8d3439f06f713a103433ad47", "fusion_lon": 0.0, "bike_id": "258841ac8d3439f06f713a103433ad47", "is_disabled": 0, "is_reserved": 0}, {"rental_uris": {"ios": "https://dc.lft.to/lastmile_qr_scan", "android": "https://dc.lft.to/lastmile_qr_scan"}, "lon": -77.0140845, "type": "electric_scooter", "fusion_lat": 0.0, "lat": 38.919487, "name": "24369f7dde4e25777e0412cb3c4ae645", "fusion_lon": 0.0, "bike_id": "24369f7dde4e25777e0412cb3c4ae645", "is_disabled": 0, "is_reserved": 0}, {"rental_uris": {"ios": "https://dc.lft.to/lastmile_qr_scan", "android": "https://dc.lft.to/lastmile_qr_scan"}, "lon": -77.04810866666666, "type": "electric_scooter", "fusion_lat": 0.0, "lat": 38.897471833333334, "name": "a0c29b7fd671be84857e88f00cd1f0bb", "fusion_lon": 0.0, "bike_id": "a0c29b7fd671be84857e88f00cd1f0bb", "is_disabled": 0, "is_reserved": 0}, {"rental_uris": {"ios": "https://dc.lft.to/lastmile_qr_scan", "android": "https://dc.lft.to/lastmile_qr_scan"}, "lon": -77.03204883333333, "type": "electric_scooter", "fusion_lat": 0.0, "lat": 38.9179465, "name": "19c7d68c67f35313dfac762f05d2010e", "fusion_lon": 0.0, "bike_id": "19c7d68c67f35313dfac762f05d2010e", "is_disabled": 0, "is_reserved": 0}, {"rental_uris": {"ios": "https://dc.lft.to/lastmile_qr_scan", "android": "https://dc.lft.to/lastmile_qr_scan"}, "lon": -77.07478033333334, "type": "electric_scooter", "fusion_lat": 0.0, "lat": 38.96037716666667, "name": "7be06271704787853dbc9dbca25ebf32", "fusion_lon": 0.0, "bike_id": "7be06271704787853dbc9dbca25ebf32", "is_disabled": 0, "is_reserved": 0}, {"rental_uris": {"ios": "https://dc.lft.to/lastmile_qr_scan", "android": "https://dc.lft.to/lastmile_qr_scan"}, "lon": -77.07275933333334, "type": "electric_scooter", "fusion_lat": 0.0, "lat": 38.9348105, "name": "0ff2229fbc9be18c32121ab7cba2df18", "fusion_lon": 0.0, "bike_id": "0ff2229fbc9be18c32121ab7cba2df18", "is_disabled": 0, "is_reserved": 0}, {"rental_uris": {"ios": "https://dc.lft.to/lastmile_qr_scan", "android": "https://dc.lft.to/lastmile_qr_scan"}, "lon": -77.04388633333333, "type": "electric_scooter", "fusion_lat": 0.0, "lat": 38.92351983333333, "name": "16a71fce0de6864c7a1d32486659d613", "fusion_lon": 0.0, "bike_id": "16a71fce0de6864c7a1d32486659d613", "is_disabled": 0, "is_reserved": 0}, {"rental_uris": {"ios": "https://dc.lft.to/lastmile_qr_scan", "android": "https://dc.lft.to/lastmile_qr_scan"}, "lon": -77.01189383333333, "type": "electric_scooter", "fusion_lat": 0.0, "lat": 38.90024733333333, "name": "89540922e5dd9ddc8f7d04ecb421275c", "fusion_lon": 0.0, "bike_id": "89540922e5dd9ddc8f7d04ecb421275c", "is_disabled": 0, "is_reserved": 0}, {"rental_uris": {"ios": "https://dc.lft.to/lastmile_qr_scan", "android": "https://dc.lft.to/lastmile_qr_scan"}, "lon": -77.02345566666666, "type": "electric_scooter", "fusion_lat": 0.0, "lat": 38.96205033333333, "name": "2bee49ba38f852fcd531b406d9fe0e77", "fusion_lon": 0.0, "bike_id": "2bee49ba38f852fcd531b406d9fe0e77", "is_disabled": 0, "is_reserved": 0}, {"rental_uris": {"ios": "https://dc.lft.to/lastmile_qr_scan", "android": "https://dc.lft.to/lastmile_qr_scan"}, "lon": -76.994947, "type": "electric_scooter", "fusion_lat": 0.0, "lat": 38.862302666666665, "name": "b7ebef4263df9ee0b62317b3c52accc6", "fusion_lon": 0.0, "bike_id": "b7ebef4263df9ee0b62317b3c52accc6", "is_disabled": 0, "is_reserved": 0}, {"rental_uris": {"ios": "https://dc.lft.to/lastmile_qr_scan", "android": "https://dc.lft.to/lastmile_qr_scan"}, "lon": -77.05595033333333, "type": "electric_scooter", "fusion_lat": 0.0, "lat": 38.92784366666667, "name": "c08c3a364bf4ed34da13a657560df8a6", "fusion_lon": 0.0, "bike_id": "c08c3a364bf4ed34da13a657560df8a6", "is_disabled": 0, "is_reserved": 0}, {"rental_uris": {"ios": "https://dc.lft.to/lastmile_qr_scan", "android": "https://dc.lft.to/lastmile_qr_scan"}, "lon": -77.02222133333333, "type": "electric_scooter", "fusion_lat": 0.0, "lat": 38.89190983333334, "name": "d1793066269af68399efe2610947675a", "fusion_lon": 0.0, "bike_id": "d1793066269af68399efe2610947675a", "is_disabled": 0, "is_reserved": 0}, {"rental_uris": {"ios": "https://dc.lft.to/lastmile_qr_scan", "android": "https://dc.lft.to/lastmile_qr_scan"}, "lon": -77.0436835, "type": "electric_scooter", "fusion_lat": 0.0, "lat": 38.920917333333335, "name": "d4224ab591647c153a4f131aa49b4b92", "fusion_lon": 0.0, "bike_id": "d4224ab591647c153a4f131aa49b4b92", "is_disabled": 0, "is_reserved": 0}, {"rental_uris": {"ios": "https://dc.lft.to/lastmile_qr_scan", "android": "https://dc.lft.to/lastmile_qr_scan"}, "lon": -77.04492466666666, "type": "electric_scooter", "fusion_lat": 0.0, "lat": 38.91591366666667, "name": "8815231f3bc46ce9268f7443af5517f2", "fusion_lon": 0.0, "bike_id": "8815231f3bc46ce9268f7443af5517f2", "is_disabled": 0, "is_reserved": 0}, {"rental_uris": {"ios": "https://dc.lft.to/lastmile_qr_scan", "android": "https://dc.lft.to/lastmile_qr_scan"}, "lon": -77.04235616666666, "type": "electric_scooter", "fusion_lat": 0.0, "lat": 38.92273, "name": "8f1268e84b77749990cfd14a02ab19b5", "fusion_lon": 0.0, "bike_id": "8f1268e84b77749990cfd14a02ab19b5", "is_disabled": 0, "is_reserved": 0}, {"rental_uris": {"ios": "https://dc.lft.to/lastmile_qr_scan", "android": "https://dc.lft.to/lastmile_qr_scan"}, "lon": -77.02775133333333, "type": "electric_scooter", "fusion_lat": 0.0, "lat": 38.89387983333334, "name": "b9d2c17436fb09a84c0f80d44f606cda", "fusion_lon": 0.0, "bike_id": "b9d2c17436fb09a84c0f80d44f606cda", "is_disabled": 0, "is_reserved": 0}, {"rental_uris": {"ios": "https://dc.lft.to/lastmile_qr_scan", "android": "https://dc.lft.to/lastmile_qr_scan"}, "lon": -77.03325333333333, "type": "electric_scooter", "fusion_lat": 0.0, "lat": 38.901100666666665, "name": "ca75df4b1ed48683619fa1082731d7bc", "fusion_lon": 0.0, "bike_id": "ca75df4b1ed48683619fa1082731d7bc", "is_disabled": 0, "is_reserved": 0}, {"rental_uris": {"ios": "https://dc.lft.to/lastmile_qr_scan", "android": "https://dc.lft.to/lastmile_qr_scan"}, "lon": -77.03214883333334, "type": "electric_scooter", "fusion_lat": 0.0, "lat": 38.917500833333335, "name": "7b934dc5b05df6c04b749ccd239da233", "fusion_lon": 0.0, "bike_id": "7b934dc5b05df6c04b749ccd239da233", "is_disabled": 0, "is_reserved": 0}, {"rental_uris": {"ios": "https://dc.lft.to/lastmile_qr_scan", "android": "https://dc.lft.to/lastmile_qr_scan"}, "lon": -76.95819016666667, "type": "electric_scooter", "fusion_lat": 0.0, "lat": 38.89053416666667, "name": "d5bf5394de43b48c3c36606443da9e3a", "fusion_lon": 0.0, "bike_id": "d5bf5394de43b48c3c36606443da9e3a", "is_disabled": 0, "is_reserved": 0}, {"rental_uris": {"ios": "https://dc.lft.to/lastmile_qr_scan", "android": "https://dc.lft.to/lastmile_qr_scan"}, "lon": -77.09527783333333, "type": "electric_bike", "fusion_lat": 0.0, "lat": 38.838073333333334, "name": "515dd052bec9047cd2d5dd84edd1fc4b", "fusion_lon": 0.0, "bike_id": "515dd052bec9047cd2d5dd84edd1fc4b", "is_disabled": 0, "is_reserved": 0}, {"rental_uris": {"ios": "https://dc.lft.to/lastmile_qr_scan", "android": "https://dc.lft.to/lastmile_qr_scan"}, "lon": -77.017169, "type": "electric_scooter", "fusion_lat": 0.0, "lat": 38.89219633333333, "name": "69d0b25fa3cc789ec992b300fc43bda9", "fusion_lon": 0.0, "bike_id": "69d0b25fa3cc789ec992b300fc43bda9", "is_disabled": 0, "is_reserved": 0}, {"rental_uris": {"ios": "https://dc.lft.to/lastmile_qr_scan", "android": "https://dc.lft.to/lastmile_qr_scan"}, "lon": -77.0447, "type": "electric_scooter", "fusion_lat": 0.0, "lat": 38.90414783333333, "name": "8c2a3d484d224a4cca9f9e6f2bffee13", "fusion_lon": 0.0, "bike_id": "8c2a3d484d224a4cca9f9e6f2bffee13", "is_disabled": 0, "is_reserved": 0}, {"rental_uris": {"ios": "https://dc.lft.to/lastmile_qr_scan", "android": "https://dc.lft.to/lastmile_qr_scan"}, "lon": -77.03820633333333, "type": "electric_scooter", "fusion_lat": 0.0, "lat": 38.920570833333336, "name": "9660631c3c1bde48c38aeb9f47e4d03d", "fusion_lon": 0.0, "bike_id": "9660631c3c1bde48c38aeb9f47e4d03d", "is_disabled": 0, "is_reserved": 0}, {"rental_uris": {"ios": "https://dc.lft.to/lastmile_qr_scan", "android": "https://dc.lft.to/lastmile_qr_scan"}, "lon": -77.0406625, "type": "electric_scooter", "fusion_lat": 0.0, "lat": 38.9149275, "name": "d7e7b5905d38868ec896c2ddae722661", "fusion_lon": 0.0, "bike_id": "d7e7b5905d38868ec896c2ddae722661", "is_disabled": 0, "is_reserved": 0}, {"rental_uris": {"ios": "https://dc.lft.to/lastmile_qr_scan", "android": "https://dc.lft.to/lastmile_qr_scan"}, "lon": -77.03260716666666, "type": "electric_scooter", "fusion_lat": 0.0, "lat": 38.918111, "name": "c31d7ea7b1f60277ce165d00afe896c8", "fusion_lon": 0.0, "bike_id": "c31d7ea7b1f60277ce165d00afe896c8", "is_disabled": 0, "is_reserved": 0}, {"rental_uris": {"ios": "https://dc.lft.to/lastmile_qr_scan", "android": "https://dc.lft.to/lastmile_qr_scan"}, "lon": -77.19910866666666, "type": "electric_bike", "fusion_lat": 0.0, "lat": 38.8752865, "name": "98f59c6ef0de745c6aff25bd925097ab", "fusion_lon": 0.0, "bike_id": "98f59c6ef0de745c6aff25bd925097ab", "is_disabled": 0, "is_reserved": 0}, {"rental_uris": {"ios": "https://dc.lft.to/lastmile_qr_scan", "android": "https://dc.lft.to/lastmile_qr_scan"},