{"data": {"bikes": [{"is_disabled": 0, "fusion_lon": 0.0, "fusion_lat": 0.0, "lat": 38.91687133333333, "type": "electric_bike", "lon": -77.0917325, "bike_id": "02d31888f2050d54754ef41d4f6ef5ac", "rental_uris": {"android": "https://dc.lft.to/lastmile_qr_scan", "ios": "https://dc.lft.to/lastmile_qr_scan"}, "name": "02d31888f2050d54754ef41d4f6ef5ac", "is_reserved": 0}, {"is_disabled": 0, "fusion_lon": 0.0, "fusion_lat": 0.0, "lat": 38.8737725, "type": "electric_scooter", "lon": -77.00095283333333, "bike_id": "da89185246a5544876c2fa711fcd6fd3", "rental_uris": {"android": "https://dc.lft.to/lastmile_qr_scan", "ios": "https://dc.lft.to/lastmile_qr_scan"}, "name": "da89185246a5544876c2fa711fcd6fd3", "is_reserved": 0}, {"is_disabled": 0, "fusion_lon": 0.0, "fusion_lat": 0.0, "lat": 38.805675666666666, "type": "electric_bike", "lon": -77.051554, "bike_id": "2505882a9c49e2a5b7ccdb7ec96732c0", "rental_uris": {"android": "https://dc.lft.to/lastmile_qr_scan", "ios": "https://dc.lft.to/lastmile_qr_scan"}, "name": "2505882a9c49e2a5b7ccdb7ec96732c0", "is_reserved": 0}, {"is_disabled": 0, "fusion_lon": 0.0, "fusion_lat": 0.0, "lat": 38.942887666666664, "type": "electric_bike", "lon": -77.02803166666666, "bike_id": "b5d5f5aaf048b7be8e837fbd128373ad", "rental_uris": {"android": "https://dc.lft.to/lastmile_qr_scan", "ios": "https://dc.lft.to/lastmile_qr_scan"}, "name": "b5d5f5aaf048b7be8e837fbd128373ad", "is_reserved": 0}, {"is_disabled": 0, "fusion_lon": 0.0, "fusion_lat": 0.0, "lat": 39.0077875, "type": "electric_bike", "lon": -76.9956415, "bike_id": "42ca6511148ced51f27f4db94dc51333", "rental_uris": {"android": "https://dc.lft.to/lastmile_qr_scan", "ios": "https://dc.lft.to/lastmile_qr_scan"}, "name": "42ca6511148ced51f27f4db94dc51333", "is_reserved": 0}, {"is_disabled": 0, "fusion_lon": 0.0, "fusion_lat": 0.0, "lat": 38.9197345, "type": "electric_scooter", "lon": -77.023862, "bike_id": "ae05aa5c1e6635df113b80dbcb6f8e29", "rental_uris": {"android": "https://dc.lft.to/lastmile_qr_scan", "ios": "https://dc.lft.to/lastmile_qr_scan"}, "name": "ae05aa5c1e6635df113b80dbcb6f8e29", "is_reserved": 0}, {"is_disabled": 0, "fusion_lon": 0.0, "fusion_lat": 0.0, "lat": 38.905142166666664, "type": "electric_scooter", "lon": -76.98252183333334, "bike_id": "cdc2eac16fe536caf48a79f647df2290", "rental_uris": {"android": "https://dc.lft.to/lastmile_qr_scan", "ios": "https://dc.lft.to/lastmile_qr_scan"}, "name": "cdc2eac16fe536caf48a79f647df2290", "is_reserved": 0}, {"is_disabled": 0, "fusion_lon": 0.0, "fusion_lat": 0.0, "lat": 38.882315, "type": "electric_scooter", "lon": -76.9950585, "bike_id": "403f900b1bbc75acb6ff032eff5dd838", "rental_uris": {"android": "https://dc.lft.to/lastmile_qr_scan", "ios": "https://dc.lft.to/lastmile_qr_scan"}, "name": "403f900b1bbc75acb6ff032eff5dd838", "is_reserved": 0}, {"is_disabled": 0, "fusion_lon": 0.0, "fusion_lat": 0.0, "lat": 38.906684166666665, "type": "electric_scooter", "lon": -77.04533866666667, "bike_id": "132fb867a7fffd877bf5062d64c5f005", "rental_uris": {"android": "https://dc.lft.to/lastmile_qr_scan", "ios": "https://dc.lft.to/lastmile_qr_scan"}, "name": "132fb867a7fffd877bf5062d64c5f005", "is_reserved": 0}, {"is_disabled": 0, "fusion_lon": 0.0, "fusion_lat": 0.0, "lat": 38.90897783333333, "type": "electric_scooter", "lon": -77.04475916666667, "bike_id": "62fa835b2c0b1476788da9e6986cc83c", "rental_uris": {"android": "https://dc.lft.to/lastmile_qr_scan", "ios": "https://dc.lft.to/lastmile_qr_scan"}, "name": "62fa835b2c0b1476788da9e6986cc83c", "is_reserved": 0}, {"is_disabled": 0, "fusion_lon": 0.0, "fusion_lat": 0.0, "lat": 38.8974885, "type": "electric_scooter", "lon": -77.05144983333334, "bike_id": "23f5b2ac5a30c766b70caa7d2224305c", "rental_uris": {"android": "https://dc.lft.to/lastmile_qr_scan", "ios": "https://dc.lft.to/lastmile_qr_scan"}, "name": "23f5b2ac5a30c766b70caa7d2224305c", "is_reserved": 0}, {"is_disabled": 0, "fusion_lon": 0.0, "fusion_lat": 0.0, "lat": 38.9217165, "type": "electric_scooter", "lon": -77.04227283333333, "bike_id": "90d08c5d1964832eb375d6dd6960e666", "rental_uris": {"android": "https://dc.lft.to/lastmile_qr_scan", "ios": "https://dc.lft.to/lastmile_qr_scan"}, "name": "90d08c5d1964832eb375d6dd6960e666", "is_reserved": 0}, {"is_disabled": 0, "fusion_lon": 0.0, "fusion_lat": 0.0, "lat": 38.883087333333336, "type": "electric_scooter", "lon": -77.04521666666666, "bike_id": "ddadd26dee30d909207f1c4195a1b8bb", "rental_uris": {"android": "https://dc.lft.to/lastmile_qr_scan", "ios": "https://dc.lft.to/lastmile_qr_scan"}, "name": "ddadd26dee30d909207f1c4195a1b8bb", "is_reserved": 0}, {"is_disabled": 0, "fusion_lon": 0.0, "fusion_lat": 0.0, "lat": 38.884914, "type": "electric_scooter", "lon": -77.00729083333333, "bike_id": "224eeb9ca85beae6472e8120dfcee4d5", "rental_uris": {"android": "https://dc.lft.to/lastmile_qr_scan", "ios": "https://dc.lft.to/lastmile_qr_scan"}, "name": "224eeb9ca85beae6472e8120dfcee4d5", "is_reserved": 0}, {"is_disabled": 0, "fusion_lon": 0.0, "fusion_lat": 0.0, "lat": 38.955902333333334, "type": "electric_scooter", "lon": -77.03648616666666, "bike_id": "17043ef7386ccab39e32ef92be1b1e3f", "rental_uris": {"android": "https://dc.lft.to/lastmile_qr_scan", "ios": "https://dc.lft.to/lastmile_qr_scan"}, "name": "17043ef7386ccab39e32ef92be1b1e3f", "is_reserved": 0}, {"is_disabled": 0, "fusion_lon": 0.0, "fusion_lat": 0.0, "lat": 38.89281033333334, "type": "electric_scooter", "lon": -77.05032716666666, "bike_id": "883438ae91eb36ce5bb5ef4da1a578cf", "rental_uris": {"android": "https://dc.lft.to/lastmile_qr_scan", "ios": "https://dc.lft.to/lastmile_qr_scan"}, "name": "883438ae91eb36ce5bb5ef4da1a578cf", "is_reserved": 0}, {"is_disabled": 0, "fusion_lon": 0.0, "fusion_lat": 0.0, "lat": 38.85212466666667, "type": "electric_bike", "lon": -77.127626, "bike_id": "7107b275441e7adc6868cb4b0bb8a376", "rental_uris": {"android": "https://dc.lft.to/lastmile_qr_scan", "ios": "https://dc.lft.to/lastmile_qr_scan"}, "name": "7107b275441e7adc6868cb4b0bb8a376", "is_reserved": 0}, {"is_disabled": 0, "fusion_lon": 0.0, "fusion_lat": 0.0, "lat": 38.90967933333334, "type": "electric_scooter", "lon": -77.0317495, "bike_id": "b4efabe303c0524d4be883e31ba8e250", "rental_uris": {"android": "https://dc.lft.to/lastmile_qr_scan", "ios": "https://dc.lft.to/lastmile_qr_scan"}, "name": "b4efabe303c0524d4be883e31ba8e250", "is_reserved": 0}, {"is_disabled": 0, "fusion_lon": 0.0, "fusion_lat": 0.0, "lat": 38.939003666666665, "type": "electric_scooter", "lon": -77.03347783333334, "bike_id": "1c61d3cf83a9b0f36ebc3d5667da1d59", "rental_uris": {"android": "https://dc.lft.to/lastmile_qr_scan", "ios": "https://dc.lft.to/lastmile_qr_scan"}, "name": "1c61d3cf83a9b0f36ebc3d5667da1d59", "is_reserved": 0}, {"is_disabled": 0, "fusion_lon": 0.0, "fusion_lat": 0.0, "lat": 38.89229183333333, "type": "electric_scooter", "lon": -77.03211166666667, "bike_id": "a3889173a3298ad37d8ef334c4960b5f", "rental_uris": {"android": "https://dc.lft.to/lastmile_qr_scan", "ios": "https://dc.lft.to/lastmile_qr_scan"}, "name": "a3889173a3298ad37d8ef334c4960b5f", "is_reserved": 0}, {"is_disabled": 0, "fusion_lon": 0.0, "fusion_lat": 0.0, "lat": 38.914137, "type": "electric_scooter", "lon": -77.0306895, "bike_id": "39c7a76ba824a483518a0afcd7c57140", "rental_uris": {"android": "https://dc.lft.to/lastmile_qr_scan", "ios": "https://dc.lft.to/lastmile_qr_scan"}, "name": "39c7a76ba824a483518a0afcd7c57140", "is_reserved": 0}, {"is_disabled": 0, "fusion_lon": 0.0, "fusion_lat": 0.0, "lat": 38.94198016666667, "type": "electric_scooter", "lon": -77.02576116666667, "bike_id": "f96ae7d205b658072ddc23d4337648db", "rental_uris": {"android": "https://dc.lft.to/lastmile_qr_scan", "ios": "https://dc.lft.to/lastmile_qr_scan"}, "name": "f96ae7d205b658072ddc23d4337648db", "is_reserved": 0}, {"is_disabled": 0, "fusion_lon": 0.0, "fusion_lat": 0.0, "lat": 38.909627666666665, "type": "electric_scooter", "lon": -77.044569, "bike_id": "90b324c850ae684d2e279e4de39c1ea8", "rental_uris": {"android": "https://dc.lft.to/lastmile_qr_scan", "ios": "https://dc.lft.to/lastmile_qr_scan"}, "name": "90b324c850ae684d2e279e4de39c1ea8", "is_reserved": 0}, {"is_disabled": 0, "fusion_lon": 0.0, "fusion_lat": 0.0, "lat": 38.968301, "type": "electric_scooter", "lon": -77.015119, "bike_id": "7d424c623f0036cc2f7db308d630f7d1", "rental_uris": {"android": "https://dc.lft.to/lastmile_qr_scan", "ios": "https://dc.lft.to/lastmile_qr_scan"}, "name": "7d424c623f0036cc2f7db308d630f7d1", "is_reserved": 0}, {"is_disabled": 0, "fusion_lon": 0.0, "fusion_lat": 0.0, "lat": 38.9521315, "type": "electric_scooter", "lon": -77.00339433333333, "bike_id": "b403e39f99d2bd4264e6e03388ab4647", "rental_uris": {"android": "https://dc.lft.to/lastmile_qr_scan", "ios": "https://dc.lft.to/lastmile_qr_scan"}, "name": "b403e39f99d2bd4264e6e03388ab4647", "is_reserved": 0}, {"is_disabled": 0, "fusion_lon": 0.0, "fusion_lat": 0.0, "lat": 38.93316883333333, "type": "electric_scooter", "lon": -77.02930633333334, "bike_id": "3a1051aaf31bed4c40b12d1af86defa6", "rental_uris": {"android": "https://dc.lft.to/lastmile_qr_scan", "ios": "https://dc.lft.to/lastmile_qr_scan"}, "name": "3a1051aaf31bed4c40b12d1af86defa6", "is_reserved": 0}, {"is_disabled": 0, "fusion_lon": 0.0, "fusion_lat": 0.0, "lat": 38.929004, "type": "electric_scooter", "lon": -77.032458, "bike_id": "43a1f5abca46896b0f3de9acaa1cc83f", "rental_uris": {"android": "https://dc.lft.to/lastmile_qr_scan", "ios": "https://dc.lft.to/lastmile_qr_scan"}, "name": "43a1f5abca46896b0f3de9acaa1cc83f", "is_reserved": 0}, {"is_disabled": 0, "fusion_lon": 0.0, "fusion_lat": 0.0, "lat": 38.91389983333333, "type": "electric_scooter", "lon": -77.00046983333333, "bike_id": "c41568b81685077391dab7bb2e592e8d", "rental_uris": {"android": "https://dc.lft.to/lastmile_qr_scan", "ios": "https://dc.lft.to/lastmile_qr_scan"}, "name": "c41568b81685077391dab7bb2e592e8d", "is_reserved": 0}, {"is_disabled": 0, "fusion_lon": 0.0, "fusion_lat": 0.0, "lat": 38.897236166666666, "type": "electric_scooter", "lon": -77.02728016666667, "bike_id": "60d7ad5c6e4e722f750161d588760b9b", "rental_uris": {"android": "https://dc.lft.to/lastmile_qr_scan", "ios": "https://dc.lft.to/lastmile_qr_scan"}, "name": "60d7ad5c6e4e722f750161d588760b9b", "is_reserved": 0}, {"is_disabled": 0, "fusion_lon": 0.0, "fusion_lat": 0.0, "lat": 38.935336666666664, "type": "electric_scooter", "lon": -77.02067, "bike_id": "e257d400074b9fd02dcaa124feafe611", "rental_uris": {"android": "https://dc.lft.to/lastmile_qr_scan", "ios": "https://dc.lft.to/lastmile_qr_scan"}, "name": "e257d400074b9fd02dcaa124feafe611", "is_reserved": 0}, {"is_disabled": 0, "fusion_lon": 0.0, "fusion_lat": 0.0, "lat": 38.94977133333333, "type": "electric_scooter", "lon": -77.094373, "bike_id": "230b958c271f14903f0b786d203f0fbc", "rental_uris": {"android": "https://dc.lft.to/lastmile_qr_scan", "ios": "https://dc.lft.to/lastmile_qr_scan"}, "name": "230b958c271f14903f0b786d203f0fbc", "is_reserved": 0}, {"is_disabled": 0, "fusion_lon": 0.0, "fusion_lat": 0.0, "lat": 38.87668466666667, "type": "electric_scooter", "lon": -76.93201433333333, "bike_id": "111d16cc9bd9fdd22767efad3b2b6ece", "rental_uris": {"android": "https://dc.lft.to/lastmile_qr_scan", "ios": "https://dc.lft.to/lastmile_qr_scan"}, "name": "111d16cc9bd9fdd22767efad3b2b6ece", "is_reserved": 0}, {"is_disabled": 0, "fusion_lon": 0.0, "fusion_lat": 0.0, "lat": 38.933957166666666, "type": "electric_scooter", "lon": -77.04543166666667, "bike_id": "d11bbbee2937333a5b4245014e7a5f6d", "rental_uris": {"android": "https://dc.lft.to/lastmile_qr_scan", "ios": "https://dc.lft.to/lastmile_qr_scan"}, "name": "d11bbbee2937333a5b4245014e7a5f6d", "is_reserved": 0}, {"is_disabled": 0, "fusion_lon": 0.0, "fusion_lat": 0.0, "lat": 38.9453925, "type": "electric_bike", "lon": -77.34458433333333, "bike_id": "b5964fb0abbd5b233189ba5f52eef903", "rental_uris": {"android": "https://dc.lft.to/lastmile_qr_scan", "ios": "https://dc.lft.to/lastmile_qr_scan"}, "name": "b5964fb0abbd5b233189ba5f52eef903", "is_reserved": 0}, {"is_disabled": 0, "fusion_lon": 0.0, "fusion_lat": 0.0, "lat": 38.89882983333333, "type": "electric_scooter", "lon": -77.019908, "bike_id": "5c44c80d0b8bc97de4117c9a237c9281", "rental_uris": {"android": "https://dc.lft.to/lastmile_qr_scan", "ios": "https://dc.lft.to/lastmile_qr_scan"}, "name": "5c44c80d0b8bc97de4117c9a237c9281", "is_reserved": 0}, {"is_disabled": 0, "fusion_lon": 0.0, "fusion_lat": 0.0, "lat": 38.900369833333336, "type": "electric_scooter", "lon": -77.023915, "bike_id": "57f798846f1bbe1af41f3a710ec1979a", "rental_uris": {"android": "https://dc.lft.to/lastmile_qr_scan", "ios": "https://dc.lft.to/lastmile_qr_scan"}, "name": "57f798846f1bbe1af41f3a710ec1979a", "is_reserved": 0}, {"is_disabled": 0, "fusion_lon": 0.0, "fusion_lat": 0.0, "lat": 38.92218866666666, "type": "electric_scooter", "lon": -77.04241533333334, "bike_id": "0712b9fd6b10b3d4ab1b12324f36eebf", "rental_uris": {"android": "https://dc.lft.to/lastmile_qr_scan", "ios": "https://dc.lft.to/lastmile_qr_scan"}, "name": "0712b9fd6b10b3d4ab1b12324f36eebf", "is_reserved": 0}, {"is_disabled": 0, "fusion_lon": 0.0, "fusion_lat": 0.0, "lat": 38.90519616666667, "type": "electric_scooter", "lon": -77.05115833333333, "bike_id": "b2e0c2d737dc64e46ebba555ee84a0c7", "rental_uris": {"android": "https://dc.lft.to/lastmile_qr_scan", "ios": "https://dc.lft.to/lastmile_qr_scan"}, "name": "b2e0c2d737dc64e46ebba555ee84a0c7", "is_reserved": 0}, {"is_disabled": 0, "fusion_lon": 0.0, "fusion_lat": 0.0, "lat": 38.8657775, "type": "electric_scooter", "lon": -76.98718166666667, "bike_id": "f56ce076d4cefa850a4a97079a554148", "rental_uris": {"android": "https://dc.lft.to/lastmile_qr_scan", "ios": "https://dc.lft.to/lastmile_qr_scan"}, "name": "f56ce076d4cefa850a4a97079a554148", "is_reserved": 0}, {"is_disabled": 0, "fusion_lon": 0.0, "fusion_lat": 0.0, "lat": 38.91695883333333, "type": "electric_scooter", "lon": -77.02819, "bike_id": "0fc379614983725cb028e1f9ee6cb156", "rental_uris": {"android": "https://dc.lft.to/lastmile_qr_scan", "ios": "https://dc.lft.to/lastmile_qr_scan"}, "name": "0fc379614983725cb028e1f9ee6cb156", "is_reserved": 0}, {"is_disabled": 0, "fusion_lon": 0.0, "fusion_lat": 0.0, "lat": 38.920638333333336, "type": "electric_scooter", "lon": -77.04358616666667, "bike_id": "1d0df6d58578b71692cd49c750cf60d1", "rental_uris": {"android": "https://dc.lft.to/lastmile_qr_scan", "ios": "https://dc.lft.to/lastmile_qr_scan"}, "name": "1d0df6d58578b71692cd49c750cf60d1", "is_reserved": 0}, {"is_disabled": 0, "fusion_lon": 0.0, "fusion_lat": 0.0, "lat": 38.905558666666664, "type": "electric_scooter", "lon": -77.03068383333333, "bike_id": "4d7fcd234c90198748231afc176a8ca1", "rental_uris": {"android": "https://dc.lft.to/lastmile_qr_scan", "ios": "https://dc.lft.to/lastmile_qr_scan"}, "name": "4d7fcd234c90198748231afc176a8ca1", "is_reserved": 0}, {"is_disabled": 0, "fusion_lon": 0.0, "fusion_lat": 0.0, "lat": 38.91936783333333, "type": "electric_bike", "lon": -76.9750075, "bike_id": "b09e41c661681d638e5570d4ce63304b", "rental_uris": {"android": "https://dc.lft.to/lastmile_qr_scan", "ios": "https://dc.lft.to/lastmile_qr_scan"}, "name": "b09e41c661681d638e5570d4ce63304b", "is_reserved": 0}, {"is_disabled": 0, "fusion_lon": 0.0, "fusion_lat": 0.0, "lat": 38.9189045, "type": "electric_scooter", "lon": -77.07111533333334, "bike_id": "d8e22716a7ec55f88ee9f70c2a27be56", "rental_uris": {"android": "https://dc.lft.to/lastmile_qr_scan", "ios": "https://dc.lft.to/lastmile_qr_scan"}, "name": "d8e22716a7ec55f88ee9f70c2a27be56", "is_reserved": 0}, {"is_disabled": 0, "fusion_lon": 0.0, "fusion_lat": 0.0, "lat": 38.869620166666664, "type": "electric_scooter", "lon": -76.96028616666666, "bike_id": "d571b6c1ddc47f03c8b88643f603a0df", "rental_uris": {"android": "https://dc.lft.to/lastmile_qr_scan", "ios": "https://dc.lft.to/lastmile_qr_scan"}, "name": "d571b6c1ddc47f03c8b88643f603a0df", "is_reserved": 0}, {"is_disabled": 0, "fusion_lon": 0.0, "fusion_lat": 0.0, "lat": 38.93437816666667, "type": "electric_scooter", "lon": -77.07250633333334, "bike_id": "47e887fcb68ff91598ead6c45c787f16", "rental_uris": {"android": "https://dc.lft.to/lastmile_qr_scan", "ios": "https://dc.lft.to/lastmile_qr_scan"}, "name": "47e887fcb68ff91598ead6c45c787f16", "is_reserved": 0}, {"is_disabled": 0, "fusion_lon": 0.0, "fusion_lat": 0.0, "lat": 38.928245833333335, "type": "electric_scooter", "lon": -77.05439866666667, "bike_id": "0544264474d930b9ed8ab47c46c779d6", "rental_uris": {"android": "https://dc.lft.to/lastmile_qr_scan", "ios": "https://dc.lft.to/lastmile_qr_scan"}, "name": "0544264474d930b9ed8ab47c46c779d6", "is_reserved": 0}, {"is_disabled": 0, "fusion_lon": 0.0, "fusion_lat": 0.0, "lat": 38.91565466666667, "type": "electric_scooter", "lon": -77.032472, "bike_id": "9dfe229300819707e6745890f67ebd55", "rental_uris": {"android": "https://dc.lft.to/lastmile_qr_scan", "ios": "https://dc.lft.to/lastmile_qr_scan"}, "name": "9dfe229300819707e6745890f67ebd55", "is_reserved": 0}, {"is_disabled": 0, "fusion_lon": 0.0, "fusion_lat": 0.0, "lat": 38.94300533333333, "type": "electric_scooter", "lon": -77.0276545, "bike_id": "fbe9f0875595dab166e0cd7dd9777727", "rental_uris": {"android": "https://dc.lft.to/lastmile_qr_scan", "ios": "https://dc.lft.to/lastmile_qr_scan"}, "name": "fbe9f0875595dab166e0cd7dd9777727", "is_reserved": 0}, {"is_disabled": 0, "fusion_lon": 0.0, "fusion_lat": 0.0, "lat": 38.901281833333336, "type": "electric_scooter", "lon": -76.9883905, "bike_id": "c89f75d4403549ce5528672f106b2f7c", "rental_uris": {"android": "https://dc.lft.to/lastmile_qr_scan", "ios": "https://dc.lft.to/lastmile_qr_scan"}, "name": "c89f75d4403549ce5528672f106b2f7c", "is_reserved": 0}, {"is_disabled": 0, "fusion_lon": 0.0, "fusion_lat": 0.0, "lat": 38.90468666666666, "type": "electric_bike", "lon": -77.01894316666667, "bike_id": "a8d64c315d8093570ecf799a89b8b794", "rental_uris": {"android": "https://dc.lft.to/lastmile_qr_scan", "ios": "https://dc.lft.to/lastmile_qr_scan"}, "name": "a8d64c315d8093570ecf799a89b8b794", "is_reserved": 0}, {"is_disabled": 0, "fusion_lon": 0.0, "fusion_lat": 0.0, "lat": 38.91600316666667, "type": "electric_scooter", "lon": -77.0234515, "bike_id": "1a1801d4081ad7468e900d6a9684996b", "rental_uris": {"android": "https://dc.lft.to/lastmile_qr_scan", "ios": "https://dc.lft.to/lastmile_qr_scan"}, "name": "1a1801d4081ad7468e900d6a9684996b", "is_reserved": 0}, {"is_disabled": 0, "fusion_lon": 0.0, "fusion_lat": 0.0, "lat": 38.85869016666667, "type": "electric_scooter", "lon": -76.9902395, "bike_id": "f6673ec901d8424bf356d077f2363f0a", "rental_uris": {"android": "https://dc.lft.to/lastmile_qr_scan", "ios": "https://dc.lft.to/lastmile_qr_scan"}, "name": "f6673ec901d8424bf356d077f2363f0a", "is_reserved": 0}, {"is_disabled": 0, "fusion_lon": 0.0, "fusion_lat": 0.0, "lat": 38.936635, "type": "electric_scooter", "lon": -77.03262516666666, "bike_id": "846c0aa448c54d3d602be7a351285722", "rental_uris": {"android": "https://dc.lft.to/lastmile_qr_scan", "ios": "https://dc.lft.to/lastmile_qr_scan"}, "name": "846c0aa448c54d3d602be7a351285722", "is_reserved": 0}, {"is_disabled": 0, "fusion_lon": 0.0, "fusion_lat": 0.0, "lat": 38.913315, "type": "electric_scooter", "lon": -77.041696, "bike_id": "23d9ecfafd90a42fb0c72a61a796f6be", "rental_uris": {"android": "https://dc.lft.to/lastmile_qr_scan", "ios": "https://dc.lft.to/lastmile_qr_scan"}, "name": "23d9ecfafd90a42fb0c72a61a796f6be", "is_reserved": 0}, {"is_disabled": 0, "fusion_lon": 0.0, "fusion_lat": 0.0, "lat": 38.92600916666667, "type": "electric_scooter", "lon": -77.021515, "bike_id": "2faa127e1c6c712d2ccd3b22e97d3f04", "rental_uris": {"android": "https://dc.lft.to/lastmile_qr_scan", "ios": "https://dc.lft.to/lastmile_qr_scan"}, "name": "2faa127e1c6c712d2ccd3b22e97d3f04", "is_reserved": 0}, {"is_disabled": 0, "fusion_lon": 0.0, "fusion_lat": 0.0, "lat": 38.919705666666665, "type": "electric_scooter", "lon": -76.98054033333334, "bike_id": "3346b7009aee30fbbb37b3e7408e41a9", "rental_uris": {"android": "https://dc.lft.to/lastmile_qr_scan", "ios": "https://dc.lft.to/lastmile_qr_scan"}, "name": "3346b7009aee30fbbb37b3e7408e41a9", "is_reserved": 0}, {"is_disabled": 0, "fusion_lon": 0.0, "fusion_lat": 0.0, "lat": 38.887468, "type": "electric_scooter", "lon": -77.02157883333334, "bike_id": "0eb1fca2abd9bafb55ba8e0abd0601d4", "rental_uris": {"android": "https://dc.lft.to/lastmile_qr_scan", "ios": "https://dc.lft.to/lastmile_qr_scan"}, "name": "0eb1fca2abd9bafb55ba8e0abd0601d4", "is_reserved": 0}, {"is_disabled": 0, "fusion_lon": 0.0, "fusion_lat": 0.0, "lat": 38.87670383333333, "type": "electric_scooter", "lon": -77.0034845, "bike_id": "3bdc0d2bd068ed0e9466ee47062b145a", "rental_uris": {"android": "https://dc.lft.to/lastmile_qr_scan", "ios": "https://dc.lft.to/lastmile_qr_scan"}, "name": "3bdc0d2bd068ed0e9466ee47062b145a", "is_reserved": 0}, {"is_disabled": 0, "fusion_lon": 0.0, "fusion_lat": 0.0, "lat": 38.92227366666667, "type": "electric_scooter", "lon": -77.03440966666666, "bike_id": "a6b7f8a2ffc777afff5d221010f91eb8", "rental_uris": {"android": "https://dc.lft.to/lastmile_qr_scan", "ios": "https://dc.lft.to/lastmile_qr_scan"}, "name": "a6b7f8a2ffc777afff5d221010f91eb8", "is_reserved": 0}, {"is_disabled": 0, "fusion_lon": 0.0, "fusion_lat": 0.0, "lat": 38.8974035, "type": "electric_scooter", "lon": -77.00984983333333, "bike_id": "4074d8016edd3076c6543b3915aa3f3e", "rental_uris": {"android": "https://dc.lft.to/lastmile_qr_scan", "ios": "https://dc.lft.to/lastmile_qr_scan"}, "name": "4074d8016edd3076c6543b3915aa3f3e", "is_reserved": 0}, {"is_disabled": 0, "fusion_lon": 0.0, "fusion_lat": 0.0, "lat": 38.939668166666664, "type": "electric_scooter", "lon": -77.03279933333333, "bike_id": "427189b8cb8dc5299efeb34ede2815e1", "rental_uris": {"android": "https://dc.lft.to/lastmile_qr_scan", "ios": "https://dc.lft.to/lastmile_qr_scan"}, "name": "427189b8cb8dc5299efeb34ede2815e1", "is_reserved": 0}, {"is_disabled": 0, "fusion_lon": 0.0, "fusion_lat": 0.0, "lat": 38.92756966666666, "type": "electric_scooter", "lon": -77.00588033333334, "bike_id": "78feb47f48003e6b3fa5fb838c92f1e3", "rental_uris": {"android": "https://dc.lft.to/lastmile_qr_scan", "ios": "https://dc.lft.to/lastmile_qr_scan"}, "name": "78feb47f48003e6b3fa5fb838c92f1e3", "is_reserved": 0}, {"is_disabled": 0, "fusion_lon": 0.0, "fusion_lat": 0.0, "lat": 38.94214083333333, "type": "electric_scooter", "lon": -77.02501433333333, "bike_id": "0bcd2bddae347c1edf31fed7af56e6be", "rental_uris": {"android": "https://dc.lft.to/lastmile_qr_scan", "ios": "https://dc.lft.to/lastmile_qr_scan"}, "name": "0bcd2bddae347c1edf31fed7af56e6be", "is_reserved": 0}, {"is_disabled": 0, "fusion_lon": 0.0, "fusion_lat": 0.0, "lat": 38.90394033333333, "type": "electric_scooter", "lon": -76.99006916666667, "bike_id": "865f8a4dee5842e96293f0363f34b96c", "rental_uris": {"android": "https://dc.lft.to/lastmile_qr_scan", "ios": "https://dc.lft.to/lastmile_qr_scan"}, "name": "865f8a4dee5842e96293f0363f34b96c", "is_reserved": 0}, {"is_disabled": 0, "fusion_lon": 0.0, "fusion_lat": 0.0, "lat": 38.924795833333334, "type": "electric_scooter", "lon": -77.0347925, "bike_id": "727a714b8fd4f98711bf6f2896b61d74", "rental_uris": {"android": "https://dc.lft.to/lastmile_qr_scan", "ios": "https://dc.lft.to/lastmile_qr_scan"}, "name": "727a714b8fd4f98711bf6f2896b61d74", "is_reserved": 0}, {"is_disabled": 0, "fusion_lon": 0.0, "fusion_lat": 0.0, "lat": 38.9034115, "type": "electric_scooter", "lon": -77.03858566666666, "bike_id": "0b674e8cee95aec0472245c5a875127d", "rental_uris": {"android": "https://dc.lft.to/lastmile_qr_scan", "ios": "https://dc.lft.to/lastmile_qr_scan"}, "name": "0b674e8cee95aec0472245c5a875127d", "is_reserved": 0}, {"is_disabled": 0, "fusion_lon": 0.0, "fusion_lat": 0.0, "lat": 38.889896, "type": "electric_scooter", "lon": -77.00252366666666, "bike_id": "7b198e313b0a3cd153c1eb208ef27221", "rental_uris": {"android": "https://dc.lft.to/lastmile_qr_scan", "ios": "https://dc.lft.to/lastmile_qr_scan"}, "name": "7b198e313b0a3cd153c1eb208ef27221", "is_reserved": 0}, {"is_disabled": 0, "fusion_lon": 0.0, "fusion_lat": 0.0, "lat": 38.91703566666666, "type": "electric_scooter", "lon": -77.0333815, "bike_id": "edb6a057ee450c6d0020e581bd80d414", "rental_uris": {"android": "https://dc.lft.to/lastmile_qr_scan", "ios": "https://dc.lft.to/lastmile_qr_scan"}, "name": "edb6a057ee450c6d0020e581bd80d414", "is_reserved": 0}, {"is_disabled": 0, "fusion_lon": 0.0, "fusion_lat": 0.0, "lat": 38.906338833333336, "type": "electric_scooter", "lon": -76.9856595, "bike_id": "c2f1a8470211de06eee2b164a09be852", "rental_uris": {"android": "https://dc.lft.to/lastmile_qr_scan", "ios": "https://dc.lft.to/lastmile_qr_scan"}, "name": "c2f1a8470211de06eee2b164a09be852", "is_reserved": 0}, {"is_disabled": 0, "fusion_lon": 0.0, "fusion_lat": 0.0, "lat": 38.885013666666666, "type": "electric_scooter", "lon": -77.00324316666666, "bike_id": "f1586df23de201c22cd2153b131d8757", "rental_uris": {"android": "https://dc.lft.to/lastmile_qr_scan", "ios": "https://dc.lft.to/lastmile_qr_scan"}, "name": "f1586df23de201c22cd2153b131d8757", "is_reserved": 0}, {"is_disabled": 0, "fusion_lon": 0.0, "fusion_lat": 0.0, "lat": 38.9111175, "type": "electric_scooter", "lon": -77.038333, "bike_id": "82b8c4963d5b342a9477b95a68231bfd", "rental_uris": {"android": "https://dc.lft.to/lastmile_qr_scan", "ios": "https://dc.lft.to/lastmile_qr_scan"}, "name": "82b8c4963d5b342a9477b95a68231bfd", "is_reserved": 0}, {"is_disabled": 0, "fusion_lon": 0.0, "fusion_lat": 0.0, "lat": 38.91714733333333, "type": "electric_scooter", "lon": -77.09808333333334, "bike_id": "3962c1a5e4ddde851afe571524098b74", "rental_uris": {"android": "https://dc.lft.to/lastmile_qr_scan", "ios": "https://dc.lft.to/lastmile_qr_scan"}, "name": "3962c1a5e4ddde851afe571524098b74", "is_reserved": 0}, {"is_disabled": 0, "fusion_lon": 0.0, "fusion_lat": 0.0, "lat": 38.94976466666667, "type": "electric_scooter", "lon": -77.03752183333333, "bike_id": "225bda96e3b7cfc3f14380e347c2eaaa", "rental_uris": {"android": "https://dc.lft.to/lastmile_qr_scan", "ios": "https://dc.lft.to/lastmile_qr_scan"}, "name": "225bda96e3b7cfc3f14380e347c2eaaa", "is_reserved": 0}, {"is_disabled": 0, "fusion_lon": 0.0, "fusion_lat": 0.0, "lat": 38.89241166666667, "type": "electric_scooter", "lon": -77.03345266666666, "bike_id": "4344cabb102c0ef49079e729607f1084", "rental_uris": {"android": "https://dc.lft.to/lastmile_qr_scan", "ios": "https://dc.lft.to/lastmile_qr_scan"}, "name": "4344cabb102c0ef49079e729607f1084", "is_reserved": 0}, {"is_disabled": 0, "fusion_lon": 0.0, "fusion_lat": 0.0, "lat": 38.9194585, "type": "electric_scooter", "lon": -77.04508933333334, "bike_id": "2fada4b4f514453a6d901ce958c4f6ee", "rental_uris": {"android": "https://dc.lft.to/lastmile_qr_scan", "ios": "https://dc.lft.to/lastmile_qr_scan"}, "name": "2fada4b4f514453a6d901ce958c4f6ee", "is_reserved": 0}, {"is_disabled": 0, "fusion_lon": 0.0, "fusion_lat": 0.0, "lat": 39.026866, "type": "electric_bike", "lon": -77.12595083333333, "bike_id": "3c8e58078817f12cb1355cf11ae00096", "rental_uris": {"android": "https://dc.lft.to/lastmile_qr_scan", "ios": "https://dc.lft.to/lastmile_qr_scan"}, "name": "3c8e58078817f12cb1355cf11ae00096", "is_reserved": 0}, {"is_disabled": 0, "fusion_lon": 0.0, "fusion_lat": 0.0, "lat": 38.913022166666664, "type": "electric_scooter", "lon": -77.03195633333333, "bike_id": "1b98ea3b0646fad6910fb5a9a16da579", "rental_uris": {"android": "https://dc.lft.to/lastmile_qr_scan", "ios": "https://dc.lft.to/lastmile_qr_scan"}, "name": "1b98ea3b0646fad6910fb5a9a16da579", "is_reserved": 0}, {"is_disabled": 0, "fusion_lon": 0.0, "fusion_lat": 0.0, "lat": 38.89622716666667, "type": "electric_scooter", "lon": -77.02144833333334, "bike_id": "5fdcd0910c533f6b8c9cab8abb54ce7f", "rental_uris": {"android": "https://dc.lft.to/lastmile_qr_scan", "ios": "https://dc.lft.to/lastmile_qr_scan"}, "name": "5fdcd0910c533f6b8c9cab8abb54ce7f", "is_reserved": 0}, {"is_disabled": 0, "fusion_lon": 0.0, "fusion_lat": 0.0, "lat": 38.90042116666667, "type": "electric_scooter", "lon": -77.01196283333333, "bike_id": "48e216f5339b0e2bbe50d81705a373b3", "rental_uris": {"android": "https://dc.lft.to/lastmile_qr_scan", "ios": "https://dc.lft.to/lastmile_qr_scan"}, "name": "48e216f5339b0e2bbe50d81705a373b3", "is_reserved": 0}, {"is_disabled": 0, "fusion_lon": 0.0, "fusion_lat": 0.0, "lat": 38.900573333333334, "type": "electric_scooter", "lon": -76.98681383333333, "bike_id": "7c19600eab50f3c0e391dd8a5fef1bec", "rental_uris": {"android": "https://dc.lft.to/lastmile_qr_scan", "ios": "https://dc.lft.to/lastmile_qr_scan"}, "name": "7c19600eab50f3c0e391dd8a5fef1bec", "is_reserved": 0}, {"is_disabled": 0, "fusion_lon": 0.0, "fusion_lat": 0.0, "lat": 38.9325115, "type": "electric_scooter", "lon": -77.03256383333333, "bike_id": "5268a2f33845dfc7eaa9f8ae3ea67879", "rental_uris": {"android": "https://dc.lft.to/lastmile_qr_scan", "ios": "https://dc.lft.to/lastmile_qr_scan"}, "name": "5268a2f33845dfc7eaa9f8ae3ea67879", "is_reserved": 0}, {"is_disabled": 0, "fusion_lon": 0.0, "fusion_lat": 0.0, "lat": 38.92269866666667, "type": "electric_scooter", "lon": -77.02243566666667, "bike_id": "9808ee0321dfa864505fd8c2c57c895f", "rental_uris": {"android": "https://dc.lft.to/lastmile_qr_scan", "ios": "https://dc.lft.to/lastmile_qr_scan"}, "name": "9808ee0321dfa864505fd8c2c57c895f", "is_reserved": 0}, {"is_disabled": 0, "fusion_lon": 0.0, "fusion_lat": 0.0, "lat": 38.91413083333333, "type": "electric_scooter", "lon": -77.04249683333333, "bike_id": "a8ef2081215552538ad635252ef0c3c3", "rental_uris": {"android": "https://dc.lft.to/lastmile_qr_scan", "ios": "https://dc.lft.to/lastmile_qr_scan"}, "name": "a8ef2081215552538ad635252ef0c3c3", "is_reserved": 0}, {"is_disabled": 0, "fusion_lon": 0.0, "fusion_lat": 0.0, "lat": 38.9573205, "type": "electric_scooter", "lon": -77.02405266666666, "bike_id": "0a5516b4fee5d877fec0ea9df2d4190f", "rental_uris": {"android": "https://dc.lft.to/lastmile_qr_scan", "ios": "https://dc.lft.to/lastmile_qr_scan"}, "name": "0a5516b4fee5d877fec0ea9df2d4190f", "is_reserved": 0}, {"is_disabled": 0, "fusion_lon": 0.0, "fusion_lat": 0.0, "lat": 38.9137845, "type": "electric_scooter", "lon": -77.029664, "bike_id": "5117ac07f30c5d22da67ad3136cacd6d", "rental_uris": {"android": "https://dc.lft.to/lastmile_qr_scan", "ios": "https://dc.lft.to/lastmile_qr_scan"}, "name": "5117ac07f30c5d22da67ad3136cacd6d", "is_reserved": 0}, {"is_disabled": 0, "fusion_lon": 0.0, "fusion_lat": 0.0, "lat": 38.92135233333333, "type": "electric_scooter", "lon": -76.995743, "bike_id": "c646e0dfae80dbef801decc6a08cb267", "rental_uris": {"android": "https://dc.lft.to/lastmile_qr_scan", "ios": "https://dc.lft.to/lastmile_qr_scan"}, "name": "c646e0dfae80dbef801decc6a08cb267", "is_reserved": 0}, {"is_disabled": 0, "fusion_lon": 0.0, "fusion_lat": 0.0, "lat": 38.842910833333335, "type": "electric_scooter", "lon": -76.999463, "bike_id": "0b9176bcf7653252fa664d11bfeb1387", "rental_uris": {"android": "https://dc.lft.to/lastmile_qr_scan", "ios": "https://dc.lft.to/lastmile_qr_scan"}, "name": "0b9176bcf7653252fa664d11bfeb1387", "is_reserved": 0}, {"is_disabled": 0, "fusion_lon": 0.0, "fusion_lat": 0.0, "lat": 38.917134833333336, "type": "electric_scooter", "lon": -77.02903333333333, "bike_id": "a95e5273f84fc326d49804dd6cc4c2a0", "rental_uris": {"android": "https://dc.lft.to/lastmile_qr_scan", "ios": "https://dc.lft.to/lastmile_qr_scan"}, "name": "a95e5273f84fc326d49804dd6cc4c2a0", "is_reserved": 0}, {"is_disabled": 0, "fusion_lon": 0.0, "fusion_lat": 0.0, "lat": 38.89230533333333, "type": "electric_scooter", "lon": -77.021757, "bike_id": "be0626093a6bf399b16064d357e33710", "rental_uris": {"android": "https://dc.lft.to/lastmile_qr_scan", "ios": "https://dc.lft.to/lastmile_qr_scan"}, "name": "be0626093a6bf399b16064d357e33710", "is_reserved": 0}, {"is_disabled": 0, "fusion_lon": 0.0, "fusion_lat": 0.0, "lat": 38.909586833333336, "type": "electric_scooter", "lon": -77.04770316666666, "bike_id": "b6d4f1ec734f163fa649c149c516c152", "rental_uris": {"android": "https://dc.lft.to/lastmile_qr_scan", "ios": "https://dc.lft.to/lastmile_qr_scan"}, "name": "b6d4f1ec734f163fa649c149c516c152", "is_reserved": 0}, {"is_disabled": 0, "fusion_lon": 0.0, "fusion_lat": 0.0, "lat": 38.910435166666666, "type": "electric_scooter", "lon": -77.04345316666667, "bike_id": "74aa99413aca6d8759e4190eb9132314", "rental_uris": {"android": "https://dc.lft.to/lastmile_qr_scan", "ios": "https://dc.lft.to/lastmile_qr_scan"}, "name": "74aa99413aca6d8759e4190eb9132314", "is_reserved": 0}, {"is_disabled": 0, "fusion_lon": 0.0, "fusion_lat": 0.0, "lat": 38.9032965, "type": "electric_scooter", "lon": -77.021301, "bike_id": "ed6e2e0cff76ff7512e0405dc148e801", "rental_uris": {"android": "https://dc.lft.to/lastmile_qr_scan", "ios": "https://dc.lft.to/lastmile_qr_scan"}, "name": "ed6e2e0cff76ff7512e0405dc148e801", "is_reserved": 0}, {"is_disabled": 0, "fusion_lon": 0.0, "fusion_lat": 0.0, "lat": 38.911113, "type": "electric_scooter", "lon": -77.03213, "bike_id": "d9dc0d635b8c46e62de9163479588b4e", "rental_uris": {"android": "https://dc.lft.to/lastmile_qr_scan", "ios": "https://dc.lft.to/lastmile_qr_scan"}, "name": "d9dc0d635b8c46e62de9163479588b4e", "is_reserved": 0}, {"is_disabled": 0, "fusion_lon": 0.0, "fusion_lat": 0.0, "lat": 38.89565433333333, "type": "electric_bike", "lon": -77.127376, "bike_id": "92aeb06cf459156810493df06151752d", "rental_uris": {"android": "https://dc.lft.to/lastmile_qr_scan", "ios": "https://dc.lft.to/lastmile_qr_scan"}, "name": "92aeb06cf459156810493df06151752d", "is_reserved": 0}, {"is_disabled": 0, "fusion_lon": 0.0, "fusion_lat": 0.0, "lat": 38.90270983333333, "type": "electric_scooter", "lon": -77.040536, "bike_id": "3e1077678a4c95cf585fd6d551d37837", "rental_uris": {"android": "https://dc.lft.to/lastmile_qr_scan", "ios": "https://dc.lft.to/lastmile_qr_scan"}, "name": "3e1077678a4c95cf585fd6d551d37837", "is_reserved": 0}, {"is_disabled": 0, "fusion_lon": 0.0, "fusion_lat": 0.0, "lat": 38.93757866666667, "type": "electric_scooter", "lon": -77.02493883333334, "bike_id": "95b6062929482ea8a46049ff56b74c36", "rental_uris": {"android": "https://dc.lft.to/lastmile_qr_scan", "ios": "https://dc.lft.to/lastmile_qr_scan"}, "name": "95b6062929482ea8a46049ff56b74c36", "is_reserved": 0}, {"is_disabled": 0, "fusion_lon": 0.0, "fusion_lat": 0.0, "lat": 38.91549916666666, "type": "electric_scooter", "lon": -77.02044933333333, "bike_id": "7e20f1a33f4964d6c587fb9cae142f9a", "rental_uris": {"android": "https://dc.lft.to/lastmile_qr_scan", "ios": "https://dc.lft.to/lastmile_qr_scan"}, "name": "7e20f1a33f4964d6c587fb9cae142f9a", "is_reserved": 0}, {"is_disabled": 0, "fusion_lon": 0.0, "fusion_lat": 0.0, "lat": 38.898651, "type": "electric_scooter", "lon": -77.02292233333333, "bike_id": "bcf7580b65ec41f6a759132fd831d7d0", "rental_uris": {"android": "https://dc.lft.to/lastmile_qr_scan", "ios": "https://dc.lft.to/lastmile_qr_scan"}, "name": "bcf7580b65ec41f6a759132fd831d7d0", "is_reserved": 0}, {"is_disabled": 0, "fusion_lon": 0.0, "fusion_lat": 0.0, "lat": 38.9086425, "type": "electric_scooter", "lon": -77.026782, "bike_id": "adf9703ae03674f35b9165a3ededcb4b", "rental_uris": {"android": "https://dc.lft.to/lastmile_qr_scan", "ios": "https://dc.lft.to/lastmile_qr_scan"}, "name": "adf9703ae03674f35b9165a3ededcb4b", "is_reserved": 0}, {"is_disabled": 0, "fusion_lon": 0.0, "fusion_lat": 0.0, "lat": 38.91853416666667, "type": "electric_bike", "lon": -76.960841, "bike_id": "69b3554187981a622fe9f4956a1f473d", "rental_uris": {"android": "https://dc.lft.to/lastmile_qr_scan", "ios": "https://dc.lft.to/lastmile_qr_scan"}, "name": "69b3554187981a622fe9f4956a1f473d", "is_reserved": 0}, {"is_disabled": 0, "fusion_lon": 0.0, "fusion_lat": 0.0, "lat": 38.91410533333333, "type": "electric_scooter", "lon": -77.02564016666666, "bike_id": "851ed81f3614557787d46d09630e575e", "rental_uris": {"android": "https://dc.lft.to/lastmile_qr_scan", "ios": "https://dc.lft.to/lastmile_qr_scan"}, "name": "851ed81f3614557787d46d09630e575e", "is_reserved": 0}, {"is_disabled": 0, "fusion_lon": 0.0, "fusion_lat": 0.0, "lat": 38.905552666666665, "type": "electric_scooter", "lon": -77.03249183333334, "bike_id": "e4c1e30727ddb0b52e3a7c154ccb60c3", "rental_uris": {"android": "https://dc.lft.to/lastmile_qr_scan", "ios": "https://dc.lft.to/lastmile_qr_scan"}, "name": "e4c1e30727ddb0b52e3a7c154ccb60c3", "is_reserved": 0}, {"is_disabled": 0, "fusion_lon": 0.0, "fusion_lat": 0.0, "lat": 38.88498933333333, "type": "electric_scooter", "lon": -76.99646666666666, "bike_id": "d30a7da021dc1292c8d947426b552760", "rental_uris": {"android": "https://dc.lft.to/lastmile_qr_scan", "ios": "https://dc.lft.to/lastmile_qr_scan"}, "name": "d30a7da021dc1292c8d947426b552760", "is_reserved": 0}, {"is_disabled": 0, "fusion_lon": 0.0, "fusion_lat": 0.0, "lat": 38.868434, "type": "electric_bike", "lon": -77.09734833333333, "bike_id": "9d09b35912719d87739b11e1dd53c02b", "rental_uris": {"android": "https://dc.lft.to/lastmile_qr_scan", "ios": "https://dc.lft.to/lastmile_qr_scan"}, "name": "9d09b35912719d87739b11e1dd53c02b", "is_reserved": 0}, {"is_disabled": 0, "fusion_lon": 0.0, "fusion_lat": 0.0, "lat": 38.8980795, "type": "electric_bike", "lon": -76.92849783333334, "bike_id": "af43905c1444fc51d00b0eca61ceeb2f", "rental_uris": {"android": "https://dc.lft.to/lastmile_qr_scan", "ios": "https://dc.lft.to/lastmile_qr_scan"}, "name": "af43905c1444fc51d00b0eca61ceeb2f", "is_reserved": 0}, {"is_disabled": 0, "fusion_lon": 0.0, "fusion_lat": 0.0, "lat": 38.91768, "type": "electric_scooter", "lon": -77.01473166666666, "bike_id": "026dd98e44e667c7e95be2c52a698807", "rental_uris": {"android": "https://dc.lft.to/lastmile_qr_scan", "ios": "https://dc.lft.to/lastmile_qr_scan"}, "name": "026dd98e44e667c7e95be2c52a698807", "is_reserved": 0}, {"is_disabled": 0, "fusion_lon": 0.0, "fusion_lat": 0.0, "lat": 38.911767, "type": "electric_scooter", "lon": -77.00445216666667, "bike_id": "80e0fc591bac352800478dace954291c", "rental_uris": {"android": "https://dc.lft.to/lastmile_qr_scan", "ios": "https://dc.lft.to/lastmile_qr_scan"}, "name": "80e0fc591bac352800478dace954291c", "is_reserved": 0}, {"is_disabled": 0, "fusion_lon": 0.0, "fusion_lat": 0.0, "lat": 38.90774916666667, "type": "electric_scooter", "lon": -77.04667416666666, "bike_id": "f1ccb5c347ec366ac34aa681da4a2e24", "rental_uris": {"android": "https://dc.lft.to/lastmile_qr_scan", "ios": "https://dc.lft.to/lastmile_qr_scan"}, "name": "f1ccb5c347ec366ac34aa681da4a2e24", "is_reserved": 0}, {"is_disabled": 0, "fusion_lon": 0.0, "fusion_lat": 0.0, "lat": 38.91346216666667, "type": "electric_scooter", "lon": -77.04159366666667, "bike_id": "5f8c4dbcd83e1b0539628a2735a305b8", "rental_uris": {"android": "https://dc.lft.to/lastmile_qr_scan", "ios": "https://dc.lft.to/lastmile_qr_scan"}, "name": "5f8c4dbcd83e1b0539628a2735a305b8", "is_reserved": 0}, {"is_disabled": 0, "fusion_lon": 0.0, "fusion_lat": 0.0, "lat": 38.916133, "type": "electric_scooter", "lon": -77.04024366666667, "bike_id": "ed02834b4a965c2837faa652a2cd685f", "rental_uris": {"android": "https://dc.lft.to/lastmile_qr_scan", "ios": "https://dc.lft.to/lastmile_qr_scan"}, "name": "ed02834b4a965c2837faa652a2cd685f", "is_reserved": 0}, {"is_disabled": 0, "fusion_lon": 0.0, "fusion_lat": 0.0, "lat": 38.85284, "type": "electric_bike", "lon": -76.98154666666667, "bike_id": "c7ac3848808dcc187e56330b3c9f5e88", "rental_uris": {"android": "https://dc.lft.to/lastmile_qr_scan", "ios": "https://dc.lft.to/lastmile_qr_scan"}, "name": "c7ac3848808dcc187e56330b3c9f5e88", "is_reserved": 0}, {"is_disabled": 0, "fusion_lon": 0.0, "fusion_lat": 0.0, "lat": 38.87882366666667, "type": "electric_scooter", "lon": -77.02315066666667, "bike_id": "f4b9537850a46146f373c75c5b1e1bfd", "rental_uris": {"android": "https://dc.lft.to/lastmile_qr_scan", "ios": "https://dc.lft.to/lastmile_qr_scan"}, "name": "f4b9537850a46146f373c75c5b1e1bfd", "is_reserved": 0}, {"is_disabled": 0, "fusion_lon": 0.0, "fusion_lat": 0.0, "lat": 38.90279366666667, "type": "electric_scooter", "lon": -77.03445983333333, "bike_id": "6e41e727a2d8b7d9ff081290b440af9b", "rental_uris": {"android": "https://dc.lft.to/lastmile_qr_scan", "ios": "https://dc.lft.to/lastmile_qr_scan"}, "name": "6e41e727a2d8b7d9ff081290b440af9b", "is_reserved": 0}, {"is_disabled": 0, "fusion_lon": 0.0, "fusion_lat": 0.0, "lat": 38.90276383333333, "type": "electric_scooter", "lon": -77.03442166666666, "bike_id": "f6567c2f138394e77e1392b3bbf8f6e4", "rental_uris": {"android": "https://dc.lft.to/lastmile_qr_scan", "ios": "https://dc.lft.to/lastmile_qr_scan"}, "name": "f6567c2f138394e77e1392b3bbf8f6e4", "is_reserved": 0}, {"is_disabled": 0, "fusion_lon": 0.0, "fusion_lat": 0.0, "lat": 38.934127333333336, "type": "electric_scooter", "lon": -77.03888, "bike_id": "c37529aca972ef27aa9e55623fecdd40", "rental_uris": {"android": "https://dc.lft.to/lastmile_qr_scan", "ios": "https://dc.lft.to/lastmile_qr_scan"}, "name": "c37529aca972ef27aa9e55623fecdd40", "is_reserved": 0}, {"is_disabled": 0, "fusion_lon": 0.0, "fusion_lat": 0.0, "lat": 38.904748166666664, "type": "electric_bike", "lon": -76.92949733333333, "bike_id": "f1478bc629f8e269721bf91448d39684", "rental_uris": {"android": "https://dc.lft.to/lastmile_qr_scan", "ios": "https://dc.lft.to/lastmile_qr_scan"}, "name": "f1478bc629f8e269721bf91448d39684", "is_reserved": 0}, {"is_disabled": 0, "fusion_lon": 0.0, "fusion_lat": 0.0, "lat": 38.9284885, "type": "electric_scooter", "lon": -76.9977155, "bike_id": "0f8d4a690af5a9e9a38b93f10fc72845", "rental_uris": {"android": "https://dc.lft.to/lastmile_qr_scan", "ios": "https://dc.lft.to/lastmile_qr_scan"}, "name": "0f8d4a690af5a9e9a38b93f10fc72845", "is_reserved": 0}, {"is_disabled": 0, "fusion_lon": 0.0, "fusion_lat": 0.0, "lat": 38.879755, "type": "electric_scooter", "lon": -77.024413, "bike_id": "bcd4af234311fdc11860358efc8ebeff", "rental_uris": {"android": "https://dc.lft.to/lastmile_qr_scan", "ios": "https://dc.lft.to/lastmile_qr_scan"}, "name": "bcd4af234311fdc11860358efc8ebeff", "is_reserved": 0}, {"is_disabled": 0, "fusion_lon": 0.0, "fusion_lat": 0.0, "lat": 38.89555416666666, "type": "electric_scooter", "lon": -76.94875983333333, "bike_id": "0ce97ecc2463e4d29ffa286aabf7bbdd", "rental_uris": {"android": "https://dc.lft.to/lastmile_qr_scan", "ios": "https://dc.lft.to/lastmile_qr_scan"}, "name": "0ce97ecc2463e4d29ffa286aabf7bbdd", "is_reserved": 0}, {"is_disabled": 0, "fusion_lon": 0.0, "fusion_lat": 0.0, "lat": 38.904345666666664, "type": "electric_scooter", "lon": -77.05138866666667, "bike_id": "3d52b9bddd43d4f00aab81b653ceb7ba", "rental_uris": {"android": "https://dc.lft.to/lastmile_qr_scan", "ios": "https://dc.lft.to/lastmile_qr_scan"}, "name": "3d52b9bddd43d4f00aab81b653ceb7ba", "is_reserved": 0}, {"is_disabled": 0, "fusion_lon": 0.0, "fusion_lat": 0.0, "lat": 38.931840333333334, "type": "electric_scooter", "lon": -77.04146616666667, "bike_id": "a1338d78921e7f1898ee727ac7236f3b", "rental_uris": {"android": "https://dc.lft.to/lastmile_qr_scan", "ios": "https://dc.lft.to/lastmile_qr_scan"}, "name": "a1338d78921e7f1898ee727ac7236f3b", "is_reserved": 0}, {"is_disabled": 0, "fusion_lon": 0.0, "fusion_lat": 0.0, "lat": 38.90398716666667, "type": "electric_scooter", "lon": -77.0163075, "bike_id": "03aeb53435e960b16c47505148e6f936", "rental_uris": {"android": "https://dc.lft.to/lastmile_qr_scan", "ios": "https://dc.lft.to/lastmile_qr_scan"}, "name": "03aeb53435e960b16c47505148e6f936", "is_reserved": 0}, {"is_disabled": 0, "fusion_lon": 0.0, "fusion_lat": 0.0, "lat": 38.914046166666665, "type": "electric_scooter", "lon": -77.03216733333333, "bike_id": "449e251d6708515c3c38d44983bfe0cf", "rental_uris": {"android": "https://dc.lft.to/lastmile_qr_scan", "ios": "https://dc.lft.to/lastmile_qr_scan"}, "name": "449e251d6708515c3c38d44983bfe0cf", "is_reserved": 0}, {"is_disabled": 0, "fusion_lon": 0.0, "fusion_lat": 0.0, "lat": 38.830436166666665, "type": "electric_scooter", "lon": -77.01234033333333, "bike_id": "622c72f4c055f77aa0dd951d9f0bd47b", "rental_uris": {"android": "https://dc.lft.to/lastmile_qr_scan", "ios": "https://dc.lft.to/lastmile_qr_scan"}, "name": "622c72f4c055f77aa0dd951d9f0bd47b", "is_reserved": 0}, {"is_disabled": 0, "fusion_lon": 0.0, "fusion_lat": 0.0, "lat": 38.898453833333335, "type": "electric_scooter", "lon": -76.94495366666666, "bike_id": "950fd811c632c348d1026cfd72b01e12", "rental_uris": {"android": "https://dc.lft.to/lastmile_qr_scan", "ios": "https://dc.lft.to/lastmile_qr_scan"}, "name": "950fd811c632c348d1026cfd72b01e12", "is_reserved": 0}, {"is_disabled": 0, "fusion_lon": 0.0, "fusion_lat": 0.0, "lat": 38.895071, "type": "electric_scooter", "lon": -77.0230045, "bike_id": "3788f8fc78b9524225b67da3a9202e40", "rental_uris": {"android": "https://dc.lft.to/lastmile_qr_scan", "ios": "https://dc.lft.to/lastmile_qr_scan"}, "name": "3788f8fc78b9524225b67da3a9202e40", "is_reserved": 0}, {"is_disabled": 0, "fusion_lon": 0.0, "fusion_lat": 0.0, "lat": 38.935535, "type": "electric_scooter", "lon": -77.059046, "bike_id": "14bf95abaf219156637a37bae21e2a3e", "rental_uris": {"android": "https://dc.lft.to/lastmile_qr_scan", "ios": "https://dc.lft.to/lastmile_qr_scan"}, "name": "14bf95abaf219156637a37bae21e2a3e", "is_reserved": 0}, {"is_disabled": 0, "fusion_lon": 0.0, "fusion_lat": 0.0, "lat": 39.02297933333333, "type": "electric_bike", "lon": -77.02099983333333, "bike_id": "b6311884094711f81d2d60c30bb006cf", "rental_uris": {"android": "https://dc.lft.to/lastmile_qr_scan", "ios": "https://dc.lft.to/lastmile_qr_scan"}, "name": "b6311884094711f81d2d60c30bb006cf", "is_reserved": 0}, {"is_disabled": 0, "fusion_lon": 0.0, "fusion_lat": 0.0, "lat": 38.86524166666667, "type": "electric_scooter", "lon": -76.98967066666667, "bike_id": "562b165533c5c75da6f0a4c83630aef6", "rental_uris": {"android": "https://dc.lft.to/lastmile_qr_scan", "ios": "https://dc.lft.to/lastmile_qr_scan"}, "name": "562b165533c5c75da6f0a4c83630aef6", "is_reserved": 0}, {"is_disabled": 0, "fusion_lon": 0.0, "fusion_lat": 0.0, "lat": 38.900189, "type": "electric_scooter", "lon": -77.04492366666666, "bike_id": "2667f22405ccf5387d2b981423abb583", "rental_uris": {"android": "https://dc.lft.to/lastmile_qr_scan", "ios": "https://dc.lft.to/lastmile_qr_scan"}, "name": "2667f22405ccf5387d2b981423abb583", "is_reserved": 0}, {"is_disabled": 0, "fusion_lon": 0.0, "fusion_lat": 0.0, "lat": 38.9022775, "type": "electric_scooter", "lon": -77.04714683333333, "bike_id": "9aff82bd69591379b8ab33acc7d4c435", "rental_uris": {"android": "https://dc.lft.to/lastmile_qr_scan", "ios": "https://dc.lft.to/lastmile_qr_scan"}, "name": "9aff82bd69591379b8ab33acc7d4c435", "is_reserved": 0}, {"is_disabled": 0, "fusion_lon": 0.0, "fusion_lat": 0.0, "lat": 38.94489183333334, "type": "electric_scooter", "lon": -77.06386133333334, "bike_id": "47d8ef467e9d34e2b0661da2e199fb41", "rental_uris": {"android": "https://dc.lft.to/lastmile_qr_scan", "ios": "https://dc.lft.to/lastmile_qr_scan"}, "name": "47d8ef467e9d34e2b0661da2e199fb41", "is_reserved": 0}, {"is_disabled": 0, "fusion_lon": 0.0, "fusion_lat": 0.0, "lat": 38.895863166666665, "type": "electric_scooter", "lon": -77.021627, "bike_id": "8b725238fe314fae87ecfe33b4f5cf45", "rental_uris": {"android": "https://dc.lft.to/lastmile_qr_scan", "ios": "https://dc.lft.to/lastmile_qr_scan"}, "name": "8b725238fe314fae87ecfe33b4f5cf45", "is_reserved": 0}, {"is_disabled": 0, "fusion_lon": 0.0, "fusion_lat": 0.0, "lat": 38.887981833333335, "type": "electric_bike", "lon": -76.9299755, "bike_id": "bb6d46cdf3a2a9d62486c399196832e5", "rental_uris": {"android": "https://dc.lft.to/lastmile_qr_scan", "ios": "https://dc.lft.to/lastmile_qr_scan"}, "name": "bb6d46cdf3a2a9d62486c399196832e5", "is_reserved": 0}, {"is_disabled": 0, "fusion_lon": 0.0, "fusion_lat": 0.0, "lat": 38.82743933333333, "type": "electric_bike", "lon": -77.008522, "bike_id": "04d3cb1ca7e277aefa55877f77f645af", "rental_uris": {"android": "https://dc.lft.to/lastmile_qr_scan", "ios": "https://dc.lft.to/lastmile_qr_scan"}, "name": "04d3cb1ca7e277aefa55877f77f645af", "is_reserved": 0}, {"is_disabled": 0, "fusion_lon": 0.0, "fusion_lat": 0.0, "lat": 38.90277433333333, "type": "electric_scooter", "lon": -77.02179166666667, "bike_id": "be2857dbb4faf66979f1f6103a197523", "rental_uris": {"android": "https://dc.lft.to/lastmile_qr_scan", "ios": "https://dc.lft.to/lastmile_qr_scan"}, "name": "be2857dbb4faf66979f1f6103a197523", "is_reserved": 0}, {"is_disabled": 0, "fusion_lon": 0.0, "fusion_lat": 0.0, "lat": 38.91028683333333, "type": "electric_scooter", "lon": -77.0479545, "bike_id": "215e90b80fcc1434e0ebfc20e0fafb6d", "rental_uris": {"android": "https://dc.lft.to/lastmile_qr_scan", "ios": "https://dc.lft.to/lastmile_qr_scan"}, "name": "215e90b80fcc1434e0ebfc20e0fafb6d", "is_reserved": 0}, {"is_disabled": 0, "fusion_lon": 0.0, "fusion_lat": 0.0, "lat": 38.9404085, "type": "electric_scooter", "lon": -77.0290595, "bike_id": "cc9daff299c9c9da6cd2e9eef34ce003", "rental_uris": {"android": "https://dc.lft.to/lastmile_qr_scan", "ios": "https://dc.lft.to/lastmile_qr_scan"}, "name": "cc9daff299c9c9da6cd2e9eef34ce003", "is_reserved": 0}, {"is_disabled": 0, "fusion_lon": 0.0, "fusion_lat": 0.0, "lat": 38.898285, "type": "electric_scooter", "lon": -76.98049016666667, "bike_id": "7d22db9ff9abec8e01e24098af907af3", "rental_uris": {"android": "https://dc.lft.to/lastmile_qr_scan", "ios": "https://dc.lft.to/lastmile_qr_scan"}, "name": "7d22db9ff9abec8e01e24098af907af3", "is_reserved": 0}, {"is_disabled": 0, "fusion_lon": 0.0, "fusion_lat": 0.0, "lat": 38.940729, "type": "electric_bike", "lon": -77.05289383333333, "bike_id": "9e4fa5118d8d186342ea3dfdb1f1c3aa", "rental_uris": {"android": "https://dc.lft.to/lastmile_qr_scan", "ios": "https://dc.lft.to/lastmile_qr_scan"}, "name": "9e4fa5118d8d186342ea3dfdb1f1c3aa", "is_reserved": 0}, {"is_disabled": 0, "fusion_lon": 0.0, "fusion_lat": 0.0, "lat": 39.0087185, "type": "electric_bike", "lon": -77.07901633333333, "bike_id": "828d88cd7b8a198edf5081a2bce83aeb", "rental_uris": {"android": "https://dc.lft.to/lastmile_qr_scan", "ios": "https://dc.lft.to/lastmile_qr_scan"}, "name": "828d88cd7b8a198edf5081a2bce83aeb", "is_reserved": 0}, {"is_disabled": 0, "fusion_lon": 0.0, "fusion_lat": 0.0, "lat": 38.893741166666665, "type": "electric_scooter", "lon": -76.94995966666667, "bike_id": "8807b6301e43bd46554f5a6686796f34", "rental_uris": {"android": "https://dc.lft.to/lastmile_qr_scan", "ios": "https://dc.lft.to/lastmile_qr_scan"}, "name": "8807b6301e43bd46554f5a6686796f34", "is_reserved": 0}, {"is_disabled": 0, "fusion_lon": 0.0, "fusion_lat": 0.0, "lat": 38.911136, "type": "electric_scooter", "lon": -77.04509483333334, "bike_id": "7cd8f83cbd40a525d7ac3d73539bf391", "rental_uris": {"android": "https://dc.lft.to/lastmile_qr_scan", "ios": "https://dc.lft.to/lastmile_qr_scan"}, "name": "7cd8f83cbd40a525d7ac3d73539bf391", "is_reserved": 0}, {"is_disabled": 0, "fusion_lon": 0.0, "fusion_lat": 0.0, "lat": 38.892287, "type": "electric_scooter", "lon": -77.0499815, "bike_id": "511bde6244a1d98377915a64dd89627e", "rental_uris": {"android": "https://dc.lft.to/lastmile_qr_scan", "ios": "https://dc.lft.to/lastmile_qr_scan"}, "name": "511bde6244a1d98377915a64dd89627e", "is_reserved": 0}, {"is_disabled": 0, "fusion_lon": 0.0, "fusion_lat": 0.0, "lat": 38.92531283333334, "type": "electric_scooter", "lon": -77.07332216666667, "bike_id": "99dc8e0bb8beb72325ecd984d8e1704e", "rental_uris": {"android": "https://dc.lft.to/lastmile_qr_scan", "ios": "https://dc.lft.to/lastmile_qr_scan"}, "name": "99dc8e0bb8beb72325ecd984d8e1704e", "is_reserved": 0}, {"is_disabled": 0, "fusion_lon": 0.0, "fusion_lat": 0.0, "lat": 38.866975833333335, "type": "electric_scooter", "lon": -76.98711583333333, "bike_id": "67858b44fcfc631c7e021159e50f1514", "rental_uris": {"android": "https://dc.lft.to/lastmile_qr_scan", "ios": "https://dc.lft.to/lastmile_qr_scan"}, "name": "67858b44fcfc631c7e021159e50f1514", "is_reserved": 0}, {"is_disabled": 0, "fusion_lon": 0.0, "fusion_lat": 0.0, "lat": 38.952927833333334, "type": "electric_scooter", "lon": -77.068769, "bike_id": "81925ea1d274d6b6bdf985fb3989b7f1", "rental_uris": {"android": "https://dc.lft.to/lastmile_qr_scan", "ios": "https://dc.lft.to/lastmile_qr_scan"}, "name": "81925ea1d274d6b6bdf985fb3989b7f1", "is_reserved": 0}, {"is_disabled": 0, "fusion_lon": 0.0, "fusion_lat": 0.0, "lat": 38.894779, "type": "electric_scooter", "lon": -77.021946, "bike_id": "65886e7b5e879afdfab7ac42443fa454", "rental_uris": {"android": "https://dc.lft.to/lastmile_qr_scan", "ios": "https://dc.lft.to/lastmile_qr_scan"}, "name": "65886e7b5e879afdfab7ac42443fa454", "is_reserved": 0}, {"is_disabled": 0, "fusion_lon": 0.0, "fusion_lat": 0.0, "lat": 38.905509333333335, "type": "electric_scooter", "lon": -77.0435455, "bike_id": "1de95066e98f3afcd0de209fbe9bc4b1", "rental_uris": {"android": "https://dc.lft.to/lastmile_qr_scan", "ios": "https://dc.lft.to/lastmile_qr_scan"}, "name": "1de95066e98f3afcd0de209fbe9bc4b1", "is_reserved": 0}, {"is_disabled": 0, "fusion_lon": 0.0, "fusion_lat": 0.0, "lat": 38.897749833333336, "type": "electric_scooter", "lon": -77.02498383333334, "bike_id": "6723d4eb9d5b0a697739f2f23f004c8a", "rental_uris": {"android": "https://dc.lft.to/lastmile_qr_scan", "ios": "https://dc.lft.to/lastmile_qr_scan"}, "name": "6723d4eb9d5b0a697739f2f23f004c8a", "is_reserved": 0}, {"is_disabled": 0, "fusion_lon": 0.0, "fusion_lat": 0.0, "lat": 38.929089833333336, "type": "electric_scooter", "lon": -77.0318025, "bike_id": "764fcf2cb1504c769915042432f33a66", "rental_uris": {"android": "https://dc.lft.to/lastmile_qr_scan", "ios": "https://dc.lft.to/lastmile_qr_scan"}, "name": "764fcf2cb1504c769915042432f33a66", "is_reserved": 0}, {"is_disabled": 0, "fusion_lon": 0.0, "fusion_lat": 0.0, "lat": 38.94541783333333, "type": "electric_scooter", "lon": -77.02530983333334, "bike_id": "ec9afcec925510a2673d8abfa9ed1307", "rental_uris": {"android": "https://dc.lft.to/lastmile_qr_scan", "ios": "https://dc.lft.to/lastmile_qr_scan"}, "name": "ec9afcec925510a2673d8abfa9ed1307", "is_reserved": 0}, {"is_disabled": 0, "fusion_lon": 0.0, "fusion_lat": 0.0, "lat": 38.934542, "type": "electric_scooter", "lon": -77.03057116666666, "bike_id": "4b95a6523113c4789d4e802363be2612", "rental_uris": {"android": "https://dc.lft.to/lastmile_qr_scan", "ios": "https://dc.lft.to/lastmile_qr_scan"}, "name": "4b95a6523113c4789d4e802363be2612", "is_reserved": 0}, {"is_disabled": 0, "fusion_lon": 0.0, "fusion_lat": 0.0, "lat": 38.91263433333334, "type": "electric_scooter", "lon": -77.03888716666667, "bike_id": "84376555b1ad21c6879eacc3bd539850", "rental_uris": {"android": "https://dc.lft.to/lastmile_qr_scan", "ios": "https://dc.lft.to/lastmile_qr_scan"}, "name": "84376555b1ad21c6879eacc3bd539850", "is_reserved": 0}, {"is_disabled": 0, "fusion_lon": 0.0, "fusion_lat": 0.0, "lat": 38.880122, "type": "electric_bike", "lon": -76.91591816666667, "bike_id": "c8276cdaee341d75bfb07ebe95bd2cc6", "rental_uris": {"android": "https://dc.lft.to/lastmile_qr_scan", "ios": "https://dc.lft.to/lastmile_qr_scan"}, "name": "c8276cdaee341d75bfb07ebe95bd2cc6", "is_reserved": 0}, {"is_disabled": 0, "fusion_lon": 0.0, "fusion_lat": 0.0, "lat": 38.92564516666667, "type": "electric_scooter", "lon": -77.022816, "bike_id": "3f75c05fc05c6f0fe9f040e349e90574", "rental_uris": {"android": "https://dc.lft.to/lastmile_qr_scan", "ios": "https://dc.lft.to/lastmile_qr_scan"}, "name": "3f75c05fc05c6f0fe9f040e349e90574", "is_reserved": 0}, {"is_disabled": 0, "fusion_lon": 0.0, "fusion_lat": 0.0, "lat": 38.86246916666666, "type": "electric_scooter", "lon": -76.99502083333333, "bike_id": "be00aa60f8e2b56c57cb2d98bbc28f75", "rental_uris": {"android": "https://dc.lft.to/lastmile_qr_scan", "ios": "https://dc.lft.to/lastmile_qr_scan"}, "name": "be00aa60f8e2b56c57cb2d98bbc28f75", "is_reserved": 0}, {"is_disabled": 0, "fusion_lon": 0.0, "fusion_lat": 0.0, "lat": 38.903356333333335, "type": "electric_scooter", "lon": -77.03638166666667, "bike_id": "35511f9d636809be73480e8ca6b6932a", "rental_uris": {"android": "https://dc.lft.to/lastmile_qr_scan", "ios": "https://dc.lft.to/lastmile_qr_scan"}, "name": "35511f9d636809be73480e8ca6b6932a", "is_reserved": 0}, {"is_disabled": 0, "fusion_lon": 0.0, "fusion_lat": 0.0, "lat": 38.859891, "type": "electric_bike", "lon": -76.97051516666667, "bike_id": "5b5aac2934828c9e3655c56d5acacb64", "rental_uris": {"android": "https://dc.lft.to/lastmile_qr_scan", "ios": "https://dc.lft.to/lastmile_qr_scan"}, "name": "5b5aac2934828c9e3655c56d5acacb64", "is_reserved": 0}, {"is_disabled": 0, "fusion_lon": 0.0, "fusion_lat": 0.0, "lat": 38.994547, "type": "electric_bike", "lon": -76.90815333333333, "bike_id": "e9133ee5d60bd0a46ed59c28f175d4b8", "rental_uris": {"android": "https://dc.lft.to/lastmile_qr_scan", "ios": "https://dc.lft.to/lastmile_qr_scan"}, "name": "e9133ee5d60bd0a46ed59c28f175d4b8", "is_reserved": 0}, {"is_disabled": 0, "fusion_lon": 0.0, "fusion_lat": 0.0, "lat": 38.90068933333333, "type": "electric_scooter", "lon": -77.04869216666667, "bike_id": "b89f886ebc2a19f626ec606086d90e7f", "rental_uris": {"android": "https://dc.lft.to/lastmile_qr_scan", "ios": "https://dc.lft.to/lastmile_qr_scan"}, "name": "b89f886ebc2a19f626ec606086d90e7f", "is_reserved": 0}, {"is_disabled": 0, "fusion_lon": 0.0, "fusion_lat": 0.0, "lat": 38.87859683333333, "type": "electric_scooter", "lon": -77.00504266666667, "bike_id": "98b1d54947f08d865c2b61261fbf1f33", "rental_uris": {"android": "https://dc.lft.to/lastmile_qr_scan", "ios": "https://dc.lft.to/lastmile_qr_scan"}, "name": "98b1d54947f08d865c2b61261fbf1f33", "is_reserved": 0}, {"is_disabled": 0, "fusion_lon": 0.0, "fusion_lat": 0.0, "lat": 38.93249633333333, "type": "electric_scooter", "lon": -77.0400575, "bike_id": "213f8160079dec308902479bed786808", "rental_uris": {"android": "https://dc.lft.to/lastmile_qr_scan", "ios": "https://dc.lft.to/lastmile_qr_scan"}, "name": "213f8160079dec308902479bed786808", "is_reserved": 0}, {"is_disabled": 0, "fusion_lon": 0.0, "fusion_lat": 0.0, "lat": 38.946362666666666, "type": "electric_scooter", "lon": -77.01929566666666, "bike_id": "e3dbaab3ea55845d147f6da1af0bc694", "rental_uris": {"android": "https://dc.lft.to/lastmile_qr_scan", "ios": "https://dc.lft.to/lastmile_qr_scan"}, "name": "e3dbaab3ea55845d147f6da1af0bc694", "is_reserved": 0}, {"is_disabled": 0, "fusion_lon": 0.0, "fusion_lat": 0.0, "lat": 38.92757666666667, "type": "electric_scooter", "lon": -77.00593966666666, "bike_id": "0cea7b7f6fb1eaac93b079f1fccc51df", "rental_uris": {"android": "https://dc.lft.to/lastmile_qr_scan", "ios": "https://dc.lft.to/lastmile_qr_scan"}, "name": "0cea7b7f6fb1eaac93b079f1fccc51df", "is_reserved": 0}, {"is_disabled": 0, "fusion_lon": 0.0, "fusion_lat": 0.0, "lat": 38.907706833333336, "type": "electric_scooter", "lon": -77.062779, "bike_id": "9c22246808b494bdd40be073816a07c7", "rental_uris": {"android": "https://dc.lft.to/lastmile_qr_scan", "ios": "https://dc.lft.to/lastmile_qr_scan"}, "name": "9c22246808b494bdd40be073816a07c7", "is_reserved": 0}, {"is_disabled": 0, "fusion_lon": 0.0, "fusion_lat": 0.0, "lat": 38.85209566666666, "type": "electric_bike", "lon": -77.10126416666667, "bike_id": "f9ad4ab42da34ec701464fcc570b70d8", "rental_uris": {"android": "https://dc.lft.to/lastmile_qr_scan", "ios": "https://dc.lft.to/lastmile_qr_scan"}, "name": "f9ad4ab42da34ec701464fcc570b70d8", "is_reserved": 0}, {"is_disabled": 0, "fusion_lon": 0.0, "fusion_lat": 0.0, "lat": 38.926051, "type": "electric_scooter", "lon": -77.0235045, "bike_id": "44296d70c3a5173c2152f9f68406b15f", "rental_uris": {"android": "https://dc.lft.to/lastmile_qr_scan", "ios": "https://dc.lft.to/lastmile_qr_scan"}, "name": "44296d70c3a5173c2152f9f68406b15f", "is_reserved": 0}, {"is_disabled": 0, "fusion_lon": 0.0, "fusion_lat": 0.0, "lat": 38.89604883333333, "type": "electric_scooter", "lon": -77.009147, "bike_id": "2de1cf1230c90e0ebaaa201d00eeab14", "rental_uris": {"android": "https://dc.lft.to/lastmile_qr_scan", "ios": "https://dc.lft.to/lastmile_qr_scan"}, "name": "2de1cf1230c90e0ebaaa201d00eeab14", "is_reserved": 0}, {"is_disabled": 0, "fusion_lon": 0.0, "fusion_lat": 0.0, "lat": 38.895016, "type": "electric_scooter", "lon": -76.948756, "bike_id": "7fc4f051bab97eace63be19a7c61b6de", "rental_uris": {"android": "https://dc.lft.to/lastmile_qr_scan", "ios": "https://dc.lft.to/lastmile_qr_scan"}, "name": "7fc4f051bab97eace63be19a7c61b6de", "is_reserved": 0}, {"is_disabled": 0, "fusion_lon": 0.0, "fusion_lat": 0.0, "lat": 38.90710983333334, "type": "electric_scooter", "lon": -77.02384166666667, "bike_id": "c74170c1a874a9453aed2e41b7d3c9ec", "rental_uris": {"android": "https://dc.lft.to/lastmile_qr_scan", "ios": "https://dc.lft.to/lastmile_qr_scan"}, "name": "c74170c1a874a9453aed2e41b7d3c9ec", "is_reserved": 0}, {"is_disabled": 0, "fusion_lon": 0.0, "fusion_lat": 0.0, "lat": 39.09588166666666, "type": "electric_bike", "lon": -77.1477265, "bike_id": "5caf1087e84d99b3f40f28dee5db9ca1", "rental_uris": {"android": "https://dc.lft.to/lastmile_qr_scan", "ios": "https://dc.lft.to/lastmile_qr_scan"}, "name": "5caf1087e84d99b3f40f28dee5db9ca1", "is_reserved": 0}, {"is_disabled": 0, "fusion_lon": 0.0, "fusion_lat": 0.0, "lat": 38.999352, "type": "electric_bike", "lon": -77.0012285, "bike_id": "9275c2bb44f266b26f44eb4b70c14228", "rental_uris": {"android": "https://dc.lft.to/lastmile_qr_scan", "ios": "https://dc.lft.to/lastmile_qr_scan"}, "name": "9275c2bb44f266b26f44eb4b70c14228", "is_reserved": 0}, {"is_disabled": 0, "fusion_lon": 0.0, "fusion_lat": 0.0, "lat": 38.85549683333333, "type": "electric_bike", "lon": -77.10722, "bike_id": "b9614c99f924d20a487d1431bd67840e", "rental_uris": {"android": "https://dc.lft.to/lastmile_qr_scan", "ios": "https://dc.lft.to/lastmile_qr_scan"}, "name": "b9614c99f924d20a487d1431bd67840e", "is_reserved": 0}, {"is_disabled": 0, "fusion_lon": 0.0, "fusion_lat": 0.0, "lat": 38.914040666666665, "type": "electric_scooter", "lon": -77.026699, "bike_id": "05a53c88f5504dbba54b8a75da86ba8c", "rental_uris": {"android": "https://dc.lft.to/lastmile_qr_scan", "ios": "https://dc.lft.to/lastmile_qr_scan"}, "name": "05a53c88f5504dbba54b8a75da86ba8c", "is_reserved": 0}, {"is_disabled": 0, "fusion_lon": 0.0, "fusion_lat": 0.0, "lat": 38.9311425, "type": "electric_scooter", "lon": -77.03502183333333, "bike_id": "2907ad61296cb7c5df1df287fe4af78d", "rental_uris": {"android": "https://dc.lft.to/lastmile_qr_scan", "ios": "https://dc.lft.to/lastmile_qr_scan"}, "name": "2907ad61296cb7c5df1df287fe4af78d", "is_reserved": 0}, {"is_disabled": 0, "fusion_lon": 0.0, "fusion_lat": 0.0, "lat": 38.86360533333333, "type": "electric_scooter", "lon": -76.990652, "bike_id": "6ec7a318584e72d2ae82d894c7810aa7", "rental_uris": {"android": "https://dc.lft.to/lastmile_qr_scan", "ios": "https://dc.lft.to/lastmile_qr_scan"}, "name": "6ec7a318584e72d2ae82d894c7810aa7", "is_reserved": 0}, {"is_disabled": 0, "fusion_lon": 0.0, "fusion_lat": 0.0, "lat": 38.9193895, "type": "electric_scooter", "lon": -77.08134066666666, "bike_id": "26399866cbd429cd63ae8d06affe1e56", "rental_uris": {"android": "https://dc.lft.to/lastmile_qr_scan", "ios": "https://dc.lft.to/lastmile_qr_scan"}, "name": "26399866cbd429cd63ae8d06affe1e56", "is_reserved": 0}, {"is_disabled": 0, "fusion_lon": 0.0, "fusion_lat": 0.0, "lat": 38.911780666666665, "type": "electric_scooter", "lon": -77.00452233333333, "bike_id": "0a72f047e72938deaffdbcc3584a3fc0", "rental_uris": {"android": "https://dc.lft.to/lastmile_qr_scan", "ios": "https://dc.lft.to/lastmile_qr_scan"}, "name": "0a72f047e72938deaffdbcc3584a3fc0", "is_reserved": 0}, {"is_disabled": 0, "fusion_lon": 0.0, "fusion_lat": 0.0, "lat": 38.88028466666667, "type": "electric_scooter", "lon": -76.931035, "bike_id": "d30a84edc2a43e3cc8aa128e28332719", "rental_uris": {"android": "https://dc.lft.to/lastmile_qr_scan", "ios": "https://dc.lft.to/lastmile_qr_scan"}, "name": "d30a84edc2a43e3cc8aa128e28332719", "is_reserved": 0}, {"is_disabled": 0, "fusion_lon": 0.0, "fusion_lat": 0.0, "lat": 38.933297, "type": "electric_scooter", "lon": -77.08191766666667, "bike_id": "5a7d9c1c294eb91d30730565ed293fbd", "rental_uris": {"android": "https://dc.lft.to/lastmile_qr_scan", "ios": "https://dc.lft.to/lastmile_qr_scan"}, "name": "5a7d9c1c294eb91d30730565ed293fbd", "is_reserved": 0}, {"is_disabled": 0, "fusion_lon": 0.0, "fusion_lat": 0.0, "lat": 38.930108833333335, "type": "electric_scooter", "lon": -77.03269183333333, "bike_id": "ff1b07bf755b12ecdec9f50fce9976e4", "rental_uris": {"android": "https://dc.lft.to/lastmile_qr_scan", "ios": "https://dc.lft.to/lastmile_qr_scan"}, "name": "ff1b07bf755b12ecdec9f50fce9976e4", "is_reserved": 0}, {"is_disabled": 0, "fusion_lon": 0.0, "fusion_lat": 0.0, "lat": 38.921049333333336, "type": "electric_scooter", "lon": -77.04356666666666, "bike_id": "45eacabf8fc53be9f68a9026b0111bf5", "rental_uris": {"android": "https://dc.lft.to/lastmile_qr_scan", "ios": "https://dc.lft.to/lastmile_qr_scan"}, "name": "45eacabf8fc53be9f68a9026b0111bf5", "is_reserved": 0}, {"is_disabled": 0, "fusion_lon": 0.0, "fusion_lat": 0.0, "lat": 38.85799316666667, "type": "electric_bike", "lon": -76.98746933333334, "bike_id": "ccc2a5cca0c849b33964be6df9d7ac32", "rental_uris": {"android": "https://dc.lft.to/lastmile_qr_scan", "ios": "https://dc.lft.to/lastmile_qr_scan"}, "name": "ccc2a5cca0c849b33964be6df9d7ac32", "is_reserved": 0}, {"is_disabled": 0, "fusion_lon": 0.0, "fusion_lat": 0.0, "lat": 38.90439083333333, "type": "electric_scooter", "lon": -77.0436085, "bike_id": "2dcb82168ef7faeb73ec4143607f5c80", "rental_uris": {"android": "https://dc.lft.to/lastmile_qr_scan", "ios": "https://dc.lft.to/lastmile_qr_scan"}, "name": "2dcb82168ef7faeb73ec4143607f5c80", "is_reserved": 0}, {"is_disabled": 0, "fusion_lon": 0.0, "fusion_lat": 0.0, "lat": 38.90277666666667, "type": "electric_scooter", "lon": -77.03440066666667, "bike_id": "295f54579a45d1c8d44ae1c791d7caac", "rental_uris": {"android": "https://dc.lft.to/lastmile_qr_scan", "ios": "https://dc.lft.to/lastmile_qr_scan"}, "name": "295f54579a45d1c8d44ae1c791d7caac", "is_reserved": 0}, {"is_disabled": 0, "fusion_lon": 0.0, "fusion_lat": 0.0, "lat": 38.984788333333334, "type": "electric_scooter", "lon": -77.02646216666666, "bike_id": "cdc499e599c5e3f069d2469cf2a85053", "rental_uris": {"android": "https://dc.lft.to/lastmile_qr_scan", "ios": "https://dc.lft.to/lastmile_qr_scan"}, "name": "cdc499e599c5e3f069d2469cf2a85053", "is_reserved": 0}, {"is_disabled": 0, "fusion_lon": 0.0, "fusion_lat": 0.0, "lat": 38.91115716666667, "type": "electric_scooter", "lon": -76.997731, "bike_id": "e54b99967a504faee27ed5b4facf99cf", "rental_uris": {"android": "https://dc.lft.to/lastmile_qr_scan", "ios": "https://dc.lft.to/lastmile_qr_scan"}, "name": "e54b99967a504faee27ed5b4facf99cf", "is_reserved": 0}, {"is_disabled": 0, "fusion_lon": 0.0, "fusion_lat": 0.0, "lat": 38.920368, "type": "electric_scooter", "lon": -77.04182, "bike_id": "deadfbce8dc6c345be02a516ad09f32f", "rental_uris": {"android": "https://dc.lft.to/lastmile_qr_scan", "ios": "https://dc.lft.to/lastmile_qr_scan"}, "name": "deadfbce8dc6c345be02a516ad09f32f", "is_reserved": 0}, {"is_disabled": 0, "fusion_lon": 0.0, "fusion_lat": 0.0, "lat": 38.91153933333333, "type": "electric_scooter", "lon": -77.087876, "bike_id": "cd74ef7f43dd1f1b0d5e7dab7e8b0c41", "rental_uris": {"android": "https://dc.lft.to/lastmile_qr_scan", "ios": "https://dc.lft.to/lastmile_qr_scan"}, "name": "cd74ef7f43dd1f1b0d5e7dab7e8b0c41", "is_reserved": 0}, {"is_disabled": 0, "fusion_lon": 0.0, "fusion_lat": 0.0, "lat": 38.915491, "type": "electric_scooter", "lon": -77.03854116666666, "bike_id": "a9dde3936e530a6b934fa91e982557be", "rental_uris": {"android": "https://dc.lft.to/lastmile_qr_scan", "ios": "https://dc.lft.to/lastmile_qr_scan"}, "name": "a9dde3936e530a6b934fa91e982557be", "is_reserved": 0}, {"is_disabled": 0, "fusion_lon": 0.0, "fusion_lat": 0.0, "lat": 38.92109166666667, "type": "electric_scooter", "lon": -77.03114433333333, "bike_id": "d971c62198831c8800fdd6bb0fc137b8", "rental_uris": {"android": "https://dc.lft.to/lastmile_qr_scan", "ios": "https://dc.lft.to/lastmile_qr_scan"}, "name": "d971c62198831c8800fdd6bb0fc137b8", "is_reserved": 0}, {"is_disabled": 0, "fusion_lon": 0.0, "fusion_lat": 0.0, "lat": 38.932531833333336, "type": "electric_scooter", "lon": -77.0325855, "bike_id": "44a3f6e6991d4af9e8bc8b1ecf766803", "rental_uris": {"android": "https://dc.lft.to/lastmile_qr_scan", "ios": "https://dc.lft.to/lastmile_qr_scan"}, "name": "44a3f6e6991d4af9e8bc8b1ecf766803", "is_reserved": 0}, {"is_disabled": 0, "fusion_lon": 0.0, "fusion_lat": 0.0, "lat": 38.90635366666667, "type": "electric_scooter", "lon": -77.05139933333334, "bike_id": "ee80d0aba7e4590bac0925d27c41e522", "rental_uris": {"android": "https://dc.lft.to/lastmile_qr_scan", "ios": "https://dc.lft.to/lastmile_qr_scan"}, "name": "ee80d0aba7e4590bac0925d27c41e522", "is_reserved": 0}, {"is_disabled": 0, "fusion_lon": 0.0, "fusion_lat": 0.0, "lat": 38.966500333333336, "type": "electric_bike", "lon": -76.9302225, "bike_id": "1568dc997c0ea96ed04e3c504610ebca", "rental_uris": {"android": "https://dc.lft.to/lastmile_qr_scan", "ios": "https://dc.lft.to/lastmile_qr_scan"}, "name": "1568dc997c0ea96ed04e3c504610ebca", "is_reserved": 0}, {"is_disabled": 0, "fusion_lon": 0.0, "fusion_lat": 0.0, "lat": 38.92508616666667, "type": "electric_scooter", "lon": -77.0388175, "bike_id": "14ec91c0f4f151c9f2931f743200ee0e", "rental_uris": {"android": "https://dc.lft.to/lastmile_qr_scan", "ios": "https://dc.lft.to/lastmile_qr_scan"}, "name": "14ec91c0f4f151c9f2931f743200ee0e", "is_reserved": 0}, {"is_disabled": 0, "fusion_lon": 0.0, "fusion_lat": 0.0, "lat": 38.87983466666667, "type": "electric_bike", "lon": -76.91595133333334, "bike_id": "d6e0a3122c476d81c95fda2e442cc134", "rental_uris": {"android": "https://dc.lft.to/lastmile_qr_scan", "ios": "https://dc.lft.to/lastmile_qr_scan"}, "name": "d6e0a3122c476d81c95fda2e442cc134", "is_reserved": 0}, {"is_disabled": 0, "fusion_lon": 0.0, "fusion_lat": 0.0, "lat": 38.898433, "type": "electric_scooter", "lon": -77.028237, "bike_id": "317c29773a520f66597adcdeb28bc90b", "rental_uris": {"android": "https://dc.lft.to/lastmile_qr_scan", "ios": "https://dc.lft.to/lastmile_qr_scan"}, "name": "317c29773a520f66597adcdeb28bc90b", "is_reserved": 0}, {"is_disabled": 0, "fusion_lon": 0.0, "fusion_lat": 0.0, "lat": 38.89371383333334, "type": "electric_scooter", "lon": -76.94995183333333, "bike_id": "70e2775703832fc3385f788363d8219d", "rental_uris": {"android": "https://dc.lft.to/lastmile_qr_scan", "ios": "https://dc.lft.to/lastmile_qr_scan"}, "name": "70e2775703832fc3385f788363d8219d", "is_reserved": 0}, {"is_disabled": 0, "fusion_lon": 0.0, "fusion_lat": 0.0, "lat": 38.8925515, "type": "electric_scooter", "lon": -77.0279855, "bike_id": "6dd9be8a23d93544293534740305855e", "rental_uris": {"android": "https://dc.lft.to/lastmile_qr_scan", "ios": "https://dc.lft.to/lastmile_qr_scan"}, "name": "6dd9be8a23d93544293534740305855e", "is_reserved": 0}, {"is_disabled": 0, "fusion_lon": 0.0, "fusion_lat": 0.0, "lat": 38.887381833333336, "type": "electric_scooter", "lon": -77.003169, "bike_id": "575ec5e672b21d3cce92b590f2a2fa81", "rental_uris": {"android": "https://dc.lft.to/lastmile_qr_scan", "ios": "https://dc.lft.to/lastmile_qr_scan"}, "name": "575ec5e672b21d3cce92b590f2a2fa81", "is_reserved": 0}, {"is_disabled": 0, "fusion_lon": 0.0, "fusion_lat": 0.0, "lat": 38.90213216666667, "type": "electric_scooter", "lon": -77.045718, "bike_id": "98eeb95cc8475ea3ae811c225996c4d9", "rental_uris": {"android": "https://dc.lft.to/lastmile_qr_scan", "ios": "https://dc.lft.to/lastmile_qr_scan"}, "name": "98eeb95cc8475ea3ae811c225996c4d9", "is_reserved": 0}, {"is_disabled": 0, "fusion_lon": 0.0, "fusion_lat": 0.0, "lat": 38.934535833333335, "type": "electric_scooter", "lon": -77.07239216666666, "bike_id": "0f9a7f899bb9dfaae848a1a762508db1", "rental_uris": {"android": "https://dc.lft.to/lastmile_qr_scan", "ios": "https://dc.lft.to/lastmile_qr_scan"}, "name": "0f9a7f899bb9dfaae848a1a762508db1", "is_reserved": 0}, {"is_disabled": 0, "fusion_lon": 0.0, "fusion_lat": 0.0, "lat": 38.916931166666664, "type": "electric_scooter", "lon": -77.03816633333334, "bike_id": "7c5923a9b3117bf96bc6eb32ba84f644", "rental_uris": {"android": "https://dc.lft.to/lastmile_qr_scan", "ios": "https://dc.lft.to/lastmile_qr_scan"}, "name": "7c5923a9b3117bf96bc6eb32ba84f644", "is_reserved": 0}, {"is_disabled": 0, "fusion_lon": 0.0, "fusion_lat": 0.0, "lat": 38.92858016666667, "type": "electric_scooter", "lon": -77.01409016666666, "bike_id": "1ace49e4b8e439bf45a10ef3ca1ff26b", "rental_uris": {"android": "https://dc.lft.to/lastmile_qr_scan", "ios": "https://dc.lft.to/lastmile_qr_scan"}, "name": "1ace49e4b8e439bf45a10ef3ca1ff26b", "is_reserved": 0}, {"is_disabled": 0, "fusion_lon": 0.0, "fusion_lat": 0.0, "lat": 38.90045, "type": "electric_scooter", "lon": -76.92267666666666, "bike_id": "0592502cbc39ec195033376670f44f89", "rental_uris": {"android": "https://dc.lft.to/lastmile_qr_scan", "ios": "https://dc.lft.to/lastmile_qr_scan"}, "name": "0592502cbc39ec195033376670f44f89", "is_reserved": 0}, {"is_disabled": 0, "fusion_lon": 0.0, "fusion_lat": 0.0, "lat": 38.8955825, "type": "electric_scooter", "lon": -77.0467315, "bike_id": "cbf70edbc04569ef7b10818dc0936f1e", "rental_uris": {"android": "https://dc.lft.to/lastmile_qr_scan", "ios": "https://dc.lft.to/lastmile_qr_scan"}, "name": "cbf70edbc04569ef7b10818dc0936f1e", "is_reserved": 0}, {"is_disabled": 0, "fusion_lon": 0.0, "fusion_lat": 0.0, "lat": 38.8624835, "type": "electric_scooter", "lon": -76.99500766666667, "bike_id": "850ccf177419cf76e2e931390dcd9510", "rental_uris": {"android": "https://dc.lft.to/lastmile_qr_scan", "ios": "https://dc.lft.to/lastmile_qr_scan"}, "name": "850ccf177419cf76e2e931390dcd9510", "is_reserved": 0}, {"is_disabled": 0, "fusion_lon": 0.0, "fusion_lat": 0.0, "lat": 38.9182165, "type": "electric_scooter", "lon": -77.03440266666667, "bike_id": "424214fb599d5a2b8f893ddd9fb12ec3", "rental_uris": {"android": "https://dc.lft.to/lastmile_qr_scan", "ios": "https://dc.lft.to/lastmile_qr_scan"}, "name": "424214fb599d5a2b8f893ddd9fb12ec3", "is_reserved": 0}, {"is_disabled": 0, "fusion_lon": 0.0, "fusion_lat": 0.0, "lat": 38.93530116666667, "type": "electric_scooter", "lon": -77.02379933333333, "bike_id": "0ba57da768fa63795f1dd8c74c91616a", "rental_uris": {"android": "https://dc.lft.to/lastmile_qr_scan", "ios": "https://dc.lft.to/lastmile_qr_scan"}, "name": "0ba57da768fa63795f1dd8c74c91616a", "is_reserved": 0}, {"is_disabled": 0, "fusion_lon": 0.0, "fusion_lat": 0.0, "lat": 38.930517, "type": "electric_scooter", "lon": -77.02331016666666, "bike_id": "4b7c81cbb20a746cc5c4442afb1f0f37", "rental_uris": {"android": "https://dc.lft.to/lastmile_qr_scan", "ios": "https://dc.lft.to/lastmile_qr_scan"}, "name": "4b7c81cbb20a746cc5c4442afb1f0f37", "is_reserved": 0}, {"is_disabled": 0, "fusion_lon": 0.0, "fusion_lat": 0.0, "lat": 38.90983516666667, "type": "electric_scooter", "lon": -77.02177916666666, "bike_id": "c854b00774927477266f8a9a72ceb292", "rental_uris": {"android": "https://dc.lft.to/lastmile_qr_scan", "ios": "https://dc.lft.to/lastmile_qr_scan"}, "name": "c854b00774927477266f8a9a72ceb292", "is_reserved": 0}, {"is_disabled": 0, "fusion_lon": 0.0, "fusion_lat": 0.0, "lat": 38.93671966666667, "type": "electric_bike", "lon": -76.95206733333333, "bike_id": "4f0ef6aa308d56ec9bba747cefdb94d8", "rental_uris": {"android": "https://dc.lft.to/lastmile_qr_scan", "ios": "https://dc.lft.to/lastmile_qr_scan"}, "name": "4f0ef6aa308d56ec9bba747cefdb94d8", "is_reserved": 0}, {"is_disabled": 0, "fusion_lon": 0.0, "fusion_lat": 0.0, "lat": 38.934811833333335, "type": "electric_scooter", "lon": -77.07265133333334, "bike_id": "f19c8aa867ff53ef655ac5bc575d2e7d", "rental_uris": {"android": "https://dc.lft.to/lastmile_qr_scan", "ios": "https://dc.lft.to/lastmile_qr_scan"}, "name": "f19c8aa867ff53ef655ac5bc575d2e7d", "is_reserved": 0}, {"is_disabled": 0, "fusion_lon": 0.0, "fusion_lat": 0.0, "lat": 38.88577516666667, "type": "electric_scooter", "lon": -76.919078, "bike_id": "8df32ae23bcc65cce68ecb40104af61e", "rental_uris": {"android": "https://dc.lft.to/lastmile_qr_scan", "ios": "https://dc.lft.to/lastmile_qr_scan"}, "name": "8df32ae23bcc65cce68ecb40104af61e", "is_reserved": 0}, {"is_disabled": 0, "fusion_lon": 0.0, "fusion_lat": 0.0, "lat": 38.91546133333333, "type": "electric_scooter", "lon": -77.038564, "bike_id": "9b1bd8f7c658e2ce895c994bbfe431de", "rental_uris": {"android": "https://dc.lft.to/lastmile_qr_scan", "ios": "https://dc.lft.to/lastmile_qr_scan"}, "name": "9b1bd8f7c658e2ce895c994bbfe431de", "is_reserved": 0}, {"is_disabled": 0, "fusion_lon": 0.0, "fusion_lat": 0.0, "lat": 38.910342166666666, "type": "electric_scooter", "lon": -77.04258466666667, "bike_id": "fb98f8244fa4aa7f619fc153b94dfe3c", "rental_uris": {"android": "https://dc.lft.to/lastmile_qr_scan", "ios": "https://dc.lft.to/lastmile_qr_scan"}, "name": "fb98f8244fa4aa7f619fc153b94dfe3c", "is_reserved": 0}, {"is_disabled": 0, "fusion_lon": 0.0, "fusion_lat": 0.0, "lat": 38.9073775, "type": "electric_scooter", "lon": -77.03302183333334, "bike_id": "bfbd109ef7d1892bf61e41aec96b8fd4", "rental_uris": {"android": "https://dc.lft.to/lastmile_qr_scan", "ios": "https://dc.lft.to/lastmile_qr_scan"}, "name": "bfbd109ef7d1892bf61e41aec96b8fd4", "is_reserved": 0}, {"is_disabled": 0, "fusion_lon": 0.0, "fusion_lat": 0.0, "lat": 39.03882566666667, "type": "electric_bike", "lon": -77.10909, "bike_id": "f4ce4a931f8309718164551aede0de73", "rental_uris": {"android": "https://dc.lft.to/lastmile_qr_scan", "ios": "https://dc.lft.to/lastmile_qr_scan"}, "name": "f4ce4a931f8309718164551aede0de73", "is_reserved": 0}, {"is_disabled": 0, "fusion_lon": 0.0, "fusion_lat": 0.0, "lat": 38.92260616666667, "type": "electric_scooter", "lon": -77.0368235, "bike_id": "d0c1517066f93f43fb5a66b0041f4864", "rental_uris": {"android": "https://dc.lft.to/lastmile_qr_scan", "ios": "https://dc.lft.to/lastmile_qr_scan"}, "name": "d0c1517066f93f43fb5a66b0041f4864", "is_reserved": 0}, {"is_disabled": 0, "fusion_lon": 0.0, "fusion_lat": 0.0, "lat": 38.992616, "type": "electric_scooter", "lon": -77.03611966666666, "bike_id": "75d8bdcd114c3f9df8e4f24ab4fb0f7f", "rental_uris": {"android": "https://dc.lft.to/lastmile_qr_scan", "ios": "https://dc.lft.to/lastmile_qr_scan"}, "name": "75d8bdcd114c3f9df8e4f24ab4fb0f7f", "is_reserved": 0}, {"is_disabled": 0, "fusion_lon": 0.0, "fusion_lat": 0.0, "lat": 38.907509833333336, "type": "electric_scooter", "lon": -77.04162633333334, "bike_id": "0bc6f958d22b44afe63d41fd7d20ea75", "rental_uris": {"android": "https://dc.lft.to/lastmile_qr_scan", "ios": "https://dc.lft.to/lastmile_qr_scan"}, "name": "0bc6f958d22b44afe63d41fd7d20ea75", "is_reserved": 0}, {"is_disabled": 0, "fusion_lon": 0.0, "fusion_lat": 0.0, "lat": 38.917061833333335, "type": "electric_scooter", "lon": -77.051269, "bike_id": "a15da4e2db824f169bc0917e5c9af9c8", "rental_uris": {"android": "https://dc.lft.to/lastmile_qr_scan", "ios": "https://dc.lft.to/lastmile_qr_scan"}, "name": "a15da4e2db824f169bc0917e5c9af9c8", "is_reserved": 0}, {"is_disabled": 0, "fusion_lon": 0.0, "fusion_lat": 0.0, "lat": 38.90952383333333, "type": "electric_scooter", "lon": -77.047276, "bike_id": "138cc403f505071421f5ea06ed2348e2", "rental_uris": {"android": "https://dc.lft.to/lastmile_qr_scan", "ios": "https://dc.lft.to/lastmile_qr_scan"}, "name": "138cc403f505071421f5ea06ed2348e2", "is_reserved": 0}, {"is_disabled": 0, "fusion_lon": 0.0, "fusion_lat": 0.0, "lat": 38.91406583333333, "type": "electric_scooter", "lon": -77.04355116666666, "bike_id": "8b76792ae3ebff4846fb3591f0e2d54a", "rental_uris": {"android": "https://dc.lft.to/lastmile_qr_scan", "ios": "https://dc.lft.to/lastmile_qr_scan"}, "name": "8b76792ae3ebff4846fb3591f0e2d54a", "is_reserved": 0}, {"is_disabled": 0, "fusion_lon": 0.0, "fusion_lat": 0.0, "lat": 38.91346133333333, "type": "electric_scooter", "lon": -77.0416035, "bike_id": "3afa1a149432146dead9541b14337862", "rental_uris": {"android": "https://dc.lft.to/lastmile_qr_scan", "ios": "https://dc.lft.to/lastmile_qr_scan"}, "name": "3afa1a149432146dead9541b14337862", "is_reserved": 0}, {"is_disabled": 0, "fusion_lon": 0.0, "fusion_lat": 0.0, "lat": 38.894313, "type": "electric_scooter", "lon": -77.0108885, "bike_id": "e24fa44cf3e84da0c97b56fe7a0ce86e", "rental_uris": {"android": "https://dc.lft.to/lastmile_qr_scan", "ios": "https://dc.lft.to/lastmile_qr_scan"}, "name": "e24fa44cf3e84da0c97b56fe7a0ce86e", "is_reserved": 0}, {"is_disabled": 0, "fusion_lon": 0.0, "fusion_lat": 0.0, "lat": 38.9202555, "type": "electric_scooter", "lon": -77.012857, "bike_id": "277f3edf419483ae06d487e36b872297", "rental_uris": {"android": "https://dc.lft.to/lastmile_qr_scan", "ios": "https://dc.lft.to/lastmile_qr_scan"}, "name": "277f3edf419483ae06d487e36b872297", "is_reserved": 0}, {"is_disabled": 0, "fusion_lon": 0.0, "fusion_lat": 0.0, "lat": 38.8133415, "type": "electric_bike", "lon": -77.050869, "bike_id": "9d691d9a376ffb6d0ef9f3f8a2435d9f", "rental_uris": {"android": "https://dc.lft.to/lastmile_qr_scan", "ios": "https://dc.lft.to/lastmile_qr_scan"}, "name": "9d691d9a376ffb6d0ef9f3f8a2435d9f", "is_reserved": 0}, {"is_disabled": 0, "fusion_lon": 0.0, "fusion_lat": 0.0, "lat": 38.9725995, "type": "electric_bike", "lon": -76.991662, "bike_id": "9155cec18cef3ce39c024569becf4212", "rental_uris": {"android": "https://dc.lft.to/lastmile_qr_scan", "ios": "https://dc.lft.to/lastmile_qr_scan"}, "name": "9155cec18cef3ce39c024569becf4212", "is_reserved": 0}, {"is_disabled": 0, "fusion_lon": 0.0, "fusion_lat": 0.0, "lat": 38.899762, "type": "electric_scooter", "lon": -77.01613566666667, "bike_id": "f90d4abfd60cb82daa756a37dfc9dfe8", "rental_uris": {"android": "https://dc.lft.to/lastmile_qr_scan", "ios": "https://dc.lft.to/lastmile_qr_scan"}, "name": "f90d4abfd60cb82daa756a37dfc9dfe8", "is_reserved": 0}, {"is_disabled": 0, "fusion_lon": 0.0, "fusion_lat": 0.0, "lat": 38.89642883333333, "type": "electric_scooter", "lon": -77.00931683333333, "bike_id": "5cf79e15a2c8161c075b7793cbb5b5ad", "rental_uris": {"android": "https://dc.lft.to/lastmile_qr_scan", "ios": "https://dc.lft.to/lastmile_qr_scan"}, "name": "5cf79e15a2c8161c075b7793cbb5b5ad", "is_reserved": 0}, {"is_disabled": 0, "fusion_lon": 0.0, "fusion_lat": 0.0, "lat": 38.896249, "type": "electric_scooter", "lon": -77.00921916666667, "bike_id": "282a030467e606589f825fd75004df4a", "rental_uris": {"android": "https://dc.lft.to/lastmile_qr_scan", "ios": "https://dc.lft.to/lastmile_qr_scan"}, "name": "282a030467e606589f825fd75004df4a", "is_reserved": 0}, {"is_disabled": 0, "fusion_lon": 0.0, "fusion_lat": 0.0, "lat": 38.83937516666667, "type": "electric_bike", "lon": -77.07898466666667, "bike_id": "52fda1481b0ae923b5a2cd24ab82079a", "rental_uris": {"android": "https://dc.lft.to/lastmile_qr_scan", "ios": "https://dc.lft.to/lastmile_qr_scan"}, "name": "52fda1481b0ae923b5a2cd24ab82079a", "is_reserved": 0}, {"is_disabled": 0, "fusion_lon": 0.0, "fusion_lat": 0.0, "lat": 38.95228783333334, "type": "electric_scooter", "lon": -77.02758283333333, "bike_id": "8ec598bbd272c451f510cc15defb2511", "rental_uris": {"android": "https://dc.lft.to/lastmile_qr_scan", "ios": "https://dc.lft.to/lastmile_qr_scan"}, "name": "8ec598bbd272c451f510cc15defb2511", "is_reserved": 0}, {"is_disabled": 0, "fusion_lon": 0.0, "fusion_lat": 0.0, "lat": 38.922298166666664, "type": "electric_scooter", "lon": -77.02334716666667, "bike_id": "59b32b80be7e105aa9cc17699a9480cc", "rental_uris": {"android": "https://dc.lft.to/lastmile_qr_scan", "ios": "https://dc.lft.to/lastmile_qr_scan"}, "name": "59b32b80be7e105aa9cc17699a9480cc", "is_reserved": 0}, {"is_disabled": 0, "fusion_lon": 0.0, "fusion_lat": 0.0, "lat": 38.914287, "type": "electric_scooter", "lon": -77.02814966666666, "bike_id": "d562a7c763e1f07e66f9f3ffc36decb6", "rental_uris": {"android": "https://dc.lft.to/lastmile_qr_scan", "ios": "https://dc.lft.to/lastmile_qr_scan"}, "name": "d562a7c763e1f07e66f9f3ffc36decb6", "is_reserved": 0}, {"is_disabled": 0, "fusion_lon": 0.0, "fusion_lat": 0.0, "lat": 38.9225995, "type": "electric_scooter", "lon": -77.07130616666667, "bike_id": "bce8c5f8c8baf026d5b7c5a23713a6c9", "rental_uris": {"android": "https://dc.lft.to/lastmile_qr_scan", "ios": "https://dc.lft.to/lastmile_qr_scan"}, "name": "bce8c5f8c8baf026d5b7c5a23713a6c9", "is_reserved": 0}, {"is_disabled": 0, "fusion_lon": 0.0, "fusion_lat": 0.0, "lat": 38.914784166666664, "type": "electric_scooter", "lon": -77.0428185, "bike_id": "d101cefe2943cb353227fb17fc6ff7c0", "rental_uris": {"android": "https://dc.lft.to/lastmile_qr_scan", "ios": "https://dc.lft.to/lastmile_qr_scan"}, "name": "d101cefe2943cb353227fb17fc6ff7c0", "is_reserved": 0}, {"is_disabled": 0, "fusion_lon": 0.0, "fusion_lat": 0.0, "lat": 38.907774333333336, "type": "electric_scooter", "lon": -76.94126783333333, "bike_id": "1afd9044813bd58fee0a6ad96bef2295", "rental_uris": {"android": "https://dc.lft.to/lastmile_qr_scan", "ios": "https://dc.lft.to/lastmile_qr_scan"}, "name": "1afd9044813bd58fee0a6ad96bef2295", "is_reserved": 0}, {"is_disabled": 0, "fusion_lon": 0.0, "fusion_lat": 0.0, "lat": 38.91961033333333, "type": "electric_scooter", "lon": -77.000479, "bike_id": "ed4e56f8dbfadb62471a3add512e3020", "rental_uris": {"android": "https://dc.lft.to/lastmile_qr_scan", "ios": "https://dc.lft.to/lastmile_qr_scan"}, "name": "ed4e56f8dbfadb62471a3add512e3020", "is_reserved": 0}, {"is_disabled": 0, "fusion_lon": 0.0, "fusion_lat": 0.0, "lat": 38.898451333333334, "type": "electric_scooter", "lon": -77.02920166666667, "bike_id": "a15cc6ac43a48e0c914449e724805a38", "rental_uris": {"android": "https://dc.lft.to/lastmile_qr_scan", "ios": "https://dc.lft.to/lastmile_qr_scan"}, "name": "a15cc6ac43a48e0c914449e724805a38", "is_reserved": 0}, {"is_disabled": 0, "fusion_lon": 0.0, "fusion_lat": 0.0, "lat": 38.93348833333334, "type": "electric_scooter", "lon": -77.02857733333333, "bike_id": "1a1d4ea0a63042884692b0f8f48ae2e5", "rental_uris": {"android": "https://dc.lft.to/lastmile_qr_scan", "ios": "https://dc.lft.to/lastmile_qr_scan"}, "name": "1a1d4ea0a63042884692b0f8f48ae2e5", "is_reserved": 0}, {"is_disabled": 0, "fusion_lon": 0.0, "fusion_lat": 0.0, "lat": 39.105653333333336, "type": "electric_bike", "lon": -77.15268733333333, "bike_id": "0c84075b0359feb616d0d7bdea467f46", "rental_uris": {"android": "https://dc.lft.to/lastmile_qr_scan", "ios": "https://dc.lft.to/lastmile_qr_scan"}, "name": "0c84075b0359feb616d0d7bdea467f46", "is_reserved": 0}, {"is_disabled": 0, "fusion_lon": 0.0, "fusion_lat": 0.0, "lat": 38.92891866666667, "type": "electric_scooter", "lon": -76.98455766666666, "bike_id": "3fa9e5ff5cb5fc8ec7e6219c41d6b3a3", "rental_uris": {"android": "https://dc.lft.to/lastmile_qr_scan", "ios": "https://dc.lft.to/lastmile_qr_scan"}, "name": "3fa9e5ff5cb5fc8ec7e6219c41d6b3a3", "is_reserved": 0}, {"is_disabled": 0, "fusion_lon": 0.0, "fusion_lat": 0.0, "lat": 38.911085166666666, "type": "electric_scooter", "lon": -77.02012833333333, "bike_id": "c72e88a348154ddef323599ad93403cf", "rental_uris": {"android": "https://dc.lft.to/lastmile_qr_scan", "ios": "https://dc.lft.to/lastmile_qr_scan"}, "name": "c72e88a348154ddef323599ad93403cf", "is_reserved": 0}, {"is_disabled": 0, "fusion_lon": 0.0, "fusion_lat": 0.0, "lat": 38.9244465, "type": "electric_bike", "lon": -76.96832383333333, "bike_id": "29f6b0fe019152b501f5fe9a1e478bfb", "rental_uris": {"android": "https://dc.lft.to/lastmile_qr_scan", "ios": "https://dc.lft.to/lastmile_qr_scan"}, "name": "29f6b0fe019152b501f5fe9a1e478bfb", "is_reserved": 0}, {"is_disabled": 0, "fusion_lon": 0.0, "fusion_lat": 0.0, "lat": 38.913356666666665, "type": "electric_scooter", "lon": -77.048601, "bike_id": "35ae4505124a5dac7b50b040761606b5", "rental_uris": {"android": "https://dc.lft.to/lastmile_qr_scan", "ios": "https://dc.lft.to/lastmile_qr_scan"}, "name": "35ae4505124a5dac7b50b040761606b5", "is_reserved": 0}, {"is_disabled": 0, "fusion_lon": 0.0, "fusion_lat": 0.0, "lat": 38.921898166666665, "type": "electric_scooter", "lon": -76.99755966666666, "bike_id": "23fa3158347aaf4667cf8b097c5d212f", "rental_uris": {"android": "https://dc.lft.to/lastmile_qr_scan", "ios": "https://dc.lft.to/lastmile_qr_scan"}, "name": "23fa3158347aaf4667cf8b097c5d212f", "is_reserved": 0}, {"is_disabled": 0, "fusion_lon": 0.0, "fusion_lat": 0.0, "lat": 38.91616716666667, "type": "electric_scooter", "lon": -77.03645866666666, "bike_id": "033365eb5642e09e781f9466940eab45", "rental_uris": {"android": "https://dc.lft.to/lastmile_qr_scan", "ios": "https://dc.lft.to/lastmile_qr_scan"}, "name": "033365eb5642e09e781f9466940eab45", "is_reserved": 0}, {"is_disabled": 0, "fusion_lon": 0.0, "fusion_lat": 0.0, "lat": 38.921478, "type": "electric_scooter", "lon": -77.03438216666666, "bike_id": "157d3cee4253834b70503eaf568c17a6", "rental_uris": {"android": "https://dc.lft.to/lastmile_qr_scan", "ios": "https://dc.lft.to/lastmile_qr_scan"}, "name": "157d3cee4253834b70503eaf568c17a6", "is_reserved": 0}, {"is_disabled": 0, "fusion_lon": 0.0, "fusion_lat": 0.0, "lat": 38.90601383333333, "type": "electric_scooter", "lon": -77.06299883333334, "bike_id": "4f91f0f365431716cae4b6e25d7b8ac4", "rental_uris": {"android": "https://dc.lft.to/lastmile_qr_scan", "ios": "https://dc.lft.to/lastmile_qr_scan"}, "name": "4f91f0f365431716cae4b6e25d7b8ac4", "is_reserved": 0}, {"is_disabled": 0, "fusion_lon": 0.0, "fusion_lat": 0.0, "lat": 38.893732166666666, "type": "electric_scooter", "lon": -76.9500055, "bike_id": "9b21b45dd74eb6ef9ff5380d8702db90", "rental_uris": {"android": "https://dc.lft.to/lastmile_qr_scan", "ios": "https://dc.lft.to/lastmile_qr_scan"}, "name": "9b21b45dd74eb6ef9ff5380d8702db90", "is_reserved": 0}, {"is_disabled": 0, "fusion_lon": 0.0, "fusion_lat": 0.0, "lat": 38.89879883333333, "type": "electric_scooter", "lon": -76.93156833333333, "bike_id": "a190a39534fd4c8bfc7d8ebf9d673483", "rental_uris": {"android": "https://dc.lft.to/lastmile_qr_scan", "ios": "https://dc.lft.to/lastmile_qr_scan"}, "name": "a190a39534fd4c8bfc7d8ebf9d673483", "is_reserved": 0}, {"is_disabled": 0, "fusion_lon": 0.0, "fusion_lat": 0.0, "lat": 38.89224133333333, "type": "electric_scooter", "lon": -77.03212616666667, "bike_id": "0b2d0c3eb25f68fd111f1eab0c7a8c0d", "rental_uris": {"android": "https://dc.lft.to/lastmile_qr_scan", "ios": "https://dc.lft.to/lastmile_qr_scan"}, "name": "0b2d0c3eb25f68fd111f1eab0c7a8c0d", "is_reserved": 0}, {"is_disabled": 0, "fusion_lon": 0.0, "fusion_lat": 0.0, "lat": 38.91182033333333, "type": "electric_scooter", "lon": -77.0454105, "bike_id": "d1d22838111ada0db0fe197d1c96c9ca", "rental_uris": {"android": "https://dc.lft.to/lastmile_qr_scan", "ios": "https://dc.lft.to/lastmile_qr_scan"}, "name": "d1d22838111ada0db0fe197d1c96c9ca", "is_reserved": 0}, {"is_disabled": 0, "fusion_lon": 0.0, "fusion_lat": 0.0, "lat": 38.90547933333333, "type": "electric_scooter", "lon": -77.05704783333333, "bike_id": "6df8978f0411ff3995c7e748eb8737dd", "rental_uris": {"android": "https://dc.lft.to/lastmile_qr_scan", "ios": "https://dc.lft.to/lastmile_qr_scan"}, "name": "6df8978f0411ff3995c7e748eb8737dd", "is_reserved": 0}, {"is_disabled": 0, "fusion_lon": 0.0, "fusion_lat": 0.0, "lat": 38.967925, "type": "electric_bike", "lon": -76.95661366666667, "bike_id": "2cb26f374e2352a1342475520edb744c", "rental_uris": {"android": "https://dc.lft.to/lastmile_qr_scan", "ios": "https://dc.lft.to/lastmile_qr_scan"}, "name": "2cb26f374e2352a1342475520edb744c", "is_reserved": 0}, {"is_disabled": 0, "fusion_lon": 0.0, "fusion_lat": 0.0, "lat": 38.8948105, "type": "electric_scooter", "lon": -77.02120466666666, "bike_id": "7d04f58c5630b575389a5da597ed3ec6", "rental_uris": {"android": "https://dc.lft.to/lastmile_qr_scan", "ios": "https://dc.lft.to/lastmile_qr_scan"}, "name": "7d04f58c5630b575389a5da597ed3ec6", "is_reserved": 0}, {"is_disabled": 0, "fusion_lon": 0.0, "fusion_lat": 0.0, "lat": 38.92610366666667, "type": "electric_scooter", "lon": -77.0216175, "bike_id": "dcfdbc24a5dc577af61294dfba92f49f", "rental_uris": {"android": "https://dc.lft.to/lastmile_qr_scan", "ios": "https://dc.lft.to/lastmile_qr_scan"}, "name": "dcfdbc24a5dc577af61294dfba92f49f", "is_reserved": 0}, {"is_disabled": 0, "fusion_lon": 0.0, "fusion_lat": 0.0, "lat": 38.9218095, "type": "electric_scooter", "lon": -77.04233, "bike_id": "9685cb0ccf6175c693f5f85e146042cb", "rental_uris": {"android": "https://dc.lft.to/lastmile_qr_scan", "ios": "https://dc.lft.to/lastmile_qr_scan"}, "name": "9685cb0ccf6175c693f5f85e146042cb", "is_reserved": 0}, {"is_disabled": 0, "fusion_lon": 0.0, "fusion_lat": 0.0, "lat": 38.90137516666667, "type": "electric_scooter", "lon": -77.00070333333333, "bike_id": "f37c6ff5de940bdc02a37b05351ff5b7", "rental_uris": {"android": "https://dc.lft.to/lastmile_qr_scan", "ios": "https://dc.lft.to/lastmile_qr_scan"}, "name": "f37c6ff5de940bdc02a37b05351ff5b7", "is_reserved": 0}, {"is_disabled": 0, "fusion_lon": 0.0, "fusion_lat": 0.0, "lat": 38.91823183333333, "type": "electric_scooter", "lon": -77.02530466666667, "bike_id": "a8694e60f703e1c315cf9511ac8d0765", "rental_uris": {"android": "https://dc.lft.to/lastmile_qr_scan", "ios": "https://dc.lft.to/lastmile_qr_scan"}, "name": "a8694e60f703e1c315cf9511ac8d0765", "is_reserved": 0}, {"is_disabled": 0, "fusion_lon": 0.0, "fusion_lat": 0.0, "lat": 38.919836333333336, "type": "electric_scooter", "lon": -76.9730765, "bike_id": "5be92ca7900fe6188b2a2a9ed7e8e9e8", "rental_uris": {"android": "https://dc.lft.to/lastmile_qr_scan", "ios": "https://dc.lft.to/lastmile_qr_scan"}, "name": "5be92ca7900fe6188b2a2a9ed7e8e9e8", "is_reserved": 0}, {"is_disabled": 0, "fusion_lon": 0.0, "fusion_lat": 0.0, "lat": 38.89371283333333, "type": "electric_scooter", "lon": -76.97817433333333, "bike_id": "bd5cdb3f6db1fa384236d89ce95f2c1e", "rental_uris": {"android": "https://dc.lft.to/lastmile_qr_scan", "ios": "https://dc.lft.to/lastmile_qr_scan"}, "name": "bd5cdb3f6db1fa384236d89ce95f2c1e", "is_reserved": 0}, {"is_disabled": 0, "fusion_lon": 0.0, "fusion_lat": 0.0, "lat": 38.898195, "type": "electric_scooter", "lon": -77.02803866666666, "bike_id": "dc78ccb8716dd3079ffbb74192457c3e", "rental_uris": {"android": "https://dc.lft.to/lastmile_qr_scan", "ios": "https://dc.lft.to/lastmile_qr_scan"}, "name": "dc78ccb8716dd3079ffbb74192457c3e", "is_reserved": 0}, {"is_disabled": 0, "fusion_lon": 0.0, "fusion_lat": 0.0, "lat": 38.89526466666667, "type": "electric_scooter", "lon": -77.0020255, "bike_id": "28dd19ff6180835c8dcd6451909ed97b", "rental_uris": {"android": "https://dc.lft.to/lastmile_qr_scan", "ios": "https://dc.lft.to/lastmile_qr_scan"}, "name": "28dd19ff6180835c8dcd6451909ed97b", "is_reserved": 0}, {"is_disabled": 0, "fusion_lon": 0.0, "fusion_lat": 0.0, "lat": 38.85867116666667, "type": "electric_scooter", "lon": -76.99025166666667, "bike_id": "a0d1aacc4a861b0e66117d647d2e9b64", "rental_uris": {"android": "https://dc.lft.to/lastmile_qr_scan", "ios": "https://dc.lft.to/lastmile_qr_scan"}, "name": "a0d1aacc4a861b0e66117d647d2e9b64", "is_reserved": 0}, {"is_disabled": 0, "fusion_lon": 0.0, "fusion_lat": 0.0, "lat": 38.9603175, "type": "electric_bike", "lon": -76.92708316666666, "bike_id": "396cbe1c3ded4978fe7aa604611e374b", "rental_uris": {"android": "https://dc.lft.to/lastmile_qr_scan", "ios": "https://dc.lft.to/lastmile_qr_scan"}, "name": "396cbe1c3ded4978fe7aa604611e374b", "is_reserved": 0}, {"is_disabled": 0, "fusion_lon": 0.0, "fusion_lat": 0.0, "lat": 38.94040666666667, "type": "electric_scooter", "lon": -77.02898566666667, "bike_id": "09cbe1634d9946d0a07c806687438177", "rental_uris": {"android": "https://dc.lft.to/lastmile_qr_scan", "ios": "https://dc.lft.to/lastmile_qr_scan"}, "name": "09cbe1634d9946d0a07c806687438177", "is_reserved": 0}, {"is_disabled": 0, "fusion_lon": 0.0, "fusion_lat": 0.0, "lat": 38.91698433333333, "type": "electric_scooter", "lon": -77.03778816666667, "bike_id": "95dd994f547925868994f893b3c067b5", "rental_uris": {"android": "https://dc.lft.to/lastmile_qr_scan", "ios": "https://dc.lft.to/lastmile_qr_scan"}, "name": "95dd994f547925868994f893b3c067b5", "is_reserved": 0}, {"is_disabled": 0, "fusion_lon": 0.0, "fusion_lat": 0.0, "lat": 38.9085405, "type": "electric_scooter", "lon": -77.06348083333333, "bike_id": "0ed1a16a00fefdab17f7df4278192c1f", "rental_uris": {"android": "https://dc.lft.to/lastmile_qr_scan", "ios": "https://dc.lft.to/lastmile_qr_scan"}, "name": "0ed1a16a00fefdab17f7df4278192c1f", "is_reserved": 0}, {"is_disabled": 0, "fusion_lon": 0.0, "fusion_lat": 0.0, "lat": 38.92439566666667, "type": "electric_bike", "lon": -76.90755133333333, "bike_id": "52d1e5df447d767f7f0326b1474ac24c", "rental_uris": {"android": "https://dc.lft.to/lastmile_qr_scan", "ios": "https://dc.lft.to/lastmile_qr_scan"}, "name": "52d1e5df447d767f7f0326b1474ac24c", "is_reserved": 0}, {"is_disabled": 0, "fusion_lon": 0.0, "fusion_lat": 0.0, "lat": 38.909309, "type": "electric_scooter", "lon": -77.02813633333334, "bike_id": "9da24b1f7a951ffd43d8d8d9317278ac", "rental_uris": {"android": "https://dc.lft.to/lastmile_qr_scan", "ios": "https://dc.lft.to/lastmile_qr_scan"}, "name": "9da24b1f7a951ffd43d8d8d9317278ac", "is_reserved": 0}, {"is_disabled": 0, "fusion_lon": 0.0, "fusion_lat": 0.0, "lat": 38.87544116666667, "type": "electric_scooter", "lon": -77.00535816666667, "bike_id": "c6c9b5d2ddbbcb4637d02dda201be4ed", "rental_uris": {"android": "https://dc.lft.to/lastmile_qr_scan", "ios": "https://dc.lft.to/lastmile_qr_scan"}, "name": "c6c9b5d2ddbbcb4637d02dda201be4ed", "is_reserved": 0}, {"is_disabled": 0, "fusion_lon": 0.0, "fusion_lat": 0.0, "lat": 38.96195933333333, "type": "electric_scooter", "lon": -77.02780816666667, "bike_id": "0304fa995728d7e1a43019a6babfb820", "rental_uris": {"android": "https://dc.lft.to/lastmile_qr_scan", "ios": "https://dc.lft.to/lastmile_qr_scan"}, "name": "0304fa995728d7e1a43019a6babfb820", "is_reserved": 0}, {"is_disabled": 0, "fusion_lon": 0.0, "fusion_lat": 0.0, "lat": 38.889176666666664, "type": "electric_scooter", "lon": -76.98007716666666, "bike_id": "796b4d39b33bd1b5b76aecf7dd51c2dd", "rental_uris": {"android": "https://dc.lft.to/lastmile_qr_scan", "ios": "https://dc.lft.to/lastmile_qr_scan"}, "name": "796b4d39b33bd1b5b76aecf7dd51c2dd", "is_reserved": 0}, {"is_disabled": 0, "fusion_lon": 0.0, "fusion_lat": 0.0, "lat": 38.9059035, "type": "electric_scooter", "lon": -77.06909333333333, "bike_id": "31a479ca1e820c89558425e8f675024b", "rental_uris": {"android": "https://dc.lft.to/lastmile_qr_scan", "ios": "https://dc.lft.to/lastmile_qr_scan"}, "name": "31a479ca1e820c89558425e8f675024b", "is_reserved": 0}, {"is_disabled": 0, "fusion_lon": 0.0, "fusion_lat": 0.0, "lat": 38.904234833333334, "type": "electric_scooter", "lon": -77.0686695, "bike_id": "9d4022409eaea0e25550138253cb3b4d", "rental_uris": {"android": "https://dc.lft.to/lastmile_qr_scan", "ios": "https://dc.lft.to/lastmile_qr_scan"}, "name": "9d4022409eaea0e25550138253cb3b4d", "is_reserved": 0}, {"is_disabled": 0, "fusion_lon": 0.0, "fusion_lat": 0.0, "lat": 38.90812616666667, "type": "electric_scooter", "lon": -77.00135, "bike_id": "cb3468302ea4eb1b654c2afe3c9b222b", "rental_uris": {"android": "https://dc.lft.to/lastmile_qr_scan", "ios": "https://dc.lft.to/lastmile_qr_scan"}, "name": "cb3468302ea4eb1b654c2afe3c9b222b", "is_reserved": 0}, {"is_disabled": 0, "fusion_lon": 0.0, "fusion_lat": 0.0, "lat": 38.90694366666666, "type": "electric_scooter", "lon": -77.02998033333333, "bike_id": "2746634bc9f4d0e6e11147c97f7a8f2f", "rental_uris": {"android": "https://dc.lft.to/lastmile_qr_scan", "ios": "https://dc.lft.to/lastmile_qr_scan"}, "name": "2746634bc9f4d0e6e11147c97f7a8f2f", "is_reserved": 0},