{"data": {"bikes": [{"name": "32f0705609a1b2b9c31ba56629f779f7", "type": "electric_scooter", "lat": 38.9312885, "is_reserved": 0, "lon": -77.03607783333334, "fusion_lon": 0.0, "is_disabled": 0, "fusion_lat": 0.0, "bike_id": "32f0705609a1b2b9c31ba56629f779f7", "rental_uris": {"ios": "https://dc.lft.to/lastmile_qr_scan", "android": "https://dc.lft.to/lastmile_qr_scan"}}, {"name": "c56b2eef3c4ca9a52fe2aaf9c5b6f38e", "type": "electric_scooter", "lat": 38.844302166666665, "is_reserved": 0, "lon": -76.99781033333333, "fusion_lon": 0.0, "is_disabled": 0, "fusion_lat": 0.0, "bike_id": "c56b2eef3c4ca9a52fe2aaf9c5b6f38e", "rental_uris": {"ios": "https://dc.lft.to/lastmile_qr_scan", "android": "https://dc.lft.to/lastmile_qr_scan"}}, {"name": "3550ac47f40b72136238b63f93f17467", "type": "electric_scooter", "lat": 38.9257645, "is_reserved": 0, "lon": -77.02717533333333, "fusion_lon": 0.0, "is_disabled": 0, "fusion_lat": 0.0, "bike_id": "3550ac47f40b72136238b63f93f17467", "rental_uris": {"ios": "https://dc.lft.to/lastmile_qr_scan", "android": "https://dc.lft.to/lastmile_qr_scan"}}, {"name": "2f932d7b9ad72b74c903b037bec15002", "type": "electric_bike", "lat": 38.94559266666667, "is_reserved": 0, "lon": -76.895521, "fusion_lon": 0.0, "is_disabled": 0, "fusion_lat": 0.0, "bike_id": "2f932d7b9ad72b74c903b037bec15002", "rental_uris": {"ios": "https://dc.lft.to/lastmile_qr_scan", "android": "https://dc.lft.to/lastmile_qr_scan"}}, {"name": "26d39be337353319d24dc6b3ac8ebe29", "type": "electric_scooter", "lat": 38.93260083333333, "is_reserved": 0, "lon": -77.04009816666667, "fusion_lon": 0.0, "is_disabled": 0, "fusion_lat": 0.0, "bike_id": "26d39be337353319d24dc6b3ac8ebe29", "rental_uris": {"ios": "https://dc.lft.to/lastmile_qr_scan", "android": "https://dc.lft.to/lastmile_qr_scan"}}, {"name": "03f09582ad007e71eabbbdf66bd54132", "type": "electric_scooter", "lat": 38.884068666666664, "is_reserved": 0, "lon": -76.9303945, "fusion_lon": 0.0, "is_disabled": 0, "fusion_lat": 0.0, "bike_id": "03f09582ad007e71eabbbdf66bd54132", "rental_uris": {"ios": "https://dc.lft.to/lastmile_qr_scan", "android": "https://dc.lft.to/lastmile_qr_scan"}}, {"name": "7ffd1fb92ee327e85336e6b1e6df2ef6", "type": "electric_scooter", "lat": 38.917021, "is_reserved": 0, "lon": -77.02244266666666, "fusion_lon": 0.0, "is_disabled": 0, "fusion_lat": 0.0, "bike_id": "7ffd1fb92ee327e85336e6b1e6df2ef6", "rental_uris": {"ios": "https://dc.lft.to/lastmile_qr_scan", "android": "https://dc.lft.to/lastmile_qr_scan"}}, {"name": "8d4d98cbf22bbce2ef27a2006c566a4a", "type": "electric_scooter", "lat": 38.9128335, "is_reserved": 0, "lon": -77.02690166666666, "fusion_lon": 0.0, "is_disabled": 0, "fusion_lat": 0.0, "bike_id": "8d4d98cbf22bbce2ef27a2006c566a4a", "rental_uris": {"ios": "https://dc.lft.to/lastmile_qr_scan", "android": "https://dc.lft.to/lastmile_qr_scan"}}, {"name": "cb3a8814c8999126fafc634c3f5f742c", "type": "electric_scooter", "lat": 38.932385, "is_reserved": 0, "lon": -77.03093366666667, "fusion_lon": 0.0, "is_disabled": 0, "fusion_lat": 0.0, "bike_id": "cb3a8814c8999126fafc634c3f5f742c", "rental_uris": {"ios": "https://dc.lft.to/lastmile_qr_scan", "android": "https://dc.lft.to/lastmile_qr_scan"}}, {"name": "a483b478556974cee4cc305d7cd7be1d", "type": "electric_scooter", "lat": 38.898554833333336, "is_reserved": 0, "lon": -76.99036016666666, "fusion_lon": 0.0, "is_disabled": 0, "fusion_lat": 0.0, "bike_id": "a483b478556974cee4cc305d7cd7be1d", "rental_uris": {"ios": "https://dc.lft.to/lastmile_qr_scan", "android": "https://dc.lft.to/lastmile_qr_scan"}}, {"name": "e8730e5aafbcfc93f9d734794e45574e", "type": "electric_scooter", "lat": 38.927163166666666, "is_reserved": 0, "lon": -77.02088583333334, "fusion_lon": 0.0, "is_disabled": 0, "fusion_lat": 0.0, "bike_id": "e8730e5aafbcfc93f9d734794e45574e", "rental_uris": {"ios": "https://dc.lft.to/lastmile_qr_scan", "android": "https://dc.lft.to/lastmile_qr_scan"}}, {"name": "4528bf01ea52ea346392af8cc1f35575", "type": "electric_scooter", "lat": 38.922519666666666, "is_reserved": 0, "lon": -77.0306905, "fusion_lon": 0.0, "is_disabled": 0, "fusion_lat": 0.0, "bike_id": "4528bf01ea52ea346392af8cc1f35575", "rental_uris": {"ios": "https://dc.lft.to/lastmile_qr_scan", "android": "https://dc.lft.to/lastmile_qr_scan"}}, {"name": "2860aa9027a5e61713b57858915a8718", "type": "electric_scooter", "lat": 38.929341666666666, "is_reserved": 0, "lon": -77.03288783333333, "fusion_lon": 0.0, "is_disabled": 0, "fusion_lat": 0.0, "bike_id": "2860aa9027a5e61713b57858915a8718", "rental_uris": {"ios": "https://dc.lft.to/lastmile_qr_scan", "android": "https://dc.lft.to/lastmile_qr_scan"}}, {"name": "8d5210cc0d19745efb6e26d0f637faa1", "type": "electric_scooter", "lat": 38.89241283333333, "is_reserved": 0, "lon": -77.03178633333333, "fusion_lon": 0.0, "is_disabled": 0, "fusion_lat": 0.0, "bike_id": "8d5210cc0d19745efb6e26d0f637faa1", "rental_uris": {"ios": "https://dc.lft.to/lastmile_qr_scan", "android": "https://dc.lft.to/lastmile_qr_scan"}}, {"name": "e8d94c509cda8f6ed29e0d79d240c7bb", "type": "electric_bike", "lat": 38.973285833333335, "is_reserved": 0, "lon": -77.02149433333334, "fusion_lon": 0.0, "is_disabled": 0, "fusion_lat": 0.0, "bike_id": "e8d94c509cda8f6ed29e0d79d240c7bb", "rental_uris": {"ios": "https://dc.lft.to/lastmile_qr_scan", "android": "https://dc.lft.to/lastmile_qr_scan"}}, {"name": "c38812f459e440abb1ed6adfe0a77aee", "type": "electric_scooter", "lat": 38.895103166666665, "is_reserved": 0, "lon": -77.016142, "fusion_lon": 0.0, "is_disabled": 0, "fusion_lat": 0.0, "bike_id": "c38812f459e440abb1ed6adfe0a77aee", "rental_uris": {"ios": "https://dc.lft.to/lastmile_qr_scan", "android": "https://dc.lft.to/lastmile_qr_scan"}}, {"name": "46f138f6b4c93a9b2f018e8c1d2dc173", "type": "electric_scooter", "lat": 38.901836833333334, "is_reserved": 0, "lon": -77.0395585, "fusion_lon": 0.0, "is_disabled": 0, "fusion_lat": 0.0, "bike_id": "46f138f6b4c93a9b2f018e8c1d2dc173", "rental_uris": {"ios": "https://dc.lft.to/lastmile_qr_scan", "android": "https://dc.lft.to/lastmile_qr_scan"}}, {"name": "a22373448ca6f890e864ff0acfe01b8f", "type": "electric_scooter", "lat": 38.92056783333334, "is_reserved": 0, "lon": -76.99882266666667, "fusion_lon": 0.0, "is_disabled": 0, "fusion_lat": 0.0, "bike_id": "a22373448ca6f890e864ff0acfe01b8f", "rental_uris": {"ios": "https://dc.lft.to/lastmile_qr_scan", "android": "https://dc.lft.to/lastmile_qr_scan"}}, {"name": "1c15b22195c4c3c42803e89a61c1ee36", "type": "electric_scooter", "lat": 38.93629333333333, "is_reserved": 0, "lon": -77.03668483333334, "fusion_lon": 0.0, "is_disabled": 0, "fusion_lat": 0.0, "bike_id": "1c15b22195c4c3c42803e89a61c1ee36", "rental_uris": {"ios": "https://dc.lft.to/lastmile_qr_scan", "android": "https://dc.lft.to/lastmile_qr_scan"}}, {"name": "1a59324dea8fe4b8054bc717354719e6", "type": "electric_scooter", "lat": 38.86703833333333, "is_reserved": 0, "lon": -76.98717366666666, "fusion_lon": 0.0, "is_disabled": 0, "fusion_lat": 0.0, "bike_id": "1a59324dea8fe4b8054bc717354719e6", "rental_uris": {"ios": "https://dc.lft.to/lastmile_qr_scan", "android": "https://dc.lft.to/lastmile_qr_scan"}}, {"name": "948a175a894e61aff44dc82951e09594", "type": "electric_scooter", "lat": 38.895130333333334, "is_reserved": 0, "lon": -77.0108035, "fusion_lon": 0.0, "is_disabled": 0, "fusion_lat": 0.0, "bike_id": "948a175a894e61aff44dc82951e09594", "rental_uris": {"ios": "https://dc.lft.to/lastmile_qr_scan", "android": "https://dc.lft.to/lastmile_qr_scan"}}, {"name": "888e805f04890aa6bc156f9b014692d0", "type": "electric_scooter", "lat": 38.90399383333333, "is_reserved": 0, "lon": -77.01744966666666, "fusion_lon": 0.0, "is_disabled": 0, "fusion_lat": 0.0, "bike_id": "888e805f04890aa6bc156f9b014692d0", "rental_uris": {"ios": "https://dc.lft.to/lastmile_qr_scan", "android": "https://dc.lft.to/lastmile_qr_scan"}}, {"name": "415e1639fcbae819440ec058fa7f5215", "type": "electric_scooter", "lat": 38.90380416666667, "is_reserved": 0, "lon": -77.04476116666666, "fusion_lon": 0.0, "is_disabled": 0, "fusion_lat": 0.0, "bike_id": "415e1639fcbae819440ec058fa7f5215", "rental_uris": {"ios": "https://dc.lft.to/lastmile_qr_scan", "android": "https://dc.lft.to/lastmile_qr_scan"}}, {"name": "07c829fbe0532f13d1aa8679d056852b", "type": "electric_scooter", "lat": 38.917668166666665, "is_reserved": 0, "lon": -77.027135, "fusion_lon": 0.0, "is_disabled": 0, "fusion_lat": 0.0, "bike_id": "07c829fbe0532f13d1aa8679d056852b", "rental_uris": {"ios": "https://dc.lft.to/lastmile_qr_scan", "android": "https://dc.lft.to/lastmile_qr_scan"}}, {"name": "d203989bc9a03466b2b7e8b91432c464", "type": "electric_scooter", "lat": 38.9087105, "is_reserved": 0, "lon": -77.0250425, "fusion_lon": 0.0, "is_disabled": 0, "fusion_lat": 0.0, "bike_id": "d203989bc9a03466b2b7e8b91432c464", "rental_uris": {"ios": "https://dc.lft.to/lastmile_qr_scan", "android": "https://dc.lft.to/lastmile_qr_scan"}}, {"name": "8a15c06428aa1c9a6ec36685ad5e0ff4", "type": "electric_bike", "lat": 38.8808515, "is_reserved": 0, "lon": -76.98536666666666, "fusion_lon": 0.0, "is_disabled": 0, "fusion_lat": 0.0, "bike_id": "8a15c06428aa1c9a6ec36685ad5e0ff4", "rental_uris": {"ios": "https://dc.lft.to/lastmile_qr_scan", "android": "https://dc.lft.to/lastmile_qr_scan"}}, {"name": "b6f7988674b7b9c82b07f7a72f9ac928", "type": "electric_scooter", "lat": 38.91567333333333, "is_reserved": 0, "lon": -77.0465935, "fusion_lon": 0.0, "is_disabled": 0, "fusion_lat": 0.0, "bike_id": "b6f7988674b7b9c82b07f7a72f9ac928", "rental_uris": {"ios": "https://dc.lft.to/lastmile_qr_scan", "android": "https://dc.lft.to/lastmile_qr_scan"}}, {"name": "b1b270a5bc883e4ac403a14e6fd6fabb", "type": "electric_scooter", "lat": 38.917145833333336, "is_reserved": 0, "lon": -77.031271, "fusion_lon": 0.0, "is_disabled": 0, "fusion_lat": 0.0, "bike_id": "b1b270a5bc883e4ac403a14e6fd6fabb", "rental_uris": {"ios": "https://dc.lft.to/lastmile_qr_scan", "android": "https://dc.lft.to/lastmile_qr_scan"}}, {"name": "f9a901f0819b88d3f250eb7914fe7327", "type": "electric_scooter", "lat": 38.8851215, "is_reserved": 0, "lon": -77.00571733333334, "fusion_lon": 0.0, "is_disabled": 0, "fusion_lat": 0.0, "bike_id": "f9a901f0819b88d3f250eb7914fe7327", "rental_uris": {"ios": "https://dc.lft.to/lastmile_qr_scan", "android": "https://dc.lft.to/lastmile_qr_scan"}}, {"name": "e5d3c6c24ea1e890c75e7b4139a6fe84", "type": "electric_scooter", "lat": 38.922506166666665, "is_reserved": 0, "lon": -77.03086566666667, "fusion_lon": 0.0, "is_disabled": 0, "fusion_lat": 0.0, "bike_id": "e5d3c6c24ea1e890c75e7b4139a6fe84", "rental_uris": {"ios": "https://dc.lft.to/lastmile_qr_scan", "android": "https://dc.lft.to/lastmile_qr_scan"}}, {"name": "a7dd9a69c32207595531977f10d9f1f3", "type": "electric_scooter", "lat": 38.902519833333336, "is_reserved": 0, "lon": -77.00211183333333, "fusion_lon": 0.0, "is_disabled": 0, "fusion_lat": 0.0, "bike_id": "a7dd9a69c32207595531977f10d9f1f3", "rental_uris": {"ios": "https://dc.lft.to/lastmile_qr_scan", "android": "https://dc.lft.to/lastmile_qr_scan"}}, {"name": "be49c446ac435a8f22bc3aad727555e1", "type": "electric_scooter", "lat": 38.89836366666667, "is_reserved": 0, "lon": -77.03164533333333, "fusion_lon": 0.0, "is_disabled": 0, "fusion_lat": 0.0, "bike_id": "be49c446ac435a8f22bc3aad727555e1", "rental_uris": {"ios": "https://dc.lft.to/lastmile_qr_scan", "android": "https://dc.lft.to/lastmile_qr_scan"}}, {"name": "01f0b98ab51ba1eeb1ab68a7ed252472", "type": "electric_scooter", "lat": 38.91405666666667, "is_reserved": 0, "lon": -77.00838933333333, "fusion_lon": 0.0, "is_disabled": 0, "fusion_lat": 0.0, "bike_id": "01f0b98ab51ba1eeb1ab68a7ed252472", "rental_uris": {"ios": "https://dc.lft.to/lastmile_qr_scan", "android": "https://dc.lft.to/lastmile_qr_scan"}}, {"name": "4a5ecc2735642427d9cb7c559baa7737", "type": "electric_bike", "lat": 38.950895333333335, "is_reserved": 0, "lon": -77.01228883333333, "fusion_lon": 0.0, "is_disabled": 0, "fusion_lat": 0.0, "bike_id": "4a5ecc2735642427d9cb7c559baa7737", "rental_uris": {"ios": "https://dc.lft.to/lastmile_qr_scan", "android": "https://dc.lft.to/lastmile_qr_scan"}}, {"name": "60f42a9304087c5ac5e6ab79f54406ae", "type": "electric_scooter", "lat": 38.86538083333333, "is_reserved": 0, "lon": -76.98709666666667, "fusion_lon": 0.0, "is_disabled": 0, "fusion_lat": 0.0, "bike_id": "60f42a9304087c5ac5e6ab79f54406ae", "rental_uris": {"ios": "https://dc.lft.to/lastmile_qr_scan", "android": "https://dc.lft.to/lastmile_qr_scan"}}, {"name": "89d9ed58bc7da8984aeec9b5dfc50a0b", "type": "electric_scooter", "lat": 38.91557133333333, "is_reserved": 0, "lon": -77.02268283333333, "fusion_lon": 0.0, "is_disabled": 0, "fusion_lat": 0.0, "bike_id": "89d9ed58bc7da8984aeec9b5dfc50a0b", "rental_uris": {"ios": "https://dc.lft.to/lastmile_qr_scan", "android": "https://dc.lft.to/lastmile_qr_scan"}}, {"name": "b96f15c09b839cf0d3004bff13c69037", "type": "electric_scooter", "lat": 38.935175666666666, "is_reserved": 0, "lon": -77.03343866666667, "fusion_lon": 0.0, "is_disabled": 0, "fusion_lat": 0.0, "bike_id": "b96f15c09b839cf0d3004bff13c69037", "rental_uris": {"ios": "https://dc.lft.to/lastmile_qr_scan", "android": "https://dc.lft.to/lastmile_qr_scan"}}, {"name": "6a4cf1b2c317c22e16bb15c741f32180", "type": "electric_scooter", "lat": 38.9015375, "is_reserved": 0, "lon": -77.040264, "fusion_lon": 0.0, "is_disabled": 0, "fusion_lat": 0.0, "bike_id": "6a4cf1b2c317c22e16bb15c741f32180", "rental_uris": {"ios": "https://dc.lft.to/lastmile_qr_scan", "android": "https://dc.lft.to/lastmile_qr_scan"}}, {"name": "2a7de8c69b8e8d68824357a2a7c76e57", "type": "electric_bike", "lat": 39.088617, "is_reserved": 0, "lon": -77.17849983333333, "fusion_lon": 0.0, "is_disabled": 0, "fusion_lat": 0.0, "bike_id": "2a7de8c69b8e8d68824357a2a7c76e57", "rental_uris": {"ios": "https://dc.lft.to/lastmile_qr_scan", "android": "https://dc.lft.to/lastmile_qr_scan"}}, {"name": "5e813205cf672cc6a93e562938ec1af2", "type": "electric_scooter", "lat": 38.90404066666667, "is_reserved": 0, "lon": -77.01847183333334, "fusion_lon": 0.0, "is_disabled": 0, "fusion_lat": 0.0, "bike_id": "5e813205cf672cc6a93e562938ec1af2", "rental_uris": {"ios": "https://dc.lft.to/lastmile_qr_scan", "android": "https://dc.lft.to/lastmile_qr_scan"}}, {"name": "81bd8c80b919751a84f5bb68c6210d54", "type": "electric_scooter", "lat": 38.930570333333335, "is_reserved": 0, "lon": -77.02800333333333, "fusion_lon": 0.0, "is_disabled": 0, "fusion_lat": 0.0, "bike_id": "81bd8c80b919751a84f5bb68c6210d54", "rental_uris": {"ios": "https://dc.lft.to/lastmile_qr_scan", "android": "https://dc.lft.to/lastmile_qr_scan"}}, {"name": "1e6e599cb7a41ccee2558ba50055f7e1", "type": "electric_bike", "lat": 38.938807833333335, "is_reserved": 0, "lon": -76.95412383333333, "fusion_lon": 0.0, "is_disabled": 0, "fusion_lat": 0.0, "bike_id": "1e6e599cb7a41ccee2558ba50055f7e1", "rental_uris": {"ios": "https://dc.lft.to/lastmile_qr_scan", "android": "https://dc.lft.to/lastmile_qr_scan"}}, {"name": "5f925ee857c2b2ce0ae55371cc6ec9f7", "type": "electric_bike", "lat": 38.92485283333333, "is_reserved": 0, "lon": -77.07331283333333, "fusion_lon": 0.0, "is_disabled": 0, "fusion_lat": 0.0, "bike_id": "5f925ee857c2b2ce0ae55371cc6ec9f7", "rental_uris": {"ios": "https://dc.lft.to/lastmile_qr_scan", "android": "https://dc.lft.to/lastmile_qr_scan"}}, {"name": "829118e64b05255601f90a125a2e2db9", "type": "electric_bike", "lat": 38.92862983333333, "is_reserved": 0, "lon": -77.222371, "fusion_lon": 0.0, "is_disabled": 0, "fusion_lat": 0.0, "bike_id": "829118e64b05255601f90a125a2e2db9", "rental_uris": {"ios": "https://dc.lft.to/lastmile_qr_scan", "android": "https://dc.lft.to/lastmile_qr_scan"}}, {"name": "e551b128d08c2afc7332cdd40a9d27f7", "type": "electric_scooter", "lat": 38.95656833333334, "is_reserved": 0, "lon": -77.03298433333333, "fusion_lon": 0.0, "is_disabled": 0, "fusion_lat": 0.0, "bike_id": "e551b128d08c2afc7332cdd40a9d27f7", "rental_uris": {"ios": "https://dc.lft.to/lastmile_qr_scan", "android": "https://dc.lft.to/lastmile_qr_scan"}}, {"name": "34b57ee49010c4bbfaac3a0d20f13df0", "type": "electric_scooter", "lat": 38.872347, "is_reserved": 0, "lon": -77.01165566666667, "fusion_lon": 0.0, "is_disabled": 0, "fusion_lat": 0.0, "bike_id": "34b57ee49010c4bbfaac3a0d20f13df0", "rental_uris": {"ios": "https://dc.lft.to/lastmile_qr_scan", "android": "https://dc.lft.to/lastmile_qr_scan"}}, {"name": "8a49aee53f54c7834f60ab8551ffdd22", "type": "electric_scooter", "lat": 38.94104466666667, "is_reserved": 0, "lon": -77.021152, "fusion_lon": 0.0, "is_disabled": 0, "fusion_lat": 0.0, "bike_id": "8a49aee53f54c7834f60ab8551ffdd22", "rental_uris": {"ios": "https://dc.lft.to/lastmile_qr_scan", "android": "https://dc.lft.to/lastmile_qr_scan"}}, {"name": "a0a7fa2b5a1ce567b8da0368495edd60", "type": "electric_scooter", "lat": 38.9156785, "is_reserved": 0, "lon": -77.02229766666666, "fusion_lon": 0.0, "is_disabled": 0, "fusion_lat": 0.0, "bike_id": "a0a7fa2b5a1ce567b8da0368495edd60", "rental_uris": {"ios": "https://dc.lft.to/lastmile_qr_scan", "android": "https://dc.lft.to/lastmile_qr_scan"}}, {"name": "78d9ab2a7d522639453c9353a83fb236", "type": "electric_scooter", "lat": 38.9224705, "is_reserved": 0, "lon": -77.03673733333333, "fusion_lon": 0.0, "is_disabled": 0, "fusion_lat": 0.0, "bike_id": "78d9ab2a7d522639453c9353a83fb236", "rental_uris": {"ios": "https://dc.lft.to/lastmile_qr_scan", "android": "https://dc.lft.to/lastmile_qr_scan"}}, {"name": "497ea3425d5597b108c0fe1d179d766e", "type": "electric_scooter", "lat": 38.91870483333334, "is_reserved": 0, "lon": -77.04351866666667, "fusion_lon": 0.0, "is_disabled": 0, "fusion_lat": 0.0, "bike_id": "497ea3425d5597b108c0fe1d179d766e", "rental_uris": {"ios": "https://dc.lft.to/lastmile_qr_scan", "android": "https://dc.lft.to/lastmile_qr_scan"}}, {"name": "aa73c5e05e78ac248ce8c435bc9a530a", "type": "electric_scooter", "lat": 38.89957066666667, "is_reserved": 0, "lon": -77.03127316666667, "fusion_lon": 0.0, "is_disabled": 0, "fusion_lat": 0.0, "bike_id": "aa73c5e05e78ac248ce8c435bc9a530a", "rental_uris": {"ios": "https://dc.lft.to/lastmile_qr_scan", "android": "https://dc.lft.to/lastmile_qr_scan"}}, {"name": "30d19e48fa82b1f67ce46c9d79caaa64", "type": "electric_scooter", "lat": 38.854495166666666, "is_reserved": 0, "lon": -76.98584966666667, "fusion_lon": 0.0, "is_disabled": 0, "fusion_lat": 0.0, "bike_id": "30d19e48fa82b1f67ce46c9d79caaa64", "rental_uris": {"ios": "https://dc.lft.to/lastmile_qr_scan", "android": "https://dc.lft.to/lastmile_qr_scan"}}, {"name": "a7d6c52c7db7416a58dd89dbb1f55788", "type": "electric_scooter", "lat": 38.89734633333333, "is_reserved": 0, "lon": -77.051283, "fusion_lon": 0.0, "is_disabled": 0, "fusion_lat": 0.0, "bike_id": "a7d6c52c7db7416a58dd89dbb1f55788", "rental_uris": {"ios": "https://dc.lft.to/lastmile_qr_scan", "android": "https://dc.lft.to/lastmile_qr_scan"}}, {"name": "24659bb42def325b47d0379a08543306", "type": "electric_scooter", "lat": 38.92884083333333, "is_reserved": 0, "lon": -77.03759, "fusion_lon": 0.0, "is_disabled": 0, "fusion_lat": 0.0, "bike_id": "24659bb42def325b47d0379a08543306", "rental_uris": {"ios": "https://dc.lft.to/lastmile_qr_scan", "android": "https://dc.lft.to/lastmile_qr_scan"}}, {"name": "219d14fff2b654bd1f4882f435bd3720", "type": "electric_scooter", "lat": 38.9248305, "is_reserved": 0, "lon": -77.02845333333333, "fusion_lon": 0.0, "is_disabled": 0, "fusion_lat": 0.0, "bike_id": "219d14fff2b654bd1f4882f435bd3720", "rental_uris": {"ios": "https://dc.lft.to/lastmile_qr_scan", "android": "https://dc.lft.to/lastmile_qr_scan"}}, {"name": "28e781ddcb3543ec982cd3c1b85cc5ef", "type": "electric_bike", "lat": 38.95916, "is_reserved": 0, "lon": -77.00160033333333, "fusion_lon": 0.0, "is_disabled": 0, "fusion_lat": 0.0, "bike_id": "28e781ddcb3543ec982cd3c1b85cc5ef", "rental_uris": {"ios": "https://dc.lft.to/lastmile_qr_scan", "android": "https://dc.lft.to/lastmile_qr_scan"}}, {"name": "592251ec9b2692e6e50ddbc10b6670d4", "type": "electric_scooter", "lat": 38.878554333333334, "is_reserved": 0, "lon": -77.01981416666666, "fusion_lon": 0.0, "is_disabled": 0, "fusion_lat": 0.0, "bike_id": "592251ec9b2692e6e50ddbc10b6670d4", "rental_uris": {"ios": "https://dc.lft.to/lastmile_qr_scan", "android": "https://dc.lft.to/lastmile_qr_scan"}}, {"name": "247574299d220db36635b4ef4aa3d111", "type": "electric_scooter", "lat": 38.90268416666667, "is_reserved": 0, "lon": -77.0320395, "fusion_lon": 0.0, "is_disabled": 0, "fusion_lat": 0.0, "bike_id": "247574299d220db36635b4ef4aa3d111", "rental_uris": {"ios": "https://dc.lft.to/lastmile_qr_scan", "android": "https://dc.lft.to/lastmile_qr_scan"}}, {"name": "73ba8c98bb62ff892aba4350911785ee", "type": "electric_scooter", "lat": 38.91125616666667, "is_reserved": 0, "lon": -77.01822883333334, "fusion_lon": 0.0, "is_disabled": 0, "fusion_lat": 0.0, "bike_id": "73ba8c98bb62ff892aba4350911785ee", "rental_uris": {"ios": "https://dc.lft.to/lastmile_qr_scan", "android": "https://dc.lft.to/lastmile_qr_scan"}}, {"name": "df53c4b01330710b2788ccbf35d50513", "type": "electric_scooter", "lat": 38.88612883333333, "is_reserved": 0, "lon": -76.9951745, "fusion_lon": 0.0, "is_disabled": 0, "fusion_lat": 0.0, "bike_id": "df53c4b01330710b2788ccbf35d50513", "rental_uris": {"ios": "https://dc.lft.to/lastmile_qr_scan", "android": "https://dc.lft.to/lastmile_qr_scan"}}, {"name": "8a1f11997788db0529625c5936770229", "type": "electric_scooter", "lat": 38.88225516666667, "is_reserved": 0, "lon": -76.94182683333334, "fusion_lon": 0.0, "is_disabled": 0, "fusion_lat": 0.0, "bike_id": "8a1f11997788db0529625c5936770229", "rental_uris": {"ios": "https://dc.lft.to/lastmile_qr_scan", "android": "https://dc.lft.to/lastmile_qr_scan"}}, {"name": "49a011ff027fdd7e971fa56a1ee5cecc", "type": "electric_scooter", "lat": 38.9297435, "is_reserved": 0, "lon": -77.02345466666667, "fusion_lon": 0.0, "is_disabled": 0, "fusion_lat": 0.0, "bike_id": "49a011ff027fdd7e971fa56a1ee5cecc", "rental_uris": {"ios": "https://dc.lft.to/lastmile_qr_scan", "android": "https://dc.lft.to/lastmile_qr_scan"}}, {"name": "81a1866bb22647cc1a67d4d4cfa07023", "type": "electric_scooter", "lat": 38.929349, "is_reserved": 0, "lon": -77.02339233333333, "fusion_lon": 0.0, "is_disabled": 0, "fusion_lat": 0.0, "bike_id": "81a1866bb22647cc1a67d4d4cfa07023", "rental_uris": {"ios": "https://dc.lft.to/lastmile_qr_scan", "android": "https://dc.lft.to/lastmile_qr_scan"}}, {"name": "799d191d9881a10903d2f5c24a288967", "type": "electric_scooter", "lat": 38.907347, "is_reserved": 0, "lon": -77.01139933333333, "fusion_lon": 0.0, "is_disabled": 0, "fusion_lat": 0.0, "bike_id": "799d191d9881a10903d2f5c24a288967", "rental_uris": {"ios": "https://dc.lft.to/lastmile_qr_scan", "android": "https://dc.lft.to/lastmile_qr_scan"}}, {"name": "3ecb4709b6c7931bd7392270cb651067", "type": "electric_scooter", "lat": 38.90339983333333, "is_reserved": 0, "lon": -76.98983516666667, "fusion_lon": 0.0, "is_disabled": 0, "fusion_lat": 0.0, "bike_id": "3ecb4709b6c7931bd7392270cb651067", "rental_uris": {"ios": "https://dc.lft.to/lastmile_qr_scan", "android": "https://dc.lft.to/lastmile_qr_scan"}}, {"name": "df9d9c0189faceaf56bea0469da40035", "type": "electric_scooter", "lat": 38.922229, "is_reserved": 0, "lon": -77.042504, "fusion_lon": 0.0, "is_disabled": 0, "fusion_lat": 0.0, "bike_id": "df9d9c0189faceaf56bea0469da40035", "rental_uris": {"ios": "https://dc.lft.to/lastmile_qr_scan", "android": "https://dc.lft.to/lastmile_qr_scan"}}, {"name": "a2166656f226dd64be4efc186b99ec8b", "type": "electric_scooter", "lat": 38.921577666666664, "is_reserved": 0, "lon": -77.03385083333333, "fusion_lon": 0.0, "is_disabled": 0, "fusion_lat": 0.0, "bike_id": "a2166656f226dd64be4efc186b99ec8b", "rental_uris": {"ios": "https://dc.lft.to/lastmile_qr_scan", "android": "https://dc.lft.to/lastmile_qr_scan"}}, {"name": "85269cda9094529aadef910d48849281", "type": "electric_scooter", "lat": 38.870141, "is_reserved": 0, "lon": -77.0123055, "fusion_lon": 0.0, "is_disabled": 0, "fusion_lat": 0.0, "bike_id": "85269cda9094529aadef910d48849281", "rental_uris": {"ios": "https://dc.lft.to/lastmile_qr_scan", "android": "https://dc.lft.to/lastmile_qr_scan"}}, {"name": "3aa644dbb5ed7aab0205dcabb8b04013", "type": "electric_scooter", "lat": 38.9323555, "is_reserved": 0, "lon": -77.03832966666667, "fusion_lon": 0.0, "is_disabled": 0, "fusion_lat": 0.0, "bike_id": "3aa644dbb5ed7aab0205dcabb8b04013", "rental_uris": {"ios": "https://dc.lft.to/lastmile_qr_scan", "android": "https://dc.lft.to/lastmile_qr_scan"}}, {"name": "a871feb741df85d6ec5a125312df6b0b", "type": "electric_scooter", "lat": 38.86243283333334, "is_reserved": 0, "lon": -76.99495333333333, "fusion_lon": 0.0, "is_disabled": 0, "fusion_lat": 0.0, "bike_id": "a871feb741df85d6ec5a125312df6b0b", "rental_uris": {"ios": "https://dc.lft.to/lastmile_qr_scan", "android": "https://dc.lft.to/lastmile_qr_scan"}}, {"name": "5c517e846f7c3c644153bd26108bbc78", "type": "electric_bike", "lat": 38.813401999999996, "is_reserved": 0, "lon": -77.05125216666667, "fusion_lon": 0.0, "is_disabled": 0, "fusion_lat": 0.0, "bike_id": "5c517e846f7c3c644153bd26108bbc78", "rental_uris": {"ios": "https://dc.lft.to/lastmile_qr_scan", "android": "https://dc.lft.to/lastmile_qr_scan"}}, {"name": "5eb4f21cdd63759d1c1de6d44163af66", "type": "electric_scooter", "lat": 38.909363, "is_reserved": 0, "lon": -76.99979, "fusion_lon": 0.0, "is_disabled": 0, "fusion_lat": 0.0, "bike_id": "5eb4f21cdd63759d1c1de6d44163af66", "rental_uris": {"ios": "https://dc.lft.to/lastmile_qr_scan", "android": "https://dc.lft.to/lastmile_qr_scan"}}, {"name": "8dc7d2a0e5e38068abc5c4752f8e4db3", "type": "electric_bike", "lat": 38.86978716666667, "is_reserved": 0, "lon": -76.9599365, "fusion_lon": 0.0, "is_disabled": 0, "fusion_lat": 0.0, "bike_id": "8dc7d2a0e5e38068abc5c4752f8e4db3", "rental_uris": {"ios": "https://dc.lft.to/lastmile_qr_scan", "android": "https://dc.lft.to/lastmile_qr_scan"}}, {"name": "fadfc975d7bc1b58f9cb97bbceefd66e", "type": "electric_bike", "lat": 38.98504366666667, "is_reserved": 0, "lon": -76.982156, "fusion_lon": 0.0, "is_disabled": 0, "fusion_lat": 0.0, "bike_id": "fadfc975d7bc1b58f9cb97bbceefd66e", "rental_uris": {"ios": "https://dc.lft.to/lastmile_qr_scan", "android": "https://dc.lft.to/lastmile_qr_scan"}}, {"name": "01b9e87088010b6263f2f1a621bc6394", "type": "electric_scooter", "lat": 38.9362005, "is_reserved": 0, "lon": -77.0225265, "fusion_lon": 0.0, "is_disabled": 0, "fusion_lat": 0.0, "bike_id": "01b9e87088010b6263f2f1a621bc6394", "rental_uris": {"ios": "https://dc.lft.to/lastmile_qr_scan", "android": "https://dc.lft.to/lastmile_qr_scan"}}, {"name": "ced1b02c28f4f0b764b2afaceb66220b", "type": "electric_scooter", "lat": 38.903282833333336, "is_reserved": 0, "lon": -77.032193, "fusion_lon": 0.0, "is_disabled": 0, "fusion_lat": 0.0, "bike_id": "ced1b02c28f4f0b764b2afaceb66220b", "rental_uris": {"ios": "https://dc.lft.to/lastmile_qr_scan", "android": "https://dc.lft.to/lastmile_qr_scan"}}, {"name": "fb96a7fb77e65629d33b68f6c923517d", "type": "electric_scooter", "lat": 38.932838833333335, "is_reserved": 0, "lon": -77.0349115, "fusion_lon": 0.0, "is_disabled": 0, "fusion_lat": 0.0, "bike_id": "fb96a7fb77e65629d33b68f6c923517d", "rental_uris": {"ios": "https://dc.lft.to/lastmile_qr_scan", "android": "https://dc.lft.to/lastmile_qr_scan"}}, {"name": "07c871a924db735e87dfb5b5cbaeff3e", "type": "electric_scooter", "lat": 38.865668666666664, "is_reserved": 0, "lon": -76.985529, "fusion_lon": 0.0, "is_disabled": 0, "fusion_lat": 0.0, "bike_id": "07c871a924db735e87dfb5b5cbaeff3e", "rental_uris": {"ios": "https://dc.lft.to/lastmile_qr_scan", "android": "https://dc.lft.to/lastmile_qr_scan"}}, {"name": "23fe688e16aef537e6474f8c1f7b3589", "type": "electric_scooter", "lat": 38.9443795, "is_reserved": 0, "lon": -77.06349916666667, "fusion_lon": 0.0, "is_disabled": 0, "fusion_lat": 0.0, "bike_id": "23fe688e16aef537e6474f8c1f7b3589", "rental_uris": {"ios": "https://dc.lft.to/lastmile_qr_scan", "android": "https://dc.lft.to/lastmile_qr_scan"}}, {"name": "c0e8a5733f533d7ee8f57efd0684da46", "type": "electric_scooter", "lat": 38.9307825, "is_reserved": 0, "lon": -77.03400583333334, "fusion_lon": 0.0, "is_disabled": 0, "fusion_lat": 0.0, "bike_id": "c0e8a5733f533d7ee8f57efd0684da46", "rental_uris": {"ios": "https://dc.lft.to/lastmile_qr_scan", "android": "https://dc.lft.to/lastmile_qr_scan"}}, {"name": "32cdd1c439124dabbb9f7174fbfe01f1", "type": "electric_scooter", "lat": 38.90070333333333, "is_reserved": 0, "lon": -76.98713416666666, "fusion_lon": 0.0, "is_disabled": 0, "fusion_lat": 0.0, "bike_id": "32cdd1c439124dabbb9f7174fbfe01f1", "rental_uris": {"ios": "https://dc.lft.to/lastmile_qr_scan", "android": "https://dc.lft.to/lastmile_qr_scan"}}, {"name": "eefde7efd30e3279a4cc13b9103586c9", "type": "electric_scooter", "lat": 38.944612666666664, "is_reserved": 0, "lon": -77.00658316666667, "fusion_lon": 0.0, "is_disabled": 0, "fusion_lat": 0.0, "bike_id": "eefde7efd30e3279a4cc13b9103586c9", "rental_uris": {"ios": "https://dc.lft.to/lastmile_qr_scan", "android": "https://dc.lft.to/lastmile_qr_scan"}}, {"name": "98bcef1873d8a4dfcf9c7cbc511abbd5", "type": "electric_scooter", "lat": 38.873508666666666, "is_reserved": 0, "lon": -77.01864183333333, "fusion_lon": 0.0, "is_disabled": 0, "fusion_lat": 0.0, "bike_id": "98bcef1873d8a4dfcf9c7cbc511abbd5", "rental_uris": {"ios": "https://dc.lft.to/lastmile_qr_scan", "android": "https://dc.lft.to/lastmile_qr_scan"}}, {"name": "dc1031e345bde62a7b8ac5cfd26d9c73", "type": "electric_scooter", "lat": 38.8844385, "is_reserved": 0, "lon": -77.02966833333333, "fusion_lon": 0.0, "is_disabled": 0, "fusion_lat": 0.0, "bike_id": "dc1031e345bde62a7b8ac5cfd26d9c73", "rental_uris": {"ios": "https://dc.lft.to/lastmile_qr_scan", "android": "https://dc.lft.to/lastmile_qr_scan"}}, {"name": "d5557a947741bf8ee658d546d6c9fd06", "type": "electric_scooter", "lat": 38.92489716666667, "is_reserved": 0, "lon": -77.02887416666667, "fusion_lon": 0.0, "is_disabled": 0, "fusion_lat": 0.0, "bike_id": "d5557a947741bf8ee658d546d6c9fd06", "rental_uris": {"ios": "https://dc.lft.to/lastmile_qr_scan", "android": "https://dc.lft.to/lastmile_qr_scan"}}, {"name": "f1c864dfaa527cbbe13fca3398544135", "type": "electric_bike", "lat": 38.9221715, "is_reserved": 0, "lon": -77.08209766666667, "fusion_lon": 0.0, "is_disabled": 0, "fusion_lat": 0.0, "bike_id": "f1c864dfaa527cbbe13fca3398544135", "rental_uris": {"ios": "https://dc.lft.to/lastmile_qr_scan", "android": "https://dc.lft.to/lastmile_qr_scan"}}, {"name": "92b1e31d81248585b325f768ed4e54d8", "type": "electric_scooter", "lat": 38.9057235, "is_reserved": 0, "lon": -77.02183766666667, "fusion_lon": 0.0, "is_disabled": 0, "fusion_lat": 0.0, "bike_id": "92b1e31d81248585b325f768ed4e54d8", "rental_uris": {"ios": "https://dc.lft.to/lastmile_qr_scan", "android": "https://dc.lft.to/lastmile_qr_scan"}}, {"name": "fa6607a6f1fe66aaf9b7dcef2479abc6", "type": "electric_scooter", "lat": 38.9008575, "is_reserved": 0, "lon": -77.05013583333333, "fusion_lon": 0.0, "is_disabled": 0, "fusion_lat": 0.0, "bike_id": "fa6607a6f1fe66aaf9b7dcef2479abc6", "rental_uris": {"ios": "https://dc.lft.to/lastmile_qr_scan", "android": "https://dc.lft.to/lastmile_qr_scan"}}, {"name": "0285a40dce216fbd64b4e113546b5178", "type": "electric_scooter", "lat": 38.86661683333333, "is_reserved": 0, "lon": -76.99015916666667, "fusion_lon": 0.0, "is_disabled": 0, "fusion_lat": 0.0, "bike_id": "0285a40dce216fbd64b4e113546b5178", "rental_uris": {"ios": "https://dc.lft.to/lastmile_qr_scan", "android": "https://dc.lft.to/lastmile_qr_scan"}}, {"name": "de76f4bf0fe11c8229f6aae265e262ad", "type": "electric_scooter", "lat": 38.91422333333333, "is_reserved": 0, "lon": -77.02283233333333, "fusion_lon": 0.0, "is_disabled": 0, "fusion_lat": 0.0, "bike_id": "de76f4bf0fe11c8229f6aae265e262ad", "rental_uris": {"ios": "https://dc.lft.to/lastmile_qr_scan", "android": "https://dc.lft.to/lastmile_qr_scan"}}, {"name": "79a812f7d072d2ee815c7a153931c78b", "type": "electric_scooter", "lat": 38.89957666666667, "is_reserved": 0, "lon": -76.98564266666666, "fusion_lon": 0.0, "is_disabled": 0, "fusion_lat": 0.0, "bike_id": "79a812f7d072d2ee815c7a153931c78b", "rental_uris": {"ios": "https://dc.lft.to/lastmile_qr_scan", "android": "https://dc.lft.to/lastmile_qr_scan"}}, {"name": "e760f103067b7cd3850ff75093be2a7d", "type": "electric_scooter", "lat": 38.930682166666664, "is_reserved": 0, "lon": -77.0299015, "fusion_lon": 0.0, "is_disabled": 0, "fusion_lat": 0.0, "bike_id": "e760f103067b7cd3850ff75093be2a7d", "rental_uris": {"ios": "https://dc.lft.to/lastmile_qr_scan", "android": "https://dc.lft.to/lastmile_qr_scan"}}, {"name": "bc6e6e29c97a4d358f7e03f2af7b148d", "type": "electric_scooter", "lat": 38.91924733333333, "is_reserved": 0, "lon": -77.03429166666666, "fusion_lon": 0.0, "is_disabled": 0, "fusion_lat": 0.0, "bike_id": "bc6e6e29c97a4d358f7e03f2af7b148d", "rental_uris": {"ios": "https://dc.lft.to/lastmile_qr_scan", "android": "https://dc.lft.to/lastmile_qr_scan"}}, {"name": "8c69a44e3bbbb983f068979c6fb44b71", "type": "electric_bike", "lat": 38.839910333333336, "is_reserved": 0, "lon": -77.00570066666667, "fusion_lon": 0.0, "is_disabled": 0, "fusion_lat": 0.0, "bike_id": "8c69a44e3bbbb983f068979c6fb44b71", "rental_uris": {"ios": "https://dc.lft.to/lastmile_qr_scan", "android": "https://dc.lft.to/lastmile_qr_scan"}}, {"name": "ddae8dbb380b29269cffcffdf01011e6", "type": "electric_scooter", "lat": 38.91329316666667, "is_reserved": 0, "lon": -77.03169633333333, "fusion_lon": 0.0, "is_disabled": 0, "fusion_lat": 0.0, "bike_id": "ddae8dbb380b29269cffcffdf01011e6", "rental_uris": {"ios": "https://dc.lft.to/lastmile_qr_scan", "android": "https://dc.lft.to/lastmile_qr_scan"}}, {"name": "3dec1b505a05994072c5d9af4b9800fe", "type": "electric_scooter", "lat": 38.93065383333333, "is_reserved": 0, "lon": -77.02918666666666, "fusion_lon": 0.0, "is_disabled": 0, "fusion_lat": 0.0, "bike_id": "3dec1b505a05994072c5d9af4b9800fe", "rental_uris": {"ios": "https://dc.lft.to/lastmile_qr_scan", "android": "https://dc.lft.to/lastmile_qr_scan"}}, {"name": "230a4f91a9b58f9b4ff06c7eb4a28553", "type": "electric_scooter", "lat": 38.9376805, "is_reserved": 0, "lon": -77.02263383333333, "fusion_lon": 0.0, "is_disabled": 0, "fusion_lat": 0.0, "bike_id": "230a4f91a9b58f9b4ff06c7eb4a28553", "rental_uris": {"ios": "https://dc.lft.to/lastmile_qr_scan", "android": "https://dc.lft.to/lastmile_qr_scan"}}, {"name": "f63cda77d05b63f100aa9d7fe309f405", "type": "electric_scooter", "lat": 38.89919066666667, "is_reserved": 0, "lon": -76.93384616666667, "fusion_lon": 0.0, "is_disabled": 0, "fusion_lat": 0.0, "bike_id": "f63cda77d05b63f100aa9d7fe309f405", "rental_uris": {"ios": "https://dc.lft.to/lastmile_qr_scan", "android": "https://dc.lft.to/lastmile_qr_scan"}}, {"name": "e70f212c5fd42d4aca59e57d2532ade5", "type": "electric_scooter", "lat": 38.86246033333333, "is_reserved": 0, "lon": -76.9950335, "fusion_lon": 0.0, "is_disabled": 0, "fusion_lat": 0.0, "bike_id": "e70f212c5fd42d4aca59e57d2532ade5", "rental_uris": {"ios": "https://dc.lft.to/lastmile_qr_scan", "android": "https://dc.lft.to/lastmile_qr_scan"}}, {"name": "9fbfee4f4f7483ef0841d208877f6209", "type": "electric_scooter", "lat": 38.930974, "is_reserved": 0, "lon": -77.03677566666667, "fusion_lon": 0.0, "is_disabled": 0, "fusion_lat": 0.0, "bike_id": "9fbfee4f4f7483ef0841d208877f6209", "rental_uris": {"ios": "https://dc.lft.to/lastmile_qr_scan", "android": "https://dc.lft.to/lastmile_qr_scan"}}, {"name": "4473ac9f31ef67dc884ce2783fa13264", "type": "electric_scooter", "lat": 38.92489233333333, "is_reserved": 0, "lon": -77.02717083333333, "fusion_lon": 0.0, "is_disabled": 0, "fusion_lat": 0.0, "bike_id": "4473ac9f31ef67dc884ce2783fa13264", "rental_uris": {"ios": "https://dc.lft.to/lastmile_qr_scan", "android": "https://dc.lft.to/lastmile_qr_scan"}}, {"name": "7664c3e2b7478601ef8594a5e30e144d", "type": "electric_bike", "lat": 38.91177716666667, "is_reserved": 0, "lon": -77.00281066666666, "fusion_lon": 0.0, "is_disabled": 0, "fusion_lat": 0.0, "bike_id": "7664c3e2b7478601ef8594a5e30e144d", "rental_uris": {"ios": "https://dc.lft.to/lastmile_qr_scan", "android": "https://dc.lft.to/lastmile_qr_scan"}}, {"name": "110f11e9ba7d69b3480c621f5f8756f3", "type": "electric_scooter", "lat": 38.95734433333333, "is_reserved": 0, "lon": -77.02406416666666, "fusion_lon": 0.0, "is_disabled": 0, "fusion_lat": 0.0, "bike_id": "110f11e9ba7d69b3480c621f5f8756f3", "rental_uris": {"ios": "https://dc.lft.to/lastmile_qr_scan", "android": "https://dc.lft.to/lastmile_qr_scan"}}, {"name": "8d8b1355e83af67faded776c3c552648", "type": "electric_scooter", "lat": 38.922375, "is_reserved": 0, "lon": -77.04615833333334, "fusion_lon": 0.0, "is_disabled": 0, "fusion_lat": 0.0, "bike_id": "8d8b1355e83af67faded776c3c552648", "rental_uris": {"ios": "https://dc.lft.to/lastmile_qr_scan", "android": "https://dc.lft.to/lastmile_qr_scan"}}, {"name": "0103d84eed91c266d68e401b9765b368", "type": "electric_scooter", "lat": 38.90243683333333, "is_reserved": 0, "lon": -76.97933083333334, "fusion_lon": 0.0, "is_disabled": 0, "fusion_lat": 0.0, "bike_id": "0103d84eed91c266d68e401b9765b368", "rental_uris": {"ios": "https://dc.lft.to/lastmile_qr_scan", "android": "https://dc.lft.to/lastmile_qr_scan"}}, {"name": "38927d96ca248a5d8907f995d62c7886", "type": "electric_scooter", "lat": 38.90125283333333, "is_reserved": 0, "lon": -77.0446915, "fusion_lon": 0.0, "is_disabled": 0, "fusion_lat": 0.0, "bike_id": "38927d96ca248a5d8907f995d62c7886", "rental_uris": {"ios": "https://dc.lft.to/lastmile_qr_scan", "android": "https://dc.lft.to/lastmile_qr_scan"}}, {"name": "99615c6f3e184ce09c68252b104715bf", "type": "electric_scooter", "lat": 38.894769833333335, "is_reserved": 0, "lon": -76.9840465, "fusion_lon": 0.0, "is_disabled": 0, "fusion_lat": 0.0, "bike_id": "99615c6f3e184ce09c68252b104715bf", "rental_uris": {"ios": "https://dc.lft.to/lastmile_qr_scan", "android": "https://dc.lft.to/lastmile_qr_scan"}}, {"name": "3868117ac0741b10ef0727b1a7495265", "type": "electric_scooter", "lat": 38.906645833333336, "is_reserved": 0, "lon": -77.04301, "fusion_lon": 0.0, "is_disabled": 0, "fusion_lat": 0.0, "bike_id": "3868117ac0741b10ef0727b1a7495265", "rental_uris": {"ios": "https://dc.lft.to/lastmile_qr_scan", "android": "https://dc.lft.to/lastmile_qr_scan"}}, {"name": "ae1d1ac0cc045d2fb8e1e7085c9f6bf2", "type": "electric_bike", "lat": 38.88407483333334, "is_reserved": 0, "lon": -77.04647066666666, "fusion_lon": 0.0, "is_disabled": 0, "fusion_lat": 0.0, "bike_id": "ae1d1ac0cc045d2fb8e1e7085c9f6bf2", "rental_uris": {"ios": "https://dc.lft.to/lastmile_qr_scan", "android": "https://dc.lft.to/lastmile_qr_scan"}}, {"name": "2e14bd55b18569083ab62796fc9e561c", "type": "electric_scooter", "lat": 38.86578983333333, "is_reserved": 0, "lon": -76.9895405, "fusion_lon": 0.0, "is_disabled": 0, "fusion_lat": 0.0, "bike_id": "2e14bd55b18569083ab62796fc9e561c", "rental_uris": {"ios": "https://dc.lft.to/lastmile_qr_scan", "android": "https://dc.lft.to/lastmile_qr_scan"}}, {"name": "07ccb13db1041fe5911e035ec5bbfd7a", "type": "electric_scooter", "lat": 38.94324533333333, "is_reserved": 0, "lon": -77.05926566666666, "fusion_lon": 0.0, "is_disabled": 0, "fusion_lat": 0.0, "bike_id": "07ccb13db1041fe5911e035ec5bbfd7a", "rental_uris": {"ios": "https://dc.lft.to/lastmile_qr_scan", "android": "https://dc.lft.to/lastmile_qr_scan"}}, {"name": "bc17e4ef9b58e85f3da758a35fe72581", "type": "electric_scooter", "lat": 38.9307035, "is_reserved": 0, "lon": -77.0394925, "fusion_lon": 0.0, "is_disabled": 0, "fusion_lat": 0.0, "bike_id": "bc17e4ef9b58e85f3da758a35fe72581", "rental_uris": {"ios": "https://dc.lft.to/lastmile_qr_scan", "android": "https://dc.lft.to/lastmile_qr_scan"}}, {"name": "7a160382e732f8a5b8772838ba339fe0", "type": "electric_bike", "lat": 38.85158933333334, "is_reserved": 0, "lon": -77.1287945, "fusion_lon": 0.0, "is_disabled": 0, "fusion_lat": 0.0, "bike_id": "7a160382e732f8a5b8772838ba339fe0", "rental_uris": {"ios": "https://dc.lft.to/lastmile_qr_scan", "android": "https://dc.lft.to/lastmile_qr_scan"}}, {"name": "5d3590c986be2af9108595e793a9d6c1", "type": "electric_scooter", "lat": 38.908297833333336, "is_reserved": 0, "lon": -76.9997055, "fusion_lon": 0.0, "is_disabled": 0, "fusion_lat": 0.0, "bike_id": "5d3590c986be2af9108595e793a9d6c1", "rental_uris": {"ios": "https://dc.lft.to/lastmile_qr_scan", "android": "https://dc.lft.to/lastmile_qr_scan"}}, {"name": "528ca5001f34c5d2c08ba7c95d0c025f", "type": "electric_scooter", "lat": 38.86428816666667, "is_reserved": 0, "lon": -76.98578433333333, "fusion_lon": 0.0, "is_disabled": 0, "fusion_lat": 0.0, "bike_id": "528ca5001f34c5d2c08ba7c95d0c025f", "rental_uris": {"ios": "https://dc.lft.to/lastmile_qr_scan", "android": "https://dc.lft.to/lastmile_qr_scan"}}, {"name": "436df269b3702f878e6616cc34d811b8", "type": "electric_scooter", "lat": 38.93083766666667, "is_reserved": 0, "lon": -77.0279455, "fusion_lon": 0.0, "is_disabled": 0, "fusion_lat": 0.0, "bike_id": "436df269b3702f878e6616cc34d811b8", "rental_uris": {"ios": "https://dc.lft.to/lastmile_qr_scan", "android": "https://dc.lft.to/lastmile_qr_scan"}}, {"name": "d8093a5053a001a7b91dfe927017840c", "type": "electric_bike", "lat": 38.89462533333333, "is_reserved": 0, "lon": -76.9703975, "fusion_lon": 0.0, "is_disabled": 0, "fusion_lat": 0.0, "bike_id": "d8093a5053a001a7b91dfe927017840c", "rental_uris": {"ios": "https://dc.lft.to/lastmile_qr_scan", "android": "https://dc.lft.to/lastmile_qr_scan"}}, {"name": "7d5a9b098ef1ebbb147799c6638d3e74", "type": "electric_scooter", "lat": 38.93361766666666, "is_reserved": 0, "lon": -77.03425133333333, "fusion_lon": 0.0, "is_disabled": 0, "fusion_lat": 0.0, "bike_id": "7d5a9b098ef1ebbb147799c6638d3e74", "rental_uris": {"ios": "https://dc.lft.to/lastmile_qr_scan", "android": "https://dc.lft.to/lastmile_qr_scan"}}, {"name": "a926ac2f791e3676fd429866cb031ad8", "type": "electric_scooter", "lat": 38.925986, "is_reserved": 0, "lon": -77.021208, "fusion_lon": 0.0, "is_disabled": 0, "fusion_lat": 0.0, "bike_id": "a926ac2f791e3676fd429866cb031ad8", "rental_uris": {"ios": "https://dc.lft.to/lastmile_qr_scan", "android": "https://dc.lft.to/lastmile_qr_scan"}}, {"name": "cb349337d0090a82dca310c9d663d11f", "type": "electric_scooter", "lat": 38.907295, "is_reserved": 0, "lon": -77.02507316666667, "fusion_lon": 0.0, "is_disabled": 0, "fusion_lat": 0.0, "bike_id": "cb349337d0090a82dca310c9d663d11f", "rental_uris": {"ios": "https://dc.lft.to/lastmile_qr_scan", "android": "https://dc.lft.to/lastmile_qr_scan"}}, {"name": "0ecc7bfcbf07d0fe03e555d71e07a9dc", "type": "electric_scooter", "lat": 38.917627833333334, "is_reserved": 0, "lon": -77.02719066666667, "fusion_lon": 0.0, "is_disabled": 0, "fusion_lat": 0.0, "bike_id": "0ecc7bfcbf07d0fe03e555d71e07a9dc", "rental_uris": {"ios": "https://dc.lft.to/lastmile_qr_scan", "android": "https://dc.lft.to/lastmile_qr_scan"}}, {"name": "2a0289315951ef157fcf93dd35cbbddb", "type": "electric_scooter", "lat": 38.9337005, "is_reserved": 0, "lon": -77.05724766666667, "fusion_lon": 0.0, "is_disabled": 0, "fusion_lat": 0.0, "bike_id": "2a0289315951ef157fcf93dd35cbbddb", "rental_uris": {"ios": "https://dc.lft.to/lastmile_qr_scan", "android": "https://dc.lft.to/lastmile_qr_scan"}}, {"name": "47341fe25194620a659ebfcdaee81f10", "type": "electric_scooter", "lat": 38.91914933333334, "is_reserved": 0, "lon": -77.0251425, "fusion_lon": 0.0, "is_disabled": 0, "fusion_lat": 0.0, "bike_id": "47341fe25194620a659ebfcdaee81f10", "rental_uris": {"ios": "https://dc.lft.to/lastmile_qr_scan", "android": "https://dc.lft.to/lastmile_qr_scan"}}, {"name": "32b64e06a906ba92b1eb21d6101cf04e", "type": "electric_bike", "lat": 38.89690433333333, "is_reserved": 0, "lon": -76.94066983333333, "fusion_lon": 0.0, "is_disabled": 0, "fusion_lat": 0.0, "bike_id": "32b64e06a906ba92b1eb21d6101cf04e", "rental_uris": {"ios": "https://dc.lft.to/lastmile_qr_scan", "android": "https://dc.lft.to/lastmile_qr_scan"}}, {"name": "1a22288bbc29ad81c870710bf769f922", "type": "electric_bike", "lat": 38.88646716666667, "is_reserved": 0, "lon": -76.954723, "fusion_lon": 0.0, "is_disabled": 0, "fusion_lat": 0.0, "bike_id": "1a22288bbc29ad81c870710bf769f922", "rental_uris": {"ios": "https://dc.lft.to/lastmile_qr_scan", "android": "https://dc.lft.to/lastmile_qr_scan"}}, {"name": "35bd63296280fdd9aebbb4b6b5e82155", "type": "electric_scooter", "lat": 38.956425333333335, "is_reserved": 0, "lon": -77.02545966666666, "fusion_lon": 0.0, "is_disabled": 0, "fusion_lat": 0.0, "bike_id": "35bd63296280fdd9aebbb4b6b5e82155", "rental_uris": {"ios": "https://dc.lft.to/lastmile_qr_scan", "android": "https://dc.lft.to/lastmile_qr_scan"}}, {"name": "b54ccb0d3f2286321ca47279a4a612ca", "type": "electric_scooter", "lat": 38.8832355, "is_reserved": 0, "lon": -77.0178445, "fusion_lon": 0.0, "is_disabled": 0, "fusion_lat": 0.0, "bike_id": "b54ccb0d3f2286321ca47279a4a612ca", "rental_uris": {"ios": "https://dc.lft.to/lastmile_qr_scan", "android": "https://dc.lft.to/lastmile_qr_scan"}}, {"name": "8ee88f14a2e9028a9d195bca08af5eff", "type": "electric_scooter", "lat": 38.905728333333336, "is_reserved": 0, "lon": -77.029288, "fusion_lon": 0.0, "is_disabled": 0, "fusion_lat": 0.0, "bike_id": "8ee88f14a2e9028a9d195bca08af5eff", "rental_uris": {"ios": "https://dc.lft.to/lastmile_qr_scan", "android": "https://dc.lft.to/lastmile_qr_scan"}}, {"name": "cde4d2105fb111be0359330d425c93f8", "type": "electric_scooter", "lat": 38.94168333333333, "is_reserved": 0, "lon": -77.01554266666666, "fusion_lon": 0.0, "is_disabled": 0, "fusion_lat": 0.0, "bike_id": "cde4d2105fb111be0359330d425c93f8", "rental_uris": {"ios": "https://dc.lft.to/lastmile_qr_scan", "android": "https://dc.lft.to/lastmile_qr_scan"}}, {"name": "411a30395a5f15ab6a700c1244859ea4", "type": "electric_scooter", "lat": 38.9159315, "is_reserved": 0, "lon": -76.9836855, "fusion_lon": 0.0, "is_disabled": 0, "fusion_lat": 0.0, "bike_id": "411a30395a5f15ab6a700c1244859ea4", "rental_uris": {"ios": "https://dc.lft.to/lastmile_qr_scan", "android": "https://dc.lft.to/lastmile_qr_scan"}}, {"name": "082d7295bfb2401710eaeb6181805881", "type": "electric_scooter", "lat": 38.89832116666667, "is_reserved": 0, "lon": -77.03289, "fusion_lon": 0.0, "is_disabled": 0, "fusion_lat": 0.0, "bike_id": "082d7295bfb2401710eaeb6181805881", "rental_uris": {"ios": "https://dc.lft.to/lastmile_qr_scan", "android": "https://dc.lft.to/lastmile_qr_scan"}}, {"name": "48da15890fa43d9bed6ac13258684810", "type": "electric_bike", "lat": 38.87138216666666, "is_reserved": 0, "lon": -76.93735083333334, "fusion_lon": 0.0, "is_disabled": 0, "fusion_lat": 0.0, "bike_id": "48da15890fa43d9bed6ac13258684810", "rental_uris": {"ios": "https://dc.lft.to/lastmile_qr_scan", "android": "https://dc.lft.to/lastmile_qr_scan"}}, {"name": "55b5f95b8ad2143a0a63d1df3f6fd554", "type": "electric_scooter", "lat": 38.909563, "is_reserved": 0, "lon": -77.04321733333333, "fusion_lon": 0.0, "is_disabled": 0, "fusion_lat": 0.0, "bike_id": "55b5f95b8ad2143a0a63d1df3f6fd554", "rental_uris": {"ios": "https://dc.lft.to/lastmile_qr_scan", "android": "https://dc.lft.to/lastmile_qr_scan"}}, {"name": "64f2e3e77f685f79eeb66dbe0c02b0cc", "type": "electric_bike", "lat": 38.832376833333335, "is_reserved": 0, "lon": -76.94623666666666, "fusion_lon": 0.0, "is_disabled": 0, "fusion_lat": 0.0, "bike_id": "64f2e3e77f685f79eeb66dbe0c02b0cc", "rental_uris": {"ios": "https://dc.lft.to/lastmile_qr_scan", "android": "https://dc.lft.to/lastmile_qr_scan"}}, {"name": "93909372a8ee1573944b5d241bb96744", "type": "electric_scooter", "lat": 38.92992233333333, "is_reserved": 0, "lon": -77.07940966666666, "fusion_lon": 0.0, "is_disabled": 0, "fusion_lat": 0.0, "bike_id": "93909372a8ee1573944b5d241bb96744", "rental_uris": {"ios": "https://dc.lft.to/lastmile_qr_scan", "android": "https://dc.lft.to/lastmile_qr_scan"}}, {"name": "5de62d4c89489a803b15528abba6eec2", "type": "electric_scooter", "lat": 38.924906166666666, "is_reserved": 0, "lon": -77.02713466666667, "fusion_lon": 0.0, "is_disabled": 0, "fusion_lat": 0.0, "bike_id": "5de62d4c89489a803b15528abba6eec2", "rental_uris": {"ios": "https://dc.lft.to/lastmile_qr_scan", "android": "https://dc.lft.to/lastmile_qr_scan"}}, {"name": "4e814541689f9dc17bd5ff2fee6f8751", "type": "electric_scooter", "lat": 38.931163166666664, "is_reserved": 0, "lon": -77.03812633333334, "fusion_lon": 0.0, "is_disabled": 0, "fusion_lat": 0.0, "bike_id": "4e814541689f9dc17bd5ff2fee6f8751", "rental_uris": {"ios": "https://dc.lft.to/lastmile_qr_scan", "android": "https://dc.lft.to/lastmile_qr_scan"}}, {"name": "07b192bee1069fc001217cfcc42f06ba", "type": "electric_scooter", "lat": 38.92019, "is_reserved": 0, "lon": -77.0440475, "fusion_lon": 0.0, "is_disabled": 0, "fusion_lat": 0.0, "bike_id": "07b192bee1069fc001217cfcc42f06ba", "rental_uris": {"ios": "https://dc.lft.to/lastmile_qr_scan", "android": "https://dc.lft.to/lastmile_qr_scan"}}, {"name": "6e51c37873d48a5dec54dad2ccb1e1aa", "type": "electric_scooter", "lat": 38.934585166666665, "is_reserved": 0, "lon": -77.07236166666667, "fusion_lon": 0.0, "is_disabled": 0, "fusion_lat": 0.0, "bike_id": "6e51c37873d48a5dec54dad2ccb1e1aa", "rental_uris": {"ios": "https://dc.lft.to/lastmile_qr_scan", "android": "https://dc.lft.to/lastmile_qr_scan"}}, {"name": "cdc7d09acd87313d297be322ddef8d02", "type": "electric_scooter", "lat": 38.8988535, "is_reserved": 0, "lon": -76.93173083333333, "fusion_lon": 0.0, "is_disabled": 0, "fusion_lat": 0.0, "bike_id": "cdc7d09acd87313d297be322ddef8d02", "rental_uris": {"ios": "https://dc.lft.to/lastmile_qr_scan", "android": "https://dc.lft.to/lastmile_qr_scan"}}, {"name": "2973594d0ebd789d529e895df5b56fba", "type": "electric_scooter", "lat": 38.928794833333335, "is_reserved": 0, "lon": -77.03748, "fusion_lon": 0.0, "is_disabled": 0, "fusion_lat": 0.0, "bike_id": "2973594d0ebd789d529e895df5b56fba", "rental_uris": {"ios": "https://dc.lft.to/lastmile_qr_scan", "android": "https://dc.lft.to/lastmile_qr_scan"}}, {"name": "3119c1df9bdb267d152eddc92626aed0", "type": "electric_bike", "lat": 38.8988795, "is_reserved": 0, "lon": -76.98392183333333, "fusion_lon": 0.0, "is_disabled": 0, "fusion_lat": 0.0, "bike_id": "3119c1df9bdb267d152eddc92626aed0", "rental_uris": {"ios": "https://dc.lft.to/lastmile_qr_scan", "android": "https://dc.lft.to/lastmile_qr_scan"}}, {"name": "409d428df2b4853b837404b66e1f43ec", "type": "electric_scooter", "lat": 38.894086, "is_reserved": 0, "lon": -76.99365833333333, "fusion_lon": 0.0, "is_disabled": 0, "fusion_lat": 0.0, "bike_id": "409d428df2b4853b837404b66e1f43ec", "rental_uris": {"ios": "https://dc.lft.to/lastmile_qr_scan", "android": "https://dc.lft.to/lastmile_qr_scan"}}, {"name": "ec642afd7cadb0cd65592b3e6b73ca10", "type": "electric_scooter", "lat": 38.9051895, "is_reserved": 0, "lon": -77.066266, "fusion_lon": 0.0, "is_disabled": 0, "fusion_lat": 0.0, "bike_id": "ec642afd7cadb0cd65592b3e6b73ca10", "rental_uris": {"ios": "https://dc.lft.to/lastmile_qr_scan", "android": "https://dc.lft.to/lastmile_qr_scan"}}, {"name": "1d888382f7e77bab0d15327dd912dd46", "type": "electric_scooter", "lat": 38.946485333333335, "is_reserved": 0, "lon": -77.0193045, "fusion_lon": 0.0, "is_disabled": 0, "fusion_lat": 0.0, "bike_id": "1d888382f7e77bab0d15327dd912dd46", "rental_uris": {"ios": "https://dc.lft.to/lastmile_qr_scan", "android": "https://dc.lft.to/lastmile_qr_scan"}}, {"name": "dd652cfb669bbb6d0314404e34e3b683", "type": "electric_scooter", "lat": 38.8666735, "is_reserved": 0, "lon": -76.988891, "fusion_lon": 0.0, "is_disabled": 0, "fusion_lat": 0.0, "bike_id": "dd652cfb669bbb6d0314404e34e3b683", "rental_uris": {"ios": "https://dc.lft.to/lastmile_qr_scan", "android": "https://dc.lft.to/lastmile_qr_scan"}}, {"name": "cd82af232bd111e9e2dc63496e5485de", "type": "electric_bike", "lat": 38.967547333333336, "is_reserved": 0, "lon": -77.02795216666667, "fusion_lon": 0.0, "is_disabled": 0, "fusion_lat": 0.0, "bike_id": "cd82af232bd111e9e2dc63496e5485de", "rental_uris": {"ios": "https://dc.lft.to/lastmile_qr_scan", "android": "https://dc.lft.to/lastmile_qr_scan"}}, {"name": "93b11b9d62d34c2137aae2729c7d75b1", "type": "electric_bike", "lat": 38.874791333333334, "is_reserved": 0, "lon": -76.96527116666667, "fusion_lon": 0.0, "is_disabled": 0, "fusion_lat": 0.0, "bike_id": "93b11b9d62d34c2137aae2729c7d75b1", "rental_uris": {"ios": "https://dc.lft.to/lastmile_qr_scan", "android": "https://dc.lft.to/lastmile_qr_scan"}}, {"name": "f0bdbcd00b79dc513de71ad129ca0579", "type": "electric_scooter", "lat": 38.915741, "is_reserved": 0, "lon": -77.04641133333334, "fusion_lon": 0.0, "is_disabled": 0, "fusion_lat": 0.0, "bike_id": "f0bdbcd00b79dc513de71ad129ca0579", "rental_uris": {"ios": "https://dc.lft.to/lastmile_qr_scan", "android": "https://dc.lft.to/lastmile_qr_scan"}}, {"name": "e20a2bbba473dc4ab14e7d1b90d43e74", "type": "electric_scooter", "lat": 38.91017983333333, "is_reserved": 0, "lon": -76.99392666666667, "fusion_lon": 0.0, "is_disabled": 0, "fusion_lat": 0.0, "bike_id": "e20a2bbba473dc4ab14e7d1b90d43e74", "rental_uris": {"ios": "https://dc.lft.to/lastmile_qr_scan", "android": "https://dc.lft.to/lastmile_qr_scan"}}, {"name": "44a54a3d1437717e001096a0a20c0382", "type": "electric_scooter", "lat": 38.9149855, "is_reserved": 0, "lon": -77.01859616666667, "fusion_lon": 0.0, "is_disabled": 0, "fusion_lat": 0.0, "bike_id": "44a54a3d1437717e001096a0a20c0382", "rental_uris": {"ios": "https://dc.lft.to/lastmile_qr_scan", "android": "https://dc.lft.to/lastmile_qr_scan"}}, {"name": "a3d339c1cd80538cf7a25517bbc9f202", "type": "electric_scooter", "lat": 38.939391666666666, "is_reserved": 0, "lon": -77.017093, "fusion_lon": 0.0, "is_disabled": 0, "fusion_lat": 0.0, "bike_id": "a3d339c1cd80538cf7a25517bbc9f202", "rental_uris": {"ios": "https://dc.lft.to/lastmile_qr_scan", "android": "https://dc.lft.to/lastmile_qr_scan"}}, {"name": "bdad191300e36c3a4c5a5ea6ff9aef23", "type": "electric_scooter", "lat": 38.9005485, "is_reserved": 0, "lon": -77.01277816666666, "fusion_lon": 0.0, "is_disabled": 0, "fusion_lat": 0.0, "bike_id": "bdad191300e36c3a4c5a5ea6ff9aef23", "rental_uris": {"ios": "https://dc.lft.to/lastmile_qr_scan", "android": "https://dc.lft.to/lastmile_qr_scan"}}, {"name": "db34a60b31d85b7d96d224539679c022", "type": "electric_bike", "lat": 38.94274733333334, "is_reserved": 0, "lon": -76.98074366666667, "fusion_lon": 0.0, "is_disabled": 0, "fusion_lat": 0.0, "bike_id": "db34a60b31d85b7d96d224539679c022", "rental_uris": {"ios": "https://dc.lft.to/lastmile_qr_scan", "android": "https://dc.lft.to/lastmile_qr_scan"}}, {"name": "837197e7b228d14b97ca0ea23d62e0fd", "type": "electric_scooter", "lat": 38.92738416666667, "is_reserved": 0, "lon": -77.029947, "fusion_lon": 0.0, "is_disabled": 0, "fusion_lat": 0.0, "bike_id": "837197e7b228d14b97ca0ea23d62e0fd", "rental_uris": {"ios": "https://dc.lft.to/lastmile_qr_scan", "android": "https://dc.lft.to/lastmile_qr_scan"}}, {"name": "15079da5b23cd46ae52cd3584f526954", "type": "electric_scooter", "lat": 38.88318616666667, "is_reserved": 0, "lon": -77.00937633333334, "fusion_lon": 0.0, "is_disabled": 0, "fusion_lat": 0.0, "bike_id": "15079da5b23cd46ae52cd3584f526954", "rental_uris": {"ios": "https://dc.lft.to/lastmile_qr_scan", "android": "https://dc.lft.to/lastmile_qr_scan"}}, {"name": "47a3c0a0e24e623fe72aefeee168f6b3", "type": "electric_scooter", "lat": 38.8846415, "is_reserved": 0, "lon": -77.00580616666667, "fusion_lon": 0.0, "is_disabled": 0, "fusion_lat": 0.0, "bike_id": "47a3c0a0e24e623fe72aefeee168f6b3", "rental_uris": {"ios": "https://dc.lft.to/lastmile_qr_scan", "android": "https://dc.lft.to/lastmile_qr_scan"}}, {"name": "fde0c7d39e39821ff15577b8f6a61d29", "type": "electric_scooter", "lat": 38.896413, "is_reserved": 0, "lon": -77.01017516666667, "fusion_lon": 0.0, "is_disabled": 0, "fusion_lat": 0.0, "bike_id": "fde0c7d39e39821ff15577b8f6a61d29", "rental_uris": {"ios": "https://dc.lft.to/lastmile_qr_scan", "android": "https://dc.lft.to/lastmile_qr_scan"}}, {"name": "f1a323671418d2170c7a470b1275d34b", "type": "electric_scooter", "lat": 38.8952625, "is_reserved": 0, "lon": -77.01611016666666, "fusion_lon": 0.0, "is_disabled": 0, "fusion_lat": 0.0, "bike_id": "f1a323671418d2170c7a470b1275d34b", "rental_uris": {"ios": "https://dc.lft.to/lastmile_qr_scan", "android": "https://dc.lft.to/lastmile_qr_scan"}}, {"name": "7576bee62ced7ded865b3c2255e2d3e4", "type": "electric_scooter", "lat": 38.910666666666664, "is_reserved": 0, "lon": -77.03038766666667, "fusion_lon": 0.0, "is_disabled": 0, "fusion_lat": 0.0, "bike_id": "7576bee62ced7ded865b3c2255e2d3e4", "rental_uris": {"ios": "https://dc.lft.to/lastmile_qr_scan", "android": "https://dc.lft.to/lastmile_qr_scan"}}, {"name": "d8231b693d51d0ab8826b273f5c1e596", "type": "electric_scooter", "lat": 38.920639666666666, "is_reserved": 0, "lon": -77.03209616666666, "fusion_lon": 0.0, "is_disabled": 0, "fusion_lat": 0.0, "bike_id": "d8231b693d51d0ab8826b273f5c1e596", "rental_uris": {"ios": "https://dc.lft.to/lastmile_qr_scan", "android": "https://dc.lft.to/lastmile_qr_scan"}}, {"name": "e84fb8ec1f51ecb709af71a3a6880c48", "type": "electric_scooter", "lat": 38.93505783333333, "is_reserved": 0, "lon": -77.028562, "fusion_lon": 0.0, "is_disabled": 0, "fusion_lat": 0.0, "bike_id": "e84fb8ec1f51ecb709af71a3a6880c48", "rental_uris": {"ios": "https://dc.lft.to/lastmile_qr_scan", "android": "https://dc.lft.to/lastmile_qr_scan"}}, {"name": "def7174d4d57410889962be4585da916", "type": "electric_bike", "lat": 38.854425166666665, "is_reserved": 0, "lon": -77.11707333333334, "fusion_lon": 0.0, "is_disabled": 0, "fusion_lat": 0.0, "bike_id": "def7174d4d57410889962be4585da916", "rental_uris": {"ios": "https://dc.lft.to/lastmile_qr_scan", "android": "https://dc.lft.to/lastmile_qr_scan"}}, {"name": "b7c5bc8072f84c894e4ee5633864d666", "type": "electric_scooter", "lat": 38.941858, "is_reserved": 0, "lon": -77.03093983333333, "fusion_lon": 0.0, "is_disabled": 0, "fusion_lat": 0.0, "bike_id": "b7c5bc8072f84c894e4ee5633864d666", "rental_uris": {"ios": "https://dc.lft.to/lastmile_qr_scan", "android": "https://dc.lft.to/lastmile_qr_scan"}}, {"name": "1e2418fa36dec4e68477b37baaf71962", "type": "electric_scooter", "lat": 38.90609383333334, "is_reserved": 0, "lon": -77.013176, "fusion_lon": 0.0, "is_disabled": 0, "fusion_lat": 0.0, "bike_id": "1e2418fa36dec4e68477b37baaf71962", "rental_uris": {"ios": "https://dc.lft.to/lastmile_qr_scan", "android": "https://dc.lft.to/lastmile_qr_scan"}}, {"name": "0876bb05ea3c72e1ff58fd59ec3f19a3", "type": "electric_bike", "lat": 38.91173916666666, "is_reserved": 0, "lon": -77.01150766666666, "fusion_lon": 0.0, "is_disabled": 0, "fusion_lat": 0.0, "bike_id": "0876bb05ea3c72e1ff58fd59ec3f19a3", "rental_uris": {"ios": "https://dc.lft.to/lastmile_qr_scan", "android": "https://dc.lft.to/lastmile_qr_scan"}}, {"name": "36cd248b1a5bdece9e24ae2d4ab6df4c", "type": "electric_scooter", "lat": 38.926851666666664, "is_reserved": 0, "lon": -77.02159283333333, "fusion_lon": 0.0, "is_disabled": 0, "fusion_lat": 0.0, "bike_id": "36cd248b1a5bdece9e24ae2d4ab6df4c", "rental_uris": {"ios": "https://dc.lft.to/lastmile_qr_scan", "android": "https://dc.lft.to/lastmile_qr_scan"}}, {"name": "2cf8afcb1f8627e99395cacc1c6d309f", "type": "electric_scooter", "lat": 38.878961, "is_reserved": 0, "lon": -77.022139, "fusion_lon": 0.0, "is_disabled": 0, "fusion_lat": 0.0, "bike_id": "2cf8afcb1f8627e99395cacc1c6d309f", "rental_uris": {"ios": "https://dc.lft.to/lastmile_qr_scan", "android": "https://dc.lft.to/lastmile_qr_scan"}}, {"name": "3f87cc23d587ad03d1815fbdc58b6b93", "type": "electric_bike", "lat": 38.948955, "is_reserved": 0, "lon": -77.01933316666667, "fusion_lon": 0.0, "is_disabled": 0, "fusion_lat": 0.0, "bike_id": "3f87cc23d587ad03d1815fbdc58b6b93", "rental_uris": {"ios": "https://dc.lft.to/lastmile_qr_scan", "android": "https://dc.lft.to/lastmile_qr_scan"}}, {"name": "91ad375250f6765446386a525e7d9823", "type": "electric_scooter", "lat": 38.907257666666666, "is_reserved": 0, "lon": -77.02508483333334, "fusion_lon": 0.0, "is_disabled": 0, "fusion_lat": 0.0, "bike_id": "91ad375250f6765446386a525e7d9823", "rental_uris": {"ios": "https://dc.lft.to/lastmile_qr_scan", "android": "https://dc.lft.to/lastmile_qr_scan"}}, {"name": "e314990e9466d5e323df71fa135b0fb1", "type": "electric_scooter", "lat": 38.935354, "is_reserved": 0, "lon": -77.02864733333334, "fusion_lon": 0.0, "is_disabled": 0, "fusion_lat": 0.0, "bike_id": "e314990e9466d5e323df71fa135b0fb1", "rental_uris": {"ios": "https://dc.lft.to/lastmile_qr_scan", "android": "https://dc.lft.to/lastmile_qr_scan"}}, {"name": "a4158d035d63141fc14d4fe3ff62f182", "type": "electric_scooter", "lat": 38.90802166666667, "is_reserved": 0, "lon": -76.99706283333333, "fusion_lon": 0.0, "is_disabled": 0, "fusion_lat": 0.0, "bike_id": "a4158d035d63141fc14d4fe3ff62f182", "rental_uris": {"ios": "https://dc.lft.to/lastmile_qr_scan", "android": "https://dc.lft.to/lastmile_qr_scan"}}, {"name": "e6c3a855634642b737e0badcc8f7ac4a", "type": "electric_scooter", "lat": 38.94174, "is_reserved": 0, "lon": -77.04137566666667, "fusion_lon": 0.0, "is_disabled": 0, "fusion_lat": 0.0, "bike_id": "e6c3a855634642b737e0badcc8f7ac4a", "rental_uris": {"ios": "https://dc.lft.to/lastmile_qr_scan", "android": "https://dc.lft.to/lastmile_qr_scan"}}, {"name": "87fee2fdf84be2220f1633aeee70bcd3", "type": "electric_scooter", "lat": 38.9110475, "is_reserved": 0, "lon": -77.00218233333334, "fusion_lon": 0.0, "is_disabled": 0, "fusion_lat": 0.0, "bike_id": "87fee2fdf84be2220f1633aeee70bcd3", "rental_uris": {"ios": "https://dc.lft.to/lastmile_qr_scan", "android": "https://dc.lft.to/lastmile_qr_scan"}}, {"name": "bf1105207e0169613246bbd9c11e83a8", "type": "electric_bike", "lat": 38.948921666666664, "is_reserved": 0, "lon": -76.96377566666666, "fusion_lon": 0.0, "is_disabled": 0, "fusion_lat": 0.0, "bike_id": "bf1105207e0169613246bbd9c11e83a8", "rental_uris": {"ios": "https://dc.lft.to/lastmile_qr_scan", "android": "https://dc.lft.to/lastmile_qr_scan"}}, {"name": "8db845c02f3371fad9bdca0c44aa6f0b", "type": "electric_scooter", "lat": 38.929026, "is_reserved": 0, "lon": -77.0545925, "fusion_lon": 0.0, "is_disabled": 0, "fusion_lat": 0.0, "bike_id": "8db845c02f3371fad9bdca0c44aa6f0b", "rental_uris": {"ios": "https://dc.lft.to/lastmile_qr_scan", "android": "https://dc.lft.to/lastmile_qr_scan"}}, {"name": "08a478407f5e0042c3e81fdbe5d36291", "type": "electric_scooter", "lat": 38.9037975, "is_reserved": 0, "lon": -77.01100883333334, "fusion_lon": 0.0, "is_disabled": 0, "fusion_lat": 0.0, "bike_id": "08a478407f5e0042c3e81fdbe5d36291", "rental_uris": {"ios": "https://dc.lft.to/lastmile_qr_scan", "android": "https://dc.lft.to/lastmile_qr_scan"}}, {"name": "2db4166997a4a6fb362825838e2556ad", "type": "electric_scooter", "lat": 38.9199225, "is_reserved": 0, "lon": -77.03975616666666, "fusion_lon": 0.0, "is_disabled": 0, "fusion_lat": 0.0, "bike_id": "2db4166997a4a6fb362825838e2556ad", "rental_uris": {"ios": "https://dc.lft.to/lastmile_qr_scan", "android": "https://dc.lft.to/lastmile_qr_scan"}}, {"name": "d13ba90070e6da720fc0eca96f5002d5", "type": "electric_scooter", "lat": 38.903475666666665, "is_reserved": 0, "lon": -77.066409, "fusion_lon": 0.0, "is_disabled": 0, "fusion_lat": 0.0, "bike_id": "d13ba90070e6da720fc0eca96f5002d5", "rental_uris": {"ios": "https://dc.lft.to/lastmile_qr_scan", "android": "https://dc.lft.to/lastmile_qr_scan"}}, {"name": "69fbe62eca9620daa46086c7dd461438", "type": "electric_scooter", "lat": 38.9103615, "is_reserved": 0, "lon": -77.04820783333334, "fusion_lon": 0.0, "is_disabled": 0, "fusion_lat": 0.0, "bike_id": "69fbe62eca9620daa46086c7dd461438", "rental_uris": {"ios": "https://dc.lft.to/lastmile_qr_scan", "android": "https://dc.lft.to/lastmile_qr_scan"}}, {"name": "ab3dd24c2543fc2f60291163b6d90a1c", "type": "electric_scooter", "lat": 38.856353666666664, "is_reserved": 0, "lon": -76.9745525, "fusion_lon": 0.0, "is_disabled": 0, "fusion_lat": 0.0, "bike_id": "ab3dd24c2543fc2f60291163b6d90a1c", "rental_uris": {"ios": "https://dc.lft.to/lastmile_qr_scan", "android": "https://dc.lft.to/lastmile_qr_scan"}}, {"name": "f434877c6c67b6a3a03853686c743058", "type": "electric_scooter", "lat": 38.926472, "is_reserved": 0, "lon": -77.03407733333333, "fusion_lon": 0.0, "is_disabled": 0, "fusion_lat": 0.0, "bike_id": "f434877c6c67b6a3a03853686c743058", "rental_uris": {"ios": "https://dc.lft.to/lastmile_qr_scan", "android": "https://dc.lft.to/lastmile_qr_scan"}}, {"name": "a1ecbdbe0071090acfc1139f561f580d", "type": "electric_scooter", "lat": 38.89878366666667, "is_reserved": 0, "lon": -76.9315935, "fusion_lon": 0.0, "is_disabled": 0, "fusion_lat": 0.0, "bike_id": "a1ecbdbe0071090acfc1139f561f580d", "rental_uris": {"ios": "https://dc.lft.to/lastmile_qr_scan", "android": "https://dc.lft.to/lastmile_qr_scan"}}, {"name": "0e84d563b2516dcbd84269a0fa6d906f", "type": "electric_scooter", "lat": 38.91357466666667, "is_reserved": 0, "lon": -77.01563066666667, "fusion_lon": 0.0, "is_disabled": 0, "fusion_lat": 0.0, "bike_id": "0e84d563b2516dcbd84269a0fa6d906f", "rental_uris": {"ios": "https://dc.lft.to/lastmile_qr_scan", "android": "https://dc.lft.to/lastmile_qr_scan"}}, {"name": "db03de5d1775f8636ee3ec7371428cfe", "type": "electric_scooter", "lat": 38.899218166666664, "is_reserved": 0, "lon": -76.94561766666666, "fusion_lon": 0.0, "is_disabled": 0, "fusion_lat": 0.0, "bike_id": "db03de5d1775f8636ee3ec7371428cfe", "rental_uris": {"ios": "https://dc.lft.to/lastmile_qr_scan", "android": "https://dc.lft.to/lastmile_qr_scan"}}, {"name": "4e9d5fa2a42830789c52e244fbb17026", "type": "electric_scooter", "lat": 38.924600166666664, "is_reserved": 0, "lon": -77.00214683333333, "fusion_lon": 0.0, "is_disabled": 0, "fusion_lat": 0.0, "bike_id": "4e9d5fa2a42830789c52e244fbb17026", "rental_uris": {"ios": "https://dc.lft.to/lastmile_qr_scan", "android": "https://dc.lft.to/lastmile_qr_scan"}}, {"name": "dd1284d5da1a436e06519ac1ce20ced4", "type": "electric_bike", "lat": 38.85491616666667, "is_reserved": 0, "lon": -77.1152685, "fusion_lon": 0.0, "is_disabled": 0, "fusion_lat": 0.0, "bike_id": "dd1284d5da1a436e06519ac1ce20ced4", "rental_uris": {"ios": "https://dc.lft.to/lastmile_qr_scan", "android": "https://dc.lft.to/lastmile_qr_scan"}}, {"name": "d6ba662843c36cea0cf2ff6f70384860", "type": "electric_scooter", "lat": 38.9119425, "is_reserved": 0, "lon": -76.99617566666667, "fusion_lon": 0.0, "is_disabled": 0, "fusion_lat": 0.0, "bike_id": "d6ba662843c36cea0cf2ff6f70384860", "rental_uris": {"ios": "https://dc.lft.to/lastmile_qr_scan", "android": "https://dc.lft.to/lastmile_qr_scan"}}, {"name": "d156622e28d78b4087d010b54fb4946a", "type": "electric_scooter", "lat": 38.8922735, "is_reserved": 0, "lon": -77.042685, "fusion_lon": 0.0, "is_disabled": 0, "fusion_lat": 0.0, "bike_id": "d156622e28d78b4087d010b54fb4946a", "rental_uris": {"ios": "https://dc.lft.to/lastmile_qr_scan", "android": "https://dc.lft.to/lastmile_qr_scan"}}, {"name": "d2ede1a6495fb767a17d3da949413253", "type": "electric_scooter", "lat": 38.89788316666667, "is_reserved": 0, "lon": -77.02983166666667, "fusion_lon": 0.0, "is_disabled": 0, "fusion_lat": 0.0, "bike_id": "d2ede1a6495fb767a17d3da949413253", "rental_uris": {"ios": "https://dc.lft.to/lastmile_qr_scan", "android": "https://dc.lft.to/lastmile_qr_scan"}}, {"name": "5b8ad353a349d0f97cb027d1e8535c01", "type": "electric_scooter", "lat": 38.92068483333333, "is_reserved": 0, "lon": -77.02921766666667, "fusion_lon": 0.0, "is_disabled": 0, "fusion_lat": 0.0, "bike_id": "5b8ad353a349d0f97cb027d1e8535c01", "rental_uris": {"ios": "https://dc.lft.to/lastmile_qr_scan", "android": "https://dc.lft.to/lastmile_qr_scan"}}, {"name": "4a0af4cf1955d8b6838c3fdddb6a7322", "type": "electric_scooter", "lat": 38.88333033333333, "is_reserved": 0, "lon": -77.01764516666667, "fusion_lon": 0.0, "is_disabled": 0, "fusion_lat": 0.0, "bike_id": "4a0af4cf1955d8b6838c3fdddb6a7322", "rental_uris": {"ios": "https://dc.lft.to/lastmile_qr_scan", "android": "https://dc.lft.to/lastmile_qr_scan"}}, {"name": "d9b4a4fb4055d9caf7800e2bab025e23", "type": "electric_scooter", "lat": 38.961154666666665, "is_reserved": 0, "lon": -77.0281725, "fusion_lon": 0.0, "is_disabled": 0, "fusion_lat": 0.0, "bike_id": "d9b4a4fb4055d9caf7800e2bab025e23", "rental_uris": {"ios": "https://dc.lft.to/lastmile_qr_scan", "android": "https://dc.lft.to/lastmile_qr_scan"}}, {"name": "8b52b73c9ec1e34e7e28662a424a0e43", "type": "electric_scooter", "lat": 38.91712283333333, "is_reserved": 0, "lon": -77.0310915, "fusion_lon": 0.0, "is_disabled": 0, "fusion_lat": 0.0, "bike_id": "8b52b73c9ec1e34e7e28662a424a0e43", "rental_uris": {"ios": "https://dc.lft.to/lastmile_qr_scan", "android": "https://dc.lft.to/lastmile_qr_scan"}}, {"name": "c08592343a7c3d4958e8d3376f72335c", "type": "electric_scooter", "lat": 38.907560333333336, "is_reserved": 0, "lon": -77.00136983333333, "fusion_lon": 0.0, "is_disabled": 0, "fusion_lat": 0.0, "bike_id": "c08592343a7c3d4958e8d3376f72335c", "rental_uris": {"ios": "https://dc.lft.to/lastmile_qr_scan", "android": "https://dc.lft.to/lastmile_qr_scan"}}, {"name": "62774a2cae157bc490b41f884278be85", "type": "electric_scooter", "lat": 38.94443583333333, "is_reserved": 0, "lon": -77.06352033333333, "fusion_lon": 0.0, "is_disabled": 0, "fusion_lat": 0.0, "bike_id": "62774a2cae157bc490b41f884278be85", "rental_uris": {"ios": "https://dc.lft.to/lastmile_qr_scan", "android": "https://dc.lft.to/lastmile_qr_scan"}}, {"name": "f60c16c039f3cdbde17a49df7835c379", "type": "electric_scooter", "lat": 38.925886, "is_reserved": 0, "lon": -77.03912433333333, "fusion_lon": 0.0, "is_disabled": 0, "fusion_lat": 0.0, "bike_id": "f60c16c039f3cdbde17a49df7835c379", "rental_uris": {"ios": "https://dc.lft.to/lastmile_qr_scan", "android": "https://dc.lft.to/lastmile_qr_scan"}}, {"name": "9750abdd31bc6e01f53aa6f4edd5477f", "type": "electric_scooter", "lat": 38.9205945, "is_reserved": 0, "lon": -76.998815, "fusion_lon": 0.0, "is_disabled": 0, "fusion_lat": 0.0, "bike_id": "9750abdd31bc6e01f53aa6f4edd5477f", "rental_uris": {"ios": "https://dc.lft.to/lastmile_qr_scan", "android": "https://dc.lft.to/lastmile_qr_scan"}}, {"name": "7f72869b51d0cea0ed1a312d935574b7", "type": "electric_scooter", "lat": 38.863554, "is_reserved": 0, "lon": -76.9907125, "fusion_lon": 0.0, "is_disabled": 0, "fusion_lat": 0.0, "bike_id": "7f72869b51d0cea0ed1a312d935574b7", "rental_uris": {"ios": "https://dc.lft.to/lastmile_qr_scan", "android": "https://dc.lft.to/lastmile_qr_scan"}}, {"name": "7fb6dd76ef530c023c1da8367eba262b", "type": "electric_scooter", "lat": 38.90176233333333, "is_reserved": 0, "lon": -77.000159, "fusion_lon": 0.0, "is_disabled": 0, "fusion_lat": 0.0, "bike_id": "7fb6dd76ef530c023c1da8367eba262b", "rental_uris": {"ios": "https://dc.lft.to/lastmile_qr_scan", "android": "https://dc.lft.to/lastmile_qr_scan"}}, {"name": "acc31a4af694822d2dbdfa1138d322b5", "type": "electric_scooter", "lat": 38.9086515, "is_reserved": 0, "lon": -76.98618866666666, "fusion_lon": 0.0, "is_disabled": 0, "fusion_lat": 0.0, "bike_id": "acc31a4af694822d2dbdfa1138d322b5", "rental_uris": {"ios": "https://dc.lft.to/lastmile_qr_scan", "android": "https://dc.lft.to/lastmile_qr_scan"}}, {"name": "d7ac8c50b99e3480d8f812cc13537e0b", "type": "electric_scooter", "lat": 38.903745, "is_reserved": 0, "lon": -77.04473783333333, "fusion_lon": 0.0, "is_disabled": 0, "fusion_lat": 0.0, "bike_id": "d7ac8c50b99e3480d8f812cc13537e0b", "rental_uris": {"ios": "https://dc.lft.to/lastmile_qr_scan", "android": "https://dc.lft.to/lastmile_qr_scan"}}, {"name": "3fe89370184ae5d56d1ae313b752d466", "type": "electric_scooter", "lat": 38.941230833333336, "is_reserved": 0, "lon": -77.0266005, "fusion_lon": 0.0, "is_disabled": 0, "fusion_lat": 0.0, "bike_id": "3fe89370184ae5d56d1ae313b752d466", "rental_uris": {"ios": "https://dc.lft.to/lastmile_qr_scan", "android": "https://dc.lft.to/lastmile_qr_scan"}}, {"name": "f64526b1f9aa82704fd0671ea3271e5b", "type": "electric_scooter", "lat": 38.88489916666666, "is_reserved": 0, "lon": -77.02860583333333, "fusion_lon": 0.0, "is_disabled": 0, "fusion_lat": 0.0, "bike_id": "f64526b1f9aa82704fd0671ea3271e5b", "rental_uris": {"ios": "https://dc.lft.to/lastmile_qr_scan", "android": "https://dc.lft.to/lastmile_qr_scan"}}, {"name": "a0e6f51c066a401416d5a9564db2369d", "type": "electric_bike", "lat": 38.9036475, "is_reserved": 0, "lon": -76.98326916666667, "fusion_lon": 0.0, "is_disabled": 0, "fusion_lat": 0.0, "bike_id": "a0e6f51c066a401416d5a9564db2369d", "rental_uris": {"ios": "https://dc.lft.to/lastmile_qr_scan", "android": "https://dc.lft.to/lastmile_qr_scan"}}, {"name": "665affdd44f8a26beb2e69fe777aef7c", "type": "electric_scooter", "lat": 38.90039183333333, "is_reserved": 0, "lon": -76.98840183333333, "fusion_lon": 0.0, "is_disabled": 0, "fusion_lat": 0.0, "bike_id": "665affdd44f8a26beb2e69fe777aef7c", "rental_uris": {"ios": "https://dc.lft.to/lastmile_qr_scan", "android": "https://dc.lft.to/lastmile_qr_scan"}}, {"name": "afc14d34f64c0b0ee459ecfb916a5f2d", "type": "electric_scooter", "lat": 38.905271166666665, "is_reserved": 0, "lon": -77.06589233333334, "fusion_lon": 0.0, "is_disabled": 0, "fusion_lat": 0.0, "bike_id": "afc14d34f64c0b0ee459ecfb916a5f2d", "rental_uris": {"ios": "https://dc.lft.to/lastmile_qr_scan", "android": "https://dc.lft.to/lastmile_qr_scan"}}, {"name": "ae08d44079ba7469114c6f0811285e7f", "type": "electric_scooter", "lat": 38.8989985, "is_reserved": 0, "lon": -77.03276416666667, "fusion_lon": 0.0, "is_disabled": 0, "fusion_lat": 0.0, "bike_id": "ae08d44079ba7469114c6f0811285e7f", "rental_uris": {"ios": "https://dc.lft.to/lastmile_qr_scan", "android": "https://dc.lft.to/lastmile_qr_scan"}}, {"name": "f06c2dce9d8046bacd3206dcda717335", "type": "electric_scooter", "lat": 38.93468566666667, "is_reserved": 0, "lon": -77.03053533333333, "fusion_lon": 0.0, "is_disabled": 0, "fusion_lat": 0.0, "bike_id": "f06c2dce9d8046bacd3206dcda717335", "rental_uris": {"ios": "https://dc.lft.to/lastmile_qr_scan", "android": "https://dc.lft.to/lastmile_qr_scan"}}, {"name": "719e38ee112303872615dc4c876eda68", "type": "electric_scooter", "lat": 38.89019566666666, "is_reserved": 0, "lon": -76.93733033333334, "fusion_lon": 0.0, "is_disabled": 0, "fusion_lat": 0.0, "bike_id": "719e38ee112303872615dc4c876eda68", "rental_uris": {"ios": "https://dc.lft.to/lastmile_qr_scan", "android": "https://dc.lft.to/lastmile_qr_scan"}}, {"name": "492f42b750b66c7d9a845fa189d02632", "type": "electric_scooter", "lat": 38.914892333333334, "is_reserved": 0, "lon": -77.008359, "fusion_lon": 0.0, "is_disabled": 0, "fusion_lat": 0.0, "bike_id": "492f42b750b66c7d9a845fa189d02632", "rental_uris": {"ios": "https://dc.lft.to/lastmile_qr_scan", "android": "https://dc.lft.to/lastmile_qr_scan"}}, {"name": "69ebafbd507a18ac4b5d41a2b08c2161", "type": "electric_bike", "lat": 38.95290966666666, "is_reserved": 0, "lon": -76.9780845, "fusion_lon": 0.0, "is_disabled": 0, "fusion_lat": 0.0, "bike_id": "69ebafbd507a18ac4b5d41a2b08c2161", "rental_uris": {"ios": "https://dc.lft.to/lastmile_qr_scan", "android": "https://dc.lft.to/lastmile_qr_scan"}}, {"name": "b8b45ef140e760ecc0cbdd8e67407019", "type": "electric_scooter", "lat": 38.92338383333333, "is_reserved": 0, "lon": -77.04030333333333, "fusion_lon": 0.0, "is_disabled": 0, "fusion_lat": 0.0, "bike_id": "b8b45ef140e760ecc0cbdd8e67407019", "rental_uris": {"ios": "https://dc.lft.to/lastmile_qr_scan", "android": "https://dc.lft.to/lastmile_qr_scan"}}, {"name": "21f61bd1d6a447a0d61c3c00f338b268", "type": "electric_bike", "lat": 39.058145833333334, "is_reserved": 0, "lon": -77.12626883333333, "fusion_lon": 0.0, "is_disabled": 0, "fusion_lat": 0.0, "bike_id": "21f61bd1d6a447a0d61c3c00f338b268", "rental_uris": {"ios": "https://dc.lft.to/lastmile_qr_scan", "android": "https://dc.lft.to/lastmile_qr_scan"}}, {"name": "7675229c00b06aba12de6b83244a751e", "type": "electric_scooter", "lat": 38.88505966666666, "is_reserved": 0, "lon": -76.99842166666667, "fusion_lon": 0.0, "is_disabled": 0, "fusion_lat": 0.0, "bike_id": "7675229c00b06aba12de6b83244a751e", "rental_uris": {"ios": "https://dc.lft.to/lastmile_qr_scan", "android": "https://dc.lft.to/lastmile_qr_scan"}}, {"name": "cc1268ae9bfe24008aff3a8f543f19d2", "type": "electric_scooter", "lat": 38.91565833333333, "is_reserved": 0, "lon": -77.02954, "fusion_lon": 0.0, "is_disabled": 0, "fusion_lat": 0.0, "bike_id": "cc1268ae9bfe24008aff3a8f543f19d2", "rental_uris": {"ios": "https://dc.lft.to/lastmile_qr_scan", "android": "https://dc.lft.to/lastmile_qr_scan"}}, {"name": "5ad2deffc02c1a308253e05aafafb4ab", "type": "electric_scooter", "lat": 38.92487466666667, "is_reserved": 0, "lon": -77.05215133333333, "fusion_lon": 0.0, "is_disabled": 0, "fusion_lat": 0.0, "bike_id": "5ad2deffc02c1a308253e05aafafb4ab", "rental_uris": {"ios": "https://dc.lft.to/lastmile_qr_scan", "android": "https://dc.lft.to/lastmile_qr_scan"}}, {"name": "25f2190c0b097e0600d66cd3cac4120c", "type": "electric_scooter", "lat": 38.941909833333334, "is_reserved": 0, "lon": -77.03030766666667, "fusion_lon": 0.0, "is_disabled": 0, "fusion_lat": 0.0, "bike_id": "25f2190c0b097e0600d66cd3cac4120c", "rental_uris": {"ios": "https://dc.lft.to/lastmile_qr_scan", "android": "https://dc.lft.to/lastmile_qr_scan"}}, {"name": "630ec9e318ef037b99a5b002947ee0c2", "type": "electric_scooter", "lat": 38.899291833333336, "is_reserved": 0, "lon": -77.01528283333333, "fusion_lon": 0.0, "is_disabled": 0, "fusion_lat": 0.0, "bike_id": "630ec9e318ef037b99a5b002947ee0c2", "rental_uris": {"ios": "https://dc.lft.to/lastmile_qr_scan", "android": "https://dc.lft.to/lastmile_qr_scan"}}, {"name": "cea5f296c9c5f2dbbd3eea93859e49d0", "type": "electric_bike", "lat": 38.846129, "is_reserved": 0, "lon": -76.97834016666667, "fusion_lon": 0.0, "is_disabled": 0, "fusion_lat": 0.0, "bike_id": "cea5f296c9c5f2dbbd3eea93859e49d0", "rental_uris": {"ios": "https://dc.lft.to/lastmile_qr_scan", "android": "https://dc.lft.to/lastmile_qr_scan"}}, {"name": "91fee0c47b534f85b1a30f9190a4e6a4", "type": "electric_scooter", "lat": 38.90260516666667, "is_reserved": 0, "lon": -77.03194033333334, "fusion_lon": 0.0, "is_disabled": 0, "fusion_lat": 0.0, "bike_id": "91fee0c47b534f85b1a30f9190a4e6a4", "rental_uris": {"ios": "https://dc.lft.to/lastmile_qr_scan", "android": "https://dc.lft.to/lastmile_qr_scan"}}, {"name": "5161a0d14408b44f2771aa0a9c933e53", "type": "electric_bike", "lat": 38.846088, "is_reserved": 0, "lon": -76.96899466666666, "fusion_lon": 0.0, "is_disabled": 0, "fusion_lat": 0.0, "bike_id": "5161a0d14408b44f2771aa0a9c933e53", "rental_uris": {"ios": "https://dc.lft.to/lastmile_qr_scan", "android": "https://dc.lft.to/lastmile_qr_scan"}}, {"name": "c8684b4562e94398f75d1795c8bd8543", "type": "electric_scooter", "lat": 38.91593666666667, "is_reserved": 0, "lon": -76.98366233333333, "fusion_lon": 0.0, "is_disabled": 0, "fusion_lat": 0.0, "bike_id": "c8684b4562e94398f75d1795c8bd8543", "rental_uris": {"ios": "https://dc.lft.to/lastmile_qr_scan", "android": "https://dc.lft.to/lastmile_qr_scan"}}, {"name": "b60de4132e2403153e53f81f146c54cb", "type": "electric_scooter", "lat": 38.90232533333333, "is_reserved": 0, "lon": -77.05343533333334, "fusion_lon": 0.0, "is_disabled": 0, "fusion_lat": 0.0, "bike_id": "b60de4132e2403153e53f81f146c54cb", "rental_uris": {"ios": "https://dc.lft.to/lastmile_qr_scan", "android": "https://dc.lft.to/lastmile_qr_scan"}}, {"name": "cd9671f396da030fdaa804888aed1942", "type": "electric_scooter", "lat": 38.882121166666664, "is_reserved": 0, "lon": -77.0144745, "fusion_lon": 0.0, "is_disabled": 0, "fusion_lat": 0.0, "bike_id": "cd9671f396da030fdaa804888aed1942", "rental_uris": {"ios": "https://dc.lft.to/lastmile_qr_scan", "android": "https://dc.lft.to/lastmile_qr_scan"}}, {"name": "1bb74c77fdc610913ae641eaf95332d5", "type": "electric_scooter", "lat": 38.921709, "is_reserved": 0, "lon": -77.02682133333333, "fusion_lon": 0.0, "is_disabled": 0, "fusion_lat": 0.0, "bike_id": "1bb74c77fdc610913ae641eaf95332d5", "rental_uris": {"ios": "https://dc.lft.to/lastmile_qr_scan", "android": "https://dc.lft.to/lastmile_qr_scan"}}, {"name": "7a694da5113712862712962ed0f47480", "type": "electric_scooter", "lat": 38.90523133333333, "is_reserved": 0, "lon": -77.0513875, "fusion_lon": 0.0, "is_disabled": 0, "fusion_lat": 0.0, "bike_id": "7a694da5113712862712962ed0f47480", "rental_uris": {"ios": "https://dc.lft.to/lastmile_qr_scan", "android": "https://dc.lft.to/lastmile_qr_scan"}}, {"name": "8f83c6104d8787e64ce486363b56f6cf", "type": "electric_scooter", "lat": 38.92543783333333, "is_reserved": 0, "lon": -77.03538033333334, "fusion_lon": 0.0, "is_disabled": 0, "fusion_lat": 0.0, "bike_id": "8f83c6104d8787e64ce486363b56f6cf", "rental_uris": {"ios": "https://dc.lft.to/lastmile_qr_scan", "android": "https://dc.lft.to/lastmile_qr_scan"}}, {"name": "e4f1a063373995687ee3e4c374ffcffc", "type": "electric_scooter", "lat": 38.909507833333336, "is_reserved": 0, "lon": -77.043229, "fusion_lon": 0.0, "is_disabled": 0, "fusion_lat": 0.0, "bike_id": "e4f1a063373995687ee3e4c374ffcffc", "rental_uris": {"ios": "https://dc.lft.to/lastmile_qr_scan", "android": "https://dc.lft.to/lastmile_qr_scan"}}, {"name": "c2bd6e555b691804b94dacabd8fdf9a6", "type": "electric_scooter", "lat": 38.919646166666666, "is_reserved": 0, "lon": -77.01444483333333, "fusion_lon": 0.0, "is_disabled": 0, "fusion_lat": 0.0, "bike_id": "c2bd6e555b691804b94dacabd8fdf9a6", "rental_uris": {"ios": "https://dc.lft.to/lastmile_qr_scan", "android": "https://dc.lft.to/lastmile_qr_scan"}}, {"name": "b3df9dc898324a8795162d948785489e", "type": "electric_scooter", "lat": 38.912128833333334, "is_reserved": 0, "lon": -77.0065435, "fusion_lon": 0.0, "is_disabled": 0, "fusion_lat": 0.0, "bike_id": "b3df9dc898324a8795162d948785489e", "rental_uris": {"ios": "https://dc.lft.to/lastmile_qr_scan", "android": "https://dc.lft.to/lastmile_qr_scan"}}, {"name": "3563a6134b55378eac0ab7faaef629e4", "type": "electric_bike", "lat": 38.874830333333335, "is_reserved": 0, "lon": -76.9653015, "fusion_lon": 0.0, "is_disabled": 0, "fusion_lat": 0.0, "bike_id": "3563a6134b55378eac0ab7faaef629e4", "rental_uris": {"ios": "https://dc.lft.to/lastmile_qr_scan", "android": "https://dc.lft.to/lastmile_qr_scan"}}, {"name": "c4b671e5ae4bbeced14c9cea3c858f88", "type": "electric_bike", "lat": 38.937211833333336, "is_reserved": 0, "lon": -77.02101066666667, "fusion_lon": 0.0, "is_disabled": 0, "fusion_lat": 0.0, "bike_id": "c4b671e5ae4bbeced14c9cea3c858f88", "rental_uris": {"ios": "https://dc.lft.to/lastmile_qr_scan", "android": "https://dc.lft.to/lastmile_qr_scan"}}, {"name": "f99ae418402c9a33cdd3035ecc96c0cd", "type": "electric_bike", "lat": 38.82447, "is_reserved": 0, "lon": -77.070476, "fusion_lon": 0.0, "is_disabled": 0, "fusion_lat": 0.0, "bike_id": "f99ae418402c9a33cdd3035ecc96c0cd", "rental_uris": {"ios": "https://dc.lft.to/lastmile_qr_scan", "android": "https://dc.lft.to/lastmile_qr_scan"}}, {"name": "24a1e7fa01bc030e3a875b42d24c1914", "type": "electric_scooter", "lat": 38.9090205, "is_reserved": 0, "lon": -77.08678, "fusion_lon": 0.0, "is_disabled": 0, "fusion_lat": 0.0, "bike_id": "24a1e7fa01bc030e3a875b42d24c1914", "rental_uris": {"ios": "https://dc.lft.to/lastmile_qr_scan", "android": "https://dc.lft.to/lastmile_qr_scan"}}, {"name": "78a473ce711d119c876962958eca83b7", "type": "electric_bike", "lat": 38.918579, "is_reserved": 0, "lon": -76.9609225, "fusion_lon": 0.0, "is_disabled": 0, "fusion_lat": 0.0, "bike_id": "78a473ce711d119c876962958eca83b7", "rental_uris": {"ios": "https://dc.lft.to/lastmile_qr_scan", "android": "https://dc.lft.to/lastmile_qr_scan"}}, {"name": "2bb4f0c4b536c5a7bf43724ee3618954", "type": "electric_scooter", "lat": 38.903914, "is_reserved": 0, "lon": -77.01643083333333, "fusion_lon": 0.0, "is_disabled": 0, "fusion_lat": 0.0, "bike_id": "2bb4f0c4b536c5a7bf43724ee3618954", "rental_uris": {"ios": "https://dc.lft.to/lastmile_qr_scan", "android": "https://dc.lft.to/lastmile_qr_scan"}}, {"name": "a641e2a8362b50f0935dfa15aac32547", "type": "electric_scooter", "lat": 38.91728333333333, "is_reserved": 0, "lon": -77.02314383333334, "fusion_lon": 0.0, "is_disabled": 0, "fusion_lat": 0.0, "bike_id": "a641e2a8362b50f0935dfa15aac32547", "rental_uris": {"ios": "https://dc.lft.to/lastmile_qr_scan", "android": "https://dc.lft.to/lastmile_qr_scan"}}, {"name": "cd80b899375f7f092bb40cb20b4d14d9", "type": "electric_bike", "lat": 38.90670183333334, "is_reserved": 0, "lon": -76.99962183333334, "fusion_lon": 0.0, "is_disabled": 0, "fusion_lat": 0.0, "bike_id": "cd80b899375f7f092bb40cb20b4d14d9", "rental_uris": {"ios": "https://dc.lft.to/lastmile_qr_scan", "android": "https://dc.lft.to/lastmile_qr_scan"}}, {"name": "078b38acec2cf6c959f90342ad882b06", "type": "electric_scooter", "lat": 38.899204166666664, "is_reserved": 0, "lon": -76.933865, "fusion_lon": 0.0, "is_disabled": 0, "fusion_lat": 0.0, "bike_id": "078b38acec2cf6c959f90342ad882b06", "rental_uris": {"ios": "https://dc.lft.to/lastmile_qr_scan", "android": "https://dc.lft.to/lastmile_qr_scan"}}, {"name": "2a671cedc762cc9362e4f336dc834768", "type": "electric_scooter", "lat": 38.9002105, "is_reserved": 0, "lon": -76.99765416666666, "fusion_lon": 0.0, "is_disabled": 0, "fusion_lat": 0.0, "bike_id": "2a671cedc762cc9362e4f336dc834768", "rental_uris": {"ios": "https://dc.lft.to/lastmile_qr_scan", "android": "https://dc.lft.to/lastmile_qr_scan"}}, {"name": "bb7ca678b5cad4c17698d7f97bd3fbc3", "type": "electric_scooter", "lat": 38.9224485, "is_reserved": 0, "lon": -77.04140716666667, "fusion_lon": 0.0, "is_disabled": 0, "fusion_lat": 0.0, "bike_id": "bb7ca678b5cad4c17698d7f97bd3fbc3", "rental_uris": {"ios": "https://dc.lft.to/lastmile_qr_scan", "android": "https://dc.lft.to/lastmile_qr_scan"}}, {"name": "a147e0666d30bc72d0466af2d45ea8a3", "type": "electric_scooter", "lat": 38.923228333333334, "is_reserved": 0, "lon": -77.04487266666666, "fusion_lon": 0.0, "is_disabled": 0, "fusion_lat": 0.0, "bike_id": "a147e0666d30bc72d0466af2d45ea8a3", "rental_uris": {"ios": "https://dc.lft.to/lastmile_qr_scan", "android": "https://dc.lft.to/lastmile_qr_scan"}}, {"name": "4de12d1e152a66917093d76cbe091d3e", "type": "electric_bike", "lat": 38.8798325, "is_reserved": 0, "lon": -76.916014, "fusion_lon": 0.0, "is_disabled": 0, "fusion_lat": 0.0, "bike_id": "4de12d1e152a66917093d76cbe091d3e", "rental_uris": {"ios": "https://dc.lft.to/lastmile_qr_scan", "android": "https://dc.lft.to/lastmile_qr_scan"}}, {"name": "a827bb870a795e84580dc64670871abc", "type": "electric_scooter", "lat": 38.8924315, "is_reserved": 0, "lon": -77.032043, "fusion_lon": 0.0, "is_disabled": 0, "fusion_lat": 0.0, "bike_id": "a827bb870a795e84580dc64670871abc", "rental_uris": {"ios": "https://dc.lft.to/lastmile_qr_scan", "android": "https://dc.lft.to/lastmile_qr_scan"}}, {"name": "56c82a6d65caccd9db7bc7a17785517b", "type": "electric_scooter", "lat": 38.939545, "is_reserved": 0, "lon": -77.032651, "fusion_lon": 0.0, "is_disabled": 0, "fusion_lat": 0.0, "bike_id": "56c82a6d65caccd9db7bc7a17785517b", "rental_uris": {"ios": "https://dc.lft.to/lastmile_qr_scan", "android": "https://dc.lft.to/lastmile_qr_scan"}}, {"name": "ed6379614201b95e4c78e10f113e8508", "type": "electric_scooter", "lat": 38.94078483333333, "is_reserved": 0, "lon": -77.0270085, "fusion_lon": 0.0, "is_disabled": 0, "fusion_lat": 0.0, "bike_id": "ed6379614201b95e4c78e10f113e8508", "rental_uris": {"ios": "https://dc.lft.to/lastmile_qr_scan", "android": "https://dc.lft.to/lastmile_qr_scan"}}, {"name": "01afb15c78d99b4b5b4cc06ae8fbffa9", "type": "electric_scooter", "lat": 38.91798266666667, "is_reserved": 0, "lon": -77.0271565, "fusion_lon": 0.0, "is_disabled": 0, "fusion_lat": 0.0, "bike_id": "01afb15c78d99b4b5b4cc06ae8fbffa9", "rental_uris": {"ios": "https://dc.lft.to/lastmile_qr_scan", "android": "https://dc.lft.to/lastmile_qr_scan"}}, {"name": "c5ec1e460f7057b40707cb390f068dae", "type": "electric_scooter", "lat": 38.929547166666666, "is_reserved": 0, "lon": -77.03466133333333, "fusion_lon": 0.0, "is_disabled": 0, "fusion_lat": 0.0, "bike_id": "c5ec1e460f7057b40707cb390f068dae", "rental_uris": {"ios": "https://dc.lft.to/lastmile_qr_scan", "android": "https://dc.lft.to/lastmile_qr_scan"}}, {"name": "05655e15f4e1fb53d25f95bf42d9b47e", "type": "electric_scooter", "lat": 38.8834125, "is_reserved": 0, "lon": -77.01754816666667, "fusion_lon": 0.0, "is_disabled": 0, "fusion_lat": 0.0, "bike_id": "05655e15f4e1fb53d25f95bf42d9b47e", "rental_uris": {"ios": "https://dc.lft.to/lastmile_qr_scan", "android": "https://dc.lft.to/lastmile_qr_scan"}}, {"name": "bf6582173f2be9eb44ca509f30ac0c07", "type": "electric_scooter", "lat": 38.913211, "is_reserved": 0, "lon": -77.04481466666667, "fusion_lon": 0.0, "is_disabled": 0, "fusion_lat": 0.0, "bike_id": "bf6582173f2be9eb44ca509f30ac0c07", "rental_uris": {"ios": "https://dc.lft.to/lastmile_qr_scan", "android": "https://dc.lft.to/lastmile_qr_scan"}}, {"name": "e95e601a7893f37460889cd2d0cbc4d5", "type": "electric_scooter", "lat": 38.93840083333333, "is_reserved": 0, "lon": -77.024807, "fusion_lon": 0.0, "is_disabled": 0, "fusion_lat": 0.0, "bike_id": "e95e601a7893f37460889cd2d0cbc4d5", "rental_uris": {"ios": "https://dc.lft.to/lastmile_qr_scan", "android": "https://dc.lft.to/lastmile_qr_scan"}}, {"name": "396cd3d5d117b07be5caf205f42634ea", "type": "electric_scooter", "lat": 38.90724, "is_reserved": 0, "lon": -77.030522, "fusion_lon": 0.0, "is_disabled": 0, "fusion_lat": 0.0, "bike_id": "396cd3d5d117b07be5caf205f42634ea", "rental_uris": {"ios": "https://dc.lft.to/lastmile_qr_scan", "android": "https://dc.lft.to/lastmile_qr_scan"}}, {"name": "7c767d4f3e3462a425b703dc558ba785", "type": "electric_scooter", "lat": 38.947813833333335, "is_reserved": 0, "lon": -77.06539583333333, "fusion_lon": 0.0, "is_disabled": 0, "fusion_lat": 0.0, "bike_id": "7c767d4f3e3462a425b703dc558ba785", "rental_uris": {"ios": "https://dc.lft.to/lastmile_qr_scan", "android": "https://dc.lft.to/lastmile_qr_scan"}}, {"name": "e09180d6d9e494f5c0fe2b479e421e0d", "type": "electric_scooter", "lat": 38.9119425, "is_reserved": 0, "lon": -77.005587, "fusion_lon": 0.0, "is_disabled": 0, "fusion_lat": 0.0, "bike_id": "e09180d6d9e494f5c0fe2b479e421e0d", "rental_uris": {"ios": "https://dc.lft.to/lastmile_qr_scan", "android": "https://dc.lft.to/lastmile_qr_scan"}}, {"name": "ab42b0c7972cacb78dd1b6db72099bd7", "type": "electric_scooter", "lat": 38.92355033333333, "is_reserved": 0, "lon": -77.03530983333333, "fusion_lon": 0.0, "is_disabled": 0, "fusion_lat": 0.0, "bike_id": "ab42b0c7972cacb78dd1b6db72099bd7", "rental_uris": {"ios": "https://dc.lft.to/lastmile_qr_scan", "android": "https://dc.lft.to/lastmile_qr_scan"}}, {"name": "0f0dc0ed0188c59bed2ecacde0ed7092", "type": "electric_scooter", "lat": 38.93976583333333, "is_reserved": 0, "lon": -77.03264783333333, "fusion_lon": 0.0, "is_disabled": 0, "fusion_lat": 0.0, "bike_id": "0f0dc0ed0188c59bed2ecacde0ed7092", "rental_uris": {"ios": "https://dc.lft.to/lastmile_qr_scan", "android": "https://dc.lft.to/lastmile_qr_scan"}}, {"name": "1fbcc420389bca3b6e29e3cfad7e25fb", "type": "electric_scooter", "lat": 38.881151, "is_reserved": 0, "lon": -76.999512, "fusion_lon": 0.0, "is_disabled": 0, "fusion_lat": 0.0, "bike_id": "1fbcc420389bca3b6e29e3cfad7e25fb", "rental_uris": {"ios": "https://dc.lft.to/lastmile_qr_scan", "android": "https://dc.lft.to/lastmile_qr_scan"}}, {"name": "0d6146ac7303dc0a61108affa7bb0feb", "type": "electric_scooter", "lat": 38.876551166666665, "is_reserved": 0, "lon": -76.96511583333333, "fusion_lon": 0.0, "is_disabled": 0, "fusion_lat": 0.0, "bike_id": "0d6146ac7303dc0a61108affa7bb0feb", "rental_uris": {"ios": "https://dc.lft.to/lastmile_qr_scan", "android": "https://dc.lft.to/lastmile_qr_scan"}}, {"name": "fbd28346332f28490bdcd1fe71dddd28", "type": "electric_bike", "lat": 38.99069166666666, "is_reserved": 0, "lon": -77.1003185, "fusion_lon": 0.0, "is_disabled": 0, "fusion_lat": 0.0, "bike_id": "fbd28346332f28490bdcd1fe71dddd28", "rental_uris": {"ios": "https://dc.lft.to/lastmile_qr_scan", "android": "https://dc.lft.to/lastmile_qr_scan"}}, {"name": "b697b3173ea0cced5c4da7f49fd79e87", "type": "electric_scooter", "lat": 38.927888333333335, "is_reserved": 0, "lon": -77.0315575, "fusion_lon": 0.0, "is_disabled": 0, "fusion_lat": 0.0, "bike_id": "b697b3173ea0cced5c4da7f49fd79e87", "rental_uris": {"ios": "https://dc.lft.to/lastmile_qr_scan", "android": "https://dc.lft.to/lastmile_qr_scan"}}, {"name": "c680834ec2b0cc0ec0d2da001669b557", "type": "electric_scooter", "lat": 38.90515216666667, "is_reserved": 0, "lon": -77.06940616666667, "fusion_lon": 0.0, "is_disabled": 0, "fusion_lat": 0.0, "bike_id": "c680834ec2b0cc0ec0d2da001669b557", "rental_uris": {"ios": "https://dc.lft.to/lastmile_qr_scan", "android": "https://dc.lft.to/lastmile_qr_scan"}}, {"name": "d0259b571b3b9c367c8b1669a6324262", "type": "electric_scooter", "lat": 38.939185, "is_reserved": 0, "lon": -77.024867, "fusion_lon": 0.0, "is_disabled": 0, "fusion_lat": 0.0, "bike_id": "d0259b571b3b9c367c8b1669a6324262", "rental_uris": {"ios": "https://dc.lft.to/lastmile_qr_scan", "android": "https://dc.lft.to/lastmile_qr_scan"}}, {"name": "b3b4a12aafb76a71ef6d39dea5130b07", "type": "electric_scooter", "lat": 38.92060583333333, "is_reserved": 0, "lon": -77.03434083333333, "fusion_lon": 0.0, "is_disabled": 0, "fusion_lat": 0.0, "bike_id": "b3b4a12aafb76a71ef6d39dea5130b07", "rental_uris": {"ios": "https://dc.lft.to/lastmile_qr_scan", "android": "https://dc.lft.to/lastmile_qr_scan"}}, {"name": "72efc006e695dd5a1ded2e527ff6ce8e", "type": "electric_scooter", "lat": 38.91406516666667, "is_reserved": 0, "lon": -77.0211665, "fusion_lon": 0.0, "is_disabled": 0, "fusion_lat": 0.0, "bike_id": "72efc006e695dd5a1ded2e527ff6ce8e", "rental_uris": {"ios": "https://dc.lft.to/lastmile_qr_scan", "android": "https://dc.lft.to/lastmile_qr_scan"}}, {"name": "d90f2af0ececbdf6ca5f9aa32822b884", "type": "electric_scooter", "lat": 38.91018616666667, "is_reserved": 0, "lon": -77.05270616666667, "fusion_lon": 0.0, "is_disabled": 0, "fusion_lat": 0.0, "bike_id": "d90f2af0ececbdf6ca5f9aa32822b884", "rental_uris": {"ios": "https://dc.lft.to/lastmile_qr_scan", "android": "https://dc.lft.to/lastmile_qr_scan"}}, {"name": "a9312aed13a6e660d2ddc4b418458883", "type": "electric_scooter", "lat": 38.91103283333333, "is_reserved": 0, "lon": -77.01061683333333, "fusion_lon": 0.0, "is_disabled": 0, "fusion_lat": 0.0, "bike_id": "a9312aed13a6e660d2ddc4b418458883", "rental_uris": {"ios": "https://dc.lft.to/lastmile_qr_scan", "android": "https://dc.lft.to/lastmile_qr_scan"}}, {"name": "e682bf357696324ce7bb2a0e87568705", "type": "electric_scooter", "lat": 38.90085, "is_reserved": 0, "lon": -77.049242, "fusion_lon": 0.0, "is_disabled": 0, "fusion_lat": 0.0, "bike_id": "e682bf357696324ce7bb2a0e87568705", "rental_uris": {"ios": "https://dc.lft.to/lastmile_qr_scan", "android": "https://dc.lft.to/lastmile_qr_scan"}}, {"name": "3451ef5ae42441d5843b963c1cf3f149", "type": "electric_scooter", "lat": 38.923187666666664, "is_reserved": 0, "lon": -77.03899916666667, "fusion_lon": 0.0, "is_disabled": 0, "fusion_lat": 0.0, "bike_id": "3451ef5ae42441d5843b963c1cf3f149", "rental_uris": {"ios": "https://dc.lft.to/lastmile_qr_scan", "android": "https://dc.lft.to/lastmile_qr_scan"}}, {"name": "3e3086957d597b5f1cc0dd327d68537f", "type": "electric_scooter", "lat": 38.89233816666667, "is_reserved": 0, "lon": -77.03199266666667, "fusion_lon": 0.0, "is_disabled": 0, "fusion_lat": 0.0, "bike_id": "3e3086957d597b5f1cc0dd327d68537f", "rental_uris": {"ios": "https://dc.lft.to/lastmile_qr_scan", "android": "https://dc.lft.to/lastmile_qr_scan"}}, {"name": "c25f506185d5200f7b4723a5e0b27f27", "type": "electric_scooter", "lat": 38.9169325, "is_reserved": 0, "lon": -77.02529616666666, "fusion_lon": 0.0, "is_disabled": 0, "fusion_lat": 0.0, "bike_id": "c25f506185d5200f7b4723a5e0b27f27", "rental_uris": {"ios": "https://dc.lft.to/lastmile_qr_scan", "android": "https://dc.lft.to/lastmile_qr_scan"}}, {"name": "af56465a20f437d862b6a37982afed18", "type": "electric_scooter", "lat": 38.95267666666667, "is_reserved": 0, "lon": -77.06821183333334, "fusion_lon": 0.0, "is_disabled": 0, "fusion_lat": 0.0, "bike_id": "af56465a20f437d862b6a37982afed18", "rental_uris": {"ios": "https://dc.lft.to/lastmile_qr_scan", "android": "https://dc.lft.to/lastmile_qr_scan"}}, {"name": "74e2d816f195dc1bb0971f0bef410081", "type": "electric_scooter", "lat": 38.89755783333333, "is_reserved": 0, "lon": -77.05126266666667, "fusion_lon": 0.0, "is_disabled": 0, "fusion_lat": 0.0, "bike_id": "74e2d816f195dc1bb0971f0bef410081", "rental_uris": {"ios": "https://dc.lft.to/lastmile_qr_scan", "android": "https://dc.lft.to/lastmile_qr_scan"}}, {"name": "3f778eb66a018cc7871ac4521c327f71", "type": "electric_scooter", "lat": 38.933045666666665, "is_reserved": 0, "lon": -77.0279785, "fusion_lon": 0.0, "is_disabled": 0, "fusion_lat": 0.0, "bike_id": "3f778eb66a018cc7871ac4521c327f71", "rental_uris": {"ios": "https://dc.lft.to/lastmile_qr_scan", "android": "https://dc.lft.to/lastmile_qr_scan"}}, {"name": "af0f0b0ca7d7ff89ca235751f7115b9a", "type": "electric_scooter", "lat": 38.918349666666664, "is_reserved": 0, "lon": -77.03457033333333, "fusion_lon": 0.0, "is_disabled": 0, "fusion_lat": 0.0, "bike_id": "af0f0b0ca7d7ff89ca235751f7115b9a", "rental_uris": {"ios": "https://dc.lft.to/lastmile_qr_scan", "android": "https://dc.lft.to/lastmile_qr_scan"}}, {"name": "bb74ffd13388790abf73c76b0b901b42", "type": "electric_scooter", "lat": 38.903941833333334, "is_reserved": 0, "lon": -77.04028083333333, "fusion_lon": 0.0, "is_disabled": 0, "fusion_lat": 0.0, "bike_id": "bb74ffd13388790abf73c76b0b901b42", "rental_uris": {"ios": "https://dc.lft.to/lastmile_qr_scan", "android": "https://dc.lft.to/lastmile_qr_scan"}}, {"name": "4fc6fe8ac187326357a9f2056340cb46", "type": "electric_scooter", "lat": 38.9155985, "is_reserved": 0, "lon": -77.07274516666666, "fusion_lon": 0.0, "is_disabled": 0, "fusion_lat": 0.0, "bike_id": "4fc6fe8ac187326357a9f2056340cb46", "rental_uris": {"ios": "https://dc.lft.to/lastmile_qr_scan", "android": "https://dc.lft.to/lastmile_qr_scan"}}, {"name": "0c826a27a71b66b233405c8446b4fa9b", "type": "electric_scooter", "lat": 38.92035166666667, "is_reserved": 0, "lon": -77.01120166666666, "fusion_lon": 0.0, "is_disabled": 0, "fusion_lat": 0.0, "bike_id": "0c826a27a71b66b233405c8446b4fa9b", "rental_uris": {"ios": "https://dc.lft.to/lastmile_qr_scan", "android": "https://dc.lft.to/lastmile_qr_scan"}}, {"name": "723fbef8b5bad760e89a55587adb4e4f", "type": "electric_scooter", "lat": 38.8429915, "is_reserved": 0, "lon": -76.99952183333333, "fusion_lon": 0.0, "is_disabled": 0, "fusion_lat": 0.0, "bike_id": "723fbef8b5bad760e89a55587adb4e4f", "rental_uris": {"ios": "https://dc.lft.to/lastmile_qr_scan", "android": "https://dc.lft.to/lastmile_qr_scan"}}, {"name": "90fc2fdd07ad34d74ac54aa4e527d6b2", "type": "electric_scooter", "lat": 38.89737433333333, "is_reserved": 0, "lon": -76.94716633333333, "fusion_lon": 0.0, "is_disabled": 0, "fusion_lat": 0.0, "bike_id": "90fc2fdd07ad34d74ac54aa4e527d6b2", "rental_uris": {"ios": "https://dc.lft.to/lastmile_qr_scan", "android": "https://dc.lft.to/lastmile_qr_scan"}}, {"name": "118bbb41a31cc99385f4347483537448", "type": "electric_scooter", "lat": 38.97482016666667, "is_reserved": 0, "lon": -77.01894516666667, "fusion_lon": 0.0, "is_disabled": 0, "fusion_lat": 0.0, "bike_id": "118bbb41a31cc99385f4347483537448", "rental_uris": {"ios": "https://dc.lft.to/lastmile_qr_scan", "android": "https://dc.lft.to/lastmile_qr_scan"}}, {"name": "6ccc0a86be0c868e724b4f0111d57071", "type": "electric_bike", "lat": 38.842733333333335, "is_reserved": 0, "lon": -76.98843566666666, "fusion_lon": 0.0, "is_disabled": 0, "fusion_lat": 0.0, "bike_id": "6ccc0a86be0c868e724b4f0111d57071", "rental_uris": {"ios": "https://dc.lft.to/lastmile_qr_scan", "android": "https://dc.lft.to/lastmile_qr_scan"}},