{"data": {"bikes": [{"lat": 38.9186515, "is_disabled": 0, "type": "electric_scooter", "lon": -77.04032733333334, "bike_id": "4ccfc35ce31aca38c5bee49bd3aeb120", "fusion_lat": 0.0, "name": "4ccfc35ce31aca38c5bee49bd3aeb120", "is_reserved": 0, "rental_uris": {"android": "https://dc.lft.to/lastmile_qr_scan", "ios": "https://dc.lft.to/lastmile_qr_scan"}, "fusion_lon": 0.0}, {"lat": 38.90386, "is_disabled": 0, "type": "electric_scooter", "lon": -77.028161, "bike_id": "5718b723a0038cda9c38036ff4967fa7", "fusion_lat": 0.0, "name": "5718b723a0038cda9c38036ff4967fa7", "is_reserved": 0, "rental_uris": {"android": "https://dc.lft.to/lastmile_qr_scan", "ios": "https://dc.lft.to/lastmile_qr_scan"}, "fusion_lon": 0.0}, {"lat": 38.930854833333335, "is_disabled": 0, "type": "electric_scooter", "lon": -77.02794383333334, "bike_id": "662064768feedf180368f03f297c81ad", "fusion_lat": 0.0, "name": "662064768feedf180368f03f297c81ad", "is_reserved": 0, "rental_uris": {"android": "https://dc.lft.to/lastmile_qr_scan", "ios": "https://dc.lft.to/lastmile_qr_scan"}, "fusion_lon": 0.0}, {"lat": 38.896187166666664, "is_disabled": 0, "type": "electric_scooter", "lon": -77.0133735, "bike_id": "f729bb64b0ee339ea072bf1e5241b336", "fusion_lat": 0.0, "name": "f729bb64b0ee339ea072bf1e5241b336", "is_reserved": 0, "rental_uris": {"android": "https://dc.lft.to/lastmile_qr_scan", "ios": "https://dc.lft.to/lastmile_qr_scan"}, "fusion_lon": 0.0}, {"lat": 38.93109533333333, "is_disabled": 0, "type": "electric_scooter", "lon": -77.03828766666666, "bike_id": "965a79a44cec3793cd6c59e0e83340f3", "fusion_lat": 0.0, "name": "965a79a44cec3793cd6c59e0e83340f3", "is_reserved": 0, "rental_uris": {"android": "https://dc.lft.to/lastmile_qr_scan", "ios": "https://dc.lft.to/lastmile_qr_scan"}, "fusion_lon": 0.0}, {"lat": 38.99994483333333, "is_disabled": 0, "type": "electric_bike", "lon": -76.92498133333333, "bike_id": "e216d03b096074baa1c5147e3db1b9f8", "fusion_lat": 0.0, "name": "e216d03b096074baa1c5147e3db1b9f8", "is_reserved": 0, "rental_uris": {"android": "https://dc.lft.to/lastmile_qr_scan", "ios": "https://dc.lft.to/lastmile_qr_scan"}, "fusion_lon": 0.0}, {"lat": 38.896660833333335, "is_disabled": 0, "type": "electric_bike", "lon": -77.04478683333333, "bike_id": "5549df78a9ca8b44eb48223af32f3cd7", "fusion_lat": 0.0, "name": "5549df78a9ca8b44eb48223af32f3cd7", "is_reserved": 0, "rental_uris": {"android": "https://dc.lft.to/lastmile_qr_scan", "ios": "https://dc.lft.to/lastmile_qr_scan"}, "fusion_lon": 0.0}, {"lat": 38.922708, "is_disabled": 0, "type": "electric_scooter", "lon": -77.0424195, "bike_id": "84453d2bb61e59be08f38e54d0b15bfa", "fusion_lat": 0.0, "name": "84453d2bb61e59be08f38e54d0b15bfa", "is_reserved": 0, "rental_uris": {"android": "https://dc.lft.to/lastmile_qr_scan", "ios": "https://dc.lft.to/lastmile_qr_scan"}, "fusion_lon": 0.0}, {"lat": 38.9365255, "is_disabled": 0, "type": "electric_scooter", "lon": -77.02391933333334, "bike_id": "6343f48202906a1872aa512c9f2dc11a", "fusion_lat": 0.0, "name": "6343f48202906a1872aa512c9f2dc11a", "is_reserved": 0, "rental_uris": {"android": "https://dc.lft.to/lastmile_qr_scan", "ios": "https://dc.lft.to/lastmile_qr_scan"}, "fusion_lon": 0.0}, {"lat": 38.91840716666667, "is_disabled": 0, "type": "electric_scooter", "lon": -77.035289, "bike_id": "d4fb855c1caab2a62aecbd4b5da594d3", "fusion_lat": 0.0, "name": "d4fb855c1caab2a62aecbd4b5da594d3", "is_reserved": 0, "rental_uris": {"android": "https://dc.lft.to/lastmile_qr_scan", "ios": "https://dc.lft.to/lastmile_qr_scan"}, "fusion_lon": 0.0}, {"lat": 38.942906, "is_disabled": 0, "type": "electric_scooter", "lon": -77.077066, "bike_id": "c1cb9d863852a20d33041938bcdd2d7d", "fusion_lat": 0.0, "name": "c1cb9d863852a20d33041938bcdd2d7d", "is_reserved": 0, "rental_uris": {"android": "https://dc.lft.to/lastmile_qr_scan", "ios": "https://dc.lft.to/lastmile_qr_scan"}, "fusion_lon": 0.0}, {"lat": 38.90511383333333, "is_disabled": 0, "type": "electric_scooter", "lon": -77.06770933333334, "bike_id": "5b35a9d72d3d4066603911fc0f810c54", "fusion_lat": 0.0, "name": "5b35a9d72d3d4066603911fc0f810c54", "is_reserved": 0, "rental_uris": {"android": "https://dc.lft.to/lastmile_qr_scan", "ios": "https://dc.lft.to/lastmile_qr_scan"}, "fusion_lon": 0.0}, {"lat": 38.89100166666667, "is_disabled": 0, "type": "electric_scooter", "lon": -76.9525815, "bike_id": "4123c4c48e9786bbcfdd860bdb07cfb5", "fusion_lat": 0.0, "name": "4123c4c48e9786bbcfdd860bdb07cfb5", "is_reserved": 0, "rental_uris": {"android": "https://dc.lft.to/lastmile_qr_scan", "ios": "https://dc.lft.to/lastmile_qr_scan"}, "fusion_lon": 0.0}, {"lat": 38.906393, "is_disabled": 0, "type": "electric_scooter", "lon": -77.041943, "bike_id": "fff8004c6362b8b5398f90877097fade", "fusion_lat": 0.0, "name": "fff8004c6362b8b5398f90877097fade", "is_reserved": 0, "rental_uris": {"android": "https://dc.lft.to/lastmile_qr_scan", "ios": "https://dc.lft.to/lastmile_qr_scan"}, "fusion_lon": 0.0}, {"lat": 38.9032165, "is_disabled": 0, "type": "electric_scooter", "lon": -77.02555966666667, "bike_id": "a24c334f8075826f88ffaaf6920903c1", "fusion_lat": 0.0, "name": "a24c334f8075826f88ffaaf6920903c1", "is_reserved": 0, "rental_uris": {"android": "https://dc.lft.to/lastmile_qr_scan", "ios": "https://dc.lft.to/lastmile_qr_scan"}, "fusion_lon": 0.0}, {"lat": 38.9170755, "is_disabled": 0, "type": "electric_scooter", "lon": -77.03501866666667, "bike_id": "61643d34f6ce497c1f5b14d0b0eb2123", "fusion_lat": 0.0, "name": "61643d34f6ce497c1f5b14d0b0eb2123", "is_reserved": 0, "rental_uris": {"android": "https://dc.lft.to/lastmile_qr_scan", "ios": "https://dc.lft.to/lastmile_qr_scan"}, "fusion_lon": 0.0}, {"lat": 38.909521, "is_disabled": 0, "type": "electric_scooter", "lon": -77.0405975, "bike_id": "6afbe0ba1118e93612139ec8688e5c1e", "fusion_lat": 0.0, "name": "6afbe0ba1118e93612139ec8688e5c1e", "is_reserved": 0, "rental_uris": {"android": "https://dc.lft.to/lastmile_qr_scan", "ios": "https://dc.lft.to/lastmile_qr_scan"}, "fusion_lon": 0.0}, {"lat": 38.92870883333333, "is_disabled": 0, "type": "electric_scooter", "lon": -77.03220383333333, "bike_id": "76fba110db34f36545d1e4a3a56b8955", "fusion_lat": 0.0, "name": "76fba110db34f36545d1e4a3a56b8955", "is_reserved": 0, "rental_uris": {"android": "https://dc.lft.to/lastmile_qr_scan", "ios": "https://dc.lft.to/lastmile_qr_scan"}, "fusion_lon": 0.0}, {"lat": 38.802689, "is_disabled": 0, "type": "electric_bike", "lon": -77.08112566666667, "bike_id": "c607e91a383dcf1916239d969002eade", "fusion_lat": 0.0, "name": "c607e91a383dcf1916239d969002eade", "is_reserved": 0, "rental_uris": {"android": "https://dc.lft.to/lastmile_qr_scan", "ios": "https://dc.lft.to/lastmile_qr_scan"}, "fusion_lon": 0.0}, {"lat": 38.89624633333333, "is_disabled": 0, "type": "electric_scooter", "lon": -77.02291516666666, "bike_id": "25416f18e434ee77b6650951e0b0ee9c", "fusion_lat": 0.0, "name": "25416f18e434ee77b6650951e0b0ee9c", "is_reserved": 0, "rental_uris": {"android": "https://dc.lft.to/lastmile_qr_scan", "ios": "https://dc.lft.to/lastmile_qr_scan"}, "fusion_lon": 0.0}, {"lat": 38.9303585, "is_disabled": 0, "type": "electric_scooter", "lon": -77.02642566666667, "bike_id": "14bf26238bd55ace7c7bd9b0dd9d95ed", "fusion_lat": 0.0, "name": "14bf26238bd55ace7c7bd9b0dd9d95ed", "is_reserved": 0, "rental_uris": {"android": "https://dc.lft.to/lastmile_qr_scan", "ios": "https://dc.lft.to/lastmile_qr_scan"}, "fusion_lon": 0.0}, {"lat": 38.900220833333336, "is_disabled": 0, "type": "electric_scooter", "lon": -77.03202233333333, "bike_id": "62ca62c812f0f488584f79b723f5a1d6", "fusion_lat": 0.0, "name": "62ca62c812f0f488584f79b723f5a1d6", "is_reserved": 0, "rental_uris": {"android": "https://dc.lft.to/lastmile_qr_scan", "ios": "https://dc.lft.to/lastmile_qr_scan"}, "fusion_lon": 0.0}, {"lat": 38.93194716666667, "is_disabled": 0, "type": "electric_scooter", "lon": -77.02356533333334, "bike_id": "d09462f78769217b09640cb7910cc7b8", "fusion_lat": 0.0, "name": "d09462f78769217b09640cb7910cc7b8", "is_reserved": 0, "rental_uris": {"android": "https://dc.lft.to/lastmile_qr_scan", "ios": "https://dc.lft.to/lastmile_qr_scan"}, "fusion_lon": 0.0}, {"lat": 38.9540445, "is_disabled": 0, "type": "electric_scooter", "lon": -77.02747333333333, "bike_id": "1e73ee3488ef460d71d7f31439287f4b", "fusion_lat": 0.0, "name": "1e73ee3488ef460d71d7f31439287f4b", "is_reserved": 0, "rental_uris": {"android": "https://dc.lft.to/lastmile_qr_scan", "ios": "https://dc.lft.to/lastmile_qr_scan"}, "fusion_lon": 0.0}, {"lat": 38.907790166666665, "is_disabled": 0, "type": "electric_scooter", "lon": -77.06408383333333, "bike_id": "d848617ae9078bf603ff5ce158077efd", "fusion_lat": 0.0, "name": "d848617ae9078bf603ff5ce158077efd", "is_reserved": 0, "rental_uris": {"android": "https://dc.lft.to/lastmile_qr_scan", "ios": "https://dc.lft.to/lastmile_qr_scan"}, "fusion_lon": 0.0}, {"lat": 38.95553316666667, "is_disabled": 0, "type": "electric_bike", "lon": -76.9354745, "bike_id": "2c73ce29acead0b1d5c4b9aad39b0806", "fusion_lat": 0.0, "name": "2c73ce29acead0b1d5c4b9aad39b0806", "is_reserved": 0, "rental_uris": {"android": "https://dc.lft.to/lastmile_qr_scan", "ios": "https://dc.lft.to/lastmile_qr_scan"}, "fusion_lon": 0.0}, {"lat": 38.926812, "is_disabled": 0, "type": "electric_scooter", "lon": -77.05109766666666, "bike_id": "4817a5fc206af18e7764dbc3fe5535ed", "fusion_lat": 0.0, "name": "4817a5fc206af18e7764dbc3fe5535ed", "is_reserved": 0, "rental_uris": {"android": "https://dc.lft.to/lastmile_qr_scan", "ios": "https://dc.lft.to/lastmile_qr_scan"}, "fusion_lon": 0.0}, {"lat": 38.8634555, "is_disabled": 0, "type": "electric_scooter", "lon": -76.99003833333333, "bike_id": "92a0d35e194e1148595e9b729a249ca5", "fusion_lat": 0.0, "name": "92a0d35e194e1148595e9b729a249ca5", "is_reserved": 0, "rental_uris": {"android": "https://dc.lft.to/lastmile_qr_scan", "ios": "https://dc.lft.to/lastmile_qr_scan"}, "fusion_lon": 0.0}, {"lat": 38.958765, "is_disabled": 0, "type": "electric_scooter", "lon": -77.02734783333334, "bike_id": "99b19319e72c13a98ea011f2b32177fe", "fusion_lat": 0.0, "name": "99b19319e72c13a98ea011f2b32177fe", "is_reserved": 0, "rental_uris": {"android": "https://dc.lft.to/lastmile_qr_scan", "ios": "https://dc.lft.to/lastmile_qr_scan"}, "fusion_lon": 0.0}, {"lat": 38.90591033333333, "is_disabled": 0, "type": "electric_scooter", "lon": -77.05809466666666, "bike_id": "029f6c078be1cc0ddb3e806e8b4689ef", "fusion_lat": 0.0, "name": "029f6c078be1cc0ddb3e806e8b4689ef", "is_reserved": 0, "rental_uris": {"android": "https://dc.lft.to/lastmile_qr_scan", "ios": "https://dc.lft.to/lastmile_qr_scan"}, "fusion_lon": 0.0}, {"lat": 38.842939, "is_disabled": 0, "type": "electric_scooter", "lon": -76.99951516666667, "bike_id": "3c0bfa30e561a43990b7772ce4e3b146", "fusion_lat": 0.0, "name": "3c0bfa30e561a43990b7772ce4e3b146", "is_reserved": 0, "rental_uris": {"android": "https://dc.lft.to/lastmile_qr_scan", "ios": "https://dc.lft.to/lastmile_qr_scan"}, "fusion_lon": 0.0}, {"lat": 38.90949416666667, "is_disabled": 0, "type": "electric_scooter", "lon": -77.06439783333333, "bike_id": "1d5be9a4fc606716f1340a40109ab076", "fusion_lat": 0.0, "name": "1d5be9a4fc606716f1340a40109ab076", "is_reserved": 0, "rental_uris": {"android": "https://dc.lft.to/lastmile_qr_scan", "ios": "https://dc.lft.to/lastmile_qr_scan"}, "fusion_lon": 0.0}, {"lat": 38.91267466666667, "is_disabled": 0, "type": "electric_scooter", "lon": -77.01311766666667, "bike_id": "5ba3dd8bc9fdc15c00e0b604a26204b5", "fusion_lat": 0.0, "name": "5ba3dd8bc9fdc15c00e0b604a26204b5", "is_reserved": 0, "rental_uris": {"android": "https://dc.lft.to/lastmile_qr_scan", "ios": "https://dc.lft.to/lastmile_qr_scan"}, "fusion_lon": 0.0}, {"lat": 38.87666883333333, "is_disabled": 0, "type": "electric_scooter", "lon": -77.00579483333334, "bike_id": "977cfff0e7c212897617a5c57b5798b5", "fusion_lat": 0.0, "name": "977cfff0e7c212897617a5c57b5798b5", "is_reserved": 0, "rental_uris": {"android": "https://dc.lft.to/lastmile_qr_scan", "ios": "https://dc.lft.to/lastmile_qr_scan"}, "fusion_lon": 0.0}, {"lat": 38.89917366666667, "is_disabled": 0, "type": "electric_scooter", "lon": -76.93381916666667, "bike_id": "5c5f8815e8ff1360ad84c5643c857e80", "fusion_lat": 0.0, "name": "5c5f8815e8ff1360ad84c5643c857e80", "is_reserved": 0, "rental_uris": {"android": "https://dc.lft.to/lastmile_qr_scan", "ios": "https://dc.lft.to/lastmile_qr_scan"}, "fusion_lon": 0.0}, {"lat": 38.92771466666667, "is_disabled": 0, "type": "electric_bike", "lon": -76.97224016666667, "bike_id": "11959e07640b6eea3776f24a8e943f88", "fusion_lat": 0.0, "name": "11959e07640b6eea3776f24a8e943f88", "is_reserved": 0, "rental_uris": {"android": "https://dc.lft.to/lastmile_qr_scan", "ios": "https://dc.lft.to/lastmile_qr_scan"}, "fusion_lon": 0.0}, {"lat": 38.90734033333333, "is_disabled": 0, "type": "electric_scooter", "lon": -77.04286233333333, "bike_id": "1f5e80fd3b28ab301a4eed3a2c054c39", "fusion_lat": 0.0, "name": "1f5e80fd3b28ab301a4eed3a2c054c39", "is_reserved": 0, "rental_uris": {"android": "https://dc.lft.to/lastmile_qr_scan", "ios": "https://dc.lft.to/lastmile_qr_scan"}, "fusion_lon": 0.0}, {"lat": 38.9398585, "is_disabled": 0, "type": "electric_scooter", "lon": -77.07180333333334, "bike_id": "be60fce5896c768afa016f4e736b5ad1", "fusion_lat": 0.0, "name": "be60fce5896c768afa016f4e736b5ad1", "is_reserved": 0, "rental_uris": {"android": "https://dc.lft.to/lastmile_qr_scan", "ios": "https://dc.lft.to/lastmile_qr_scan"}, "fusion_lon": 0.0}, {"lat": 38.97366433333333, "is_disabled": 0, "type": "electric_scooter", "lon": -77.01851016666667, "bike_id": "5599c10af2b1423ef7260d20e0787bdb", "fusion_lat": 0.0, "name": "5599c10af2b1423ef7260d20e0787bdb", "is_reserved": 0, "rental_uris": {"android": "https://dc.lft.to/lastmile_qr_scan", "ios": "https://dc.lft.to/lastmile_qr_scan"}, "fusion_lon": 0.0}, {"lat": 38.925692166666664, "is_disabled": 0, "type": "electric_scooter", "lon": -77.057702, "bike_id": "1a18a39454464b85c44e3ab337a0d60e", "fusion_lat": 0.0, "name": "1a18a39454464b85c44e3ab337a0d60e", "is_reserved": 0, "rental_uris": {"android": "https://dc.lft.to/lastmile_qr_scan", "ios": "https://dc.lft.to/lastmile_qr_scan"}, "fusion_lon": 0.0}, {"lat": 38.89916083333333, "is_disabled": 0, "type": "electric_scooter", "lon": -77.03940783333333, "bike_id": "96e4e4a4e16ab7755654a5ed4e7afac7", "fusion_lat": 0.0, "name": "96e4e4a4e16ab7755654a5ed4e7afac7", "is_reserved": 0, "rental_uris": {"android": "https://dc.lft.to/lastmile_qr_scan", "ios": "https://dc.lft.to/lastmile_qr_scan"}, "fusion_lon": 0.0}, {"lat": 38.897432333333334, "is_disabled": 0, "type": "electric_scooter", "lon": -77.045352, "bike_id": "09cbf12b4e11ecd99974482830640956", "fusion_lat": 0.0, "name": "09cbf12b4e11ecd99974482830640956", "is_reserved": 0, "rental_uris": {"android": "https://dc.lft.to/lastmile_qr_scan", "ios": "https://dc.lft.to/lastmile_qr_scan"}, "fusion_lon": 0.0}, {"lat": 38.899087, "is_disabled": 0, "type": "electric_scooter", "lon": -76.93351933333334, "bike_id": "d3f539e53e2a9ce1a7d571ea7a1c97ee", "fusion_lat": 0.0, "name": "d3f539e53e2a9ce1a7d571ea7a1c97ee", "is_reserved": 0, "rental_uris": {"android": "https://dc.lft.to/lastmile_qr_scan", "ios": "https://dc.lft.to/lastmile_qr_scan"}, "fusion_lon": 0.0}, {"lat": 38.91680916666667, "is_disabled": 0, "type": "electric_scooter", "lon": -77.02970866666666, "bike_id": "f5af685a97f54e0fea35ef8f65e20be2", "fusion_lat": 0.0, "name": "f5af685a97f54e0fea35ef8f65e20be2", "is_reserved": 0, "rental_uris": {"android": "https://dc.lft.to/lastmile_qr_scan", "ios": "https://dc.lft.to/lastmile_qr_scan"}, "fusion_lon": 0.0}, {"lat": 38.932650833333334, "is_disabled": 0, "type": "electric_scooter", "lon": -77.03279983333333, "bike_id": "2ffb20cafd52615fe0cd5e6dbbb18750", "fusion_lat": 0.0, "name": "2ffb20cafd52615fe0cd5e6dbbb18750", "is_reserved": 0, "rental_uris": {"android": "https://dc.lft.to/lastmile_qr_scan", "ios": "https://dc.lft.to/lastmile_qr_scan"}, "fusion_lon": 0.0}, {"lat": 38.8800115, "is_disabled": 0, "type": "electric_scooter", "lon": -76.985495, "bike_id": "b16c16fed9d2057ad152458e923879cf", "fusion_lat": 0.0, "name": "b16c16fed9d2057ad152458e923879cf", "is_reserved": 0, "rental_uris": {"android": "https://dc.lft.to/lastmile_qr_scan", "ios": "https://dc.lft.to/lastmile_qr_scan"}, "fusion_lon": 0.0}, {"lat": 38.89261033333333, "is_disabled": 0, "type": "electric_scooter", "lon": -76.94162583333333, "bike_id": "e629dcf907908f206c2ce495613f5441", "fusion_lat": 0.0, "name": "e629dcf907908f206c2ce495613f5441", "is_reserved": 0, "rental_uris": {"android": "https://dc.lft.to/lastmile_qr_scan", "ios": "https://dc.lft.to/lastmile_qr_scan"}, "fusion_lon": 0.0}, {"lat": 38.806797, "is_disabled": 0, "type": "electric_bike", "lon": -77.08118683333333, "bike_id": "48db7dbf7a7345393e3e69b9f972d21b", "fusion_lat": 0.0, "name": "48db7dbf7a7345393e3e69b9f972d21b", "is_reserved": 0, "rental_uris": {"android": "https://dc.lft.to/lastmile_qr_scan", "ios": "https://dc.lft.to/lastmile_qr_scan"}, "fusion_lon": 0.0}, {"lat": 38.902951, "is_disabled": 0, "type": "electric_scooter", "lon": -77.02720016666666, "bike_id": "3a7f9aa02a96f7af258d9b89299f92aa", "fusion_lat": 0.0, "name": "3a7f9aa02a96f7af258d9b89299f92aa", "is_reserved": 0, "rental_uris": {"android": "https://dc.lft.to/lastmile_qr_scan", "ios": "https://dc.lft.to/lastmile_qr_scan"}, "fusion_lon": 0.0}, {"lat": 38.8057065, "is_disabled": 0, "type": "electric_bike", "lon": -77.132433, "bike_id": "e50cf21c6087bdc175ede226445c7fd2", "fusion_lat": 0.0, "name": "e50cf21c6087bdc175ede226445c7fd2", "is_reserved": 0, "rental_uris": {"android": "https://dc.lft.to/lastmile_qr_scan", "ios": "https://dc.lft.to/lastmile_qr_scan"}, "fusion_lon": 0.0}, {"lat": 38.9041015, "is_disabled": 0, "type": "electric_scooter", "lon": -77.02086766666666, "bike_id": "958768be5100222e25cf5ef777e56cc4", "fusion_lat": 0.0, "name": "958768be5100222e25cf5ef777e56cc4", "is_reserved": 0, "rental_uris": {"android": "https://dc.lft.to/lastmile_qr_scan", "ios": "https://dc.lft.to/lastmile_qr_scan"}, "fusion_lon": 0.0}, {"lat": 38.8581355, "is_disabled": 0, "type": "electric_scooter", "lon": -76.98996583333333, "bike_id": "e21101b66317fce22f0f5471b07e0037", "fusion_lat": 0.0, "name": "e21101b66317fce22f0f5471b07e0037", "is_reserved": 0, "rental_uris": {"android": "https://dc.lft.to/lastmile_qr_scan", "ios": "https://dc.lft.to/lastmile_qr_scan"}, "fusion_lon": 0.0}, {"lat": 38.89767333333333, "is_disabled": 0, "type": "electric_scooter", "lon": -77.0320935, "bike_id": "7e22ac282d4f5915698e26cdc389c234", "fusion_lat": 0.0, "name": "7e22ac282d4f5915698e26cdc389c234", "is_reserved": 0, "rental_uris": {"android": "https://dc.lft.to/lastmile_qr_scan", "ios": "https://dc.lft.to/lastmile_qr_scan"}, "fusion_lon": 0.0}, {"lat": 38.92761333333333, "is_disabled": 0, "type": "electric_scooter", "lon": -77.023177, "bike_id": "0ade792b6a7fd057110e6a97e8acbb66", "fusion_lat": 0.0, "name": "0ade792b6a7fd057110e6a97e8acbb66", "is_reserved": 0, "rental_uris": {"android": "https://dc.lft.to/lastmile_qr_scan", "ios": "https://dc.lft.to/lastmile_qr_scan"}, "fusion_lon": 0.0}, {"lat": 38.917006, "is_disabled": 0, "type": "electric_scooter", "lon": -77.04340433333333, "bike_id": "254c4718bb94e43385fe72066a52037a", "fusion_lat": 0.0, "name": "254c4718bb94e43385fe72066a52037a", "is_reserved": 0, "rental_uris": {"android": "https://dc.lft.to/lastmile_qr_scan", "ios": "https://dc.lft.to/lastmile_qr_scan"}, "fusion_lon": 0.0}, {"lat": 38.922883166666665, "is_disabled": 0, "type": "electric_scooter", "lon": -77.02967283333334, "bike_id": "31b077d9683863339c3d94622d2ef64a", "fusion_lat": 0.0, "name": "31b077d9683863339c3d94622d2ef64a", "is_reserved": 0, "rental_uris": {"android": "https://dc.lft.to/lastmile_qr_scan", "ios": "https://dc.lft.to/lastmile_qr_scan"}, "fusion_lon": 0.0}, {"lat": 38.866569, "is_disabled": 0, "type": "electric_scooter", "lon": -76.98884983333333, "bike_id": "33988df54b31e389979b484d4903a2c8", "fusion_lat": 0.0, "name": "33988df54b31e389979b484d4903a2c8", "is_reserved": 0, "rental_uris": {"android": "https://dc.lft.to/lastmile_qr_scan", "ios": "https://dc.lft.to/lastmile_qr_scan"}, "fusion_lon": 0.0}, {"lat": 38.928003, "is_disabled": 0, "type": "electric_scooter", "lon": -77.0432215, "bike_id": "d738b0da8d36728f35990e1fa03629ec", "fusion_lat": 0.0, "name": "d738b0da8d36728f35990e1fa03629ec", "is_reserved": 0, "rental_uris": {"android": "https://dc.lft.to/lastmile_qr_scan", "ios": "https://dc.lft.to/lastmile_qr_scan"}, "fusion_lon": 0.0}, {"lat": 38.896467666666666, "is_disabled": 0, "type": "electric_scooter", "lon": -77.046696, "bike_id": "c1e95d6667946362f9ab58f370fa3dca", "fusion_lat": 0.0, "name": "c1e95d6667946362f9ab58f370fa3dca", "is_reserved": 0, "rental_uris": {"android": "https://dc.lft.to/lastmile_qr_scan", "ios": "https://dc.lft.to/lastmile_qr_scan"}, "fusion_lon": 0.0}, {"lat": 38.93851, "is_disabled": 0, "type": "electric_scooter", "lon": -77.03389683333333, "bike_id": "1844590e892c46911a9369c8b8c24fc8", "fusion_lat": 0.0, "name": "1844590e892c46911a9369c8b8c24fc8", "is_reserved": 0, "rental_uris": {"android": "https://dc.lft.to/lastmile_qr_scan", "ios": "https://dc.lft.to/lastmile_qr_scan"}, "fusion_lon": 0.0}, {"lat": 38.928382, "is_disabled": 0, "type": "electric_scooter", "lon": -77.054327, "bike_id": "ef2a41505114ca348cad87d9de3db7a8", "fusion_lat": 0.0, "name": "ef2a41505114ca348cad87d9de3db7a8", "is_reserved": 0, "rental_uris": {"android": "https://dc.lft.to/lastmile_qr_scan", "ios": "https://dc.lft.to/lastmile_qr_scan"}, "fusion_lon": 0.0}, {"lat": 38.92443516666667, "is_disabled": 0, "type": "electric_scooter", "lon": -77.03360233333333, "bike_id": "5091810fdda15f66632d3d0c5642ae64", "fusion_lat": 0.0, "name": "5091810fdda15f66632d3d0c5642ae64", "is_reserved": 0, "rental_uris": {"android": "https://dc.lft.to/lastmile_qr_scan", "ios": "https://dc.lft.to/lastmile_qr_scan"}, "fusion_lon": 0.0}, {"lat": 38.91712283333333, "is_disabled": 0, "type": "electric_scooter", "lon": -77.03035233333334, "bike_id": "53258b293950b27b3f7134f26c9a0eb1", "fusion_lat": 0.0, "name": "53258b293950b27b3f7134f26c9a0eb1", "is_reserved": 0, "rental_uris": {"android": "https://dc.lft.to/lastmile_qr_scan", "ios": "https://dc.lft.to/lastmile_qr_scan"}, "fusion_lon": 0.0}, {"lat": 38.91697116666667, "is_disabled": 0, "type": "electric_scooter", "lon": -77.02894, "bike_id": "64b9a0dea95a4140709491896474f6af", "fusion_lat": 0.0, "name": "64b9a0dea95a4140709491896474f6af", "is_reserved": 0, "rental_uris": {"android": "https://dc.lft.to/lastmile_qr_scan", "ios": "https://dc.lft.to/lastmile_qr_scan"}, "fusion_lon": 0.0}, {"lat": 38.88133416666667, "is_disabled": 0, "type": "electric_scooter", "lon": -76.987257, "bike_id": "47c625a4fde4abc72fe85ed172b93bd9", "fusion_lat": 0.0, "name": "47c625a4fde4abc72fe85ed172b93bd9", "is_reserved": 0, "rental_uris": {"android": "https://dc.lft.to/lastmile_qr_scan", "ios": "https://dc.lft.to/lastmile_qr_scan"}, "fusion_lon": 0.0}, {"lat": 38.90992383333333, "is_disabled": 0, "type": "electric_scooter", "lon": -76.99739983333333, "bike_id": "c79ab9b14a0e7ca9f5f587b0106323d4", "fusion_lat": 0.0, "name": "c79ab9b14a0e7ca9f5f587b0106323d4", "is_reserved": 0, "rental_uris": {"android": "https://dc.lft.to/lastmile_qr_scan", "ios": "https://dc.lft.to/lastmile_qr_scan"}, "fusion_lon": 0.0}, {"lat": 38.931341833333335, "is_disabled": 0, "type": "electric_scooter", "lon": -77.02155866666666, "bike_id": "b36e40263ef062a58fee8be86822fb20", "fusion_lat": 0.0, "name": "b36e40263ef062a58fee8be86822fb20", "is_reserved": 0, "rental_uris": {"android": "https://dc.lft.to/lastmile_qr_scan", "ios": "https://dc.lft.to/lastmile_qr_scan"}, "fusion_lon": 0.0}, {"lat": 38.9063035, "is_disabled": 0, "type": "electric_scooter", "lon": -77.0085315, "bike_id": "53013b91d7dfe791e545c1a8edb5a9eb", "fusion_lat": 0.0, "name": "53013b91d7dfe791e545c1a8edb5a9eb", "is_reserved": 0, "rental_uris": {"android": "https://dc.lft.to/lastmile_qr_scan", "ios": "https://dc.lft.to/lastmile_qr_scan"}, "fusion_lon": 0.0}, {"lat": 38.86662283333333, "is_disabled": 0, "type": "electric_scooter", "lon": -76.9890715, "bike_id": "cd0261304ac4fc1aa4efc7dbbc2a71c5", "fusion_lat": 0.0, "name": "cd0261304ac4fc1aa4efc7dbbc2a71c5", "is_reserved": 0, "rental_uris": {"android": "https://dc.lft.to/lastmile_qr_scan", "ios": "https://dc.lft.to/lastmile_qr_scan"}, "fusion_lon": 0.0}, {"lat": 38.9222015, "is_disabled": 0, "type": "electric_scooter", "lon": -77.04245583333334, "bike_id": "fb8634b082b89e58ef5ffa379f6cef1c", "fusion_lat": 0.0, "name": "fb8634b082b89e58ef5ffa379f6cef1c", "is_reserved": 0, "rental_uris": {"android": "https://dc.lft.to/lastmile_qr_scan", "ios": "https://dc.lft.to/lastmile_qr_scan"}, "fusion_lon": 0.0}, {"lat": 38.906751166666666, "is_disabled": 0, "type": "electric_scooter", "lon": -77.06272833333334, "bike_id": "9d098decf9f3c1eb828babff387de9d5", "fusion_lat": 0.0, "name": "9d098decf9f3c1eb828babff387de9d5", "is_reserved": 0, "rental_uris": {"android": "https://dc.lft.to/lastmile_qr_scan", "ios": "https://dc.lft.to/lastmile_qr_scan"}, "fusion_lon": 0.0}, {"lat": 38.911604833333335, "is_disabled": 0, "type": "electric_scooter", "lon": -77.04486566666667, "bike_id": "2658e69f4d1928ad758edbe66181fce3", "fusion_lat": 0.0, "name": "2658e69f4d1928ad758edbe66181fce3", "is_reserved": 0, "rental_uris": {"android": "https://dc.lft.to/lastmile_qr_scan", "ios": "https://dc.lft.to/lastmile_qr_scan"}, "fusion_lon": 0.0}, {"lat": 38.903174, "is_disabled": 0, "type": "electric_scooter", "lon": -77.037901, "bike_id": "bf13414bb58b3ded81a9fa263a2206b4", "fusion_lat": 0.0, "name": "bf13414bb58b3ded81a9fa263a2206b4", "is_reserved": 0, "rental_uris": {"android": "https://dc.lft.to/lastmile_qr_scan", "ios": "https://dc.lft.to/lastmile_qr_scan"}, "fusion_lon": 0.0}, {"lat": 38.91741183333333, "is_disabled": 0, "type": "electric_scooter", "lon": -77.02282583333333, "bike_id": "bc0f4d3c5047d3c165a6369a75b5c9a0", "fusion_lat": 0.0, "name": "bc0f4d3c5047d3c165a6369a75b5c9a0", "is_reserved": 0, "rental_uris": {"android": "https://dc.lft.to/lastmile_qr_scan", "ios": "https://dc.lft.to/lastmile_qr_scan"}, "fusion_lon": 0.0}, {"lat": 38.9722575, "is_disabled": 0, "type": "electric_bike", "lon": -76.993482, "bike_id": "83402827761976479e2fc94ae4acb109", "fusion_lat": 0.0, "name": "83402827761976479e2fc94ae4acb109", "is_reserved": 0, "rental_uris": {"android": "https://dc.lft.to/lastmile_qr_scan", "ios": "https://dc.lft.to/lastmile_qr_scan"}, "fusion_lon": 0.0}, {"lat": 38.8605115, "is_disabled": 0, "type": "electric_scooter", "lon": -77.0575965, "bike_id": "fcfceb42245df89e81d6f92d50729ca3", "fusion_lat": 0.0, "name": "fcfceb42245df89e81d6f92d50729ca3", "is_reserved": 0, "rental_uris": {"android": "https://dc.lft.to/lastmile_qr_scan", "ios": "https://dc.lft.to/lastmile_qr_scan"}, "fusion_lon": 0.0}, {"lat": 38.922352333333336, "is_disabled": 0, "type": "electric_scooter", "lon": -77.04571833333334, "bike_id": "316b0145f5fddf84f37f8a868c665924", "fusion_lat": 0.0, "name": "316b0145f5fddf84f37f8a868c665924", "is_reserved": 0, "rental_uris": {"android": "https://dc.lft.to/lastmile_qr_scan", "ios": "https://dc.lft.to/lastmile_qr_scan"}, "fusion_lon": 0.0}, {"lat": 38.91585966666667, "is_disabled": 0, "type": "electric_scooter", "lon": -77.03217516666666, "bike_id": "4d009afb119af1b1f264a37407041715", "fusion_lat": 0.0, "name": "4d009afb119af1b1f264a37407041715", "is_reserved": 0, "rental_uris": {"android": "https://dc.lft.to/lastmile_qr_scan", "ios": "https://dc.lft.to/lastmile_qr_scan"}, "fusion_lon": 0.0}, {"lat": 38.91949283333334, "is_disabled": 0, "type": "electric_scooter", "lon": -76.98089616666667, "bike_id": "324fa6839a59db0fcf69868c470ca8b1", "fusion_lat": 0.0, "name": "324fa6839a59db0fcf69868c470ca8b1", "is_reserved": 0, "rental_uris": {"android": "https://dc.lft.to/lastmile_qr_scan", "ios": "https://dc.lft.to/lastmile_qr_scan"}, "fusion_lon": 0.0}, {"lat": 38.91419883333333, "is_disabled": 0, "type": "electric_scooter", "lon": -77.04506633333334, "bike_id": "7cf04f7c8e100956fddfa1a0aa57b713", "fusion_lat": 0.0, "name": "7cf04f7c8e100956fddfa1a0aa57b713", "is_reserved": 0, "rental_uris": {"android": "https://dc.lft.to/lastmile_qr_scan", "ios": "https://dc.lft.to/lastmile_qr_scan"}, "fusion_lon": 0.0}, {"lat": 38.92118766666667, "is_disabled": 0, "type": "electric_scooter", "lon": -77.0364295, "bike_id": "9a6cd696005aab47e713800251e1c795", "fusion_lat": 0.0, "name": "9a6cd696005aab47e713800251e1c795", "is_reserved": 0, "rental_uris": {"android": "https://dc.lft.to/lastmile_qr_scan", "ios": "https://dc.lft.to/lastmile_qr_scan"}, "fusion_lon": 0.0}, {"lat": 38.92776583333333, "is_disabled": 0, "type": "electric_scooter", "lon": -77.02734866666667, "bike_id": "3e0457f43d4f674c1d70d713562473b1", "fusion_lat": 0.0, "name": "3e0457f43d4f674c1d70d713562473b1", "is_reserved": 0, "rental_uris": {"android": "https://dc.lft.to/lastmile_qr_scan", "ios": "https://dc.lft.to/lastmile_qr_scan"}, "fusion_lon": 0.0}, {"lat": 38.961126166666666, "is_disabled": 0, "type": "electric_scooter", "lon": -77.02816516666667, "bike_id": "97646789b976ca0fb06db54c9a40b09f", "fusion_lat": 0.0, "name": "97646789b976ca0fb06db54c9a40b09f", "is_reserved": 0, "rental_uris": {"android": "https://dc.lft.to/lastmile_qr_scan", "ios": "https://dc.lft.to/lastmile_qr_scan"}, "fusion_lon": 0.0}, {"lat": 38.89757183333333, "is_disabled": 0, "type": "electric_scooter", "lon": -77.0264315, "bike_id": "401dc0d78653faae83f5e07a6a27a1ff", "fusion_lat": 0.0, "name": "401dc0d78653faae83f5e07a6a27a1ff", "is_reserved": 0, "rental_uris": {"android": "https://dc.lft.to/lastmile_qr_scan", "ios": "https://dc.lft.to/lastmile_qr_scan"}, "fusion_lon": 0.0}, {"lat": 38.92905433333333, "is_disabled": 0, "type": "electric_scooter", "lon": -77.07456816666667, "bike_id": "b1e4a3206853cb2b0b364f57f48d3cfe", "fusion_lat": 0.0, "name": "b1e4a3206853cb2b0b364f57f48d3cfe", "is_reserved": 0, "rental_uris": {"android": "https://dc.lft.to/lastmile_qr_scan", "ios": "https://dc.lft.to/lastmile_qr_scan"}, "fusion_lon": 0.0}, {"lat": 38.92580933333333, "is_disabled": 0, "type": "electric_scooter", "lon": -77.05762016666667, "bike_id": "09a5a1e13a3c427a29bde8e085405cdf", "fusion_lat": 0.0, "name": "09a5a1e13a3c427a29bde8e085405cdf", "is_reserved": 0, "rental_uris": {"android": "https://dc.lft.to/lastmile_qr_scan", "ios": "https://dc.lft.to/lastmile_qr_scan"}, "fusion_lon": 0.0}, {"lat": 38.92591383333333, "is_disabled": 0, "type": "electric_scooter", "lon": -77.022671, "bike_id": "1a93ab6f97338bc8bb5114ab887b80da", "fusion_lat": 0.0, "name": "1a93ab6f97338bc8bb5114ab887b80da", "is_reserved": 0, "rental_uris": {"android": "https://dc.lft.to/lastmile_qr_scan", "ios": "https://dc.lft.to/lastmile_qr_scan"}, "fusion_lon": 0.0}, {"lat": 38.916341, "is_disabled": 0, "type": "electric_scooter", "lon": -77.03208983333333, "bike_id": "32294b91f064d17c2012ebcddfe0a67a", "fusion_lat": 0.0, "name": "32294b91f064d17c2012ebcddfe0a67a", "is_reserved": 0, "rental_uris": {"android": "https://dc.lft.to/lastmile_qr_scan", "ios": "https://dc.lft.to/lastmile_qr_scan"}, "fusion_lon": 0.0}, {"lat": 38.9132075, "is_disabled": 0, "type": "electric_scooter", "lon": -77.03131816666667, "bike_id": "ad12fb9807ea67a11e2fe77abb854d96", "fusion_lat": 0.0, "name": "ad12fb9807ea67a11e2fe77abb854d96", "is_reserved": 0, "rental_uris": {"android": "https://dc.lft.to/lastmile_qr_scan", "ios": "https://dc.lft.to/lastmile_qr_scan"}, "fusion_lon": 0.0}, {"lat": 38.92915216666667, "is_disabled": 0, "type": "electric_scooter", "lon": -77.03752483333334, "bike_id": "46c25d32c19844a9fd235049e2121d01", "fusion_lat": 0.0, "name": "46c25d32c19844a9fd235049e2121d01", "is_reserved": 0, "rental_uris": {"android": "https://dc.lft.to/lastmile_qr_scan", "ios": "https://dc.lft.to/lastmile_qr_scan"}, "fusion_lon": 0.0}, {"lat": 38.90295833333333, "is_disabled": 0, "type": "electric_scooter", "lon": -77.00049066666666, "bike_id": "1df8025eeef3bdd3128b39b8c4a3fe68", "fusion_lat": 0.0, "name": "1df8025eeef3bdd3128b39b8c4a3fe68", "is_reserved": 0, "rental_uris": {"android": "https://dc.lft.to/lastmile_qr_scan", "ios": "https://dc.lft.to/lastmile_qr_scan"}, "fusion_lon": 0.0}, {"lat": 38.84422766666667, "is_disabled": 0, "type": "electric_scooter", "lon": -76.9978, "bike_id": "ada3d571c2d49b0ea117367cf6d77110", "fusion_lat": 0.0, "name": "ada3d571c2d49b0ea117367cf6d77110", "is_reserved": 0, "rental_uris": {"android": "https://dc.lft.to/lastmile_qr_scan", "ios": "https://dc.lft.to/lastmile_qr_scan"}, "fusion_lon": 0.0}, {"lat": 38.92246033333333, "is_disabled": 0, "type": "electric_scooter", "lon": -77.0299295, "bike_id": "2741e814ac109c3818705849ea00e588", "fusion_lat": 0.0, "name": "2741e814ac109c3818705849ea00e588", "is_reserved": 0, "rental_uris": {"android": "https://dc.lft.to/lastmile_qr_scan", "ios": "https://dc.lft.to/lastmile_qr_scan"}, "fusion_lon": 0.0}, {"lat": 38.90672333333333, "is_disabled": 0, "type": "electric_scooter", "lon": -77.06271533333333, "bike_id": "9101a6da8878c698869fc609211a65ba", "fusion_lat": 0.0, "name": "9101a6da8878c698869fc609211a65ba", "is_reserved": 0, "rental_uris": {"android": "https://dc.lft.to/lastmile_qr_scan", "ios": "https://dc.lft.to/lastmile_qr_scan"}, "fusion_lon": 0.0}, {"lat": 38.91679633333333, "is_disabled": 0, "type": "electric_scooter", "lon": -77.0297135, "bike_id": "19869d7c65f5b4ee0d9b63043ab901e3", "fusion_lat": 0.0, "name": "19869d7c65f5b4ee0d9b63043ab901e3", "is_reserved": 0, "rental_uris": {"android": "https://dc.lft.to/lastmile_qr_scan", "ios": "https://dc.lft.to/lastmile_qr_scan"}, "fusion_lon": 0.0}, {"lat": 38.90591766666667, "is_disabled": 0, "type": "electric_scooter", "lon": -77.06268233333333, "bike_id": "8a233cec4dfe130db30600273c8712da", "fusion_lat": 0.0, "name": "8a233cec4dfe130db30600273c8712da", "is_reserved": 0, "rental_uris": {"android": "https://dc.lft.to/lastmile_qr_scan", "ios": "https://dc.lft.to/lastmile_qr_scan"}, "fusion_lon": 0.0}, {"lat": 38.98654, "is_disabled": 0, "type": "electric_bike", "lon": -77.0565525, "bike_id": "df5be734743db5b51e218be5ac014291", "fusion_lat": 0.0, "name": "df5be734743db5b51e218be5ac014291", "is_reserved": 0, "rental_uris": {"android": "https://dc.lft.to/lastmile_qr_scan", "ios": "https://dc.lft.to/lastmile_qr_scan"}, "fusion_lon": 0.0}, {"lat": 38.919662, "is_disabled": 0, "type": "electric_scooter", "lon": -77.02504166666667, "bike_id": "6eafb6b007efaa5be7d3cc0abae07f50", "fusion_lat": 0.0, "name": "6eafb6b007efaa5be7d3cc0abae07f50", "is_reserved": 0, "rental_uris": {"android": "https://dc.lft.to/lastmile_qr_scan", "ios": "https://dc.lft.to/lastmile_qr_scan"}, "fusion_lon": 0.0}, {"lat": 38.869205, "is_disabled": 0, "type": "electric_scooter", "lon": -76.98306583333333, "bike_id": "e86c3e4e95793383b444184422811a3c", "fusion_lat": 0.0, "name": "e86c3e4e95793383b444184422811a3c", "is_reserved": 0, "rental_uris": {"android": "https://dc.lft.to/lastmile_qr_scan", "ios": "https://dc.lft.to/lastmile_qr_scan"}, "fusion_lon": 0.0}, {"lat": 38.971902666666665, "is_disabled": 0, "type": "electric_bike", "lon": -77.02722183333333, "bike_id": "32cc4455d85d29ae060751af724c0677", "fusion_lat": 0.0, "name": "32cc4455d85d29ae060751af724c0677", "is_reserved": 0, "rental_uris": {"android": "https://dc.lft.to/lastmile_qr_scan", "ios": "https://dc.lft.to/lastmile_qr_scan"}, "fusion_lon": 0.0}, {"lat": 38.9096745, "is_disabled": 0, "type": "electric_scooter", "lon": -77.0092645, "bike_id": "60fe7e2f37e2f6bb9385d993d997dc92", "fusion_lat": 0.0, "name": "60fe7e2f37e2f6bb9385d993d997dc92", "is_reserved": 0, "rental_uris": {"android": "https://dc.lft.to/lastmile_qr_scan", "ios": "https://dc.lft.to/lastmile_qr_scan"}, "fusion_lon": 0.0}, {"lat": 38.90106983333333, "is_disabled": 0, "type": "electric_scooter", "lon": -77.05900266666667, "bike_id": "73950bf605eb2d710db96c6c0f7e6b11", "fusion_lat": 0.0, "name": "73950bf605eb2d710db96c6c0f7e6b11", "is_reserved": 0, "rental_uris": {"android": "https://dc.lft.to/lastmile_qr_scan", "ios": "https://dc.lft.to/lastmile_qr_scan"}, "fusion_lon": 0.0}, {"lat": 38.9242595, "is_disabled": 0, "type": "electric_scooter", "lon": -77.05180816666666, "bike_id": "fee93e6bdc4fad147ba292ff8c549b2e", "fusion_lat": 0.0, "name": "fee93e6bdc4fad147ba292ff8c549b2e", "is_reserved": 0, "rental_uris": {"android": "https://dc.lft.to/lastmile_qr_scan", "ios": "https://dc.lft.to/lastmile_qr_scan"}, "fusion_lon": 0.0}, {"lat": 38.905523, "is_disabled": 0, "type": "electric_scooter", "lon": -77.03408016666667, "bike_id": "2c1876b2023308fcb313f246e63ecef1", "fusion_lat": 0.0, "name": "2c1876b2023308fcb313f246e63ecef1", "is_reserved": 0, "rental_uris": {"android": "https://dc.lft.to/lastmile_qr_scan", "ios": "https://dc.lft.to/lastmile_qr_scan"}, "fusion_lon": 0.0}, {"lat": 38.90982066666667, "is_disabled": 0, "type": "electric_bike", "lon": -76.9852705, "bike_id": "b17f2cf9b779ed5090c8611801d54420", "fusion_lat": 0.0, "name": "b17f2cf9b779ed5090c8611801d54420", "is_reserved": 0, "rental_uris": {"android": "https://dc.lft.to/lastmile_qr_scan", "ios": "https://dc.lft.to/lastmile_qr_scan"}, "fusion_lon": 0.0}, {"lat": 38.889848, "is_disabled": 0, "type": "electric_bike", "lon": -77.071321, "bike_id": "5bcca1528bcafe855f3d59757da2de95", "fusion_lat": 0.0, "name": "5bcca1528bcafe855f3d59757da2de95", "is_reserved": 0, "rental_uris": {"android": "https://dc.lft.to/lastmile_qr_scan", "ios": "https://dc.lft.to/lastmile_qr_scan"}, "fusion_lon": 0.0}, {"lat": 38.90856133333333, "is_disabled": 0, "type": "electric_scooter", "lon": -77.02401616666667, "bike_id": "f493c2c8a824549ab444d87bd0bb374f", "fusion_lat": 0.0, "name": "f493c2c8a824549ab444d87bd0bb374f", "is_reserved": 0, "rental_uris": {"android": "https://dc.lft.to/lastmile_qr_scan", "ios": "https://dc.lft.to/lastmile_qr_scan"}, "fusion_lon": 0.0}, {"lat": 38.893459666666665, "is_disabled": 0, "type": "electric_scooter", "lon": -76.9493865, "bike_id": "108dab000ea43d91cb0456f09a6191f6", "fusion_lat": 0.0, "name": "108dab000ea43d91cb0456f09a6191f6", "is_reserved": 0, "rental_uris": {"android": "https://dc.lft.to/lastmile_qr_scan", "ios": "https://dc.lft.to/lastmile_qr_scan"}, "fusion_lon": 0.0}, {"lat": 38.88617166666667, "is_disabled": 0, "type": "electric_scooter", "lon": -77.02183516666666, "bike_id": "971d5da968b51746ed6a92f1950d1492", "fusion_lat": 0.0, "name": "971d5da968b51746ed6a92f1950d1492", "is_reserved": 0, "rental_uris": {"android": "https://dc.lft.to/lastmile_qr_scan", "ios": "https://dc.lft.to/lastmile_qr_scan"}, "fusion_lon": 0.0}, {"lat": 38.90569883333333, "is_disabled": 0, "type": "electric_scooter", "lon": -77.030684, "bike_id": "0127bc47ccb39a4f881117ddfcde5b13", "fusion_lat": 0.0, "name": "0127bc47ccb39a4f881117ddfcde5b13", "is_reserved": 0, "rental_uris": {"android": "https://dc.lft.to/lastmile_qr_scan", "ios": "https://dc.lft.to/lastmile_qr_scan"}, "fusion_lon": 0.0}, {"lat": 38.89221783333333, "is_disabled": 0, "type": "electric_scooter", "lon": -77.04866983333334, "bike_id": "f6a672fd152da13529308a0dcb6d84bc", "fusion_lat": 0.0, "name": "f6a672fd152da13529308a0dcb6d84bc", "is_reserved": 0, "rental_uris": {"android": "https://dc.lft.to/lastmile_qr_scan", "ios": "https://dc.lft.to/lastmile_qr_scan"}, "fusion_lon": 0.0}, {"lat": 38.848131333333335, "is_disabled": 0, "type": "electric_bike", "lon": -77.07904533333334, "bike_id": "20ae225ae8966a8079bb5d3bad52f1c3", "fusion_lat": 0.0, "name": "20ae225ae8966a8079bb5d3bad52f1c3", "is_reserved": 0, "rental_uris": {"android": "https://dc.lft.to/lastmile_qr_scan", "ios": "https://dc.lft.to/lastmile_qr_scan"}, "fusion_lon": 0.0}, {"lat": 38.897568, "is_disabled": 0, "type": "electric_scooter", "lon": -76.94183783333334, "bike_id": "246277924b39cda88c47e619e2a736af", "fusion_lat": 0.0, "name": "246277924b39cda88c47e619e2a736af", "is_reserved": 0, "rental_uris": {"android": "https://dc.lft.to/lastmile_qr_scan", "ios": "https://dc.lft.to/lastmile_qr_scan"}, "fusion_lon": 0.0}, {"lat": 38.89490083333333, "is_disabled": 0, "type": "electric_scooter", "lon": -77.02797683333333, "bike_id": "ed4e5191fa51f991f8f86aaafceacd4c", "fusion_lat": 0.0, "name": "ed4e5191fa51f991f8f86aaafceacd4c", "is_reserved": 0, "rental_uris": {"android": "https://dc.lft.to/lastmile_qr_scan", "ios": "https://dc.lft.to/lastmile_qr_scan"}, "fusion_lon": 0.0}, {"lat": 38.9035875, "is_disabled": 0, "type": "electric_scooter", "lon": -77.03894583333333, "bike_id": "0c0b4520eef64903b4cbc58f9ef45b7c", "fusion_lat": 0.0, "name": "0c0b4520eef64903b4cbc58f9ef45b7c", "is_reserved": 0, "rental_uris": {"android": "https://dc.lft.to/lastmile_qr_scan", "ios": "https://dc.lft.to/lastmile_qr_scan"}, "fusion_lon": 0.0}, {"lat": 38.902396333333336, "is_disabled": 0, "type": "electric_scooter", "lon": -77.02697866666666, "bike_id": "6faf246c14ef5954df63ebf6793cdece", "fusion_lat": 0.0, "name": "6faf246c14ef5954df63ebf6793cdece", "is_reserved": 0, "rental_uris": {"android": "https://dc.lft.to/lastmile_qr_scan", "ios": "https://dc.lft.to/lastmile_qr_scan"}, "fusion_lon": 0.0}, {"lat": 38.90115183333333, "is_disabled": 0, "type": "electric_scooter", "lon": -77.03184466666667, "bike_id": "b07c7adede0f3e63b79a8f179add1ce0", "fusion_lat": 0.0, "name": "b07c7adede0f3e63b79a8f179add1ce0", "is_reserved": 0, "rental_uris": {"android": "https://dc.lft.to/lastmile_qr_scan", "ios": "https://dc.lft.to/lastmile_qr_scan"}, "fusion_lon": 0.0}, {"lat": 38.906411, "is_disabled": 0, "type": "electric_scooter", "lon": -77.04871816666666, "bike_id": "a726cf5c38132840f4e54c3043cdb702", "fusion_lat": 0.0, "name": "a726cf5c38132840f4e54c3043cdb702", "is_reserved": 0, "rental_uris": {"android": "https://dc.lft.to/lastmile_qr_scan", "ios": "https://dc.lft.to/lastmile_qr_scan"}, "fusion_lon": 0.0}, {"lat": 38.87370716666667, "is_disabled": 0, "type": "electric_scooter", "lon": -77.0007825, "bike_id": "44a597f12b4c01a7e9cfada30909a48a", "fusion_lat": 0.0, "name": "44a597f12b4c01a7e9cfada30909a48a", "is_reserved": 0, "rental_uris": {"android": "https://dc.lft.to/lastmile_qr_scan", "ios": "https://dc.lft.to/lastmile_qr_scan"}, "fusion_lon": 0.0}, {"lat": 38.884322833333336, "is_disabled": 0, "type": "electric_scooter", "lon": -76.95757416666666, "bike_id": "6af5b144dd24e771c12d0ac24436bede", "fusion_lat": 0.0, "name": "6af5b144dd24e771c12d0ac24436bede", "is_reserved": 0, "rental_uris": {"android": "https://dc.lft.to/lastmile_qr_scan", "ios": "https://dc.lft.to/lastmile_qr_scan"}, "fusion_lon": 0.0}, {"lat": 38.920561666666664, "is_disabled": 0, "type": "electric_scooter", "lon": -77.02424016666667, "bike_id": "3fb0307e438d32591a30759f895e214b", "fusion_lat": 0.0, "name": "3fb0307e438d32591a30759f895e214b", "is_reserved": 0, "rental_uris": {"android": "https://dc.lft.to/lastmile_qr_scan", "ios": "https://dc.lft.to/lastmile_qr_scan"}, "fusion_lon": 0.0}, {"lat": 38.85504133333333, "is_disabled": 0, "type": "electric_bike", "lon": -76.984219, "bike_id": "65d2ec8a76c2615c25ff0fde83095a51", "fusion_lat": 0.0, "name": "65d2ec8a76c2615c25ff0fde83095a51", "is_reserved": 0, "rental_uris": {"android": "https://dc.lft.to/lastmile_qr_scan", "ios": "https://dc.lft.to/lastmile_qr_scan"}, "fusion_lon": 0.0}, {"lat": 38.912887, "is_disabled": 0, "type": "electric_scooter", "lon": -77.045186, "bike_id": "c96e094b2509fbf2159ae8ee8676e07f", "fusion_lat": 0.0, "name": "c96e094b2509fbf2159ae8ee8676e07f", "is_reserved": 0, "rental_uris": {"android": "https://dc.lft.to/lastmile_qr_scan", "ios": "https://dc.lft.to/lastmile_qr_scan"}, "fusion_lon": 0.0}, {"lat": 38.954984333333336, "is_disabled": 0, "type": "electric_scooter", "lon": -77.06562183333334, "bike_id": "94fca9c6225dcc9351bb2b229c24ddbc", "fusion_lat": 0.0, "name": "94fca9c6225dcc9351bb2b229c24ddbc", "is_reserved": 0, "rental_uris": {"android": "https://dc.lft.to/lastmile_qr_scan", "ios": "https://dc.lft.to/lastmile_qr_scan"}, "fusion_lon": 0.0}, {"lat": 38.911079666666666, "is_disabled": 0, "type": "electric_scooter", "lon": -77.0217825, "bike_id": "2cab57ce503dc77980acc53ac5102ce8", "fusion_lat": 0.0, "name": "2cab57ce503dc77980acc53ac5102ce8", "is_reserved": 0, "rental_uris": {"android": "https://dc.lft.to/lastmile_qr_scan", "ios": "https://dc.lft.to/lastmile_qr_scan"}, "fusion_lon": 0.0}, {"lat": 38.89733833333333, "is_disabled": 0, "type": "electric_scooter", "lon": -77.05478433333333, "bike_id": "ccc2e2b2ffa58ee54518cbed6cbf7b93", "fusion_lat": 0.0, "name": "ccc2e2b2ffa58ee54518cbed6cbf7b93", "is_reserved": 0, "rental_uris": {"android": "https://dc.lft.to/lastmile_qr_scan", "ios": "https://dc.lft.to/lastmile_qr_scan"}, "fusion_lon": 0.0}, {"lat": 38.89261966666667, "is_disabled": 0, "type": "electric_scooter", "lon": -77.033464, "bike_id": "94e68669942331a95b3d7c977bd1e024", "fusion_lat": 0.0, "name": "94e68669942331a95b3d7c977bd1e024", "is_reserved": 0, "rental_uris": {"android": "https://dc.lft.to/lastmile_qr_scan", "ios": "https://dc.lft.to/lastmile_qr_scan"}, "fusion_lon": 0.0}, {"lat": 38.920041499999996, "is_disabled": 0, "type": "electric_scooter", "lon": -76.99304516666666, "bike_id": "60b92a5904a531f84acdb5bb23f84f14", "fusion_lat": 0.0, "name": "60b92a5904a531f84acdb5bb23f84f14", "is_reserved": 0, "rental_uris": {"android": "https://dc.lft.to/lastmile_qr_scan", "ios": "https://dc.lft.to/lastmile_qr_scan"}, "fusion_lon": 0.0}, {"lat": 38.92679583333334, "is_disabled": 0, "type": "electric_scooter", "lon": -77.03738166666666, "bike_id": "7a63524e554e19a0f63be16130151100", "fusion_lat": 0.0, "name": "7a63524e554e19a0f63be16130151100", "is_reserved": 0, "rental_uris": {"android": "https://dc.lft.to/lastmile_qr_scan", "ios": "https://dc.lft.to/lastmile_qr_scan"}, "fusion_lon": 0.0}, {"lat": 38.8982645, "is_disabled": 0, "type": "electric_scooter", "lon": -77.02378683333333, "bike_id": "c6337dba9fcba9a75432dee61cb52281", "fusion_lat": 0.0, "name": "c6337dba9fcba9a75432dee61cb52281", "is_reserved": 0, "rental_uris": {"android": "https://dc.lft.to/lastmile_qr_scan", "ios": "https://dc.lft.to/lastmile_qr_scan"}, "fusion_lon": 0.0}, {"lat": 38.93073283333333, "is_disabled": 0, "type": "electric_scooter", "lon": -77.0314275, "bike_id": "2b2c9f84f6e0e46fd6f962c79d328a02", "fusion_lat": 0.0, "name": "2b2c9f84f6e0e46fd6f962c79d328a02", "is_reserved": 0, "rental_uris": {"android": "https://dc.lft.to/lastmile_qr_scan", "ios": "https://dc.lft.to/lastmile_qr_scan"}, "fusion_lon": 0.0}, {"lat": 38.94083116666667, "is_disabled": 0, "type": "electric_scooter", "lon": -77.06132916666667, "bike_id": "6d86d96457a2b1d3f14c83e1988640b8", "fusion_lat": 0.0, "name": "6d86d96457a2b1d3f14c83e1988640b8", "is_reserved": 0, "rental_uris": {"android": "https://dc.lft.to/lastmile_qr_scan", "ios": "https://dc.lft.to/lastmile_qr_scan"}, "fusion_lon": 0.0}, {"lat": 38.92396383333333, "is_disabled": 0, "type": "electric_scooter", "lon": -77.02699233333334, "bike_id": "cf3760664f6718198dab237695734d75", "fusion_lat": 0.0, "name": "cf3760664f6718198dab237695734d75", "is_reserved": 0, "rental_uris": {"android": "https://dc.lft.to/lastmile_qr_scan", "ios": "https://dc.lft.to/lastmile_qr_scan"}, "fusion_lon": 0.0}, {"lat": 38.949032333333335, "is_disabled": 0, "type": "electric_bike", "lon": -76.97241033333333, "bike_id": "c54e481be51b477fbbcb1faf3b77aa6f", "fusion_lat": 0.0, "name": "c54e481be51b477fbbcb1faf3b77aa6f", "is_reserved": 0, "rental_uris": {"android": "https://dc.lft.to/lastmile_qr_scan", "ios": "https://dc.lft.to/lastmile_qr_scan"}, "fusion_lon": 0.0}, {"lat": 38.91107183333333, "is_disabled": 0, "type": "electric_scooter", "lon": -77.03243016666667, "bike_id": "ed783c0fc28c4a7ceacf44286fa7cb8f", "fusion_lat": 0.0, "name": "ed783c0fc28c4a7ceacf44286fa7cb8f", "is_reserved": 0, "rental_uris": {"android": "https://dc.lft.to/lastmile_qr_scan", "ios": "https://dc.lft.to/lastmile_qr_scan"}, "fusion_lon": 0.0}, {"lat": 38.89247366666667, "is_disabled": 0, "type": "electric_scooter", "lon": -77.031807, "bike_id": "64e279177dd0dd8ad709e6a95c0e31ec", "fusion_lat": 0.0, "name": "64e279177dd0dd8ad709e6a95c0e31ec", "is_reserved": 0, "rental_uris": {"android": "https://dc.lft.to/lastmile_qr_scan", "ios": "https://dc.lft.to/lastmile_qr_scan"}, "fusion_lon": 0.0}, {"lat": 38.925461, "is_disabled": 0, "type": "electric_scooter", "lon": -77.025688, "bike_id": "7c9a0591b9bcc4cacb93e13d44bdf5c4", "fusion_lat": 0.0, "name": "7c9a0591b9bcc4cacb93e13d44bdf5c4", "is_reserved": 0, "rental_uris": {"android": "https://dc.lft.to/lastmile_qr_scan", "ios": "https://dc.lft.to/lastmile_qr_scan"}, "fusion_lon": 0.0}, {"lat": 38.9060445, "is_disabled": 0, "type": "electric_scooter", "lon": -77.02496616666667, "bike_id": "97d74091e66def9bf124a009dcd9f040", "fusion_lat": 0.0, "name": "97d74091e66def9bf124a009dcd9f040", "is_reserved": 0, "rental_uris": {"android": "https://dc.lft.to/lastmile_qr_scan", "ios": "https://dc.lft.to/lastmile_qr_scan"}, "fusion_lon": 0.0}, {"lat": 38.82786266666667, "is_disabled": 0, "type": "electric_bike", "lon": -77.00917783333334, "bike_id": "dbafe40339d3353deb813a5217480adf", "fusion_lat": 0.0, "name": "dbafe40339d3353deb813a5217480adf", "is_reserved": 0, "rental_uris": {"android": "https://dc.lft.to/lastmile_qr_scan", "ios": "https://dc.lft.to/lastmile_qr_scan"}, "fusion_lon": 0.0}, {"lat": 38.91217316666667, "is_disabled": 0, "type": "electric_scooter", "lon": -77.0271445, "bike_id": "223bc5630caf00a36912784f13b27102", "fusion_lat": 0.0, "name": "223bc5630caf00a36912784f13b27102", "is_reserved": 0, "rental_uris": {"android": "https://dc.lft.to/lastmile_qr_scan", "ios": "https://dc.lft.to/lastmile_qr_scan"}, "fusion_lon": 0.0}, {"lat": 38.883596833333335, "is_disabled": 0, "type": "electric_scooter", "lon": -76.9951295, "bike_id": "2520df8e2cb6e4f5e86f96bce5e525c7", "fusion_lat": 0.0, "name": "2520df8e2cb6e4f5e86f96bce5e525c7", "is_reserved": 0, "rental_uris": {"android": "https://dc.lft.to/lastmile_qr_scan", "ios": "https://dc.lft.to/lastmile_qr_scan"}, "fusion_lon": 0.0}, {"lat": 38.98656066666667, "is_disabled": 0, "type": "electric_bike", "lon": -77.05723066666667, "bike_id": "76b52a0b54b4a84a7a6eceddb5730e7e", "fusion_lat": 0.0, "name": "76b52a0b54b4a84a7a6eceddb5730e7e", "is_reserved": 0, "rental_uris": {"android": "https://dc.lft.to/lastmile_qr_scan", "ios": "https://dc.lft.to/lastmile_qr_scan"}, "fusion_lon": 0.0}, {"lat": 38.93887866666667, "is_disabled": 0, "type": "electric_scooter", "lon": -77.03338116666667, "bike_id": "23748ee52d8959443f52ba677249473f", "fusion_lat": 0.0, "name": "23748ee52d8959443f52ba677249473f", "is_reserved": 0, "rental_uris": {"android": "https://dc.lft.to/lastmile_qr_scan", "ios": "https://dc.lft.to/lastmile_qr_scan"}, "fusion_lon": 0.0}, {"lat": 38.91634666666667, "is_disabled": 0, "type": "electric_scooter", "lon": -77.03206983333334, "bike_id": "6b3eac8e96192d8865ca6623fbe3911a", "fusion_lat": 0.0, "name": "6b3eac8e96192d8865ca6623fbe3911a", "is_reserved": 0, "rental_uris": {"android": "https://dc.lft.to/lastmile_qr_scan", "ios": "https://dc.lft.to/lastmile_qr_scan"}, "fusion_lon": 0.0}, {"lat": 38.931947, "is_disabled": 0, "type": "electric_scooter", "lon": -77.025663, "bike_id": "2d2b128149ee92ded74774584fe9d9a6", "fusion_lat": 0.0, "name": "2d2b128149ee92ded74774584fe9d9a6", "is_reserved": 0, "rental_uris": {"android": "https://dc.lft.to/lastmile_qr_scan", "ios": "https://dc.lft.to/lastmile_qr_scan"}, "fusion_lon": 0.0}, {"lat": 38.93294516666667, "is_disabled": 0, "type": "electric_scooter", "lon": -77.04536466666667, "bike_id": "60f3621d9a8f2ba536b872bc0e015be1", "fusion_lat": 0.0, "name": "60f3621d9a8f2ba536b872bc0e015be1", "is_reserved": 0, "rental_uris": {"android": "https://dc.lft.to/lastmile_qr_scan", "ios": "https://dc.lft.to/lastmile_qr_scan"}, "fusion_lon": 0.0}, {"lat": 38.88092733333333, "is_disabled": 0, "type": "electric_scooter", "lon": -76.99254233333333, "bike_id": "2f7410f83564ca0da310d92b606e86e4", "fusion_lat": 0.0, "name": "2f7410f83564ca0da310d92b606e86e4", "is_reserved": 0, "rental_uris": {"android": "https://dc.lft.to/lastmile_qr_scan", "ios": "https://dc.lft.to/lastmile_qr_scan"}, "fusion_lon": 0.0}, {"lat": 38.887979333333334, "is_disabled": 0, "type": "electric_scooter", "lon": -76.9336445, "bike_id": "7796fb42a03e6f1bb4646931c3703126", "fusion_lat": 0.0, "name": "7796fb42a03e6f1bb4646931c3703126", "is_reserved": 0, "rental_uris": {"android": "https://dc.lft.to/lastmile_qr_scan", "ios": "https://dc.lft.to/lastmile_qr_scan"}, "fusion_lon": 0.0}, {"lat": 38.9842525, "is_disabled": 0, "type": "electric_scooter", "lon": -77.0266885, "bike_id": "b47b34071ccfbb2090797848333ff2b8", "fusion_lat": 0.0, "name": "b47b34071ccfbb2090797848333ff2b8", "is_reserved": 0, "rental_uris": {"android": "https://dc.lft.to/lastmile_qr_scan", "ios": "https://dc.lft.to/lastmile_qr_scan"}, "fusion_lon": 0.0}, {"lat": 38.93346616666667, "is_disabled": 0, "type": "electric_scooter", "lon": -77.05707233333334, "bike_id": "c6bc7afa7035afd69d20bdaf3c93c7f7", "fusion_lat": 0.0, "name": "c6bc7afa7035afd69d20bdaf3c93c7f7", "is_reserved": 0, "rental_uris": {"android": "https://dc.lft.to/lastmile_qr_scan", "ios": "https://dc.lft.to/lastmile_qr_scan"}, "fusion_lon": 0.0}, {"lat": 38.90591366666666, "is_disabled": 0, "type": "electric_scooter", "lon": -77.0629945, "bike_id": "10205a632f0e66c3c2ce90f3f58929ef", "fusion_lat": 0.0, "name": "10205a632f0e66c3c2ce90f3f58929ef", "is_reserved": 0, "rental_uris": {"android": "https://dc.lft.to/lastmile_qr_scan", "ios": "https://dc.lft.to/lastmile_qr_scan"}, "fusion_lon": 0.0}, {"lat": 38.8367425, "is_disabled": 0, "type": "electric_scooter", "lon": -77.00570966666666, "bike_id": "33d644c2dc594b6b21b14f72542adf6e", "fusion_lat": 0.0, "name": "33d644c2dc594b6b21b14f72542adf6e", "is_reserved": 0, "rental_uris": {"android": "https://dc.lft.to/lastmile_qr_scan", "ios": "https://dc.lft.to/lastmile_qr_scan"}, "fusion_lon": 0.0}, {"lat": 38.91914116666667, "is_disabled": 0, "type": "electric_scooter", "lon": -77.0134495, "bike_id": "68f1ed40709c148ed6d8779c75c18fbc", "fusion_lat": 0.0, "name": "68f1ed40709c148ed6d8779c75c18fbc", "is_reserved": 0, "rental_uris": {"android": "https://dc.lft.to/lastmile_qr_scan", "ios": "https://dc.lft.to/lastmile_qr_scan"}, "fusion_lon": 0.0}, {"lat": 38.93496966666667, "is_disabled": 0, "type": "electric_scooter", "lon": -77.05803366666666, "bike_id": "e137096b2278d62a4a53b2f4fb583928", "fusion_lat": 0.0, "name": "e137096b2278d62a4a53b2f4fb583928", "is_reserved": 0, "rental_uris": {"android": "https://dc.lft.to/lastmile_qr_scan", "ios": "https://dc.lft.to/lastmile_qr_scan"}, "fusion_lon": 0.0}, {"lat": 38.930363166666666, "is_disabled": 0, "type": "electric_scooter", "lon": -77.03636266666666, "bike_id": "bb351e48505b171310a39f26a5e52133", "fusion_lat": 0.0, "name": "bb351e48505b171310a39f26a5e52133", "is_reserved": 0, "rental_uris": {"android": "https://dc.lft.to/lastmile_qr_scan", "ios": "https://dc.lft.to/lastmile_qr_scan"}, "fusion_lon": 0.0}, {"lat": 38.9086505, "is_disabled": 0, "type": "electric_scooter", "lon": -77.04594583333333, "bike_id": "99405134ed0a1a8490ba391bd42dbbd4", "fusion_lat": 0.0, "name": "99405134ed0a1a8490ba391bd42dbbd4", "is_reserved": 0, "rental_uris": {"android": "https://dc.lft.to/lastmile_qr_scan", "ios": "https://dc.lft.to/lastmile_qr_scan"}, "fusion_lon": 0.0}, {"lat": 38.870092, "is_disabled": 0, "type": "electric_bike", "lon": -76.960245, "bike_id": "d2b289fada0efef11596a15e80d519d0", "fusion_lat": 0.0, "name": "d2b289fada0efef11596a15e80d519d0", "is_reserved": 0, "rental_uris": {"android": "https://dc.lft.to/lastmile_qr_scan", "ios": "https://dc.lft.to/lastmile_qr_scan"}, "fusion_lon": 0.0}, {"lat": 38.8969005, "is_disabled": 0, "type": "electric_scooter", "lon": -77.00496916666667, "bike_id": "50cb22300f031c829b2380fd758c91a2", "fusion_lat": 0.0, "name": "50cb22300f031c829b2380fd758c91a2", "is_reserved": 0, "rental_uris": {"android": "https://dc.lft.to/lastmile_qr_scan", "ios": "https://dc.lft.to/lastmile_qr_scan"}, "fusion_lon": 0.0}, {"lat": 38.922505666666666, "is_disabled": 0, "type": "electric_scooter", "lon": -77.019377, "bike_id": "e6825b9e0ac492571a945f9ef182094f", "fusion_lat": 0.0, "name": "e6825b9e0ac492571a945f9ef182094f", "is_reserved": 0, "rental_uris": {"android": "https://dc.lft.to/lastmile_qr_scan", "ios": "https://dc.lft.to/lastmile_qr_scan"}, "fusion_lon": 0.0}, {"lat": 38.943050666666664, "is_disabled": 0, "type": "electric_scooter", "lon": -77.061377, "bike_id": "91016acd6dd3a23b9c63a78d8af61668", "fusion_lat": 0.0, "name": "91016acd6dd3a23b9c63a78d8af61668", "is_reserved": 0, "rental_uris": {"android": "https://dc.lft.to/lastmile_qr_scan", "ios": "https://dc.lft.to/lastmile_qr_scan"}, "fusion_lon": 0.0}, {"lat": 38.89655316666666, "is_disabled": 0, "type": "electric_scooter", "lon": -77.04670366666667, "bike_id": "24b3e760a3a849052a997d88c069ddee", "fusion_lat": 0.0, "name": "24b3e760a3a849052a997d88c069ddee", "is_reserved": 0, "rental_uris": {"android": "https://dc.lft.to/lastmile_qr_scan", "ios": "https://dc.lft.to/lastmile_qr_scan"}, "fusion_lon": 0.0}, {"lat": 38.89490416666666, "is_disabled": 0, "type": "electric_scooter", "lon": -77.0025545, "bike_id": "810c875b77fa6c6bf6711d177873333a", "fusion_lat": 0.0, "name": "810c875b77fa6c6bf6711d177873333a", "is_reserved": 0, "rental_uris": {"android": "https://dc.lft.to/lastmile_qr_scan", "ios": "https://dc.lft.to/lastmile_qr_scan"}, "fusion_lon": 0.0}, {"lat": 38.9048545, "is_disabled": 0, "type": "electric_scooter", "lon": -76.97326983333333, "bike_id": "18763da5c97e51273a07a626459db8de", "fusion_lat": 0.0, "name": "18763da5c97e51273a07a626459db8de", "is_reserved": 0, "rental_uris": {"android": "https://dc.lft.to/lastmile_qr_scan", "ios": "https://dc.lft.to/lastmile_qr_scan"}, "fusion_lon": 0.0}, {"lat": 38.917076, "is_disabled": 0, "type": "electric_scooter", "lon": -77.03472416666666, "bike_id": "c6cd1a60761843aa82b5056d90dd63e1", "fusion_lat": 0.0, "name": "c6cd1a60761843aa82b5056d90dd63e1", "is_reserved": 0, "rental_uris": {"android": "https://dc.lft.to/lastmile_qr_scan", "ios": "https://dc.lft.to/lastmile_qr_scan"}, "fusion_lon": 0.0}, {"lat": 38.92907366666667, "is_disabled": 0, "type": "electric_scooter", "lon": -77.060944, "bike_id": "0c9c30dd693a4ee5ef8506db0ad84e9a", "fusion_lat": 0.0, "name": "0c9c30dd693a4ee5ef8506db0ad84e9a", "is_reserved": 0, "rental_uris": {"android": "https://dc.lft.to/lastmile_qr_scan", "ios": "https://dc.lft.to/lastmile_qr_scan"}, "fusion_lon": 0.0}, {"lat": 38.90639183333333, "is_disabled": 0, "type": "electric_scooter", "lon": -77.0141255, "bike_id": "ce3fecf271a0ed187a29fb73bbb10f56", "fusion_lat": 0.0, "name": "ce3fecf271a0ed187a29fb73bbb10f56", "is_reserved": 0, "rental_uris": {"android": "https://dc.lft.to/lastmile_qr_scan", "ios": "https://dc.lft.to/lastmile_qr_scan"}, "fusion_lon": 0.0}, {"lat": 38.88634183333333, "is_disabled": 0, "type": "electric_scooter", "lon": -76.95490716666667, "bike_id": "883032ec1a96dd38e4ee4775c3a29b34", "fusion_lat": 0.0, "name": "883032ec1a96dd38e4ee4775c3a29b34", "is_reserved": 0, "rental_uris": {"android": "https://dc.lft.to/lastmile_qr_scan", "ios": "https://dc.lft.to/lastmile_qr_scan"}, "fusion_lon": 0.0}, {"lat": 38.91580783333333, "is_disabled": 0, "type": "electric_scooter", "lon": -77.0502565, "bike_id": "71de660234c611f53e3f6051e1596845", "fusion_lat": 0.0, "name": "71de660234c611f53e3f6051e1596845", "is_reserved": 0, "rental_uris": {"android": "https://dc.lft.to/lastmile_qr_scan", "ios": "https://dc.lft.to/lastmile_qr_scan"}, "fusion_lon": 0.0}, {"lat": 38.9211435, "is_disabled": 0, "type": "electric_scooter", "lon": -77.041893, "bike_id": "2e48d1f4695e195708039c1ae4fd6e25", "fusion_lat": 0.0, "name": "2e48d1f4695e195708039c1ae4fd6e25", "is_reserved": 0, "rental_uris": {"android": "https://dc.lft.to/lastmile_qr_scan", "ios": "https://dc.lft.to/lastmile_qr_scan"}, "fusion_lon": 0.0}, {"lat": 38.947061833333336, "is_disabled": 0, "type": "electric_scooter", "lon": -77.01937766666667, "bike_id": "2e2dddd8e958c8108aa7a9297855b225", "fusion_lat": 0.0, "name": "2e2dddd8e958c8108aa7a9297855b225", "is_reserved": 0, "rental_uris": {"android": "https://dc.lft.to/lastmile_qr_scan", "ios": "https://dc.lft.to/lastmile_qr_scan"}, "fusion_lon": 0.0}, {"lat": 38.90544833333333, "is_disabled": 0, "type": "electric_scooter", "lon": -77.00621833333334, "bike_id": "3ecf76b5c665ce5e422003d726553841", "fusion_lat": 0.0, "name": "3ecf76b5c665ce5e422003d726553841", "is_reserved": 0, "rental_uris": {"android": "https://dc.lft.to/lastmile_qr_scan", "ios": "https://dc.lft.to/lastmile_qr_scan"}, "fusion_lon": 0.0}, {"lat": 38.8706715, "is_disabled": 0, "type": "electric_scooter", "lon": -76.97969533333334, "bike_id": "ac6539b111174e511034ab4a43af48df", "fusion_lat": 0.0, "name": "ac6539b111174e511034ab4a43af48df", "is_reserved": 0, "rental_uris": {"android": "https://dc.lft.to/lastmile_qr_scan", "ios": "https://dc.lft.to/lastmile_qr_scan"}, "fusion_lon": 0.0}, {"lat": 38.911558666666664, "is_disabled": 0, "type": "electric_scooter", "lon": -77.03835283333333, "bike_id": "a5a475bb0c9244afd495aec60f549a61", "fusion_lat": 0.0, "name": "a5a475bb0c9244afd495aec60f549a61", "is_reserved": 0, "rental_uris": {"android": "https://dc.lft.to/lastmile_qr_scan", "ios": "https://dc.lft.to/lastmile_qr_scan"}, "fusion_lon": 0.0}, {"lat": 38.917755166666666, "is_disabled": 0, "type": "electric_scooter", "lon": -77.0410205, "bike_id": "511c8b13560161e19f6196071fcd8723", "fusion_lat": 0.0, "name": "511c8b13560161e19f6196071fcd8723", "is_reserved": 0, "rental_uris": {"android": "https://dc.lft.to/lastmile_qr_scan", "ios": "https://dc.lft.to/lastmile_qr_scan"}, "fusion_lon": 0.0}, {"lat": 38.908287333333334, "is_disabled": 0, "type": "electric_scooter", "lon": -77.06377233333333, "bike_id": "6619cfc6aaf8b0760232541362622201", "fusion_lat": 0.0, "name": "6619cfc6aaf8b0760232541362622201", "is_reserved": 0, "rental_uris": {"android": "https://dc.lft.to/lastmile_qr_scan", "ios": "https://dc.lft.to/lastmile_qr_scan"}, "fusion_lon": 0.0}, {"lat": 38.90720366666667, "is_disabled": 0, "type": "electric_scooter", "lon": -77.0533455, "bike_id": "c70264cf8d4f10c1d0cb0a4e293c0eba", "fusion_lat": 0.0, "name": "c70264cf8d4f10c1d0cb0a4e293c0eba", "is_reserved": 0, "rental_uris": {"android": "https://dc.lft.to/lastmile_qr_scan", "ios": "https://dc.lft.to/lastmile_qr_scan"}, "fusion_lon": 0.0}, {"lat": 38.906784, "is_disabled": 0, "type": "electric_scooter", "lon": -77.0376085, "bike_id": "dd36c96f2079c325f7bab68dd21acbbe", "fusion_lat": 0.0, "name": "dd36c96f2079c325f7bab68dd21acbbe", "is_reserved": 0, "rental_uris": {"android": "https://dc.lft.to/lastmile_qr_scan", "ios": "https://dc.lft.to/lastmile_qr_scan"}, "fusion_lon": 0.0}, {"lat": 38.85051266666667, "is_disabled": 0, "type": "electric_bike", "lon": -76.9732095, "bike_id": "d9074bcb392e95ea860f4458e467e4ac", "fusion_lat": 0.0, "name": "d9074bcb392e95ea860f4458e467e4ac", "is_reserved": 0, "rental_uris": {"android": "https://dc.lft.to/lastmile_qr_scan", "ios": "https://dc.lft.to/lastmile_qr_scan"}, "fusion_lon": 0.0}, {"lat": 38.912204833333334, "is_disabled": 0, "type": "electric_scooter", "lon": -77.031828, "bike_id": "5c068dd9aca653400e4328b6d520d419", "fusion_lat": 0.0, "name": "5c068dd9aca653400e4328b6d520d419", "is_reserved": 0, "rental_uris": {"android": "https://dc.lft.to/lastmile_qr_scan", "ios": "https://dc.lft.to/lastmile_qr_scan"}, "fusion_lon": 0.0}, {"lat": 38.905832833333335, "is_disabled": 0, "type": "electric_scooter", "lon": -77.04090883333333, "bike_id": "31227909aee2b09661d76a2b92f4e07a", "fusion_lat": 0.0, "name": "31227909aee2b09661d76a2b92f4e07a", "is_reserved": 0, "rental_uris": {"android": "https://dc.lft.to/lastmile_qr_scan", "ios": "https://dc.lft.to/lastmile_qr_scan"}, "fusion_lon": 0.0}, {"lat": 38.898822833333334, "is_disabled": 0, "type": "electric_scooter", "lon": -76.931773, "bike_id": "8a8f66f0c67b214af56980ba17b4e235", "fusion_lat": 0.0, "name": "8a8f66f0c67b214af56980ba17b4e235", "is_reserved": 0, "rental_uris": {"android": "https://dc.lft.to/lastmile_qr_scan", "ios": "https://dc.lft.to/lastmile_qr_scan"}, "fusion_lon": 0.0}, {"lat": 38.897381, "is_disabled": 0, "type": "electric_scooter", "lon": -77.0476315, "bike_id": "5483c0bd2440a9810af48f57929d92bd", "fusion_lat": 0.0, "name": "5483c0bd2440a9810af48f57929d92bd", "is_reserved": 0, "rental_uris": {"android": "https://dc.lft.to/lastmile_qr_scan", "ios": "https://dc.lft.to/lastmile_qr_scan"}, "fusion_lon": 0.0}, {"lat": 38.92114316666667, "is_disabled": 0, "type": "electric_scooter", "lon": -77.04370416666667, "bike_id": "95bdba238d56b6a68828b923b99a7714", "fusion_lat": 0.0, "name": "95bdba238d56b6a68828b923b99a7714", "is_reserved": 0, "rental_uris": {"android": "https://dc.lft.to/lastmile_qr_scan", "ios": "https://dc.lft.to/lastmile_qr_scan"}, "fusion_lon": 0.0}, {"lat": 38.90037816666667, "is_disabled": 0, "type": "electric_scooter", "lon": -77.02603466666666, "bike_id": "8541131521f3cbdfc063a6ba37d015f5", "fusion_lat": 0.0, "name": "8541131521f3cbdfc063a6ba37d015f5", "is_reserved": 0, "rental_uris": {"android": "https://dc.lft.to/lastmile_qr_scan", "ios": "https://dc.lft.to/lastmile_qr_scan"}, "fusion_lon": 0.0}, {"lat": 38.9224085, "is_disabled": 0, "type": "electric_scooter", "lon": -77.0457435, "bike_id": "ff131913c223cbfa4093460742e3c25f", "fusion_lat": 0.0, "name": "ff131913c223cbfa4093460742e3c25f", "is_reserved": 0, "rental_uris": {"android": "https://dc.lft.to/lastmile_qr_scan", "ios": "https://dc.lft.to/lastmile_qr_scan"}, "fusion_lon": 0.0}, {"lat": 38.980631333333335, "is_disabled": 0, "type": "electric_bike", "lon": -77.09615983333333, "bike_id": "2fd69028afde28ee2f607c6a0e91c431", "fusion_lat": 0.0, "name": "2fd69028afde28ee2f607c6a0e91c431", "is_reserved": 0, "rental_uris": {"android": "https://dc.lft.to/lastmile_qr_scan", "ios": "https://dc.lft.to/lastmile_qr_scan"}, "fusion_lon": 0.0}, {"lat": 38.93602633333333, "is_disabled": 0, "type": "electric_scooter", "lon": -77.05893266666666, "bike_id": "fef92a5c4cc84df767e513d4767128ce", "fusion_lat": 0.0, "name": "fef92a5c4cc84df767e513d4767128ce", "is_reserved": 0, "rental_uris": {"android": "https://dc.lft.to/lastmile_qr_scan", "ios": "https://dc.lft.to/lastmile_qr_scan"}, "fusion_lon": 0.0}, {"lat": 38.90131433333333, "is_disabled": 0, "type": "electric_scooter", "lon": -77.04999833333333, "bike_id": "d4432b27c7b7b2edea75fb5c53261949", "fusion_lat": 0.0, "name": "d4432b27c7b7b2edea75fb5c53261949", "is_reserved": 0, "rental_uris": {"android": "https://dc.lft.to/lastmile_qr_scan", "ios": "https://dc.lft.to/lastmile_qr_scan"}, "fusion_lon": 0.0}, {"lat": 38.905605666666666, "is_disabled": 0, "type": "electric_scooter", "lon": -77.020209, "bike_id": "8ad58687f590ae48e2459d31cd58189b", "fusion_lat": 0.0, "name": "8ad58687f590ae48e2459d31cd58189b", "is_reserved": 0, "rental_uris": {"android": "https://dc.lft.to/lastmile_qr_scan", "ios": "https://dc.lft.to/lastmile_qr_scan"}, "fusion_lon": 0.0}, {"lat": 38.846563, "is_disabled": 0, "type": "electric_bike", "lon": -76.97934216666667, "bike_id": "0f77b4a8674e15517b9453ab32f04b8b", "fusion_lat": 0.0, "name": "0f77b4a8674e15517b9453ab32f04b8b", "is_reserved": 0, "rental_uris": {"android": "https://dc.lft.to/lastmile_qr_scan", "ios": "https://dc.lft.to/lastmile_qr_scan"}, "fusion_lon": 0.0}, {"lat": 38.9079695, "is_disabled": 0, "type": "electric_scooter", "lon": -77.0468025, "bike_id": "4a27923418e8c4665f20cc90168acc6c", "fusion_lat": 0.0, "name": "4a27923418e8c4665f20cc90168acc6c", "is_reserved": 0, "rental_uris": {"android": "https://dc.lft.to/lastmile_qr_scan", "ios": "https://dc.lft.to/lastmile_qr_scan"}, "fusion_lon": 0.0}, {"lat": 38.910380333333336, "is_disabled": 0, "type": "electric_scooter", "lon": -77.04340333333333, "bike_id": "e02bc313160acf77dad71117b65e5a0e", "fusion_lat": 0.0, "name": "e02bc313160acf77dad71117b65e5a0e", "is_reserved": 0, "rental_uris": {"android": "https://dc.lft.to/lastmile_qr_scan", "ios": "https://dc.lft.to/lastmile_qr_scan"}, "fusion_lon": 0.0}, {"lat": 38.9317485, "is_disabled": 0, "type": "electric_scooter", "lon": -77.02816066666666, "bike_id": "c491859e8566a76b0de85c8458ef89c1", "fusion_lat": 0.0, "name": "c491859e8566a76b0de85c8458ef89c1", "is_reserved": 0, "rental_uris": {"android": "https://dc.lft.to/lastmile_qr_scan", "ios": "https://dc.lft.to/lastmile_qr_scan"}, "fusion_lon": 0.0}, {"lat": 38.95404766666667, "is_disabled": 0, "type": "electric_scooter", "lon": -77.036299, "bike_id": "4c3ad82d1ee0e3a94bc0c4d11467b3d3", "fusion_lat": 0.0, "name": "4c3ad82d1ee0e3a94bc0c4d11467b3d3", "is_reserved": 0, "rental_uris": {"android": "https://dc.lft.to/lastmile_qr_scan", "ios": "https://dc.lft.to/lastmile_qr_scan"}, "fusion_lon": 0.0}, {"lat": 38.93415683333333, "is_disabled": 0, "type": "electric_scooter", "lon": -77.05785466666667, "bike_id": "ead008e9cf3871f992374892b036431b", "fusion_lat": 0.0, "name": "ead008e9cf3871f992374892b036431b", "is_reserved": 0, "rental_uris": {"android": "https://dc.lft.to/lastmile_qr_scan", "ios": "https://dc.lft.to/lastmile_qr_scan"}, "fusion_lon": 0.0}, {"lat": 38.905431666666665, "is_disabled": 0, "type": "electric_scooter", "lon": -77.03445533333333, "bike_id": "c8e7fc448363d42ff8415322e56d3bfc", "fusion_lat": 0.0, "name": "c8e7fc448363d42ff8415322e56d3bfc", "is_reserved": 0, "rental_uris": {"android": "https://dc.lft.to/lastmile_qr_scan", "ios": "https://dc.lft.to/lastmile_qr_scan"}, "fusion_lon": 0.0}, {"lat": 38.905458, "is_disabled": 0, "type": "electric_scooter", "lon": -77.03408333333333, "bike_id": "28aa37b578560972a2967735a167ddfb", "fusion_lat": 0.0, "name": "28aa37b578560972a2967735a167ddfb", "is_reserved": 0, "rental_uris": {"android": "https://dc.lft.to/lastmile_qr_scan", "ios": "https://dc.lft.to/lastmile_qr_scan"}, "fusion_lon": 0.0}, {"lat": 38.91992583333333, "is_disabled": 0, "type": "electric_scooter", "lon": -77.03227766666667, "bike_id": "e53e1c734b2901dcf11e9efb903e6761", "fusion_lat": 0.0, "name": "e53e1c734b2901dcf11e9efb903e6761", "is_reserved": 0, "rental_uris": {"android": "https://dc.lft.to/lastmile_qr_scan", "ios": "https://dc.lft.to/lastmile_qr_scan"}, "fusion_lon": 0.0}, {"lat": 38.92204133333333, "is_disabled": 0, "type": "electric_scooter", "lon": -77.04123683333333, "bike_id": "c3dd9b53b16d41565281c26276de676f", "fusion_lat": 0.0, "name": "c3dd9b53b16d41565281c26276de676f", "is_reserved": 0, "rental_uris": {"android": "https://dc.lft.to/lastmile_qr_scan", "ios": "https://dc.lft.to/lastmile_qr_scan"}, "fusion_lon": 0.0}, {"lat": 38.869052, "is_disabled": 0, "type": "electric_bike", "lon": -77.13177883333333, "bike_id": "0c06a8276c03b31aab77ffae5fc13655", "fusion_lat": 0.0, "name": "0c06a8276c03b31aab77ffae5fc13655", "is_reserved": 0, "rental_uris": {"android": "https://dc.lft.to/lastmile_qr_scan", "ios": "https://dc.lft.to/lastmile_qr_scan"}, "fusion_lon": 0.0}, {"lat": 38.910483166666666, "is_disabled": 0, "type": "electric_scooter", "lon": -77.01512316666667, "bike_id": "1fc621b29314335fcaf9a2dc08429e34", "fusion_lat": 0.0, "name": "1fc621b29314335fcaf9a2dc08429e34", "is_reserved": 0, "rental_uris": {"android": "https://dc.lft.to/lastmile_qr_scan", "ios": "https://dc.lft.to/lastmile_qr_scan"}, "fusion_lon": 0.0}, {"lat": 38.902601833333335, "is_disabled": 0, "type": "electric_scooter", "lon": -77.01845166666666, "bike_id": "a7c0e254ed4ab5ff211423e7d43594d9", "fusion_lat": 0.0, "name": "a7c0e254ed4ab5ff211423e7d43594d9", "is_reserved": 0, "rental_uris": {"android": "https://dc.lft.to/lastmile_qr_scan", "ios": "https://dc.lft.to/lastmile_qr_scan"}, "fusion_lon": 0.0}, {"lat": 38.89985183333334, "is_disabled": 0, "type": "electric_scooter", "lon": -76.99492866666667, "bike_id": "87fa02ee3767c100157b00b8e048408b", "fusion_lat": 0.0, "name": "87fa02ee3767c100157b00b8e048408b", "is_reserved": 0, "rental_uris": {"android": "https://dc.lft.to/lastmile_qr_scan", "ios": "https://dc.lft.to/lastmile_qr_scan"}, "fusion_lon": 0.0}, {"lat": 38.89042083333333, "is_disabled": 0, "type": "electric_scooter", "lon": -76.9513865, "bike_id": "8ebe8b17ce9b52c603ce29c2be1aaf3e", "fusion_lat": 0.0, "name": "8ebe8b17ce9b52c603ce29c2be1aaf3e", "is_reserved": 0, "rental_uris": {"android": "https://dc.lft.to/lastmile_qr_scan", "ios": "https://dc.lft.to/lastmile_qr_scan"}, "fusion_lon": 0.0}, {"lat": 38.90174233333333, "is_disabled": 0, "type": "electric_scooter", "lon": -77.02014333333334, "bike_id": "e2c76ab251a208abbc59f8fad3d685be", "fusion_lat": 0.0, "name": "e2c76ab251a208abbc59f8fad3d685be", "is_reserved": 0, "rental_uris": {"android": "https://dc.lft.to/lastmile_qr_scan", "ios": "https://dc.lft.to/lastmile_qr_scan"}, "fusion_lon": 0.0}, {"lat": 38.93289683333333, "is_disabled": 0, "type": "electric_scooter", "lon": -77.03972666666667, "bike_id": "774c2dcbc1a40c7bb30200b03390c6ac", "fusion_lat": 0.0, "name": "774c2dcbc1a40c7bb30200b03390c6ac", "is_reserved": 0, "rental_uris": {"android": "https://dc.lft.to/lastmile_qr_scan", "ios": "https://dc.lft.to/lastmile_qr_scan"}, "fusion_lon": 0.0}, {"lat": 38.8762695, "is_disabled": 0, "type": "electric_scooter", "lon": -76.9653035, "bike_id": "74a137059ad448f41a92767d880515ce", "fusion_lat": 0.0, "name": "74a137059ad448f41a92767d880515ce", "is_reserved": 0, "rental_uris": {"android": "https://dc.lft.to/lastmile_qr_scan", "ios": "https://dc.lft.to/lastmile_qr_scan"}, "fusion_lon": 0.0}, {"lat": 38.92268416666667, "is_disabled": 0, "type": "electric_scooter", "lon": -77.03640516666667, "bike_id": "792c8b9629a42dae7f5c221191b58edd", "fusion_lat": 0.0, "name": "792c8b9629a42dae7f5c221191b58edd", "is_reserved": 0, "rental_uris": {"android": "https://dc.lft.to/lastmile_qr_scan", "ios": "https://dc.lft.to/lastmile_qr_scan"}, "fusion_lon": 0.0}, {"lat": 38.907687333333335, "is_disabled": 0, "type": "electric_scooter", "lon": -77.00401033333333, "bike_id": "1891e66e782463569ec1a16f61d65654", "fusion_lat": 0.0, "name": "1891e66e782463569ec1a16f61d65654", "is_reserved": 0, "rental_uris": {"android": "https://dc.lft.to/lastmile_qr_scan", "ios": "https://dc.lft.to/lastmile_qr_scan"}, "fusion_lon": 0.0}, {"lat": 38.898797333333334, "is_disabled": 0, "type": "electric_scooter", "lon": -77.03322133333333, "bike_id": "6cb22db1a836003d159fad8270c57647", "fusion_lat": 0.0, "name": "6cb22db1a836003d159fad8270c57647", "is_reserved": 0, "rental_uris": {"android": "https://dc.lft.to/lastmile_qr_scan", "ios": "https://dc.lft.to/lastmile_qr_scan"}, "fusion_lon": 0.0}, {"lat": 38.893246, "is_disabled": 0, "type": "electric_scooter", "lon": -76.92993566666667, "bike_id": "2a5ad114c297e1193f5d4777ddcdae57", "fusion_lat": 0.0, "name": "2a5ad114c297e1193f5d4777ddcdae57", "is_reserved": 0, "rental_uris": {"android": "https://dc.lft.to/lastmile_qr_scan", "ios": "https://dc.lft.to/lastmile_qr_scan"}, "fusion_lon": 0.0}, {"lat": 38.8974725, "is_disabled": 0, "type": "electric_scooter", "lon": -77.026381, "bike_id": "aa5a4e5096300d28f8f643da1e65f356", "fusion_lat": 0.0, "name": "aa5a4e5096300d28f8f643da1e65f356", "is_reserved": 0, "rental_uris": {"android": "https://dc.lft.to/lastmile_qr_scan", "ios": "https://dc.lft.to/lastmile_qr_scan"}, "fusion_lon": 0.0}, {"lat": 38.91708416666667, "is_disabled": 0, "type": "electric_scooter", "lon": -77.03497333333334, "bike_id": "61acd056beb0a7c426e831e8b0338983", "fusion_lat": 0.0, "name": "61acd056beb0a7c426e831e8b0338983", "is_reserved": 0, "rental_uris": {"android": "https://dc.lft.to/lastmile_qr_scan", "ios": "https://dc.lft.to/lastmile_qr_scan"}, "fusion_lon": 0.0}, {"lat": 38.898522166666666, "is_disabled": 0, "type": "electric_scooter", "lon": -77.04345516666666, "bike_id": "3504b10d5feddec4c173a941584926ad", "fusion_lat": 0.0, "name": "3504b10d5feddec4c173a941584926ad", "is_reserved": 0, "rental_uris": {"android": "https://dc.lft.to/lastmile_qr_scan", "ios": "https://dc.lft.to/lastmile_qr_scan"}, "fusion_lon": 0.0}, {"lat": 38.938590166666664, "is_disabled": 0, "type": "electric_scooter", "lon": -77.02656933333333, "bike_id": "b21824dd19d0f815eb20af4bdcb5f85d", "fusion_lat": 0.0, "name": "b21824dd19d0f815eb20af4bdcb5f85d", "is_reserved": 0, "rental_uris": {"android": "https://dc.lft.to/lastmile_qr_scan", "ios": "https://dc.lft.to/lastmile_qr_scan"}, "fusion_lon": 0.0}, {"lat": 38.896237666666664, "is_disabled": 0, "type": "electric_scooter", "lon": -76.99853666666667, "bike_id": "61ea8f97020d2cb6cb9d08f2704e0125", "fusion_lat": 0.0, "name": "61ea8f97020d2cb6cb9d08f2704e0125", "is_reserved": 0, "rental_uris": {"android": "https://dc.lft.to/lastmile_qr_scan", "ios": "https://dc.lft.to/lastmile_qr_scan"}, "fusion_lon": 0.0}, {"lat": 39.034045, "is_disabled": 0, "type": "electric_bike", "lon": -77.042154, "bike_id": "4857800b4bb3ba9e0a00cbf75622ea47", "fusion_lat": 0.0, "name": "4857800b4bb3ba9e0a00cbf75622ea47", "is_reserved": 0, "rental_uris": {"android": "https://dc.lft.to/lastmile_qr_scan", "ios": "https://dc.lft.to/lastmile_qr_scan"}, "fusion_lon": 0.0}, {"lat": 38.91699283333333, "is_disabled": 0, "type": "electric_scooter", "lon": -77.03315416666666, "bike_id": "455d41fa88507101038840a44427a67a", "fusion_lat": 0.0, "name": "455d41fa88507101038840a44427a67a", "is_reserved": 0, "rental_uris": {"android": "https://dc.lft.to/lastmile_qr_scan", "ios": "https://dc.lft.to/lastmile_qr_scan"}, "fusion_lon": 0.0}, {"lat": 38.906913833333334, "is_disabled": 0, "type": "electric_scooter", "lon": -77.0376535, "bike_id": "322ce67dda5c1f49bc7aef8a3e45a79f", "fusion_lat": 0.0, "name": "322ce67dda5c1f49bc7aef8a3e45a79f", "is_reserved": 0, "rental_uris": {"android": "https://dc.lft.to/lastmile_qr_scan", "ios": "https://dc.lft.to/lastmile_qr_scan"}, "fusion_lon": 0.0}, {"lat": 38.9247955, "is_disabled": 0, "type": "electric_scooter", "lon": -77.028419, "bike_id": "988703e06089f30f49a2d95981d99cd8", "fusion_lat": 0.0, "name": "988703e06089f30f49a2d95981d99cd8", "is_reserved": 0, "rental_uris": {"android": "https://dc.lft.to/lastmile_qr_scan", "ios": "https://dc.lft.to/lastmile_qr_scan"}, "fusion_lon": 0.0}, {"lat": 38.8981545, "is_disabled": 0, "type": "electric_scooter", "lon": -76.99698133333334, "bike_id": "d6433973bc0e82801ba5c306909cdaaa", "fusion_lat": 0.0, "name": "d6433973bc0e82801ba5c306909cdaaa", "is_reserved": 0, "rental_uris": {"android": "https://dc.lft.to/lastmile_qr_scan", "ios": "https://dc.lft.to/lastmile_qr_scan"}, "fusion_lon": 0.0}, {"lat": 38.917485, "is_disabled": 0, "type": "electric_scooter", "lon": -77.03189366666666, "bike_id": "7a5769b2e040bb52b5c306e1679d94ae", "fusion_lat": 0.0, "name": "7a5769b2e040bb52b5c306e1679d94ae", "is_reserved": 0, "rental_uris": {"android": "https://dc.lft.to/lastmile_qr_scan", "ios": "https://dc.lft.to/lastmile_qr_scan"}, "fusion_lon": 0.0}, {"lat": 38.885788, "is_disabled": 0, "type": "electric_scooter", "lon": -76.9191065, "bike_id": "b481913ac457e60cec277a52631b20c5", "fusion_lat": 0.0, "name": "b481913ac457e60cec277a52631b20c5", "is_reserved": 0, "rental_uris": {"android": "https://dc.lft.to/lastmile_qr_scan", "ios": "https://dc.lft.to/lastmile_qr_scan"}, "fusion_lon": 0.0}, {"lat": 38.8622955, "is_disabled": 0, "type": "electric_scooter", "lon": -76.99549383333333, "bike_id": "6ed10eeb84485125be92a78253e3431d", "fusion_lat": 0.0, "name": "6ed10eeb84485125be92a78253e3431d", "is_reserved": 0, "rental_uris": {"android": "https://dc.lft.to/lastmile_qr_scan", "ios": "https://dc.lft.to/lastmile_qr_scan"}, "fusion_lon": 0.0}, {"lat": 38.9136975, "is_disabled": 0, "type": "electric_scooter", "lon": -77.0270045, "bike_id": "a45055653a2c661d673cda4d419b1af3", "fusion_lat": 0.0, "name": "a45055653a2c661d673cda4d419b1af3", "is_reserved": 0, "rental_uris": {"android": "https://dc.lft.to/lastmile_qr_scan", "ios": "https://dc.lft.to/lastmile_qr_scan"}, "fusion_lon": 0.0}, {"lat": 38.927586, "is_disabled": 0, "type": "electric_scooter", "lon": -77.03219183333333, "bike_id": "34931515f388a44b69800e069f0d14c5", "fusion_lat": 0.0, "name": "34931515f388a44b69800e069f0d14c5", "is_reserved": 0, "rental_uris": {"android": "https://dc.lft.to/lastmile_qr_scan", "ios": "https://dc.lft.to/lastmile_qr_scan"}, "fusion_lon": 0.0}, {"lat": 38.886395, "is_disabled": 0, "type": "electric_bike", "lon": -76.95474083333333, "bike_id": "18d6bff67267fa9cc938429145cb5674", "fusion_lat": 0.0, "name": "18d6bff67267fa9cc938429145cb5674", "is_reserved": 0, "rental_uris": {"android": "https://dc.lft.to/lastmile_qr_scan", "ios": "https://dc.lft.to/lastmile_qr_scan"}, "fusion_lon": 0.0}, {"lat": 38.96153833333334, "is_disabled": 0, "type": "electric_scooter", "lon": -77.0279165, "bike_id": "241f5c1a4c72ee2f702d7aab021e464f", "fusion_lat": 0.0, "name": "241f5c1a4c72ee2f702d7aab021e464f", "is_reserved": 0, "rental_uris": {"android": "https://dc.lft.to/lastmile_qr_scan", "ios": "https://dc.lft.to/lastmile_qr_scan"}, "fusion_lon": 0.0}, {"lat": 38.9171525, "is_disabled": 0, "type": "electric_scooter", "lon": -77.02717716666666, "bike_id": "7b994bd7dde9e09f70075dd337f6f341", "fusion_lat": 0.0, "name": "7b994bd7dde9e09f70075dd337f6f341", "is_reserved": 0, "rental_uris": {"android": "https://dc.lft.to/lastmile_qr_scan", "ios": "https://dc.lft.to/lastmile_qr_scan"}, "fusion_lon": 0.0}, {"lat": 39.05632633333333, "is_disabled": 0, "type": "electric_bike", "lon": -77.1252905, "bike_id": "a30235a5ff93e00f7c467c0b815e7b81", "fusion_lat": 0.0, "name": "a30235a5ff93e00f7c467c0b815e7b81", "is_reserved": 0, "rental_uris": {"android": "https://dc.lft.to/lastmile_qr_scan", "ios": "https://dc.lft.to/lastmile_qr_scan"}, "fusion_lon": 0.0}, {"lat": 38.908955166666665, "is_disabled": 0, "type": "electric_scooter", "lon": -77.0429745, "bike_id": "b51695b0ae4367aa285a866c7858abd1", "fusion_lat": 0.0, "name": "b51695b0ae4367aa285a866c7858abd1", "is_reserved": 0, "rental_uris": {"android": "https://dc.lft.to/lastmile_qr_scan", "ios": "https://dc.lft.to/lastmile_qr_scan"}, "fusion_lon": 0.0}, {"lat": 38.917031, "is_disabled": 0, "type": "electric_scooter", "lon": -77.0470305, "bike_id": "b1df2452b12c5c25aad60f850a0990b5", "fusion_lat": 0.0, "name": "b1df2452b12c5c25aad60f850a0990b5", "is_reserved": 0, "rental_uris": {"android": "https://dc.lft.to/lastmile_qr_scan", "ios": "https://dc.lft.to/lastmile_qr_scan"}, "fusion_lon": 0.0}, {"lat": 38.928554, "is_disabled": 0, "type": "electric_scooter", "lon": -77.03292116666667, "bike_id": "60f1f54a7ca6735903e91582810233d8", "fusion_lat": 0.0, "name": "60f1f54a7ca6735903e91582810233d8", "is_reserved": 0, "rental_uris": {"android": "https://dc.lft.to/lastmile_qr_scan", "ios": "https://dc.lft.to/lastmile_qr_scan"}, "fusion_lon": 0.0}, {"lat": 38.93570416666667, "is_disabled": 0, "type": "electric_scooter", "lon": -77.03264583333333, "bike_id": "e1be6cbd75c9f93a7bc5fc24b9e804b6", "fusion_lat": 0.0, "name": "e1be6cbd75c9f93a7bc5fc24b9e804b6", "is_reserved": 0, "rental_uris": {"android": "https://dc.lft.to/lastmile_qr_scan", "ios": "https://dc.lft.to/lastmile_qr_scan"}, "fusion_lon": 0.0}, {"lat": 38.862688166666665, "is_disabled": 0, "type": "electric_scooter", "lon": -76.992467, "bike_id": "50788fdf915060634640ab68310724da", "fusion_lat": 0.0, "name": "50788fdf915060634640ab68310724da", "is_reserved": 0, "rental_uris": {"android": "https://dc.lft.to/lastmile_qr_scan", "ios": "https://dc.lft.to/lastmile_qr_scan"}, "fusion_lon": 0.0}, {"lat": 38.937074, "is_disabled": 0, "type": "electric_scooter", "lon": -77.02399233333334, "bike_id": "e393ffbecc2d0f68dff5dbf7cb5828f9", "fusion_lat": 0.0, "name": "e393ffbecc2d0f68dff5dbf7cb5828f9", "is_reserved": 0, "rental_uris": {"android": "https://dc.lft.to/lastmile_qr_scan", "ios": "https://dc.lft.to/lastmile_qr_scan"}, "fusion_lon": 0.0}, {"lat": 38.9048695, "is_disabled": 0, "type": "electric_scooter", "lon": -77.05734833333334, "bike_id": "0a5879137062cce8831a488095e70af7", "fusion_lat": 0.0, "name": "0a5879137062cce8831a488095e70af7", "is_reserved": 0, "rental_uris": {"android": "https://dc.lft.to/lastmile_qr_scan", "ios": "https://dc.lft.to/lastmile_qr_scan"}, "fusion_lon": 0.0}, {"lat": 38.920502, "is_disabled": 0, "type": "electric_bike", "lon": -77.003439, "bike_id": "68b47e09f599e71a1ea5a6e3e0b35539", "fusion_lat": 0.0, "name": "68b47e09f599e71a1ea5a6e3e0b35539", "is_reserved": 0, "rental_uris": {"android": "https://dc.lft.to/lastmile_qr_scan", "ios": "https://dc.lft.to/lastmile_qr_scan"}, "fusion_lon": 0.0}, {"lat": 38.92172683333333, "is_disabled": 0, "type": "electric_scooter", "lon": -77.04235583333333, "bike_id": "f7279c138437b664af44b1d4a3eecc3d", "fusion_lat": 0.0, "name": "f7279c138437b664af44b1d4a3eecc3d", "is_reserved": 0, "rental_uris": {"android": "https://dc.lft.to/lastmile_qr_scan", "ios": "https://dc.lft.to/lastmile_qr_scan"}, "fusion_lon": 0.0}, {"lat": 38.896056333333334, "is_disabled": 0, "type": "electric_scooter", "lon": -77.00928016666667, "bike_id": "6308496475b357ea7201e71a0c836ff0", "fusion_lat": 0.0, "name": "6308496475b357ea7201e71a0c836ff0", "is_reserved": 0, "rental_uris": {"android": "https://dc.lft.to/lastmile_qr_scan", "ios": "https://dc.lft.to/lastmile_qr_scan"}, "fusion_lon": 0.0}, {"lat": 38.902561, "is_disabled": 0, "type": "electric_scooter", "lon": -77.01918483333333, "bike_id": "7d786a60861491c842650249d424b7d9", "fusion_lat": 0.0, "name": "7d786a60861491c842650249d424b7d9", "is_reserved": 0, "rental_uris": {"android": "https://dc.lft.to/lastmile_qr_scan", "ios": "https://dc.lft.to/lastmile_qr_scan"}, "fusion_lon": 0.0}, {"lat": 38.906505, "is_disabled": 0, "type": "electric_scooter", "lon": -77.0420225, "bike_id": "8b338676462afa3246a8abff0c766a3e", "fusion_lat": 0.0, "name": "8b338676462afa3246a8abff0c766a3e", "is_reserved": 0, "rental_uris": {"android": "https://dc.lft.to/lastmile_qr_scan", "ios": "https://dc.lft.to/lastmile_qr_scan"}, "fusion_lon": 0.0}, {"lat": 38.902559833333335, "is_disabled": 0, "type": "electric_scooter", "lon": -77.039591, "bike_id": "7ba52d73b3b80527f7c266686492101d", "fusion_lat": 0.0, "name": "7ba52d73b3b80527f7c266686492101d", "is_reserved": 0, "rental_uris": {"android": "https://dc.lft.to/lastmile_qr_scan", "ios": "https://dc.lft.to/lastmile_qr_scan"}, "fusion_lon": 0.0}, {"lat": 38.90588483333333, "is_disabled": 0, "type": "electric_scooter", "lon": -76.98623216666667, "bike_id": "a2b587eab7afc43cee8dc0a5651aee70", "fusion_lat": 0.0, "name": "a2b587eab7afc43cee8dc0a5651aee70", "is_reserved": 0, "rental_uris": {"android": "https://dc.lft.to/lastmile_qr_scan", "ios": "https://dc.lft.to/lastmile_qr_scan"}, "fusion_lon": 0.0}, {"lat": 38.92123566666667, "is_disabled": 0, "type": "electric_scooter", "lon": -77.04577416666666, "bike_id": "7a89d61f11cc4675f8a0ec3ff98d3347", "fusion_lat": 0.0, "name": "7a89d61f11cc4675f8a0ec3ff98d3347", "is_reserved": 0, "rental_uris": {"android": "https://dc.lft.to/lastmile_qr_scan", "ios": "https://dc.lft.to/lastmile_qr_scan"}, "fusion_lon": 0.0}, {"lat": 38.904833833333335, "is_disabled": 0, "type": "electric_scooter", "lon": -77.0415815, "bike_id": "04f66541e5fa91763c78176dce16031e", "fusion_lat": 0.0, "name": "04f66541e5fa91763c78176dce16031e", "is_reserved": 0, "rental_uris": {"android": "https://dc.lft.to/lastmile_qr_scan", "ios": "https://dc.lft.to/lastmile_qr_scan"}, "fusion_lon": 0.0}, {"lat": 38.939122166666664, "is_disabled": 0, "type": "electric_scooter", "lon": -77.06672566666667, "bike_id": "763193e4c1a5c345af9fead982153755", "fusion_lat": 0.0, "name": "763193e4c1a5c345af9fead982153755", "is_reserved": 0, "rental_uris": {"android": "https://dc.lft.to/lastmile_qr_scan", "ios": "https://dc.lft.to/lastmile_qr_scan"}, "fusion_lon": 0.0}, {"lat": 38.91748, "is_disabled": 0, "type": "electric_scooter", "lon": -77.03190733333334, "bike_id": "e85f7015a9e84d6f012d111843bf4d4f", "fusion_lat": 0.0, "name": "e85f7015a9e84d6f012d111843bf4d4f", "is_reserved": 0, "rental_uris": {"android": "https://dc.lft.to/lastmile_qr_scan", "ios": "https://dc.lft.to/lastmile_qr_scan"}, "fusion_lon": 0.0}, {"lat": 38.908625, "is_disabled": 0, "type": "electric_bike", "lon": -76.94008466666666, "bike_id": "e3481cf5808364ea35358be883a553d8", "fusion_lat": 0.0, "name": "e3481cf5808364ea35358be883a553d8", "is_reserved": 0, "rental_uris": {"android": "https://dc.lft.to/lastmile_qr_scan", "ios": "https://dc.lft.to/lastmile_qr_scan"}, "fusion_lon": 0.0}, {"lat": 38.925745666666664, "is_disabled": 0, "type": "electric_scooter", "lon": -77.05284916666666, "bike_id": "435c8aefb7f363148cbc160e6135c83c", "fusion_lat": 0.0, "name": "435c8aefb7f363148cbc160e6135c83c", "is_reserved": 0, "rental_uris": {"android": "https://dc.lft.to/lastmile_qr_scan", "ios": "https://dc.lft.to/lastmile_qr_scan"}, "fusion_lon": 0.0}, {"lat": 38.92258566666667, "is_disabled": 0, "type": "electric_scooter", "lon": -77.07037883333334, "bike_id": "1495470f4cec23b11430bcf4426bf6ec", "fusion_lat": 0.0, "name": "1495470f4cec23b11430bcf4426bf6ec", "is_reserved": 0, "rental_uris": {"android": "https://dc.lft.to/lastmile_qr_scan", "ios": "https://dc.lft.to/lastmile_qr_scan"}, "fusion_lon": 0.0}, {"lat": 38.8670605, "is_disabled": 0, "type": "electric_scooter", "lon": -76.98729933333334, "bike_id": "04eeac08803edf8bad7082cec41395c3", "fusion_lat": 0.0, "name": "04eeac08803edf8bad7082cec41395c3", "is_reserved": 0, "rental_uris": {"android": "https://dc.lft.to/lastmile_qr_scan", "ios": "https://dc.lft.to/lastmile_qr_scan"}, "fusion_lon": 0.0}, {"lat": 38.899835833333334, "is_disabled": 0, "type": "electric_scooter", "lon": -77.02204016666667, "bike_id": "f42716e98bfcf7b867b8c505be8b0b8a", "fusion_lat": 0.0, "name": "f42716e98bfcf7b867b8c505be8b0b8a", "is_reserved": 0, "rental_uris": {"android": "https://dc.lft.to/lastmile_qr_scan", "ios": "https://dc.lft.to/lastmile_qr_scan"}, "fusion_lon": 0.0}, {"lat": 38.96133316666667, "is_disabled": 0, "type": "electric_scooter", "lon": -77.02235433333334, "bike_id": "6ed539c85426c6c2a7541e1a4f277f3f", "fusion_lat": 0.0, "name": "6ed539c85426c6c2a7541e1a4f277f3f", "is_reserved": 0, "rental_uris": {"android": "https://dc.lft.to/lastmile_qr_scan", "ios": "https://dc.lft.to/lastmile_qr_scan"}, "fusion_lon": 0.0}, {"lat": 38.87145666666667, "is_disabled": 0, "type": "electric_bike", "lon": -76.93704616666666, "bike_id": "3bd8d13a58e830f4a54aedee9fcccf51", "fusion_lat": 0.0, "name": "3bd8d13a58e830f4a54aedee9fcccf51", "is_reserved": 0, "rental_uris": {"android": "https://dc.lft.to/lastmile_qr_scan", "ios": "https://dc.lft.to/lastmile_qr_scan"}, "fusion_lon": 0.0}, {"lat": 38.854486, "is_disabled": 0, "type": "electric_scooter", "lon": -76.98583283333333, "bike_id": "9c382446a5d0ecd5f0834a740e538ca3", "fusion_lat": 0.0, "name": "9c382446a5d0ecd5f0834a740e538ca3", "is_reserved": 0, "rental_uris": {"android": "https://dc.lft.to/lastmile_qr_scan", "ios": "https://dc.lft.to/lastmile_qr_scan"}, "fusion_lon": 0.0}, {"lat": 38.918192833333336, "is_disabled": 0, "type": "electric_scooter", "lon": -77.012098, "bike_id": "c3177aaff70dd783c7e9be2c17ba3eee", "fusion_lat": 0.0, "name": "c3177aaff70dd783c7e9be2c17ba3eee", "is_reserved": 0, "rental_uris": {"android": "https://dc.lft.to/lastmile_qr_scan", "ios": "https://dc.lft.to/lastmile_qr_scan"}, "fusion_lon": 0.0}, {"lat": 38.922491, "is_disabled": 0, "type": "electric_scooter", "lon": -77.02727, "bike_id": "dbe1a2ea7c4c8c31304d45c60f49b09b", "fusion_lat": 0.0, "name": "dbe1a2ea7c4c8c31304d45c60f49b09b", "is_reserved": 0, "rental_uris": {"android": "https://dc.lft.to/lastmile_qr_scan", "ios": "https://dc.lft.to/lastmile_qr_scan"}, "fusion_lon": 0.0}, {"lat": 38.92974316666667, "is_disabled": 0, "type": "electric_scooter", "lon": -77.01303116666666, "bike_id": "e99c4ee7cea1d204d2426d04a160e538", "fusion_lat": 0.0, "name": "e99c4ee7cea1d204d2426d04a160e538", "is_reserved": 0, "rental_uris": {"android": "https://dc.lft.to/lastmile_qr_scan", "ios": "https://dc.lft.to/lastmile_qr_scan"}, "fusion_lon": 0.0}, {"lat": 38.892218166666666, "is_disabled": 0, "type": "electric_scooter", "lon": -77.048664, "bike_id": "e11bd86962d15c1d7ccaf63637682570", "fusion_lat": 0.0, "name": "e11bd86962d15c1d7ccaf63637682570", "is_reserved": 0, "rental_uris": {"android": "https://dc.lft.to/lastmile_qr_scan", "ios": "https://dc.lft.to/lastmile_qr_scan"}, "fusion_lon": 0.0}, {"lat": 38.864453166666664, "is_disabled": 0, "type": "electric_bike", "lon": -76.9454765, "bike_id": "277aab63dc396f144baa1cb79f32bea1", "fusion_lat": 0.0, "name": "277aab63dc396f144baa1cb79f32bea1", "is_reserved": 0, "rental_uris": {"android": "https://dc.lft.to/lastmile_qr_scan", "ios": "https://dc.lft.to/lastmile_qr_scan"}, "fusion_lon": 0.0}, {"lat": 38.900167, "is_disabled": 0, "type": "electric_scooter", "lon": -77.0200485, "bike_id": "3aa664e3ca8694bb9b8d41b798d8a852", "fusion_lat": 0.0, "name": "3aa664e3ca8694bb9b8d41b798d8a852", "is_reserved": 0, "rental_uris": {"android": "https://dc.lft.to/lastmile_qr_scan", "ios": "https://dc.lft.to/lastmile_qr_scan"}, "fusion_lon": 0.0}, {"lat": 38.895495333333336, "is_disabled": 0, "type": "electric_scooter", "lon": -77.05007366666666, "bike_id": "a206bdf48bb42d10f31155ad65e4d8a9", "fusion_lat": 0.0, "name": "a206bdf48bb42d10f31155ad65e4d8a9", "is_reserved": 0, "rental_uris": {"android": "https://dc.lft.to/lastmile_qr_scan", "ios": "https://dc.lft.to/lastmile_qr_scan"}, "fusion_lon": 0.0}, {"lat": 38.9070825, "is_disabled": 0, "type": "electric_scooter", "lon": -77.0181495, "bike_id": "546ac0bd6ce6fe5dc126bf66ebbc8b6d", "fusion_lat": 0.0, "name": "546ac0bd6ce6fe5dc126bf66ebbc8b6d", "is_reserved": 0, "rental_uris": {"android": "https://dc.lft.to/lastmile_qr_scan", "ios": "https://dc.lft.to/lastmile_qr_scan"}, "fusion_lon": 0.0}, {"lat": 38.900288333333336, "is_disabled": 0, "type": "electric_scooter", "lon": -76.99598066666667, "bike_id": "488d47ab5f81506a623fc2d990f8f058", "fusion_lat": 0.0, "name": "488d47ab5f81506a623fc2d990f8f058", "is_reserved": 0, "rental_uris": {"android": "https://dc.lft.to/lastmile_qr_scan", "ios": "https://dc.lft.to/lastmile_qr_scan"}, "fusion_lon": 0.0}, {"lat": 38.909302, "is_disabled": 0, "type": "electric_scooter", "lon": -77.0617235, "bike_id": "702ee18d0d3ff7fc7d995eddcc78eade", "fusion_lat": 0.0, "name": "702ee18d0d3ff7fc7d995eddcc78eade", "is_reserved": 0, "rental_uris": {"android": "https://dc.lft.to/lastmile_qr_scan", "ios": "https://dc.lft.to/lastmile_qr_scan"}, "fusion_lon": 0.0}, {"lat": 38.92248416666666, "is_disabled": 0, "type": "electric_scooter", "lon": -77.02713083333333, "bike_id": "7c2115a63038e89beee445e26d5ea4ad", "fusion_lat": 0.0, "name": "7c2115a63038e89beee445e26d5ea4ad", "is_reserved": 0, "rental_uris": {"android": "https://dc.lft.to/lastmile_qr_scan", "ios": "https://dc.lft.to/lastmile_qr_scan"}, "fusion_lon": 0.0}, {"lat": 38.93081183333334, "is_disabled": 0, "type": "electric_scooter", "lon": -77.02796733333334, "bike_id": "ca94e6ef44b7b0c3c52667a3edf672b3", "fusion_lat": 0.0, "name": "ca94e6ef44b7b0c3c52667a3edf672b3", "is_reserved": 0, "rental_uris": {"android": "https://dc.lft.to/lastmile_qr_scan", "ios": "https://dc.lft.to/lastmile_qr_scan"}, "fusion_lon": 0.0}, {"lat": 38.92289683333333, "is_disabled": 0, "type": "electric_scooter", "lon": -77.0320135, "bike_id": "4f718d0508509805524c179ac0bba8ab", "fusion_lat": 0.0, "name": "4f718d0508509805524c179ac0bba8ab", "is_reserved": 0, "rental_uris": {"android": "https://dc.lft.to/lastmile_qr_scan", "ios": "https://dc.lft.to/lastmile_qr_scan"}, "fusion_lon": 0.0}, {"lat": 38.892823166666666, "is_disabled": 0, "type": "electric_scooter", "lon": -76.958515, "bike_id": "76025c59bc04dc8f24afdeee73441236", "fusion_lat": 0.0, "name": "76025c59bc04dc8f24afdeee73441236", "is_reserved": 0, "rental_uris": {"android": "https://dc.lft.to/lastmile_qr_scan", "ios": "https://dc.lft.to/lastmile_qr_scan"}, "fusion_lon": 0.0}, {"lat": 38.923830833333334, "is_disabled": 0, "type": "electric_scooter", "lon": -77.02762583333333, "bike_id": "c5edc0ae37ea81077adda1c7acdcc3d9", "fusion_lat": 0.0, "name": "c5edc0ae37ea81077adda1c7acdcc3d9", "is_reserved": 0, "rental_uris": {"android": "https://dc.lft.to/lastmile_qr_scan", "ios": "https://dc.lft.to/lastmile_qr_scan"}, "fusion_lon": 0.0}, {"lat": 38.9211255, "is_disabled": 0, "type": "electric_scooter", "lon": -77.04214066666667, "bike_id": "b1a059e1967a78b57e1c46b96d2f875a", "fusion_lat": 0.0, "name": "b1a059e1967a78b57e1c46b96d2f875a", "is_reserved": 0, "rental_uris": {"android": "https://dc.lft.to/lastmile_qr_scan", "ios": "https://dc.lft.to/lastmile_qr_scan"}, "fusion_lon": 0.0}, {"lat": 38.89359283333334, "is_disabled": 0, "type": "electric_scooter", "lon": -76.99112933333333, "bike_id": "4631abe18ff72b918bc54aaadb6aef7e", "fusion_lat": 0.0, "name": "4631abe18ff72b918bc54aaadb6aef7e", "is_reserved": 0, "rental_uris": {"android": "https://dc.lft.to/lastmile_qr_scan", "ios": "https://dc.lft.to/lastmile_qr_scan"}, "fusion_lon": 0.0}, {"lat": 38.9260015, "is_disabled": 0, "type": "electric_scooter", "lon": -77.056977, "bike_id": "639d38ba2c4913cd622c19009bc2b35b", "fusion_lat": 0.0, "name": "639d38ba2c4913cd622c19009bc2b35b", "is_reserved": 0, "rental_uris": {"android": "https://dc.lft.to/lastmile_qr_scan", "ios": "https://dc.lft.to/lastmile_qr_scan"}, "fusion_lon": 0.0}, {"lat": 38.844286333333336, "is_disabled": 0, "type": "electric_scooter", "lon": -76.998164, "bike_id": "4df424b029b6c9791e8bfb0ac9586821", "fusion_lat": 0.0, "name": "4df424b029b6c9791e8bfb0ac9586821", "is_reserved": 0, "rental_uris": {"android": "https://dc.lft.to/lastmile_qr_scan", "ios": "https://dc.lft.to/lastmile_qr_scan"}, "fusion_lon": 0.0}, {"lat": 38.907745166666665, "is_disabled": 0, "type": "electric_scooter", "lon": -77.0385435, "bike_id": "c0a9293ce974805021b58b3197bbf9c7", "fusion_lat": 0.0, "name": "c0a9293ce974805021b58b3197bbf9c7", "is_reserved": 0, "rental_uris": {"android": "https://dc.lft.to/lastmile_qr_scan", "ios": "https://dc.lft.to/lastmile_qr_scan"}, "fusion_lon": 0.0}, {"lat": 38.915526, "is_disabled": 0, "type": "electric_scooter", "lon": -77.00981, "bike_id": "d2355a23aaa51784bc5229ba2b1671a2", "fusion_lat": 0.0, "name": "d2355a23aaa51784bc5229ba2b1671a2", "is_reserved": 0, "rental_uris": {"android": "https://dc.lft.to/lastmile_qr_scan", "ios": "https://dc.lft.to/lastmile_qr_scan"}, "fusion_lon": 0.0}, {"lat": 38.854237499999996, "is_disabled": 0, "type": "electric_bike", "lon": -76.9096915, "bike_id": "eca7072d2d86f5192233485ef249e024", "fusion_lat": 0.0, "name": "eca7072d2d86f5192233485ef249e024", "is_reserved": 0, "rental_uris": {"android": "https://dc.lft.to/lastmile_qr_scan", "ios": "https://dc.lft.to/lastmile_qr_scan"}, "fusion_lon": 0.0}, {"lat": 38.90949233333333, "is_disabled": 0, "type": "electric_scooter", "lon": -77.03381466666667, "bike_id": "17b441bb59d63ecbe7489694ff76f1af", "fusion_lat": 0.0, "name": "17b441bb59d63ecbe7489694ff76f1af", "is_reserved": 0, "rental_uris": {"android": "https://dc.lft.to/lastmile_qr_scan", "ios": "https://dc.lft.to/lastmile_qr_scan"}, "fusion_lon": 0.0}, {"lat": 38.91979583333333, "is_disabled": 0, "type": "electric_scooter", "lon": -77.0238005, "bike_id": "570bd32986f831313ca94babfc8f4655", "fusion_lat": 0.0, "name": "570bd32986f831313ca94babfc8f4655", "is_reserved": 0, "rental_uris": {"android": "https://dc.lft.to/lastmile_qr_scan", "ios": "https://dc.lft.to/lastmile_qr_scan"}, "fusion_lon": 0.0}, {"lat": 38.81046633333333, "is_disabled": 0, "type": "electric_bike", "lon": -77.08510933333334, "bike_id": "24d2dd255ae312cb72c85aa0fbeff1e9", "fusion_lat": 0.0, "name": "24d2dd255ae312cb72c85aa0fbeff1e9", "is_reserved": 0, "rental_uris": {"android": "https://dc.lft.to/lastmile_qr_scan", "ios": "https://dc.lft.to/lastmile_qr_scan"}, "fusion_lon": 0.0}, {"lat": 38.90492366666667, "is_disabled": 0, "type": "electric_scooter", "lon": -76.995419, "bike_id": "d61814adebd4fcf6d632de3780469a9c", "fusion_lat": 0.0, "name": "d61814adebd4fcf6d632de3780469a9c", "is_reserved": 0, "rental_uris": {"android": "https://dc.lft.to/lastmile_qr_scan", "ios": "https://dc.lft.to/lastmile_qr_scan"}, "fusion_lon": 0.0},