{"data": {"bikes": [{"name": "68aed2b4f5d93a83480f517255ffd09c", "fusion_lon": 0.0, "lat": 38.919546833333335, "is_reserved": 0, "type": "electric_scooter", "bike_id": "68aed2b4f5d93a83480f517255ffd09c", "is_disabled": 0, "rental_uris": {"android": "https://dc.lft.to/lastmile_qr_scan", "ios": "https://dc.lft.to/lastmile_qr_scan"}, "lon": -77.0348475, "fusion_lat": 0.0}, {"name": "cf387733ec5fbe1a3c86f06b1ff7af6f", "fusion_lon": 0.0, "lat": 38.941879, "is_reserved": 0, "type": "electric_scooter", "bike_id": "cf387733ec5fbe1a3c86f06b1ff7af6f", "is_disabled": 0, "rental_uris": {"android": "https://dc.lft.to/lastmile_qr_scan", "ios": "https://dc.lft.to/lastmile_qr_scan"}, "lon": -77.024904, "fusion_lat": 0.0}, {"name": "309ed552cb5eb11747924ded98c10c20", "fusion_lon": 0.0, "lat": 38.91691183333333, "is_reserved": 0, "type": "electric_scooter", "bike_id": "309ed552cb5eb11747924ded98c10c20", "is_disabled": 0, "rental_uris": {"android": "https://dc.lft.to/lastmile_qr_scan", "ios": "https://dc.lft.to/lastmile_qr_scan"}, "lon": -77.02514866666667, "fusion_lat": 0.0}, {"name": "e5427ea1b2344ac1d71dae18775948ea", "fusion_lon": 0.0, "lat": 38.94622433333333, "is_reserved": 0, "type": "electric_scooter", "bike_id": "e5427ea1b2344ac1d71dae18775948ea", "is_disabled": 0, "rental_uris": {"android": "https://dc.lft.to/lastmile_qr_scan", "ios": "https://dc.lft.to/lastmile_qr_scan"}, "lon": -77.021691, "fusion_lat": 0.0}, {"name": "a801cf55bfd64e8b9ddd9686bf373c83", "fusion_lon": 0.0, "lat": 38.92179933333333, "is_reserved": 0, "type": "electric_scooter", "bike_id": "a801cf55bfd64e8b9ddd9686bf373c83", "is_disabled": 0, "rental_uris": {"android": "https://dc.lft.to/lastmile_qr_scan", "ios": "https://dc.lft.to/lastmile_qr_scan"}, "lon": -77.04252533333333, "fusion_lat": 0.0}, {"name": "65cebd52f170704c19ff3e868e9e24ee", "fusion_lon": 0.0, "lat": 38.99351216666667, "is_reserved": 0, "type": "electric_bike", "bike_id": "65cebd52f170704c19ff3e868e9e24ee", "is_disabled": 0, "rental_uris": {"android": "https://dc.lft.to/lastmile_qr_scan", "ios": "https://dc.lft.to/lastmile_qr_scan"}, "lon": -77.11575216666667, "fusion_lat": 0.0}, {"name": "2c85f32a6366568b7d527124015e61c5", "fusion_lon": 0.0, "lat": 38.80762166666667, "is_reserved": 0, "type": "electric_bike", "bike_id": "2c85f32a6366568b7d527124015e61c5", "is_disabled": 0, "rental_uris": {"android": "https://dc.lft.to/lastmile_qr_scan", "ios": "https://dc.lft.to/lastmile_qr_scan"}, "lon": -77.09467116666667, "fusion_lat": 0.0}, {"name": "74ad51d9edb84a7c8e9673159db91c00", "fusion_lon": 0.0, "lat": 38.9270285, "is_reserved": 0, "type": "electric_scooter", "bike_id": "74ad51d9edb84a7c8e9673159db91c00", "is_disabled": 0, "rental_uris": {"android": "https://dc.lft.to/lastmile_qr_scan", "ios": "https://dc.lft.to/lastmile_qr_scan"}, "lon": -77.02418283333333, "fusion_lat": 0.0}, {"name": "1a3d71191387410e9f6b16d3ee3a0aaa", "fusion_lon": 0.0, "lat": 38.92057066666667, "is_reserved": 0, "type": "electric_scooter", "bike_id": "1a3d71191387410e9f6b16d3ee3a0aaa", "is_disabled": 0, "rental_uris": {"android": "https://dc.lft.to/lastmile_qr_scan", "ios": "https://dc.lft.to/lastmile_qr_scan"}, "lon": -77.02986733333333, "fusion_lat": 0.0}, {"name": "67d6ecc15ed3a0bc3aa04518328ddfb4", "fusion_lon": 0.0, "lat": 38.884059666666666, "is_reserved": 0, "type": "electric_bike", "bike_id": "67d6ecc15ed3a0bc3aa04518328ddfb4", "is_disabled": 0, "rental_uris": {"android": "https://dc.lft.to/lastmile_qr_scan", "ios": "https://dc.lft.to/lastmile_qr_scan"}, "lon": -76.96059583333333, "fusion_lat": 0.0}, {"name": "051042160a90f15edc4873b068f972c2", "fusion_lon": 0.0, "lat": 38.91576466666667, "is_reserved": 0, "type": "electric_scooter", "bike_id": "051042160a90f15edc4873b068f972c2", "is_disabled": 0, "rental_uris": {"android": "https://dc.lft.to/lastmile_qr_scan", "ios": "https://dc.lft.to/lastmile_qr_scan"}, "lon": -77.03199083333334, "fusion_lat": 0.0}, {"name": "740096c158924a0a7b0eb0d84c6f0fc8", "fusion_lon": 0.0, "lat": 38.922159, "is_reserved": 0, "type": "electric_scooter", "bike_id": "740096c158924a0a7b0eb0d84c6f0fc8", "is_disabled": 0, "rental_uris": {"android": "https://dc.lft.to/lastmile_qr_scan", "ios": "https://dc.lft.to/lastmile_qr_scan"}, "lon": -76.9874945, "fusion_lat": 0.0}, {"name": "8f192f508d6c250037f8913d80fb5d08", "fusion_lon": 0.0, "lat": 38.8849445, "is_reserved": 0, "type": "electric_scooter", "bike_id": "8f192f508d6c250037f8913d80fb5d08", "is_disabled": 0, "rental_uris": {"android": "https://dc.lft.to/lastmile_qr_scan", "ios": "https://dc.lft.to/lastmile_qr_scan"}, "lon": -77.0071915, "fusion_lat": 0.0}, {"name": "3fbf673e18c1c98a7ceb8345ade97aa7", "fusion_lon": 0.0, "lat": 38.915485, "is_reserved": 0, "type": "electric_scooter", "bike_id": "3fbf673e18c1c98a7ceb8345ade97aa7", "is_disabled": 0, "rental_uris": {"android": "https://dc.lft.to/lastmile_qr_scan", "ios": "https://dc.lft.to/lastmile_qr_scan"}, "lon": -77.0417955, "fusion_lat": 0.0}, {"name": "5aa7434cde1138c31e104eb3ee3421da", "fusion_lon": 0.0, "lat": 38.90969316666666, "is_reserved": 0, "type": "electric_scooter", "bike_id": "5aa7434cde1138c31e104eb3ee3421da", "is_disabled": 0, "rental_uris": {"android": "https://dc.lft.to/lastmile_qr_scan", "ios": "https://dc.lft.to/lastmile_qr_scan"}, "lon": -77.03240516666666, "fusion_lat": 0.0}, {"name": "7d30156e12c0de64f1005cf746732655", "fusion_lon": 0.0, "lat": 38.914058833333335, "is_reserved": 0, "type": "electric_scooter", "bike_id": "7d30156e12c0de64f1005cf746732655", "is_disabled": 0, "rental_uris": {"android": "https://dc.lft.to/lastmile_qr_scan", "ios": "https://dc.lft.to/lastmile_qr_scan"}, "lon": -77.001959, "fusion_lat": 0.0}, {"name": "10e773430dae99e450287daee637b07f", "fusion_lon": 0.0, "lat": 38.9022365, "is_reserved": 0, "type": "electric_scooter", "bike_id": "10e773430dae99e450287daee637b07f", "is_disabled": 0, "rental_uris": {"android": "https://dc.lft.to/lastmile_qr_scan", "ios": "https://dc.lft.to/lastmile_qr_scan"}, "lon": -77.0337135, "fusion_lat": 0.0}, {"name": "464b0f47c3a6dc0d3c051b456b474acf", "fusion_lon": 0.0, "lat": 38.9202645, "is_reserved": 0, "type": "electric_scooter", "bike_id": "464b0f47c3a6dc0d3c051b456b474acf", "is_disabled": 0, "rental_uris": {"android": "https://dc.lft.to/lastmile_qr_scan", "ios": "https://dc.lft.to/lastmile_qr_scan"}, "lon": -77.031498, "fusion_lat": 0.0}, {"name": "d655105914dd4e4c679fe49ce57bb44b", "fusion_lon": 0.0, "lat": 38.9269485, "is_reserved": 0, "type": "electric_scooter", "bike_id": "d655105914dd4e4c679fe49ce57bb44b", "is_disabled": 0, "rental_uris": {"android": "https://dc.lft.to/lastmile_qr_scan", "ios": "https://dc.lft.to/lastmile_qr_scan"}, "lon": -77.02108416666667, "fusion_lat": 0.0}, {"name": "dc7571869406211f4ec1576d849f77c3", "fusion_lon": 0.0, "lat": 38.922272166666666, "is_reserved": 0, "type": "electric_scooter", "bike_id": "dc7571869406211f4ec1576d849f77c3", "is_disabled": 0, "rental_uris": {"android": "https://dc.lft.to/lastmile_qr_scan", "ios": "https://dc.lft.to/lastmile_qr_scan"}, "lon": -77.04490866666667, "fusion_lat": 0.0}, {"name": "956e8d39d1e8b303f5df993e2e26257f", "fusion_lon": 0.0, "lat": 38.88746316666667, "is_reserved": 0, "type": "electric_scooter", "bike_id": "956e8d39d1e8b303f5df993e2e26257f", "is_disabled": 0, "rental_uris": {"android": "https://dc.lft.to/lastmile_qr_scan", "ios": "https://dc.lft.to/lastmile_qr_scan"}, "lon": -77.0284425, "fusion_lat": 0.0}, {"name": "1bc3b435e5b9b480a3bf88e56d3ef379", "fusion_lon": 0.0, "lat": 38.89295466666667, "is_reserved": 0, "type": "electric_bike", "bike_id": "1bc3b435e5b9b480a3bf88e56d3ef379", "is_disabled": 0, "rental_uris": {"android": "https://dc.lft.to/lastmile_qr_scan", "ios": "https://dc.lft.to/lastmile_qr_scan"}, "lon": -76.9762635, "fusion_lat": 0.0}, {"name": "be562e6e5e79b40106d68505ff2e985c", "fusion_lon": 0.0, "lat": 38.90149816666667, "is_reserved": 0, "type": "electric_scooter", "bike_id": "be562e6e5e79b40106d68505ff2e985c", "is_disabled": 0, "rental_uris": {"android": "https://dc.lft.to/lastmile_qr_scan", "ios": "https://dc.lft.to/lastmile_qr_scan"}, "lon": -77.03314733333333, "fusion_lat": 0.0}, {"name": "cdc047c443a8456ac605cfaa4c62ba58", "fusion_lon": 0.0, "lat": 38.893778, "is_reserved": 0, "type": "electric_scooter", "bike_id": "cdc047c443a8456ac605cfaa4c62ba58", "is_disabled": 0, "rental_uris": {"android": "https://dc.lft.to/lastmile_qr_scan", "ios": "https://dc.lft.to/lastmile_qr_scan"}, "lon": -77.047856, "fusion_lat": 0.0}, {"name": "3bf08f3717fe577dc0b1448a852f2142", "fusion_lon": 0.0, "lat": 38.917739166666664, "is_reserved": 0, "type": "electric_scooter", "bike_id": "3bf08f3717fe577dc0b1448a852f2142", "is_disabled": 0, "rental_uris": {"android": "https://dc.lft.to/lastmile_qr_scan", "ios": "https://dc.lft.to/lastmile_qr_scan"}, "lon": -77.01501183333333, "fusion_lat": 0.0}, {"name": "319033af230ee46747e56dcdfba85a4f", "fusion_lon": 0.0, "lat": 38.901089, "is_reserved": 0, "type": "electric_scooter", "bike_id": "319033af230ee46747e56dcdfba85a4f", "is_disabled": 0, "rental_uris": {"android": "https://dc.lft.to/lastmile_qr_scan", "ios": "https://dc.lft.to/lastmile_qr_scan"}, "lon": -77.0498365, "fusion_lat": 0.0}, {"name": "6bfe51a06c91b7ff4560440569aaadb5", "fusion_lon": 0.0, "lat": 38.918129, "is_reserved": 0, "type": "electric_scooter", "bike_id": "6bfe51a06c91b7ff4560440569aaadb5", "is_disabled": 0, "rental_uris": {"android": "https://dc.lft.to/lastmile_qr_scan", "ios": "https://dc.lft.to/lastmile_qr_scan"}, "lon": -77.03439383333334, "fusion_lat": 0.0}, {"name": "ab00faca94b1535e6077fc21b5b8a9bf", "fusion_lon": 0.0, "lat": 38.915615333333335, "is_reserved": 0, "type": "electric_scooter", "bike_id": "ab00faca94b1535e6077fc21b5b8a9bf", "is_disabled": 0, "rental_uris": {"android": "https://dc.lft.to/lastmile_qr_scan", "ios": "https://dc.lft.to/lastmile_qr_scan"}, "lon": -77.04286266666666, "fusion_lat": 0.0}, {"name": "b014f087fdabee68d5019b4ae217807f", "fusion_lon": 0.0, "lat": 38.915473666666664, "is_reserved": 0, "type": "electric_scooter", "bike_id": "b014f087fdabee68d5019b4ae217807f", "is_disabled": 0, "rental_uris": {"android": "https://dc.lft.to/lastmile_qr_scan", "ios": "https://dc.lft.to/lastmile_qr_scan"}, "lon": -77.0255135, "fusion_lat": 0.0}, {"name": "612a46e0986f34a10c4e6dfb5f051e25", "fusion_lon": 0.0, "lat": 38.92065066666667, "is_reserved": 0, "type": "electric_scooter", "bike_id": "612a46e0986f34a10c4e6dfb5f051e25", "is_disabled": 0, "rental_uris": {"android": "https://dc.lft.to/lastmile_qr_scan", "ios": "https://dc.lft.to/lastmile_qr_scan"}, "lon": -77.0321835, "fusion_lat": 0.0}, {"name": "a5618b9fbe419c5e1c59f5ad370b8974", "fusion_lon": 0.0, "lat": 38.912458, "is_reserved": 0, "type": "electric_scooter", "bike_id": "a5618b9fbe419c5e1c59f5ad370b8974", "is_disabled": 0, "rental_uris": {"android": "https://dc.lft.to/lastmile_qr_scan", "ios": "https://dc.lft.to/lastmile_qr_scan"}, "lon": -77.03416533333333, "fusion_lat": 0.0}, {"name": "7fa895dccfb7ce0b46c63b4595c4404a", "fusion_lon": 0.0, "lat": 38.896215833333336, "is_reserved": 0, "type": "electric_scooter", "bike_id": "7fa895dccfb7ce0b46c63b4595c4404a", "is_disabled": 0, "rental_uris": {"android": "https://dc.lft.to/lastmile_qr_scan", "ios": "https://dc.lft.to/lastmile_qr_scan"}, "lon": -77.0261025, "fusion_lat": 0.0}, {"name": "24631df56ea001da88b30cdcbbbaeb7b", "fusion_lon": 0.0, "lat": 38.9052575, "is_reserved": 0, "type": "electric_scooter", "bike_id": "24631df56ea001da88b30cdcbbbaeb7b", "is_disabled": 0, "rental_uris": {"android": "https://dc.lft.to/lastmile_qr_scan", "ios": "https://dc.lft.to/lastmile_qr_scan"}, "lon": -77.03801533333333, "fusion_lat": 0.0}, {"name": "92f0aae03c3d7796e9b9e7b2e7ef0481", "fusion_lon": 0.0, "lat": 38.90634166666667, "is_reserved": 0, "type": "electric_scooter", "bike_id": "92f0aae03c3d7796e9b9e7b2e7ef0481", "is_disabled": 0, "rental_uris": {"android": "https://dc.lft.to/lastmile_qr_scan", "ios": "https://dc.lft.to/lastmile_qr_scan"}, "lon": -77.03151666666666, "fusion_lat": 0.0}, {"name": "39d646d4272c38a66d61b4d28c13738d", "fusion_lon": 0.0, "lat": 38.911297166666664, "is_reserved": 0, "type": "electric_scooter", "bike_id": "39d646d4272c38a66d61b4d28c13738d", "is_disabled": 0, "rental_uris": {"android": "https://dc.lft.to/lastmile_qr_scan", "ios": "https://dc.lft.to/lastmile_qr_scan"}, "lon": -77.03771016666667, "fusion_lat": 0.0}, {"name": "d5aac49da82b5a71881ec118fc373d59", "fusion_lon": 0.0, "lat": 38.920490666666666, "is_reserved": 0, "type": "electric_scooter", "bike_id": "d5aac49da82b5a71881ec118fc373d59", "is_disabled": 0, "rental_uris": {"android": "https://dc.lft.to/lastmile_qr_scan", "ios": "https://dc.lft.to/lastmile_qr_scan"}, "lon": -77.04192133333333, "fusion_lat": 0.0}, {"name": "c445b7346080a6bda0add1ca67dfd542", "fusion_lon": 0.0, "lat": 38.910562, "is_reserved": 0, "type": "electric_scooter", "bike_id": "c445b7346080a6bda0add1ca67dfd542", "is_disabled": 0, "rental_uris": {"android": "https://dc.lft.to/lastmile_qr_scan", "ios": "https://dc.lft.to/lastmile_qr_scan"}, "lon": -77.04491633333333, "fusion_lat": 0.0}, {"name": "4ee3dfdae4f3987b50ad002956f5de6e", "fusion_lon": 0.0, "lat": 38.80760033333333, "is_reserved": 0, "type": "electric_bike", "bike_id": "4ee3dfdae4f3987b50ad002956f5de6e", "is_disabled": 0, "rental_uris": {"android": "https://dc.lft.to/lastmile_qr_scan", "ios": "https://dc.lft.to/lastmile_qr_scan"}, "lon": -77.09453333333333, "fusion_lat": 0.0}, {"name": "c446a2a995eb975b702b99f05fe2a8b1", "fusion_lon": 0.0, "lat": 38.920074, "is_reserved": 0, "type": "electric_scooter", "bike_id": "c446a2a995eb975b702b99f05fe2a8b1", "is_disabled": 0, "rental_uris": {"android": "https://dc.lft.to/lastmile_qr_scan", "ios": "https://dc.lft.to/lastmile_qr_scan"}, "lon": -77.04177783333333, "fusion_lat": 0.0}, {"name": "97c2b9f89ef20196504cc24b9a61224c", "fusion_lon": 0.0, "lat": 38.91882283333333, "is_reserved": 0, "type": "electric_scooter", "bike_id": "97c2b9f89ef20196504cc24b9a61224c", "is_disabled": 0, "rental_uris": {"android": "https://dc.lft.to/lastmile_qr_scan", "ios": "https://dc.lft.to/lastmile_qr_scan"}, "lon": -77.03500583333333, "fusion_lat": 0.0}, {"name": "9f02495d6b7004c543f97f909580a475", "fusion_lon": 0.0, "lat": 38.923922, "is_reserved": 0, "type": "electric_scooter", "bike_id": "9f02495d6b7004c543f97f909580a475", "is_disabled": 0, "rental_uris": {"android": "https://dc.lft.to/lastmile_qr_scan", "ios": "https://dc.lft.to/lastmile_qr_scan"}, "lon": -77.04057383333334, "fusion_lat": 0.0}, {"name": "86dcf1e8a9bb27def5616689c18dbd91", "fusion_lon": 0.0, "lat": 38.907006833333334, "is_reserved": 0, "type": "electric_scooter", "bike_id": "86dcf1e8a9bb27def5616689c18dbd91", "is_disabled": 0, "rental_uris": {"android": "https://dc.lft.to/lastmile_qr_scan", "ios": "https://dc.lft.to/lastmile_qr_scan"}, "lon": -77.03449283333333, "fusion_lat": 0.0}, {"name": "0f82c59730b1cdf13b98c4a428415b49", "fusion_lon": 0.0, "lat": 38.90428383333333, "is_reserved": 0, "type": "electric_scooter", "bike_id": "0f82c59730b1cdf13b98c4a428415b49", "is_disabled": 0, "rental_uris": {"android": "https://dc.lft.to/lastmile_qr_scan", "ios": "https://dc.lft.to/lastmile_qr_scan"}, "lon": -77.04330516666667, "fusion_lat": 0.0}, {"name": "504a3d2c07cd9a2a20480a067df0b4b1", "fusion_lon": 0.0, "lat": 38.92772183333334, "is_reserved": 0, "type": "electric_scooter", "bike_id": "504a3d2c07cd9a2a20480a067df0b4b1", "is_disabled": 0, "rental_uris": {"android": "https://dc.lft.to/lastmile_qr_scan", "ios": "https://dc.lft.to/lastmile_qr_scan"}, "lon": -77.026054, "fusion_lat": 0.0}, {"name": "0bfad49bb57a02982cb39bf2f591378d", "fusion_lon": 0.0, "lat": 38.91114233333333, "is_reserved": 0, "type": "electric_scooter", "bike_id": "0bfad49bb57a02982cb39bf2f591378d", "is_disabled": 0, "rental_uris": {"android": "https://dc.lft.to/lastmile_qr_scan", "ios": "https://dc.lft.to/lastmile_qr_scan"}, "lon": -77.0210675, "fusion_lat": 0.0}, {"name": "bc05d6a3d7ea9f6caccae5e015abe2e2", "fusion_lon": 0.0, "lat": 38.938825, "is_reserved": 0, "type": "electric_scooter", "bike_id": "bc05d6a3d7ea9f6caccae5e015abe2e2", "is_disabled": 0, "rental_uris": {"android": "https://dc.lft.to/lastmile_qr_scan", "ios": "https://dc.lft.to/lastmile_qr_scan"}, "lon": -77.024916, "fusion_lat": 0.0}, {"name": "112b27ddf25ee4c931fa1238b0da017d", "fusion_lon": 0.0, "lat": 38.90213833333333, "is_reserved": 0, "type": "electric_scooter", "bike_id": "112b27ddf25ee4c931fa1238b0da017d", "is_disabled": 0, "rental_uris": {"android": "https://dc.lft.to/lastmile_qr_scan", "ios": "https://dc.lft.to/lastmile_qr_scan"}, "lon": -77.02179083333333, "fusion_lat": 0.0}, {"name": "fb9ffcb512bdecaddc00c15c79af8543", "fusion_lon": 0.0, "lat": 38.91092116666667, "is_reserved": 0, "type": "electric_scooter", "bike_id": "fb9ffcb512bdecaddc00c15c79af8543", "is_disabled": 0, "rental_uris": {"android": "https://dc.lft.to/lastmile_qr_scan", "ios": "https://dc.lft.to/lastmile_qr_scan"}, "lon": -77.07420066666667, "fusion_lat": 0.0}, {"name": "8bc380dcda498bd6fb8dcaf35492be96", "fusion_lon": 0.0, "lat": 38.920618833333336, "is_reserved": 0, "type": "electric_scooter", "bike_id": "8bc380dcda498bd6fb8dcaf35492be96", "is_disabled": 0, "rental_uris": {"android": "https://dc.lft.to/lastmile_qr_scan", "ios": "https://dc.lft.to/lastmile_qr_scan"}, "lon": -77.034635, "fusion_lat": 0.0}, {"name": "dd264ac030374d3a7b5e08f74c90108b", "fusion_lon": 0.0, "lat": 38.905838333333335, "is_reserved": 0, "type": "electric_scooter", "bike_id": "dd264ac030374d3a7b5e08f74c90108b", "is_disabled": 0, "rental_uris": {"android": "https://dc.lft.to/lastmile_qr_scan", "ios": "https://dc.lft.to/lastmile_qr_scan"}, "lon": -77.04170966666666, "fusion_lat": 0.0}, {"name": "838f392b09077bb1923f3e03219f2c42", "fusion_lon": 0.0, "lat": 38.919245, "is_reserved": 0, "type": "electric_scooter", "bike_id": "838f392b09077bb1923f3e03219f2c42", "is_disabled": 0, "rental_uris": {"android": "https://dc.lft.to/lastmile_qr_scan", "ios": "https://dc.lft.to/lastmile_qr_scan"}, "lon": -77.02424783333333, "fusion_lat": 0.0}, {"name": "b67ba538217425b1d23c7b2610e14323", "fusion_lon": 0.0, "lat": 38.86933833333333, "is_reserved": 0, "type": "electric_bike", "bike_id": "b67ba538217425b1d23c7b2610e14323", "is_disabled": 0, "rental_uris": {"android": "https://dc.lft.to/lastmile_qr_scan", "ios": "https://dc.lft.to/lastmile_qr_scan"}, "lon": -77.012331, "fusion_lat": 0.0}, {"name": "fc5f71b287c244b49952b74e791ad9f4", "fusion_lon": 0.0, "lat": 38.895491166666666, "is_reserved": 0, "type": "electric_scooter", "bike_id": "fc5f71b287c244b49952b74e791ad9f4", "is_disabled": 0, "rental_uris": {"android": "https://dc.lft.to/lastmile_qr_scan", "ios": "https://dc.lft.to/lastmile_qr_scan"}, "lon": -77.05666133333334, "fusion_lat": 0.0}, {"name": "7479f2cc0b394fe53310c76e5cadd846", "fusion_lon": 0.0, "lat": 38.9212285, "is_reserved": 0, "type": "electric_scooter", "bike_id": "7479f2cc0b394fe53310c76e5cadd846", "is_disabled": 0, "rental_uris": {"android": "https://dc.lft.to/lastmile_qr_scan", "ios": "https://dc.lft.to/lastmile_qr_scan"}, "lon": -77.01800883333334, "fusion_lat": 0.0}, {"name": "cbe5d198d84ec4322ca0bd1ca77a5d64", "fusion_lon": 0.0, "lat": 38.91839783333333, "is_reserved": 0, "type": "electric_scooter", "bike_id": "cbe5d198d84ec4322ca0bd1ca77a5d64", "is_disabled": 0, "rental_uris": {"android": "https://dc.lft.to/lastmile_qr_scan", "ios": "https://dc.lft.to/lastmile_qr_scan"}, "lon": -77.022935, "fusion_lat": 0.0}, {"name": "3a950e861a434708b557b982f42bb945", "fusion_lon": 0.0, "lat": 38.89339716666667, "is_reserved": 0, "type": "electric_scooter", "bike_id": "3a950e861a434708b557b982f42bb945", "is_disabled": 0, "rental_uris": {"android": "https://dc.lft.to/lastmile_qr_scan", "ios": "https://dc.lft.to/lastmile_qr_scan"}, "lon": -77.01228116666667, "fusion_lat": 0.0}, {"name": "f174883a29e21767cfc89457fcd00d64", "fusion_lon": 0.0, "lat": 38.87708716666667, "is_reserved": 0, "type": "electric_scooter", "bike_id": "f174883a29e21767cfc89457fcd00d64", "is_disabled": 0, "rental_uris": {"android": "https://dc.lft.to/lastmile_qr_scan", "ios": "https://dc.lft.to/lastmile_qr_scan"}, "lon": -77.0041965, "fusion_lat": 0.0}, {"name": "d8b03e9b2802682a4bffbf59c3ffb530", "fusion_lon": 0.0, "lat": 38.900962666666665, "is_reserved": 0, "type": "electric_scooter", "bike_id": "d8b03e9b2802682a4bffbf59c3ffb530", "is_disabled": 0, "rental_uris": {"android": "https://dc.lft.to/lastmile_qr_scan", "ios": "https://dc.lft.to/lastmile_qr_scan"}, "lon": -76.97646883333333, "fusion_lat": 0.0}, {"name": "f0f5648b99d88b22833a1b0bacacc29a", "fusion_lon": 0.0, "lat": 38.89914366666667, "is_reserved": 0, "type": "electric_scooter", "bike_id": "f0f5648b99d88b22833a1b0bacacc29a", "is_disabled": 0, "rental_uris": {"android": "https://dc.lft.to/lastmile_qr_scan", "ios": "https://dc.lft.to/lastmile_qr_scan"}, "lon": -76.93372183333334, "fusion_lat": 0.0}, {"name": "5486aecfcbdfbd5b85370d2be9a5f5c6", "fusion_lon": 0.0, "lat": 38.88220316666666, "is_reserved": 0, "type": "electric_scooter", "bike_id": "5486aecfcbdfbd5b85370d2be9a5f5c6", "is_disabled": 0, "rental_uris": {"android": "https://dc.lft.to/lastmile_qr_scan", "ios": "https://dc.lft.to/lastmile_qr_scan"}, "lon": -76.98916283333334, "fusion_lat": 0.0}, {"name": "58a4ac9a6fc88201a0e11d97bca7b7a3", "fusion_lon": 0.0, "lat": 38.90873466666667, "is_reserved": 0, "type": "electric_bike", "bike_id": "58a4ac9a6fc88201a0e11d97bca7b7a3", "is_disabled": 0, "rental_uris": {"android": "https://dc.lft.to/lastmile_qr_scan", "ios": "https://dc.lft.to/lastmile_qr_scan"}, "lon": -76.9853755, "fusion_lat": 0.0}, {"name": "e7bce474f8e0bdbe25c96ec639abe985", "fusion_lon": 0.0, "lat": 38.90649233333333, "is_reserved": 0, "type": "electric_scooter", "bike_id": "e7bce474f8e0bdbe25c96ec639abe985", "is_disabled": 0, "rental_uris": {"android": "https://dc.lft.to/lastmile_qr_scan", "ios": "https://dc.lft.to/lastmile_qr_scan"}, "lon": -77.04867, "fusion_lat": 0.0}, {"name": "f457744ea64216f2b39dc8bf3c06e0fe", "fusion_lon": 0.0, "lat": 38.92505216666667, "is_reserved": 0, "type": "electric_scooter", "bike_id": "f457744ea64216f2b39dc8bf3c06e0fe", "is_disabled": 0, "rental_uris": {"android": "https://dc.lft.to/lastmile_qr_scan", "ios": "https://dc.lft.to/lastmile_qr_scan"}, "lon": -77.02352633333334, "fusion_lat": 0.0}, {"name": "ffcc2a8419b1b945c4ffa72320bb37d0", "fusion_lon": 0.0, "lat": 38.95179816666667, "is_reserved": 0, "type": "electric_scooter", "bike_id": "ffcc2a8419b1b945c4ffa72320bb37d0", "is_disabled": 0, "rental_uris": {"android": "https://dc.lft.to/lastmile_qr_scan", "ios": "https://dc.lft.to/lastmile_qr_scan"}, "lon": -77.02615416666667, "fusion_lat": 0.0}, {"name": "46faf6eebbbf6ada3135579c14cb0d71", "fusion_lon": 0.0, "lat": 38.912669666666666, "is_reserved": 0, "type": "electric_scooter", "bike_id": "46faf6eebbbf6ada3135579c14cb0d71", "is_disabled": 0, "rental_uris": {"android": "https://dc.lft.to/lastmile_qr_scan", "ios": "https://dc.lft.to/lastmile_qr_scan"}, "lon": -77.018532, "fusion_lat": 0.0}, {"name": "a81eae6d10017d3babddb7d1f2ea332d", "fusion_lon": 0.0, "lat": 38.914783166666666, "is_reserved": 0, "type": "electric_scooter", "bike_id": "a81eae6d10017d3babddb7d1f2ea332d", "is_disabled": 0, "rental_uris": {"android": "https://dc.lft.to/lastmile_qr_scan", "ios": "https://dc.lft.to/lastmile_qr_scan"}, "lon": -77.03185933333333, "fusion_lat": 0.0}, {"name": "6906f65e8ad1b22bc633347adcf86057", "fusion_lon": 0.0, "lat": 38.89086483333333, "is_reserved": 0, "type": "electric_scooter", "bike_id": "6906f65e8ad1b22bc633347adcf86057", "is_disabled": 0, "rental_uris": {"android": "https://dc.lft.to/lastmile_qr_scan", "ios": "https://dc.lft.to/lastmile_qr_scan"}, "lon": -76.9985445, "fusion_lat": 0.0}, {"name": "7f0c32d209ece5c431b6ed1896951fe6", "fusion_lon": 0.0, "lat": 38.893675333333334, "is_reserved": 0, "type": "electric_scooter", "bike_id": "7f0c32d209ece5c431b6ed1896951fe6", "is_disabled": 0, "rental_uris": {"android": "https://dc.lft.to/lastmile_qr_scan", "ios": "https://dc.lft.to/lastmile_qr_scan"}, "lon": -77.054988, "fusion_lat": 0.0}, {"name": "53a021ee4dd0765ffdb61e684ede5a2a", "fusion_lon": 0.0, "lat": 38.907600333333335, "is_reserved": 0, "type": "electric_scooter", "bike_id": "53a021ee4dd0765ffdb61e684ede5a2a", "is_disabled": 0, "rental_uris": {"android": "https://dc.lft.to/lastmile_qr_scan", "ios": "https://dc.lft.to/lastmile_qr_scan"}, "lon": -77.0308305, "fusion_lat": 0.0}, {"name": "e35fd2379e8cbd046c2c56f7bc038719", "fusion_lon": 0.0, "lat": 38.87705116666667, "is_reserved": 0, "type": "electric_scooter", "bike_id": "e35fd2379e8cbd046c2c56f7bc038719", "is_disabled": 0, "rental_uris": {"android": "https://dc.lft.to/lastmile_qr_scan", "ios": "https://dc.lft.to/lastmile_qr_scan"}, "lon": -77.01735633333334, "fusion_lat": 0.0}, {"name": "2e952e58bd0047249edf40a2c3cf5364", "fusion_lon": 0.0, "lat": 38.90336833333333, "is_reserved": 0, "type": "electric_scooter", "bike_id": "2e952e58bd0047249edf40a2c3cf5364", "is_disabled": 0, "rental_uris": {"android": "https://dc.lft.to/lastmile_qr_scan", "ios": "https://dc.lft.to/lastmile_qr_scan"}, "lon": -77.01110383333334, "fusion_lat": 0.0}, {"name": "c739ef1c823716b38e74f12f31374685", "fusion_lon": 0.0, "lat": 38.90780983333333, "is_reserved": 0, "type": "electric_scooter", "bike_id": "c739ef1c823716b38e74f12f31374685", "is_disabled": 0, "rental_uris": {"android": "https://dc.lft.to/lastmile_qr_scan", "ios": "https://dc.lft.to/lastmile_qr_scan"}, "lon": -77.03829133333333, "fusion_lat": 0.0}, {"name": "0c964a5b20a83e26b7dc83abbdd2c58b", "fusion_lon": 0.0, "lat": 38.89619033333334, "is_reserved": 0, "type": "electric_scooter", "bike_id": "0c964a5b20a83e26b7dc83abbdd2c58b", "is_disabled": 0, "rental_uris": {"android": "https://dc.lft.to/lastmile_qr_scan", "ios": "https://dc.lft.to/lastmile_qr_scan"}, "lon": -76.981654, "fusion_lat": 0.0}, {"name": "d794f7b10122fe97d4d88f29c689f262", "fusion_lon": 0.0, "lat": 38.922969333333334, "is_reserved": 0, "type": "electric_scooter", "bike_id": "d794f7b10122fe97d4d88f29c689f262", "is_disabled": 0, "rental_uris": {"android": "https://dc.lft.to/lastmile_qr_scan", "ios": "https://dc.lft.to/lastmile_qr_scan"}, "lon": -77.04298766666666, "fusion_lat": 0.0}, {"name": "b8b8c2a3b83f99b3574a4f260edb9d88", "fusion_lon": 0.0, "lat": 38.90210016666666, "is_reserved": 0, "type": "electric_scooter", "bike_id": "b8b8c2a3b83f99b3574a4f260edb9d88", "is_disabled": 0, "rental_uris": {"android": "https://dc.lft.to/lastmile_qr_scan", "ios": "https://dc.lft.to/lastmile_qr_scan"}, "lon": -77.046645, "fusion_lat": 0.0}, {"name": "ab53019487af1d50f218ddf6a8eae78c", "fusion_lon": 0.0, "lat": 38.88392133333333, "is_reserved": 0, "type": "electric_scooter", "bike_id": "ab53019487af1d50f218ddf6a8eae78c", "is_disabled": 0, "rental_uris": {"android": "https://dc.lft.to/lastmile_qr_scan", "ios": "https://dc.lft.to/lastmile_qr_scan"}, "lon": -76.95448083333333, "fusion_lat": 0.0}, {"name": "092eabacecf9763694305ac2a9312dbd", "fusion_lon": 0.0, "lat": 38.907238666666665, "is_reserved": 0, "type": "electric_scooter", "bike_id": "092eabacecf9763694305ac2a9312dbd", "is_disabled": 0, "rental_uris": {"android": "https://dc.lft.to/lastmile_qr_scan", "ios": "https://dc.lft.to/lastmile_qr_scan"}, "lon": -76.99820716666666, "fusion_lat": 0.0}, {"name": "e984225f5b4daecd6019c40c03f3c131", "fusion_lon": 0.0, "lat": 38.90866583333333, "is_reserved": 0, "type": "electric_scooter", "bike_id": "e984225f5b4daecd6019c40c03f3c131", "is_disabled": 0, "rental_uris": {"android": "https://dc.lft.to/lastmile_qr_scan", "ios": "https://dc.lft.to/lastmile_qr_scan"}, "lon": -76.99952683333333, "fusion_lat": 0.0}, {"name": "b0727490d1eaf51d5de8240461570840", "fusion_lon": 0.0, "lat": 38.923734, "is_reserved": 0, "type": "electric_scooter", "bike_id": "b0727490d1eaf51d5de8240461570840", "is_disabled": 0, "rental_uris": {"android": "https://dc.lft.to/lastmile_qr_scan", "ios": "https://dc.lft.to/lastmile_qr_scan"}, "lon": -77.03099233333333, "fusion_lat": 0.0}, {"name": "140e33b99b343bb2216df23494df99e0", "fusion_lon": 0.0, "lat": 38.905565, "is_reserved": 0, "type": "electric_scooter", "bike_id": "140e33b99b343bb2216df23494df99e0", "is_disabled": 0, "rental_uris": {"android": "https://dc.lft.to/lastmile_qr_scan", "ios": "https://dc.lft.to/lastmile_qr_scan"}, "lon": -77.03459233333334, "fusion_lat": 0.0}, {"name": "c267ef843288a8d4cf965d5453f9b875", "fusion_lon": 0.0, "lat": 38.884751333333334, "is_reserved": 0, "type": "electric_scooter", "bike_id": "c267ef843288a8d4cf965d5453f9b875", "is_disabled": 0, "rental_uris": {"android": "https://dc.lft.to/lastmile_qr_scan", "ios": "https://dc.lft.to/lastmile_qr_scan"}, "lon": -77.02658466666666, "fusion_lat": 0.0}, {"name": "0185001f488352a05a68cedf92c817db", "fusion_lon": 0.0, "lat": 38.923171333333336, "is_reserved": 0, "type": "electric_scooter", "bike_id": "0185001f488352a05a68cedf92c817db", "is_disabled": 0, "rental_uris": {"android": "https://dc.lft.to/lastmile_qr_scan", "ios": "https://dc.lft.to/lastmile_qr_scan"}, "lon": -77.02766366666667, "fusion_lat": 0.0}, {"name": "9574e3c80e5ce28944a1250b12280f55", "fusion_lon": 0.0, "lat": 38.880637666666665, "is_reserved": 0, "type": "electric_bike", "bike_id": "9574e3c80e5ce28944a1250b12280f55", "is_disabled": 0, "rental_uris": {"android": "https://dc.lft.to/lastmile_qr_scan", "ios": "https://dc.lft.to/lastmile_qr_scan"}, "lon": -76.96235466666667, "fusion_lat": 0.0}, {"name": "930ed9e833fa0c4f3f9561dbf809cf6e", "fusion_lon": 0.0, "lat": 38.94213583333333, "is_reserved": 0, "type": "electric_scooter", "bike_id": "930ed9e833fa0c4f3f9561dbf809cf6e", "is_disabled": 0, "rental_uris": {"android": "https://dc.lft.to/lastmile_qr_scan", "ios": "https://dc.lft.to/lastmile_qr_scan"}, "lon": -77.0251715, "fusion_lat": 0.0}, {"name": "7fea94cb62e707a461aee926e577b9d2", "fusion_lon": 0.0, "lat": 38.87608016666667, "is_reserved": 0, "type": "electric_scooter", "bike_id": "7fea94cb62e707a461aee926e577b9d2", "is_disabled": 0, "rental_uris": {"android": "https://dc.lft.to/lastmile_qr_scan", "ios": "https://dc.lft.to/lastmile_qr_scan"}, "lon": -77.00083616666667, "fusion_lat": 0.0}, {"name": "48f6132b4c630e72870074a3ba5a27f2", "fusion_lon": 0.0, "lat": 38.91524233333333, "is_reserved": 0, "type": "electric_scooter", "bike_id": "48f6132b4c630e72870074a3ba5a27f2", "is_disabled": 0, "rental_uris": {"android": "https://dc.lft.to/lastmile_qr_scan", "ios": "https://dc.lft.to/lastmile_qr_scan"}, "lon": -77.03184933333333, "fusion_lat": 0.0}, {"name": "1d64c20d7957292c37162df9ba771d20", "fusion_lon": 0.0, "lat": 38.862577333333334, "is_reserved": 0, "type": "electric_scooter", "bike_id": "1d64c20d7957292c37162df9ba771d20", "is_disabled": 0, "rental_uris": {"android": "https://dc.lft.to/lastmile_qr_scan", "ios": "https://dc.lft.to/lastmile_qr_scan"}, "lon": -76.99517633333333, "fusion_lat": 0.0}, {"name": "763bd51144f7fe6652c349f0a5591e0e", "fusion_lon": 0.0, "lat": 38.900364333333336, "is_reserved": 0, "type": "electric_scooter", "bike_id": "763bd51144f7fe6652c349f0a5591e0e", "is_disabled": 0, "rental_uris": {"android": "https://dc.lft.to/lastmile_qr_scan", "ios": "https://dc.lft.to/lastmile_qr_scan"}, "lon": -77.01196783333333, "fusion_lat": 0.0}, {"name": "a97ece82fba5c36c0e70c91a541aa740", "fusion_lon": 0.0, "lat": 38.89827483333333, "is_reserved": 0, "type": "electric_scooter", "bike_id": "a97ece82fba5c36c0e70c91a541aa740", "is_disabled": 0, "rental_uris": {"android": "https://dc.lft.to/lastmile_qr_scan", "ios": "https://dc.lft.to/lastmile_qr_scan"}, "lon": -77.03333883333333, "fusion_lat": 0.0}, {"name": "bfd6192a562d42abe9e6ec23e9cbdf23", "fusion_lon": 0.0, "lat": 38.89321, "is_reserved": 0, "type": "electric_scooter", "bike_id": "bfd6192a562d42abe9e6ec23e9cbdf23", "is_disabled": 0, "rental_uris": {"android": "https://dc.lft.to/lastmile_qr_scan", "ios": "https://dc.lft.to/lastmile_qr_scan"}, "lon": -77.04879883333334, "fusion_lat": 0.0}, {"name": "25a1515f28492f02dd536c29545e9877", "fusion_lon": 0.0, "lat": 38.91309866666667, "is_reserved": 0, "type": "electric_scooter", "bike_id": "25a1515f28492f02dd536c29545e9877", "is_disabled": 0, "rental_uris": {"android": "https://dc.lft.to/lastmile_qr_scan", "ios": "https://dc.lft.to/lastmile_qr_scan"}, "lon": -77.03649533333333, "fusion_lat": 0.0}, {"name": "49d7531dc192c7f7cb156a969a742cf0", "fusion_lon": 0.0, "lat": 38.88729, "is_reserved": 0, "type": "electric_scooter", "bike_id": "49d7531dc192c7f7cb156a969a742cf0", "is_disabled": 0, "rental_uris": {"android": "https://dc.lft.to/lastmile_qr_scan", "ios": "https://dc.lft.to/lastmile_qr_scan"}, "lon": -77.028206, "fusion_lat": 0.0}, {"name": "552168d2f5a503eb5b7bc70dd52fd7a1", "fusion_lon": 0.0, "lat": 38.910130833333334, "is_reserved": 0, "type": "electric_bike", "bike_id": "552168d2f5a503eb5b7bc70dd52fd7a1", "is_disabled": 0, "rental_uris": {"android": "https://dc.lft.to/lastmile_qr_scan", "ios": "https://dc.lft.to/lastmile_qr_scan"}, "lon": -77.22799716666667, "fusion_lat": 0.0}, {"name": "2105eb39ccf08605df99ba39cf7f070e", "fusion_lon": 0.0, "lat": 38.906039, "is_reserved": 0, "type": "electric_scooter", "bike_id": "2105eb39ccf08605df99ba39cf7f070e", "is_disabled": 0, "rental_uris": {"android": "https://dc.lft.to/lastmile_qr_scan", "ios": "https://dc.lft.to/lastmile_qr_scan"}, "lon": -77.056938, "fusion_lat": 0.0}, {"name": "b82ecb71ea36c0e145d7ea1d6e1452e6", "fusion_lon": 0.0, "lat": 38.9239745, "is_reserved": 0, "type": "electric_scooter", "bike_id": "b82ecb71ea36c0e145d7ea1d6e1452e6", "is_disabled": 0, "rental_uris": {"android": "https://dc.lft.to/lastmile_qr_scan", "ios": "https://dc.lft.to/lastmile_qr_scan"}, "lon": -77.02156416666666, "fusion_lat": 0.0}, {"name": "cac8f70dcfaa8d7b2c590cc203125c47", "fusion_lon": 0.0, "lat": 38.88513433333333, "is_reserved": 0, "type": "electric_scooter", "bike_id": "cac8f70dcfaa8d7b2c590cc203125c47", "is_disabled": 0, "rental_uris": {"android": "https://dc.lft.to/lastmile_qr_scan", "ios": "https://dc.lft.to/lastmile_qr_scan"}, "lon": -77.005632, "fusion_lat": 0.0}, {"name": "812dfab0d4e13581d1ec007096fc16fe", "fusion_lon": 0.0, "lat": 38.87280333333333, "is_reserved": 0, "type": "electric_bike", "bike_id": "812dfab0d4e13581d1ec007096fc16fe", "is_disabled": 0, "rental_uris": {"android": "https://dc.lft.to/lastmile_qr_scan", "ios": "https://dc.lft.to/lastmile_qr_scan"}, "lon": -77.23319183333334, "fusion_lat": 0.0}, {"name": "d9b23f98c365f31b96122c11463125a9", "fusion_lon": 0.0, "lat": 38.90747116666667, "is_reserved": 0, "type": "electric_scooter", "bike_id": "d9b23f98c365f31b96122c11463125a9", "is_disabled": 0, "rental_uris": {"android": "https://dc.lft.to/lastmile_qr_scan", "ios": "https://dc.lft.to/lastmile_qr_scan"}, "lon": -77.04202333333333, "fusion_lat": 0.0}, {"name": "03bc1ed19bab8fb0f1a80c4f13a69ffa", "fusion_lon": 0.0, "lat": 38.90521783333333, "is_reserved": 0, "type": "electric_scooter", "bike_id": "03bc1ed19bab8fb0f1a80c4f13a69ffa", "is_disabled": 0, "rental_uris": {"android": "https://dc.lft.to/lastmile_qr_scan", "ios": "https://dc.lft.to/lastmile_qr_scan"}, "lon": -76.98482083333333, "fusion_lat": 0.0}, {"name": "8894f72de8a9eb0b6e0c80ef9b0dc13c", "fusion_lon": 0.0, "lat": 38.92279766666667, "is_reserved": 0, "type": "electric_scooter", "bike_id": "8894f72de8a9eb0b6e0c80ef9b0dc13c", "is_disabled": 0, "rental_uris": {"android": "https://dc.lft.to/lastmile_qr_scan", "ios": "https://dc.lft.to/lastmile_qr_scan"}, "lon": -77.03656233333334, "fusion_lat": 0.0}, {"name": "4c759a46dd9577d9efa8b74d90e7bc01", "fusion_lon": 0.0, "lat": 38.91459483333333, "is_reserved": 0, "type": "electric_scooter", "bike_id": "4c759a46dd9577d9efa8b74d90e7bc01", "is_disabled": 0, "rental_uris": {"android": "https://dc.lft.to/lastmile_qr_scan", "ios": "https://dc.lft.to/lastmile_qr_scan"}, "lon": -77.07133816666666, "fusion_lat": 0.0}, {"name": "1624a63b36eccce4fcdacc1b10993d29", "fusion_lon": 0.0, "lat": 38.91940133333333, "is_reserved": 0, "type": "electric_scooter", "bike_id": "1624a63b36eccce4fcdacc1b10993d29", "is_disabled": 0, "rental_uris": {"android": "https://dc.lft.to/lastmile_qr_scan", "ios": "https://dc.lft.to/lastmile_qr_scan"}, "lon": -77.022983, "fusion_lat": 0.0}, {"name": "1e89a26832f969c4558dc96c3656bc84", "fusion_lon": 0.0, "lat": 38.88272416666667, "is_reserved": 0, "type": "electric_scooter", "bike_id": "1e89a26832f969c4558dc96c3656bc84", "is_disabled": 0, "rental_uris": {"android": "https://dc.lft.to/lastmile_qr_scan", "ios": "https://dc.lft.to/lastmile_qr_scan"}, "lon": -76.9925675, "fusion_lat": 0.0}, {"name": "7453640b2500508a1ca78f8e2b0a47a4", "fusion_lon": 0.0, "lat": 38.924822, "is_reserved": 0, "type": "electric_scooter", "bike_id": "7453640b2500508a1ca78f8e2b0a47a4", "is_disabled": 0, "rental_uris": {"android": "https://dc.lft.to/lastmile_qr_scan", "ios": "https://dc.lft.to/lastmile_qr_scan"}, "lon": -77.02757, "fusion_lat": 0.0}, {"name": "0cb09251588a9eacef02bbf8a342adb3", "fusion_lon": 0.0, "lat": 38.916289666666664, "is_reserved": 0, "type": "electric_scooter", "bike_id": "0cb09251588a9eacef02bbf8a342adb3", "is_disabled": 0, "rental_uris": {"android": "https://dc.lft.to/lastmile_qr_scan", "ios": "https://dc.lft.to/lastmile_qr_scan"}, "lon": -77.03984083333333, "fusion_lat": 0.0}, {"name": "c77a3dd14e707c561158537aff5765ca", "fusion_lon": 0.0, "lat": 38.923761, "is_reserved": 0, "type": "electric_scooter", "bike_id": "c77a3dd14e707c561158537aff5765ca", "is_disabled": 0, "rental_uris": {"android": "https://dc.lft.to/lastmile_qr_scan", "ios": "https://dc.lft.to/lastmile_qr_scan"}, "lon": -77.03053083333333, "fusion_lat": 0.0}, {"name": "8666bac8860d37756d0171c4932c0f62", "fusion_lon": 0.0, "lat": 38.917464333333335, "is_reserved": 0, "type": "electric_scooter", "bike_id": "8666bac8860d37756d0171c4932c0f62", "is_disabled": 0, "rental_uris": {"android": "https://dc.lft.to/lastmile_qr_scan", "ios": "https://dc.lft.to/lastmile_qr_scan"}, "lon": -77.03181433333333, "fusion_lat": 0.0}, {"name": "d4cc36d22f5f9724a0464f1977090e80", "fusion_lon": 0.0, "lat": 38.905641, "is_reserved": 0, "type": "electric_scooter", "bike_id": "d4cc36d22f5f9724a0464f1977090e80", "is_disabled": 0, "rental_uris": {"android": "https://dc.lft.to/lastmile_qr_scan", "ios": "https://dc.lft.to/lastmile_qr_scan"}, "lon": -77.0059025, "fusion_lat": 0.0}, {"name": "efc1bede5f75b82da72ba21473d4893e", "fusion_lon": 0.0, "lat": 38.90077816666667, "is_reserved": 0, "type": "electric_scooter", "bike_id": "efc1bede5f75b82da72ba21473d4893e", "is_disabled": 0, "rental_uris": {"android": "https://dc.lft.to/lastmile_qr_scan", "ios": "https://dc.lft.to/lastmile_qr_scan"}, "lon": -76.99632366666667, "fusion_lat": 0.0}, {"name": "0e394275211ad2f57eec06e966bf5ccd", "fusion_lon": 0.0, "lat": 38.930452, "is_reserved": 0, "type": "electric_scooter", "bike_id": "0e394275211ad2f57eec06e966bf5ccd", "is_disabled": 0, "rental_uris": {"android": "https://dc.lft.to/lastmile_qr_scan", "ios": "https://dc.lft.to/lastmile_qr_scan"}, "lon": -77.01232183333333, "fusion_lat": 0.0}, {"name": "5ff6c9d8899f9590319b9470aa6682f9", "fusion_lon": 0.0, "lat": 38.953569333333334, "is_reserved": 0, "type": "electric_bike", "bike_id": "5ff6c9d8899f9590319b9470aa6682f9", "is_disabled": 0, "rental_uris": {"android": "https://dc.lft.to/lastmile_qr_scan", "ios": "https://dc.lft.to/lastmile_qr_scan"}, "lon": -76.98097366666667, "fusion_lat": 0.0}, {"name": "b61a565867dd49780f69aad0eb15f4bc", "fusion_lon": 0.0, "lat": 38.9147635, "is_reserved": 0, "type": "electric_scooter", "bike_id": "b61a565867dd49780f69aad0eb15f4bc", "is_disabled": 0, "rental_uris": {"android": "https://dc.lft.to/lastmile_qr_scan", "ios": "https://dc.lft.to/lastmile_qr_scan"}, "lon": -77.03187233333334, "fusion_lat": 0.0}, {"name": "86432e09c747f0fa5e9bba9cbceafb4f", "fusion_lon": 0.0, "lat": 38.91891666666667, "is_reserved": 0, "type": "electric_scooter", "bike_id": "86432e09c747f0fa5e9bba9cbceafb4f", "is_disabled": 0, "rental_uris": {"android": "https://dc.lft.to/lastmile_qr_scan", "ios": "https://dc.lft.to/lastmile_qr_scan"}, "lon": -77.041645, "fusion_lat": 0.0}, {"name": "51cf3892f65c4ecfcea74d78081110fc", "fusion_lon": 0.0, "lat": 38.91912266666667, "is_reserved": 0, "type": "electric_scooter", "bike_id": "51cf3892f65c4ecfcea74d78081110fc", "is_disabled": 0, "rental_uris": {"android": "https://dc.lft.to/lastmile_qr_scan", "ios": "https://dc.lft.to/lastmile_qr_scan"}, "lon": -77.01542466666666, "fusion_lat": 0.0}, {"name": "bac3161d01009b7cea7d8593aa65f7d8", "fusion_lon": 0.0, "lat": 38.93856683333333, "is_reserved": 0, "type": "electric_scooter", "bike_id": "bac3161d01009b7cea7d8593aa65f7d8", "is_disabled": 0, "rental_uris": {"android": "https://dc.lft.to/lastmile_qr_scan", "ios": "https://dc.lft.to/lastmile_qr_scan"}, "lon": -77.02595783333334, "fusion_lat": 0.0}, {"name": "b4de753d931db79a5d766e5dfbf36e4a", "fusion_lon": 0.0, "lat": 38.963118, "is_reserved": 0, "type": "electric_bike", "bike_id": "b4de753d931db79a5d766e5dfbf36e4a", "is_disabled": 0, "rental_uris": {"android": "https://dc.lft.to/lastmile_qr_scan", "ios": "https://dc.lft.to/lastmile_qr_scan"}, "lon": -77.011105, "fusion_lat": 0.0}, {"name": "c2004d64b9c081e17b9969a95fdea11e", "fusion_lon": 0.0, "lat": 38.9323205, "is_reserved": 0, "type": "electric_scooter", "bike_id": "c2004d64b9c081e17b9969a95fdea11e", "is_disabled": 0, "rental_uris": {"android": "https://dc.lft.to/lastmile_qr_scan", "ios": "https://dc.lft.to/lastmile_qr_scan"}, "lon": -77.038727, "fusion_lat": 0.0}, {"name": "497adf0529b8ccaa3be29dd9b32d814d", "fusion_lon": 0.0, "lat": 38.963226666666664, "is_reserved": 0, "type": "electric_bike", "bike_id": "497adf0529b8ccaa3be29dd9b32d814d", "is_disabled": 0, "rental_uris": {"android": "https://dc.lft.to/lastmile_qr_scan", "ios": "https://dc.lft.to/lastmile_qr_scan"}, "lon": -76.97366083333333, "fusion_lat": 0.0}, {"name": "d9b64562be6042548ae545295d9e6031", "fusion_lon": 0.0, "lat": 38.905114166666664, "is_reserved": 0, "type": "electric_scooter", "bike_id": "d9b64562be6042548ae545295d9e6031", "is_disabled": 0, "rental_uris": {"android": "https://dc.lft.to/lastmile_qr_scan", "ios": "https://dc.lft.to/lastmile_qr_scan"}, "lon": -77.070161, "fusion_lat": 0.0}, {"name": "c6d75435a4d76884023ad61bb59ef437", "fusion_lon": 0.0, "lat": 38.916841833333336, "is_reserved": 0, "type": "electric_scooter", "bike_id": "c6d75435a4d76884023ad61bb59ef437", "is_disabled": 0, "rental_uris": {"android": "https://dc.lft.to/lastmile_qr_scan", "ios": "https://dc.lft.to/lastmile_qr_scan"}, "lon": -77.032073, "fusion_lat": 0.0}, {"name": "5df08a2151fc1b5edb7fc6fa5c1a306b", "fusion_lon": 0.0, "lat": 38.91815533333333, "is_reserved": 0, "type": "electric_scooter", "bike_id": "5df08a2151fc1b5edb7fc6fa5c1a306b", "is_disabled": 0, "rental_uris": {"android": "https://dc.lft.to/lastmile_qr_scan", "ios": "https://dc.lft.to/lastmile_qr_scan"}, "lon": -77.08963616666666, "fusion_lat": 0.0}, {"name": "c13e51f486acd5b4f8d2222bc9e13525", "fusion_lon": 0.0, "lat": 38.904763, "is_reserved": 0, "type": "electric_scooter", "bike_id": "c13e51f486acd5b4f8d2222bc9e13525", "is_disabled": 0, "rental_uris": {"android": "https://dc.lft.to/lastmile_qr_scan", "ios": "https://dc.lft.to/lastmile_qr_scan"}, "lon": -77.04185383333333, "fusion_lat": 0.0}, {"name": "ae193f9672c700bb1bb6e9181d61f88a", "fusion_lon": 0.0, "lat": 38.89953916666666, "is_reserved": 0, "type": "electric_scooter", "bike_id": "ae193f9672c700bb1bb6e9181d61f88a", "is_disabled": 0, "rental_uris": {"android": "https://dc.lft.to/lastmile_qr_scan", "ios": "https://dc.lft.to/lastmile_qr_scan"}, "lon": -77.04792916666666, "fusion_lat": 0.0}, {"name": "589507d5dbff1d58681dbbeff9cd074e", "fusion_lon": 0.0, "lat": 38.901585, "is_reserved": 0, "type": "electric_scooter", "bike_id": "589507d5dbff1d58681dbbeff9cd074e", "is_disabled": 0, "rental_uris": {"android": "https://dc.lft.to/lastmile_qr_scan", "ios": "https://dc.lft.to/lastmile_qr_scan"}, "lon": -77.01983366666667, "fusion_lat": 0.0}, {"name": "ee5f6fe6a10c8cb43d029de07d415dc4", "fusion_lon": 0.0, "lat": 38.919587166666666, "is_reserved": 0, "type": "electric_scooter", "bike_id": "ee5f6fe6a10c8cb43d029de07d415dc4", "is_disabled": 0, "rental_uris": {"android": "https://dc.lft.to/lastmile_qr_scan", "ios": "https://dc.lft.to/lastmile_qr_scan"}, "lon": -77.02715733333334, "fusion_lat": 0.0}, {"name": "bfb6186879fedc68e8954db4c26b2b8e", "fusion_lon": 0.0, "lat": 38.882088833333334, "is_reserved": 0, "type": "electric_scooter", "bike_id": "bfb6186879fedc68e8954db4c26b2b8e", "is_disabled": 0, "rental_uris": {"android": "https://dc.lft.to/lastmile_qr_scan", "ios": "https://dc.lft.to/lastmile_qr_scan"}, "lon": -76.9270385, "fusion_lat": 0.0}, {"name": "bd61a3f11488705e9432c0beef22af81", "fusion_lon": 0.0, "lat": 38.93068866666667, "is_reserved": 0, "type": "electric_scooter", "bike_id": "bd61a3f11488705e9432c0beef22af81", "is_disabled": 0, "rental_uris": {"android": "https://dc.lft.to/lastmile_qr_scan", "ios": "https://dc.lft.to/lastmile_qr_scan"}, "lon": -77.021896, "fusion_lat": 0.0}, {"name": "c176eeae0c959be0e30cebf84a5f95a8", "fusion_lon": 0.0, "lat": 38.89740666666667, "is_reserved": 0, "type": "electric_scooter", "bike_id": "c176eeae0c959be0e30cebf84a5f95a8", "is_disabled": 0, "rental_uris": {"android": "https://dc.lft.to/lastmile_qr_scan", "ios": "https://dc.lft.to/lastmile_qr_scan"}, "lon": -77.00748166666666, "fusion_lat": 0.0}, {"name": "2a2287afbba0ff578b88d4b40cf71b5e", "fusion_lon": 0.0, "lat": 38.913966, "is_reserved": 0, "type": "electric_scooter", "bike_id": "2a2287afbba0ff578b88d4b40cf71b5e", "is_disabled": 0, "rental_uris": {"android": "https://dc.lft.to/lastmile_qr_scan", "ios": "https://dc.lft.to/lastmile_qr_scan"}, "lon": -77.03937333333333, "fusion_lat": 0.0}, {"name": "486d2edb4b89cd9decd45836d095264c", "fusion_lon": 0.0, "lat": 38.916888, "is_reserved": 0, "type": "electric_scooter", "bike_id": "486d2edb4b89cd9decd45836d095264c", "is_disabled": 0, "rental_uris": {"android": "https://dc.lft.to/lastmile_qr_scan", "ios": "https://dc.lft.to/lastmile_qr_scan"}, "lon": -77.03865616666667, "fusion_lat": 0.0}, {"name": "b1b12e8b589f949299b5440df487b7ca", "fusion_lon": 0.0, "lat": 38.886109833333336, "is_reserved": 0, "type": "electric_scooter", "bike_id": "b1b12e8b589f949299b5440df487b7ca", "is_disabled": 0, "rental_uris": {"android": "https://dc.lft.to/lastmile_qr_scan", "ios": "https://dc.lft.to/lastmile_qr_scan"}, "lon": -76.99513333333333, "fusion_lat": 0.0}, {"name": "26cdf89ff70688478884ab7de3df5d5f", "fusion_lon": 0.0, "lat": 38.928732833333335, "is_reserved": 0, "type": "electric_scooter", "bike_id": "26cdf89ff70688478884ab7de3df5d5f", "is_disabled": 0, "rental_uris": {"android": "https://dc.lft.to/lastmile_qr_scan", "ios": "https://dc.lft.to/lastmile_qr_scan"}, "lon": -77.02731, "fusion_lat": 0.0}, {"name": "0d45ce0ed1a43830a49184e5180d03eb", "fusion_lon": 0.0, "lat": 38.855154166666665, "is_reserved": 0, "type": "electric_bike", "bike_id": "0d45ce0ed1a43830a49184e5180d03eb", "is_disabled": 0, "rental_uris": {"android": "https://dc.lft.to/lastmile_qr_scan", "ios": "https://dc.lft.to/lastmile_qr_scan"}, "lon": -77.120068, "fusion_lat": 0.0}, {"name": "a2cda1036943795b0fe2a0e2683ad49d", "fusion_lon": 0.0, "lat": 38.93926833333333, "is_reserved": 0, "type": "electric_scooter", "bike_id": "a2cda1036943795b0fe2a0e2683ad49d", "is_disabled": 0, "rental_uris": {"android": "https://dc.lft.to/lastmile_qr_scan", "ios": "https://dc.lft.to/lastmile_qr_scan"}, "lon": -77.02492116666667, "fusion_lat": 0.0}, {"name": "a9ca8d3a407af1eab18e4dfda65fff18", "fusion_lon": 0.0, "lat": 38.917963, "is_reserved": 0, "type": "electric_scooter", "bike_id": "a9ca8d3a407af1eab18e4dfda65fff18", "is_disabled": 0, "rental_uris": {"android": "https://dc.lft.to/lastmile_qr_scan", "ios": "https://dc.lft.to/lastmile_qr_scan"}, "lon": -77.03444566666667, "fusion_lat": 0.0}, {"name": "176b9710ced398ff1ba7ca107815155a", "fusion_lon": 0.0, "lat": 38.929839, "is_reserved": 0, "type": "electric_scooter", "bike_id": "176b9710ced398ff1ba7ca107815155a", "is_disabled": 0, "rental_uris": {"android": "https://dc.lft.to/lastmile_qr_scan", "ios": "https://dc.lft.to/lastmile_qr_scan"}, "lon": -77.01448433333333, "fusion_lat": 0.0}, {"name": "0af194ac262e859688c6e4c918d7dc6e", "fusion_lon": 0.0, "lat": 38.929555666666666, "is_reserved": 0, "type": "electric_scooter", "bike_id": "0af194ac262e859688c6e4c918d7dc6e", "is_disabled": 0, "rental_uris": {"android": "https://dc.lft.to/lastmile_qr_scan", "ios": "https://dc.lft.to/lastmile_qr_scan"}, "lon": -77.03286533333333, "fusion_lat": 0.0}, {"name": "6a7ced2caa1ffa862a2910a277f527b6", "fusion_lon": 0.0, "lat": 38.99328766666667, "is_reserved": 0, "type": "electric_bike", "bike_id": "6a7ced2caa1ffa862a2910a277f527b6", "is_disabled": 0, "rental_uris": {"android": "https://dc.lft.to/lastmile_qr_scan", "ios": "https://dc.lft.to/lastmile_qr_scan"}, "lon": -76.9461365, "fusion_lat": 0.0}, {"name": "24ae1da30c865d97603d0f1ba9bf41e1", "fusion_lon": 0.0, "lat": 38.861107833333335, "is_reserved": 0, "type": "electric_scooter", "bike_id": "24ae1da30c865d97603d0f1ba9bf41e1", "is_disabled": 0, "rental_uris": {"android": "https://dc.lft.to/lastmile_qr_scan", "ios": "https://dc.lft.to/lastmile_qr_scan"}, "lon": -76.96888716666666, "fusion_lat": 0.0}, {"name": "27c39912c772556d982b7db127700132", "fusion_lon": 0.0, "lat": 38.9006055, "is_reserved": 0, "type": "electric_scooter", "bike_id": "27c39912c772556d982b7db127700132", "is_disabled": 0, "rental_uris": {"android": "https://dc.lft.to/lastmile_qr_scan", "ios": "https://dc.lft.to/lastmile_qr_scan"}, "lon": -77.02162883333334, "fusion_lat": 0.0}, {"name": "a1afae7bb05948dd4aa309d9f2e793e5", "fusion_lon": 0.0, "lat": 38.923850333333334, "is_reserved": 0, "type": "electric_scooter", "bike_id": "a1afae7bb05948dd4aa309d9f2e793e5", "is_disabled": 0, "rental_uris": {"android": "https://dc.lft.to/lastmile_qr_scan", "ios": "https://dc.lft.to/lastmile_qr_scan"}, "lon": -77.0519185, "fusion_lat": 0.0}, {"name": "c008ed346f9fe0987e17a992dcc50cec", "fusion_lon": 0.0, "lat": 38.873771166666664, "is_reserved": 0, "type": "electric_scooter", "bike_id": "c008ed346f9fe0987e17a992dcc50cec", "is_disabled": 0, "rental_uris": {"android": "https://dc.lft.to/lastmile_qr_scan", "ios": "https://dc.lft.to/lastmile_qr_scan"}, "lon": -77.00202966666667, "fusion_lat": 0.0}, {"name": "a84aab9e949d001c784255a74b164b61", "fusion_lon": 0.0, "lat": 38.93374766666667, "is_reserved": 0, "type": "electric_scooter", "bike_id": "a84aab9e949d001c784255a74b164b61", "is_disabled": 0, "rental_uris": {"android": "https://dc.lft.to/lastmile_qr_scan", "ios": "https://dc.lft.to/lastmile_qr_scan"}, "lon": -77.0269095, "fusion_lat": 0.0}, {"name": "e8aadc22930442a408238d5f5c34e621", "fusion_lon": 0.0, "lat": 38.92328966666667, "is_reserved": 0, "type": "electric_scooter", "bike_id": "e8aadc22930442a408238d5f5c34e621", "is_disabled": 0, "rental_uris": {"android": "https://dc.lft.to/lastmile_qr_scan", "ios": "https://dc.lft.to/lastmile_qr_scan"}, "lon": -77.03568616666666, "fusion_lat": 0.0}, {"name": "6b85686651fc00fff2a865c69ab2a291", "fusion_lon": 0.0, "lat": 38.929440666666665, "is_reserved": 0, "type": "electric_scooter", "bike_id": "6b85686651fc00fff2a865c69ab2a291", "is_disabled": 0, "rental_uris": {"android": "https://dc.lft.to/lastmile_qr_scan", "ios": "https://dc.lft.to/lastmile_qr_scan"}, "lon": -77.0232915, "fusion_lat": 0.0}, {"name": "e8d667be4cd29e247aae398496f3787f", "fusion_lon": 0.0, "lat": 38.9184605, "is_reserved": 0, "type": "electric_scooter", "bike_id": "e8d667be4cd29e247aae398496f3787f", "is_disabled": 0, "rental_uris": {"android": "https://dc.lft.to/lastmile_qr_scan", "ios": "https://dc.lft.to/lastmile_qr_scan"}, "lon": -77.02301533333333, "fusion_lat": 0.0}, {"name": "e89b03d7815cae1bd654b05b8d2fd732", "fusion_lon": 0.0, "lat": 38.90981416666666, "is_reserved": 0, "type": "electric_scooter", "bike_id": "e89b03d7815cae1bd654b05b8d2fd732", "is_disabled": 0, "rental_uris": {"android": "https://dc.lft.to/lastmile_qr_scan", "ios": "https://dc.lft.to/lastmile_qr_scan"}, "lon": -77.03446416666667, "fusion_lat": 0.0}, {"name": "ab84b3bd5e93bab3351696882757995d", "fusion_lon": 0.0, "lat": 38.89969216666667, "is_reserved": 0, "type": "electric_scooter", "bike_id": "ab84b3bd5e93bab3351696882757995d", "is_disabled": 0, "rental_uris": {"android": "https://dc.lft.to/lastmile_qr_scan", "ios": "https://dc.lft.to/lastmile_qr_scan"}, "lon": -77.0214875, "fusion_lat": 0.0}, {"name": "1409e0d01fe2f2c4ccd1d8f2be9d7243", "fusion_lon": 0.0, "lat": 38.900382, "is_reserved": 0, "type": "electric_scooter", "bike_id": "1409e0d01fe2f2c4ccd1d8f2be9d7243", "is_disabled": 0, "rental_uris": {"android": "https://dc.lft.to/lastmile_qr_scan", "ios": "https://dc.lft.to/lastmile_qr_scan"}, "lon": -76.99963333333334, "fusion_lat": 0.0}, {"name": "fe9d8d65cf35e799e7acfb2c9ffd42a0", "fusion_lon": 0.0, "lat": 38.92242383333333, "is_reserved": 0, "type": "electric_scooter", "bike_id": "fe9d8d65cf35e799e7acfb2c9ffd42a0", "is_disabled": 0, "rental_uris": {"android": "https://dc.lft.to/lastmile_qr_scan", "ios": "https://dc.lft.to/lastmile_qr_scan"}, "lon": -77.03531966666667, "fusion_lat": 0.0}, {"name": "242340323daa4b9139f8072c231b8237", "fusion_lon": 0.0, "lat": 38.95736766666667, "is_reserved": 0, "type": "electric_scooter", "bike_id": "242340323daa4b9139f8072c231b8237", "is_disabled": 0, "rental_uris": {"android": "https://dc.lft.to/lastmile_qr_scan", "ios": "https://dc.lft.to/lastmile_qr_scan"}, "lon": -77.024055, "fusion_lat": 0.0}, {"name": "0f4819345db25c3ae0117aaf8b052ae4", "fusion_lon": 0.0, "lat": 38.88599383333333, "is_reserved": 0, "type": "electric_scooter", "bike_id": "0f4819345db25c3ae0117aaf8b052ae4", "is_disabled": 0, "rental_uris": {"android": "https://dc.lft.to/lastmile_qr_scan", "ios": "https://dc.lft.to/lastmile_qr_scan"}, "lon": -76.99108116666666, "fusion_lat": 0.0}, {"name": "16a4ed3f5154f9a9adbce5034529d3ab", "fusion_lon": 0.0, "lat": 38.882467, "is_reserved": 0, "type": "electric_scooter", "bike_id": "16a4ed3f5154f9a9adbce5034529d3ab", "is_disabled": 0, "rental_uris": {"android": "https://dc.lft.to/lastmile_qr_scan", "ios": "https://dc.lft.to/lastmile_qr_scan"}, "lon": -76.99122633333333, "fusion_lat": 0.0}, {"name": "c2ebd6c6452d60aea1bbe8b2f688c9f2", "fusion_lon": 0.0, "lat": 38.908106, "is_reserved": 0, "type": "electric_scooter", "bike_id": "c2ebd6c6452d60aea1bbe8b2f688c9f2", "is_disabled": 0, "rental_uris": {"android": "https://dc.lft.to/lastmile_qr_scan", "ios": "https://dc.lft.to/lastmile_qr_scan"}, "lon": -77.03431833333333, "fusion_lat": 0.0}, {"name": "6c86a518e19c6cbe3c214bb815bb4ece", "fusion_lon": 0.0, "lat": 38.91874583333333, "is_reserved": 0, "type": "electric_scooter", "bike_id": "6c86a518e19c6cbe3c214bb815bb4ece", "is_disabled": 0, "rental_uris": {"android": "https://dc.lft.to/lastmile_qr_scan", "ios": "https://dc.lft.to/lastmile_qr_scan"}, "lon": -77.04761266666667, "fusion_lat": 0.0}, {"name": "0ba54acf8b3a5cbb694b666307372c4e", "fusion_lon": 0.0, "lat": 38.931081666666664, "is_reserved": 0, "type": "electric_scooter", "bike_id": "0ba54acf8b3a5cbb694b666307372c4e", "is_disabled": 0, "rental_uris": {"android": "https://dc.lft.to/lastmile_qr_scan", "ios": "https://dc.lft.to/lastmile_qr_scan"}, "lon": -77.02471383333334, "fusion_lat": 0.0}, {"name": "f47a5cbc9fc2cf9ce11e26040e30acda", "fusion_lon": 0.0, "lat": 38.896187, "is_reserved": 0, "type": "electric_scooter", "bike_id": "f47a5cbc9fc2cf9ce11e26040e30acda", "is_disabled": 0, "rental_uris": {"android": "https://dc.lft.to/lastmile_qr_scan", "ios": "https://dc.lft.to/lastmile_qr_scan"}, "lon": -77.04558233333333, "fusion_lat": 0.0}, {"name": "da1d3b9d3fdb5c916fca67b90bb66f5f", "fusion_lon": 0.0, "lat": 38.92090833333334, "is_reserved": 0, "type": "electric_scooter", "bike_id": "da1d3b9d3fdb5c916fca67b90bb66f5f", "is_disabled": 0, "rental_uris": {"android": "https://dc.lft.to/lastmile_qr_scan", "ios": "https://dc.lft.to/lastmile_qr_scan"}, "lon": -77.02295016666666, "fusion_lat": 0.0}, {"name": "08c7175cc300a9db79eefd472dfccf3d", "fusion_lon": 0.0, "lat": 38.92654183333333, "is_reserved": 0, "type": "electric_scooter", "bike_id": "08c7175cc300a9db79eefd472dfccf3d", "is_disabled": 0, "rental_uris": {"android": "https://dc.lft.to/lastmile_qr_scan", "ios": "https://dc.lft.to/lastmile_qr_scan"}, "lon": -77.03710033333333, "fusion_lat": 0.0}, {"name": "6d920d23c07118957e135261d5e3732b", "fusion_lon": 0.0, "lat": 38.906314333333334, "is_reserved": 0, "type": "electric_scooter", "bike_id": "6d920d23c07118957e135261d5e3732b", "is_disabled": 0, "rental_uris": {"android": "https://dc.lft.to/lastmile_qr_scan", "ios": "https://dc.lft.to/lastmile_qr_scan"}, "lon": -77.04135583333333, "fusion_lat": 0.0}, {"name": "4bb8f4cfdde153ece8b720c150a5b908", "fusion_lon": 0.0, "lat": 38.91989566666667, "is_reserved": 0, "type": "electric_scooter", "bike_id": "4bb8f4cfdde153ece8b720c150a5b908", "is_disabled": 0, "rental_uris": {"android": "https://dc.lft.to/lastmile_qr_scan", "ios": "https://dc.lft.to/lastmile_qr_scan"}, "lon": -77.04164183333333, "fusion_lat": 0.0}, {"name": "e82297aa4a6416e8f429bf201b15ecb6", "fusion_lon": 0.0, "lat": 38.897615333333334, "is_reserved": 0, "type": "electric_scooter", "bike_id": "e82297aa4a6416e8f429bf201b15ecb6", "is_disabled": 0, "rental_uris": {"android": "https://dc.lft.to/lastmile_qr_scan", "ios": "https://dc.lft.to/lastmile_qr_scan"}, "lon": -77.0298735, "fusion_lat": 0.0}, {"name": "3bf1a41e1947c5f9f3e7296850592b48", "fusion_lon": 0.0, "lat": 38.916168166666665, "is_reserved": 0, "type": "electric_scooter", "bike_id": "3bf1a41e1947c5f9f3e7296850592b48", "is_disabled": 0, "rental_uris": {"android": "https://dc.lft.to/lastmile_qr_scan", "ios": "https://dc.lft.to/lastmile_qr_scan"}, "lon": -77.02207033333333, "fusion_lat": 0.0}, {"name": "a25acca653a1924511ddef835094a34c", "fusion_lon": 0.0, "lat": 38.902671, "is_reserved": 0, "type": "electric_scooter", "bike_id": "a25acca653a1924511ddef835094a34c", "is_disabled": 0, "rental_uris": {"android": "https://dc.lft.to/lastmile_qr_scan", "ios": "https://dc.lft.to/lastmile_qr_scan"}, "lon": -77.05165316666667, "fusion_lat": 0.0}, {"name": "efd1d6987bfbf4c96478c83b8efc17d2", "fusion_lon": 0.0, "lat": 38.9097715, "is_reserved": 0, "type": "electric_scooter", "bike_id": "efd1d6987bfbf4c96478c83b8efc17d2", "is_disabled": 0, "rental_uris": {"android": "https://dc.lft.to/lastmile_qr_scan", "ios": "https://dc.lft.to/lastmile_qr_scan"}, "lon": -77.03443216666666, "fusion_lat": 0.0}, {"name": "48856cda9a226d26f6b615003cb49bd1", "fusion_lon": 0.0, "lat": 38.85896266666666, "is_reserved": 0, "type": "electric_bike", "bike_id": "48856cda9a226d26f6b615003cb49bd1", "is_disabled": 0, "rental_uris": {"android": "https://dc.lft.to/lastmile_qr_scan", "ios": "https://dc.lft.to/lastmile_qr_scan"}, "lon": -77.11869783333333, "fusion_lat": 0.0}, {"name": "f3a350adc82531fa2b7a4a453befdcc9", "fusion_lon": 0.0, "lat": 38.920523333333335, "is_reserved": 0, "type": "electric_scooter", "bike_id": "f3a350adc82531fa2b7a4a453befdcc9", "is_disabled": 0, "rental_uris": {"android": "https://dc.lft.to/lastmile_qr_scan", "ios": "https://dc.lft.to/lastmile_qr_scan"}, "lon": -77.04194766666667, "fusion_lat": 0.0}, {"name": "37d03064b9289f99dc9e9522a2d6584a", "fusion_lon": 0.0, "lat": 38.918701666666664, "is_reserved": 0, "type": "electric_scooter", "bike_id": "37d03064b9289f99dc9e9522a2d6584a", "is_disabled": 0, "rental_uris": {"android": "https://dc.lft.to/lastmile_qr_scan", "ios": "https://dc.lft.to/lastmile_qr_scan"}, "lon": -77.044679, "fusion_lat": 0.0}, {"name": "acc09c9a2c9db1787ea3b8927afd3a65", "fusion_lon": 0.0, "lat": 38.90733916666667, "is_reserved": 0, "type": "electric_scooter", "bike_id": "acc09c9a2c9db1787ea3b8927afd3a65", "is_disabled": 0, "rental_uris": {"android": "https://dc.lft.to/lastmile_qr_scan", "ios": "https://dc.lft.to/lastmile_qr_scan"}, "lon": -77.01135466666666, "fusion_lat": 0.0}, {"name": "3fcfe07b2cc8938514dfc663ce4b076b", "fusion_lon": 0.0, "lat": 38.8846295, "is_reserved": 0, "type": "electric_scooter", "bike_id": "3fcfe07b2cc8938514dfc663ce4b076b", "is_disabled": 0, "rental_uris": {"android": "https://dc.lft.to/lastmile_qr_scan", "ios": "https://dc.lft.to/lastmile_qr_scan"}, "lon": -76.95751183333333, "fusion_lat": 0.0}, {"name": "4dfd60b931aa3bc85036faae5b196678", "fusion_lon": 0.0, "lat": 38.90317683333333, "is_reserved": 0, "type": "electric_scooter", "bike_id": "4dfd60b931aa3bc85036faae5b196678", "is_disabled": 0, "rental_uris": {"android": "https://dc.lft.to/lastmile_qr_scan", "ios": "https://dc.lft.to/lastmile_qr_scan"}, "lon": -76.97801116666666, "fusion_lat": 0.0}, {"name": "0291532a2e217441906acdb47df9044c", "fusion_lon": 0.0, "lat": 38.92654866666667, "is_reserved": 0, "type": "electric_scooter", "bike_id": "0291532a2e217441906acdb47df9044c", "is_disabled": 0, "rental_uris": {"android": "https://dc.lft.to/lastmile_qr_scan", "ios": "https://dc.lft.to/lastmile_qr_scan"}, "lon": -77.03708166666667, "fusion_lat": 0.0}, {"name": "dbcb5fb577a67f2f1682d73374018793", "fusion_lon": 0.0, "lat": 38.90128883333333, "is_reserved": 0, "type": "electric_scooter", "bike_id": "dbcb5fb577a67f2f1682d73374018793", "is_disabled": 0, "rental_uris": {"android": "https://dc.lft.to/lastmile_qr_scan", "ios": "https://dc.lft.to/lastmile_qr_scan"}, "lon": -77.033666, "fusion_lat": 0.0}, {"name": "252f49120f997281cf6b77ee7974f1b1", "fusion_lon": 0.0, "lat": 38.945607833333334, "is_reserved": 0, "type": "electric_bike", "bike_id": "252f49120f997281cf6b77ee7974f1b1", "is_disabled": 0, "rental_uris": {"android": "https://dc.lft.to/lastmile_qr_scan", "ios": "https://dc.lft.to/lastmile_qr_scan"}, "lon": -76.98750033333333, "fusion_lat": 0.0}, {"name": "7e83603eb6a5dcd9f9d1a9a6ff1a5502", "fusion_lon": 0.0, "lat": 38.9192655, "is_reserved": 0, "type": "electric_scooter", "bike_id": "7e83603eb6a5dcd9f9d1a9a6ff1a5502", "is_disabled": 0, "rental_uris": {"android": "https://dc.lft.to/lastmile_qr_scan", "ios": "https://dc.lft.to/lastmile_qr_scan"}, "lon": -77.04818116666667, "fusion_lat": 0.0}, {"name": "27d4fab157df6e2310db08d1b102a1a9", "fusion_lon": 0.0, "lat": 38.91914083333333, "is_reserved": 0, "type": "electric_scooter", "bike_id": "27d4fab157df6e2310db08d1b102a1a9", "is_disabled": 0, "rental_uris": {"android": "https://dc.lft.to/lastmile_qr_scan", "ios": "https://dc.lft.to/lastmile_qr_scan"}, "lon": -77.0099715, "fusion_lat": 0.0}, {"name": "2aa4aa2368194a8488c3d4a0dd63f20a", "fusion_lon": 0.0, "lat": 38.90608783333333, "is_reserved": 0, "type": "electric_scooter", "bike_id": "2aa4aa2368194a8488c3d4a0dd63f20a", "is_disabled": 0, "rental_uris": {"android": "https://dc.lft.to/lastmile_qr_scan", "ios": "https://dc.lft.to/lastmile_qr_scan"}, "lon": -76.99278883333334, "fusion_lat": 0.0}, {"name": "ca193a56021fd5bbe7c83b66aed4a223", "fusion_lon": 0.0, "lat": 38.885246, "is_reserved": 0, "type": "electric_scooter", "bike_id": "ca193a56021fd5bbe7c83b66aed4a223", "is_disabled": 0, "rental_uris": {"android": "https://dc.lft.to/lastmile_qr_scan", "ios": "https://dc.lft.to/lastmile_qr_scan"}, "lon": -77.06115133333333, "fusion_lat": 0.0}, {"name": "7672f47a041acb9e0df05016ffedde96", "fusion_lon": 0.0, "lat": 38.904726, "is_reserved": 0, "type": "electric_scooter", "bike_id": "7672f47a041acb9e0df05016ffedde96", "is_disabled": 0, "rental_uris": {"android": "https://dc.lft.to/lastmile_qr_scan", "ios": "https://dc.lft.to/lastmile_qr_scan"}, "lon": -77.02886033333333, "fusion_lat": 0.0}, {"name": "3abb9c014802cc3ee895a68b0e6e2a4d", "fusion_lon": 0.0, "lat": 38.9451955, "is_reserved": 0, "type": "electric_scooter", "bike_id": "3abb9c014802cc3ee895a68b0e6e2a4d", "is_disabled": 0, "rental_uris": {"android": "https://dc.lft.to/lastmile_qr_scan", "ios": "https://dc.lft.to/lastmile_qr_scan"}, "lon": -77.03323316666666, "fusion_lat": 0.0}, {"name": "2168282c17485aaa8431e8eb2ba1450f", "fusion_lon": 0.0, "lat": 38.9212155, "is_reserved": 0, "type": "electric_scooter", "bike_id": "2168282c17485aaa8431e8eb2ba1450f", "is_disabled": 0, "rental_uris": {"android": "https://dc.lft.to/lastmile_qr_scan", "ios": "https://dc.lft.to/lastmile_qr_scan"}, "lon": -77.03657383333334, "fusion_lat": 0.0}, {"name": "ada5dfd98c7b06c1b2bee7d7d3b1df62", "fusion_lon": 0.0, "lat": 39.000307166666666, "is_reserved": 0, "type": "electric_bike", "bike_id": "ada5dfd98c7b06c1b2bee7d7d3b1df62", "is_disabled": 0, "rental_uris": {"android": "https://dc.lft.to/lastmile_qr_scan", "ios": "https://dc.lft.to/lastmile_qr_scan"}, "lon": -77.04743483333333, "fusion_lat": 0.0}, {"name": "383beace5fe57ddd07e874119459a8dc", "fusion_lon": 0.0, "lat": 38.9499135, "is_reserved": 0, "type": "electric_scooter", "bike_id": "383beace5fe57ddd07e874119459a8dc", "is_disabled": 0, "rental_uris": {"android": "https://dc.lft.to/lastmile_qr_scan", "ios": "https://dc.lft.to/lastmile_qr_scan"}, "lon": -77.02707933333333, "fusion_lat": 0.0}, {"name": "c7222ad9ae3af882abd821fecfd2379f", "fusion_lon": 0.0, "lat": 38.91123733333333, "is_reserved": 0, "type": "electric_scooter", "bike_id": "c7222ad9ae3af882abd821fecfd2379f", "is_disabled": 0, "rental_uris": {"android": "https://dc.lft.to/lastmile_qr_scan", "ios": "https://dc.lft.to/lastmile_qr_scan"}, "lon": -77.0224525, "fusion_lat": 0.0}, {"name": "1c5f2801534d1675fac40298b26d6862", "fusion_lon": 0.0, "lat": 38.97184583333333, "is_reserved": 0, "type": "electric_scooter", "bike_id": "1c5f2801534d1675fac40298b26d6862", "is_disabled": 0, "rental_uris": {"android": "https://dc.lft.to/lastmile_qr_scan", "ios": "https://dc.lft.to/lastmile_qr_scan"}, "lon": -77.026869, "fusion_lat": 0.0}, {"name": "c93bffe9604151e927ec6c3ad4584586", "fusion_lon": 0.0, "lat": 38.88398133333333, "is_reserved": 0, "type": "electric_scooter", "bike_id": "c93bffe9604151e927ec6c3ad4584586", "is_disabled": 0, "rental_uris": {"android": "https://dc.lft.to/lastmile_qr_scan", "ios": "https://dc.lft.to/lastmile_qr_scan"}, "lon": -77.02574516666667, "fusion_lat": 0.0}, {"name": "c25e50c6130b4539e536ffeb853cd55a", "fusion_lon": 0.0, "lat": 38.87294416666667, "is_reserved": 0, "type": "electric_bike", "bike_id": "c25e50c6130b4539e536ffeb853cd55a", "is_disabled": 0, "rental_uris": {"android": "https://dc.lft.to/lastmile_qr_scan", "ios": "https://dc.lft.to/lastmile_qr_scan"}, "lon": -76.96982383333334, "fusion_lat": 0.0}, {"name": "f4219c651f95c1703fe0bfd41f31507a", "fusion_lon": 0.0, "lat": 38.918409, "is_reserved": 0, "type": "electric_scooter", "bike_id": "f4219c651f95c1703fe0bfd41f31507a", "is_disabled": 0, "rental_uris": {"android": "https://dc.lft.to/lastmile_qr_scan", "ios": "https://dc.lft.to/lastmile_qr_scan"}, "lon": -77.05956833333333, "fusion_lat": 0.0}, {"name": "c0d01956bc95bbcd1cb22f5c98051ccc", "fusion_lon": 0.0, "lat": 38.88960183333333, "is_reserved": 0, "type": "electric_scooter", "bike_id": "c0d01956bc95bbcd1cb22f5c98051ccc", "is_disabled": 0, "rental_uris": {"android": "https://dc.lft.to/lastmile_qr_scan", "ios": "https://dc.lft.to/lastmile_qr_scan"}, "lon": -76.93706883333333, "fusion_lat": 0.0}, {"name": "e895c1f80a0c958cb28c214a389a7e18", "fusion_lon": 0.0, "lat": 38.90411833333334, "is_reserved": 0, "type": "electric_scooter", "bike_id": "e895c1f80a0c958cb28c214a389a7e18", "is_disabled": 0, "rental_uris": {"android": "https://dc.lft.to/lastmile_qr_scan", "ios": "https://dc.lft.to/lastmile_qr_scan"}, "lon": -76.97331633333333, "fusion_lat": 0.0}, {"name": "a81629a3fd18d4be3310cc98a18d258c", "fusion_lon": 0.0, "lat": 38.909957, "is_reserved": 0, "type": "electric_scooter", "bike_id": "a81629a3fd18d4be3310cc98a18d258c", "is_disabled": 0, "rental_uris": {"android": "https://dc.lft.to/lastmile_qr_scan", "ios": "https://dc.lft.to/lastmile_qr_scan"}, "lon": -77.04008416666667, "fusion_lat": 0.0}, {"name": "dc9dbc2ba94892379154b710516698fd", "fusion_lon": 0.0, "lat": 38.921386166666665, "is_reserved": 0, "type": "electric_scooter", "bike_id": "dc9dbc2ba94892379154b710516698fd", "is_disabled": 0, "rental_uris": {"android": "https://dc.lft.to/lastmile_qr_scan", "ios": "https://dc.lft.to/lastmile_qr_scan"}, "lon": -77.04348033333333, "fusion_lat": 0.0}, {"name": "24f1699c5e2a3336622b09bfdaf8e2b6", "fusion_lon": 0.0, "lat": 38.92058433333333, "is_reserved": 0, "type": "electric_scooter", "bike_id": "24f1699c5e2a3336622b09bfdaf8e2b6", "is_disabled": 0, "rental_uris": {"android": "https://dc.lft.to/lastmile_qr_scan", "ios": "https://dc.lft.to/lastmile_qr_scan"}, "lon": -76.9894655, "fusion_lat": 0.0}, {"name": "d175ac8730197b01702c9ba87091e5cb", "fusion_lon": 0.0, "lat": 38.90715733333333, "is_reserved": 0, "type": "electric_scooter", "bike_id": "d175ac8730197b01702c9ba87091e5cb", "is_disabled": 0, "rental_uris": {"android": "https://dc.lft.to/lastmile_qr_scan", "ios": "https://dc.lft.to/lastmile_qr_scan"}, "lon": -77.03442933333334, "fusion_lat": 0.0}, {"name": "3e62c3e7a0e4d83c419815eb7e2161b7", "fusion_lon": 0.0, "lat": 38.91826316666667, "is_reserved": 0, "type": "electric_scooter", "bike_id": "3e62c3e7a0e4d83c419815eb7e2161b7", "is_disabled": 0, "rental_uris": {"android": "https://dc.lft.to/lastmile_qr_scan", "ios": "https://dc.lft.to/lastmile_qr_scan"}, "lon": -77.04003316666666, "fusion_lat": 0.0}, {"name": "6599512150b480ae3073ca789dd277cc", "fusion_lon": 0.0, "lat": 38.91447983333333, "is_reserved": 0, "type": "electric_scooter", "bike_id": "6599512150b480ae3073ca789dd277cc", "is_disabled": 0, "rental_uris": {"android": "https://dc.lft.to/lastmile_qr_scan", "ios": "https://dc.lft.to/lastmile_qr_scan"}, "lon": -77.03185583333334, "fusion_lat": 0.0}, {"name": "87add540921a350cd93e425f75891d15", "fusion_lon": 0.0, "lat": 38.923673666666666, "is_reserved": 0, "type": "electric_scooter", "bike_id": "87add540921a350cd93e425f75891d15", "is_disabled": 0, "rental_uris": {"android": "https://dc.lft.to/lastmile_qr_scan", "ios": "https://dc.lft.to/lastmile_qr_scan"}, "lon": -77.041353, "fusion_lat": 0.0}, {"name": "c3da23404d4c1a889fc15e10bf1cc46c", "fusion_lon": 0.0, "lat": 38.9269925, "is_reserved": 0, "type": "electric_scooter", "bike_id": "c3da23404d4c1a889fc15e10bf1cc46c", "is_disabled": 0, "rental_uris": {"android": "https://dc.lft.to/lastmile_qr_scan", "ios": "https://dc.lft.to/lastmile_qr_scan"}, "lon": -77.02133716666667, "fusion_lat": 0.0}, {"name": "67c4a73c7a143399b0a95859d92c1b25", "fusion_lon": 0.0, "lat": 38.85921183333333, "is_reserved": 0, "type": "electric_scooter", "bike_id": "67c4a73c7a143399b0a95859d92c1b25", "is_disabled": 0, "rental_uris": {"android": "https://dc.lft.to/lastmile_qr_scan", "ios": "https://dc.lft.to/lastmile_qr_scan"}, "lon": -76.98980683333333, "fusion_lat": 0.0}, {"name": "fa14b50ccb31137a3b5f3e8ec105f419", "fusion_lon": 0.0, "lat": 38.92123733333333, "is_reserved": 0, "type": "electric_scooter", "bike_id": "fa14b50ccb31137a3b5f3e8ec105f419", "is_disabled": 0, "rental_uris": {"android": "https://dc.lft.to/lastmile_qr_scan", "ios": "https://dc.lft.to/lastmile_qr_scan"}, "lon": -77.03660233333333, "fusion_lat": 0.0}, {"name": "886ded09bbb3c82f9d75ff3507f6b862", "fusion_lon": 0.0, "lat": 38.829602333333334, "is_reserved": 0, "type": "electric_bike", "bike_id": "886ded09bbb3c82f9d75ff3507f6b862", "is_disabled": 0, "rental_uris": {"android": "https://dc.lft.to/lastmile_qr_scan", "ios": "https://dc.lft.to/lastmile_qr_scan"}, "lon": -77.12360733333334, "fusion_lat": 0.0}, {"name": "d16e0b5b0f50badf0dc015e41113ae32", "fusion_lon": 0.0, "lat": 38.933150499999996, "is_reserved": 0, "type": "electric_bike", "bike_id": "d16e0b5b0f50badf0dc015e41113ae32", "is_disabled": 0, "rental_uris": {"android": "https://dc.lft.to/lastmile_qr_scan", "ios": "https://dc.lft.to/lastmile_qr_scan"}, "lon": -77.03211633333333, "fusion_lat": 0.0}, {"name": "eb494ea7b3574a8e91990ebe11382165", "fusion_lon": 0.0, "lat": 38.908184, "is_reserved": 0, "type": "electric_scooter", "bike_id": "eb494ea7b3574a8e91990ebe11382165", "is_disabled": 0, "rental_uris": {"android": "https://dc.lft.to/lastmile_qr_scan", "ios": "https://dc.lft.to/lastmile_qr_scan"}, "lon": -77.08435066666667, "fusion_lat": 0.0}, {"name": "dc62431726d5090264fababe3fc6c695", "fusion_lon": 0.0, "lat": 38.907763333333335, "is_reserved": 0, "type": "electric_scooter", "bike_id": "dc62431726d5090264fababe3fc6c695", "is_disabled": 0, "rental_uris": {"android": "https://dc.lft.to/lastmile_qr_scan", "ios": "https://dc.lft.to/lastmile_qr_scan"}, "lon": -77.0121725, "fusion_lat": 0.0}, {"name": "ff6ca48f5930448defa4f595e5d41393", "fusion_lon": 0.0, "lat": 38.87639516666667, "is_reserved": 0, "type": "electric_scooter", "bike_id": "ff6ca48f5930448defa4f595e5d41393", "is_disabled": 0, "rental_uris": {"android": "https://dc.lft.to/lastmile_qr_scan", "ios": "https://dc.lft.to/lastmile_qr_scan"}, "lon": -77.00455683333334, "fusion_lat": 0.0}, {"name": "58bd2e2d6a4bc236abb0228786905bc4", "fusion_lon": 0.0, "lat": 38.8995385, "is_reserved": 0, "type": "electric_scooter", "bike_id": "58bd2e2d6a4bc236abb0228786905bc4", "is_disabled": 0, "rental_uris": {"android": "https://dc.lft.to/lastmile_qr_scan", "ios": "https://dc.lft.to/lastmile_qr_scan"}, "lon": -77.04776266666667, "fusion_lat": 0.0}, {"name": "6d89739e2e0afdb839e8e39c880e3f40", "fusion_lon": 0.0, "lat": 38.9241245, "is_reserved": 0, "type": "electric_scooter", "bike_id": "6d89739e2e0afdb839e8e39c880e3f40", "is_disabled": 0, "rental_uris": {"android": "https://dc.lft.to/lastmile_qr_scan", "ios": "https://dc.lft.to/lastmile_qr_scan"}, "lon": -77.019497, "fusion_lat": 0.0}, {"name": "9445272962271289109f7010770aab07", "fusion_lon": 0.0, "lat": 38.8998245, "is_reserved": 0, "type": "electric_scooter", "bike_id": "9445272962271289109f7010770aab07", "is_disabled": 0, "rental_uris": {"android": "https://dc.lft.to/lastmile_qr_scan", "ios": "https://dc.lft.to/lastmile_qr_scan"}, "lon": -76.92610016666667, "fusion_lat": 0.0}, {"name": "56677aef053aa8d4994eb21423d25c37", "fusion_lon": 0.0, "lat": 38.916867833333335, "is_reserved": 0, "type": "electric_scooter", "bike_id": "56677aef053aa8d4994eb21423d25c37", "is_disabled": 0, "rental_uris": {"android": "https://dc.lft.to/lastmile_qr_scan", "ios": "https://dc.lft.to/lastmile_qr_scan"}, "lon": -77.02529733333333, "fusion_lat": 0.0}, {"name": "fad04b0991d36a22ad1fc9b9b50f93d9", "fusion_lon": 0.0, "lat": 38.93092333333333, "is_reserved": 0, "type": "electric_scooter", "bike_id": "fad04b0991d36a22ad1fc9b9b50f93d9", "is_disabled": 0, "rental_uris": {"android": "https://dc.lft.to/lastmile_qr_scan", "ios": "https://dc.lft.to/lastmile_qr_scan"}, "lon": -77.03443016666667, "fusion_lat": 0.0}, {"name": "bfa05fcac99ab07462e99f8408716bd4", "fusion_lon": 0.0, "lat": 38.893580166666666, "is_reserved": 0, "type": "electric_scooter", "bike_id": "bfa05fcac99ab07462e99f8408716bd4", "is_disabled": 0, "rental_uris": {"android": "https://dc.lft.to/lastmile_qr_scan", "ios": "https://dc.lft.to/lastmile_qr_scan"}, "lon": -77.00332266666666, "fusion_lat": 0.0}, {"name": "421d25ed0394fd5345ff74775e044e3a", "fusion_lon": 0.0, "lat": 38.9290015, "is_reserved": 0, "type": "electric_scooter", "bike_id": "421d25ed0394fd5345ff74775e044e3a", "is_disabled": 0, "rental_uris": {"android": "https://dc.lft.to/lastmile_qr_scan", "ios": "https://dc.lft.to/lastmile_qr_scan"}, "lon": -77.0326595, "fusion_lat": 0.0}, {"name": "32f4fb5832427cde664c8defbd3c7d10", "fusion_lon": 0.0, "lat": 38.89389033333333, "is_reserved": 0, "type": "electric_scooter", "bike_id": "32f4fb5832427cde664c8defbd3c7d10", "is_disabled": 0, "rental_uris": {"android": "https://dc.lft.to/lastmile_qr_scan", "ios": "https://dc.lft.to/lastmile_qr_scan"}, "lon": -77.03173983333333, "fusion_lat": 0.0}, {"name": "906743ee60276389d67896328577e829", "fusion_lon": 0.0, "lat": 38.92467633333333, "is_reserved": 0, "type": "electric_scooter", "bike_id": "906743ee60276389d67896328577e829", "is_disabled": 0, "rental_uris": {"android": "https://dc.lft.to/lastmile_qr_scan", "ios": "https://dc.lft.to/lastmile_qr_scan"}, "lon": -77.04001233333334, "fusion_lat": 0.0}, {"name": "813b596e12afa7c92b95cd079163213d", "fusion_lon": 0.0, "lat": 38.89469916666667, "is_reserved": 0, "type": "electric_scooter", "bike_id": "813b596e12afa7c92b95cd079163213d", "is_disabled": 0, "rental_uris": {"android": "https://dc.lft.to/lastmile_qr_scan", "ios": "https://dc.lft.to/lastmile_qr_scan"}, "lon": -77.02814316666667, "fusion_lat": 0.0}, {"name": "f15a5420e355f810be4142fd1b6e26c9", "fusion_lon": 0.0, "lat": 38.905416833333334, "is_reserved": 0, "type": "electric_scooter", "bike_id": "f15a5420e355f810be4142fd1b6e26c9", "is_disabled": 0, "rental_uris": {"android": "https://dc.lft.to/lastmile_qr_scan", "ios": "https://dc.lft.to/lastmile_qr_scan"}, "lon": -76.98107866666666, "fusion_lat": 0.0}, {"name": "6373b0598673044478351a1f580b6ac1", "fusion_lon": 0.0, "lat": 38.86060616666666, "is_reserved": 0, "type": "electric_scooter", "bike_id": "6373b0598673044478351a1f580b6ac1", "is_disabled": 0, "rental_uris": {"android": "https://dc.lft.to/lastmile_qr_scan", "ios": "https://dc.lft.to/lastmile_qr_scan"}, "lon": -76.98418716666667, "fusion_lat": 0.0}, {"name": "b492c4c16a4b0806b2d1da86269d212a", "fusion_lon": 0.0, "lat": 38.874558, "is_reserved": 0, "type": "electric_scooter", "bike_id": "b492c4c16a4b0806b2d1da86269d212a", "is_disabled": 0, "rental_uris": {"android": "https://dc.lft.to/lastmile_qr_scan", "ios": "https://dc.lft.to/lastmile_qr_scan"}, "lon": -77.003243, "fusion_lat": 0.0}, {"name": "ae9b54a7972e0b842442285befa275ea", "fusion_lon": 0.0, "lat": 38.8987435, "is_reserved": 0, "type": "electric_scooter", "bike_id": "ae9b54a7972e0b842442285befa275ea", "is_disabled": 0, "rental_uris": {"android": "https://dc.lft.to/lastmile_qr_scan", "ios": "https://dc.lft.to/lastmile_qr_scan"}, "lon": -76.9318915, "fusion_lat": 0.0}, {"name": "a7d7c34d807ad7a5c2b73caa1b126d14", "fusion_lon": 0.0, "lat": 38.920834666666664, "is_reserved": 0, "type": "electric_scooter", "bike_id": "a7d7c34d807ad7a5c2b73caa1b126d14", "is_disabled": 0, "rental_uris": {"android": "https://dc.lft.to/lastmile_qr_scan", "ios": "https://dc.lft.to/lastmile_qr_scan"}, "lon": -77.02397483333333, "fusion_lat": 0.0}, {"name": "def336e6eeadd78b2a013473efe47e0b", "fusion_lon": 0.0, "lat": 38.9021525, "is_reserved": 0, "type": "electric_scooter", "bike_id": "def336e6eeadd78b2a013473efe47e0b", "is_disabled": 0, "rental_uris": {"android": "https://dc.lft.to/lastmile_qr_scan", "ios": "https://dc.lft.to/lastmile_qr_scan"}, "lon": -77.02172466666667, "fusion_lat": 0.0}, {"name": "87c92aba6a7aebacb1a18ba54a8083b3", "fusion_lon": 0.0, "lat": 38.881422666666666, "is_reserved": 0, "type": "electric_scooter", "bike_id": "87c92aba6a7aebacb1a18ba54a8083b3", "is_disabled": 0, "rental_uris": {"android": "https://dc.lft.to/lastmile_qr_scan", "ios": "https://dc.lft.to/lastmile_qr_scan"}, "lon": -77.013343, "fusion_lat": 0.0}, {"name": "ae0445c60aa18f02ff5b6b1048055a2c", "fusion_lon": 0.0, "lat": 38.870595333333334, "is_reserved": 0, "type": "electric_scooter", "bike_id": "ae0445c60aa18f02ff5b6b1048055a2c", "is_disabled": 0, "rental_uris": {"android": "https://dc.lft.to/lastmile_qr_scan", "ios": "https://dc.lft.to/lastmile_qr_scan"}, "lon": -76.98088716666666, "fusion_lat": 0.0}, {"name": "d5b3e7f6927c52e1ef9665656e14d2eb", "fusion_lon": 0.0, "lat": 38.837883166666664, "is_reserved": 0, "type": "electric_bike", "bike_id": "d5b3e7f6927c52e1ef9665656e14d2eb", "is_disabled": 0, "rental_uris": {"android": "https://dc.lft.to/lastmile_qr_scan", "ios": "https://dc.lft.to/lastmile_qr_scan"}, "lon": -76.99750716666667, "fusion_lat": 0.0}, {"name": "f487e3a95ff7e41c18dc88b7e012e80b", "fusion_lon": 0.0, "lat": 38.90374516666667, "is_reserved": 0, "type": "electric_bike", "bike_id": "f487e3a95ff7e41c18dc88b7e012e80b", "is_disabled": 0, "rental_uris": {"android": "https://dc.lft.to/lastmile_qr_scan", "ios": "https://dc.lft.to/lastmile_qr_scan"}, "lon": -77.03016616666666, "fusion_lat": 0.0}, {"name": "8c18e918282bd83bac4740e09503c71e", "fusion_lon": 0.0, "lat": 38.9008545, "is_reserved": 0, "type": "electric_scooter", "bike_id": "8c18e918282bd83bac4740e09503c71e", "is_disabled": 0, "rental_uris": {"android": "https://dc.lft.to/lastmile_qr_scan", "ios": "https://dc.lft.to/lastmile_qr_scan"}, "lon": -77.030582, "fusion_lat": 0.0}, {"name": "b07f211a167fb783d15267d3c40670f9", "fusion_lon": 0.0, "lat": 38.91322666666667, "is_reserved": 0, "type": "electric_scooter", "bike_id": "b07f211a167fb783d15267d3c40670f9", "is_disabled": 0, "rental_uris": {"android": "https://dc.lft.to/lastmile_qr_scan", "ios": "https://dc.lft.to/lastmile_qr_scan"}, "lon": -76.98499866666667, "fusion_lat": 0.0}, {"name": "a28901374061b4248eb66b620c53c0bb", "fusion_lon": 0.0, "lat": 38.924574166666666, "is_reserved": 0, "type": "electric_bike", "bike_id": "a28901374061b4248eb66b620c53c0bb", "is_disabled": 0, "rental_uris": {"android": "https://dc.lft.to/lastmile_qr_scan", "ios": "https://dc.lft.to/lastmile_qr_scan"}, "lon": -77.22564916666667, "fusion_lat": 0.0}, {"name": "9feb9279c28615833d9eba990d97e564", "fusion_lon": 0.0, "lat": 38.96107033333333, "is_reserved": 0, "type": "electric_bike", "bike_id": "9feb9279c28615833d9eba990d97e564", "is_disabled": 0, "rental_uris": {"android": "https://dc.lft.to/lastmile_qr_scan", "ios": "https://dc.lft.to/lastmile_qr_scan"}, "lon": -77.06939266666667, "fusion_lat": 0.0}, {"name": "70434162a2b67f2aa473c85d98d0bf4a", "fusion_lon": 0.0, "lat": 38.912061, "is_reserved": 0, "type": "electric_scooter", "bike_id": "70434162a2b67f2aa473c85d98d0bf4a", "is_disabled": 0, "rental_uris": {"android": "https://dc.lft.to/lastmile_qr_scan", "ios": "https://dc.lft.to/lastmile_qr_scan"}, "lon": -77.0189995, "fusion_lat": 0.0}, {"name": "be1896a047be18f6096b726c4158f272", "fusion_lon": 0.0, "lat": 38.885045, "is_reserved": 0, "type": "electric_scooter", "bike_id": "be1896a047be18f6096b726c4158f272", "is_disabled": 0, "rental_uris": {"android": "https://dc.lft.to/lastmile_qr_scan", "ios": "https://dc.lft.to/lastmile_qr_scan"}, "lon": -77.008807, "fusion_lat": 0.0}, {"name": "7447e6b88a7fe182faaaae3b8cb8a114", "fusion_lon": 0.0, "lat": 38.900709166666665, "is_reserved": 0, "type": "electric_scooter", "bike_id": "7447e6b88a7fe182faaaae3b8cb8a114", "is_disabled": 0, "rental_uris": {"android": "https://dc.lft.to/lastmile_qr_scan", "ios": "https://dc.lft.to/lastmile_qr_scan"}, "lon": -76.92750483333333, "fusion_lat": 0.0}, {"name": "7ff1c176f5a7ed02c54b60fd3d6d50e9", "fusion_lon": 0.0, "lat": 38.917754333333335, "is_reserved": 0, "type": "electric_scooter", "bike_id": "7ff1c176f5a7ed02c54b60fd3d6d50e9", "is_disabled": 0, "rental_uris": {"android": "https://dc.lft.to/lastmile_qr_scan", "ios": "https://dc.lft.to/lastmile_qr_scan"}, "lon": -77.041721, "fusion_lat": 0.0}, {"name": "41edf1217a7b5074fcec44bc49c58840", "fusion_lon": 0.0, "lat": 38.94499783333333, "is_reserved": 0, "type": "electric_scooter", "bike_id": "41edf1217a7b5074fcec44bc49c58840", "is_disabled": 0, "rental_uris": {"android": "https://dc.lft.to/lastmile_qr_scan", "ios": "https://dc.lft.to/lastmile_qr_scan"}, "lon": -77.0349825, "fusion_lat": 0.0}, {"name": "167f04e7ec943820272918dc2beb7ea9", "fusion_lon": 0.0, "lat": 38.922008, "is_reserved": 0, "type": "electric_bike", "bike_id": "167f04e7ec943820272918dc2beb7ea9", "is_disabled": 0, "rental_uris": {"android": "https://dc.lft.to/lastmile_qr_scan", "ios": "https://dc.lft.to/lastmile_qr_scan"}, "lon": -77.0820355, "fusion_lat": 0.0}, {"name": "df38c8abd1245a084d3a103ea521a778", "fusion_lon": 0.0, "lat": 38.940978, "is_reserved": 0, "type": "electric_bike", "bike_id": "df38c8abd1245a084d3a103ea521a778", "is_disabled": 0, "rental_uris": {"android": "https://dc.lft.to/lastmile_qr_scan", "ios": "https://dc.lft.to/lastmile_qr_scan"}, "lon": -77.032839, "fusion_lat": 0.0}, {"name": "a39700a724a4eaed9b0ddf2f55226823", "fusion_lon": 0.0, "lat": 38.90094966666667, "is_reserved": 0, "type": "electric_scooter", "bike_id": "a39700a724a4eaed9b0ddf2f55226823", "is_disabled": 0, "rental_uris": {"android": "https://dc.lft.to/lastmile_qr_scan", "ios": "https://dc.lft.to/lastmile_qr_scan"}, "lon": -76.9303525, "fusion_lat": 0.0}, {"name": "27443905a3fbccf0d3591a017c83a66a", "fusion_lon": 0.0, "lat": 38.901674666666665, "is_reserved": 0, "type": "electric_scooter", "bike_id": "27443905a3fbccf0d3591a017c83a66a", "is_disabled": 0, "rental_uris": {"android": "https://dc.lft.to/lastmile_qr_scan", "ios": "https://dc.lft.to/lastmile_qr_scan"}, "lon": -77.05051883333333, "fusion_lat": 0.0}, {"name": "590fee5b8f9a77129ab0786c9a81536a", "fusion_lon": 0.0, "lat": 38.92251366666667, "is_reserved": 0, "type": "electric_scooter", "bike_id": "590fee5b8f9a77129ab0786c9a81536a", "is_disabled": 0, "rental_uris": {"android": "https://dc.lft.to/lastmile_qr_scan", "ios": "https://dc.lft.to/lastmile_qr_scan"}, "lon": -77.02981133333333, "fusion_lat": 0.0}, {"name": "ef63181af335c5c26ebd91398e047584", "fusion_lon": 0.0, "lat": 38.887206, "is_reserved": 0, "type": "electric_scooter", "bike_id": "ef63181af335c5c26ebd91398e047584", "is_disabled": 0, "rental_uris": {"android": "https://dc.lft.to/lastmile_qr_scan", "ios": "https://dc.lft.to/lastmile_qr_scan"}, "lon": -77.01776183333334, "fusion_lat": 0.0}, {"name": "296d19b903909733506b46a9618adce3", "fusion_lon": 0.0, "lat": 38.90439966666667, "is_reserved": 0, "type": "electric_scooter", "bike_id": "296d19b903909733506b46a9618adce3", "is_disabled": 0, "rental_uris": {"android": "https://dc.lft.to/lastmile_qr_scan", "ios": "https://dc.lft.to/lastmile_qr_scan"}, "lon": -77.02524966666667, "fusion_lat": 0.0}, {"name": "8430a43cc521a1bcabb1fe9811850045", "fusion_lon": 0.0, "lat": 38.90218766666667, "is_reserved": 0, "type": "electric_scooter", "bike_id": "8430a43cc521a1bcabb1fe9811850045", "is_disabled": 0, "rental_uris": {"android": "https://dc.lft.to/lastmile_qr_scan", "ios": "https://dc.lft.to/lastmile_qr_scan"}, "lon": -77.024428, "fusion_lat": 0.0}, {"name": "d92ae67f307a53877814b5a0f3d054cd", "fusion_lon": 0.0, "lat": 38.9225165, "is_reserved": 0, "type": "electric_scooter", "bike_id": "d92ae67f307a53877814b5a0f3d054cd", "is_disabled": 0, "rental_uris": {"android": "https://dc.lft.to/lastmile_qr_scan", "ios": "https://dc.lft.to/lastmile_qr_scan"}, "lon": -77.04286833333333, "fusion_lat": 0.0}, {"name": "2bf430eb6f7900509aa230cd7f780afa", "fusion_lon": 0.0, "lat": 38.91923716666667, "is_reserved": 0, "type": "electric_scooter", "bike_id": "2bf430eb6f7900509aa230cd7f780afa", "is_disabled": 0, "rental_uris": {"android": "https://dc.lft.to/lastmile_qr_scan", "ios": "https://dc.lft.to/lastmile_qr_scan"}, "lon": -77.024988, "fusion_lat": 0.0}, {"name": "ba9672155af97fe7c97268414a3fbdc5", "fusion_lon": 0.0, "lat": 38.952297333333334, "is_reserved": 0, "type": "electric_scooter", "bike_id": "ba9672155af97fe7c97268414a3fbdc5", "is_disabled": 0, "rental_uris": {"android": "https://dc.lft.to/lastmile_qr_scan", "ios": "https://dc.lft.to/lastmile_qr_scan"}, "lon": -77.01424133333333, "fusion_lat": 0.0}, {"name": "5aafada5505e2fe09c22161fe21de786", "fusion_lon": 0.0, "lat": 38.926681, "is_reserved": 0, "type": "electric_scooter", "bike_id": "5aafada5505e2fe09c22161fe21de786", "is_disabled": 0, "rental_uris": {"android": "https://dc.lft.to/lastmile_qr_scan", "ios": "https://dc.lft.to/lastmile_qr_scan"}, "lon": -77.03045283333333, "fusion_lat": 0.0}, {"name": "8aa9314586325f552d49abf411b91cd1", "fusion_lon": 0.0, "lat": 38.9065635, "is_reserved": 0, "type": "electric_scooter", "bike_id": "8aa9314586325f552d49abf411b91cd1", "is_disabled": 0, "rental_uris": {"android": "https://dc.lft.to/lastmile_qr_scan", "ios": "https://dc.lft.to/lastmile_qr_scan"}, "lon": -77.03385016666667, "fusion_lat": 0.0}, {"name": "c91bc0104424adcecd2e225445b8a3a5", "fusion_lon": 0.0, "lat": 38.93036383333333, "is_reserved": 0, "type": "electric_scooter", "bike_id": "c91bc0104424adcecd2e225445b8a3a5", "is_disabled": 0, "rental_uris": {"android": "https://dc.lft.to/lastmile_qr_scan", "ios": "https://dc.lft.to/lastmile_qr_scan"}, "lon": -77.013043, "fusion_lat": 0.0}, {"name": "342ee49e1a2f376e6b1b7690b78fdd1c", "fusion_lon": 0.0, "lat": 38.90030383333333, "is_reserved": 0, "type": "electric_scooter", "bike_id": "342ee49e1a2f376e6b1b7690b78fdd1c", "is_disabled": 0, "rental_uris": {"android": "https://dc.lft.to/lastmile_qr_scan", "ios": "https://dc.lft.to/lastmile_qr_scan"}, "lon": -77.01203316666667, "fusion_lat": 0.0}, {"name": "c5bf59ababa1cdcfa486bd42cc737cba", "fusion_lon": 0.0, "lat": 38.91484533333333, "is_reserved": 0, "type": "electric_scooter", "bike_id": "c5bf59ababa1cdcfa486bd42cc737cba", "is_disabled": 0, "rental_uris": {"android": "https://dc.lft.to/lastmile_qr_scan", "ios": "https://dc.lft.to/lastmile_qr_scan"}, "lon": -77.025459, "fusion_lat": 0.0}, {"name": "1ccb4b0ef5fe21bd522553cbeead453a", "fusion_lon": 0.0, "lat": 38.93072933333333, "is_reserved": 0, "type": "electric_scooter", "bike_id": "1ccb4b0ef5fe21bd522553cbeead453a", "is_disabled": 0, "rental_uris": {"android": "https://dc.lft.to/lastmile_qr_scan", "ios": "https://dc.lft.to/lastmile_qr_scan"}, "lon": -77.0216855, "fusion_lat": 0.0}, {"name": "6b7529160206de6c2bd3e58cfa9fdbb9", "fusion_lon": 0.0, "lat": 38.879474333333334, "is_reserved": 0, "type": "electric_scooter", "bike_id": "6b7529160206de6c2bd3e58cfa9fdbb9", "is_disabled": 0, "rental_uris": {"android": "https://dc.lft.to/lastmile_qr_scan", "ios": "https://dc.lft.to/lastmile_qr_scan"}, "lon": -77.00907533333333, "fusion_lat": 0.0}, {"name": "022fe1eb6f40767bf12305148b07ec05", "fusion_lon": 0.0, "lat": 38.957091, "is_reserved": 0, "type": "electric_scooter", "bike_id": "022fe1eb6f40767bf12305148b07ec05", "is_disabled": 0, "rental_uris": {"android": "https://dc.lft.to/lastmile_qr_scan", "ios": "https://dc.lft.to/lastmile_qr_scan"}, "lon": -77.02399016666666, "fusion_lat": 0.0}, {"name": "3c4a1582f0a00244bf6560b5ddec1d68", "fusion_lon": 0.0, "lat": 38.90831983333333, "is_reserved": 0, "type": "electric_scooter", "bike_id": "3c4a1582f0a00244bf6560b5ddec1d68", "is_disabled": 0, "rental_uris": {"android": "https://dc.lft.to/lastmile_qr_scan", "ios": "https://dc.lft.to/lastmile_qr_scan"}, "lon": -77.00905133333333, "fusion_lat": 0.0}, {"name": "855b6ed72d161c489cb2488cb20c2d5e", "fusion_lon": 0.0, "lat": 38.8669875, "is_reserved": 0, "type": "electric_scooter", "bike_id": "855b6ed72d161c489cb2488cb20c2d5e", "is_disabled": 0, "rental_uris": {"android": "https://dc.lft.to/lastmile_qr_scan", "ios": "https://dc.lft.to/lastmile_qr_scan"}, "lon": -76.98717766666667, "fusion_lat": 0.0}, {"name": "22af1bd67249d4fcf201ee29f6d9d3a9", "fusion_lon": 0.0, "lat": 38.898765833333336, "is_reserved": 0, "type": "electric_scooter", "bike_id": "22af1bd67249d4fcf201ee29f6d9d3a9", "is_disabled": 0, "rental_uris": {"android": "https://dc.lft.to/lastmile_qr_scan", "ios": "https://dc.lft.to/lastmile_qr_scan"}, "lon": -77.0328105, "fusion_lat": 0.0}, {"name": "d0bb88fe6be36e57acfe166bd7a874b0", "fusion_lon": 0.0, "lat": 38.87648883333333, "is_reserved": 0, "type": "electric_scooter", "bike_id": "d0bb88fe6be36e57acfe166bd7a874b0", "is_disabled": 0, "rental_uris": {"android": "https://dc.lft.to/lastmile_qr_scan", "ios": "https://dc.lft.to/lastmile_qr_scan"}, "lon": -77.0057855, "fusion_lat": 0.0}, {"name": "036ef590e5e3c9d1799d24a2ec7ea2e2", "fusion_lon": 0.0, "lat": 38.9166005, "is_reserved": 0, "type": "electric_scooter", "bike_id": "036ef590e5e3c9d1799d24a2ec7ea2e2", "is_disabled": 0, "rental_uris": {"android": "https://dc.lft.to/lastmile_qr_scan", "ios": "https://dc.lft.to/lastmile_qr_scan"}, "lon": -77.0297215, "fusion_lat": 0.0}, {"name": "fbb34b3087797425622a5ca5e23b60df", "fusion_lon": 0.0, "lat": 38.95693383333333, "is_reserved": 0, "type": "electric_scooter", "bike_id": "fbb34b3087797425622a5ca5e23b60df", "is_disabled": 0, "rental_uris": {"android": "https://dc.lft.to/lastmile_qr_scan", "ios": "https://dc.lft.to/lastmile_qr_scan"}, "lon": -77.022342, "fusion_lat": 0.0}, {"name": "dce7974176a3e582c5c8224851c2a3a4", "fusion_lon": 0.0, "lat": 38.920109, "is_reserved": 0, "type": "electric_scooter", "bike_id": "dce7974176a3e582c5c8224851c2a3a4", "is_disabled": 0, "rental_uris": {"android": "https://dc.lft.to/lastmile_qr_scan", "ios": "https://dc.lft.to/lastmile_qr_scan"}, "lon": -77.03880166666667, "fusion_lat": 0.0}, {"name": "a442c432f2f9a40b4cbd919f27e45af3", "fusion_lon": 0.0, "lat": 38.80016116666667, "is_reserved": 0, "type": "electric_bike", "bike_id": "a442c432f2f9a40b4cbd919f27e45af3", "is_disabled": 0, "rental_uris": {"android": "https://dc.lft.to/lastmile_qr_scan", "ios": "https://dc.lft.to/lastmile_qr_scan"}, "lon": -77.05485266666666, "fusion_lat": 0.0}, {"name": "602037266fe5c110eab804c168915763", "fusion_lon": 0.0, "lat": 38.911903333333335, "is_reserved": 0, "type": "electric_scooter", "bike_id": "602037266fe5c110eab804c168915763", "is_disabled": 0, "rental_uris": {"android": "https://dc.lft.to/lastmile_qr_scan", "ios": "https://dc.lft.to/lastmile_qr_scan"}, "lon": -77.04328233333334, "fusion_lat": 0.0}, {"name": "4ea2b9e20f3b124a0186dc33e47cff21", "fusion_lon": 0.0, "lat": 38.87733216666667, "is_reserved": 0, "type": "electric_bike", "bike_id": "4ea2b9e20f3b124a0186dc33e47cff21", "is_disabled": 0, "rental_uris": {"android": "https://dc.lft.to/lastmile_qr_scan", "ios": "https://dc.lft.to/lastmile_qr_scan"}, "lon": -77.11855316666667, "fusion_lat": 0.0}, {"name": "0b9a319f8456662df65d1becb8fbf91c", "fusion_lon": 0.0, "lat": 38.949164333333336, "is_reserved": 0, "type": "electric_bike", "bike_id": "0b9a319f8456662df65d1becb8fbf91c", "is_disabled": 0, "rental_uris": {"android": "https://dc.lft.to/lastmile_qr_scan", "ios": "https://dc.lft.to/lastmile_qr_scan"}, "lon": -77.00796216666667, "fusion_lat": 0.0}, {"name": "78b8aeb72d26ba123a99a57096cb5728", "fusion_lon": 0.0, "lat": 38.90884166666667, "is_reserved": 0, "type": "electric_scooter", "bike_id": "78b8aeb72d26ba123a99a57096cb5728", "is_disabled": 0, "rental_uris": {"android": "https://dc.lft.to/lastmile_qr_scan", "ios": "https://dc.lft.to/lastmile_qr_scan"}, "lon": -77.04420266666666, "fusion_lat": 0.0}, {"name": "e643887c236697e09b273883198f583e", "fusion_lon": 0.0, "lat": 38.92363683333333, "is_reserved": 0, "type": "electric_scooter", "bike_id": "e643887c236697e09b273883198f583e", "is_disabled": 0, "rental_uris": {"android": "https://dc.lft.to/lastmile_qr_scan", "ios": "https://dc.lft.to/lastmile_qr_scan"}, "lon": -77.04251033333334, "fusion_lat": 0.0}, {"name": "043f118b3b405d838f1c104aa923c4aa", "fusion_lon": 0.0, "lat": 38.87662016666667, "is_reserved": 0, "type": "electric_scooter", "bike_id": "043f118b3b405d838f1c104aa923c4aa", "is_disabled": 0, "rental_uris": {"android": "https://dc.lft.to/lastmile_qr_scan", "ios": "https://dc.lft.to/lastmile_qr_scan"}, "lon": -77.01825883333333, "fusion_lat": 0.0}, {"name": "2eeac49d6678939a53ed26c6416aa45c", "fusion_lon": 0.0, "lat": 38.90281133333333, "is_reserved": 0, "type": "electric_scooter", "bike_id": "2eeac49d6678939a53ed26c6416aa45c", "is_disabled": 0, "rental_uris": {"android": "https://dc.lft.to/lastmile_qr_scan", "ios": "https://dc.lft.to/lastmile_qr_scan"}, "lon": -77.03927216666666, "fusion_lat": 0.0}, {"name": "63e9dbd3c57155fa18a43b39af274218", "fusion_lon": 0.0, "lat": 38.9032185, "is_reserved": 0, "type": "electric_bike", "bike_id": "63e9dbd3c57155fa18a43b39af274218", "is_disabled": 0, "rental_uris": {"android": "https://dc.lft.to/lastmile_qr_scan", "ios": "https://dc.lft.to/lastmile_qr_scan"}, "lon": -76.9730345, "fusion_lat": 0.0}, {"name": "b76c0b22af4c015c706449dc098b22d8", "fusion_lon": 0.0, "lat": 38.904411333333336, "is_reserved": 0, "type": "electric_scooter", "bike_id": "b76c0b22af4c015c706449dc098b22d8", "is_disabled": 0, "rental_uris": {"android": "https://dc.lft.to/lastmile_qr_scan", "ios": "https://dc.lft.to/lastmile_qr_scan"}, "lon": -77.030964, "fusion_lat": 0.0}, {"name": "9e93543d8faa958debc487a036d09e49", "fusion_lon": 0.0, "lat": 38.91799266666666, "is_reserved": 0, "type": "electric_scooter", "bike_id": "9e93543d8faa958debc487a036d09e49", "is_disabled": 0, "rental_uris": {"android": "https://dc.lft.to/lastmile_qr_scan", "ios": "https://dc.lft.to/lastmile_qr_scan"}, "lon": -77.03447183333333, "fusion_lat": 0.0}, {"name": "55d72bb27155c8fa546381e70a4144f6", "fusion_lon": 0.0, "lat": 38.9033005, "is_reserved": 0, "type": "electric_scooter", "bike_id": "55d72bb27155c8fa546381e70a4144f6", "is_disabled": 0, "rental_uris": {"android": "https://dc.lft.to/lastmile_qr_scan", "ios": "https://dc.lft.to/lastmile_qr_scan"}, "lon": -77.0161225, "fusion_lat": 0.0}, {"name": "6706d9ab0bbcecf580c9499abf9fcf5a", "fusion_lon": 0.0, "lat": 38.919307333333336, "is_reserved": 0, "type": "electric_bike", "bike_id": "6706d9ab0bbcecf580c9499abf9fcf5a", "is_disabled": 0, "rental_uris": {"android": "https://dc.lft.to/lastmile_qr_scan", "ios": "https://dc.lft.to/lastmile_qr_scan"}, "lon": -77.07377333333334, "fusion_lat": 0.0}, {"name": "1b8b1ddd92473009409a8dee506abe92", "fusion_lon": 0.0, "lat": 38.91689083333333, "is_reserved": 0, "type": "electric_scooter", "bike_id": "1b8b1ddd92473009409a8dee506abe92", "is_disabled": 0, "rental_uris": {"android": "https://dc.lft.to/lastmile_qr_scan", "ios": "https://dc.lft.to/lastmile_qr_scan"}, "lon": -77.0235055, "fusion_lat": 0.0}, {"name": "40d37125a5aa84227dbf5763b198bba9", "fusion_lon": 0.0, "lat": 38.92349766666667, "is_reserved": 0, "type": "electric_scooter", "bike_id": "40d37125a5aa84227dbf5763b198bba9", "is_disabled": 0, "rental_uris": {"android": "https://dc.lft.to/lastmile_qr_scan", "ios": "https://dc.lft.to/lastmile_qr_scan"}, "lon": -77.05084433333333, "fusion_lat": 0.0}, {"name": "8c8a1c7c0039a4b36af44b41943ed5af", "fusion_lon": 0.0, "lat": 38.91781533333333, "is_reserved": 0, "type": "electric_scooter", "bike_id": "8c8a1c7c0039a4b36af44b41943ed5af", "is_disabled": 0, "rental_uris": {"android": "https://dc.lft.to/lastmile_qr_scan", "ios": "https://dc.lft.to/lastmile_qr_scan"}, "lon": -77.01793383333333, "fusion_lat": 0.0}, {"name": "1ebf7d4b21932b39ee64a8b0169f28ab", "fusion_lon": 0.0, "lat": 38.9110375, "is_reserved": 0, "type": "electric_scooter", "bike_id": "1ebf7d4b21932b39ee64a8b0169f28ab", "is_disabled": 0, "rental_uris": {"android": "https://dc.lft.to/lastmile_qr_scan", "ios": "https://dc.lft.to/lastmile_qr_scan"}, "lon": -77.0481205, "fusion_lat": 0.0}, {"name": "fc0619fad383a211b7fb991a1fad4d7d", "fusion_lon": 0.0, "lat": 38.892302, "is_reserved": 0, "type": "electric_scooter", "bike_id": "fc0619fad383a211b7fb991a1fad4d7d", "is_disabled": 0, "rental_uris": {"android": "https://dc.lft.to/lastmile_qr_scan", "ios": "https://dc.lft.to/lastmile_qr_scan"}, "lon": -77.04335733333333, "fusion_lat": 0.0}, {"name": "8c17c4aaba19cc471d7d27edd1da1ff5", "fusion_lon": 0.0, "lat": 38.88264, "is_reserved": 0, "type": "electric_scooter", "bike_id": "8c17c4aaba19cc471d7d27edd1da1ff5", "is_disabled": 0, "rental_uris": {"android": "https://dc.lft.to/lastmile_qr_scan", "ios": "https://dc.lft.to/lastmile_qr_scan"}, "lon": -77.008665, "fusion_lat": 0.0}, {"name": "ac828e5c10c7806615e28a3b578e65f0", "fusion_lon": 0.0, "lat": 38.932318, "is_reserved": 0, "type": "electric_scooter", "bike_id": "ac828e5c10c7806615e28a3b578e65f0", "is_disabled": 0, "rental_uris": {"android": "https://dc.lft.to/lastmile_qr_scan", "ios": "https://dc.lft.to/lastmile_qr_scan"}, "lon": -77.03872633333333, "fusion_lat": 0.0}, {"name": "e685af208874f3393145c74183f16f39", "fusion_lon": 0.0, "lat": 38.90087883333333, "is_reserved": 0, "type": "electric_scooter", "bike_id": "e685af208874f3393145c74183f16f39", "is_disabled": 0, "rental_uris": {"android": "https://dc.lft.to/lastmile_qr_scan", "ios": "https://dc.lft.to/lastmile_qr_scan"}, "lon": -77.04767283333334, "fusion_lat": 0.0}, {"name": "21a998935302ff373151685699066990", "fusion_lon": 0.0, "lat": 38.93089416666667, "is_reserved": 0, "type": "electric_scooter", "bike_id": "21a998935302ff373151685699066990", "is_disabled": 0, "rental_uris": {"android": "https://dc.lft.to/lastmile_qr_scan", "ios": "https://dc.lft.to/lastmile_qr_scan"}, "lon": -77.02542966666667, "fusion_lat": 0.0},