{"data": {"bikes": [{"rental_uris": {"android": "https://dc.lft.to/lastmile_qr_scan", "ios": "https://dc.lft.to/lastmile_qr_scan"}, "lon": -76.99274916666667, "name": "d92bd41160d8c468fbc5d0ad5c6c5b05", "fusion_lon": 0.0, "bike_id": "d92bd41160d8c468fbc5d0ad5c6c5b05", "is_reserved": 0, "type": "electric_scooter", "lat": 38.88350883333333, "fusion_lat": 0.0, "is_disabled": 0}, {"rental_uris": {"android": "https://dc.lft.to/lastmile_qr_scan", "ios": "https://dc.lft.to/lastmile_qr_scan"}, "lon": -77.06324266666667, "name": "1de986c547da9982ff0b95481c75d59b", "fusion_lon": 0.0, "bike_id": "1de986c547da9982ff0b95481c75d59b", "is_reserved": 0, "type": "electric_scooter", "lat": 38.944150666666665, "fusion_lat": 0.0, "is_disabled": 0}, {"rental_uris": {"android": "https://dc.lft.to/lastmile_qr_scan", "ios": "https://dc.lft.to/lastmile_qr_scan"}, "lon": -77.03246583333333, "name": "428764ed580489eafbc081066c809949", "fusion_lon": 0.0, "bike_id": "428764ed580489eafbc081066c809949", "is_reserved": 0, "type": "electric_scooter", "lat": 38.901363333333336, "fusion_lat": 0.0, "is_disabled": 0}, {"rental_uris": {"android": "https://dc.lft.to/lastmile_qr_scan", "ios": "https://dc.lft.to/lastmile_qr_scan"}, "lon": -77.02581133333334, "name": "67b8c0251d8e3e0bd78752b3a3370c89", "fusion_lon": 0.0, "bike_id": "67b8c0251d8e3e0bd78752b3a3370c89", "is_reserved": 0, "type": "electric_scooter", "lat": 38.904446166666666, "fusion_lat": 0.0, "is_disabled": 0}, {"rental_uris": {"android": "https://dc.lft.to/lastmile_qr_scan", "ios": "https://dc.lft.to/lastmile_qr_scan"}, "lon": -77.0219975, "name": "fa71ccc98015d06a0d3de9779a6011de", "fusion_lon": 0.0, "bike_id": "fa71ccc98015d06a0d3de9779a6011de", "is_reserved": 0, "type": "electric_scooter", "lat": 38.911243666666664, "fusion_lat": 0.0, "is_disabled": 0}, {"rental_uris": {"android": "https://dc.lft.to/lastmile_qr_scan", "ios": "https://dc.lft.to/lastmile_qr_scan"}, "lon": -77.03442183333334, "name": "da6596472d3691631ad3169b9e466523", "fusion_lon": 0.0, "bike_id": "da6596472d3691631ad3169b9e466523", "is_reserved": 0, "type": "electric_scooter", "lat": 38.910247166666664, "fusion_lat": 0.0, "is_disabled": 0}, {"rental_uris": {"android": "https://dc.lft.to/lastmile_qr_scan", "ios": "https://dc.lft.to/lastmile_qr_scan"}, "lon": -76.98212416666667, "name": "4f4c54d5904dc8dbc530aa2b0f06dd85", "fusion_lon": 0.0, "bike_id": "4f4c54d5904dc8dbc530aa2b0f06dd85", "is_reserved": 0, "type": "electric_scooter", "lat": 38.85709966666667, "fusion_lat": 0.0, "is_disabled": 0}, {"rental_uris": {"android": "https://dc.lft.to/lastmile_qr_scan", "ios": "https://dc.lft.to/lastmile_qr_scan"}, "lon": -77.029416, "name": "765223bfb9cfcdf568947d180aeed59d", "fusion_lon": 0.0, "bike_id": "765223bfb9cfcdf568947d180aeed59d", "is_reserved": 0, "type": "electric_scooter", "lat": 38.904960833333334, "fusion_lat": 0.0, "is_disabled": 0}, {"rental_uris": {"android": "https://dc.lft.to/lastmile_qr_scan", "ios": "https://dc.lft.to/lastmile_qr_scan"}, "lon": -77.02480616666666, "name": "78a07fbde684ffc56d404acc3812ab6c", "fusion_lon": 0.0, "bike_id": "78a07fbde684ffc56d404acc3812ab6c", "is_reserved": 0, "type": "electric_scooter", "lat": 38.897431166666664, "fusion_lat": 0.0, "is_disabled": 0}, {"rental_uris": {"android": "https://dc.lft.to/lastmile_qr_scan", "ios": "https://dc.lft.to/lastmile_qr_scan"}, "lon": -77.033003, "name": "03177a7ecea54aa55eef17522947b6ff", "fusion_lon": 0.0, "bike_id": "03177a7ecea54aa55eef17522947b6ff", "is_reserved": 0, "type": "electric_scooter", "lat": 38.91808866666667, "fusion_lat": 0.0, "is_disabled": 0}, {"rental_uris": {"android": "https://dc.lft.to/lastmile_qr_scan", "ios": "https://dc.lft.to/lastmile_qr_scan"}, "lon": -77.04821833333334, "name": "9ae2e396ad49480a4be2f260889dc32d", "fusion_lon": 0.0, "bike_id": "9ae2e396ad49480a4be2f260889dc32d", "is_reserved": 0, "type": "electric_scooter", "lat": 38.92040016666667, "fusion_lat": 0.0, "is_disabled": 0}, {"rental_uris": {"android": "https://dc.lft.to/lastmile_qr_scan", "ios": "https://dc.lft.to/lastmile_qr_scan"}, "lon": -77.07269216666667, "name": "270c83c0eeb915dd47051d42b6fc0d47", "fusion_lon": 0.0, "bike_id": "270c83c0eeb915dd47051d42b6fc0d47", "is_reserved": 0, "type": "electric_scooter", "lat": 38.93537933333333, "fusion_lat": 0.0, "is_disabled": 0}, {"rental_uris": {"android": "https://dc.lft.to/lastmile_qr_scan", "ios": "https://dc.lft.to/lastmile_qr_scan"}, "lon": -77.046964, "name": "189a84d9e7ca16e852c549f5b9c252bb", "fusion_lon": 0.0, "bike_id": "189a84d9e7ca16e852c549f5b9c252bb", "is_reserved": 0, "type": "electric_scooter", "lat": 38.922616, "fusion_lat": 0.0, "is_disabled": 0}, {"rental_uris": {"android": "https://dc.lft.to/lastmile_qr_scan", "ios": "https://dc.lft.to/lastmile_qr_scan"}, "lon": -76.924192, "name": "eefe7dd89a848900c95f2030f9a73e4e", "fusion_lon": 0.0, "bike_id": "eefe7dd89a848900c95f2030f9a73e4e", "is_reserved": 0, "type": "electric_scooter", "lat": 38.883747166666666, "fusion_lat": 0.0, "is_disabled": 0}, {"rental_uris": {"android": "https://dc.lft.to/lastmile_qr_scan", "ios": "https://dc.lft.to/lastmile_qr_scan"}, "lon": -77.04654333333333, "name": "d2c1378af03ba293acd60a9d53c01503", "fusion_lon": 0.0, "bike_id": "d2c1378af03ba293acd60a9d53c01503", "is_reserved": 0, "type": "electric_scooter", "lat": 38.90004866666666, "fusion_lat": 0.0, "is_disabled": 0}, {"rental_uris": {"android": "https://dc.lft.to/lastmile_qr_scan", "ios": "https://dc.lft.to/lastmile_qr_scan"}, "lon": -77.02893816666666, "name": "5edd1bbe1c792369a3fca6a322de114f", "fusion_lon": 0.0, "bike_id": "5edd1bbe1c792369a3fca6a322de114f", "is_reserved": 0, "type": "electric_scooter", "lat": 38.917131, "fusion_lat": 0.0, "is_disabled": 0}, {"rental_uris": {"android": "https://dc.lft.to/lastmile_qr_scan", "ios": "https://dc.lft.to/lastmile_qr_scan"}, "lon": -77.02579083333333, "name": "5143eb5d4427970c1802b89582485958", "fusion_lon": 0.0, "bike_id": "5143eb5d4427970c1802b89582485958", "is_reserved": 0, "type": "electric_scooter", "lat": 38.92692066666667, "fusion_lat": 0.0, "is_disabled": 0}, {"rental_uris": {"android": "https://dc.lft.to/lastmile_qr_scan", "ios": "https://dc.lft.to/lastmile_qr_scan"}, "lon": -76.98750983333333, "name": "05851bb6689c24f36cf738720ec641fd", "fusion_lon": 0.0, "bike_id": "05851bb6689c24f36cf738720ec641fd", "is_reserved": 0, "type": "electric_scooter", "lat": 38.8784575, "fusion_lat": 0.0, "is_disabled": 0}, {"rental_uris": {"android": "https://dc.lft.to/lastmile_qr_scan", "ios": "https://dc.lft.to/lastmile_qr_scan"}, "lon": -77.02992983333333, "name": "bd6241653ef4f3506f66ede3ff4c2596", "fusion_lon": 0.0, "bike_id": "bd6241653ef4f3506f66ede3ff4c2596", "is_reserved": 0, "type": "electric_scooter", "lat": 38.917032666666664, "fusion_lat": 0.0, "is_disabled": 0}, {"rental_uris": {"android": "https://dc.lft.to/lastmile_qr_scan", "ios": "https://dc.lft.to/lastmile_qr_scan"}, "lon": -77.0208925, "name": "daf248ae2718363f53bb07a17db110cd", "fusion_lon": 0.0, "bike_id": "daf248ae2718363f53bb07a17db110cd", "is_reserved": 0, "type": "electric_scooter", "lat": 38.915450666666665, "fusion_lat": 0.0, "is_disabled": 0}, {"rental_uris": {"android": "https://dc.lft.to/lastmile_qr_scan", "ios": "https://dc.lft.to/lastmile_qr_scan"}, "lon": -76.9385475, "name": "7daddfe060668b3d889002bdebf6687b", "fusion_lon": 0.0, "bike_id": "7daddfe060668b3d889002bdebf6687b", "is_reserved": 0, "type": "electric_scooter", "lat": 38.899665666666664, "fusion_lat": 0.0, "is_disabled": 0}, {"rental_uris": {"android": "https://dc.lft.to/lastmile_qr_scan", "ios": "https://dc.lft.to/lastmile_qr_scan"}, "lon": -77.03656483333333, "name": "e3ddfcd0c0df9da56a12c2897466ffb6", "fusion_lon": 0.0, "bike_id": "e3ddfcd0c0df9da56a12c2897466ffb6", "is_reserved": 0, "type": "electric_scooter", "lat": 38.9301945, "fusion_lat": 0.0, "is_disabled": 0}, {"rental_uris": {"android": "https://dc.lft.to/lastmile_qr_scan", "ios": "https://dc.lft.to/lastmile_qr_scan"}, "lon": -77.009126, "name": "3d10ce56a1d0546898f2c04264362818", "fusion_lon": 0.0, "bike_id": "3d10ce56a1d0546898f2c04264362818", "is_reserved": 0, "type": "electric_scooter", "lat": 38.957545333333336, "fusion_lat": 0.0, "is_disabled": 0}, {"rental_uris": {"android": "https://dc.lft.to/lastmile_qr_scan", "ios": "https://dc.lft.to/lastmile_qr_scan"}, "lon": -77.06627816666666, "name": "2331e154e8dac76de362d386bd7fb20b", "fusion_lon": 0.0, "bike_id": "2331e154e8dac76de362d386bd7fb20b", "is_reserved": 0, "type": "electric_scooter", "lat": 38.91180683333333, "fusion_lat": 0.0, "is_disabled": 0}, {"rental_uris": {"android": "https://dc.lft.to/lastmile_qr_scan", "ios": "https://dc.lft.to/lastmile_qr_scan"}, "lon": -77.0266885, "name": "d95b462afbf7389120bb2c3d68bcc36c", "fusion_lon": 0.0, "bike_id": "d95b462afbf7389120bb2c3d68bcc36c", "is_reserved": 0, "type": "electric_scooter", "lat": 38.921731666666666, "fusion_lat": 0.0, "is_disabled": 0}, {"rental_uris": {"android": "https://dc.lft.to/lastmile_qr_scan", "ios": "https://dc.lft.to/lastmile_qr_scan"}, "lon": -77.02211166666666, "name": "799f279bdaf6c25d2c67e3cfb997ae5b", "fusion_lon": 0.0, "bike_id": "799f279bdaf6c25d2c67e3cfb997ae5b", "is_reserved": 0, "type": "electric_scooter", "lat": 38.912562333333334, "fusion_lat": 0.0, "is_disabled": 0}, {"rental_uris": {"android": "https://dc.lft.to/lastmile_qr_scan", "ios": "https://dc.lft.to/lastmile_qr_scan"}, "lon": -76.99316833333333, "name": "13e2565e2dd5800ad5d3539be2faf144", "fusion_lon": 0.0, "bike_id": "13e2565e2dd5800ad5d3539be2faf144", "is_reserved": 0, "type": "electric_scooter", "lat": 38.8765695, "fusion_lat": 0.0, "is_disabled": 0}, {"rental_uris": {"android": "https://dc.lft.to/lastmile_qr_scan", "ios": "https://dc.lft.to/lastmile_qr_scan"}, "lon": -77.02640316666667, "name": "46c32ba0d20eea1ddf20984093fde573", "fusion_lon": 0.0, "bike_id": "46c32ba0d20eea1ddf20984093fde573", "is_reserved": 0, "type": "electric_scooter", "lat": 38.982259666666664, "fusion_lat": 0.0, "is_disabled": 0}, {"rental_uris": {"android": "https://dc.lft.to/lastmile_qr_scan", "ios": "https://dc.lft.to/lastmile_qr_scan"}, "lon": -76.99674483333334, "name": "d8c62c535b6d6f978c8a161c942ae582", "fusion_lon": 0.0, "bike_id": "d8c62c535b6d6f978c8a161c942ae582", "is_reserved": 0, "type": "electric_scooter", "lat": 38.8851305, "fusion_lat": 0.0, "is_disabled": 0}, {"rental_uris": {"android": "https://dc.lft.to/lastmile_qr_scan", "ios": "https://dc.lft.to/lastmile_qr_scan"}, "lon": -77.0632315, "name": "a5a5550145b5dafcd106de72e728cede", "fusion_lon": 0.0, "bike_id": "a5a5550145b5dafcd106de72e728cede", "is_reserved": 0, "type": "electric_scooter", "lat": 38.944132, "fusion_lat": 0.0, "is_disabled": 0}, {"rental_uris": {"android": "https://dc.lft.to/lastmile_qr_scan", "ios": "https://dc.lft.to/lastmile_qr_scan"}, "lon": -77.031873, "name": "08b531e4be1bdecae769919e34eb0511", "fusion_lon": 0.0, "bike_id": "08b531e4be1bdecae769919e34eb0511", "is_reserved": 0, "type": "electric_scooter", "lat": 38.8873235, "fusion_lat": 0.0, "is_disabled": 0}, {"rental_uris": {"android": "https://dc.lft.to/lastmile_qr_scan", "ios": "https://dc.lft.to/lastmile_qr_scan"}, "lon": -77.03180033333334, "name": "d6a8d9cde247da06642250af0bb94abf", "fusion_lon": 0.0, "bike_id": "d6a8d9cde247da06642250af0bb94abf", "is_reserved": 0, "type": "electric_scooter", "lat": 38.916884833333334, "fusion_lat": 0.0, "is_disabled": 0}, {"rental_uris": {"android": "https://dc.lft.to/lastmile_qr_scan", "ios": "https://dc.lft.to/lastmile_qr_scan"}, "lon": -77.02165466666666, "name": "ecb83ce49c28ebec831d6a09e9992165", "fusion_lon": 0.0, "bike_id": "ecb83ce49c28ebec831d6a09e9992165", "is_reserved": 0, "type": "electric_scooter", "lat": 38.924984333333335, "fusion_lat": 0.0, "is_disabled": 0}, {"rental_uris": {"android": "https://dc.lft.to/lastmile_qr_scan", "ios": "https://dc.lft.to/lastmile_qr_scan"}, "lon": -77.02964066666667, "name": "cbb18887f2356b288e224af0e9f32a56", "fusion_lon": 0.0, "bike_id": "cbb18887f2356b288e224af0e9f32a56", "is_reserved": 0, "type": "electric_scooter", "lat": 38.91718183333333, "fusion_lat": 0.0, "is_disabled": 0}, {"rental_uris": {"android": "https://dc.lft.to/lastmile_qr_scan", "ios": "https://dc.lft.to/lastmile_qr_scan"}, "lon": -77.073493, "name": "63ba67520ba0983173208783fbde64a5", "fusion_lon": 0.0, "bike_id": "63ba67520ba0983173208783fbde64a5", "is_reserved": 0, "type": "electric_scooter", "lat": 38.91103283333333, "fusion_lat": 0.0, "is_disabled": 0}, {"rental_uris": {"android": "https://dc.lft.to/lastmile_qr_scan", "ios": "https://dc.lft.to/lastmile_qr_scan"}, "lon": -77.01225966666667, "name": "8085175697f535cdaf806395076222a2", "fusion_lon": 0.0, "bike_id": "8085175697f535cdaf806395076222a2", "is_reserved": 0, "type": "electric_scooter", "lat": 38.90030733333333, "fusion_lat": 0.0, "is_disabled": 0}, {"rental_uris": {"android": "https://dc.lft.to/lastmile_qr_scan", "ios": "https://dc.lft.to/lastmile_qr_scan"}, "lon": -77.046158, "name": "cdeb368bb9b49d12e70834f97457aa7e", "fusion_lon": 0.0, "bike_id": "cdeb368bb9b49d12e70834f97457aa7e", "is_reserved": 0, "type": "electric_scooter", "lat": 38.898005166666664, "fusion_lat": 0.0, "is_disabled": 0}, {"rental_uris": {"android": "https://dc.lft.to/lastmile_qr_scan", "ios": "https://dc.lft.to/lastmile_qr_scan"}, "lon": -77.041358, "name": "06676cd228febc550911a9f30064dd03", "fusion_lon": 0.0, "bike_id": "06676cd228febc550911a9f30064dd03", "is_reserved": 0, "type": "electric_scooter", "lat": 38.9346825, "fusion_lat": 0.0, "is_disabled": 0}, {"rental_uris": {"android": "https://dc.lft.to/lastmile_qr_scan", "ios": "https://dc.lft.to/lastmile_qr_scan"}, "lon": -76.98749583333333, "name": "38fb2617600714ec24d6ee0e63dd038f", "fusion_lon": 0.0, "bike_id": "38fb2617600714ec24d6ee0e63dd038f", "is_reserved": 0, "type": "electric_bike", "lat": 38.844596833333334, "fusion_lat": 0.0, "is_disabled": 0}, {"rental_uris": {"android": "https://dc.lft.to/lastmile_qr_scan", "ios": "https://dc.lft.to/lastmile_qr_scan"}, "lon": -77.07235016666667, "name": "aec1111a683be0faf802cbf9653d5451", "fusion_lon": 0.0, "bike_id": "aec1111a683be0faf802cbf9653d5451", "is_reserved": 0, "type": "electric_scooter", "lat": 38.93958816666667, "fusion_lat": 0.0, "is_disabled": 0}, {"rental_uris": {"android": "https://dc.lft.to/lastmile_qr_scan", "ios": "https://dc.lft.to/lastmile_qr_scan"}, "lon": -77.05169766666667, "name": "f6556083e93d4943986960ce1d8b06c4", "fusion_lon": 0.0, "bike_id": "f6556083e93d4943986960ce1d8b06c4", "is_reserved": 0, "type": "electric_scooter", "lat": 38.896910166666665, "fusion_lat": 0.0, "is_disabled": 0}, {"rental_uris": {"android": "https://dc.lft.to/lastmile_qr_scan", "ios": "https://dc.lft.to/lastmile_qr_scan"}, "lon": -76.98004366666666, "name": "2e768ba6e4bcff3b4b9ade2abb6854f9", "fusion_lon": 0.0, "bike_id": "2e768ba6e4bcff3b4b9ade2abb6854f9", "is_reserved": 0, "type": "electric_scooter", "lat": 38.900953666666666, "fusion_lat": 0.0, "is_disabled": 0}, {"rental_uris": {"android": "https://dc.lft.to/lastmile_qr_scan", "ios": "https://dc.lft.to/lastmile_qr_scan"}, "lon": -77.00608683333333, "name": "8def1f6cfe4adf6df55b4efba7735cdd", "fusion_lon": 0.0, "bike_id": "8def1f6cfe4adf6df55b4efba7735cdd", "is_reserved": 0, "type": "electric_scooter", "lat": 38.871763666666666, "fusion_lat": 0.0, "is_disabled": 0}, {"rental_uris": {"android": "https://dc.lft.to/lastmile_qr_scan", "ios": "https://dc.lft.to/lastmile_qr_scan"}, "lon": -77.02330533333334, "name": "df745641754cae0c221fe875032ce7d1", "fusion_lon": 0.0, "bike_id": "df745641754cae0c221fe875032ce7d1", "is_reserved": 0, "type": "electric_scooter", "lat": 38.922312, "fusion_lat": 0.0, "is_disabled": 0}, {"rental_uris": {"android": "https://dc.lft.to/lastmile_qr_scan", "ios": "https://dc.lft.to/lastmile_qr_scan"}, "lon": -77.03759233333334, "name": "8bb7314d4170edde86c6eab69de0037a", "fusion_lon": 0.0, "bike_id": "8bb7314d4170edde86c6eab69de0037a", "is_reserved": 0, "type": "electric_scooter", "lat": 38.90780783333334, "fusion_lat": 0.0, "is_disabled": 0}, {"rental_uris": {"android": "https://dc.lft.to/lastmile_qr_scan", "ios": "https://dc.lft.to/lastmile_qr_scan"}, "lon": -77.01905066666667, "name": "2d9a8ed2fd7a3dd47251158d71374568", "fusion_lon": 0.0, "bike_id": "2d9a8ed2fd7a3dd47251158d71374568", "is_reserved": 0, "type": "electric_scooter", "lat": 38.914138666666666, "fusion_lat": 0.0, "is_disabled": 0}, {"rental_uris": {"android": "https://dc.lft.to/lastmile_qr_scan", "ios": "https://dc.lft.to/lastmile_qr_scan"}, "lon": -77.02286416666666, "name": "23adcbb09f8c5e7ca4bddd9d072eb3c6", "fusion_lon": 0.0, "bike_id": "23adcbb09f8c5e7ca4bddd9d072eb3c6", "is_reserved": 0, "type": "electric_scooter", "lat": 38.90152666666667, "fusion_lat": 0.0, "is_disabled": 0}, {"rental_uris": {"android": "https://dc.lft.to/lastmile_qr_scan", "ios": "https://dc.lft.to/lastmile_qr_scan"}, "lon": -76.93728566666667, "name": "4f65f7f49d1f1ef12dc7ccbc2d4dcb36", "fusion_lon": 0.0, "bike_id": "4f65f7f49d1f1ef12dc7ccbc2d4dcb36", "is_reserved": 0, "type": "electric_scooter", "lat": 38.890121, "fusion_lat": 0.0, "is_disabled": 0}, {"rental_uris": {"android": "https://dc.lft.to/lastmile_qr_scan", "ios": "https://dc.lft.to/lastmile_qr_scan"}, "lon": -76.99460383333333, "name": "3a87be42674eff9ecc3fb23707fcda6f", "fusion_lon": 0.0, "bike_id": "3a87be42674eff9ecc3fb23707fcda6f", "is_reserved": 0, "type": "electric_scooter", "lat": 38.862216, "fusion_lat": 0.0, "is_disabled": 0}, {"rental_uris": {"android": "https://dc.lft.to/lastmile_qr_scan", "ios": "https://dc.lft.to/lastmile_qr_scan"}, "lon": -77.01225133333334, "name": "2ebc8a3cf4aef88983a28fbb562cbbd0", "fusion_lon": 0.0, "bike_id": "2ebc8a3cf4aef88983a28fbb562cbbd0", "is_reserved": 0, "type": "electric_bike", "lat": 38.901407166666665, "fusion_lat": 0.0, "is_disabled": 0}, {"rental_uris": {"android": "https://dc.lft.to/lastmile_qr_scan", "ios": "https://dc.lft.to/lastmile_qr_scan"}, "lon": -77.003344, "name": "3eff27c0dc3679d63564e44008b7a749", "fusion_lon": 0.0, "bike_id": "3eff27c0dc3679d63564e44008b7a749", "is_reserved": 0, "type": "electric_scooter", "lat": 38.88987366666667, "fusion_lat": 0.0, "is_disabled": 0}, {"rental_uris": {"android": "https://dc.lft.to/lastmile_qr_scan", "ios": "https://dc.lft.to/lastmile_qr_scan"}, "lon": -77.04405916666667, "name": "b9a393913c3539098ba05da4fb7d9dd3", "fusion_lon": 0.0, "bike_id": "b9a393913c3539098ba05da4fb7d9dd3", "is_reserved": 0, "type": "electric_scooter", "lat": 38.89603366666667, "fusion_lat": 0.0, "is_disabled": 0}, {"rental_uris": {"android": "https://dc.lft.to/lastmile_qr_scan", "ios": "https://dc.lft.to/lastmile_qr_scan"}, "lon": -77.03801183333333, "name": "bd915ca2885424a2e7d8f48786fe2351", "fusion_lon": 0.0, "bike_id": "bd915ca2885424a2e7d8f48786fe2351", "is_reserved": 0, "type": "electric_scooter", "lat": 38.906678, "fusion_lat": 0.0, "is_disabled": 0}, {"rental_uris": {"android": "https://dc.lft.to/lastmile_qr_scan", "ios": "https://dc.lft.to/lastmile_qr_scan"}, "lon": -76.99013616666667, "name": "406ac1805f0820e402329ea79fd0aca9", "fusion_lon": 0.0, "bike_id": "406ac1805f0820e402329ea79fd0aca9", "is_reserved": 0, "type": "electric_scooter", "lat": 38.882707, "fusion_lat": 0.0, "is_disabled": 0}, {"rental_uris": {"android": "https://dc.lft.to/lastmile_qr_scan", "ios": "https://dc.lft.to/lastmile_qr_scan"}, "lon": -77.03278583333334, "name": "290a911e2f0f869fe304a34a1458eb23", "fusion_lon": 0.0, "bike_id": "290a911e2f0f869fe304a34a1458eb23", "is_reserved": 0, "type": "electric_scooter", "lat": 38.93252233333333, "fusion_lat": 0.0, "is_disabled": 0}, {"rental_uris": {"android": "https://dc.lft.to/lastmile_qr_scan", "ios": "https://dc.lft.to/lastmile_qr_scan"}, "lon": -77.03328216666667, "name": "2790e6a9881272fc055652375fb34772", "fusion_lon": 0.0, "bike_id": "2790e6a9881272fc055652375fb34772", "is_reserved": 0, "type": "electric_scooter", "lat": 38.90235233333333, "fusion_lat": 0.0, "is_disabled": 0}, {"rental_uris": {"android": "https://dc.lft.to/lastmile_qr_scan", "ios": "https://dc.lft.to/lastmile_qr_scan"}, "lon": -77.04128216666666, "name": "6c1214bf083e5738b9743683e458a7f0", "fusion_lon": 0.0, "bike_id": "6c1214bf083e5738b9743683e458a7f0", "is_reserved": 0, "type": "electric_scooter", "lat": 38.92524483333333, "fusion_lat": 0.0, "is_disabled": 0}, {"rental_uris": {"android": "https://dc.lft.to/lastmile_qr_scan", "ios": "https://dc.lft.to/lastmile_qr_scan"}, "lon": -76.957668, "name": "b54c2ffea3c01201944c15c62f018f6e", "fusion_lon": 0.0, "bike_id": "b54c2ffea3c01201944c15c62f018f6e", "is_reserved": 0, "type": "electric_scooter", "lat": 38.884399333333334, "fusion_lat": 0.0, "is_disabled": 0}, {"rental_uris": {"android": "https://dc.lft.to/lastmile_qr_scan", "ios": "https://dc.lft.to/lastmile_qr_scan"}, "lon": -77.025154, "name": "550f3898d18ad44dcbe1498b783f6ea0", "fusion_lon": 0.0, "bike_id": "550f3898d18ad44dcbe1498b783f6ea0", "is_reserved": 0, "type": "electric_scooter", "lat": 38.920741166666666, "fusion_lat": 0.0, "is_disabled": 0}, {"rental_uris": {"android": "https://dc.lft.to/lastmile_qr_scan", "ios": "https://dc.lft.to/lastmile_qr_scan"}, "lon": -77.00873116666666, "name": "dab3693546ed6fa782229a82d8920134", "fusion_lon": 0.0, "bike_id": "dab3693546ed6fa782229a82d8920134", "is_reserved": 0, "type": "electric_scooter", "lat": 38.88377633333333, "fusion_lat": 0.0, "is_disabled": 0}, {"rental_uris": {"android": "https://dc.lft.to/lastmile_qr_scan", "ios": "https://dc.lft.to/lastmile_qr_scan"}, "lon": -77.030803, "name": "8c20d0dc3079f2aa7bfb2f1875ef1689", "fusion_lon": 0.0, "bike_id": "8c20d0dc3079f2aa7bfb2f1875ef1689", "is_reserved": 0, "type": "electric_scooter", "lat": 38.922517166666665, "fusion_lat": 0.0, "is_disabled": 0}, {"rental_uris": {"android": "https://dc.lft.to/lastmile_qr_scan", "ios": "https://dc.lft.to/lastmile_qr_scan"}, "lon": -77.07151566666667, "name": "4d92ad9a96549223d7149beaf4ba02b8", "fusion_lon": 0.0, "bike_id": "4d92ad9a96549223d7149beaf4ba02b8", "is_reserved": 0, "type": "electric_scooter", "lat": 38.908728833333335, "fusion_lat": 0.0, "is_disabled": 0}, {"rental_uris": {"android": "https://dc.lft.to/lastmile_qr_scan", "ios": "https://dc.lft.to/lastmile_qr_scan"}, "lon": -77.02134016666666, "name": "6d2420a23534228f327fd48d32cd2c3f", "fusion_lon": 0.0, "bike_id": "6d2420a23534228f327fd48d32cd2c3f", "is_reserved": 0, "type": "electric_scooter", "lat": 38.92487333333333, "fusion_lat": 0.0, "is_disabled": 0}, {"rental_uris": {"android": "https://dc.lft.to/lastmile_qr_scan", "ios": "https://dc.lft.to/lastmile_qr_scan"}, "lon": -77.022512, "name": "0836ee1829fe7f850f0c28003971faf4", "fusion_lon": 0.0, "bike_id": "0836ee1829fe7f850f0c28003971faf4", "is_reserved": 0, "type": "electric_scooter", "lat": 38.912693166666664, "fusion_lat": 0.0, "is_disabled": 0}, {"rental_uris": {"android": "https://dc.lft.to/lastmile_qr_scan", "ios": "https://dc.lft.to/lastmile_qr_scan"}, "lon": -77.04359, "name": "abc5f337ffecc6c7ff5bf82c8b40ec05", "fusion_lon": 0.0, "bike_id": "abc5f337ffecc6c7ff5bf82c8b40ec05", "is_reserved": 0, "type": "electric_scooter", "lat": 38.9051195, "fusion_lat": 0.0, "is_disabled": 0}, {"rental_uris": {"android": "https://dc.lft.to/lastmile_qr_scan", "ios": "https://dc.lft.to/lastmile_qr_scan"}, "lon": -77.01797333333333, "name": "52574f7b17e78cecf620b858611ea042", "fusion_lon": 0.0, "bike_id": "52574f7b17e78cecf620b858611ea042", "is_reserved": 0, "type": "electric_scooter", "lat": 38.92139183333333, "fusion_lat": 0.0, "is_disabled": 0}, {"rental_uris": {"android": "https://dc.lft.to/lastmile_qr_scan", "ios": "https://dc.lft.to/lastmile_qr_scan"}, "lon": -77.01026783333333, "name": "3691da529020de3a41e229fe373c81dc", "fusion_lon": 0.0, "bike_id": "3691da529020de3a41e229fe373c81dc", "is_reserved": 0, "type": "electric_scooter", "lat": 38.87936533333333, "fusion_lat": 0.0, "is_disabled": 0}, {"rental_uris": {"android": "https://dc.lft.to/lastmile_qr_scan", "ios": "https://dc.lft.to/lastmile_qr_scan"}, "lon": -77.04677233333334, "name": "cd38ea3170556bfe48d49c048ab52d13", "fusion_lon": 0.0, "bike_id": "cd38ea3170556bfe48d49c048ab52d13", "is_reserved": 0, "type": "electric_scooter", "lat": 38.89509483333333, "fusion_lat": 0.0, "is_disabled": 0}, {"rental_uris": {"android": "https://dc.lft.to/lastmile_qr_scan", "ios": "https://dc.lft.to/lastmile_qr_scan"}, "lon": -77.04659183333334, "name": "4eb1f8741899b8dbe016b32e7b0b3762", "fusion_lon": 0.0, "bike_id": "4eb1f8741899b8dbe016b32e7b0b3762", "is_reserved": 0, "type": "electric_scooter", "lat": 38.894708666666666, "fusion_lat": 0.0, "is_disabled": 0}, {"rental_uris": {"android": "https://dc.lft.to/lastmile_qr_scan", "ios": "https://dc.lft.to/lastmile_qr_scan"}, "lon": -77.01794183333334, "name": "289153c6f76096a359d664a7f964e267", "fusion_lon": 0.0, "bike_id": "289153c6f76096a359d664a7f964e267", "is_reserved": 0, "type": "electric_scooter", "lat": 38.92136283333333, "fusion_lat": 0.0, "is_disabled": 0}, {"rental_uris": {"android": "https://dc.lft.to/lastmile_qr_scan", "ios": "https://dc.lft.to/lastmile_qr_scan"}, "lon": -77.02519116666667, "name": "ac8dd48a41636cd8af8989a315a937e2", "fusion_lon": 0.0, "bike_id": "ac8dd48a41636cd8af8989a315a937e2", "is_reserved": 0, "type": "electric_scooter", "lat": 38.921068166666664, "fusion_lat": 0.0, "is_disabled": 0}, {"rental_uris": {"android": "https://dc.lft.to/lastmile_qr_scan", "ios": "https://dc.lft.to/lastmile_qr_scan"}, "lon": -77.02377083333333, "name": "cfd498b96681779db977b9206ba15bfd", "fusion_lon": 0.0, "bike_id": "cfd498b96681779db977b9206ba15bfd", "is_reserved": 0, "type": "electric_scooter", "lat": 38.931006, "fusion_lat": 0.0, "is_disabled": 0}, {"rental_uris": {"android": "https://dc.lft.to/lastmile_qr_scan", "ios": "https://dc.lft.to/lastmile_qr_scan"}, "lon": -77.04156616666667, "name": "102fa7cc4f5ced233fe8c8fd1c204d2f", "fusion_lon": 0.0, "bike_id": "102fa7cc4f5ced233fe8c8fd1c204d2f", "is_reserved": 0, "type": "electric_scooter", "lat": 38.9142035, "fusion_lat": 0.0, "is_disabled": 0}, {"rental_uris": {"android": "https://dc.lft.to/lastmile_qr_scan", "ios": "https://dc.lft.to/lastmile_qr_scan"}, "lon": -77.0649585, "name": "0d069dae95610e28b86b21fc7f1c0f3c", "fusion_lon": 0.0, "bike_id": "0d069dae95610e28b86b21fc7f1c0f3c", "is_reserved": 0, "type": "electric_scooter", "lat": 38.946440833333334, "fusion_lat": 0.0, "is_disabled": 0}, {"rental_uris": {"android": "https://dc.lft.to/lastmile_qr_scan", "ios": "https://dc.lft.to/lastmile_qr_scan"}, "lon": -77.0328215, "name": "583158e35e05f5482322680631ce70c0", "fusion_lon": 0.0, "bike_id": "583158e35e05f5482322680631ce70c0", "is_reserved": 0, "type": "electric_scooter", "lat": 38.939652, "fusion_lat": 0.0, "is_disabled": 0}, {"rental_uris": {"android": "https://dc.lft.to/lastmile_qr_scan", "ios": "https://dc.lft.to/lastmile_qr_scan"}, "lon": -77.03187483333333, "name": "1553e323b4a7b5fe4bb957122048c5d3", "fusion_lon": 0.0, "bike_id": "1553e323b4a7b5fe4bb957122048c5d3", "is_reserved": 0, "type": "electric_scooter", "lat": 38.91628933333333, "fusion_lat": 0.0, "is_disabled": 0}, {"rental_uris": {"android": "https://dc.lft.to/lastmile_qr_scan", "ios": "https://dc.lft.to/lastmile_qr_scan"}, "lon": -77.04326516666667, "name": "62b0af5af02caaeed30231e929f5635a", "fusion_lon": 0.0, "bike_id": "62b0af5af02caaeed30231e929f5635a", "is_reserved": 0, "type": "electric_scooter", "lat": 38.904926, "fusion_lat": 0.0, "is_disabled": 0}, {"rental_uris": {"android": "https://dc.lft.to/lastmile_qr_scan", "ios": "https://dc.lft.to/lastmile_qr_scan"}, "lon": -77.04651183333333, "name": "d5c9cd404b226cb59b6f38898d1ff5bd", "fusion_lon": 0.0, "bike_id": "d5c9cd404b226cb59b6f38898d1ff5bd", "is_reserved": 0, "type": "electric_scooter", "lat": 38.90110816666667, "fusion_lat": 0.0, "is_disabled": 0}, {"rental_uris": {"android": "https://dc.lft.to/lastmile_qr_scan", "ios": "https://dc.lft.to/lastmile_qr_scan"}, "lon": -77.03939283333334, "name": "788ab4cede31bd6baa09b5ce1b0a8485", "fusion_lon": 0.0, "bike_id": "788ab4cede31bd6baa09b5ce1b0a8485", "is_reserved": 0, "type": "electric_scooter", "lat": 38.930628666666664, "fusion_lat": 0.0, "is_disabled": 0}, {"rental_uris": {"android": "https://dc.lft.to/lastmile_qr_scan", "ios": "https://dc.lft.to/lastmile_qr_scan"}, "lon": -77.05332133333333, "name": "69cf5e9aba660afee7f5bd26ba04c1e1", "fusion_lon": 0.0, "bike_id": "69cf5e9aba660afee7f5bd26ba04c1e1", "is_reserved": 0, "type": "electric_scooter", "lat": 38.906483333333334, "fusion_lat": 0.0, "is_disabled": 0}, {"rental_uris": {"android": "https://dc.lft.to/lastmile_qr_scan", "ios": "https://dc.lft.to/lastmile_qr_scan"}, "lon": -77.03308316666667, "name": "4dbc792426f0454972ca70c8da4bd73d", "fusion_lon": 0.0, "bike_id": "4dbc792426f0454972ca70c8da4bd73d", "is_reserved": 0, "type": "electric_scooter", "lat": 38.91988083333333, "fusion_lat": 0.0, "is_disabled": 0}, {"rental_uris": {"android": "https://dc.lft.to/lastmile_qr_scan", "ios": "https://dc.lft.to/lastmile_qr_scan"}, "lon": -77.0250295, "name": "36a283f7aab326821b73645937ca6883", "fusion_lon": 0.0, "bike_id": "36a283f7aab326821b73645937ca6883", "is_reserved": 0, "type": "electric_scooter", "lat": 38.904137666666664, "fusion_lat": 0.0, "is_disabled": 0}, {"rental_uris": {"android": "https://dc.lft.to/lastmile_qr_scan", "ios": "https://dc.lft.to/lastmile_qr_scan"}, "lon": -77.00750483333333, "name": "5ba28bf994e51b74514fc625af7cb93a", "fusion_lon": 0.0, "bike_id": "5ba28bf994e51b74514fc625af7cb93a", "is_reserved": 0, "type": "electric_bike", "lat": 38.835457, "fusion_lat": 0.0, "is_disabled": 0}, {"rental_uris": {"android": "https://dc.lft.to/lastmile_qr_scan", "ios": "https://dc.lft.to/lastmile_qr_scan"}, "lon": -77.0020135, "name": "57d611181983440ceb207407a37f5c1e", "fusion_lon": 0.0, "bike_id": "57d611181983440ceb207407a37f5c1e", "is_reserved": 0, "type": "electric_scooter", "lat": 38.900299, "fusion_lat": 0.0, "is_disabled": 0}, {"rental_uris": {"android": "https://dc.lft.to/lastmile_qr_scan", "ios": "https://dc.lft.to/lastmile_qr_scan"}, "lon": -77.0319195, "name": "411f42b01a5a0184ecc4b2123cf4bd5c", "fusion_lon": 0.0, "bike_id": "411f42b01a5a0184ecc4b2123cf4bd5c", "is_reserved": 0, "type": "electric_scooter", "lat": 38.90744766666667, "fusion_lat": 0.0, "is_disabled": 0}, {"rental_uris": {"android": "https://dc.lft.to/lastmile_qr_scan", "ios": "https://dc.lft.to/lastmile_qr_scan"}, "lon": -77.07264233333333, "name": "35e5ae0e7493331406522f962c99d7e3", "fusion_lon": 0.0, "bike_id": "35e5ae0e7493331406522f962c99d7e3", "is_reserved": 0, "type": "electric_scooter", "lat": 38.90895, "fusion_lat": 0.0, "is_disabled": 0}, {"rental_uris": {"android": "https://dc.lft.to/lastmile_qr_scan", "ios": "https://dc.lft.to/lastmile_qr_scan"}, "lon": -77.04154183333333, "name": "14085202310930f87a2490cce76645cb", "fusion_lon": 0.0, "bike_id": "14085202310930f87a2490cce76645cb", "is_reserved": 0, "type": "electric_scooter", "lat": 38.9052315, "fusion_lat": 0.0, "is_disabled": 0}, {"rental_uris": {"android": "https://dc.lft.to/lastmile_qr_scan", "ios": "https://dc.lft.to/lastmile_qr_scan"}, "lon": -77.03021433333333, "name": "750be243ffad90c68ae6952fbdcf757c", "fusion_lon": 0.0, "bike_id": "750be243ffad90c68ae6952fbdcf757c", "is_reserved": 0, "type": "electric_scooter", "lat": 38.892243666666666, "fusion_lat": 0.0, "is_disabled": 0}, {"rental_uris": {"android": "https://dc.lft.to/lastmile_qr_scan", "ios": "https://dc.lft.to/lastmile_qr_scan"}, "lon": -76.99976666666667, "name": "b9610f18af15dc29aa0251b1a3b66017", "fusion_lon": 0.0, "bike_id": "b9610f18af15dc29aa0251b1a3b66017", "is_reserved": 0, "type": "electric_scooter", "lat": 38.918073, "fusion_lat": 0.0, "is_disabled": 0}, {"rental_uris": {"android": "https://dc.lft.to/lastmile_qr_scan", "ios": "https://dc.lft.to/lastmile_qr_scan"}, "lon": -76.93361666666667, "name": "29b5a940b41facfe24c967d89b2bc9fd", "fusion_lon": 0.0, "bike_id": "29b5a940b41facfe24c967d89b2bc9fd", "is_reserved": 0, "type": "electric_scooter", "lat": 38.899159166666664, "fusion_lat": 0.0, "is_disabled": 0}, {"rental_uris": {"android": "https://dc.lft.to/lastmile_qr_scan", "ios": "https://dc.lft.to/lastmile_qr_scan"}, "lon": -77.018475, "name": "f3b523b7446d9208fac1396428df54eb", "fusion_lon": 0.0, "bike_id": "f3b523b7446d9208fac1396428df54eb", "is_reserved": 0, "type": "electric_scooter", "lat": 38.903694, "fusion_lat": 0.0, "is_disabled": 0}, {"rental_uris": {"android": "https://dc.lft.to/lastmile_qr_scan", "ios": "https://dc.lft.to/lastmile_qr_scan"}, "lon": -77.00547833333333, "name": "983478a8c184b416de670b6a39bc7fc6", "fusion_lon": 0.0, "bike_id": "983478a8c184b416de670b6a39bc7fc6", "is_reserved": 0, "type": "electric_scooter", "lat": 38.90562366666666, "fusion_lat": 0.0, "is_disabled": 0}, {"rental_uris": {"android": "https://dc.lft.to/lastmile_qr_scan", "ios": "https://dc.lft.to/lastmile_qr_scan"}, "lon": -77.0343785, "name": "4a5d2302eb88e3a2589efae6d4714c59", "fusion_lon": 0.0, "bike_id": "4a5d2302eb88e3a2589efae6d4714c59", "is_reserved": 0, "type": "electric_scooter", "lat": 38.910269166666666, "fusion_lat": 0.0, "is_disabled": 0}, {"rental_uris": {"android": "https://dc.lft.to/lastmile_qr_scan", "ios": "https://dc.lft.to/lastmile_qr_scan"}, "lon": -77.02603983333333, "name": "3363965b8f12469a9819c83383e42fb2", "fusion_lon": 0.0, "bike_id": "3363965b8f12469a9819c83383e42fb2", "is_reserved": 0, "type": "electric_scooter", "lat": 38.918537666666666, "fusion_lat": 0.0, "is_disabled": 0}, {"rental_uris": {"android": "https://dc.lft.to/lastmile_qr_scan", "ios": "https://dc.lft.to/lastmile_qr_scan"}, "lon": -77.04362433333333, "name": "6cf1797b6608acc162ad7fe9e48defdb", "fusion_lon": 0.0, "bike_id": "6cf1797b6608acc162ad7fe9e48defdb", "is_reserved": 0, "type": "electric_scooter", "lat": 38.90578883333333, "fusion_lat": 0.0, "is_disabled": 0}, {"rental_uris": {"android": "https://dc.lft.to/lastmile_qr_scan", "ios": "https://dc.lft.to/lastmile_qr_scan"}, "lon": -76.99793433333333, "name": "24d3e2cfaf14d02f08f5c9cc0acef1b4", "fusion_lon": 0.0, "bike_id": "24d3e2cfaf14d02f08f5c9cc0acef1b4", "is_reserved": 0, "type": "electric_bike", "lat": 38.88124416666667, "fusion_lat": 0.0, "is_disabled": 0}, {"rental_uris": {"android": "https://dc.lft.to/lastmile_qr_scan", "ios": "https://dc.lft.to/lastmile_qr_scan"}, "lon": -77.0144265, "name": "b907c6b7421c3b28a23a09a3e34c2a2f", "fusion_lon": 0.0, "bike_id": "b907c6b7421c3b28a23a09a3e34c2a2f", "is_reserved": 0, "type": "electric_scooter", "lat": 38.91321133333334, "fusion_lat": 0.0, "is_disabled": 0}, {"rental_uris": {"android": "https://dc.lft.to/lastmile_qr_scan", "ios": "https://dc.lft.to/lastmile_qr_scan"}, "lon": -77.0455265, "name": "e8d0af33a5566f0fe23aac64c56d172f", "fusion_lon": 0.0, "bike_id": "e8d0af33a5566f0fe23aac64c56d172f", "is_reserved": 0, "type": "electric_scooter", "lat": 38.924157666666666, "fusion_lat": 0.0, "is_disabled": 0}, {"rental_uris": {"android": "https://dc.lft.to/lastmile_qr_scan", "ios": "https://dc.lft.to/lastmile_qr_scan"}, "lon": -77.02715416666666, "name": "48c40f63a62e0664d4087cb2129560c2", "fusion_lon": 0.0, "bike_id": "48c40f63a62e0664d4087cb2129560c2", "is_reserved": 0, "type": "electric_scooter", "lat": 38.936928, "fusion_lat": 0.0, "is_disabled": 0}, {"rental_uris": {"android": "https://dc.lft.to/lastmile_qr_scan", "ios": "https://dc.lft.to/lastmile_qr_scan"}, "lon": -77.01795866666667, "name": "b261ac4df7384833af0455d689af1669", "fusion_lon": 0.0, "bike_id": "b261ac4df7384833af0455d689af1669", "is_reserved": 0, "type": "electric_scooter", "lat": 38.87661216666667, "fusion_lat": 0.0, "is_disabled": 0}, {"rental_uris": {"android": "https://dc.lft.to/lastmile_qr_scan", "ios": "https://dc.lft.to/lastmile_qr_scan"}, "lon": -77.02194683333333, "name": "f0256324c65f33e202883dae4c95efb2", "fusion_lon": 0.0, "bike_id": "f0256324c65f33e202883dae4c95efb2", "is_reserved": 0, "type": "electric_scooter", "lat": 38.911258, "fusion_lat": 0.0, "is_disabled": 0}, {"rental_uris": {"android": "https://dc.lft.to/lastmile_qr_scan", "ios": "https://dc.lft.to/lastmile_qr_scan"}, "lon": -77.02563983333333, "name": "85d512b44234ab61868802f89903bb31", "fusion_lon": 0.0, "bike_id": "85d512b44234ab61868802f89903bb31", "is_reserved": 0, "type": "electric_scooter", "lat": 38.8974235, "fusion_lat": 0.0, "is_disabled": 0}, {"rental_uris": {"android": "https://dc.lft.to/lastmile_qr_scan", "ios": "https://dc.lft.to/lastmile_qr_scan"}, "lon": -76.98019583333334, "name": "773513f7c501ab82e08cced26dc184b8", "fusion_lon": 0.0, "bike_id": "773513f7c501ab82e08cced26dc184b8", "is_reserved": 0, "type": "electric_scooter", "lat": 38.9066825, "fusion_lat": 0.0, "is_disabled": 0}, {"rental_uris": {"android": "https://dc.lft.to/lastmile_qr_scan", "ios": "https://dc.lft.to/lastmile_qr_scan"}, "lon": -77.03659883333333, "name": "1ef800a9b4d3bf20ee6c3073da9702d6", "fusion_lon": 0.0, "bike_id": "1ef800a9b4d3bf20ee6c3073da9702d6", "is_reserved": 0, "type": "electric_scooter", "lat": 38.922854666666666, "fusion_lat": 0.0, "is_disabled": 0}, {"rental_uris": {"android": "https://dc.lft.to/lastmile_qr_scan", "ios": "https://dc.lft.to/lastmile_qr_scan"}, "lon": -77.03023866666666, "name": "763a073302d2c6e6ff0a6626b2fbdf93", "fusion_lon": 0.0, "bike_id": "763a073302d2c6e6ff0a6626b2fbdf93", "is_reserved": 0, "type": "electric_scooter", "lat": 38.918203166666665, "fusion_lat": 0.0, "is_disabled": 0}, {"rental_uris": {"android": "https://dc.lft.to/lastmile_qr_scan", "ios": "https://dc.lft.to/lastmile_qr_scan"}, "lon": -77.0258455, "name": "a293deddfbae9a757414c7e0de29dafd", "fusion_lon": 0.0, "bike_id": "a293deddfbae9a757414c7e0de29dafd", "is_reserved": 0, "type": "electric_scooter", "lat": 38.90972983333333, "fusion_lat": 0.0, "is_disabled": 0}, {"rental_uris": {"android": "https://dc.lft.to/lastmile_qr_scan", "ios": "https://dc.lft.to/lastmile_qr_scan"}, "lon": -77.02228583333333, "name": "01687608aeb4705598db2331b55d5e77", "fusion_lon": 0.0, "bike_id": "01687608aeb4705598db2331b55d5e77", "is_reserved": 0, "type": "electric_scooter", "lat": 38.892223333333334, "fusion_lat": 0.0, "is_disabled": 0}, {"rental_uris": {"android": "https://dc.lft.to/lastmile_qr_scan", "ios": "https://dc.lft.to/lastmile_qr_scan"}, "lon": -77.02702766666667, "name": "e3634b1fb43798f1543b1fd8452fc254", "fusion_lon": 0.0, "bike_id": "e3634b1fb43798f1543b1fd8452fc254", "is_reserved": 0, "type": "electric_scooter", "lat": 38.906755833333335, "fusion_lat": 0.0, "is_disabled": 0}, {"rental_uris": {"android": "https://dc.lft.to/lastmile_qr_scan", "ios": "https://dc.lft.to/lastmile_qr_scan"}, "lon": -77.04413183333334, "name": "6d32b96c76fd94b1f3b5e5fd59b2c7ec", "fusion_lon": 0.0, "bike_id": "6d32b96c76fd94b1f3b5e5fd59b2c7ec", "is_reserved": 0, "type": "electric_scooter", "lat": 38.896025333333334, "fusion_lat": 0.0, "is_disabled": 0}, {"rental_uris": {"android": "https://dc.lft.to/lastmile_qr_scan", "ios": "https://dc.lft.to/lastmile_qr_scan"}, "lon": -77.0040775, "name": "630d2fdddf009147fadd747e98e863f5", "fusion_lon": 0.0, "bike_id": "630d2fdddf009147fadd747e98e863f5", "is_reserved": 0, "type": "electric_scooter", "lat": 38.929486, "fusion_lat": 0.0, "is_disabled": 0}, {"rental_uris": {"android": "https://dc.lft.to/lastmile_qr_scan", "ios": "https://dc.lft.to/lastmile_qr_scan"}, "lon": -77.02203266666666, "name": "bccf11848178796521ce767cbd6f6fad", "fusion_lon": 0.0, "bike_id": "bccf11848178796521ce767cbd6f6fad", "is_reserved": 0, "type": "electric_scooter", "lat": 38.915483, "fusion_lat": 0.0, "is_disabled": 0}, {"rental_uris": {"android": "https://dc.lft.to/lastmile_qr_scan", "ios": "https://dc.lft.to/lastmile_qr_scan"}, "lon": -77.0269445, "name": "71d9e1e6723eae7d2df5f162fc4830cd", "fusion_lon": 0.0, "bike_id": "71d9e1e6723eae7d2df5f162fc4830cd", "is_reserved": 0, "type": "electric_scooter", "lat": 38.92471466666667, "fusion_lat": 0.0, "is_disabled": 0}, {"rental_uris": {"android": "https://dc.lft.to/lastmile_qr_scan", "ios": "https://dc.lft.to/lastmile_qr_scan"}, "lon": -77.01579416666667, "name": "7e6299c98b82657fe98c7984c54fc5e7", "fusion_lon": 0.0, "bike_id": "7e6299c98b82657fe98c7984c54fc5e7", "is_reserved": 0, "type": "electric_scooter", "lat": 38.88503266666667, "fusion_lat": 0.0, "is_disabled": 0}, {"rental_uris": {"android": "https://dc.lft.to/lastmile_qr_scan", "ios": "https://dc.lft.to/lastmile_qr_scan"}, "lon": -76.92742133333333, "name": "d2bff0473e2e26871af16c76441b4771", "fusion_lon": 0.0, "bike_id": "d2bff0473e2e26871af16c76441b4771", "is_reserved": 0, "type": "electric_scooter", "lat": 38.9006355, "fusion_lat": 0.0, "is_disabled": 0}, {"rental_uris": {"android": "https://dc.lft.to/lastmile_qr_scan", "ios": "https://dc.lft.to/lastmile_qr_scan"}, "lon": -77.03205916666667, "name": "37b541ae68530a30302c717f72599b28", "fusion_lon": 0.0, "bike_id": "37b541ae68530a30302c717f72599b28", "is_reserved": 0, "type": "electric_scooter", "lat": 38.91796466666667, "fusion_lat": 0.0, "is_disabled": 0}, {"rental_uris": {"android": "https://dc.lft.to/lastmile_qr_scan", "ios": "https://dc.lft.to/lastmile_qr_scan"}, "lon": -77.02657016666667, "name": "2c1280e90ebdd8d38bb551cb25389653", "fusion_lon": 0.0, "bike_id": "2c1280e90ebdd8d38bb551cb25389653", "is_reserved": 0, "type": "electric_scooter", "lat": 38.922132500000004, "fusion_lat": 0.0, "is_disabled": 0}, {"rental_uris": {"android": "https://dc.lft.to/lastmile_qr_scan", "ios": "https://dc.lft.to/lastmile_qr_scan"}, "lon": -77.0321485, "name": "e76e8665814a6011a6d8ead54d5e6310", "fusion_lon": 0.0, "bike_id": "e76e8665814a6011a6d8ead54d5e6310", "is_reserved": 0, "type": "electric_scooter", "lat": 38.91794683333333, "fusion_lat": 0.0, "is_disabled": 0}, {"rental_uris": {"android": "https://dc.lft.to/lastmile_qr_scan", "ios": "https://dc.lft.to/lastmile_qr_scan"}, "lon": -77.03585566666666, "name": "a505d5c1e1dc2012d91eadc57ba3cc9c", "fusion_lon": 0.0, "bike_id": "a505d5c1e1dc2012d91eadc57ba3cc9c", "is_reserved": 0, "type": "electric_scooter", "lat": 38.9424295, "fusion_lat": 0.0, "is_disabled": 0}, {"rental_uris": {"android": "https://dc.lft.to/lastmile_qr_scan", "ios": "https://dc.lft.to/lastmile_qr_scan"}, "lon": -77.04278866666667, "name": "70d6c895a88b66607a6a36e911b90a22", "fusion_lon": 0.0, "bike_id": "70d6c895a88b66607a6a36e911b90a22", "is_reserved": 0, "type": "electric_scooter", "lat": 38.922580333333336, "fusion_lat": 0.0, "is_disabled": 0}, {"rental_uris": {"android": "https://dc.lft.to/lastmile_qr_scan", "ios": "https://dc.lft.to/lastmile_qr_scan"}, "lon": -76.9936885, "name": "c5af081b7066580bc50e4bbe1a954ac3", "fusion_lon": 0.0, "bike_id": "c5af081b7066580bc50e4bbe1a954ac3", "is_reserved": 0, "type": "electric_scooter", "lat": 38.91016883333333, "fusion_lat": 0.0, "is_disabled": 0}, {"rental_uris": {"android": "https://dc.lft.to/lastmile_qr_scan", "ios": "https://dc.lft.to/lastmile_qr_scan"}, "lon": -77.0308525, "name": "da91651a2e09989a60efd55fdc156166", "fusion_lon": 0.0, "bike_id": "da91651a2e09989a60efd55fdc156166", "is_reserved": 0, "type": "electric_scooter", "lat": 38.92040033333333, "fusion_lat": 0.0, "is_disabled": 0}, {"rental_uris": {"android": "https://dc.lft.to/lastmile_qr_scan", "ios": "https://dc.lft.to/lastmile_qr_scan"}, "lon": -77.02877116666667, "name": "1984c19ee9e6af8b8431ab72df3793f3", "fusion_lon": 0.0, "bike_id": "1984c19ee9e6af8b8431ab72df3793f3", "is_reserved": 0, "type": "electric_scooter", "lat": 38.926679166666666, "fusion_lat": 0.0, "is_disabled": 0}, {"rental_uris": {"android": "https://dc.lft.to/lastmile_qr_scan", "ios": "https://dc.lft.to/lastmile_qr_scan"}, "lon": -77.022147, "name": "89c989ae4ee21cda321b1236bc6c473e", "fusion_lon": 0.0, "bike_id": "89c989ae4ee21cda321b1236bc6c473e", "is_reserved": 0, "type": "electric_scooter", "lat": 38.8983925, "fusion_lat": 0.0, "is_disabled": 0}, {"rental_uris": {"android": "https://dc.lft.to/lastmile_qr_scan", "ios": "https://dc.lft.to/lastmile_qr_scan"}, "lon": -76.99625066666667, "name": "cce7cb3f14139cc5a2f913c1d38891a0", "fusion_lon": 0.0, "bike_id": "cce7cb3f14139cc5a2f913c1d38891a0", "is_reserved": 0, "type": "electric_scooter", "lat": 38.93224216666667, "fusion_lat": 0.0, "is_disabled": 0}, {"rental_uris": {"android": "https://dc.lft.to/lastmile_qr_scan", "ios": "https://dc.lft.to/lastmile_qr_scan"}, "lon": -77.0203075, "name": "62c1a09bb0712eb86dec8bff96f87322", "fusion_lon": 0.0, "bike_id": "62c1a09bb0712eb86dec8bff96f87322", "is_reserved": 0, "type": "electric_scooter", "lat": 38.922004666666666, "fusion_lat": 0.0, "is_disabled": 0}, {"rental_uris": {"android": "https://dc.lft.to/lastmile_qr_scan", "ios": "https://dc.lft.to/lastmile_qr_scan"}, "lon": -77.00389166666666, "name": "72e5e870da34cfdcb0a602728e118065", "fusion_lon": 0.0, "bike_id": "72e5e870da34cfdcb0a602728e118065", "is_reserved": 0, "type": "electric_scooter", "lat": 38.9085345, "fusion_lat": 0.0, "is_disabled": 0}, {"rental_uris": {"android": "https://dc.lft.to/lastmile_qr_scan", "ios": "https://dc.lft.to/lastmile_qr_scan"}, "lon": -77.03638516666666, "name": "210f52290427a0c1d780cd56be778334", "fusion_lon": 0.0, "bike_id": "210f52290427a0c1d780cd56be778334", "is_reserved": 0, "type": "electric_scooter", "lat": 38.92387133333333, "fusion_lat": 0.0, "is_disabled": 0}, {"rental_uris": {"android": "https://dc.lft.to/lastmile_qr_scan", "ios": "https://dc.lft.to/lastmile_qr_scan"}, "lon": -77.017711, "name": "da897ccc13d1973e0c4af07acd873953", "fusion_lon": 0.0, "bike_id": "da897ccc13d1973e0c4af07acd873953", "is_reserved": 0, "type": "electric_scooter", "lat": 38.900370333333335, "fusion_lat": 0.0, "is_disabled": 0}, {"rental_uris": {"android": "https://dc.lft.to/lastmile_qr_scan", "ios": "https://dc.lft.to/lastmile_qr_scan"}, "lon": -77.023903, "name": "da9d03164b9e6474b8a2c18e146d8d92", "fusion_lon": 0.0, "bike_id": "da9d03164b9e6474b8a2c18e146d8d92", "is_reserved": 0, "type": "electric_scooter", "lat": 38.900429333333335, "fusion_lat": 0.0, "is_disabled": 0}, {"rental_uris": {"android": "https://dc.lft.to/lastmile_qr_scan", "ios": "https://dc.lft.to/lastmile_qr_scan"}, "lon": -77.05030966666666, "name": "3fb5431067be434743422f3059aecfbc", "fusion_lon": 0.0, "bike_id": "3fb5431067be434743422f3059aecfbc", "is_reserved": 0, "type": "electric_scooter", "lat": 38.92364966666667, "fusion_lat": 0.0, "is_disabled": 0}, {"rental_uris": {"android": "https://dc.lft.to/lastmile_qr_scan", "ios": "https://dc.lft.to/lastmile_qr_scan"}, "lon": -77.04176883333334, "name": "7dbb9f719e92d2282a5852a27608ebbe", "fusion_lon": 0.0, "bike_id": "7dbb9f719e92d2282a5852a27608ebbe", "is_reserved": 0, "type": "electric_scooter", "lat": 38.91981083333334, "fusion_lat": 0.0, "is_disabled": 0}, {"rental_uris": {"android": "https://dc.lft.to/lastmile_qr_scan", "ios": "https://dc.lft.to/lastmile_qr_scan"}, "lon": -77.069092, "name": "ba0f016949bbb12b2c9d2283932fa2c5", "fusion_lon": 0.0, "bike_id": "ba0f016949bbb12b2c9d2283932fa2c5", "is_reserved": 0, "type": "electric_scooter", "lat": 38.908180333333334, "fusion_lat": 0.0, "is_disabled": 0}, {"rental_uris": {"android": "https://dc.lft.to/lastmile_qr_scan", "ios": "https://dc.lft.to/lastmile_qr_scan"}, "lon": -76.9990475, "name": "543c58bb6a71caaf1030285b5f4833cd", "fusion_lon": 0.0, "bike_id": "543c58bb6a71caaf1030285b5f4833cd", "is_reserved": 0, "type": "electric_bike", "lat": 38.92779066666667, "fusion_lat": 0.0, "is_disabled": 0}, {"rental_uris": {"android": "https://dc.lft.to/lastmile_qr_scan", "ios": "https://dc.lft.to/lastmile_qr_scan"}, "lon": -76.995018, "name": "57dc6ef931808764aa43269e0071c233", "fusion_lon": 0.0, "bike_id": "57dc6ef931808764aa43269e0071c233", "is_reserved": 0, "type": "electric_scooter", "lat": 38.862474, "fusion_lat": 0.0, "is_disabled": 0}, {"rental_uris": {"android": "https://dc.lft.to/lastmile_qr_scan", "ios": "https://dc.lft.to/lastmile_qr_scan"}, "lon": -77.016204, "name": "cd82b99ddccf1b95ada23943ebef655b", "fusion_lon": 0.0, "bike_id": "cd82b99ddccf1b95ada23943ebef655b", "is_reserved": 0, "type": "electric_scooter", "lat": 38.90688183333333, "fusion_lat": 0.0, "is_disabled": 0}, {"rental_uris": {"android": "https://dc.lft.to/lastmile_qr_scan", "ios": "https://dc.lft.to/lastmile_qr_scan"}, "lon": -77.02271816666666, "name": "533c4e8b779b0a83b3e8661eb35b7b3b", "fusion_lon": 0.0, "bike_id": "533c4e8b779b0a83b3e8661eb35b7b3b", "is_reserved": 0, "type": "electric_scooter", "lat": 38.902290666666666, "fusion_lat": 0.0, "is_disabled": 0}, {"rental_uris": {"android": "https://dc.lft.to/lastmile_qr_scan", "ios": "https://dc.lft.to/lastmile_qr_scan"}, "lon": -77.03171616666667, "name": "654e7c6747a9ab7fc19b670ff0a1eeeb", "fusion_lon": 0.0, "bike_id": "654e7c6747a9ab7fc19b670ff0a1eeeb", "is_reserved": 0, "type": "electric_scooter", "lat": 38.917197333333334, "fusion_lat": 0.0, "is_disabled": 0}, {"rental_uris": {"android": "https://dc.lft.to/lastmile_qr_scan", "ios": "https://dc.lft.to/lastmile_qr_scan"}, "lon": -77.02589433333333, "name": "8e4df62b8ce73a7286fc56b37100a993", "fusion_lon": 0.0, "bike_id": "8e4df62b8ce73a7286fc56b37100a993", "is_reserved": 0, "type": "electric_scooter", "lat": 38.90443666666667, "fusion_lat": 0.0, "is_disabled": 0}, {"rental_uris": {"android": "https://dc.lft.to/lastmile_qr_scan", "ios": "https://dc.lft.to/lastmile_qr_scan"}, "lon": -76.98112083333334, "name": "6be54d05790417d8da4e456eb1cbbbd7", "fusion_lon": 0.0, "bike_id": "6be54d05790417d8da4e456eb1cbbbd7", "is_reserved": 0, "type": "electric_scooter", "lat": 38.904217, "fusion_lat": 0.0, "is_disabled": 0}, {"rental_uris": {"android": "https://dc.lft.to/lastmile_qr_scan", "ios": "https://dc.lft.to/lastmile_qr_scan"}, "lon": -77.02718266666666, "name": "19729d1beaddc9e85d357d25f4923cff", "fusion_lon": 0.0, "bike_id": "19729d1beaddc9e85d357d25f4923cff", "is_reserved": 0, "type": "electric_scooter", "lat": 38.899141666666665, "fusion_lat": 0.0, "is_disabled": 0}, {"rental_uris": {"android": "https://dc.lft.to/lastmile_qr_scan", "ios": "https://dc.lft.to/lastmile_qr_scan"}, "lon": -77.02512333333334, "name": "1d494c826d0016568ae48d28262144f5", "fusion_lon": 0.0, "bike_id": "1d494c826d0016568ae48d28262144f5", "is_reserved": 0, "type": "electric_scooter", "lat": 38.919425, "fusion_lat": 0.0, "is_disabled": 0}, {"rental_uris": {"android": "https://dc.lft.to/lastmile_qr_scan", "ios": "https://dc.lft.to/lastmile_qr_scan"}, "lon": -76.94157266666667, "name": "88b4215e575a3c8060c6df74b3a23b41", "fusion_lon": 0.0, "bike_id": "88b4215e575a3c8060c6df74b3a23b41", "is_reserved": 0, "type": "electric_bike", "lat": 38.908289, "fusion_lat": 0.0, "is_disabled": 0}, {"rental_uris": {"android": "https://dc.lft.to/lastmile_qr_scan", "ios": "https://dc.lft.to/lastmile_qr_scan"}, "lon": -77.007974, "name": "2d561be24fc2c02019060c2805b95819", "fusion_lon": 0.0, "bike_id": "2d561be24fc2c02019060c2805b95819", "is_reserved": 0, "type": "electric_scooter", "lat": 38.907276, "fusion_lat": 0.0, "is_disabled": 0}, {"rental_uris": {"android": "https://dc.lft.to/lastmile_qr_scan", "ios": "https://dc.lft.to/lastmile_qr_scan"}, "lon": -77.007246, "name": "6308df2a692bc157626652e05c377a1f", "fusion_lon": 0.0, "bike_id": "6308df2a692bc157626652e05c377a1f", "is_reserved": 0, "type": "electric_scooter", "lat": 38.911947166666664, "fusion_lat": 0.0, "is_disabled": 0}, {"rental_uris": {"android": "https://dc.lft.to/lastmile_qr_scan", "ios": "https://dc.lft.to/lastmile_qr_scan"}, "lon": -77.05208566666667, "name": "14964a384e536b842e4dfb356503fdc9", "fusion_lon": 0.0, "bike_id": "14964a384e536b842e4dfb356503fdc9", "is_reserved": 0, "type": "electric_scooter", "lat": 38.924828833333336, "fusion_lat": 0.0, "is_disabled": 0}, {"rental_uris": {"android": "https://dc.lft.to/lastmile_qr_scan", "ios": "https://dc.lft.to/lastmile_qr_scan"}, "lon": -77.017849, "name": "1e70a622b18a9dad6f8f53128c514b87", "fusion_lon": 0.0, "bike_id": "1e70a622b18a9dad6f8f53128c514b87", "is_reserved": 0, "type": "electric_scooter", "lat": 38.904022833333336, "fusion_lat": 0.0, "is_disabled": 0}, {"rental_uris": {"android": "https://dc.lft.to/lastmile_qr_scan", "ios": "https://dc.lft.to/lastmile_qr_scan"}, "lon": -77.0269045, "name": "c8bf8d7469abf8036e29f6ff30771f3c", "fusion_lon": 0.0, "bike_id": "c8bf8d7469abf8036e29f6ff30771f3c", "is_reserved": 0, "type": "electric_scooter", "lat": 38.90238733333333, "fusion_lat": 0.0, "is_disabled": 0}, {"rental_uris": {"android": "https://dc.lft.to/lastmile_qr_scan", "ios": "https://dc.lft.to/lastmile_qr_scan"}, "lon": -77.03956066666667, "name": "1ec0d7f5d171f1f49801a00cd47c2986", "fusion_lon": 0.0, "bike_id": "1ec0d7f5d171f1f49801a00cd47c2986", "is_reserved": 0, "type": "electric_scooter", "lat": 38.89293933333333, "fusion_lat": 0.0, "is_disabled": 0}, {"rental_uris": {"android": "https://dc.lft.to/lastmile_qr_scan", "ios": "https://dc.lft.to/lastmile_qr_scan"}, "lon": -77.03182016666666, "name": "05343d2617cd5c4d399558c2288fe608", "fusion_lon": 0.0, "bike_id": "05343d2617cd5c4d399558c2288fe608", "is_reserved": 0, "type": "electric_scooter", "lat": 38.907306, "fusion_lat": 0.0, "is_disabled": 0}, {"rental_uris": {"android": "https://dc.lft.to/lastmile_qr_scan", "ios": "https://dc.lft.to/lastmile_qr_scan"}, "lon": -77.00606683333334, "name": "295ff3a35ee275ed164f36106a29ae90", "fusion_lon": 0.0, "bike_id": "295ff3a35ee275ed164f36106a29ae90", "is_reserved": 0, "type": "electric_scooter", "lat": 38.87182583333333, "fusion_lat": 0.0, "is_disabled": 0}, {"rental_uris": {"android": "https://dc.lft.to/lastmile_qr_scan", "ios": "https://dc.lft.to/lastmile_qr_scan"}, "lon": -77.05336683333333, "name": "b9a665fcb59b9dc848ddde99326d86cb", "fusion_lon": 0.0, "bike_id": "b9a665fcb59b9dc848ddde99326d86cb", "is_reserved": 0, "type": "electric_scooter", "lat": 38.90646316666667, "fusion_lat": 0.0, "is_disabled": 0}, {"rental_uris": {"android": "https://dc.lft.to/lastmile_qr_scan", "ios": "https://dc.lft.to/lastmile_qr_scan"}, "lon": -77.016755, "name": "2dbc6cd28a8cecd0836eaa0bcecf5b22", "fusion_lon": 0.0, "bike_id": "2dbc6cd28a8cecd0836eaa0bcecf5b22", "is_reserved": 0, "type": "electric_scooter", "lat": 38.92043816666666, "fusion_lat": 0.0, "is_disabled": 0}, {"rental_uris": {"android": "https://dc.lft.to/lastmile_qr_scan", "ios": "https://dc.lft.to/lastmile_qr_scan"}, "lon": -77.0180505, "name": "40b67a7f7dd5e442b4eab3e72423fa75", "fusion_lon": 0.0, "bike_id": "40b67a7f7dd5e442b4eab3e72423fa75", "is_reserved": 0, "type": "electric_scooter", "lat": 38.902763666666665, "fusion_lat": 0.0, "is_disabled": 0}, {"rental_uris": {"android": "https://dc.lft.to/lastmile_qr_scan", "ios": "https://dc.lft.to/lastmile_qr_scan"}, "lon": -77.03561766666667, "name": "ccb6812d8fc68099217279b4655283a3", "fusion_lon": 0.0, "bike_id": "ccb6812d8fc68099217279b4655283a3", "is_reserved": 0, "type": "electric_scooter", "lat": 38.9046745, "fusion_lat": 0.0, "is_disabled": 0}, {"rental_uris": {"android": "https://dc.lft.to/lastmile_qr_scan", "ios": "https://dc.lft.to/lastmile_qr_scan"}, "lon": -77.040022, "name": "083750b5d458706c50877f3dec5991ae", "fusion_lon": 0.0, "bike_id": "083750b5d458706c50877f3dec5991ae", "is_reserved": 0, "type": "electric_scooter", "lat": 38.934284, "fusion_lat": 0.0, "is_disabled": 0}, {"rental_uris": {"android": "https://dc.lft.to/lastmile_qr_scan", "ios": "https://dc.lft.to/lastmile_qr_scan"}, "lon": -77.01152066666667, "name": "2c5645c415a143ad80b7cf0afa579255", "fusion_lon": 0.0, "bike_id": "2c5645c415a143ad80b7cf0afa579255", "is_reserved": 0, "type": "electric_scooter", "lat": 38.91330033333333, "fusion_lat": 0.0, "is_disabled": 0}, {"rental_uris": {"android": "https://dc.lft.to/lastmile_qr_scan", "ios": "https://dc.lft.to/lastmile_qr_scan"}, "lon": -77.0206285, "name": "a254c1fe87af2dab78507fa566b38647", "fusion_lon": 0.0, "bike_id": "a254c1fe87af2dab78507fa566b38647", "is_reserved": 0, "type": "electric_scooter", "lat": 38.93262166666667, "fusion_lat": 0.0, "is_disabled": 0}, {"rental_uris": {"android": "https://dc.lft.to/lastmile_qr_scan", "ios": "https://dc.lft.to/lastmile_qr_scan"}, "lon": -77.03662866666667, "name": "194a8b8fd08bbd66599f0d6865c7b8ee", "fusion_lon": 0.0, "bike_id": "194a8b8fd08bbd66599f0d6865c7b8ee", "is_reserved": 0, "type": "electric_scooter", "lat": 38.9212265, "fusion_lat": 0.0, "is_disabled": 0}, {"rental_uris": {"android": "https://dc.lft.to/lastmile_qr_scan", "ios": "https://dc.lft.to/lastmile_qr_scan"}, "lon": -77.0335405, "name": "0d9d6c3583e833343a91565ec7578427", "fusion_lon": 0.0, "bike_id": "0d9d6c3583e833343a91565ec7578427", "is_reserved": 0, "type": "electric_scooter", "lat": 38.91351433333333, "fusion_lat": 0.0, "is_disabled": 0}, {"rental_uris": {"android": "https://dc.lft.to/lastmile_qr_scan", "ios": "https://dc.lft.to/lastmile_qr_scan"}, "lon": -77.033019, "name": "a8c7a589c65c98d026d985b3b1460c1f", "fusion_lon": 0.0, "bike_id": "a8c7a589c65c98d026d985b3b1460c1f", "is_reserved": 0, "type": "electric_scooter", "lat": 38.918081666666666, "fusion_lat": 0.0, "is_disabled": 0}, {"rental_uris": {"android": "https://dc.lft.to/lastmile_qr_scan", "ios": "https://dc.lft.to/lastmile_qr_scan"}, "lon": -77.00401866666667, "name": "64698f324a379af56456ea9469e184f7", "fusion_lon": 0.0, "bike_id": "64698f324a379af56456ea9469e184f7", "is_reserved": 0, "type": "electric_scooter", "lat": 38.929498333333335, "fusion_lat": 0.0, "is_disabled": 0}, {"rental_uris": {"android": "https://dc.lft.to/lastmile_qr_scan", "ios": "https://dc.lft.to/lastmile_qr_scan"}, "lon": -77.03183633333333, "name": "45a15f348c6f0381c5a1ae5ffc0fc6de", "fusion_lon": 0.0, "bike_id": "45a15f348c6f0381c5a1ae5ffc0fc6de", "is_reserved": 0, "type": "electric_scooter", "lat": 38.90726466666667, "fusion_lat": 0.0, "is_disabled": 0}, {"rental_uris": {"android": "https://dc.lft.to/lastmile_qr_scan", "ios": "https://dc.lft.to/lastmile_qr_scan"}, "lon": -77.02300616666666, "name": "880f7781ee9f001ce393b81570bbbb7f", "fusion_lon": 0.0, "bike_id": "880f7781ee9f001ce393b81570bbbb7f", "is_reserved": 0, "type": "electric_scooter", "lat": 38.92825083333334, "fusion_lat": 0.0, "is_disabled": 0}, {"rental_uris": {"android": "https://dc.lft.to/lastmile_qr_scan", "ios": "https://dc.lft.to/lastmile_qr_scan"}, "lon": -77.0136125, "name": "1e998b56a33918ad31e8d750fa71fb30", "fusion_lon": 0.0, "bike_id": "1e998b56a33918ad31e8d750fa71fb30", "is_reserved": 0, "type": "electric_scooter", "lat": 38.918648166666664, "fusion_lat": 0.0, "is_disabled": 0}, {"rental_uris": {"android": "https://dc.lft.to/lastmile_qr_scan", "ios": "https://dc.lft.to/lastmile_qr_scan"}, "lon": -77.02477633333334, "name": "a5210b703e660fc1000b600144cc2a9a", "fusion_lon": 0.0, "bike_id": "a5210b703e660fc1000b600144cc2a9a", "is_reserved": 0, "type": "electric_scooter", "lat": 38.94196183333333, "fusion_lat": 0.0, "is_disabled": 0}, {"rental_uris": {"android": "https://dc.lft.to/lastmile_qr_scan", "ios": "https://dc.lft.to/lastmile_qr_scan"}, "lon": -77.0216225, "name": "306e7e75d06e187c9ddbc8b50b0b9b4a", "fusion_lon": 0.0, "bike_id": "306e7e75d06e187c9ddbc8b50b0b9b4a", "is_reserved": 0, "type": "electric_scooter", "lat": 38.9261425, "fusion_lat": 0.0, "is_disabled": 0}, {"rental_uris": {"android": "https://dc.lft.to/lastmile_qr_scan", "ios": "https://dc.lft.to/lastmile_qr_scan"}, "lon": -77.021803, "name": "355029737cdbf110e27bfd0fdd9c5420", "fusion_lon": 0.0, "bike_id": "355029737cdbf110e27bfd0fdd9c5420", "is_reserved": 0, "type": "electric_scooter", "lat": 38.91999883333333, "fusion_lat": 0.0, "is_disabled": 0}, {"rental_uris": {"android": "https://dc.lft.to/lastmile_qr_scan", "ios": "https://dc.lft.to/lastmile_qr_scan"}, "lon": -77.043273, "name": "eebe82e2efcd9a6634cc51aac5e8f1ac", "fusion_lon": 0.0, "bike_id": "eebe82e2efcd9a6634cc51aac5e8f1ac", "is_reserved": 0, "type": "electric_scooter", "lat": 38.908296, "fusion_lat": 0.0, "is_disabled": 0}, {"rental_uris": {"android": "https://dc.lft.to/lastmile_qr_scan", "ios": "https://dc.lft.to/lastmile_qr_scan"}, "lon": -77.00893483333333, "name": "a32e2f80c977eaddc9889acc8083bd07", "fusion_lon": 0.0, "bike_id": "a32e2f80c977eaddc9889acc8083bd07", "is_reserved": 0, "type": "electric_scooter", "lat": 38.96647033333333, "fusion_lat": 0.0, "is_disabled": 0}, {"rental_uris": {"android": "https://dc.lft.to/lastmile_qr_scan", "ios": "https://dc.lft.to/lastmile_qr_scan"}, "lon": -77.00683866666667, "name": "99528fc75cd21d81f02c06e574dca9fd", "fusion_lon": 0.0, "bike_id": "99528fc75cd21d81f02c06e574dca9fd", "is_reserved": 0, "type": "electric_scooter", "lat": 38.90558133333333, "fusion_lat": 0.0, "is_disabled": 0}, {"rental_uris": {"android": "https://dc.lft.to/lastmile_qr_scan", "ios": "https://dc.lft.to/lastmile_qr_scan"}, "lon": -77.04898383333334, "name": "3261fa983147d868898f08480e70963f", "fusion_lon": 0.0, "bike_id": "3261fa983147d868898f08480e70963f", "is_reserved": 0, "type": "electric_scooter", "lat": 38.919388, "fusion_lat": 0.0, "is_disabled": 0}, {"rental_uris": {"android": "https://dc.lft.to/lastmile_qr_scan", "ios": "https://dc.lft.to/lastmile_qr_scan"}, "lon": -76.9942555, "name": "4c95b72abbadac0df0478eb4b4ace972", "fusion_lon": 0.0, "bike_id": "4c95b72abbadac0df0478eb4b4ace972", "is_reserved": 0, "type": "electric_scooter", "lat": 38.85223466666667, "fusion_lat": 0.0, "is_disabled": 0}, {"rental_uris": {"android": "https://dc.lft.to/lastmile_qr_scan", "ios": "https://dc.lft.to/lastmile_qr_scan"}, "lon": -77.02703916666667, "name": "b9b43f4514b0ac7b3f268f7bb8638e12", "fusion_lon": 0.0, "bike_id": "b9b43f4514b0ac7b3f268f7bb8638e12", "is_reserved": 0, "type": "electric_scooter", "lat": 38.904430166666664, "fusion_lat": 0.0, "is_disabled": 0}, {"rental_uris": {"android": "https://dc.lft.to/lastmile_qr_scan", "ios": "https://dc.lft.to/lastmile_qr_scan"}, "lon": -76.98571, "name": "a3c756c1f961175ff6a18cec8b1181a6", "fusion_lon": 0.0, "bike_id": "a3c756c1f961175ff6a18cec8b1181a6", "is_reserved": 0, "type": "electric_scooter", "lat": 38.89908716666667, "fusion_lat": 0.0, "is_disabled": 0}, {"rental_uris": {"android": "https://dc.lft.to/lastmile_qr_scan", "ios": "https://dc.lft.to/lastmile_qr_scan"}, "lon": -77.03994166666666, "name": "127c2a631cb2f917af5c521c152a1d91", "fusion_lon": 0.0, "bike_id": "127c2a631cb2f917af5c521c152a1d91", "is_reserved": 0, "type": "electric_scooter", "lat": 38.89222566666667, "fusion_lat": 0.0, "is_disabled": 0}, {"rental_uris": {"android": "https://dc.lft.to/lastmile_qr_scan", "ios": "https://dc.lft.to/lastmile_qr_scan"}, "lon": -77.01958883333333, "name": "91bb84e09978ba411d80ad6e32ab4eea", "fusion_lon": 0.0, "bike_id": "91bb84e09978ba411d80ad6e32ab4eea", "is_reserved": 0, "type": "electric_scooter", "lat": 38.9240515, "fusion_lat": 0.0, "is_disabled": 0}, {"rental_uris": {"android": "https://dc.lft.to/lastmile_qr_scan", "ios": "https://dc.lft.to/lastmile_qr_scan"}, "lon": -77.0321345, "name": "fa2898f7936db36093102ef6104ab8a7", "fusion_lon": 0.0, "bike_id": "fa2898f7936db36093102ef6104ab8a7", "is_reserved": 0, "type": "electric_scooter", "lat": 38.93616566666667, "fusion_lat": 0.0, "is_disabled": 0}, {"rental_uris": {"android": "https://dc.lft.to/lastmile_qr_scan", "ios": "https://dc.lft.to/lastmile_qr_scan"}, "lon": -77.02170616666666, "name": "e91fc7fb41ac69ed3d597633ee55b45c", "fusion_lon": 0.0, "bike_id": "e91fc7fb41ac69ed3d597633ee55b45c", "is_reserved": 0, "type": "electric_scooter", "lat": 38.91415283333333, "fusion_lat": 0.0, "is_disabled": 0}, {"rental_uris": {"android": "https://dc.lft.to/lastmile_qr_scan", "ios": "https://dc.lft.to/lastmile_qr_scan"}, "lon": -77.02574366666667, "name": "59e42384fee27864607fc58f790f8d3d", "fusion_lon": 0.0, "bike_id": "59e42384fee27864607fc58f790f8d3d", "is_reserved": 0, "type": "electric_scooter", "lat": 38.91598033333333, "fusion_lat": 0.0, "is_disabled": 0}, {"rental_uris": {"android": "https://dc.lft.to/lastmile_qr_scan", "ios": "https://dc.lft.to/lastmile_qr_scan"}, "lon": -77.03240416666667, "name": "346a467f2d053d293beb537956d8098c", "fusion_lon": 0.0, "bike_id": "346a467f2d053d293beb537956d8098c", "is_reserved": 0, "type": "electric_scooter", "lat": 38.928885, "fusion_lat": 0.0, "is_disabled": 0}, {"rental_uris": {"android": "https://dc.lft.to/lastmile_qr_scan", "ios": "https://dc.lft.to/lastmile_qr_scan"}, "lon": -77.03078933333333, "name": "1756cec454a75bafe7a91ce34e716795", "fusion_lon": 0.0, "bike_id": "1756cec454a75bafe7a91ce34e716795", "is_reserved": 0, "type": "electric_scooter", "lat": 38.92043816666666, "fusion_lat": 0.0, "is_disabled": 0}, {"rental_uris": {"android": "https://dc.lft.to/lastmile_qr_scan", "ios": "https://dc.lft.to/lastmile_qr_scan"}, "lon": -77.00611083333334, "name": "b8951f1920bad6adefc9bbf5d839b119", "fusion_lon": 0.0, "bike_id": "b8951f1920bad6adefc9bbf5d839b119", "is_reserved": 0, "type": "electric_scooter", "lat": 38.8786655, "fusion_lat": 0.0, "is_disabled": 0}, {"rental_uris": {"android": "https://dc.lft.to/lastmile_qr_scan", "ios": "https://dc.lft.to/lastmile_qr_scan"}, "lon": -77.142342, "name": "fff24e5a7da3c14d0955eb1e6d2662b8", "fusion_lon": 0.0, "bike_id": "fff24e5a7da3c14d0955eb1e6d2662b8", "is_reserved": 0, "type": "electric_bike", "lat": 38.88603766666667, "fusion_lat": 0.0, "is_disabled": 0}, {"rental_uris": {"android": "https://dc.lft.to/lastmile_qr_scan", "ios": "https://dc.lft.to/lastmile_qr_scan"}, "lon": -77.04571416666667, "name": "2e71cc19d497eaf2749cc4999fe41f15", "fusion_lon": 0.0, "bike_id": "2e71cc19d497eaf2749cc4999fe41f15", "is_reserved": 0, "type": "electric_scooter", "lat": 38.921200666666664, "fusion_lat": 0.0, "is_disabled": 0}, {"rental_uris": {"android": "https://dc.lft.to/lastmile_qr_scan", "ios": "https://dc.lft.to/lastmile_qr_scan"}, "lon": -77.04890166666667, "name": "cb1722e0c2cd134c2c4de88e00b6ba1c", "fusion_lon": 0.0, "bike_id": "cb1722e0c2cd134c2c4de88e00b6ba1c", "is_reserved": 0, "type": "electric_scooter", "lat": 38.890066, "fusion_lat": 0.0, "is_disabled": 0}, {"rental_uris": {"android": "https://dc.lft.to/lastmile_qr_scan", "ios": "https://dc.lft.to/lastmile_qr_scan"}, "lon": -77.02385983333333, "name": "abbe95725736956aee8a0fd57347c87d", "fusion_lon": 0.0, "bike_id": "abbe95725736956aee8a0fd57347c87d", "is_reserved": 0, "type": "electric_scooter", "lat": 38.912752166666664, "fusion_lat": 0.0, "is_disabled": 0}, {"rental_uris": {"android": "https://dc.lft.to/lastmile_qr_scan", "ios": "https://dc.lft.to/lastmile_qr_scan"}, "lon": -77.0122935, "name": "502c00813586b49ae73c4fb04efe3f8f", "fusion_lon": 0.0, "bike_id": "502c00813586b49ae73c4fb04efe3f8f", "is_reserved": 0, "type": "electric_scooter", "lat": 38.93044066666667, "fusion_lat": 0.0, "is_disabled": 0}, {"rental_uris": {"android": "https://dc.lft.to/lastmile_qr_scan", "ios": "https://dc.lft.to/lastmile_qr_scan"}, "lon": -77.02390516666667, "name": "9181fbac7feebb588295e3dbd83f8f5c", "fusion_lon": 0.0, "bike_id": "9181fbac7feebb588295e3dbd83f8f5c", "is_reserved": 0, "type": "electric_scooter", "lat": 38.90006116666667, "fusion_lat": 0.0, "is_disabled": 0}, {"rental_uris": {"android": "https://dc.lft.to/lastmile_qr_scan", "ios": "https://dc.lft.to/lastmile_qr_scan"}, "lon": -77.00331766666666, "name": "b4eb9dbd84db728b89009c4c0a6468eb", "fusion_lon": 0.0, "bike_id": "b4eb9dbd84db728b89009c4c0a6468eb", "is_reserved": 0, "type": "electric_scooter", "lat": 38.89365466666667, "fusion_lat": 0.0, "is_disabled": 0}, {"rental_uris": {"android": "https://dc.lft.to/lastmile_qr_scan", "ios": "https://dc.lft.to/lastmile_qr_scan"}, "lon": -77.000669, "name": "ac8b76ec499d5f70d47ebc6edf6ded33", "fusion_lon": 0.0, "bike_id": "ac8b76ec499d5f70d47ebc6edf6ded33", "is_reserved": 0, "type": "electric_scooter", "lat": 38.9005145, "fusion_lat": 0.0, "is_disabled": 0}, {"rental_uris": {"android": "https://dc.lft.to/lastmile_qr_scan", "ios": "https://dc.lft.to/lastmile_qr_scan"}, "lon": -77.03091616666667, "name": "aa02eb8700337c0ae7b43424573446fb", "fusion_lon": 0.0, "bike_id": "aa02eb8700337c0ae7b43424573446fb", "is_reserved": 0, "type": "electric_scooter", "lat": 38.91694, "fusion_lat": 0.0, "is_disabled": 0}, {"rental_uris": {"android": "https://dc.lft.to/lastmile_qr_scan", "ios": "https://dc.lft.to/lastmile_qr_scan"}, "lon": -77.032596, "name": "59f92b82a12ed10b91026df0a67742cb", "fusion_lon": 0.0, "bike_id": "59f92b82a12ed10b91026df0a67742cb", "is_reserved": 0, "type": "electric_scooter", "lat": 38.92546516666667, "fusion_lat": 0.0, "is_disabled": 0}, {"rental_uris": {"android": "https://dc.lft.to/lastmile_qr_scan", "ios": "https://dc.lft.to/lastmile_qr_scan"}, "lon": -76.99330433333333, "name": "d9c51cb093a9ef91ec54ea2f387784fb", "fusion_lon": 0.0, "bike_id": "d9c51cb093a9ef91ec54ea2f387784fb", "is_reserved": 0, "type": "electric_bike", "lat": 38.94665916666667, "fusion_lat": 0.0, "is_disabled": 0}, {"rental_uris": {"android": "https://dc.lft.to/lastmile_qr_scan", "ios": "https://dc.lft.to/lastmile_qr_scan"}, "lon": -77.0412295, "name": "8f05d940fd1b14207925e9a718064a83", "fusion_lon": 0.0, "bike_id": "8f05d940fd1b14207925e9a718064a83", "is_reserved": 0, "type": "electric_scooter", "lat": 38.917124333333334, "fusion_lat": 0.0, "is_disabled": 0}, {"rental_uris": {"android": "https://dc.lft.to/lastmile_qr_scan", "ios": "https://dc.lft.to/lastmile_qr_scan"}, "lon": -77.011159, "name": "2e8b282d3c973fb2599661580d0d057a", "fusion_lon": 0.0, "bike_id": "2e8b282d3c973fb2599661580d0d057a", "is_reserved": 0, "type": "electric_scooter", "lat": 38.885105333333335, "fusion_lat": 0.0, "is_disabled": 0}, {"rental_uris": {"android": "https://dc.lft.to/lastmile_qr_scan", "ios": "https://dc.lft.to/lastmile_qr_scan"}, "lon": -77.033401, "name": "2bb816a4375d3d5668e28cc0bb0b11ac", "fusion_lon": 0.0, "bike_id": "2bb816a4375d3d5668e28cc0bb0b11ac", "is_reserved": 0, "type": "electric_scooter", "lat": 38.912682833333335, "fusion_lat": 0.0, "is_disabled": 0}, {"rental_uris": {"android": "https://dc.lft.to/lastmile_qr_scan", "ios": "https://dc.lft.to/lastmile_qr_scan"}, "lon": -77.03185, "name": "25177c512e3e4c5154491f19c0a91600", "fusion_lon": 0.0, "bike_id": "25177c512e3e4c5154491f19c0a91600", "is_reserved": 0, "type": "electric_scooter", "lat": 38.914385, "fusion_lat": 0.0, "is_disabled": 0}, {"rental_uris": {"android": "https://dc.lft.to/lastmile_qr_scan", "ios": "https://dc.lft.to/lastmile_qr_scan"}, "lon": -77.02698616666666, "name": "7e87bff53aaf61006a2ce5a50a02f2f0", "fusion_lon": 0.0, "bike_id": "7e87bff53aaf61006a2ce5a50a02f2f0", "is_reserved": 0, "type": "electric_scooter", "lat": 38.897685, "fusion_lat": 0.0, "is_disabled": 0}, {"rental_uris": {"android": "https://dc.lft.to/lastmile_qr_scan", "ios": "https://dc.lft.to/lastmile_qr_scan"}, "lon": -77.03185733333333, "name": "4433a18666d064e1515d67b7d258b67a", "fusion_lon": 0.0, "bike_id": "4433a18666d064e1515d67b7d258b67a", "is_reserved": 0, "type": "electric_scooter", "lat": 38.91338066666667, "fusion_lat": 0.0, "is_disabled": 0}, {"rental_uris": {"android": "https://dc.lft.to/lastmile_qr_scan", "ios": "https://dc.lft.to/lastmile_qr_scan"}, "lon": -77.0122285, "name": "76a1c12d67798b20c93bf938a4c0d0fb", "fusion_lon": 0.0, "bike_id": "76a1c12d67798b20c93bf938a4c0d0fb", "is_reserved": 0, "type": "electric_scooter", "lat": 38.900370333333335, "fusion_lat": 0.0, "is_disabled": 0}, {"rental_uris": {"android": "https://dc.lft.to/lastmile_qr_scan", "ios": "https://dc.lft.to/lastmile_qr_scan"}, "lon": -76.94251683333333, "name": "7fb8afdc5f4ee8a0129f5bd7ca41c0cb", "fusion_lon": 0.0, "bike_id": "7fb8afdc5f4ee8a0129f5bd7ca41c0cb", "is_reserved": 0, "type": "electric_bike", "lat": 38.947959166666664, "fusion_lat": 0.0, "is_disabled": 0}, {"rental_uris": {"android": "https://dc.lft.to/lastmile_qr_scan", "ios": "https://dc.lft.to/lastmile_qr_scan"}, "lon": -77.0298625, "name": "987cd815d0ab33a6ac4103cf628616a3", "fusion_lon": 0.0, "bike_id": "987cd815d0ab33a6ac4103cf628616a3", "is_reserved": 0, "type": "electric_scooter", "lat": 38.922416, "fusion_lat": 0.0, "is_disabled": 0}, {"rental_uris": {"android": "https://dc.lft.to/lastmile_qr_scan", "ios": "https://dc.lft.to/lastmile_qr_scan"}, "lon": -77.0343995, "name": "bcad19cf2758a41b82178b83259dd48a", "fusion_lon": 0.0, "bike_id": "bcad19cf2758a41b82178b83259dd48a", "is_reserved": 0, "type": "electric_scooter", "lat": 38.905104333333334, "fusion_lat": 0.0, "is_disabled": 0}, {"rental_uris": {"android": "https://dc.lft.to/lastmile_qr_scan", "ios": "https://dc.lft.to/lastmile_qr_scan"}, "lon": -76.92521583333334, "name": "650f7086a531f7349ca3fa6520b195ba", "fusion_lon": 0.0, "bike_id": "650f7086a531f7349ca3fa6520b195ba", "is_reserved": 0, "type": "electric_bike", "lat": 38.959086, "fusion_lat": 0.0, "is_disabled": 0}, {"rental_uris": {"android": "https://dc.lft.to/lastmile_qr_scan", "ios": "https://dc.lft.to/lastmile_qr_scan"}, "lon": -77.03151133333333, "name": "13f992803265922a8de8cc1d2f271a77", "fusion_lon": 0.0, "bike_id": "13f992803265922a8de8cc1d2f271a77", "is_reserved": 0, "type": "electric_scooter", "lat": 38.9181595, "fusion_lat": 0.0, "is_disabled": 0}, {"rental_uris": {"android": "https://dc.lft.to/lastmile_qr_scan", "ios": "https://dc.lft.to/lastmile_qr_scan"}, "lon": -77.00744316666666, "name": "2f91db7d3f3d733a61b1d348dbce2610", "fusion_lon": 0.0, "bike_id": "2f91db7d3f3d733a61b1d348dbce2610", "is_reserved": 0, "type": "electric_scooter", "lat": 38.926771333333335, "fusion_lat": 0.0, "is_disabled": 0}, {"rental_uris": {"android": "https://dc.lft.to/lastmile_qr_scan", "ios": "https://dc.lft.to/lastmile_qr_scan"}, "lon": -77.043546, "name": "353da41be8b682fe12b7aa08ba877069", "fusion_lon": 0.0, "bike_id": "353da41be8b682fe12b7aa08ba877069", "is_reserved": 0, "type": "electric_scooter", "lat": 38.903997333333336, "fusion_lat": 0.0, "is_disabled": 0}, {"rental_uris": {"android": "https://dc.lft.to/lastmile_qr_scan", "ios": "https://dc.lft.to/lastmile_qr_scan"}, "lon": -76.98338133333333, "name": "910bd281a7656b6ab1dd307ae74756c9", "fusion_lon": 0.0, "bike_id": "910bd281a7656b6ab1dd307ae74756c9", "is_reserved": 0, "type": "electric_scooter", "lat": 38.8954585, "fusion_lat": 0.0, "is_disabled": 0}, {"rental_uris": {"android": "https://dc.lft.to/lastmile_qr_scan", "ios": "https://dc.lft.to/lastmile_qr_scan"}, "lon": -77.02255083333333, "name": "1b87700340856175e0b959ade4bbd48b", "fusion_lon": 0.0, "bike_id": "1b87700340856175e0b959ade4bbd48b", "is_reserved": 0, "type": "electric_scooter", "lat": 38.92823833333333, "fusion_lat": 0.0, "is_disabled": 0}, {"rental_uris": {"android": "https://dc.lft.to/lastmile_qr_scan", "ios": "https://dc.lft.to/lastmile_qr_scan"}, "lon": -77.03804216666667, "name": "c1c0970221ae3beabc99198857c7694a", "fusion_lon": 0.0, "bike_id": "c1c0970221ae3beabc99198857c7694a", "is_reserved": 0, "type": "electric_scooter", "lat": 38.9024055, "fusion_lat": 0.0, "is_disabled": 0}, {"rental_uris": {"android": "https://dc.lft.to/lastmile_qr_scan", "ios": "https://dc.lft.to/lastmile_qr_scan"}, "lon": -76.97908033333333, "name": "56be40d94e57596bb25cfa1e0e9cee5d", "fusion_lon": 0.0, "bike_id": "56be40d94e57596bb25cfa1e0e9cee5d", "is_reserved": 0, "type": "electric_scooter", "lat": 38.866642166666665, "fusion_lat": 0.0, "is_disabled": 0}, {"rental_uris": {"android": "https://dc.lft.to/lastmile_qr_scan", "ios": "https://dc.lft.to/lastmile_qr_scan"}, "lon": -77.0716655, "name": "c8e2215b5d6aa574b90d706a5ce4c67f", "fusion_lon": 0.0, "bike_id": "c8e2215b5d6aa574b90d706a5ce4c67f", "is_reserved": 0, "type": "electric_scooter", "lat": 38.907684, "fusion_lat": 0.0, "is_disabled": 0}, {"rental_uris": {"android": "https://dc.lft.to/lastmile_qr_scan", "ios": "https://dc.lft.to/lastmile_qr_scan"}, "lon": -77.03203783333333, "name": "aeb631d9b0f19f921734237eb7b2c12c", "fusion_lon": 0.0, "bike_id": "aeb631d9b0f19f921734237eb7b2c12c", "is_reserved": 0, "type": "electric_scooter", "lat": 38.91814216666667, "fusion_lat": 0.0, "is_disabled": 0}, {"rental_uris": {"android": "https://dc.lft.to/lastmile_qr_scan", "ios": "https://dc.lft.to/lastmile_qr_scan"}, "lon": -76.93473733333333, "name": "2a7b0349ec74a92d747293ce27e7a5b9", "fusion_lon": 0.0, "bike_id": "2a7b0349ec74a92d747293ce27e7a5b9", "is_reserved": 0, "type": "electric_scooter", "lat": 38.89506216666667, "fusion_lat": 0.0, "is_disabled": 0}, {"rental_uris": {"android": "https://dc.lft.to/lastmile_qr_scan", "ios": "https://dc.lft.to/lastmile_qr_scan"}, "lon": -77.040849, "name": "d5e9f586ebae3e89ae90bdf5c9fd0dda", "fusion_lon": 0.0, "bike_id": "d5e9f586ebae3e89ae90bdf5c9fd0dda", "is_reserved": 0, "type": "electric_scooter", "lat": 38.892259333333335, "fusion_lat": 0.0, "is_disabled": 0}, {"rental_uris": {"android": "https://dc.lft.to/lastmile_qr_scan", "ios": "https://dc.lft.to/lastmile_qr_scan"}, "lon": -76.93595133333334, "name": "d4f94c8405e54d07ea43a61d0017b5c9", "fusion_lon": 0.0, "bike_id": "d4f94c8405e54d07ea43a61d0017b5c9", "is_reserved": 0, "type": "electric_scooter", "lat": 38.89365816666667, "fusion_lat": 0.0, "is_disabled": 0}, {"rental_uris": {"android": "https://dc.lft.to/lastmile_qr_scan", "ios": "https://dc.lft.to/lastmile_qr_scan"}, "lon": -76.988113, "name": "e4c5e53f435c5490de84ac7279744784", "fusion_lon": 0.0, "bike_id": "e4c5e53f435c5490de84ac7279744784", "is_reserved": 0, "type": "electric_bike", "lat": 38.8038305, "fusion_lat": 0.0, "is_disabled": 0}, {"rental_uris": {"android": "https://dc.lft.to/lastmile_qr_scan", "ios": "https://dc.lft.to/lastmile_qr_scan"}, "lon": -77.0366225, "name": "1a83cb8957285c0f45ef551fe0369b08", "fusion_lon": 0.0, "bike_id": "1a83cb8957285c0f45ef551fe0369b08", "is_reserved": 0, "type": "electric_scooter", "lat": 38.92242933333333, "fusion_lat": 0.0, "is_disabled": 0}, {"rental_uris": {"android": "https://dc.lft.to/lastmile_qr_scan", "ios": "https://dc.lft.to/lastmile_qr_scan"}, "lon": -77.01653816666666, "name": "7f62bd6fd15c1e573276a143296a7b9e", "fusion_lon": 0.0, "bike_id": "7f62bd6fd15c1e573276a143296a7b9e", "is_reserved": 0, "type": "electric_scooter", "lat": 38.91333216666666, "fusion_lat": 0.0, "is_disabled": 0}, {"rental_uris": {"android": "https://dc.lft.to/lastmile_qr_scan", "ios": "https://dc.lft.to/lastmile_qr_scan"}, "lon": -76.948888, "name": "f1ccacf2c71966b528b629fc48185b9e", "fusion_lon": 0.0, "bike_id": "f1ccacf2c71966b528b629fc48185b9e", "is_reserved": 0, "type": "electric_scooter", "lat": 38.8953195, "fusion_lat": 0.0, "is_disabled": 0}, {"rental_uris": {"android": "https://dc.lft.to/lastmile_qr_scan", "ios": "https://dc.lft.to/lastmile_qr_scan"}, "lon": -77.02499583333334, "name": "3edc17ee57b858c0b1d51141ed5bd99f", "fusion_lon": 0.0, "bike_id": "3edc17ee57b858c0b1d51141ed5bd99f", "is_reserved": 0, "type": "electric_scooter", "lat": 38.94025283333333, "fusion_lat": 0.0, "is_disabled": 0}, {"rental_uris": {"android": "https://dc.lft.to/lastmile_qr_scan", "ios": "https://dc.lft.to/lastmile_qr_scan"}, "lon": -77.02677183333333, "name": "e4bb5b99fc73e6e3f3c7dad772770c0a", "fusion_lon": 0.0, "bike_id": "e4bb5b99fc73e6e3f3c7dad772770c0a", "is_reserved": 0, "type": "electric_scooter", "lat": 38.917063, "fusion_lat": 0.0, "is_disabled": 0}, {"rental_uris": {"android": "https://dc.lft.to/lastmile_qr_scan", "ios": "https://dc.lft.to/lastmile_qr_scan"}, "lon": -77.01945983333333, "name": "7a860e8f267fd3b848ff4b6fe4b2a48a", "fusion_lon": 0.0, "bike_id": "7a860e8f267fd3b848ff4b6fe4b2a48a", "is_reserved": 0, "type": "electric_scooter", "lat": 38.92420366666666, "fusion_lat": 0.0, "is_disabled": 0}, {"rental_uris": {"android": "https://dc.lft.to/lastmile_qr_scan", "ios": "https://dc.lft.to/lastmile_qr_scan"}, "lon": -76.9883415, "name": "bc8cddf59eb50bfd82597f4052b68e68", "fusion_lon": 0.0, "bike_id": "bc8cddf59eb50bfd82597f4052b68e68", "is_reserved": 0, "type": "electric_scooter", "lat": 38.898836, "fusion_lat": 0.0, "is_disabled": 0}, {"rental_uris": {"android": "https://dc.lft.to/lastmile_qr_scan", "ios": "https://dc.lft.to/lastmile_qr_scan"}, "lon": -77.04315133333333, "name": "deb0db3b4ede281c53a0734ba45ecf8a", "fusion_lon": 0.0, "bike_id": "deb0db3b4ede281c53a0734ba45ecf8a", "is_reserved": 0, "type": "electric_scooter", "lat": 38.923609666666664, "fusion_lat": 0.0, "is_disabled": 0}, {"rental_uris": {"android": "https://dc.lft.to/lastmile_qr_scan", "ios": "https://dc.lft.to/lastmile_qr_scan"}, "lon": -77.03204916666667, "name": "5b10f629607ff5e31c91387f1a4b3b33", "fusion_lon": 0.0, "bike_id": "5b10f629607ff5e31c91387f1a4b3b33", "is_reserved": 0, "type": "electric_scooter", "lat": 38.917297166666664, "fusion_lat": 0.0, "is_disabled": 0}, {"rental_uris": {"android": "https://dc.lft.to/lastmile_qr_scan", "ios": "https://dc.lft.to/lastmile_qr_scan"}, "lon": -77.043304, "name": "e4a2f42b1621431e5efbd30438ff77f7", "fusion_lon": 0.0, "bike_id": "e4a2f42b1621431e5efbd30438ff77f7", "is_reserved": 0, "type": "electric_scooter", "lat": 38.90822933333333, "fusion_lat": 0.0, "is_disabled": 0}, {"rental_uris": {"android": "https://dc.lft.to/lastmile_qr_scan", "ios": "https://dc.lft.to/lastmile_qr_scan"}, "lon": -76.98338383333333, "name": "2379c645bffa2508ea7b8fece39e09b1", "fusion_lon": 0.0, "bike_id": "2379c645bffa2508ea7b8fece39e09b1", "is_reserved": 0, "type": "electric_scooter", "lat": 38.8954305, "fusion_lat": 0.0, "is_disabled": 0}, {"rental_uris": {"android": "https://dc.lft.to/lastmile_qr_scan", "ios": "https://dc.lft.to/lastmile_qr_scan"}, "lon": -77.03891516666667, "name": "2b19e6e6963ed85128ce287b83eb08f0", "fusion_lon": 0.0, "bike_id": "2b19e6e6963ed85128ce287b83eb08f0", "is_reserved": 0, "type": "electric_scooter", "lat": 38.9249835, "fusion_lat": 0.0, "is_disabled": 0}, {"rental_uris": {"android": "https://dc.lft.to/lastmile_qr_scan", "ios": "https://dc.lft.to/lastmile_qr_scan"}, "lon": -76.99568033333334, "name": "e6b1e17a67f7e2741fb1c2d92fe59721", "fusion_lon": 0.0, "bike_id": "e6b1e17a67f7e2741fb1c2d92fe59721", "is_reserved": 0, "type": "electric_scooter", "lat": 38.9251375, "fusion_lat": 0.0, "is_disabled": 0}, {"rental_uris": {"android": "https://dc.lft.to/lastmile_qr_scan", "ios": "https://dc.lft.to/lastmile_qr_scan"}, "lon": -77.02944616666667, "name": "09849356318aa2646cf4d401f8e85171", "fusion_lon": 0.0, "bike_id": "09849356318aa2646cf4d401f8e85171", "is_reserved": 0, "type": "electric_scooter", "lat": 38.905046, "fusion_lat": 0.0, "is_disabled": 0}, {"rental_uris": {"android": "https://dc.lft.to/lastmile_qr_scan", "ios": "https://dc.lft.to/lastmile_qr_scan"}, "lon": -77.00379683333334, "name": "c0d2e1289acc5a6bfd2c8a9cd3921568", "fusion_lon": 0.0, "bike_id": "c0d2e1289acc5a6bfd2c8a9cd3921568", "is_reserved": 0, "type": "electric_scooter", "lat": 38.879354666666664, "fusion_lat": 0.0, "is_disabled": 0}, {"rental_uris": {"android": "https://dc.lft.to/lastmile_qr_scan", "ios": "https://dc.lft.to/lastmile_qr_scan"}, "lon": -77.083942, "name": "2ecd0392344518e4d875fbb9507f654a", "fusion_lon": 0.0, "bike_id": "2ecd0392344518e4d875fbb9507f654a", "is_reserved": 0, "type": "electric_scooter", "lat": 38.90800616666667, "fusion_lat": 0.0, "is_disabled": 0}, {"rental_uris": {"android": "https://dc.lft.to/lastmile_qr_scan", "ios": "https://dc.lft.to/lastmile_qr_scan"}, "lon": -77.11045416666667, "name": "af6efc28806fa6e7c745a09e480f0661", "fusion_lon": 0.0, "bike_id": "af6efc28806fa6e7c745a09e480f0661", "is_reserved": 0, "type": "electric_bike", "lat": 38.87083633333334, "fusion_lat": 0.0, "is_disabled": 0}, {"rental_uris": {"android": "https://dc.lft.to/lastmile_qr_scan", "ios": "https://dc.lft.to/lastmile_qr_scan"}, "lon": -77.03640966666667, "name": "ee7bcd44420db6a5a83d73216ebd4d93", "fusion_lon": 0.0, "bike_id": "ee7bcd44420db6a5a83d73216ebd4d93", "is_reserved": 0, "type": "electric_scooter", "lat": 38.902862, "fusion_lat": 0.0, "is_disabled": 0}, {"rental_uris": {"android": "https://dc.lft.to/lastmile_qr_scan", "ios": "https://dc.lft.to/lastmile_qr_scan"}, "lon": -77.04054116666667, "name": "1a5a8649fb20f3e7f5e0d99e78da5c5a", "fusion_lon": 0.0, "bike_id": "1a5a8649fb20f3e7f5e0d99e78da5c5a", "is_reserved": 0, "type": "electric_scooter", "lat": 38.90873666666667, "fusion_lat": 0.0, "is_disabled": 0}, {"rental_uris": {"android": "https://dc.lft.to/lastmile_qr_scan", "ios": "https://dc.lft.to/lastmile_qr_scan"}, "lon": -77.03832933333334, "name": "c692892bcca8ac7530d09205e358d0ed", "fusion_lon": 0.0, "bike_id": "c692892bcca8ac7530d09205e358d0ed", "is_reserved": 0, "type": "electric_scooter", "lat": 38.91189683333333, "fusion_lat": 0.0, "is_disabled": 0}, {"rental_uris": {"android": "https://dc.lft.to/lastmile_qr_scan", "ios": "https://dc.lft.to/lastmile_qr_scan"}, "lon": -77.0160745, "name": "cd399018b813f45d99249c9eee78b455", "fusion_lon": 0.0, "bike_id": "cd399018b813f45d99249c9eee78b455", "is_reserved": 0, "type": "electric_scooter", "lat": 38.89963216666666, "fusion_lat": 0.0, "is_disabled": 0}, {"rental_uris": {"android": "https://dc.lft.to/lastmile_qr_scan", "ios": "https://dc.lft.to/lastmile_qr_scan"}, "lon": -76.942851, "name": "7a629b4d7012cf7b3a66d9fb37b54556", "fusion_lon": 0.0, "bike_id": "7a629b4d7012cf7b3a66d9fb37b54556", "is_reserved": 0, "type": "electric_scooter", "lat": 38.883411333333335, "fusion_lat": 0.0, "is_disabled": 0}, {"rental_uris": {"android": "https://dc.lft.to/lastmile_qr_scan", "ios": "https://dc.lft.to/lastmile_qr_scan"}, "lon": -77.02501216666667, "name": "879edebf7e2b63af83dd3b861adc7519", "fusion_lon": 0.0, "bike_id": "879edebf7e2b63af83dd3b861adc7519", "is_reserved": 0, "type": "electric_scooter", "lat": 38.884807333333335, "fusion_lat": 0.0, "is_disabled": 0}, {"rental_uris": {"android": "https://dc.lft.to/lastmile_qr_scan", "ios": "https://dc.lft.to/lastmile_qr_scan"}, "lon": -77.025409, "name": "c4b3a5a83001bfa99f9c375b30f248c4", "fusion_lon": 0.0, "bike_id": "c4b3a5a83001bfa99f9c375b30f248c4", "is_reserved": 0, "type": "electric_scooter", "lat": 38.918433666666665, "fusion_lat": 0.0, "is_disabled": 0}, {"rental_uris": {"android": "https://dc.lft.to/lastmile_qr_scan", "ios": "https://dc.lft.to/lastmile_qr_scan"}, "lon": -77.031738, "name": "63e63ce01b4e09cb33d2ff01f1aee1a7", "fusion_lon": 0.0, "bike_id": "63e63ce01b4e09cb33d2ff01f1aee1a7", "is_reserved": 0, "type": "electric_scooter", "lat": 38.91416983333333, "fusion_lat": 0.0, "is_disabled": 0}, {"rental_uris": {"android": "https://dc.lft.to/lastmile_qr_scan", "ios": "https://dc.lft.to/lastmile_qr_scan"}, "lon": -76.996979, "name": "1e36e3840fce0ffce17a524a3d88b9c3", "fusion_lon": 0.0, "bike_id": "1e36e3840fce0ffce17a524a3d88b9c3", "is_reserved": 0, "type": "electric_bike", "lat": 38.838665166666665, "fusion_lat": 0.0, "is_disabled": 0}, {"rental_uris": {"android": "https://dc.lft.to/lastmile_qr_scan", "ios": "https://dc.lft.to/lastmile_qr_scan"}, "lon": -77.0540795, "name": "6df0764dd8b92f7ed99bb3e2ee0c8824", "fusion_lon": 0.0, "bike_id": "6df0764dd8b92f7ed99bb3e2ee0c8824", "is_reserved": 0, "type": "electric_scooter", "lat": 38.950481333333336, "fusion_lat": 0.0, "is_disabled": 0}, {"rental_uris": {"android": "https://dc.lft.to/lastmile_qr_scan", "ios": "https://dc.lft.to/lastmile_qr_scan"}, "lon": -77.01356083333333, "name": "55bd692dc78a16a50822d2b1a685dc00", "fusion_lon": 0.0, "bike_id": "55bd692dc78a16a50822d2b1a685dc00", "is_reserved": 0, "type": "electric_bike", "lat": 38.897815333333334, "fusion_lat": 0.0, "is_disabled": 0}, {"rental_uris": {"android": "https://dc.lft.to/lastmile_qr_scan", "ios": "https://dc.lft.to/lastmile_qr_scan"}, "lon": -77.0135545, "name": "a098842d26668e546a3d211c37494f6d", "fusion_lon": 0.0, "bike_id": "a098842d26668e546a3d211c37494f6d", "is_reserved": 0, "type": "electric_scooter", "lat": 38.892446166666666, "fusion_lat": 0.0, "is_disabled": 0}, {"rental_uris": {"android": "https://dc.lft.to/lastmile_qr_scan", "ios": "https://dc.lft.to/lastmile_qr_scan"}, "lon": -77.03856783333333, "name": "3bfff24ef07faaff23210f24cdabe460", "fusion_lon": 0.0, "bike_id": "3bfff24ef07faaff23210f24cdabe460", "is_reserved": 0, "type": "electric_scooter", "lat": 38.916602166666664, "fusion_lat": 0.0, "is_disabled": 0}, {"rental_uris": {"android": "https://dc.lft.to/lastmile_qr_scan", "ios": "https://dc.lft.to/lastmile_qr_scan"}, "lon": -77.01611283333334, "name": "9031108cf56cd242171550b51a3f95f7", "fusion_lon": 0.0, "bike_id": "9031108cf56cd242171550b51a3f95f7", "is_reserved": 0, "type": "electric_scooter", "lat": 38.90593166666667, "fusion_lat": 0.0, "is_disabled": 0}, {"rental_uris": {"android": "https://dc.lft.to/lastmile_qr_scan", "ios": "https://dc.lft.to/lastmile_qr_scan"}, "lon": -76.99485416666667, "name": "c27385d7d996dff99af6854c8da14b24", "fusion_lon": 0.0, "bike_id": "c27385d7d996dff99af6854c8da14b24", "is_reserved": 0, "type": "electric_scooter", "lat": 38.89478066666667, "fusion_lat": 0.0, "is_disabled": 0}, {"rental_uris": {"android": "https://dc.lft.to/lastmile_qr_scan", "ios": "https://dc.lft.to/lastmile_qr_scan"}, "lon": -77.02906866666666, "name": "384d257b29499b6108d3bda22a84a888", "fusion_lon": 0.0, "bike_id": "384d257b29499b6108d3bda22a84a888", "is_reserved": 0, "type": "electric_scooter", "lat": 38.9403855, "fusion_lat": 0.0, "is_disabled": 0}, {"rental_uris": {"android": "https://dc.lft.to/lastmile_qr_scan", "ios": "https://dc.lft.to/lastmile_qr_scan"}, "lon": -77.02398316666667, "name": "a73921f7f61e435dfcf54353ed2f164d", "fusion_lon": 0.0, "bike_id": "a73921f7f61e435dfcf54353ed2f164d", "is_reserved": 0, "type": "electric_scooter", "lat": 38.925014166666664, "fusion_lat": 0.0, "is_disabled": 0}, {"rental_uris": {"android": "https://dc.lft.to/lastmile_qr_scan", "ios": "https://dc.lft.to/lastmile_qr_scan"}, "lon": -76.9868665, "name": "f53fb19b4dfa819cf92f2c11a49dc256", "fusion_lon": 0.0, "bike_id": "f53fb19b4dfa819cf92f2c11a49dc256", "is_reserved": 0, "type": "electric_bike", "lat": 38.944759166666664, "fusion_lat": 0.0, "is_disabled": 0}, {"rental_uris": {"android": "https://dc.lft.to/lastmile_qr_scan", "ios": "https://dc.lft.to/lastmile_qr_scan"}, "lon": -77.013123, "name": "1ebf75f4caf3ac7fb6bb089cbdef68d7", "fusion_lon": 0.0, "bike_id": "1ebf75f4caf3ac7fb6bb089cbdef68d7", "is_reserved": 0, "type": "electric_scooter", "lat": 38.897084666666665, "fusion_lat": 0.0, "is_disabled": 0}, {"rental_uris": {"android": "https://dc.lft.to/lastmile_qr_scan", "ios": "https://dc.lft.to/lastmile_qr_scan"}, "lon": -77.0179635, "name": "e508a8ed25c4caf140e029f3f84a9f1c", "fusion_lon": 0.0, "bike_id": "e508a8ed25c4caf140e029f3f84a9f1c", "is_reserved": 0, "type": "electric_bike", "lat": 38.994117, "fusion_lat": 0.0, "is_disabled": 0}, {"rental_uris": {"android": "https://dc.lft.to/lastmile_qr_scan", "ios": "https://dc.lft.to/lastmile_qr_scan"}, "lon": -77.01757316666666, "name": "88e276e189aa205a14ed8e87ab7faca5", "fusion_lon": 0.0, "bike_id": "88e276e189aa205a14ed8e87ab7faca5", "is_reserved": 0, "type": "electric_scooter", "lat": 38.87714866666666, "fusion_lat": 0.0, "is_disabled": 0}, {"rental_uris": {"android": "https://dc.lft.to/lastmile_qr_scan", "ios": "https://dc.lft.to/lastmile_qr_scan"}, "lon": -77.00336333333334, "name": "e59315a9dc0b25fd232dc8f3e569e4ce", "fusion_lon": 0.0, "bike_id": "e59315a9dc0b25fd232dc8f3e569e4ce", "is_reserved": 0, "type": "electric_scooter", "lat": 38.89353833333333, "fusion_lat": 0.0, "is_disabled": 0}, {"rental_uris": {"android": "https://dc.lft.to/lastmile_qr_scan", "ios": "https://dc.lft.to/lastmile_qr_scan"}, "lon": -77.02423933333333, "name": "c254a2bbfead64d8630a1ec96cb0f19a", "fusion_lon": 0.0, "bike_id": "c254a2bbfead64d8630a1ec96cb0f19a", "is_reserved": 0, "type": "electric_scooter", "lat": 38.90566466666667, "fusion_lat": 0.0, "is_disabled": 0}, {"rental_uris": {"android": "https://dc.lft.to/lastmile_qr_scan", "ios": "https://dc.lft.to/lastmile_qr_scan"}, "lon": -76.9367225, "name": "b7dd715356ef8c594ffe0e2824f5f47c", "fusion_lon": 0.0, "bike_id": "b7dd715356ef8c594ffe0e2824f5f47c", "is_reserved": 0, "type": "electric_scooter", "lat": 38.886639, "fusion_lat": 0.0, "is_disabled": 0}, {"rental_uris": {"android": "https://dc.lft.to/lastmile_qr_scan", "ios": "https://dc.lft.to/lastmile_qr_scan"}, "lon": -77.0716415, "name": "61d38da23acd74af7be0d667c444125b", "fusion_lon": 0.0, "bike_id": "61d38da23acd74af7be0d667c444125b", "is_reserved": 0, "type": "electric_bike", "lat": 38.908728833333335, "fusion_lat": 0.0, "is_disabled": 0}, {"rental_uris": {"android": "https://dc.lft.to/lastmile_qr_scan", "ios": "https://dc.lft.to/lastmile_qr_scan"}, "lon": -77.02395683333333, "name": "3db44b32d076b980ce848940fba25fbf", "fusion_lon": 0.0, "bike_id": "3db44b32d076b980ce848940fba25fbf", "is_reserved": 0, "type": "electric_scooter", "lat": 38.90987783333333, "fusion_lat": 0.0, "is_disabled": 0}, {"rental_uris": {"android": "https://dc.lft.to/lastmile_qr_scan", "ios": "https://dc.lft.to/lastmile_qr_scan"}, "lon": -76.95147666666666, "name": "42e9d9897740d708e0c55a54bfc90734", "fusion_lon": 0.0, "bike_id": "42e9d9897740d708e0c55a54bfc90734", "is_reserved": 0, "type": "electric_bike", "lat": 39.08432633333334, "fusion_lat": 0.0, "is_disabled": 0}, {"rental_uris": {"android": "https://dc.lft.to/lastmile_qr_scan", "ios": "https://dc.lft.to/lastmile_qr_scan"}, "lon": -77.01754833333334, "name": "9d05e2bb558be64a8774876ba4253c18", "fusion_lon": 0.0, "bike_id": "9d05e2bb558be64a8774876ba4253c18", "is_reserved": 0, "type": "electric_scooter", "lat": 38.902636333333334, "fusion_lat": 0.0, "is_disabled": 0}, {"rental_uris": {"android": "https://dc.lft.to/lastmile_qr_scan", "ios": "https://dc.lft.to/lastmile_qr_scan"}, "lon": -77.02155883333333, "name": "452296ec9ecddc9b2b8e1ccc43f41e66", "fusion_lon": 0.0, "bike_id": "452296ec9ecddc9b2b8e1ccc43f41e66", "is_reserved": 0, "type": "electric_scooter", "lat": 38.92453483333333, "fusion_lat": 0.0, "is_disabled": 0}, {"rental_uris": {"android": "https://dc.lft.to/lastmile_qr_scan", "ios": "https://dc.lft.to/lastmile_qr_scan"}, "lon": -77.04023716666667, "name": "646eb4d206d517afd0b69ea50e91c328", "fusion_lon": 0.0, "bike_id": "646eb4d206d517afd0b69ea50e91c328", "is_reserved": 0, "type": "electric_scooter", "lat": 38.9052875, "fusion_lat": 0.0, "is_disabled": 0}, {"rental_uris": {"android": "https://dc.lft.to/lastmile_qr_scan", "ios": "https://dc.lft.to/lastmile_qr_scan"}, "lon": -77.02717616666666, "name": "0df869a31732aa34509cfbb9dae62dad", "fusion_lon": 0.0, "bike_id": "0df869a31732aa34509cfbb9dae62dad", "is_reserved": 0, "type": "electric_scooter", "lat": 38.92482866666667, "fusion_lat": 0.0, "is_disabled": 0}, {"rental_uris": {"android": "https://dc.lft.to/lastmile_qr_scan", "ios": "https://dc.lft.to/lastmile_qr_scan"}, "lon": -77.0320335, "name": "cd75fe9fc8764f379f07d782bd28f777", "fusion_lon": 0.0, "bike_id": "cd75fe9fc8764f379f07d782bd28f777", "is_reserved": 0, "type": "electric_scooter", "lat": 38.907397833333334, "fusion_lat": 0.0, "is_disabled": 0}, {"rental_uris": {"android": "https://dc.lft.to/lastmile_qr_scan", "ios": "https://dc.lft.to/lastmile_qr_scan"}, "lon": -77.34454333333333, "name": "61c8f4331273ce6277e4bf002594c96e", "fusion_lon": 0.0, "bike_id": "61c8f4331273ce6277e4bf002594c96e", "is_reserved": 0, "type": "electric_bike", "lat": 38.945367166666664, "fusion_lat": 0.0, "is_disabled": 0}, {"rental_uris": {"android": "https://dc.lft.to/lastmile_qr_scan", "ios": "https://dc.lft.to/lastmile_qr_scan"}, "lon": -77.02317033333334, "name": "c575ada8ee8627504b4d3eaa8da80ea8", "fusion_lon": 0.0, "bike_id": "c575ada8ee8627504b4d3eaa8da80ea8", "is_reserved": 0, "type": "electric_scooter", "lat": 38.92071766666667, "fusion_lat": 0.0, "is_disabled": 0}, {"rental_uris": {"android": "https://dc.lft.to/lastmile_qr_scan", "ios": "https://dc.lft.to/lastmile_qr_scan"}, "lon": -77.0415175, "name": "c4d972c0885385fcef58bf038e73fd0e", "fusion_lon": 0.0, "bike_id": "c4d972c0885385fcef58bf038e73fd0e", "is_reserved": 0, "type": "electric_scooter", "lat": 38.91750733333333, "fusion_lat": 0.0, "is_disabled": 0}, {"rental_uris": {"android": "https://dc.lft.to/lastmile_qr_scan", "ios": "https://dc.lft.to/lastmile_qr_scan"}, "lon": -77.03182333333334, "name": "13bc1fbbef8ab62c9d020f0294c66a60", "fusion_lon": 0.0, "bike_id": "13bc1fbbef8ab62c9d020f0294c66a60", "is_reserved": 0, "type": "electric_scooter", "lat": 38.887260166666664, "fusion_lat": 0.0, "is_disabled": 0}, {"rental_uris": {"android": "https://dc.lft.to/lastmile_qr_scan", "ios": "https://dc.lft.to/lastmile_qr_scan"}, "lon": -76.9806435, "name": "9e59314e4746a3dad81d914a4f2655bb", "fusion_lon": 0.0, "bike_id": "9e59314e4746a3dad81d914a4f2655bb", "is_reserved": 0, "type": "electric_scooter", "lat": 38.86505016666667, "fusion_lat": 0.0, "is_disabled": 0}, {"rental_uris": {"android": "https://dc.lft.to/lastmile_qr_scan", "ios": "https://dc.lft.to/lastmile_qr_scan"}, "lon": -77.03351633333334, "name": "cc62c469148a54ca6feb2183917c54f3", "fusion_lon": 0.0, "bike_id": "cc62c469148a54ca6feb2183917c54f3", "is_reserved": 0, "type": "electric_scooter", "lat": 38.886225, "fusion_lat": 0.0, "is_disabled": 0}, {"rental_uris": {"android": "https://dc.lft.to/lastmile_qr_scan", "ios": "https://dc.lft.to/lastmile_qr_scan"}, "lon": -77.03758933333333, "name": "15d61f992895e80ddc4740b68b76398e", "fusion_lon": 0.0, "bike_id": "15d61f992895e80ddc4740b68b76398e", "is_reserved": 0, "type": "electric_scooter", "lat": 38.9078165, "fusion_lat": 0.0, "is_disabled": 0}, {"rental_uris": {"android": "https://dc.lft.to/lastmile_qr_scan", "ios": "https://dc.lft.to/lastmile_qr_scan"}, "lon": -77.0397365, "name": "fd2d412b55482be3cb64298574f00076", "fusion_lon": 0.0, "bike_id": "fd2d412b55482be3cb64298574f00076", "is_reserved": 0, "type": "electric_scooter", "lat": 38.90562883333333, "fusion_lat": 0.0, "is_disabled": 0}, {"rental_uris": {"android": "https://dc.lft.to/lastmile_qr_scan", "ios": "https://dc.lft.to/lastmile_qr_scan"}, "lon": -76.98543366666667, "name": "ec1cf919026f2b623ae4dd5fe0868d9a", "fusion_lon": 0.0, "bike_id": "ec1cf919026f2b623ae4dd5fe0868d9a", "is_reserved": 0, "type": "electric_scooter", "lat": 38.91294366666666, "fusion_lat": 0.0, "is_disabled": 0}, {"rental_uris": {"android": "https://dc.lft.to/lastmile_qr_scan", "ios": "https://dc.lft.to/lastmile_qr_scan"}, "lon": -77.02596833333334, "name": "38e03ecfe7c053409d0a9746c2273030", "fusion_lon": 0.0, "bike_id": "38e03ecfe7c053409d0a9746c2273030", "is_reserved": 0, "type": "electric_scooter", "lat": 38.916916666666665, "fusion_lat": 0.0, "is_disabled": 0}, {"rental_uris": {"android": "https://dc.lft.to/lastmile_qr_scan", "ios": "https://dc.lft.to/lastmile_qr_scan"}, "lon": -77.00272916666667, "name": "92ee76805e00282387294504c8198ac4", "fusion_lon": 0.0, "bike_id": "92ee76805e00282387294504c8198ac4", "is_reserved": 0, "type": "electric_scooter", "lat": 38.874862, "fusion_lat": 0.0, "is_disabled": 0}, {"rental_uris": {"android": "https://dc.lft.to/lastmile_qr_scan", "ios": "https://dc.lft.to/lastmile_qr_scan"}, "lon": -77.022726, "name": "aaa381598ad4b994089112b2a7a28e0d", "fusion_lon": 0.0, "bike_id": "aaa381598ad4b994089112b2a7a28e0d", "is_reserved": 0, "type": "electric_scooter", "lat": 38.924648, "fusion_lat": 0.0, "is_disabled": 0}, {"rental_uris": {"android": "https://dc.lft.to/lastmile_qr_scan", "ios": "https://dc.lft.to/lastmile_qr_scan"}, "lon": -77.00331366666667, "name": "5e0355e000a260775ca2b0cd1623e374", "fusion_lon": 0.0, "bike_id": "5e0355e000a260775ca2b0cd1623e374", "is_reserved": 0, "type": "electric_scooter", "lat": 38.89363983333333, "fusion_lat": 0.0, "is_disabled": 0}, {"rental_uris": {"android": "https://dc.lft.to/lastmile_qr_scan", "ios": "https://dc.lft.to/lastmile_qr_scan"}, "lon": -77.069649, "name": "e23bab794eaab9d28232cb75e2141324", "fusion_lon": 0.0, "bike_id": "e23bab794eaab9d28232cb75e2141324", "is_reserved": 0, "type": "electric_scooter", "lat": 38.952223333333336, "fusion_lat": 0.0, "is_disabled": 0}, {"rental_uris": {"android": "https://dc.lft.to/lastmile_qr_scan", "ios": "https://dc.lft.to/lastmile_qr_scan"}, "lon": -77.02820033333333, "name": "845a5c750397220b93ea94967cb45414", "fusion_lon": 0.0, "bike_id": "845a5c750397220b93ea94967cb45414", "is_reserved": 0, "type": "electric_scooter", "lat": 38.89503766666667, "fusion_lat": 0.0, "is_disabled": 0}, {"rental_uris": {"android": "https://dc.lft.to/lastmile_qr_scan", "ios": "https://dc.lft.to/lastmile_qr_scan"}, "lon": -77.06919016666667, "name": "a251ee2cda5951e501c247137f54edbd", "fusion_lon": 0.0, "bike_id": "a251ee2cda5951e501c247137f54edbd", "is_reserved": 0, "type": "electric_scooter", "lat": 38.907792666666666, "fusion_lat": 0.0, "is_disabled": 0},