{"data": {"bikes": [{"name": "5c36bbd26fc8605f5baffad9b70da53b", "type": "electric_scooter", "lat": 38.93417516666667, "is_reserved": 0, "lon": -77.07254366666666, "fusion_lon": 0.0, "is_disabled": 0, "fusion_lat": 0.0, "bike_id": "5c36bbd26fc8605f5baffad9b70da53b", "rental_uris": {"ios": "https://dc.lft.to/lastmile_qr_scan", "android": "https://dc.lft.to/lastmile_qr_scan"}}, {"name": "0dfc670b42cb27ba27abd38cd52c93c1", "type": "electric_scooter", "lat": 38.924024, "is_reserved": 0, "lon": -77.02542283333334, "fusion_lon": 0.0, "is_disabled": 0, "fusion_lat": 0.0, "bike_id": "0dfc670b42cb27ba27abd38cd52c93c1", "rental_uris": {"ios": "https://dc.lft.to/lastmile_qr_scan", "android": "https://dc.lft.to/lastmile_qr_scan"}}, {"name": "16eeb35c422670926d2a4813e07af80d", "type": "electric_scooter", "lat": 38.8947265, "is_reserved": 0, "lon": -77.0308085, "fusion_lon": 0.0, "is_disabled": 0, "fusion_lat": 0.0, "bike_id": "16eeb35c422670926d2a4813e07af80d", "rental_uris": {"ios": "https://dc.lft.to/lastmile_qr_scan", "android": "https://dc.lft.to/lastmile_qr_scan"}}, {"name": "c8ae17eb0f274531a82c2073a181e5f0", "type": "electric_bike", "lat": 38.94833416666667, "is_reserved": 0, "lon": -77.03897116666667, "fusion_lon": 0.0, "is_disabled": 0, "fusion_lat": 0.0, "bike_id": "c8ae17eb0f274531a82c2073a181e5f0", "rental_uris": {"ios": "https://dc.lft.to/lastmile_qr_scan", "android": "https://dc.lft.to/lastmile_qr_scan"}}, {"name": "fd5f833f7bf1534f4f65f33ae18b57e9", "type": "electric_scooter", "lat": 38.92542383333333, "is_reserved": 0, "lon": -77.04052783333333, "fusion_lon": 0.0, "is_disabled": 0, "fusion_lat": 0.0, "bike_id": "fd5f833f7bf1534f4f65f33ae18b57e9", "rental_uris": {"ios": "https://dc.lft.to/lastmile_qr_scan", "android": "https://dc.lft.to/lastmile_qr_scan"}}, {"name": "d990c26b8e3560f34bdf15fe2ce47e09", "type": "electric_scooter", "lat": 38.9024195, "is_reserved": 0, "lon": -77.02648183333334, "fusion_lon": 0.0, "is_disabled": 0, "fusion_lat": 0.0, "bike_id": "d990c26b8e3560f34bdf15fe2ce47e09", "rental_uris": {"ios": "https://dc.lft.to/lastmile_qr_scan", "android": "https://dc.lft.to/lastmile_qr_scan"}}, {"name": "079fb3639805b37afdffb1a6ad4743ad", "type": "electric_scooter", "lat": 38.95828233333334, "is_reserved": 0, "lon": -77.02934816666667, "fusion_lon": 0.0, "is_disabled": 0, "fusion_lat": 0.0, "bike_id": "079fb3639805b37afdffb1a6ad4743ad", "rental_uris": {"ios": "https://dc.lft.to/lastmile_qr_scan", "android": "https://dc.lft.to/lastmile_qr_scan"}}, {"name": "d3d150d453aa77b3591726b890ce4f19", "type": "electric_scooter", "lat": 38.93377483333333, "is_reserved": 0, "lon": -77.03465683333333, "fusion_lon": 0.0, "is_disabled": 0, "fusion_lat": 0.0, "bike_id": "d3d150d453aa77b3591726b890ce4f19", "rental_uris": {"ios": "https://dc.lft.to/lastmile_qr_scan", "android": "https://dc.lft.to/lastmile_qr_scan"}}, {"name": "d8fc77e092253096de328179ca6ca1fe", "type": "electric_scooter", "lat": 38.9006405, "is_reserved": 0, "lon": -77.0453355, "fusion_lon": 0.0, "is_disabled": 0, "fusion_lat": 0.0, "bike_id": "d8fc77e092253096de328179ca6ca1fe", "rental_uris": {"ios": "https://dc.lft.to/lastmile_qr_scan", "android": "https://dc.lft.to/lastmile_qr_scan"}}, {"name": "cf5e12dc2e75d04b66d29ea72f6130ef", "type": "electric_scooter", "lat": 38.892247, "is_reserved": 0, "lon": -77.04330216666666, "fusion_lon": 0.0, "is_disabled": 0, "fusion_lat": 0.0, "bike_id": "cf5e12dc2e75d04b66d29ea72f6130ef", "rental_uris": {"ios": "https://dc.lft.to/lastmile_qr_scan", "android": "https://dc.lft.to/lastmile_qr_scan"}}, {"name": "1a27be1ca89a787eb0e28321ff1d973d", "type": "electric_scooter", "lat": 38.89235383333333, "is_reserved": 0, "lon": -77.02799366666666, "fusion_lon": 0.0, "is_disabled": 0, "fusion_lat": 0.0, "bike_id": "1a27be1ca89a787eb0e28321ff1d973d", "rental_uris": {"ios": "https://dc.lft.to/lastmile_qr_scan", "android": "https://dc.lft.to/lastmile_qr_scan"}}, {"name": "0deb79211ba537475ab871ce9e83d227", "type": "electric_scooter", "lat": 38.899808666666665, "is_reserved": 0, "lon": -77.00922516666667, "fusion_lon": 0.0, "is_disabled": 0, "fusion_lat": 0.0, "bike_id": "0deb79211ba537475ab871ce9e83d227", "rental_uris": {"ios": "https://dc.lft.to/lastmile_qr_scan", "android": "https://dc.lft.to/lastmile_qr_scan"}}, {"name": "8f429aa3946310743924199a8c519bf9", "type": "electric_scooter", "lat": 38.8741875, "is_reserved": 0, "lon": -77.00056783333333, "fusion_lon": 0.0, "is_disabled": 0, "fusion_lat": 0.0, "bike_id": "8f429aa3946310743924199a8c519bf9", "rental_uris": {"ios": "https://dc.lft.to/lastmile_qr_scan", "android": "https://dc.lft.to/lastmile_qr_scan"}}, {"name": "c8d62fa5031684776e0f86a84e342747", "type": "electric_scooter", "lat": 38.906704, "is_reserved": 0, "lon": -77.07535166666666, "fusion_lon": 0.0, "is_disabled": 0, "fusion_lat": 0.0, "bike_id": "c8d62fa5031684776e0f86a84e342747", "rental_uris": {"ios": "https://dc.lft.to/lastmile_qr_scan", "android": "https://dc.lft.to/lastmile_qr_scan"}}, {"name": "5a35e44b65a630a1a9a82839cd280494", "type": "electric_scooter", "lat": 38.8836475, "is_reserved": 0, "lon": -77.03174733333333, "fusion_lon": 0.0, "is_disabled": 0, "fusion_lat": 0.0, "bike_id": "5a35e44b65a630a1a9a82839cd280494", "rental_uris": {"ios": "https://dc.lft.to/lastmile_qr_scan", "android": "https://dc.lft.to/lastmile_qr_scan"}}, {"name": "c98f1df526217e8313b81415539c901f", "type": "electric_bike", "lat": 38.893529666666666, "is_reserved": 0, "lon": -77.18740533333333, "fusion_lon": 0.0, "is_disabled": 0, "fusion_lat": 0.0, "bike_id": "c98f1df526217e8313b81415539c901f", "rental_uris": {"ios": "https://dc.lft.to/lastmile_qr_scan", "android": "https://dc.lft.to/lastmile_qr_scan"}}, {"name": "f27c3f3c0de81961359fa788fddb09ad", "type": "electric_bike", "lat": 38.95083233333333, "is_reserved": 0, "lon": -77.01233666666667, "fusion_lon": 0.0, "is_disabled": 0, "fusion_lat": 0.0, "bike_id": "f27c3f3c0de81961359fa788fddb09ad", "rental_uris": {"ios": "https://dc.lft.to/lastmile_qr_scan", "android": "https://dc.lft.to/lastmile_qr_scan"}}, {"name": "ff8ad336b3790df3e3a101d39880c97b", "type": "electric_scooter", "lat": 38.93534966666667, "is_reserved": 0, "lon": -77.02852316666667, "fusion_lon": 0.0, "is_disabled": 0, "fusion_lat": 0.0, "bike_id": "ff8ad336b3790df3e3a101d39880c97b", "rental_uris": {"ios": "https://dc.lft.to/lastmile_qr_scan", "android": "https://dc.lft.to/lastmile_qr_scan"}}, {"name": "48f009120586c67ddf85dfff2141ee8f", "type": "electric_scooter", "lat": 38.9125575, "is_reserved": 0, "lon": -77.009545, "fusion_lon": 0.0, "is_disabled": 0, "fusion_lat": 0.0, "bike_id": "48f009120586c67ddf85dfff2141ee8f", "rental_uris": {"ios": "https://dc.lft.to/lastmile_qr_scan", "android": "https://dc.lft.to/lastmile_qr_scan"}}, {"name": "a2186ef225c6eba0621721163e947319", "type": "electric_scooter", "lat": 38.93155683333333, "is_reserved": 0, "lon": -77.03890566666666, "fusion_lon": 0.0, "is_disabled": 0, "fusion_lat": 0.0, "bike_id": "a2186ef225c6eba0621721163e947319", "rental_uris": {"ios": "https://dc.lft.to/lastmile_qr_scan", "android": "https://dc.lft.to/lastmile_qr_scan"}}, {"name": "792d0927b1e5f47e3c105d6a93666a6d", "type": "electric_scooter", "lat": 38.89231266666667, "is_reserved": 0, "lon": -77.05002216666666, "fusion_lon": 0.0, "is_disabled": 0, "fusion_lat": 0.0, "bike_id": "792d0927b1e5f47e3c105d6a93666a6d", "rental_uris": {"ios": "https://dc.lft.to/lastmile_qr_scan", "android": "https://dc.lft.to/lastmile_qr_scan"}}, {"name": "e5b4c932311c95443d4d53b81186d82c", "type": "electric_scooter", "lat": 38.86523716666667, "is_reserved": 0, "lon": -76.99027816666667, "fusion_lon": 0.0, "is_disabled": 0, "fusion_lat": 0.0, "bike_id": "e5b4c932311c95443d4d53b81186d82c", "rental_uris": {"ios": "https://dc.lft.to/lastmile_qr_scan", "android": "https://dc.lft.to/lastmile_qr_scan"}}, {"name": "6aad72a1852c786e0a906188d36188e6", "type": "electric_bike", "lat": 38.838225333333334, "is_reserved": 0, "lon": -76.99679016666667, "fusion_lon": 0.0, "is_disabled": 0, "fusion_lat": 0.0, "bike_id": "6aad72a1852c786e0a906188d36188e6", "rental_uris": {"ios": "https://dc.lft.to/lastmile_qr_scan", "android": "https://dc.lft.to/lastmile_qr_scan"}}, {"name": "5c3603fbeb93f5c1709f72064ffd5056", "type": "electric_scooter", "lat": 38.897406833333335, "is_reserved": 0, "lon": -76.93843183333334, "fusion_lon": 0.0, "is_disabled": 0, "fusion_lat": 0.0, "bike_id": "5c3603fbeb93f5c1709f72064ffd5056", "rental_uris": {"ios": "https://dc.lft.to/lastmile_qr_scan", "android": "https://dc.lft.to/lastmile_qr_scan"}}, {"name": "9756b6c62612556b588599470b77f622", "type": "electric_bike", "lat": 38.88843, "is_reserved": 0, "lon": -77.08267866666667, "fusion_lon": 0.0, "is_disabled": 0, "fusion_lat": 0.0, "bike_id": "9756b6c62612556b588599470b77f622", "rental_uris": {"ios": "https://dc.lft.to/lastmile_qr_scan", "android": "https://dc.lft.to/lastmile_qr_scan"}}, {"name": "46ce872345f0aeabaf01d9709b64fe73", "type": "electric_scooter", "lat": 38.905896, "is_reserved": 0, "lon": -77.06518066666666, "fusion_lon": 0.0, "is_disabled": 0, "fusion_lat": 0.0, "bike_id": "46ce872345f0aeabaf01d9709b64fe73", "rental_uris": {"ios": "https://dc.lft.to/lastmile_qr_scan", "android": "https://dc.lft.to/lastmile_qr_scan"}}, {"name": "f2cede0af60af91b978a2de2fac00c39", "type": "electric_scooter", "lat": 38.921637833333335, "is_reserved": 0, "lon": -77.0422455, "fusion_lon": 0.0, "is_disabled": 0, "fusion_lat": 0.0, "bike_id": "f2cede0af60af91b978a2de2fac00c39", "rental_uris": {"ios": "https://dc.lft.to/lastmile_qr_scan", "android": "https://dc.lft.to/lastmile_qr_scan"}}, {"name": "484d2c516d4ff68a07b391d28f478c46", "type": "electric_scooter", "lat": 38.91775116666667, "is_reserved": 0, "lon": -77.02362183333334, "fusion_lon": 0.0, "is_disabled": 0, "fusion_lat": 0.0, "bike_id": "484d2c516d4ff68a07b391d28f478c46", "rental_uris": {"ios": "https://dc.lft.to/lastmile_qr_scan", "android": "https://dc.lft.to/lastmile_qr_scan"}}, {"name": "16497292f9e383240d73660a1d9e8f0d", "type": "electric_scooter", "lat": 38.8948185, "is_reserved": 0, "lon": -76.995166, "fusion_lon": 0.0, "is_disabled": 0, "fusion_lat": 0.0, "bike_id": "16497292f9e383240d73660a1d9e8f0d", "rental_uris": {"ios": "https://dc.lft.to/lastmile_qr_scan", "android": "https://dc.lft.to/lastmile_qr_scan"}}, {"name": "24434e67911d7d869eff273c69806558", "type": "electric_scooter", "lat": 38.93287466666666, "is_reserved": 0, "lon": -77.03980616666666, "fusion_lon": 0.0, "is_disabled": 0, "fusion_lat": 0.0, "bike_id": "24434e67911d7d869eff273c69806558", "rental_uris": {"ios": "https://dc.lft.to/lastmile_qr_scan", "android": "https://dc.lft.to/lastmile_qr_scan"}}, {"name": "ff7a015d505e4677fc03fb35d8ff724e", "type": "electric_scooter", "lat": 38.895210166666665, "is_reserved": 0, "lon": -77.02948966666666, "fusion_lon": 0.0, "is_disabled": 0, "fusion_lat": 0.0, "bike_id": "ff7a015d505e4677fc03fb35d8ff724e", "rental_uris": {"ios": "https://dc.lft.to/lastmile_qr_scan", "android": "https://dc.lft.to/lastmile_qr_scan"}}, {"name": "754e1c539ca515f0425965236bc51bc2", "type": "electric_scooter", "lat": 38.912641666666666, "is_reserved": 0, "lon": -77.029428, "fusion_lon": 0.0, "is_disabled": 0, "fusion_lat": 0.0, "bike_id": "754e1c539ca515f0425965236bc51bc2", "rental_uris": {"ios": "https://dc.lft.to/lastmile_qr_scan", "android": "https://dc.lft.to/lastmile_qr_scan"}}, {"name": "b820be7b5ab1bb82f9320813b4463df6", "type": "electric_scooter", "lat": 38.886906833333335, "is_reserved": 0, "lon": -76.9575965, "fusion_lon": 0.0, "is_disabled": 0, "fusion_lat": 0.0, "bike_id": "b820be7b5ab1bb82f9320813b4463df6", "rental_uris": {"ios": "https://dc.lft.to/lastmile_qr_scan", "android": "https://dc.lft.to/lastmile_qr_scan"}}, {"name": "5cafd4b85fd853138273ae75f1f18284", "type": "electric_scooter", "lat": 38.89463766666667, "is_reserved": 0, "lon": -77.0192325, "fusion_lon": 0.0, "is_disabled": 0, "fusion_lat": 0.0, "bike_id": "5cafd4b85fd853138273ae75f1f18284", "rental_uris": {"ios": "https://dc.lft.to/lastmile_qr_scan", "android": "https://dc.lft.to/lastmile_qr_scan"}}, {"name": "0fd5268a5fc6a8f813c910b3e3d720bc", "type": "electric_scooter", "lat": 38.902838, "is_reserved": 0, "lon": -77.03637666666667, "fusion_lon": 0.0, "is_disabled": 0, "fusion_lat": 0.0, "bike_id": "0fd5268a5fc6a8f813c910b3e3d720bc", "rental_uris": {"ios": "https://dc.lft.to/lastmile_qr_scan", "android": "https://dc.lft.to/lastmile_qr_scan"}}, {"name": "4657bc4731b122f5798ab9e7856895b3", "type": "electric_bike", "lat": 39.0038245, "is_reserved": 0, "lon": -77.01301433333333, "fusion_lon": 0.0, "is_disabled": 0, "fusion_lat": 0.0, "bike_id": "4657bc4731b122f5798ab9e7856895b3", "rental_uris": {"ios": "https://dc.lft.to/lastmile_qr_scan", "android": "https://dc.lft.to/lastmile_qr_scan"}}, {"name": "a434ccc2e62a56acd375c80870eb9407", "type": "electric_scooter", "lat": 38.90274, "is_reserved": 0, "lon": -77.03855066666667, "fusion_lon": 0.0, "is_disabled": 0, "fusion_lat": 0.0, "bike_id": "a434ccc2e62a56acd375c80870eb9407", "rental_uris": {"ios": "https://dc.lft.to/lastmile_qr_scan", "android": "https://dc.lft.to/lastmile_qr_scan"}}, {"name": "f362cb6458f4a4752365563c41a32b43", "type": "electric_scooter", "lat": 38.85806516666667, "is_reserved": 0, "lon": -76.991264, "fusion_lon": 0.0, "is_disabled": 0, "fusion_lat": 0.0, "bike_id": "f362cb6458f4a4752365563c41a32b43", "rental_uris": {"ios": "https://dc.lft.to/lastmile_qr_scan", "android": "https://dc.lft.to/lastmile_qr_scan"}}, {"name": "2f0412d4b5af39c309276af2258b6ce9", "type": "electric_scooter", "lat": 38.91575816666667, "is_reserved": 0, "lon": -77.03190333333333, "fusion_lon": 0.0, "is_disabled": 0, "fusion_lat": 0.0, "bike_id": "2f0412d4b5af39c309276af2258b6ce9", "rental_uris": {"ios": "https://dc.lft.to/lastmile_qr_scan", "android": "https://dc.lft.to/lastmile_qr_scan"}}, {"name": "f260fa07dcab2586bdb1cf185ea6923a", "type": "electric_scooter", "lat": 38.9140945, "is_reserved": 0, "lon": -77.0325935, "fusion_lon": 0.0, "is_disabled": 0, "fusion_lat": 0.0, "bike_id": "f260fa07dcab2586bdb1cf185ea6923a", "rental_uris": {"ios": "https://dc.lft.to/lastmile_qr_scan", "android": "https://dc.lft.to/lastmile_qr_scan"}}, {"name": "dd08e2ea3f61169678b8a6672838c6a4", "type": "electric_scooter", "lat": 38.9115925, "is_reserved": 0, "lon": -77.03198016666667, "fusion_lon": 0.0, "is_disabled": 0, "fusion_lat": 0.0, "bike_id": "dd08e2ea3f61169678b8a6672838c6a4", "rental_uris": {"ios": "https://dc.lft.to/lastmile_qr_scan", "android": "https://dc.lft.to/lastmile_qr_scan"}}, {"name": "0b359d472f4357e873e532cd45f7ee8e", "type": "electric_scooter", "lat": 38.89426566666667, "is_reserved": 0, "lon": -76.93261883333334, "fusion_lon": 0.0, "is_disabled": 0, "fusion_lat": 0.0, "bike_id": "0b359d472f4357e873e532cd45f7ee8e", "rental_uris": {"ios": "https://dc.lft.to/lastmile_qr_scan", "android": "https://dc.lft.to/lastmile_qr_scan"}}, {"name": "7e00dc5f187dbad86635d083f085eb02", "type": "electric_scooter", "lat": 38.9564985, "is_reserved": 0, "lon": -77.0328735, "fusion_lon": 0.0, "is_disabled": 0, "fusion_lat": 0.0, "bike_id": "7e00dc5f187dbad86635d083f085eb02", "rental_uris": {"ios": "https://dc.lft.to/lastmile_qr_scan", "android": "https://dc.lft.to/lastmile_qr_scan"}}, {"name": "22b179ec74346d3f005961363331ab7f", "type": "electric_scooter", "lat": 38.924868833333335, "is_reserved": 0, "lon": -77.052121, "fusion_lon": 0.0, "is_disabled": 0, "fusion_lat": 0.0, "bike_id": "22b179ec74346d3f005961363331ab7f", "rental_uris": {"ios": "https://dc.lft.to/lastmile_qr_scan", "android": "https://dc.lft.to/lastmile_qr_scan"}}, {"name": "523e354e3e9086d538a8e4aff3c228b8", "type": "electric_scooter", "lat": 38.894761333333335, "is_reserved": 0, "lon": -76.98402866666666, "fusion_lon": 0.0, "is_disabled": 0, "fusion_lat": 0.0, "bike_id": "523e354e3e9086d538a8e4aff3c228b8", "rental_uris": {"ios": "https://dc.lft.to/lastmile_qr_scan", "android": "https://dc.lft.to/lastmile_qr_scan"}}, {"name": "e70f013c22d7a469b018fed0e1f697ae", "type": "electric_scooter", "lat": 38.902422, "is_reserved": 0, "lon": -77.0019855, "fusion_lon": 0.0, "is_disabled": 0, "fusion_lat": 0.0, "bike_id": "e70f013c22d7a469b018fed0e1f697ae", "rental_uris": {"ios": "https://dc.lft.to/lastmile_qr_scan", "android": "https://dc.lft.to/lastmile_qr_scan"}}, {"name": "cea0d3215533a2888b6e24ad5f91828f", "type": "electric_scooter", "lat": 38.94310216666667, "is_reserved": 0, "lon": -77.059165, "fusion_lon": 0.0, "is_disabled": 0, "fusion_lat": 0.0, "bike_id": "cea0d3215533a2888b6e24ad5f91828f", "rental_uris": {"ios": "https://dc.lft.to/lastmile_qr_scan", "android": "https://dc.lft.to/lastmile_qr_scan"}}, {"name": "25869b7a0a6b6e88998fc4e6a9715adf", "type": "electric_scooter", "lat": 38.8694365, "is_reserved": 0, "lon": -76.97857766666667, "fusion_lon": 0.0, "is_disabled": 0, "fusion_lat": 0.0, "bike_id": "25869b7a0a6b6e88998fc4e6a9715adf", "rental_uris": {"ios": "https://dc.lft.to/lastmile_qr_scan", "android": "https://dc.lft.to/lastmile_qr_scan"}}, {"name": "f353b7a3a33c70cb760086df40acea4f", "type": "electric_scooter", "lat": 38.93604716666667, "is_reserved": 0, "lon": -77.03654683333333, "fusion_lon": 0.0, "is_disabled": 0, "fusion_lat": 0.0, "bike_id": "f353b7a3a33c70cb760086df40acea4f", "rental_uris": {"ios": "https://dc.lft.to/lastmile_qr_scan", "android": "https://dc.lft.to/lastmile_qr_scan"}}, {"name": "6b4254798e3246329baceb2101558610", "type": "electric_scooter", "lat": 38.90136533333333, "is_reserved": 0, "lon": -77.0449085, "fusion_lon": 0.0, "is_disabled": 0, "fusion_lat": 0.0, "bike_id": "6b4254798e3246329baceb2101558610", "rental_uris": {"ios": "https://dc.lft.to/lastmile_qr_scan", "android": "https://dc.lft.to/lastmile_qr_scan"}}, {"name": "73ac480e0a67507e0b6122e529af56db", "type": "electric_bike", "lat": 38.8726235, "is_reserved": 0, "lon": -77.01698333333333, "fusion_lon": 0.0, "is_disabled": 0, "fusion_lat": 0.0, "bike_id": "73ac480e0a67507e0b6122e529af56db", "rental_uris": {"ios": "https://dc.lft.to/lastmile_qr_scan", "android": "https://dc.lft.to/lastmile_qr_scan"}}, {"name": "1f11e5e91b0c449086a72f774c86eca3", "type": "electric_scooter", "lat": 38.86574016666667, "is_reserved": 0, "lon": -76.98952633333333, "fusion_lon": 0.0, "is_disabled": 0, "fusion_lat": 0.0, "bike_id": "1f11e5e91b0c449086a72f774c86eca3", "rental_uris": {"ios": "https://dc.lft.to/lastmile_qr_scan", "android": "https://dc.lft.to/lastmile_qr_scan"}}, {"name": "caf5f7b8b1c4a5e677c5888a0cda6094", "type": "electric_scooter", "lat": 38.936742333333335, "is_reserved": 0, "lon": -77.03594083333333, "fusion_lon": 0.0, "is_disabled": 0, "fusion_lat": 0.0, "bike_id": "caf5f7b8b1c4a5e677c5888a0cda6094", "rental_uris": {"ios": "https://dc.lft.to/lastmile_qr_scan", "android": "https://dc.lft.to/lastmile_qr_scan"}}, {"name": "49a2d4d21057eac09fa85ece8318c576", "type": "electric_scooter", "lat": 38.90084733333333, "is_reserved": 0, "lon": -77.05908166666667, "fusion_lon": 0.0, "is_disabled": 0, "fusion_lat": 0.0, "bike_id": "49a2d4d21057eac09fa85ece8318c576", "rental_uris": {"ios": "https://dc.lft.to/lastmile_qr_scan", "android": "https://dc.lft.to/lastmile_qr_scan"}}, {"name": "c41725f76a52e5dbc3fdba9b65080aed", "type": "electric_scooter", "lat": 38.924845166666664, "is_reserved": 0, "lon": -77.02716266666667, "fusion_lon": 0.0, "is_disabled": 0, "fusion_lat": 0.0, "bike_id": "c41725f76a52e5dbc3fdba9b65080aed", "rental_uris": {"ios": "https://dc.lft.to/lastmile_qr_scan", "android": "https://dc.lft.to/lastmile_qr_scan"}}, {"name": "bf3ec76a2f33201bc8ce0f194c2d3ece", "type": "electric_scooter", "lat": 38.8991835, "is_reserved": 0, "lon": -76.93381516666666, "fusion_lon": 0.0, "is_disabled": 0, "fusion_lat": 0.0, "bike_id": "bf3ec76a2f33201bc8ce0f194c2d3ece", "rental_uris": {"ios": "https://dc.lft.to/lastmile_qr_scan", "android": "https://dc.lft.to/lastmile_qr_scan"}}, {"name": "76c6516ca179beff2723fc0545431d74", "type": "electric_bike", "lat": 38.880373166666665, "is_reserved": 0, "lon": -77.025284, "fusion_lon": 0.0, "is_disabled": 0, "fusion_lat": 0.0, "bike_id": "76c6516ca179beff2723fc0545431d74", "rental_uris": {"ios": "https://dc.lft.to/lastmile_qr_scan", "android": "https://dc.lft.to/lastmile_qr_scan"}}, {"name": "abb5c04c5414668770dd0f0be31fa5e9", "type": "electric_scooter", "lat": 38.90314583333333, "is_reserved": 0, "lon": -76.97649766666666, "fusion_lon": 0.0, "is_disabled": 0, "fusion_lat": 0.0, "bike_id": "abb5c04c5414668770dd0f0be31fa5e9", "rental_uris": {"ios": "https://dc.lft.to/lastmile_qr_scan", "android": "https://dc.lft.to/lastmile_qr_scan"}}, {"name": "ef0663832a0a4466cd56c05f0799c64e", "type": "electric_bike", "lat": 38.9116045, "is_reserved": 0, "lon": -77.00245583333333, "fusion_lon": 0.0, "is_disabled": 0, "fusion_lat": 0.0, "bike_id": "ef0663832a0a4466cd56c05f0799c64e", "rental_uris": {"ios": "https://dc.lft.to/lastmile_qr_scan", "android": "https://dc.lft.to/lastmile_qr_scan"}}, {"name": "5df17acb17e311a3643ebbdc353372cf", "type": "electric_scooter", "lat": 38.92501166666667, "is_reserved": 0, "lon": -77.035607, "fusion_lon": 0.0, "is_disabled": 0, "fusion_lat": 0.0, "bike_id": "5df17acb17e311a3643ebbdc353372cf", "rental_uris": {"ios": "https://dc.lft.to/lastmile_qr_scan", "android": "https://dc.lft.to/lastmile_qr_scan"}}, {"name": "9fcc68be3a2ce781071801480656b1ac", "type": "electric_bike", "lat": 38.851563, "is_reserved": 0, "lon": -77.128772, "fusion_lon": 0.0, "is_disabled": 0, "fusion_lat": 0.0, "bike_id": "9fcc68be3a2ce781071801480656b1ac", "rental_uris": {"ios": "https://dc.lft.to/lastmile_qr_scan", "android": "https://dc.lft.to/lastmile_qr_scan"}}, {"name": "b28512f785ea7ebdaa3a6f445493f379", "type": "electric_scooter", "lat": 38.906865, "is_reserved": 0, "lon": -77.02694166666667, "fusion_lon": 0.0, "is_disabled": 0, "fusion_lat": 0.0, "bike_id": "b28512f785ea7ebdaa3a6f445493f379", "rental_uris": {"ios": "https://dc.lft.to/lastmile_qr_scan", "android": "https://dc.lft.to/lastmile_qr_scan"}}, {"name": "48f7851bb8d7b595743ff78e1df00b02", "type": "electric_bike", "lat": 38.886348166666664, "is_reserved": 0, "lon": -76.95457999999999, "fusion_lon": 0.0, "is_disabled": 0, "fusion_lat": 0.0, "bike_id": "48f7851bb8d7b595743ff78e1df00b02", "rental_uris": {"ios": "https://dc.lft.to/lastmile_qr_scan", "android": "https://dc.lft.to/lastmile_qr_scan"}}, {"name": "f2054c9e35e569ef7f34e84b6dd7bd4f", "type": "electric_scooter", "lat": 38.86420916666667, "is_reserved": 0, "lon": -76.98580366666667, "fusion_lon": 0.0, "is_disabled": 0, "fusion_lat": 0.0, "bike_id": "f2054c9e35e569ef7f34e84b6dd7bd4f", "rental_uris": {"ios": "https://dc.lft.to/lastmile_qr_scan", "android": "https://dc.lft.to/lastmile_qr_scan"}}, {"name": "165b3ecd94359c9defb0798dad7c0a09", "type": "electric_scooter", "lat": 38.912756, "is_reserved": 0, "lon": -77.04504983333334, "fusion_lon": 0.0, "is_disabled": 0, "fusion_lat": 0.0, "bike_id": "165b3ecd94359c9defb0798dad7c0a09", "rental_uris": {"ios": "https://dc.lft.to/lastmile_qr_scan", "android": "https://dc.lft.to/lastmile_qr_scan"}}, {"name": "3be9521e1b800887692db815529cdb31", "type": "electric_scooter", "lat": 38.933677, "is_reserved": 0, "lon": -77.05724766666667, "fusion_lon": 0.0, "is_disabled": 0, "fusion_lat": 0.0, "bike_id": "3be9521e1b800887692db815529cdb31", "rental_uris": {"ios": "https://dc.lft.to/lastmile_qr_scan", "android": "https://dc.lft.to/lastmile_qr_scan"}}, {"name": "5e36149c5275fe73da3f0c3c32ef4010", "type": "electric_scooter", "lat": 38.92847583333333, "is_reserved": 0, "lon": -77.03216866666666, "fusion_lon": 0.0, "is_disabled": 0, "fusion_lat": 0.0, "bike_id": "5e36149c5275fe73da3f0c3c32ef4010", "rental_uris": {"ios": "https://dc.lft.to/lastmile_qr_scan", "android": "https://dc.lft.to/lastmile_qr_scan"}}, {"name": "96f9a63eb4a80f031745fda118479c42", "type": "electric_scooter", "lat": 38.900121666666664, "is_reserved": 0, "lon": -76.998103, "fusion_lon": 0.0, "is_disabled": 0, "fusion_lat": 0.0, "bike_id": "96f9a63eb4a80f031745fda118479c42", "rental_uris": {"ios": "https://dc.lft.to/lastmile_qr_scan", "android": "https://dc.lft.to/lastmile_qr_scan"}}, {"name": "e7e449680b10b96a755479dc5b979e12", "type": "electric_scooter", "lat": 38.90723783333333, "is_reserved": 0, "lon": -77.02498683333333, "fusion_lon": 0.0, "is_disabled": 0, "fusion_lat": 0.0, "bike_id": "e7e449680b10b96a755479dc5b979e12", "rental_uris": {"ios": "https://dc.lft.to/lastmile_qr_scan", "android": "https://dc.lft.to/lastmile_qr_scan"}}, {"name": "ff682ced22179bddcab07b0c3c6a33ff", "type": "electric_bike", "lat": 38.896866, "is_reserved": 0, "lon": -76.94062966666667, "fusion_lon": 0.0, "is_disabled": 0, "fusion_lat": 0.0, "bike_id": "ff682ced22179bddcab07b0c3c6a33ff", "rental_uris": {"ios": "https://dc.lft.to/lastmile_qr_scan", "android": "https://dc.lft.to/lastmile_qr_scan"}}, {"name": "742bc0ec44caf80660d3088afbe53975", "type": "electric_scooter", "lat": 38.917663833333336, "is_reserved": 0, "lon": -77.02711233333333, "fusion_lon": 0.0, "is_disabled": 0, "fusion_lat": 0.0, "bike_id": "742bc0ec44caf80660d3088afbe53975", "rental_uris": {"ios": "https://dc.lft.to/lastmile_qr_scan", "android": "https://dc.lft.to/lastmile_qr_scan"}}, {"name": "2394ae335dfb8dc651f39097a074ce17", "type": "electric_scooter", "lat": 38.91080266666667, "is_reserved": 0, "lon": -77.04476016666666, "fusion_lon": 0.0, "is_disabled": 0, "fusion_lat": 0.0, "bike_id": "2394ae335dfb8dc651f39097a074ce17", "rental_uris": {"ios": "https://dc.lft.to/lastmile_qr_scan", "android": "https://dc.lft.to/lastmile_qr_scan"}}, {"name": "ca97887855ceef48096b2448c04164d4", "type": "electric_scooter", "lat": 38.895915333333335, "is_reserved": 0, "lon": -77.023266, "fusion_lon": 0.0, "is_disabled": 0, "fusion_lat": 0.0, "bike_id": "ca97887855ceef48096b2448c04164d4", "rental_uris": {"ios": "https://dc.lft.to/lastmile_qr_scan", "android": "https://dc.lft.to/lastmile_qr_scan"}}, {"name": "1840f2ed8588ba1d828ccf2049f4f5c7", "type": "electric_scooter", "lat": 38.92315133333334, "is_reserved": 0, "lon": -77.04222866666667, "fusion_lon": 0.0, "is_disabled": 0, "fusion_lat": 0.0, "bike_id": "1840f2ed8588ba1d828ccf2049f4f5c7", "rental_uris": {"ios": "https://dc.lft.to/lastmile_qr_scan", "android": "https://dc.lft.to/lastmile_qr_scan"}}, {"name": "3aeb1d3f2971463ec68947b44926c9c9", "type": "electric_scooter", "lat": 38.937052, "is_reserved": 0, "lon": -77.06100633333334, "fusion_lon": 0.0, "is_disabled": 0, "fusion_lat": 0.0, "bike_id": "3aeb1d3f2971463ec68947b44926c9c9", "rental_uris": {"ios": "https://dc.lft.to/lastmile_qr_scan", "android": "https://dc.lft.to/lastmile_qr_scan"}}, {"name": "00c5763ee8869543ff8c38d4da63ae7c", "type": "electric_scooter", "lat": 38.873885333333334, "is_reserved": 0, "lon": -77.00028916666666, "fusion_lon": 0.0, "is_disabled": 0, "fusion_lat": 0.0, "bike_id": "00c5763ee8869543ff8c38d4da63ae7c", "rental_uris": {"ios": "https://dc.lft.to/lastmile_qr_scan", "android": "https://dc.lft.to/lastmile_qr_scan"}}, {"name": "19acbeb01a002b73443d8c8abbb3dd6f", "type": "electric_scooter", "lat": 38.897147833333335, "is_reserved": 0, "lon": -77.0314305, "fusion_lon": 0.0, "is_disabled": 0, "fusion_lat": 0.0, "bike_id": "19acbeb01a002b73443d8c8abbb3dd6f", "rental_uris": {"ios": "https://dc.lft.to/lastmile_qr_scan", "android": "https://dc.lft.to/lastmile_qr_scan"}}, {"name": "4387bcba43a8887f186eb2ac0f475e6c", "type": "electric_scooter", "lat": 38.93018633333333, "is_reserved": 0, "lon": -77.02349716666667, "fusion_lon": 0.0, "is_disabled": 0, "fusion_lat": 0.0, "bike_id": "4387bcba43a8887f186eb2ac0f475e6c", "rental_uris": {"ios": "https://dc.lft.to/lastmile_qr_scan", "android": "https://dc.lft.to/lastmile_qr_scan"}}, {"name": "44c4ff1be6ba5eb191c55be615b461e2", "type": "electric_scooter", "lat": 38.92441566666667, "is_reserved": 0, "lon": -77.05206883333334, "fusion_lon": 0.0, "is_disabled": 0, "fusion_lat": 0.0, "bike_id": "44c4ff1be6ba5eb191c55be615b461e2", "rental_uris": {"ios": "https://dc.lft.to/lastmile_qr_scan", "android": "https://dc.lft.to/lastmile_qr_scan"}}, {"name": "0b82f528c1a529e76ab6a187a3a3901d", "type": "electric_scooter", "lat": 38.897233666666665, "is_reserved": 0, "lon": -77.02176533333333, "fusion_lon": 0.0, "is_disabled": 0, "fusion_lat": 0.0, "bike_id": "0b82f528c1a529e76ab6a187a3a3901d", "rental_uris": {"ios": "https://dc.lft.to/lastmile_qr_scan", "android": "https://dc.lft.to/lastmile_qr_scan"}}, {"name": "71bf66b23fdbc5c738dee85724518ceb", "type": "electric_bike", "lat": 38.9991015, "is_reserved": 0, "lon": -77.046214, "fusion_lon": 0.0, "is_disabled": 0, "fusion_lat": 0.0, "bike_id": "71bf66b23fdbc5c738dee85724518ceb", "rental_uris": {"ios": "https://dc.lft.to/lastmile_qr_scan", "android": "https://dc.lft.to/lastmile_qr_scan"}}, {"name": "9c1d23728bce6d5da986bb389b370e78", "type": "electric_scooter", "lat": 38.96115416666667, "is_reserved": 0, "lon": -77.02812816666666, "fusion_lon": 0.0, "is_disabled": 0, "fusion_lat": 0.0, "bike_id": "9c1d23728bce6d5da986bb389b370e78", "rental_uris": {"ios": "https://dc.lft.to/lastmile_qr_scan", "android": "https://dc.lft.to/lastmile_qr_scan"}}, {"name": "8db24a517c0a85d205a349a5a4116d9f", "type": "electric_bike", "lat": 38.845734666666665, "is_reserved": 0, "lon": -77.09625, "fusion_lon": 0.0, "is_disabled": 0, "fusion_lat": 0.0, "bike_id": "8db24a517c0a85d205a349a5a4116d9f", "rental_uris": {"ios": "https://dc.lft.to/lastmile_qr_scan", "android": "https://dc.lft.to/lastmile_qr_scan"}}, {"name": "5a783a486aae2064cde3bb9566fc035f", "type": "electric_scooter", "lat": 38.874576, "is_reserved": 0, "lon": -77.00737366666667, "fusion_lon": 0.0, "is_disabled": 0, "fusion_lat": 0.0, "bike_id": "5a783a486aae2064cde3bb9566fc035f", "rental_uris": {"ios": "https://dc.lft.to/lastmile_qr_scan", "android": "https://dc.lft.to/lastmile_qr_scan"}}, {"name": "c7bf69ef4f3de5f6f1a0bb232bc377b1", "type": "electric_scooter", "lat": 38.9230575, "is_reserved": 0, "lon": -77.012108, "fusion_lon": 0.0, "is_disabled": 0, "fusion_lat": 0.0, "bike_id": "c7bf69ef4f3de5f6f1a0bb232bc377b1", "rental_uris": {"ios": "https://dc.lft.to/lastmile_qr_scan", "android": "https://dc.lft.to/lastmile_qr_scan"}}, {"name": "9137a39775d551dc920b455a98465f46", "type": "electric_scooter", "lat": 38.91691633333333, "is_reserved": 0, "lon": -77.03215483333334, "fusion_lon": 0.0, "is_disabled": 0, "fusion_lat": 0.0, "bike_id": "9137a39775d551dc920b455a98465f46", "rental_uris": {"ios": "https://dc.lft.to/lastmile_qr_scan", "android": "https://dc.lft.to/lastmile_qr_scan"}}, {"name": "9a112822b2a033f187f62086db9f2c4e", "type": "electric_scooter", "lat": 38.91108583333333, "is_reserved": 0, "lon": -77.04229816666667, "fusion_lon": 0.0, "is_disabled": 0, "fusion_lat": 0.0, "bike_id": "9a112822b2a033f187f62086db9f2c4e", "rental_uris": {"ios": "https://dc.lft.to/lastmile_qr_scan", "android": "https://dc.lft.to/lastmile_qr_scan"}}, {"name": "8105a7b5225ec1b32802e0b81a5d4769", "type": "electric_scooter", "lat": 38.907008833333336, "is_reserved": 0, "lon": -77.0319445, "fusion_lon": 0.0, "is_disabled": 0, "fusion_lat": 0.0, "bike_id": "8105a7b5225ec1b32802e0b81a5d4769", "rental_uris": {"ios": "https://dc.lft.to/lastmile_qr_scan", "android": "https://dc.lft.to/lastmile_qr_scan"}}, {"name": "9099ea2681fd3e99ac28743229f3cf80", "type": "electric_scooter", "lat": 38.9320135, "is_reserved": 0, "lon": -77.03854516666667, "fusion_lon": 0.0, "is_disabled": 0, "fusion_lat": 0.0, "bike_id": "9099ea2681fd3e99ac28743229f3cf80", "rental_uris": {"ios": "https://dc.lft.to/lastmile_qr_scan", "android": "https://dc.lft.to/lastmile_qr_scan"}}, {"name": "395ac7fb7f1c14a7d7c186e7b072abf4", "type": "electric_scooter", "lat": 38.916949, "is_reserved": 0, "lon": -77.00813, "fusion_lon": 0.0, "is_disabled": 0, "fusion_lat": 0.0, "bike_id": "395ac7fb7f1c14a7d7c186e7b072abf4", "rental_uris": {"ios": "https://dc.lft.to/lastmile_qr_scan", "android": "https://dc.lft.to/lastmile_qr_scan"}}, {"name": "0cb35570e92e47e44616b17ce2d3a19a", "type": "electric_scooter", "lat": 38.89473733333333, "is_reserved": 0, "lon": -76.98596483333333, "fusion_lon": 0.0, "is_disabled": 0, "fusion_lat": 0.0, "bike_id": "0cb35570e92e47e44616b17ce2d3a19a", "rental_uris": {"ios": "https://dc.lft.to/lastmile_qr_scan", "android": "https://dc.lft.to/lastmile_qr_scan"}}, {"name": "7700f5a5dd905ddacbdfb441187b51fd", "type": "electric_scooter", "lat": 38.89995033333334, "is_reserved": 0, "lon": -77.02279516666667, "fusion_lon": 0.0, "is_disabled": 0, "fusion_lat": 0.0, "bike_id": "7700f5a5dd905ddacbdfb441187b51fd", "rental_uris": {"ios": "https://dc.lft.to/lastmile_qr_scan", "android": "https://dc.lft.to/lastmile_qr_scan"}}, {"name": "2d924083f6e7570d5ee402cf6c59a7c1", "type": "electric_scooter", "lat": 38.90405883333333, "is_reserved": 0, "lon": -77.0405745, "fusion_lon": 0.0, "is_disabled": 0, "fusion_lat": 0.0, "bike_id": "2d924083f6e7570d5ee402cf6c59a7c1", "rental_uris": {"ios": "https://dc.lft.to/lastmile_qr_scan", "android": "https://dc.lft.to/lastmile_qr_scan"}}, {"name": "6c7db17253d21c636a24cb01ffe39aca", "type": "electric_scooter", "lat": 38.9253415, "is_reserved": 0, "lon": -77.0264055, "fusion_lon": 0.0, "is_disabled": 0, "fusion_lat": 0.0, "bike_id": "6c7db17253d21c636a24cb01ffe39aca", "rental_uris": {"ios": "https://dc.lft.to/lastmile_qr_scan", "android": "https://dc.lft.to/lastmile_qr_scan"}}, {"name": "1be092cd104eee15ccdb6139e57e8240", "type": "electric_scooter", "lat": 38.949835666666665, "is_reserved": 0, "lon": -77.066985, "fusion_lon": 0.0, "is_disabled": 0, "fusion_lat": 0.0, "bike_id": "1be092cd104eee15ccdb6139e57e8240", "rental_uris": {"ios": "https://dc.lft.to/lastmile_qr_scan", "android": "https://dc.lft.to/lastmile_qr_scan"}}, {"name": "cbc433ed60120a7003a4539cbfc275e8", "type": "electric_scooter", "lat": 38.93482983333333, "is_reserved": 0, "lon": -77.07269083333334, "fusion_lon": 0.0, "is_disabled": 0, "fusion_lat": 0.0, "bike_id": "cbc433ed60120a7003a4539cbfc275e8", "rental_uris": {"ios": "https://dc.lft.to/lastmile_qr_scan", "android": "https://dc.lft.to/lastmile_qr_scan"}}, {"name": "ea8a2ae6809468dfd2584d504b148c04", "type": "electric_scooter", "lat": 38.93773433333333, "is_reserved": 0, "lon": -77.03262533333333, "fusion_lon": 0.0, "is_disabled": 0, "fusion_lat": 0.0, "bike_id": "ea8a2ae6809468dfd2584d504b148c04", "rental_uris": {"ios": "https://dc.lft.to/lastmile_qr_scan", "android": "https://dc.lft.to/lastmile_qr_scan"}}, {"name": "e594e4d1af05679a1ff1b61316b590f6", "type": "electric_scooter", "lat": 38.9072365, "is_reserved": 0, "lon": -76.986005, "fusion_lon": 0.0, "is_disabled": 0, "fusion_lat": 0.0, "bike_id": "e594e4d1af05679a1ff1b61316b590f6", "rental_uris": {"ios": "https://dc.lft.to/lastmile_qr_scan", "android": "https://dc.lft.to/lastmile_qr_scan"}}, {"name": "d19377a0bae5718ce3f6207d4f0c0398", "type": "electric_scooter", "lat": 38.91344983333333, "is_reserved": 0, "lon": -77.02079366666666, "fusion_lon": 0.0, "is_disabled": 0, "fusion_lat": 0.0, "bike_id": "d19377a0bae5718ce3f6207d4f0c0398", "rental_uris": {"ios": "https://dc.lft.to/lastmile_qr_scan", "android": "https://dc.lft.to/lastmile_qr_scan"}}, {"name": "5b8a8b251c4cef076be43110d05b2bb5", "type": "electric_bike", "lat": 38.85059316666667, "is_reserved": 0, "lon": -76.97330433333333, "fusion_lon": 0.0, "is_disabled": 0, "fusion_lat": 0.0, "bike_id": "5b8a8b251c4cef076be43110d05b2bb5", "rental_uris": {"ios": "https://dc.lft.to/lastmile_qr_scan", "android": "https://dc.lft.to/lastmile_qr_scan"}}, {"name": "b2a314b559a607973cda5e5f14a7aa88", "type": "electric_scooter", "lat": 38.91755, "is_reserved": 0, "lon": -77.018839, "fusion_lon": 0.0, "is_disabled": 0, "fusion_lat": 0.0, "bike_id": "b2a314b559a607973cda5e5f14a7aa88", "rental_uris": {"ios": "https://dc.lft.to/lastmile_qr_scan", "android": "https://dc.lft.to/lastmile_qr_scan"}}, {"name": "8f10cf3851eb0600370df43c5096b979", "type": "electric_scooter", "lat": 38.923570833333336, "is_reserved": 0, "lon": -77.05238816666666, "fusion_lon": 0.0, "is_disabled": 0, "fusion_lat": 0.0, "bike_id": "8f10cf3851eb0600370df43c5096b979", "rental_uris": {"ios": "https://dc.lft.to/lastmile_qr_scan", "android": "https://dc.lft.to/lastmile_qr_scan"}}, {"name": "f7117ad760d4e1b447d5ac4f8411b7fb", "type": "electric_scooter", "lat": 38.93350366666667, "is_reserved": 0, "lon": -77.02458166666666, "fusion_lon": 0.0, "is_disabled": 0, "fusion_lat": 0.0, "bike_id": "f7117ad760d4e1b447d5ac4f8411b7fb", "rental_uris": {"ios": "https://dc.lft.to/lastmile_qr_scan", "android": "https://dc.lft.to/lastmile_qr_scan"}}, {"name": "69e0b5dfac106ece12372cd1e483aae1", "type": "electric_scooter", "lat": 38.9191, "is_reserved": 0, "lon": -77.02168333333333, "fusion_lon": 0.0, "is_disabled": 0, "fusion_lat": 0.0, "bike_id": "69e0b5dfac106ece12372cd1e483aae1", "rental_uris": {"ios": "https://dc.lft.to/lastmile_qr_scan", "android": "https://dc.lft.to/lastmile_qr_scan"}}, {"name": "ee887d8d2aa0d9c487ed75f5e8179dac", "type": "electric_scooter", "lat": 38.90157683333334, "is_reserved": 0, "lon": -77.03175233333333, "fusion_lon": 0.0, "is_disabled": 0, "fusion_lat": 0.0, "bike_id": "ee887d8d2aa0d9c487ed75f5e8179dac", "rental_uris": {"ios": "https://dc.lft.to/lastmile_qr_scan", "android": "https://dc.lft.to/lastmile_qr_scan"}}, {"name": "d086fb4ad6d5d58896b189268283c20d", "type": "electric_scooter", "lat": 38.9279945, "is_reserved": 0, "lon": -77.03979666666666, "fusion_lon": 0.0, "is_disabled": 0, "fusion_lat": 0.0, "bike_id": "d086fb4ad6d5d58896b189268283c20d", "rental_uris": {"ios": "https://dc.lft.to/lastmile_qr_scan", "android": "https://dc.lft.to/lastmile_qr_scan"}}, {"name": "7b4c8a148e8cf6130b1ffa53cd81fa99", "type": "electric_scooter", "lat": 38.908871833333336, "is_reserved": 0, "lon": -77.00577216666667, "fusion_lon": 0.0, "is_disabled": 0, "fusion_lat": 0.0, "bike_id": "7b4c8a148e8cf6130b1ffa53cd81fa99", "rental_uris": {"ios": "https://dc.lft.to/lastmile_qr_scan", "android": "https://dc.lft.to/lastmile_qr_scan"}}, {"name": "3d9f530e4583a4f3d18a35dc3d9a07fc", "type": "electric_scooter", "lat": 38.894823833333334, "is_reserved": 0, "lon": -77.02296516666667, "fusion_lon": 0.0, "is_disabled": 0, "fusion_lat": 0.0, "bike_id": "3d9f530e4583a4f3d18a35dc3d9a07fc", "rental_uris": {"ios": "https://dc.lft.to/lastmile_qr_scan", "android": "https://dc.lft.to/lastmile_qr_scan"}}, {"name": "13cc7b8bba10b25ad042957319ba428a", "type": "electric_scooter", "lat": 38.898767, "is_reserved": 0, "lon": -76.931616, "fusion_lon": 0.0, "is_disabled": 0, "fusion_lat": 0.0, "bike_id": "13cc7b8bba10b25ad042957319ba428a", "rental_uris": {"ios": "https://dc.lft.to/lastmile_qr_scan", "android": "https://dc.lft.to/lastmile_qr_scan"}}, {"name": "2d4cfcc4974a1a995a00941669441bf6", "type": "electric_scooter", "lat": 38.917299, "is_reserved": 0, "lon": -77.01029233333334, "fusion_lon": 0.0, "is_disabled": 0, "fusion_lat": 0.0, "bike_id": "2d4cfcc4974a1a995a00941669441bf6", "rental_uris": {"ios": "https://dc.lft.to/lastmile_qr_scan", "android": "https://dc.lft.to/lastmile_qr_scan"}}, {"name": "bf57c585d947bcadcb008ac1821bbda2", "type": "electric_scooter", "lat": 38.90754716666667, "is_reserved": 0, "lon": -77.000335, "fusion_lon": 0.0, "is_disabled": 0, "fusion_lat": 0.0, "bike_id": "bf57c585d947bcadcb008ac1821bbda2", "rental_uris": {"ios": "https://dc.lft.to/lastmile_qr_scan", "android": "https://dc.lft.to/lastmile_qr_scan"}}, {"name": "094a9a19ff6ae3dba064953c1a78cde3", "type": "electric_scooter", "lat": 38.91257916666667, "is_reserved": 0, "lon": -77.03934216666667, "fusion_lon": 0.0, "is_disabled": 0, "fusion_lat": 0.0, "bike_id": "094a9a19ff6ae3dba064953c1a78cde3", "rental_uris": {"ios": "https://dc.lft.to/lastmile_qr_scan", "android": "https://dc.lft.to/lastmile_qr_scan"}}, {"name": "3ebb0cb3ce2205c3ff074c7da1157c84", "type": "electric_scooter", "lat": 38.932416833333335, "is_reserved": 0, "lon": -77.03849033333333, "fusion_lon": 0.0, "is_disabled": 0, "fusion_lat": 0.0, "bike_id": "3ebb0cb3ce2205c3ff074c7da1157c84", "rental_uris": {"ios": "https://dc.lft.to/lastmile_qr_scan", "android": "https://dc.lft.to/lastmile_qr_scan"}}, {"name": "82f2458a1b65291b58006a5f89f2e934", "type": "electric_scooter", "lat": 38.9448225, "is_reserved": 0, "lon": -77.04132983333334, "fusion_lon": 0.0, "is_disabled": 0, "fusion_lat": 0.0, "bike_id": "82f2458a1b65291b58006a5f89f2e934", "rental_uris": {"ios": "https://dc.lft.to/lastmile_qr_scan", "android": "https://dc.lft.to/lastmile_qr_scan"}}, {"name": "adfc76ca496723b69fa878c4f2e36eb0", "type": "electric_bike", "lat": 38.96124016666667, "is_reserved": 0, "lon": -77.032707, "fusion_lon": 0.0, "is_disabled": 0, "fusion_lat": 0.0, "bike_id": "adfc76ca496723b69fa878c4f2e36eb0", "rental_uris": {"ios": "https://dc.lft.to/lastmile_qr_scan", "android": "https://dc.lft.to/lastmile_qr_scan"}}, {"name": "66e88599e46dbd3dd3ff4eb76e977be1", "type": "electric_scooter", "lat": 38.9244645, "is_reserved": 0, "lon": -76.99334933333333, "fusion_lon": 0.0, "is_disabled": 0, "fusion_lat": 0.0, "bike_id": "66e88599e46dbd3dd3ff4eb76e977be1", "rental_uris": {"ios": "https://dc.lft.to/lastmile_qr_scan", "android": "https://dc.lft.to/lastmile_qr_scan"}}, {"name": "b9cfe35289b0cc1bd01feb5dcd5cf764", "type": "electric_scooter", "lat": 38.912972, "is_reserved": 0, "lon": -77.03204483333333, "fusion_lon": 0.0, "is_disabled": 0, "fusion_lat": 0.0, "bike_id": "b9cfe35289b0cc1bd01feb5dcd5cf764", "rental_uris": {"ios": "https://dc.lft.to/lastmile_qr_scan", "android": "https://dc.lft.to/lastmile_qr_scan"}}, {"name": "e8829b49423e9833bb624eb38c837e0d", "type": "electric_bike", "lat": 38.89961366666667, "is_reserved": 0, "lon": -76.986766, "fusion_lon": 0.0, "is_disabled": 0, "fusion_lat": 0.0, "bike_id": "e8829b49423e9833bb624eb38c837e0d", "rental_uris": {"ios": "https://dc.lft.to/lastmile_qr_scan", "android": "https://dc.lft.to/lastmile_qr_scan"}}, {"name": "52de36c831ea3df8a20293c401878013", "type": "electric_scooter", "lat": 38.899963166666666, "is_reserved": 0, "lon": -76.99487483333333, "fusion_lon": 0.0, "is_disabled": 0, "fusion_lat": 0.0, "bike_id": "52de36c831ea3df8a20293c401878013", "rental_uris": {"ios": "https://dc.lft.to/lastmile_qr_scan", "android": "https://dc.lft.to/lastmile_qr_scan"}}, {"name": "b4cd107e129ee4f350908680b9cd7195", "type": "electric_scooter", "lat": 38.9014575, "is_reserved": 0, "lon": -77.03319066666667, "fusion_lon": 0.0, "is_disabled": 0, "fusion_lat": 0.0, "bike_id": "b4cd107e129ee4f350908680b9cd7195", "rental_uris": {"ios": "https://dc.lft.to/lastmile_qr_scan", "android": "https://dc.lft.to/lastmile_qr_scan"}}, {"name": "d759d455d865a36908948fd940c26219", "type": "electric_scooter", "lat": 38.926138, "is_reserved": 0, "lon": -77.021632, "fusion_lon": 0.0, "is_disabled": 0, "fusion_lat": 0.0, "bike_id": "d759d455d865a36908948fd940c26219", "rental_uris": {"ios": "https://dc.lft.to/lastmile_qr_scan", "android": "https://dc.lft.to/lastmile_qr_scan"}}, {"name": "a095c1e8894722ae132cfa2a4df75d95", "type": "electric_scooter", "lat": 38.92489116666667, "is_reserved": 0, "lon": -77.0521625, "fusion_lon": 0.0, "is_disabled": 0, "fusion_lat": 0.0, "bike_id": "a095c1e8894722ae132cfa2a4df75d95", "rental_uris": {"ios": "https://dc.lft.to/lastmile_qr_scan", "android": "https://dc.lft.to/lastmile_qr_scan"}}, {"name": "8700dafc758611909fd2336290188bb2", "type": "electric_scooter", "lat": 38.864169833333335, "is_reserved": 0, "lon": -76.98040983333334, "fusion_lon": 0.0, "is_disabled": 0, "fusion_lat": 0.0, "bike_id": "8700dafc758611909fd2336290188bb2", "rental_uris": {"ios": "https://dc.lft.to/lastmile_qr_scan", "android": "https://dc.lft.to/lastmile_qr_scan"}}, {"name": "f277da6bb1b2606eeb961430d4e2d8c5", "type": "electric_bike", "lat": 38.896382333333335, "is_reserved": 0, "lon": -77.1045795, "fusion_lon": 0.0, "is_disabled": 0, "fusion_lat": 0.0, "bike_id": "f277da6bb1b2606eeb961430d4e2d8c5", "rental_uris": {"ios": "https://dc.lft.to/lastmile_qr_scan", "android": "https://dc.lft.to/lastmile_qr_scan"}}, {"name": "199fb8f60bfb20f1dec718dae79db688", "type": "electric_scooter", "lat": 38.90531283333333, "is_reserved": 0, "lon": -77.050072, "fusion_lon": 0.0, "is_disabled": 0, "fusion_lat": 0.0, "bike_id": "199fb8f60bfb20f1dec718dae79db688", "rental_uris": {"ios": "https://dc.lft.to/lastmile_qr_scan", "android": "https://dc.lft.to/lastmile_qr_scan"}}, {"name": "10891e8da384f9e986139a557c66c4cf", "type": "electric_scooter", "lat": 38.884151333333335, "is_reserved": 0, "lon": -76.985847, "fusion_lon": 0.0, "is_disabled": 0, "fusion_lat": 0.0, "bike_id": "10891e8da384f9e986139a557c66c4cf", "rental_uris": {"ios": "https://dc.lft.to/lastmile_qr_scan", "android": "https://dc.lft.to/lastmile_qr_scan"}}, {"name": "06c21384a0cc47dc8b1db8e6380ef717", "type": "electric_scooter", "lat": 38.941759, "is_reserved": 0, "lon": -77.0338665, "fusion_lon": 0.0, "is_disabled": 0, "fusion_lat": 0.0, "bike_id": "06c21384a0cc47dc8b1db8e6380ef717", "rental_uris": {"ios": "https://dc.lft.to/lastmile_qr_scan", "android": "https://dc.lft.to/lastmile_qr_scan"}}, {"name": "504a2d52a4f5c5b2faa5f44a8bf6082d", "type": "electric_scooter", "lat": 38.894034833333336, "is_reserved": 0, "lon": -76.94805216666667, "fusion_lon": 0.0, "is_disabled": 0, "fusion_lat": 0.0, "bike_id": "504a2d52a4f5c5b2faa5f44a8bf6082d", "rental_uris": {"ios": "https://dc.lft.to/lastmile_qr_scan", "android": "https://dc.lft.to/lastmile_qr_scan"}}, {"name": "59d0a821d78d53d40c1728bf3a58bb23", "type": "electric_scooter", "lat": 38.9178805, "is_reserved": 0, "lon": -77.03600216666666, "fusion_lon": 0.0, "is_disabled": 0, "fusion_lat": 0.0, "bike_id": "59d0a821d78d53d40c1728bf3a58bb23", "rental_uris": {"ios": "https://dc.lft.to/lastmile_qr_scan", "android": "https://dc.lft.to/lastmile_qr_scan"}}, {"name": "8409a4763859c04bc3266c8808168891", "type": "electric_scooter", "lat": 38.92448133333333, "is_reserved": 0, "lon": -77.0202845, "fusion_lon": 0.0, "is_disabled": 0, "fusion_lat": 0.0, "bike_id": "8409a4763859c04bc3266c8808168891", "rental_uris": {"ios": "https://dc.lft.to/lastmile_qr_scan", "android": "https://dc.lft.to/lastmile_qr_scan"}}, {"name": "b0966994b8a26feff47026dde2b40d77", "type": "electric_scooter", "lat": 38.85526866666667, "is_reserved": 0, "lon": -76.96918316666667, "fusion_lon": 0.0, "is_disabled": 0, "fusion_lat": 0.0, "bike_id": "b0966994b8a26feff47026dde2b40d77", "rental_uris": {"ios": "https://dc.lft.to/lastmile_qr_scan", "android": "https://dc.lft.to/lastmile_qr_scan"}}, {"name": "8d61e16bbe2c4d1dd775b07e076de227", "type": "electric_scooter", "lat": 38.97239316666667, "is_reserved": 0, "lon": -77.02717966666667, "fusion_lon": 0.0, "is_disabled": 0, "fusion_lat": 0.0, "bike_id": "8d61e16bbe2c4d1dd775b07e076de227", "rental_uris": {"ios": "https://dc.lft.to/lastmile_qr_scan", "android": "https://dc.lft.to/lastmile_qr_scan"}}, {"name": "1674d253baa0ce7d218aa9ab0813a913", "type": "electric_scooter", "lat": 38.9006455, "is_reserved": 0, "lon": -77.0453265, "fusion_lon": 0.0, "is_disabled": 0, "fusion_lat": 0.0, "bike_id": "1674d253baa0ce7d218aa9ab0813a913", "rental_uris": {"ios": "https://dc.lft.to/lastmile_qr_scan", "android": "https://dc.lft.to/lastmile_qr_scan"}}, {"name": "60dc4f452f9e0fcdd9d07d18e0329a6a", "type": "electric_scooter", "lat": 38.9199975, "is_reserved": 0, "lon": -76.95811033333334, "fusion_lon": 0.0, "is_disabled": 0, "fusion_lat": 0.0, "bike_id": "60dc4f452f9e0fcdd9d07d18e0329a6a", "rental_uris": {"ios": "https://dc.lft.to/lastmile_qr_scan", "android": "https://dc.lft.to/lastmile_qr_scan"}}, {"name": "185c9e5e21149ea0466c535c86a3f4d7", "type": "electric_bike", "lat": 38.93562583333333, "is_reserved": 0, "lon": -77.03697966666667, "fusion_lon": 0.0, "is_disabled": 0, "fusion_lat": 0.0, "bike_id": "185c9e5e21149ea0466c535c86a3f4d7", "rental_uris": {"ios": "https://dc.lft.to/lastmile_qr_scan", "android": "https://dc.lft.to/lastmile_qr_scan"}}, {"name": "d7ed4f49564e861ee3d816809288367c", "type": "electric_scooter", "lat": 38.923418833333336, "is_reserved": 0, "lon": -77.0417325, "fusion_lon": 0.0, "is_disabled": 0, "fusion_lat": 0.0, "bike_id": "d7ed4f49564e861ee3d816809288367c", "rental_uris": {"ios": "https://dc.lft.to/lastmile_qr_scan", "android": "https://dc.lft.to/lastmile_qr_scan"}}, {"name": "5dbd4e088841e4ab0a8b8643d8aa81d6", "type": "electric_scooter", "lat": 38.89555216666667, "is_reserved": 0, "lon": -76.92658483333334, "fusion_lon": 0.0, "is_disabled": 0, "fusion_lat": 0.0, "bike_id": "5dbd4e088841e4ab0a8b8643d8aa81d6", "rental_uris": {"ios": "https://dc.lft.to/lastmile_qr_scan", "android": "https://dc.lft.to/lastmile_qr_scan"}}, {"name": "62c4619ff0acce96ff279d5280e5785e", "type": "electric_scooter", "lat": 38.9112285, "is_reserved": 0, "lon": -77.03731266666666, "fusion_lon": 0.0, "is_disabled": 0, "fusion_lat": 0.0, "bike_id": "62c4619ff0acce96ff279d5280e5785e", "rental_uris": {"ios": "https://dc.lft.to/lastmile_qr_scan", "android": "https://dc.lft.to/lastmile_qr_scan"}}, {"name": "adc10aad50720db78e6629e4efccf320", "type": "electric_scooter", "lat": 38.928783333333335, "is_reserved": 0, "lon": -77.03310033333334, "fusion_lon": 0.0, "is_disabled": 0, "fusion_lat": 0.0, "bike_id": "adc10aad50720db78e6629e4efccf320", "rental_uris": {"ios": "https://dc.lft.to/lastmile_qr_scan", "android": "https://dc.lft.to/lastmile_qr_scan"}}, {"name": "f859304162d787a4c677360701ba7859", "type": "electric_scooter", "lat": 38.9172035, "is_reserved": 0, "lon": -77.04408833333333, "fusion_lon": 0.0, "is_disabled": 0, "fusion_lat": 0.0, "bike_id": "f859304162d787a4c677360701ba7859", "rental_uris": {"ios": "https://dc.lft.to/lastmile_qr_scan", "android": "https://dc.lft.to/lastmile_qr_scan"}}, {"name": "1a9999ade96eba9b4a1122378575508f", "type": "electric_scooter", "lat": 38.936141166666665, "is_reserved": 0, "lon": -77.05868183333334, "fusion_lon": 0.0, "is_disabled": 0, "fusion_lat": 0.0, "bike_id": "1a9999ade96eba9b4a1122378575508f", "rental_uris": {"ios": "https://dc.lft.to/lastmile_qr_scan", "android": "https://dc.lft.to/lastmile_qr_scan"}}, {"name": "fb884a1ef5696b557efd759bd67ded4a", "type": "electric_scooter", "lat": 38.894036, "is_reserved": 0, "lon": -77.0218195, "fusion_lon": 0.0, "is_disabled": 0, "fusion_lat": 0.0, "bike_id": "fb884a1ef5696b557efd759bd67ded4a", "rental_uris": {"ios": "https://dc.lft.to/lastmile_qr_scan", "android": "https://dc.lft.to/lastmile_qr_scan"}}, {"name": "19ea84e4151aa1be0ae51062b27e6b5c", "type": "electric_scooter", "lat": 38.901065833333334, "is_reserved": 0, "lon": -77.042206, "fusion_lon": 0.0, "is_disabled": 0, "fusion_lat": 0.0, "bike_id": "19ea84e4151aa1be0ae51062b27e6b5c", "rental_uris": {"ios": "https://dc.lft.to/lastmile_qr_scan", "android": "https://dc.lft.to/lastmile_qr_scan"}}, {"name": "4fc6b917e16e218a490afb55f66b3fbd", "type": "electric_scooter", "lat": 38.877363333333335, "is_reserved": 0, "lon": -77.00805766666667, "fusion_lon": 0.0, "is_disabled": 0, "fusion_lat": 0.0, "bike_id": "4fc6b917e16e218a490afb55f66b3fbd", "rental_uris": {"ios": "https://dc.lft.to/lastmile_qr_scan", "android": "https://dc.lft.to/lastmile_qr_scan"}}, {"name": "c464a0521126064cf67702fe132695d2", "type": "electric_scooter", "lat": 38.917385333333335, "is_reserved": 0, "lon": -77.03639466666667, "fusion_lon": 0.0, "is_disabled": 0, "fusion_lat": 0.0, "bike_id": "c464a0521126064cf67702fe132695d2", "rental_uris": {"ios": "https://dc.lft.to/lastmile_qr_scan", "android": "https://dc.lft.to/lastmile_qr_scan"}}, {"name": "846867db66ca06b57367d2bcffe82868", "type": "electric_scooter", "lat": 38.9095915, "is_reserved": 0, "lon": -77.03940833333333, "fusion_lon": 0.0, "is_disabled": 0, "fusion_lat": 0.0, "bike_id": "846867db66ca06b57367d2bcffe82868", "rental_uris": {"ios": "https://dc.lft.to/lastmile_qr_scan", "android": "https://dc.lft.to/lastmile_qr_scan"}}, {"name": "579a52b64950e2c4314048d184d9b29f", "type": "electric_scooter", "lat": 38.94121533333333, "is_reserved": 0, "lon": -77.0265635, "fusion_lon": 0.0, "is_disabled": 0, "fusion_lat": 0.0, "bike_id": "579a52b64950e2c4314048d184d9b29f", "rental_uris": {"ios": "https://dc.lft.to/lastmile_qr_scan", "android": "https://dc.lft.to/lastmile_qr_scan"}}, {"name": "ec7aae0cd479d578a9dc02ef69000c6a", "type": "electric_scooter", "lat": 38.9086255, "is_reserved": 0, "lon": -76.98615566666666, "fusion_lon": 0.0, "is_disabled": 0, "fusion_lat": 0.0, "bike_id": "ec7aae0cd479d578a9dc02ef69000c6a", "rental_uris": {"ios": "https://dc.lft.to/lastmile_qr_scan", "android": "https://dc.lft.to/lastmile_qr_scan"}}, {"name": "fa5148dd37a6aa63c92a1101f00a16c0", "type": "electric_scooter", "lat": 38.90779333333333, "is_reserved": 0, "lon": -77.07167766666667, "fusion_lon": 0.0, "is_disabled": 0, "fusion_lat": 0.0, "bike_id": "fa5148dd37a6aa63c92a1101f00a16c0", "rental_uris": {"ios": "https://dc.lft.to/lastmile_qr_scan", "android": "https://dc.lft.to/lastmile_qr_scan"}}, {"name": "2e8878cd12c81845e9d8993f3c83c48f", "type": "electric_bike", "lat": 38.930006666666664, "is_reserved": 0, "lon": -77.01089733333333, "fusion_lon": 0.0, "is_disabled": 0, "fusion_lat": 0.0, "bike_id": "2e8878cd12c81845e9d8993f3c83c48f", "rental_uris": {"ios": "https://dc.lft.to/lastmile_qr_scan", "android": "https://dc.lft.to/lastmile_qr_scan"}}, {"name": "c49b534bd3164d06a16d01c2b048d2e9", "type": "electric_scooter", "lat": 38.96561233333333, "is_reserved": 0, "lon": -77.01625533333333, "fusion_lon": 0.0, "is_disabled": 0, "fusion_lat": 0.0, "bike_id": "c49b534bd3164d06a16d01c2b048d2e9", "rental_uris": {"ios": "https://dc.lft.to/lastmile_qr_scan", "android": "https://dc.lft.to/lastmile_qr_scan"}}, {"name": "246e6dc24861ad1ed9d20a6dfab83667", "type": "electric_scooter", "lat": 38.9001535, "is_reserved": 0, "lon": -77.01148533333334, "fusion_lon": 0.0, "is_disabled": 0, "fusion_lat": 0.0, "bike_id": "246e6dc24861ad1ed9d20a6dfab83667", "rental_uris": {"ios": "https://dc.lft.to/lastmile_qr_scan", "android": "https://dc.lft.to/lastmile_qr_scan"}}, {"name": "b434c2decaa242b493ed485ef3ec2cd1", "type": "electric_scooter", "lat": 38.884741, "is_reserved": 0, "lon": -77.02857283333333, "fusion_lon": 0.0, "is_disabled": 0, "fusion_lat": 0.0, "bike_id": "b434c2decaa242b493ed485ef3ec2cd1", "rental_uris": {"ios": "https://dc.lft.to/lastmile_qr_scan", "android": "https://dc.lft.to/lastmile_qr_scan"}}, {"name": "1b394a421fa8873c8ad4a33d44c4589d", "type": "electric_bike", "lat": 38.928644166666665, "is_reserved": 0, "lon": -76.96107583333334, "fusion_lon": 0.0, "is_disabled": 0, "fusion_lat": 0.0, "bike_id": "1b394a421fa8873c8ad4a33d44c4589d", "rental_uris": {"ios": "https://dc.lft.to/lastmile_qr_scan", "android": "https://dc.lft.to/lastmile_qr_scan"}}, {"name": "906a44776f10eb7fec38c776330b7769", "type": "electric_scooter", "lat": 38.86360416666667, "is_reserved": 0, "lon": -76.9906295, "fusion_lon": 0.0, "is_disabled": 0, "fusion_lat": 0.0, "bike_id": "906a44776f10eb7fec38c776330b7769", "rental_uris": {"ios": "https://dc.lft.to/lastmile_qr_scan", "android": "https://dc.lft.to/lastmile_qr_scan"}}, {"name": "1aa765cc6d5d8e38e710e5a75b621bfd", "type": "electric_scooter", "lat": 38.8974045, "is_reserved": 0, "lon": -77.03254433333333, "fusion_lon": 0.0, "is_disabled": 0, "fusion_lat": 0.0, "bike_id": "1aa765cc6d5d8e38e710e5a75b621bfd", "rental_uris": {"ios": "https://dc.lft.to/lastmile_qr_scan", "android": "https://dc.lft.to/lastmile_qr_scan"}}, {"name": "5b699cbdfec1dc50cb3030ce819295af", "type": "electric_scooter", "lat": 38.9036765, "is_reserved": 0, "lon": -77.04344416666666, "fusion_lon": 0.0, "is_disabled": 0, "fusion_lat": 0.0, "bike_id": "5b699cbdfec1dc50cb3030ce819295af", "rental_uris": {"ios": "https://dc.lft.to/lastmile_qr_scan", "android": "https://dc.lft.to/lastmile_qr_scan"}}, {"name": "e490aa674733e831ce97801f1090cf47", "type": "electric_scooter", "lat": 38.923617, "is_reserved": 0, "lon": -77.05033616666667, "fusion_lon": 0.0, "is_disabled": 0, "fusion_lat": 0.0, "bike_id": "e490aa674733e831ce97801f1090cf47", "rental_uris": {"ios": "https://dc.lft.to/lastmile_qr_scan", "android": "https://dc.lft.to/lastmile_qr_scan"}}, {"name": "cb53ed4c3b21a4760eaa7aad0230da2e", "type": "electric_scooter", "lat": 38.89840133333333, "is_reserved": 0, "lon": -77.0438045, "fusion_lon": 0.0, "is_disabled": 0, "fusion_lat": 0.0, "bike_id": "cb53ed4c3b21a4760eaa7aad0230da2e", "rental_uris": {"ios": "https://dc.lft.to/lastmile_qr_scan", "android": "https://dc.lft.to/lastmile_qr_scan"}}, {"name": "2670190eb69b41fd90b1cdd796565a8b", "type": "electric_bike", "lat": 39.1056545, "is_reserved": 0, "lon": -77.15266516666667, "fusion_lon": 0.0, "is_disabled": 0, "fusion_lat": 0.0, "bike_id": "2670190eb69b41fd90b1cdd796565a8b", "rental_uris": {"ios": "https://dc.lft.to/lastmile_qr_scan", "android": "https://dc.lft.to/lastmile_qr_scan"}}, {"name": "167afc56ee234e9e0d6941e645838cb5", "type": "electric_scooter", "lat": 38.909741333333336, "is_reserved": 0, "lon": -77.036746, "fusion_lon": 0.0, "is_disabled": 0, "fusion_lat": 0.0, "bike_id": "167afc56ee234e9e0d6941e645838cb5", "rental_uris": {"ios": "https://dc.lft.to/lastmile_qr_scan", "android": "https://dc.lft.to/lastmile_qr_scan"}}, {"name": "4ea59ab700c1abd8984cce6607576b23", "type": "electric_scooter", "lat": 38.90795516666667, "is_reserved": 0, "lon": -77.04825616666666, "fusion_lon": 0.0, "is_disabled": 0, "fusion_lat": 0.0, "bike_id": "4ea59ab700c1abd8984cce6607576b23", "rental_uris": {"ios": "https://dc.lft.to/lastmile_qr_scan", "android": "https://dc.lft.to/lastmile_qr_scan"}}, {"name": "82e715b5042438517b5a37aa2ec806a6", "type": "electric_bike", "lat": 38.918806000000004, "is_reserved": 0, "lon": -77.04155266666666, "fusion_lon": 0.0, "is_disabled": 0, "fusion_lat": 0.0, "bike_id": "82e715b5042438517b5a37aa2ec806a6", "rental_uris": {"ios": "https://dc.lft.to/lastmile_qr_scan", "android": "https://dc.lft.to/lastmile_qr_scan"}}, {"name": "d4088c149547a59808890a824bc5b232", "type": "electric_scooter", "lat": 38.900943166666664, "is_reserved": 0, "lon": -77.032542, "fusion_lon": 0.0, "is_disabled": 0, "fusion_lat": 0.0, "bike_id": "d4088c149547a59808890a824bc5b232", "rental_uris": {"ios": "https://dc.lft.to/lastmile_qr_scan", "android": "https://dc.lft.to/lastmile_qr_scan"}}, {"name": "29375e42031f0527e5a0b206f24ccbff", "type": "electric_scooter", "lat": 38.916904333333335, "is_reserved": 0, "lon": -77.02592816666667, "fusion_lon": 0.0, "is_disabled": 0, "fusion_lat": 0.0, "bike_id": "29375e42031f0527e5a0b206f24ccbff", "rental_uris": {"ios": "https://dc.lft.to/lastmile_qr_scan", "android": "https://dc.lft.to/lastmile_qr_scan"}}, {"name": "e4e9842d7385c974a9707c66a10e05e0", "type": "electric_bike", "lat": 38.88679466666667, "is_reserved": 0, "lon": -77.16259483333333, "fusion_lon": 0.0, "is_disabled": 0, "fusion_lat": 0.0, "bike_id": "e4e9842d7385c974a9707c66a10e05e0", "rental_uris": {"ios": "https://dc.lft.to/lastmile_qr_scan", "android": "https://dc.lft.to/lastmile_qr_scan"}}, {"name": "6a1a65a6fbaaf9163ff98131ea7e0972", "type": "electric_scooter", "lat": 38.909998, "is_reserved": 0, "lon": -77.02260433333333, "fusion_lon": 0.0, "is_disabled": 0, "fusion_lat": 0.0, "bike_id": "6a1a65a6fbaaf9163ff98131ea7e0972", "rental_uris": {"ios": "https://dc.lft.to/lastmile_qr_scan", "android": "https://dc.lft.to/lastmile_qr_scan"}}, {"name": "77a16a993094d8f2f8018c02924cd02b", "type": "electric_scooter", "lat": 38.94500716666667, "is_reserved": 0, "lon": -77.031499, "fusion_lon": 0.0, "is_disabled": 0, "fusion_lat": 0.0, "bike_id": "77a16a993094d8f2f8018c02924cd02b", "rental_uris": {"ios": "https://dc.lft.to/lastmile_qr_scan", "android": "https://dc.lft.to/lastmile_qr_scan"}}, {"name": "3f34f5c199da02f3a30eb4cbd1a56ee1", "type": "electric_scooter", "lat": 38.9275035, "is_reserved": 0, "lon": -77.02483966666667, "fusion_lon": 0.0, "is_disabled": 0, "fusion_lat": 0.0, "bike_id": "3f34f5c199da02f3a30eb4cbd1a56ee1", "rental_uris": {"ios": "https://dc.lft.to/lastmile_qr_scan", "android": "https://dc.lft.to/lastmile_qr_scan"}}, {"name": "e8fd7792376959270c0655be818cff61", "type": "electric_scooter", "lat": 38.902644333333335, "is_reserved": 0, "lon": -77.05317866666667, "fusion_lon": 0.0, "is_disabled": 0, "fusion_lat": 0.0, "bike_id": "e8fd7792376959270c0655be818cff61", "rental_uris": {"ios": "https://dc.lft.to/lastmile_qr_scan", "android": "https://dc.lft.to/lastmile_qr_scan"}}, {"name": "fe8c949867a81f621afbe984c2b5a0c6", "type": "electric_scooter", "lat": 38.918073666666665, "is_reserved": 0, "lon": -77.00170366666667, "fusion_lon": 0.0, "is_disabled": 0, "fusion_lat": 0.0, "bike_id": "fe8c949867a81f621afbe984c2b5a0c6", "rental_uris": {"ios": "https://dc.lft.to/lastmile_qr_scan", "android": "https://dc.lft.to/lastmile_qr_scan"}}, {"name": "06e1ade119c829147de3ece5463b46dd", "type": "electric_scooter", "lat": 38.913253, "is_reserved": 0, "lon": -77.019674, "fusion_lon": 0.0, "is_disabled": 0, "fusion_lat": 0.0, "bike_id": "06e1ade119c829147de3ece5463b46dd", "rental_uris": {"ios": "https://dc.lft.to/lastmile_qr_scan", "android": "https://dc.lft.to/lastmile_qr_scan"}}, {"name": "b9cafbe88a1aaa8e74e62535566b7983", "type": "electric_scooter", "lat": 38.9077855, "is_reserved": 0, "lon": -77.02971783333334, "fusion_lon": 0.0, "is_disabled": 0, "fusion_lat": 0.0, "bike_id": "b9cafbe88a1aaa8e74e62535566b7983", "rental_uris": {"ios": "https://dc.lft.to/lastmile_qr_scan", "android": "https://dc.lft.to/lastmile_qr_scan"}}, {"name": "538bc5af0660ad0f40ff05781b808635", "type": "electric_scooter", "lat": 38.90829983333333, "is_reserved": 0, "lon": -76.99691316666667, "fusion_lon": 0.0, "is_disabled": 0, "fusion_lat": 0.0, "bike_id": "538bc5af0660ad0f40ff05781b808635", "rental_uris": {"ios": "https://dc.lft.to/lastmile_qr_scan", "android": "https://dc.lft.to/lastmile_qr_scan"}}, {"name": "74932a6e1fd2bdaf6550088611c270c2", "type": "electric_scooter", "lat": 38.908349666666666, "is_reserved": 0, "lon": -77.0007325, "fusion_lon": 0.0, "is_disabled": 0, "fusion_lat": 0.0, "bike_id": "74932a6e1fd2bdaf6550088611c270c2", "rental_uris": {"ios": "https://dc.lft.to/lastmile_qr_scan", "android": "https://dc.lft.to/lastmile_qr_scan"}}, {"name": "120fd50f8ebc950e076347a1481e27be", "type": "electric_scooter", "lat": 38.928469166666666, "is_reserved": 0, "lon": -77.05434, "fusion_lon": 0.0, "is_disabled": 0, "fusion_lat": 0.0, "bike_id": "120fd50f8ebc950e076347a1481e27be", "rental_uris": {"ios": "https://dc.lft.to/lastmile_qr_scan", "android": "https://dc.lft.to/lastmile_qr_scan"}}, {"name": "b9fd209684729a58a30ada68e6c861f1", "type": "electric_scooter", "lat": 38.872342333333336, "is_reserved": 0, "lon": -77.01169466666667, "fusion_lon": 0.0, "is_disabled": 0, "fusion_lat": 0.0, "bike_id": "b9fd209684729a58a30ada68e6c861f1", "rental_uris": {"ios": "https://dc.lft.to/lastmile_qr_scan", "android": "https://dc.lft.to/lastmile_qr_scan"}}, {"name": "1296f54fff15c4440b190e97e38b957c", "type": "electric_scooter", "lat": 38.92015516666667, "is_reserved": 0, "lon": -77.03984283333334, "fusion_lon": 0.0, "is_disabled": 0, "fusion_lat": 0.0, "bike_id": "1296f54fff15c4440b190e97e38b957c", "rental_uris": {"ios": "https://dc.lft.to/lastmile_qr_scan", "android": "https://dc.lft.to/lastmile_qr_scan"}}, {"name": "cb4dbff6a63ad77638e8683ad3610b01", "type": "electric_scooter", "lat": 38.883956833333336, "is_reserved": 0, "lon": -77.0198245, "fusion_lon": 0.0, "is_disabled": 0, "fusion_lat": 0.0, "bike_id": "cb4dbff6a63ad77638e8683ad3610b01", "rental_uris": {"ios": "https://dc.lft.to/lastmile_qr_scan", "android": "https://dc.lft.to/lastmile_qr_scan"}}, {"name": "1ec64cf7fc0b2879df929184f8e6c5e1", "type": "electric_scooter", "lat": 38.876810166666665, "is_reserved": 0, "lon": -77.00075316666667, "fusion_lon": 0.0, "is_disabled": 0, "fusion_lat": 0.0, "bike_id": "1ec64cf7fc0b2879df929184f8e6c5e1", "rental_uris": {"ios": "https://dc.lft.to/lastmile_qr_scan", "android": "https://dc.lft.to/lastmile_qr_scan"}}, {"name": "d7a1751e1831da6eb10ebf07ca212796", "type": "electric_scooter", "lat": 38.89218666666667, "is_reserved": 0, "lon": -77.02143333333333, "fusion_lon": 0.0, "is_disabled": 0, "fusion_lat": 0.0, "bike_id": "d7a1751e1831da6eb10ebf07ca212796", "rental_uris": {"ios": "https://dc.lft.to/lastmile_qr_scan", "android": "https://dc.lft.to/lastmile_qr_scan"}}, {"name": "0da23f2b5f6e56bab99b8a0e996bb35f", "type": "electric_scooter", "lat": 38.89603, "is_reserved": 0, "lon": -77.02577316666667, "fusion_lon": 0.0, "is_disabled": 0, "fusion_lat": 0.0, "bike_id": "0da23f2b5f6e56bab99b8a0e996bb35f", "rental_uris": {"ios": "https://dc.lft.to/lastmile_qr_scan", "android": "https://dc.lft.to/lastmile_qr_scan"}}, {"name": "c5fa7381503a0fdce54b9afa41314ee0", "type": "electric_scooter", "lat": 38.89127766666667, "is_reserved": 0, "lon": -77.0033885, "fusion_lon": 0.0, "is_disabled": 0, "fusion_lat": 0.0, "bike_id": "c5fa7381503a0fdce54b9afa41314ee0", "rental_uris": {"ios": "https://dc.lft.to/lastmile_qr_scan", "android": "https://dc.lft.to/lastmile_qr_scan"}}, {"name": "0fcbaaf0deab24348b1dfdaf3ca89fa7", "type": "electric_scooter", "lat": 38.9035185, "is_reserved": 0, "lon": -77.05074616666667, "fusion_lon": 0.0, "is_disabled": 0, "fusion_lat": 0.0, "bike_id": "0fcbaaf0deab24348b1dfdaf3ca89fa7", "rental_uris": {"ios": "https://dc.lft.to/lastmile_qr_scan", "android": "https://dc.lft.to/lastmile_qr_scan"}}, {"name": "5b725d4a0988a159f12ed5fda5d217fa", "type": "electric_bike", "lat": 39.03049816666667, "is_reserved": 0, "lon": -77.09483816666666, "fusion_lon": 0.0, "is_disabled": 0, "fusion_lat": 0.0, "bike_id": "5b725d4a0988a159f12ed5fda5d217fa", "rental_uris": {"ios": "https://dc.lft.to/lastmile_qr_scan", "android": "https://dc.lft.to/lastmile_qr_scan"}}, {"name": "85ef53760ed347cfa615ed2a2961c6cf", "type": "electric_scooter", "lat": 38.90670433333333, "is_reserved": 0, "lon": -77.02712383333333, "fusion_lon": 0.0, "is_disabled": 0, "fusion_lat": 0.0, "bike_id": "85ef53760ed347cfa615ed2a2961c6cf", "rental_uris": {"ios": "https://dc.lft.to/lastmile_qr_scan", "android": "https://dc.lft.to/lastmile_qr_scan"}}, {"name": "bef3c68acd234b62924d23e2ebe58098", "type": "electric_scooter", "lat": 38.9148285, "is_reserved": 0, "lon": -77.00223733333333, "fusion_lon": 0.0, "is_disabled": 0, "fusion_lat": 0.0, "bike_id": "bef3c68acd234b62924d23e2ebe58098", "rental_uris": {"ios": "https://dc.lft.to/lastmile_qr_scan", "android": "https://dc.lft.to/lastmile_qr_scan"}}, {"name": "907ed3fc1794b3bb5f1295543e096030", "type": "electric_bike", "lat": 38.945485833333336, "is_reserved": 0, "lon": -76.89537083333333, "fusion_lon": 0.0, "is_disabled": 0, "fusion_lat": 0.0, "bike_id": "907ed3fc1794b3bb5f1295543e096030", "rental_uris": {"ios": "https://dc.lft.to/lastmile_qr_scan", "android": "https://dc.lft.to/lastmile_qr_scan"}}, {"name": "47527455f271de67f36835b681f15c85", "type": "electric_scooter", "lat": 38.92845533333333, "is_reserved": 0, "lon": -77.01360883333334, "fusion_lon": 0.0, "is_disabled": 0, "fusion_lat": 0.0, "bike_id": "47527455f271de67f36835b681f15c85", "rental_uris": {"ios": "https://dc.lft.to/lastmile_qr_scan", "android": "https://dc.lft.to/lastmile_qr_scan"}}, {"name": "97aee9a643f2cf6298e89856d019ec52", "type": "electric_scooter", "lat": 38.900223833333335, "is_reserved": 0, "lon": -77.02185883333334, "fusion_lon": 0.0, "is_disabled": 0, "fusion_lat": 0.0, "bike_id": "97aee9a643f2cf6298e89856d019ec52", "rental_uris": {"ios": "https://dc.lft.to/lastmile_qr_scan", "android": "https://dc.lft.to/lastmile_qr_scan"}}, {"name": "75e0ed5242204d4aa0271d303f708e9c", "type": "electric_scooter", "lat": 38.89516, "is_reserved": 0, "lon": -77.01604466666667, "fusion_lon": 0.0, "is_disabled": 0, "fusion_lat": 0.0, "bike_id": "75e0ed5242204d4aa0271d303f708e9c", "rental_uris": {"ios": "https://dc.lft.to/lastmile_qr_scan", "android": "https://dc.lft.to/lastmile_qr_scan"}}, {"name": "38c1627ec2d8d9c9b0086afcfbfa6388", "type": "electric_scooter", "lat": 38.898571833333335, "is_reserved": 0, "lon": -76.9902995, "fusion_lon": 0.0, "is_disabled": 0, "fusion_lat": 0.0, "bike_id": "38c1627ec2d8d9c9b0086afcfbfa6388", "rental_uris": {"ios": "https://dc.lft.to/lastmile_qr_scan", "android": "https://dc.lft.to/lastmile_qr_scan"}}, {"name": "41a2ec7e02676feb8d9754ede2419184", "type": "electric_scooter", "lat": 38.915754166666666, "is_reserved": 0, "lon": -77.03193683333333, "fusion_lon": 0.0, "is_disabled": 0, "fusion_lat": 0.0, "bike_id": "41a2ec7e02676feb8d9754ede2419184", "rental_uris": {"ios": "https://dc.lft.to/lastmile_qr_scan", "android": "https://dc.lft.to/lastmile_qr_scan"}}, {"name": "40fecdc7b3b1b782ed2d9cd753569d5c", "type": "electric_scooter", "lat": 38.86699016666667, "is_reserved": 0, "lon": -76.987131, "fusion_lon": 0.0, "is_disabled": 0, "fusion_lat": 0.0, "bike_id": "40fecdc7b3b1b782ed2d9cd753569d5c", "rental_uris": {"ios": "https://dc.lft.to/lastmile_qr_scan", "android": "https://dc.lft.to/lastmile_qr_scan"}}, {"name": "5f5d2fde6e086fa48708a72178486abd", "type": "electric_scooter", "lat": 38.90186383333333, "is_reserved": 0, "lon": -77.03948133333333, "fusion_lon": 0.0, "is_disabled": 0, "fusion_lat": 0.0, "bike_id": "5f5d2fde6e086fa48708a72178486abd", "rental_uris": {"ios": "https://dc.lft.to/lastmile_qr_scan", "android": "https://dc.lft.to/lastmile_qr_scan"}}, {"name": "95be8126d34d9aa338c316608d2bb05f", "type": "electric_bike", "lat": 38.97328733333333, "is_reserved": 0, "lon": -77.021473, "fusion_lon": 0.0, "is_disabled": 0, "fusion_lat": 0.0, "bike_id": "95be8126d34d9aa338c316608d2bb05f", "rental_uris": {"ios": "https://dc.lft.to/lastmile_qr_scan", "android": "https://dc.lft.to/lastmile_qr_scan"}}, {"name": "c3535f7feab93dd50952b350a5380630", "type": "electric_scooter", "lat": 38.906449, "is_reserved": 0, "lon": -77.0059735, "fusion_lon": 0.0, "is_disabled": 0, "fusion_lat": 0.0, "bike_id": "c3535f7feab93dd50952b350a5380630", "rental_uris": {"ios": "https://dc.lft.to/lastmile_qr_scan", "android": "https://dc.lft.to/lastmile_qr_scan"}}, {"name": "b3b47f6fda38502375f533bea9ad432d", "type": "electric_scooter", "lat": 38.84426216666667, "is_reserved": 0, "lon": -76.99777766666666, "fusion_lon": 0.0, "is_disabled": 0, "fusion_lat": 0.0, "bike_id": "b3b47f6fda38502375f533bea9ad432d", "rental_uris": {"ios": "https://dc.lft.to/lastmile_qr_scan", "android": "https://dc.lft.to/lastmile_qr_scan"}}, {"name": "e8a071fc65ff4de9df431c1b9f07d33e", "type": "electric_scooter", "lat": 38.92038616666667, "is_reserved": 0, "lon": -77.03213583333333, "fusion_lon": 0.0, "is_disabled": 0, "fusion_lat": 0.0, "bike_id": "e8a071fc65ff4de9df431c1b9f07d33e", "rental_uris": {"ios": "https://dc.lft.to/lastmile_qr_scan", "android": "https://dc.lft.to/lastmile_qr_scan"}}, {"name": "2d609927c9cf9f6f464d2626d6264aad", "type": "electric_scooter", "lat": 38.93124266666667, "is_reserved": 0, "lon": -77.03600766666666, "fusion_lon": 0.0, "is_disabled": 0, "fusion_lat": 0.0, "bike_id": "2d609927c9cf9f6f464d2626d6264aad", "rental_uris": {"ios": "https://dc.lft.to/lastmile_qr_scan", "android": "https://dc.lft.to/lastmile_qr_scan"}}, {"name": "161fa0846cce6503277ceb26c4aecdbe", "type": "electric_scooter", "lat": 38.91257216666666, "is_reserved": 0, "lon": -77.01356066666666, "fusion_lon": 0.0, "is_disabled": 0, "fusion_lat": 0.0, "bike_id": "161fa0846cce6503277ceb26c4aecdbe", "rental_uris": {"ios": "https://dc.lft.to/lastmile_qr_scan", "android": "https://dc.lft.to/lastmile_qr_scan"}}, {"name": "644d464cae80c5c695dc73906af87303", "type": "electric_scooter", "lat": 38.932540333333336, "is_reserved": 0, "lon": -77.0400295, "fusion_lon": 0.0, "is_disabled": 0, "fusion_lat": 0.0, "bike_id": "644d464cae80c5c695dc73906af87303", "rental_uris": {"ios": "https://dc.lft.to/lastmile_qr_scan", "android": "https://dc.lft.to/lastmile_qr_scan"}}, {"name": "da41605bbbc8a5ce7836461281a6cc18", "type": "electric_scooter", "lat": 38.93734166666667, "is_reserved": 0, "lon": -77.033559, "fusion_lon": 0.0, "is_disabled": 0, "fusion_lat": 0.0, "bike_id": "da41605bbbc8a5ce7836461281a6cc18", "rental_uris": {"ios": "https://dc.lft.to/lastmile_qr_scan", "android": "https://dc.lft.to/lastmile_qr_scan"}}, {"name": "da5b0b22c43e6819df368d3a2e31d5f0", "type": "electric_scooter", "lat": 38.883956833333336, "is_reserved": 0, "lon": -76.93038983333334, "fusion_lon": 0.0, "is_disabled": 0, "fusion_lat": 0.0, "bike_id": "da5b0b22c43e6819df368d3a2e31d5f0", "rental_uris": {"ios": "https://dc.lft.to/lastmile_qr_scan", "android": "https://dc.lft.to/lastmile_qr_scan"}}, {"name": "fe4e7d66aa73f3f22672076424b53237", "type": "electric_scooter", "lat": 38.9162515, "is_reserved": 0, "lon": -77.03849983333333, "fusion_lon": 0.0, "is_disabled": 0, "fusion_lat": 0.0, "bike_id": "fe4e7d66aa73f3f22672076424b53237", "rental_uris": {"ios": "https://dc.lft.to/lastmile_qr_scan", "android": "https://dc.lft.to/lastmile_qr_scan"}}, {"name": "333cf9a1243b0ffc6045e10bf065a680", "type": "electric_scooter", "lat": 38.8927655, "is_reserved": 0, "lon": -77.03222433333333, "fusion_lon": 0.0, "is_disabled": 0, "fusion_lat": 0.0, "bike_id": "333cf9a1243b0ffc6045e10bf065a680", "rental_uris": {"ios": "https://dc.lft.to/lastmile_qr_scan", "android": "https://dc.lft.to/lastmile_qr_scan"}}, {"name": "047153446568a624ae8f647a67760c8c", "type": "electric_bike", "lat": 38.828704333333334, "is_reserved": 0, "lon": -77.112237, "fusion_lon": 0.0, "is_disabled": 0, "fusion_lat": 0.0, "bike_id": "047153446568a624ae8f647a67760c8c", "rental_uris": {"ios": "https://dc.lft.to/lastmile_qr_scan", "android": "https://dc.lft.to/lastmile_qr_scan"}}, {"name": "e3f6325da77d3021d60016cb945d7409", "type": "electric_scooter", "lat": 38.90658166666667, "is_reserved": 0, "lon": -77.0386655, "fusion_lon": 0.0, "is_disabled": 0, "fusion_lat": 0.0, "bike_id": "e3f6325da77d3021d60016cb945d7409", "rental_uris": {"ios": "https://dc.lft.to/lastmile_qr_scan", "android": "https://dc.lft.to/lastmile_qr_scan"}}, {"name": "8244ccf749dec75f322d19d9fd415f87", "type": "electric_scooter", "lat": 38.95308083333333, "is_reserved": 0, "lon": -77.02378366666667, "fusion_lon": 0.0, "is_disabled": 0, "fusion_lat": 0.0, "bike_id": "8244ccf749dec75f322d19d9fd415f87", "rental_uris": {"ios": "https://dc.lft.to/lastmile_qr_scan", "android": "https://dc.lft.to/lastmile_qr_scan"}}, {"name": "cdee3f3241466ab2c03fc1aeae374727", "type": "electric_scooter", "lat": 38.90660833333333, "is_reserved": 0, "lon": -77.0387095, "fusion_lon": 0.0, "is_disabled": 0, "fusion_lat": 0.0, "bike_id": "cdee3f3241466ab2c03fc1aeae374727", "rental_uris": {"ios": "https://dc.lft.to/lastmile_qr_scan", "android": "https://dc.lft.to/lastmile_qr_scan"}}, {"name": "f2e20f9470930c56a6e5f8ca8a2a56c3", "type": "electric_scooter", "lat": 38.8971635, "is_reserved": 0, "lon": -77.03146983333333, "fusion_lon": 0.0, "is_disabled": 0, "fusion_lat": 0.0, "bike_id": "f2e20f9470930c56a6e5f8ca8a2a56c3", "rental_uris": {"ios": "https://dc.lft.to/lastmile_qr_scan", "android": "https://dc.lft.to/lastmile_qr_scan"}}, {"name": "8ae04722e6accfed131311c3f29b2fe0", "type": "electric_scooter", "lat": 38.9141665, "is_reserved": 0, "lon": -77.03994433333334, "fusion_lon": 0.0, "is_disabled": 0, "fusion_lat": 0.0, "bike_id": "8ae04722e6accfed131311c3f29b2fe0", "rental_uris": {"ios": "https://dc.lft.to/lastmile_qr_scan", "android": "https://dc.lft.to/lastmile_qr_scan"}}, {"name": "3d2401885a8b3431dc9837338acc9048", "type": "electric_scooter", "lat": 38.884131833333335, "is_reserved": 0, "lon": -77.01533616666667, "fusion_lon": 0.0, "is_disabled": 0, "fusion_lat": 0.0, "bike_id": "3d2401885a8b3431dc9837338acc9048", "rental_uris": {"ios": "https://dc.lft.to/lastmile_qr_scan", "android": "https://dc.lft.to/lastmile_qr_scan"}}, {"name": "69e273c17c95156cd28ebe33c3854947", "type": "electric_scooter", "lat": 38.8667245, "is_reserved": 0, "lon": -76.98447666666667, "fusion_lon": 0.0, "is_disabled": 0, "fusion_lat": 0.0, "bike_id": "69e273c17c95156cd28ebe33c3854947", "rental_uris": {"ios": "https://dc.lft.to/lastmile_qr_scan", "android": "https://dc.lft.to/lastmile_qr_scan"}}, {"name": "2d1602a9e01474b6d6af0b8141d97485", "type": "electric_bike", "lat": 38.990897, "is_reserved": 0, "lon": -76.8749535, "fusion_lon": 0.0, "is_disabled": 0, "fusion_lat": 0.0, "bike_id": "2d1602a9e01474b6d6af0b8141d97485", "rental_uris": {"ios": "https://dc.lft.to/lastmile_qr_scan", "android": "https://dc.lft.to/lastmile_qr_scan"}}, {"name": "ce97d7a7f60b9293ab2c30f0ce90cffc", "type": "electric_scooter", "lat": 38.87674033333333, "is_reserved": 0, "lon": -77.01783533333334, "fusion_lon": 0.0, "is_disabled": 0, "fusion_lat": 0.0, "bike_id": "ce97d7a7f60b9293ab2c30f0ce90cffc", "rental_uris": {"ios": "https://dc.lft.to/lastmile_qr_scan", "android": "https://dc.lft.to/lastmile_qr_scan"}}, {"name": "aad3ec7665eec127a8f50d76a2f70d20", "type": "electric_scooter", "lat": 38.92440916666666, "is_reserved": 0, "lon": -77.03352566666666, "fusion_lon": 0.0, "is_disabled": 0, "fusion_lat": 0.0, "bike_id": "aad3ec7665eec127a8f50d76a2f70d20", "rental_uris": {"ios": "https://dc.lft.to/lastmile_qr_scan", "android": "https://dc.lft.to/lastmile_qr_scan"}}, {"name": "4998ea601e04b0eee7ed6f37bd9d2351", "type": "electric_scooter", "lat": 38.89226633333333, "is_reserved": 0, "lon": -77.04638516666667, "fusion_lon": 0.0, "is_disabled": 0, "fusion_lat": 0.0, "bike_id": "4998ea601e04b0eee7ed6f37bd9d2351", "rental_uris": {"ios": "https://dc.lft.to/lastmile_qr_scan", "android": "https://dc.lft.to/lastmile_qr_scan"}}, {"name": "a2d2e721d7c865aaf9d107db54989c4e", "type": "electric_scooter", "lat": 38.899688166666664, "is_reserved": 0, "lon": -77.0569825, "fusion_lon": 0.0, "is_disabled": 0, "fusion_lat": 0.0, "bike_id": "a2d2e721d7c865aaf9d107db54989c4e", "rental_uris": {"ios": "https://dc.lft.to/lastmile_qr_scan", "android": "https://dc.lft.to/lastmile_qr_scan"}}, {"name": "f3cd5b85bfa42a7921d4fdb59b6bcdc4", "type": "electric_scooter", "lat": 38.93608783333333, "is_reserved": 0, "lon": -77.05858566666667, "fusion_lon": 0.0, "is_disabled": 0, "fusion_lat": 0.0, "bike_id": "f3cd5b85bfa42a7921d4fdb59b6bcdc4", "rental_uris": {"ios": "https://dc.lft.to/lastmile_qr_scan", "android": "https://dc.lft.to/lastmile_qr_scan"}}, {"name": "663d571b4c38a1ad7dc2a7231ddd81c5", "type": "electric_scooter", "lat": 38.901021666666665, "is_reserved": 0, "lon": -77.00216883333333, "fusion_lon": 0.0, "is_disabled": 0, "fusion_lat": 0.0, "bike_id": "663d571b4c38a1ad7dc2a7231ddd81c5", "rental_uris": {"ios": "https://dc.lft.to/lastmile_qr_scan", "android": "https://dc.lft.to/lastmile_qr_scan"}}, {"name": "186779ca4313de9278dfd538107978f9", "type": "electric_scooter", "lat": 38.92825216666667, "is_reserved": 0, "lon": -77.02259666666667, "fusion_lon": 0.0, "is_disabled": 0, "fusion_lat": 0.0, "bike_id": "186779ca4313de9278dfd538107978f9", "rental_uris": {"ios": "https://dc.lft.to/lastmile_qr_scan", "android": "https://dc.lft.to/lastmile_qr_scan"}}, {"name": "7f0d8a48f5677cb9cc4565cddf0406ee", "type": "electric_bike", "lat": 38.83150766666667, "is_reserved": 0, "lon": -77.11310033333334, "fusion_lon": 0.0, "is_disabled": 0, "fusion_lat": 0.0, "bike_id": "7f0d8a48f5677cb9cc4565cddf0406ee", "rental_uris": {"ios": "https://dc.lft.to/lastmile_qr_scan", "android": "https://dc.lft.to/lastmile_qr_scan"}}, {"name": "7316a1df8c4d66d2b3e1408597b7aa9c", "type": "electric_scooter", "lat": 38.901475, "is_reserved": 0, "lon": -77.04694133333334, "fusion_lon": 0.0, "is_disabled": 0, "fusion_lat": 0.0, "bike_id": "7316a1df8c4d66d2b3e1408597b7aa9c", "rental_uris": {"ios": "https://dc.lft.to/lastmile_qr_scan", "android": "https://dc.lft.to/lastmile_qr_scan"}}, {"name": "8c8575e3578cd34cf1b6c479f62ca1f7", "type": "electric_bike", "lat": 38.884011, "is_reserved": 0, "lon": -76.960549, "fusion_lon": 0.0, "is_disabled": 0, "fusion_lat": 0.0, "bike_id": "8c8575e3578cd34cf1b6c479f62ca1f7", "rental_uris": {"ios": "https://dc.lft.to/lastmile_qr_scan", "android": "https://dc.lft.to/lastmile_qr_scan"}}, {"name": "018e9a5fd7f9001d360a84af84df6f30", "type": "electric_scooter", "lat": 38.951898666666665, "is_reserved": 0, "lon": -77.02515283333334, "fusion_lon": 0.0, "is_disabled": 0, "fusion_lat": 0.0, "bike_id": "018e9a5fd7f9001d360a84af84df6f30", "rental_uris": {"ios": "https://dc.lft.to/lastmile_qr_scan", "android": "https://dc.lft.to/lastmile_qr_scan"}}, {"name": "99c5c8a41caa6c973f2dcf06c68d2a56", "type": "electric_scooter", "lat": 38.907872166666664, "is_reserved": 0, "lon": -77.04869466666666, "fusion_lon": 0.0, "is_disabled": 0, "fusion_lat": 0.0, "bike_id": "99c5c8a41caa6c973f2dcf06c68d2a56", "rental_uris": {"ios": "https://dc.lft.to/lastmile_qr_scan", "android": "https://dc.lft.to/lastmile_qr_scan"}}, {"name": "511abdb15eb22172c577151d657c7219", "type": "electric_scooter", "lat": 38.93433133333333, "is_reserved": 0, "lon": -77.0399925, "fusion_lon": 0.0, "is_disabled": 0, "fusion_lat": 0.0, "bike_id": "511abdb15eb22172c577151d657c7219", "rental_uris": {"ios": "https://dc.lft.to/lastmile_qr_scan", "android": "https://dc.lft.to/lastmile_qr_scan"}}, {"name": "4829fa333f5dc037752b0e2c76bfecc2", "type": "electric_bike", "lat": 38.9507295, "is_reserved": 0, "lon": -77.0120075, "fusion_lon": 0.0, "is_disabled": 0, "fusion_lat": 0.0, "bike_id": "4829fa333f5dc037752b0e2c76bfecc2", "rental_uris": {"ios": "https://dc.lft.to/lastmile_qr_scan", "android": "https://dc.lft.to/lastmile_qr_scan"}}, {"name": "7389380dcfec6521c1c502e068ce9874", "type": "electric_scooter", "lat": 38.918742333333334, "is_reserved": 0, "lon": -77.035078, "fusion_lon": 0.0, "is_disabled": 0, "fusion_lat": 0.0, "bike_id": "7389380dcfec6521c1c502e068ce9874", "rental_uris": {"ios": "https://dc.lft.to/lastmile_qr_scan", "android": "https://dc.lft.to/lastmile_qr_scan"}}, {"name": "f31df8bac808bf90820381270a6fd52e", "type": "electric_scooter", "lat": 38.89219883333333, "is_reserved": 0, "lon": -77.030893, "fusion_lon": 0.0, "is_disabled": 0, "fusion_lat": 0.0, "bike_id": "f31df8bac808bf90820381270a6fd52e", "rental_uris": {"ios": "https://dc.lft.to/lastmile_qr_scan", "android": "https://dc.lft.to/lastmile_qr_scan"}}, {"name": "b600b87ce5ec44c55e7b917bf536ea70", "type": "electric_bike", "lat": 38.84292033333333, "is_reserved": 0, "lon": -76.98842083333334, "fusion_lon": 0.0, "is_disabled": 0, "fusion_lat": 0.0, "bike_id": "b600b87ce5ec44c55e7b917bf536ea70", "rental_uris": {"ios": "https://dc.lft.to/lastmile_qr_scan", "android": "https://dc.lft.to/lastmile_qr_scan"}}, {"name": "8785de9a0be55213682b953c9d3ce0e7", "type": "electric_scooter", "lat": 38.90312633333333, "is_reserved": 0, "lon": -77.03622933333334, "fusion_lon": 0.0, "is_disabled": 0, "fusion_lat": 0.0, "bike_id": "8785de9a0be55213682b953c9d3ce0e7", "rental_uris": {"ios": "https://dc.lft.to/lastmile_qr_scan", "android": "https://dc.lft.to/lastmile_qr_scan"}}, {"name": "0c6b8e5a53660c7090cd7df98c1392ee", "type": "electric_scooter", "lat": 38.91785866666667, "is_reserved": 0, "lon": -77.042972, "fusion_lon": 0.0, "is_disabled": 0, "fusion_lat": 0.0, "bike_id": "0c6b8e5a53660c7090cd7df98c1392ee", "rental_uris": {"ios": "https://dc.lft.to/lastmile_qr_scan", "android": "https://dc.lft.to/lastmile_qr_scan"}}, {"name": "08ffa41afda69bfcdcf20de60fbb9442", "type": "electric_scooter", "lat": 38.896766166666666, "is_reserved": 0, "lon": -77.01186466666667, "fusion_lon": 0.0, "is_disabled": 0, "fusion_lat": 0.0, "bike_id": "08ffa41afda69bfcdcf20de60fbb9442", "rental_uris": {"ios": "https://dc.lft.to/lastmile_qr_scan", "android": "https://dc.lft.to/lastmile_qr_scan"}}, {"name": "10884f2a6252aec99d5eec534839407e", "type": "electric_scooter", "lat": 38.92082083333333, "is_reserved": 0, "lon": -77.02386183333333, "fusion_lon": 0.0, "is_disabled": 0, "fusion_lat": 0.0, "bike_id": "10884f2a6252aec99d5eec534839407e", "rental_uris": {"ios": "https://dc.lft.to/lastmile_qr_scan", "android": "https://dc.lft.to/lastmile_qr_scan"}}, {"name": "18b0a8d0fbecf2031ba9bd70a1be4ab5", "type": "electric_scooter", "lat": 38.896612833333336, "is_reserved": 0, "lon": -76.9484895, "fusion_lon": 0.0, "is_disabled": 0, "fusion_lat": 0.0, "bike_id": "18b0a8d0fbecf2031ba9bd70a1be4ab5", "rental_uris": {"ios": "https://dc.lft.to/lastmile_qr_scan", "android": "https://dc.lft.to/lastmile_qr_scan"}}, {"name": "7a23e5a98a27cbeaf04cd9eac815b841", "type": "electric_scooter", "lat": 38.908161666666665, "is_reserved": 0, "lon": -77.00038983333333, "fusion_lon": 0.0, "is_disabled": 0, "fusion_lat": 0.0, "bike_id": "7a23e5a98a27cbeaf04cd9eac815b841", "rental_uris": {"ios": "https://dc.lft.to/lastmile_qr_scan", "android": "https://dc.lft.to/lastmile_qr_scan"}}, {"name": "1e033a1c3d89a8bcb718645996b3d989", "type": "electric_scooter", "lat": 38.94292166666666, "is_reserved": 0, "lon": -77.02169633333334, "fusion_lon": 0.0, "is_disabled": 0, "fusion_lat": 0.0, "bike_id": "1e033a1c3d89a8bcb718645996b3d989", "rental_uris": {"ios": "https://dc.lft.to/lastmile_qr_scan", "android": "https://dc.lft.to/lastmile_qr_scan"}}, {"name": "50b6b1088f040c181c473358e3507825", "type": "electric_scooter", "lat": 38.91874283333333, "is_reserved": 0, "lon": -77.02305266666667, "fusion_lon": 0.0, "is_disabled": 0, "fusion_lat": 0.0, "bike_id": "50b6b1088f040c181c473358e3507825", "rental_uris": {"ios": "https://dc.lft.to/lastmile_qr_scan", "android": "https://dc.lft.to/lastmile_qr_scan"}}, {"name": "de82fe2a502f62aa768c03ef5c383a02", "type": "electric_scooter", "lat": 38.89385016666667, "is_reserved": 0, "lon": -77.023454, "fusion_lon": 0.0, "is_disabled": 0, "fusion_lat": 0.0, "bike_id": "de82fe2a502f62aa768c03ef5c383a02", "rental_uris": {"ios": "https://dc.lft.to/lastmile_qr_scan", "android": "https://dc.lft.to/lastmile_qr_scan"}}, {"name": "7ebc86d7b101fda7e6abe08da511d606", "type": "electric_scooter", "lat": 38.909809833333334, "is_reserved": 0, "lon": -77.06712316666666, "fusion_lon": 0.0, "is_disabled": 0, "fusion_lat": 0.0, "bike_id": "7ebc86d7b101fda7e6abe08da511d606", "rental_uris": {"ios": "https://dc.lft.to/lastmile_qr_scan", "android": "https://dc.lft.to/lastmile_qr_scan"}}, {"name": "371da00049e1fa8fd78af9411c9ee9d3", "type": "electric_scooter", "lat": 38.91696616666667, "is_reserved": 0, "lon": -77.035864, "fusion_lon": 0.0, "is_disabled": 0, "fusion_lat": 0.0, "bike_id": "371da00049e1fa8fd78af9411c9ee9d3", "rental_uris": {"ios": "https://dc.lft.to/lastmile_qr_scan", "android": "https://dc.lft.to/lastmile_qr_scan"}}, {"name": "2f87b9937cdfc25c2c15f39d0b9ac91d", "type": "electric_scooter", "lat": 38.931161333333336, "is_reserved": 0, "lon": -77.02098033333333, "fusion_lon": 0.0, "is_disabled": 0, "fusion_lat": 0.0, "bike_id": "2f87b9937cdfc25c2c15f39d0b9ac91d", "rental_uris": {"ios": "https://dc.lft.to/lastmile_qr_scan", "android": "https://dc.lft.to/lastmile_qr_scan"}}, {"name": "345d38c8a01b38e17d7bb82c57ff368f", "type": "electric_scooter", "lat": 38.90379216666667, "is_reserved": 0, "lon": -77.03213983333333, "fusion_lon": 0.0, "is_disabled": 0, "fusion_lat": 0.0, "bike_id": "345d38c8a01b38e17d7bb82c57ff368f", "rental_uris": {"ios": "https://dc.lft.to/lastmile_qr_scan", "android": "https://dc.lft.to/lastmile_qr_scan"}}, {"name": "8485f5fad7cb4ba27fdabc409e68ee19", "type": "electric_scooter", "lat": 38.9389475, "is_reserved": 0, "lon": -77.02458933333334, "fusion_lon": 0.0, "is_disabled": 0, "fusion_lat": 0.0, "bike_id": "8485f5fad7cb4ba27fdabc409e68ee19", "rental_uris": {"ios": "https://dc.lft.to/lastmile_qr_scan", "android": "https://dc.lft.to/lastmile_qr_scan"}}, {"name": "99f06086bd4f1b15908c9032b24bba16", "type": "electric_scooter", "lat": 38.9055955, "is_reserved": 0, "lon": -77.03073383333333, "fusion_lon": 0.0, "is_disabled": 0, "fusion_lat": 0.0, "bike_id": "99f06086bd4f1b15908c9032b24bba16", "rental_uris": {"ios": "https://dc.lft.to/lastmile_qr_scan", "android": "https://dc.lft.to/lastmile_qr_scan"}}, {"name": "3094b9b2b2c6ba60820a7c2815114ccd", "type": "electric_scooter", "lat": 38.9047845, "is_reserved": 0, "lon": -77.04659283333334, "fusion_lon": 0.0, "is_disabled": 0, "fusion_lat": 0.0, "bike_id": "3094b9b2b2c6ba60820a7c2815114ccd", "rental_uris": {"ios": "https://dc.lft.to/lastmile_qr_scan", "android": "https://dc.lft.to/lastmile_qr_scan"}}, {"name": "64297cea1d6a1124073de8037b4ff849", "type": "electric_scooter", "lat": 38.936852333333334, "is_reserved": 0, "lon": -77.036262, "fusion_lon": 0.0, "is_disabled": 0, "fusion_lat": 0.0, "bike_id": "64297cea1d6a1124073de8037b4ff849", "rental_uris": {"ios": "https://dc.lft.to/lastmile_qr_scan", "android": "https://dc.lft.to/lastmile_qr_scan"}}, {"name": "d9ddf0923402deeabe47322fd380432b", "type": "electric_scooter", "lat": 38.944447333333336, "is_reserved": 0, "lon": -77.06358316666666, "fusion_lon": 0.0, "is_disabled": 0, "fusion_lat": 0.0, "bike_id": "d9ddf0923402deeabe47322fd380432b", "rental_uris": {"ios": "https://dc.lft.to/lastmile_qr_scan", "android": "https://dc.lft.to/lastmile_qr_scan"}}, {"name": "c400230275b80512deff9001603ba522", "type": "electric_scooter", "lat": 38.912509666666665, "is_reserved": 0, "lon": -77.0383565, "fusion_lon": 0.0, "is_disabled": 0, "fusion_lat": 0.0, "bike_id": "c400230275b80512deff9001603ba522", "rental_uris": {"ios": "https://dc.lft.to/lastmile_qr_scan", "android": "https://dc.lft.to/lastmile_qr_scan"}}, {"name": "3041e825474f42bf8d7319604808cda0", "type": "electric_bike", "lat": 38.80225333333333, "is_reserved": 0, "lon": -77.079186, "fusion_lon": 0.0, "is_disabled": 0, "fusion_lat": 0.0, "bike_id": "3041e825474f42bf8d7319604808cda0", "rental_uris": {"ios": "https://dc.lft.to/lastmile_qr_scan", "android": "https://dc.lft.to/lastmile_qr_scan"}}, {"name": "dd7fb7b34b288c01c904fd121748460b", "type": "electric_bike", "lat": 38.9069035, "is_reserved": 0, "lon": -76.9518655, "fusion_lon": 0.0, "is_disabled": 0, "fusion_lat": 0.0, "bike_id": "dd7fb7b34b288c01c904fd121748460b", "rental_uris": {"ios": "https://dc.lft.to/lastmile_qr_scan", "android": "https://dc.lft.to/lastmile_qr_scan"}}, {"name": "aff578ccd3f5fbed983393a91b74eb2c", "type": "electric_bike", "lat": 38.911019, "is_reserved": 0, "lon": -77.00493933333334, "fusion_lon": 0.0, "is_disabled": 0, "fusion_lat": 0.0, "bike_id": "aff578ccd3f5fbed983393a91b74eb2c", "rental_uris": {"ios": "https://dc.lft.to/lastmile_qr_scan", "android": "https://dc.lft.to/lastmile_qr_scan"}}, {"name": "2a08931103ea945a2cfd0bf66301c799", "type": "electric_scooter", "lat": 38.9037505, "is_reserved": 0, "lon": -77.01107033333334, "fusion_lon": 0.0, "is_disabled": 0, "fusion_lat": 0.0, "bike_id": "2a08931103ea945a2cfd0bf66301c799", "rental_uris": {"ios": "https://dc.lft.to/lastmile_qr_scan", "android": "https://dc.lft.to/lastmile_qr_scan"}}, {"name": "14cd47be347f0892fcd12778f1840626", "type": "electric_scooter", "lat": 38.91774216666666, "is_reserved": 0, "lon": -77.04094216666667, "fusion_lon": 0.0, "is_disabled": 0, "fusion_lat": 0.0, "bike_id": "14cd47be347f0892fcd12778f1840626", "rental_uris": {"ios": "https://dc.lft.to/lastmile_qr_scan", "android": "https://dc.lft.to/lastmile_qr_scan"}}, {"name": "7323a547ba4a4503b1a50a07a1a4a672", "type": "electric_scooter", "lat": 38.896339166666664, "is_reserved": 0, "lon": -77.041805, "fusion_lon": 0.0, "is_disabled": 0, "fusion_lat": 0.0, "bike_id": "7323a547ba4a4503b1a50a07a1a4a672", "rental_uris": {"ios": "https://dc.lft.to/lastmile_qr_scan", "android": "https://dc.lft.to/lastmile_qr_scan"}}, {"name": "d5239b270da548c20792a82eab4b633a", "type": "electric_scooter", "lat": 38.903353, "is_reserved": 0, "lon": -76.998505, "fusion_lon": 0.0, "is_disabled": 0, "fusion_lat": 0.0, "bike_id": "d5239b270da548c20792a82eab4b633a", "rental_uris": {"ios": "https://dc.lft.to/lastmile_qr_scan", "android": "https://dc.lft.to/lastmile_qr_scan"}}, {"name": "2b88c2ec2943d30391f398b69bae698d", "type": "electric_scooter", "lat": 38.90646, "is_reserved": 0, "lon": -77.02502766666667, "fusion_lon": 0.0, "is_disabled": 0, "fusion_lat": 0.0, "bike_id": "2b88c2ec2943d30391f398b69bae698d", "rental_uris": {"ios": "https://dc.lft.to/lastmile_qr_scan", "android": "https://dc.lft.to/lastmile_qr_scan"}}, {"name": "415ca13557c4d357257344c8b32ba6a9", "type": "electric_scooter", "lat": 38.90533533333333, "is_reserved": 0, "lon": -77.04360466666667, "fusion_lon": 0.0, "is_disabled": 0, "fusion_lat": 0.0, "bike_id": "415ca13557c4d357257344c8b32ba6a9", "rental_uris": {"ios": "https://dc.lft.to/lastmile_qr_scan", "android": "https://dc.lft.to/lastmile_qr_scan"}}, {"name": "a0d81e2c8b7dbd14e7f3388e7884b2a3", "type": "electric_scooter", "lat": 38.892289833333336, "is_reserved": 0, "lon": -77.0463915, "fusion_lon": 0.0, "is_disabled": 0, "fusion_lat": 0.0, "bike_id": "a0d81e2c8b7dbd14e7f3388e7884b2a3", "rental_uris": {"ios": "https://dc.lft.to/lastmile_qr_scan", "android": "https://dc.lft.to/lastmile_qr_scan"}}, {"name": "334d9ae81699787569036899cfc6cda9", "type": "electric_scooter", "lat": 38.9174995, "is_reserved": 0, "lon": -77.02296866666667, "fusion_lon": 0.0, "is_disabled": 0, "fusion_lat": 0.0, "bike_id": "334d9ae81699787569036899cfc6cda9", "rental_uris": {"ios": "https://dc.lft.to/lastmile_qr_scan", "android": "https://dc.lft.to/lastmile_qr_scan"}}, {"name": "dd5dcea768ecf4903a72700e03596935", "type": "electric_scooter", "lat": 38.93423766666667, "is_reserved": 0, "lon": -77.0726095, "fusion_lon": 0.0, "is_disabled": 0, "fusion_lat": 0.0, "bike_id": "dd5dcea768ecf4903a72700e03596935", "rental_uris": {"ios": "https://dc.lft.to/lastmile_qr_scan", "android": "https://dc.lft.to/lastmile_qr_scan"}}, {"name": "6502ef7a638ab566eaed5a4f0cc6e02a", "type": "electric_scooter", "lat": 38.896809, "is_reserved": 0, "lon": -76.99623033333333, "fusion_lon": 0.0, "is_disabled": 0, "fusion_lat": 0.0, "bike_id": "6502ef7a638ab566eaed5a4f0cc6e02a", "rental_uris": {"ios": "https://dc.lft.to/lastmile_qr_scan", "android": "https://dc.lft.to/lastmile_qr_scan"}}, {"name": "c41d9284302c3fe4b2e09cf6533896ad", "type": "electric_scooter", "lat": 38.932415666666664, "is_reserved": 0, "lon": -77.0385045, "fusion_lon": 0.0, "is_disabled": 0, "fusion_lat": 0.0, "bike_id": "c41d9284302c3fe4b2e09cf6533896ad", "rental_uris": {"ios": "https://dc.lft.to/lastmile_qr_scan", "android": "https://dc.lft.to/lastmile_qr_scan"}}, {"name": "2c708d5a507dd09dcfafb18e080de5fd", "type": "electric_bike", "lat": 38.8767625, "is_reserved": 0, "lon": -76.9944415, "fusion_lon": 0.0, "is_disabled": 0, "fusion_lat": 0.0, "bike_id": "2c708d5a507dd09dcfafb18e080de5fd", "rental_uris": {"ios": "https://dc.lft.to/lastmile_qr_scan", "android": "https://dc.lft.to/lastmile_qr_scan"}}, {"name": "4ef16daf4d9b0074649ff6c0f80f0dd4", "type": "electric_scooter", "lat": 38.902606666666664, "is_reserved": 0, "lon": -77.04619483333333, "fusion_lon": 0.0, "is_disabled": 0, "fusion_lat": 0.0, "bike_id": "4ef16daf4d9b0074649ff6c0f80f0dd4", "rental_uris": {"ios": "https://dc.lft.to/lastmile_qr_scan", "android": "https://dc.lft.to/lastmile_qr_scan"}}, {"name": "2e89f7802b3cc100985eda52fc0b0d18", "type": "electric_scooter", "lat": 38.89600216666667, "is_reserved": 0, "lon": -77.02843816666666, "fusion_lon": 0.0, "is_disabled": 0, "fusion_lat": 0.0, "bike_id": "2e89f7802b3cc100985eda52fc0b0d18", "rental_uris": {"ios": "https://dc.lft.to/lastmile_qr_scan", "android": "https://dc.lft.to/lastmile_qr_scan"}}, {"name": "e6c919a1529d9cba423d09d2b1bbd002", "type": "electric_bike", "lat": 38.86366316666667, "is_reserved": 0, "lon": -76.97014983333334, "fusion_lon": 0.0, "is_disabled": 0, "fusion_lat": 0.0, "bike_id": "e6c919a1529d9cba423d09d2b1bbd002", "rental_uris": {"ios": "https://dc.lft.to/lastmile_qr_scan", "android": "https://dc.lft.to/lastmile_qr_scan"}}, {"name": "0cb057f683d21f423c29be920e22fdab", "type": "electric_bike", "lat": 38.86907266666667, "is_reserved": 0, "lon": -77.13179633333333, "fusion_lon": 0.0, "is_disabled": 0, "fusion_lat": 0.0, "bike_id": "0cb057f683d21f423c29be920e22fdab", "rental_uris": {"ios": "https://dc.lft.to/lastmile_qr_scan", "android": "https://dc.lft.to/lastmile_qr_scan"}}, {"name": "17c43ea8a9e2911c9d0cac1ee0a22573", "type": "electric_scooter", "lat": 38.916883166666665, "is_reserved": 0, "lon": -77.02802483333333, "fusion_lon": 0.0, "is_disabled": 0, "fusion_lat": 0.0, "bike_id": "17c43ea8a9e2911c9d0cac1ee0a22573", "rental_uris": {"ios": "https://dc.lft.to/lastmile_qr_scan", "android": "https://dc.lft.to/lastmile_qr_scan"}}, {"name": "2355db188fe8e9501c2d8103543cb59a", "type": "electric_scooter", "lat": 38.91238283333333, "is_reserved": 0, "lon": -77.00123733333334, "fusion_lon": 0.0, "is_disabled": 0, "fusion_lat": 0.0, "bike_id": "2355db188fe8e9501c2d8103543cb59a", "rental_uris": {"ios": "https://dc.lft.to/lastmile_qr_scan", "android": "https://dc.lft.to/lastmile_qr_scan"}}, {"name": "d9b89a272e5a8c1d2911cbc35ed352ab", "type": "electric_scooter", "lat": 38.912539833333334, "is_reserved": 0, "lon": -77.03664266666667, "fusion_lon": 0.0, "is_disabled": 0, "fusion_lat": 0.0, "bike_id": "d9b89a272e5a8c1d2911cbc35ed352ab", "rental_uris": {"ios": "https://dc.lft.to/lastmile_qr_scan", "android": "https://dc.lft.to/lastmile_qr_scan"}}, {"name": "1c2eee3d78026e43f7550daf123bad77", "type": "electric_scooter", "lat": 38.900408666666664, "is_reserved": 0, "lon": -77.01674616666666, "fusion_lon": 0.0, "is_disabled": 0, "fusion_lat": 0.0, "bike_id": "1c2eee3d78026e43f7550daf123bad77", "rental_uris": {"ios": "https://dc.lft.to/lastmile_qr_scan", "android": "https://dc.lft.to/lastmile_qr_scan"}}, {"name": "4c7bddc65b24dc9503222563ac9a9c16", "type": "electric_scooter", "lat": 38.880378, "is_reserved": 0, "lon": -77.0037065, "fusion_lon": 0.0, "is_disabled": 0, "fusion_lat": 0.0, "bike_id": "4c7bddc65b24dc9503222563ac9a9c16", "rental_uris": {"ios": "https://dc.lft.to/lastmile_qr_scan", "android": "https://dc.lft.to/lastmile_qr_scan"}}, {"name": "a4971d3fae89a1cb06e3e0820e69ad18", "type": "electric_scooter", "lat": 38.844243666666664, "is_reserved": 0, "lon": -76.99777183333333, "fusion_lon": 0.0, "is_disabled": 0, "fusion_lat": 0.0, "bike_id": "a4971d3fae89a1cb06e3e0820e69ad18", "rental_uris": {"ios": "https://dc.lft.to/lastmile_qr_scan", "android": "https://dc.lft.to/lastmile_qr_scan"}}, {"name": "f8d3a7bb9b13ee1ad6a0140810021b47", "type": "electric_scooter", "lat": 38.91799783333333, "is_reserved": 0, "lon": -77.0281865, "fusion_lon": 0.0, "is_disabled": 0, "fusion_lat": 0.0, "bike_id": "f8d3a7bb9b13ee1ad6a0140810021b47", "rental_uris": {"ios": "https://dc.lft.to/lastmile_qr_scan", "android": "https://dc.lft.to/lastmile_qr_scan"}}, {"name": "539f235377a5f656cbe41edd94797070", "type": "electric_scooter", "lat": 38.8922065, "is_reserved": 0, "lon": -77.04265316666667, "fusion_lon": 0.0, "is_disabled": 0, "fusion_lat": 0.0, "bike_id": "539f235377a5f656cbe41edd94797070", "rental_uris": {"ios": "https://dc.lft.to/lastmile_qr_scan", "android": "https://dc.lft.to/lastmile_qr_scan"}}, {"name": "a48923a13e8e9bf2de911dd9a71e0759", "type": "electric_scooter", "lat": 38.9211585, "is_reserved": 0, "lon": -77.03650133333333, "fusion_lon": 0.0, "is_disabled": 0, "fusion_lat": 0.0, "bike_id": "a48923a13e8e9bf2de911dd9a71e0759", "rental_uris": {"ios": "https://dc.lft.to/lastmile_qr_scan", "android": "https://dc.lft.to/lastmile_qr_scan"}}, {"name": "a2b25baca5c1ef15ff4842972f924577", "type": "electric_scooter", "lat": 38.923420666666665, "is_reserved": 0, "lon": -77.05087333333333, "fusion_lon": 0.0, "is_disabled": 0, "fusion_lat": 0.0, "bike_id": "a2b25baca5c1ef15ff4842972f924577", "rental_uris": {"ios": "https://dc.lft.to/lastmile_qr_scan", "android": "https://dc.lft.to/lastmile_qr_scan"}}, {"name": "eaa320e7341d606ff68e982a3e2c5be5", "type": "electric_scooter", "lat": 38.926207833333336, "is_reserved": 0, "lon": -77.00578016666667, "fusion_lon": 0.0, "is_disabled": 0, "fusion_lat": 0.0, "bike_id": "eaa320e7341d606ff68e982a3e2c5be5", "rental_uris": {"ios": "https://dc.lft.to/lastmile_qr_scan", "android": "https://dc.lft.to/lastmile_qr_scan"}}, {"name": "7d74141edd41239037b0e8b64cf25b3f", "type": "electric_scooter", "lat": 38.925152833333335, "is_reserved": 0, "lon": -77.02357566666667, "fusion_lon": 0.0, "is_disabled": 0, "fusion_lat": 0.0, "bike_id": "7d74141edd41239037b0e8b64cf25b3f", "rental_uris": {"ios": "https://dc.lft.to/lastmile_qr_scan", "android": "https://dc.lft.to/lastmile_qr_scan"}},