{"data": {"bikes": [{"rental_uris": {"ios": "https://dc.lft.to/lastmile_qr_scan", "android": "https://dc.lft.to/lastmile_qr_scan"}, "fusion_lat": 0.0, "name": "91d258ed182d28d00def0192f98c20a2", "bike_id": "91d258ed182d28d00def0192f98c20a2", "is_disabled": 0, "type": "electric_scooter", "lat": 38.931504833333335, "lon": -77.01869783333333, "is_reserved": 0, "fusion_lon": 0.0}, {"rental_uris": {"ios": "https://dc.lft.to/lastmile_qr_scan", "android": "https://dc.lft.to/lastmile_qr_scan"}, "fusion_lat": 0.0, "name": "f71b41ab0143d57f70f7f6ff9088d5d9", "bike_id": "f71b41ab0143d57f70f7f6ff9088d5d9", "is_disabled": 0, "type": "electric_scooter", "lat": 38.917100166666664, "lon": -77.0367225, "is_reserved": 0, "fusion_lon": 0.0}, {"rental_uris": {"ios": "https://dc.lft.to/lastmile_qr_scan", "android": "https://dc.lft.to/lastmile_qr_scan"}, "fusion_lat": 0.0, "name": "371e9110a127fa83e5db74141ac5a9d9", "bike_id": "371e9110a127fa83e5db74141ac5a9d9", "is_disabled": 0, "type": "electric_scooter", "lat": 38.90279533333333, "lon": -77.02854583333334, "is_reserved": 0, "fusion_lon": 0.0}, {"rental_uris": {"ios": "https://dc.lft.to/lastmile_qr_scan", "android": "https://dc.lft.to/lastmile_qr_scan"}, "fusion_lat": 0.0, "name": "63803e617fdce763429c20b2883c6770", "bike_id": "63803e617fdce763429c20b2883c6770", "is_disabled": 0, "type": "electric_scooter", "lat": 38.934294666666666, "lon": -77.05761883333334, "is_reserved": 0, "fusion_lon": 0.0}, {"rental_uris": {"ios": "https://dc.lft.to/lastmile_qr_scan", "android": "https://dc.lft.to/lastmile_qr_scan"}, "fusion_lat": 0.0, "name": "db1d8b0621e1a73f89a171eda0cca748", "bike_id": "db1d8b0621e1a73f89a171eda0cca748", "is_disabled": 0, "type": "electric_scooter", "lat": 38.939669333333335, "lon": -77.032601, "is_reserved": 0, "fusion_lon": 0.0}, {"rental_uris": {"ios": "https://dc.lft.to/lastmile_qr_scan", "android": "https://dc.lft.to/lastmile_qr_scan"}, "fusion_lat": 0.0, "name": "9ac69ba2d37ab2090cc52b1dd5e0192b", "bike_id": "9ac69ba2d37ab2090cc52b1dd5e0192b", "is_disabled": 0, "type": "electric_scooter", "lat": 38.892208, "lon": -77.0480355, "is_reserved": 0, "fusion_lon": 0.0}, {"rental_uris": {"ios": "https://dc.lft.to/lastmile_qr_scan", "android": "https://dc.lft.to/lastmile_qr_scan"}, "fusion_lat": 0.0, "name": "4729b339554ba5e9a825c688f20c0c00", "bike_id": "4729b339554ba5e9a825c688f20c0c00", "is_disabled": 0, "type": "electric_scooter", "lat": 38.8813155, "lon": -76.933051, "is_reserved": 0, "fusion_lon": 0.0}, {"rental_uris": {"ios": "https://dc.lft.to/lastmile_qr_scan", "android": "https://dc.lft.to/lastmile_qr_scan"}, "fusion_lat": 0.0, "name": "3b133c9e87053d2b56609f44c864a64d", "bike_id": "3b133c9e87053d2b56609f44c864a64d", "is_disabled": 0, "type": "electric_scooter", "lat": 38.88366766666667, "lon": -76.995091, "is_reserved": 0, "fusion_lon": 0.0}, {"rental_uris": {"ios": "https://dc.lft.to/lastmile_qr_scan", "android": "https://dc.lft.to/lastmile_qr_scan"}, "fusion_lat": 0.0, "name": "cde29c0892bb9416500171a2230a340a", "bike_id": "cde29c0892bb9416500171a2230a340a", "is_disabled": 0, "type": "electric_bike", "lat": 38.97226233333333, "lon": -76.9934645, "is_reserved": 0, "fusion_lon": 0.0}, {"rental_uris": {"ios": "https://dc.lft.to/lastmile_qr_scan", "android": "https://dc.lft.to/lastmile_qr_scan"}, "fusion_lat": 0.0, "name": "fe59eb79b49759c7ffb1c5fc8ef28d8a", "bike_id": "fe59eb79b49759c7ffb1c5fc8ef28d8a", "is_disabled": 0, "type": "electric_scooter", "lat": 38.929132833333334, "lon": -77.0195075, "is_reserved": 0, "fusion_lon": 0.0}, {"rental_uris": {"ios": "https://dc.lft.to/lastmile_qr_scan", "android": "https://dc.lft.to/lastmile_qr_scan"}, "fusion_lat": 0.0, "name": "66f6a6eb60f13ed05935882477d51d59", "bike_id": "66f6a6eb60f13ed05935882477d51d59", "is_disabled": 0, "type": "electric_scooter", "lat": 38.918415, "lon": -77.021938, "is_reserved": 0, "fusion_lon": 0.0}, {"rental_uris": {"ios": "https://dc.lft.to/lastmile_qr_scan", "android": "https://dc.lft.to/lastmile_qr_scan"}, "fusion_lat": 0.0, "name": "e3c4c8c870acd42128237fdfcfca4001", "bike_id": "e3c4c8c870acd42128237fdfcfca4001", "is_disabled": 0, "type": "electric_scooter", "lat": 38.9083285, "lon": -76.9968305, "is_reserved": 0, "fusion_lon": 0.0}, {"rental_uris": {"ios": "https://dc.lft.to/lastmile_qr_scan", "android": "https://dc.lft.to/lastmile_qr_scan"}, "fusion_lat": 0.0, "name": "39dfd18b3e1c77fb7b8bde2212954e96", "bike_id": "39dfd18b3e1c77fb7b8bde2212954e96", "is_disabled": 0, "type": "electric_scooter", "lat": 38.85437566666667, "lon": -76.97164366666667, "is_reserved": 0, "fusion_lon": 0.0}, {"rental_uris": {"ios": "https://dc.lft.to/lastmile_qr_scan", "android": "https://dc.lft.to/lastmile_qr_scan"}, "fusion_lat": 0.0, "name": "fbe3810f1f2ca10701ba399abab6883f", "bike_id": "fbe3810f1f2ca10701ba399abab6883f", "is_disabled": 0, "type": "electric_scooter", "lat": 38.905946166666666, "lon": -77.00591716666666, "is_reserved": 0, "fusion_lon": 0.0}, {"rental_uris": {"ios": "https://dc.lft.to/lastmile_qr_scan", "android": "https://dc.lft.to/lastmile_qr_scan"}, "fusion_lat": 0.0, "name": "ab9364041661489ef1aaf7624c39fac1", "bike_id": "ab9364041661489ef1aaf7624c39fac1", "is_disabled": 0, "type": "electric_scooter", "lat": 38.916070500000004, "lon": -77.02306566666667, "is_reserved": 0, "fusion_lon": 0.0}, {"rental_uris": {"ios": "https://dc.lft.to/lastmile_qr_scan", "android": "https://dc.lft.to/lastmile_qr_scan"}, "fusion_lat": 0.0, "name": "cdbdad998a6397a27e39559934aab1f0", "bike_id": "cdbdad998a6397a27e39559934aab1f0", "is_disabled": 0, "type": "electric_scooter", "lat": 38.8671735, "lon": -76.98706216666666, "is_reserved": 0, "fusion_lon": 0.0}, {"rental_uris": {"ios": "https://dc.lft.to/lastmile_qr_scan", "android": "https://dc.lft.to/lastmile_qr_scan"}, "fusion_lat": 0.0, "name": "84b81a25853a837b10aedb6184b866d0", "bike_id": "84b81a25853a837b10aedb6184b866d0", "is_disabled": 0, "type": "electric_scooter", "lat": 38.90979166666666, "lon": -77.0317925, "is_reserved": 0, "fusion_lon": 0.0}, {"rental_uris": {"ios": "https://dc.lft.to/lastmile_qr_scan", "android": "https://dc.lft.to/lastmile_qr_scan"}, "fusion_lat": 0.0, "name": "d2473d5bd1fd7cf9375d9a7eeff69b97", "bike_id": "d2473d5bd1fd7cf9375d9a7eeff69b97", "is_disabled": 0, "type": "electric_scooter", "lat": 38.91609966666667, "lon": -77.02305483333333, "is_reserved": 0, "fusion_lon": 0.0}, {"rental_uris": {"ios": "https://dc.lft.to/lastmile_qr_scan", "android": "https://dc.lft.to/lastmile_qr_scan"}, "fusion_lat": 0.0, "name": "f0201442f580d7d35d20b6b52114d687", "bike_id": "f0201442f580d7d35d20b6b52114d687", "is_disabled": 0, "type": "electric_scooter", "lat": 38.930660833333334, "lon": -77.040305, "is_reserved": 0, "fusion_lon": 0.0}, {"rental_uris": {"ios": "https://dc.lft.to/lastmile_qr_scan", "android": "https://dc.lft.to/lastmile_qr_scan"}, "fusion_lat": 0.0, "name": "dd9163115ac4fec7edcb160493f5c728", "bike_id": "dd9163115ac4fec7edcb160493f5c728", "is_disabled": 0, "type": "electric_scooter", "lat": 38.89526933333333, "lon": -77.046438, "is_reserved": 0, "fusion_lon": 0.0}, {"rental_uris": {"ios": "https://dc.lft.to/lastmile_qr_scan", "android": "https://dc.lft.to/lastmile_qr_scan"}, "fusion_lat": 0.0, "name": "975374bb5a893ad0a5d9fb1314c4e2e6", "bike_id": "975374bb5a893ad0a5d9fb1314c4e2e6", "is_disabled": 0, "type": "electric_scooter", "lat": 38.92927183333333, "lon": -77.0376835, "is_reserved": 0, "fusion_lon": 0.0}, {"rental_uris": {"ios": "https://dc.lft.to/lastmile_qr_scan", "android": "https://dc.lft.to/lastmile_qr_scan"}, "fusion_lat": 0.0, "name": "43d38108bb5206ac8d09d0ae9a9dcc12", "bike_id": "43d38108bb5206ac8d09d0ae9a9dcc12", "is_disabled": 0, "type": "electric_scooter", "lat": 38.85675166666667, "lon": -76.98173166666666, "is_reserved": 0, "fusion_lon": 0.0}, {"rental_uris": {"ios": "https://dc.lft.to/lastmile_qr_scan", "android": "https://dc.lft.to/lastmile_qr_scan"}, "fusion_lat": 0.0, "name": "e2bf5500583ddf2a19e75df729cce0bc", "bike_id": "e2bf5500583ddf2a19e75df729cce0bc", "is_disabled": 0, "type": "electric_scooter", "lat": 38.920448, "lon": -77.04191216666666, "is_reserved": 0, "fusion_lon": 0.0}, {"rental_uris": {"ios": "https://dc.lft.to/lastmile_qr_scan", "android": "https://dc.lft.to/lastmile_qr_scan"}, "fusion_lat": 0.0, "name": "6f0ce76ed85bdb905d300cc10bbf2991", "bike_id": "6f0ce76ed85bdb905d300cc10bbf2991", "is_disabled": 0, "type": "electric_scooter", "lat": 38.90685883333333, "lon": -77.02716, "is_reserved": 0, "fusion_lon": 0.0}, {"rental_uris": {"ios": "https://dc.lft.to/lastmile_qr_scan", "android": "https://dc.lft.to/lastmile_qr_scan"}, "fusion_lat": 0.0, "name": "0ed2c9f178704f642af031ed5d15e01e", "bike_id": "0ed2c9f178704f642af031ed5d15e01e", "is_disabled": 0, "type": "electric_scooter", "lat": 38.901189333333335, "lon": -77.04312783333333, "is_reserved": 0, "fusion_lon": 0.0}, {"rental_uris": {"ios": "https://dc.lft.to/lastmile_qr_scan", "android": "https://dc.lft.to/lastmile_qr_scan"}, "fusion_lat": 0.0, "name": "1a6a86147b21e074925cb8fd9951a52e", "bike_id": "1a6a86147b21e074925cb8fd9951a52e", "is_disabled": 0, "type": "electric_scooter", "lat": 38.91745816666667, "lon": -77.02396216666666, "is_reserved": 0, "fusion_lon": 0.0}, {"rental_uris": {"ios": "https://dc.lft.to/lastmile_qr_scan", "android": "https://dc.lft.to/lastmile_qr_scan"}, "fusion_lat": 0.0, "name": "b5c11d876b5ff5fa7ad5984f17295728", "bike_id": "b5c11d876b5ff5fa7ad5984f17295728", "is_disabled": 0, "type": "electric_scooter", "lat": 38.91569033333333, "lon": -77.01202966666666, "is_reserved": 0, "fusion_lon": 0.0}, {"rental_uris": {"ios": "https://dc.lft.to/lastmile_qr_scan", "android": "https://dc.lft.to/lastmile_qr_scan"}, "fusion_lat": 0.0, "name": "0ef6c0ecbe64deda4b19986a61881783", "bike_id": "0ef6c0ecbe64deda4b19986a61881783", "is_disabled": 0, "type": "electric_scooter", "lat": 38.93425383333334, "lon": -77.04001633333333, "is_reserved": 0, "fusion_lon": 0.0}, {"rental_uris": {"ios": "https://dc.lft.to/lastmile_qr_scan", "android": "https://dc.lft.to/lastmile_qr_scan"}, "fusion_lat": 0.0, "name": "a1f0cf02779885e29829cc0a121c5a63", "bike_id": "a1f0cf02779885e29829cc0a121c5a63", "is_disabled": 0, "type": "electric_scooter", "lat": 38.93171016666667, "lon": -77.03636683333333, "is_reserved": 0, "fusion_lon": 0.0}, {"rental_uris": {"ios": "https://dc.lft.to/lastmile_qr_scan", "android": "https://dc.lft.to/lastmile_qr_scan"}, "fusion_lat": 0.0, "name": "496ccbdcfe989152edbe0013cb6352ee", "bike_id": "496ccbdcfe989152edbe0013cb6352ee", "is_disabled": 0, "type": "electric_scooter", "lat": 38.92131766666667, "lon": -77.01915183333334, "is_reserved": 0, "fusion_lon": 0.0}, {"rental_uris": {"ios": "https://dc.lft.to/lastmile_qr_scan", "android": "https://dc.lft.to/lastmile_qr_scan"}, "fusion_lat": 0.0, "name": "23e076f6ea556b3b4ccc250424166803", "bike_id": "23e076f6ea556b3b4ccc250424166803", "is_disabled": 0, "type": "electric_scooter", "lat": 38.919887, "lon": -77.032928, "is_reserved": 0, "fusion_lon": 0.0}, {"rental_uris": {"ios": "https://dc.lft.to/lastmile_qr_scan", "android": "https://dc.lft.to/lastmile_qr_scan"}, "fusion_lat": 0.0, "name": "8f64f44345ca1325fd473af773e36f89", "bike_id": "8f64f44345ca1325fd473af773e36f89", "is_disabled": 0, "type": "electric_scooter", "lat": 38.896265166666666, "lon": -77.05022533333333, "is_reserved": 0, "fusion_lon": 0.0}, {"rental_uris": {"ios": "https://dc.lft.to/lastmile_qr_scan", "android": "https://dc.lft.to/lastmile_qr_scan"}, "fusion_lat": 0.0, "name": "093a2c393943be38bfd2e3d075009464", "bike_id": "093a2c393943be38bfd2e3d075009464", "is_disabled": 0, "type": "electric_scooter", "lat": 38.89498833333333, "lon": -76.948736, "is_reserved": 0, "fusion_lon": 0.0}, {"rental_uris": {"ios": "https://dc.lft.to/lastmile_qr_scan", "android": "https://dc.lft.to/lastmile_qr_scan"}, "fusion_lat": 0.0, "name": "f1016311af1bf72e74e8d24be6bf9692", "bike_id": "f1016311af1bf72e74e8d24be6bf9692", "is_disabled": 0, "type": "electric_scooter", "lat": 38.9345285, "lon": -77.07272233333333, "is_reserved": 0, "fusion_lon": 0.0}, {"rental_uris": {"ios": "https://dc.lft.to/lastmile_qr_scan", "android": "https://dc.lft.to/lastmile_qr_scan"}, "fusion_lat": 0.0, "name": "99724a110857a2b08b21e888cb4d58bc", "bike_id": "99724a110857a2b08b21e888cb4d58bc", "is_disabled": 0, "type": "electric_bike", "lat": 38.83860416666667, "lon": -76.9969715, "is_reserved": 0, "fusion_lon": 0.0}, {"rental_uris": {"ios": "https://dc.lft.to/lastmile_qr_scan", "android": "https://dc.lft.to/lastmile_qr_scan"}, "fusion_lat": 0.0, "name": "9a1ae45484c5e3eee1a02cd29b6c3d94", "bike_id": "9a1ae45484c5e3eee1a02cd29b6c3d94", "is_disabled": 0, "type": "electric_scooter", "lat": 38.900381333333335, "lon": -76.99381766666667, "is_reserved": 0, "fusion_lon": 0.0}, {"rental_uris": {"ios": "https://dc.lft.to/lastmile_qr_scan", "android": "https://dc.lft.to/lastmile_qr_scan"}, "fusion_lat": 0.0, "name": "8a02e66b55dbdc115ca43572cca8f97d", "bike_id": "8a02e66b55dbdc115ca43572cca8f97d", "is_disabled": 0, "type": "electric_scooter", "lat": 38.918112, "lon": -77.03185266666667, "is_reserved": 0, "fusion_lon": 0.0}, {"rental_uris": {"ios": "https://dc.lft.to/lastmile_qr_scan", "android": "https://dc.lft.to/lastmile_qr_scan"}, "fusion_lat": 0.0, "name": "c68776873025b8a6a744e366a99769b9", "bike_id": "c68776873025b8a6a744e366a99769b9", "is_disabled": 0, "type": "electric_scooter", "lat": 38.844302666666664, "lon": -76.9970355, "is_reserved": 0, "fusion_lon": 0.0}, {"rental_uris": {"ios": "https://dc.lft.to/lastmile_qr_scan", "android": "https://dc.lft.to/lastmile_qr_scan"}, "fusion_lat": 0.0, "name": "f0c648dfd972d575d120c420bca06f9a", "bike_id": "f0c648dfd972d575d120c420bca06f9a", "is_disabled": 0, "type": "electric_scooter", "lat": 38.93508466666667, "lon": -77.03264166666666, "is_reserved": 0, "fusion_lon": 0.0}, {"rental_uris": {"ios": "https://dc.lft.to/lastmile_qr_scan", "android": "https://dc.lft.to/lastmile_qr_scan"}, "fusion_lat": 0.0, "name": "8eb001eda8001da0916fc06d89b05999", "bike_id": "8eb001eda8001da0916fc06d89b05999", "is_disabled": 0, "type": "electric_scooter", "lat": 38.925797833333334, "lon": -77.0378215, "is_reserved": 0, "fusion_lon": 0.0}, {"rental_uris": {"ios": "https://dc.lft.to/lastmile_qr_scan", "android": "https://dc.lft.to/lastmile_qr_scan"}, "fusion_lat": 0.0, "name": "6b7936cee9ff8a84667a9987aeb07fa9", "bike_id": "6b7936cee9ff8a84667a9987aeb07fa9", "is_disabled": 0, "type": "electric_scooter", "lat": 38.9377495, "lon": -77.03262866666667, "is_reserved": 0, "fusion_lon": 0.0}, {"rental_uris": {"ios": "https://dc.lft.to/lastmile_qr_scan", "android": "https://dc.lft.to/lastmile_qr_scan"}, "fusion_lat": 0.0, "name": "ae7c03237939e3a85531a177037ce5c2", "bike_id": "ae7c03237939e3a85531a177037ce5c2", "is_disabled": 0, "type": "electric_scooter", "lat": 38.91593783333333, "lon": -77.01623983333333, "is_reserved": 0, "fusion_lon": 0.0}, {"rental_uris": {"ios": "https://dc.lft.to/lastmile_qr_scan", "android": "https://dc.lft.to/lastmile_qr_scan"}, "fusion_lat": 0.0, "name": "560d93c90960a7288a2202b384a064a0", "bike_id": "560d93c90960a7288a2202b384a064a0", "is_disabled": 0, "type": "electric_scooter", "lat": 38.88492466666667, "lon": -77.007275, "is_reserved": 0, "fusion_lon": 0.0}, {"rental_uris": {"ios": "https://dc.lft.to/lastmile_qr_scan", "android": "https://dc.lft.to/lastmile_qr_scan"}, "fusion_lat": 0.0, "name": "e95d03366bd27f24fab77bc8cb125239", "bike_id": "e95d03366bd27f24fab77bc8cb125239", "is_disabled": 0, "type": "electric_scooter", "lat": 38.90048616666667, "lon": -77.007648, "is_reserved": 0, "fusion_lon": 0.0}, {"rental_uris": {"ios": "https://dc.lft.to/lastmile_qr_scan", "android": "https://dc.lft.to/lastmile_qr_scan"}, "fusion_lat": 0.0, "name": "3502a075ca77b38bde07c169e23a8eaa", "bike_id": "3502a075ca77b38bde07c169e23a8eaa", "is_disabled": 0, "type": "electric_scooter", "lat": 38.910350666666666, "lon": -77.0483945, "is_reserved": 0, "fusion_lon": 0.0}, {"rental_uris": {"ios": "https://dc.lft.to/lastmile_qr_scan", "android": "https://dc.lft.to/lastmile_qr_scan"}, "fusion_lat": 0.0, "name": "9e8ff1688148488c0363c2251421d200", "bike_id": "9e8ff1688148488c0363c2251421d200", "is_disabled": 0, "type": "electric_scooter", "lat": 38.8921915, "lon": -77.0433295, "is_reserved": 0, "fusion_lon": 0.0}, {"rental_uris": {"ios": "https://dc.lft.to/lastmile_qr_scan", "android": "https://dc.lft.to/lastmile_qr_scan"}, "fusion_lat": 0.0, "name": "d88cc73316a3cc3342503de0c43bf372", "bike_id": "d88cc73316a3cc3342503de0c43bf372", "is_disabled": 0, "type": "electric_scooter", "lat": 38.91854466666667, "lon": -77.04177533333333, "is_reserved": 0, "fusion_lon": 0.0}, {"rental_uris": {"ios": "https://dc.lft.to/lastmile_qr_scan", "android": "https://dc.lft.to/lastmile_qr_scan"}, "fusion_lat": 0.0, "name": "0deed59ded363ee3fe2b21d58b44f84f", "bike_id": "0deed59ded363ee3fe2b21d58b44f84f", "is_disabled": 0, "type": "electric_scooter", "lat": 38.89347383333333, "lon": -77.041431, "is_reserved": 0, "fusion_lon": 0.0}, {"rental_uris": {"ios": "https://dc.lft.to/lastmile_qr_scan", "android": "https://dc.lft.to/lastmile_qr_scan"}, "fusion_lat": 0.0, "name": "b0952736d033bb5af724ae6a8a717bdf", "bike_id": "b0952736d033bb5af724ae6a8a717bdf", "is_disabled": 0, "type": "electric_scooter", "lat": 38.93353366666667, "lon": -77.08575133333333, "is_reserved": 0, "fusion_lon": 0.0}, {"rental_uris": {"ios": "https://dc.lft.to/lastmile_qr_scan", "android": "https://dc.lft.to/lastmile_qr_scan"}, "fusion_lat": 0.0, "name": "78ce6d874ac73f7a6d54def1dc986b06", "bike_id": "78ce6d874ac73f7a6d54def1dc986b06", "is_disabled": 0, "type": "electric_scooter", "lat": 38.9073765, "lon": -77.03309933333334, "is_reserved": 0, "fusion_lon": 0.0}, {"rental_uris": {"ios": "https://dc.lft.to/lastmile_qr_scan", "android": "https://dc.lft.to/lastmile_qr_scan"}, "fusion_lat": 0.0, "name": "99606055bfae59abdba71e67756c6aa4", "bike_id": "99606055bfae59abdba71e67756c6aa4", "is_disabled": 0, "type": "electric_bike", "lat": 38.873731, "lon": -77.118014, "is_reserved": 0, "fusion_lon": 0.0}, {"rental_uris": {"ios": "https://dc.lft.to/lastmile_qr_scan", "android": "https://dc.lft.to/lastmile_qr_scan"}, "fusion_lat": 0.0, "name": "3106cc7d4079b8bf064631f03aecfdaf", "bike_id": "3106cc7d4079b8bf064631f03aecfdaf", "is_disabled": 0, "type": "electric_scooter", "lat": 38.92673466666667, "lon": -77.01556666666667, "is_reserved": 0, "fusion_lon": 0.0}, {"rental_uris": {"ios": "https://dc.lft.to/lastmile_qr_scan", "android": "https://dc.lft.to/lastmile_qr_scan"}, "fusion_lat": 0.0, "name": "eca2e38965b7fc5fa3d26c05357e9264", "bike_id": "eca2e38965b7fc5fa3d26c05357e9264", "is_disabled": 0, "type": "electric_scooter", "lat": 38.89224933333333, "lon": -77.033682, "is_reserved": 0, "fusion_lon": 0.0}, {"rental_uris": {"ios": "https://dc.lft.to/lastmile_qr_scan", "android": "https://dc.lft.to/lastmile_qr_scan"}, "fusion_lat": 0.0, "name": "8f5587c68ca0aace5190f0461fc0ea45", "bike_id": "8f5587c68ca0aace5190f0461fc0ea45", "is_disabled": 0, "type": "electric_scooter", "lat": 38.906362666666666, "lon": -77.0387955, "is_reserved": 0, "fusion_lon": 0.0}, {"rental_uris": {"ios": "https://dc.lft.to/lastmile_qr_scan", "android": "https://dc.lft.to/lastmile_qr_scan"}, "fusion_lat": 0.0, "name": "914b53ffa8ce4cde72722421ba7502c8", "bike_id": "914b53ffa8ce4cde72722421ba7502c8", "is_disabled": 0, "type": "electric_bike", "lat": 38.9692665, "lon": -77.02620266666666, "is_reserved": 0, "fusion_lon": 0.0}, {"rental_uris": {"ios": "https://dc.lft.to/lastmile_qr_scan", "android": "https://dc.lft.to/lastmile_qr_scan"}, "fusion_lat": 0.0, "name": "bd5e93923756e2376b93eb9d0f84d6e2", "bike_id": "bd5e93923756e2376b93eb9d0f84d6e2", "is_disabled": 0, "type": "electric_bike", "lat": 38.914899, "lon": -77.02812333333334, "is_reserved": 0, "fusion_lon": 0.0}, {"rental_uris": {"ios": "https://dc.lft.to/lastmile_qr_scan", "android": "https://dc.lft.to/lastmile_qr_scan"}, "fusion_lat": 0.0, "name": "e470574e4a52f5773b669fba372b9cb5", "bike_id": "e470574e4a52f5773b669fba372b9cb5", "is_disabled": 0, "type": "electric_scooter", "lat": 38.916883, "lon": -77.03531733333334, "is_reserved": 0, "fusion_lon": 0.0}, {"rental_uris": {"ios": "https://dc.lft.to/lastmile_qr_scan", "android": "https://dc.lft.to/lastmile_qr_scan"}, "fusion_lat": 0.0, "name": "b5edb770829d17d95bb043bc5c0f4596", "bike_id": "b5edb770829d17d95bb043bc5c0f4596", "is_disabled": 0, "type": "electric_scooter", "lat": 38.910805, "lon": -77.0440135, "is_reserved": 0, "fusion_lon": 0.0}, {"rental_uris": {"ios": "https://dc.lft.to/lastmile_qr_scan", "android": "https://dc.lft.to/lastmile_qr_scan"}, "fusion_lat": 0.0, "name": "5e03920aed9a44e602f8a2dd0dc2f08c", "bike_id": "5e03920aed9a44e602f8a2dd0dc2f08c", "is_disabled": 0, "type": "electric_scooter", "lat": 38.91706283333333, "lon": -77.038879, "is_reserved": 0, "fusion_lon": 0.0}, {"rental_uris": {"ios": "https://dc.lft.to/lastmile_qr_scan", "android": "https://dc.lft.to/lastmile_qr_scan"}, "fusion_lat": 0.0, "name": "a236139d4710f75065387dda77514d8b", "bike_id": "a236139d4710f75065387dda77514d8b", "is_disabled": 0, "type": "electric_scooter", "lat": 38.91411866666667, "lon": -77.04745916666667, "is_reserved": 0, "fusion_lon": 0.0}, {"rental_uris": {"ios": "https://dc.lft.to/lastmile_qr_scan", "android": "https://dc.lft.to/lastmile_qr_scan"}, "fusion_lat": 0.0, "name": "4064ee199aea0c60bcbbeeb97ff0e9f3", "bike_id": "4064ee199aea0c60bcbbeeb97ff0e9f3", "is_disabled": 0, "type": "electric_scooter", "lat": 38.884134, "lon": -76.94208483333334, "is_reserved": 0, "fusion_lon": 0.0}, {"rental_uris": {"ios": "https://dc.lft.to/lastmile_qr_scan", "android": "https://dc.lft.to/lastmile_qr_scan"}, "fusion_lat": 0.0, "name": "98455eee2908b1d2f7648b70b1771ad8", "bike_id": "98455eee2908b1d2f7648b70b1771ad8", "is_disabled": 0, "type": "electric_scooter", "lat": 38.911185333333336, "lon": -77.04476683333333, "is_reserved": 0, "fusion_lon": 0.0}, {"rental_uris": {"ios": "https://dc.lft.to/lastmile_qr_scan", "android": "https://dc.lft.to/lastmile_qr_scan"}, "fusion_lat": 0.0, "name": "b29be0c300b95e482db25b1ccef4e3b0", "bike_id": "b29be0c300b95e482db25b1ccef4e3b0", "is_disabled": 0, "type": "electric_scooter", "lat": 38.905903, "lon": -77.0417895, "is_reserved": 0, "fusion_lon": 0.0}, {"rental_uris": {"ios": "https://dc.lft.to/lastmile_qr_scan", "android": "https://dc.lft.to/lastmile_qr_scan"}, "fusion_lat": 0.0, "name": "fd63e0f5e6af6bd5f7ddfd8b2bfa1e9e", "bike_id": "fd63e0f5e6af6bd5f7ddfd8b2bfa1e9e", "is_disabled": 0, "type": "electric_scooter", "lat": 38.87624666666667, "lon": -76.96528066666667, "is_reserved": 0, "fusion_lon": 0.0}, {"rental_uris": {"ios": "https://dc.lft.to/lastmile_qr_scan", "android": "https://dc.lft.to/lastmile_qr_scan"}, "fusion_lat": 0.0, "name": "639d6cd70667fdb420dbdc6e6e1e6c43", "bike_id": "639d6cd70667fdb420dbdc6e6e1e6c43", "is_disabled": 0, "type": "electric_bike", "lat": 38.9328915, "lon": -77.02849266666666, "is_reserved": 0, "fusion_lon": 0.0}, {"rental_uris": {"ios": "https://dc.lft.to/lastmile_qr_scan", "android": "https://dc.lft.to/lastmile_qr_scan"}, "fusion_lat": 0.0, "name": "348e739947f77f5ee09430c66f64d47a", "bike_id": "348e739947f77f5ee09430c66f64d47a", "is_disabled": 0, "type": "electric_scooter", "lat": 38.923409166666666, "lon": -77.050524, "is_reserved": 0, "fusion_lon": 0.0}, {"rental_uris": {"ios": "https://dc.lft.to/lastmile_qr_scan", "android": "https://dc.lft.to/lastmile_qr_scan"}, "fusion_lat": 0.0, "name": "00613128045d702a7686f239ebe0ecb9", "bike_id": "00613128045d702a7686f239ebe0ecb9", "is_disabled": 0, "type": "electric_scooter", "lat": 38.8849945, "lon": -77.01585983333334, "is_reserved": 0, "fusion_lon": 0.0}, {"rental_uris": {"ios": "https://dc.lft.to/lastmile_qr_scan", "android": "https://dc.lft.to/lastmile_qr_scan"}, "fusion_lat": 0.0, "name": "fe566a7d22b43275d4325045b43bf1c6", "bike_id": "fe566a7d22b43275d4325045b43bf1c6", "is_disabled": 0, "type": "electric_scooter", "lat": 38.89222383333333, "lon": -77.02347466666667, "is_reserved": 0, "fusion_lon": 0.0}, {"rental_uris": {"ios": "https://dc.lft.to/lastmile_qr_scan", "android": "https://dc.lft.to/lastmile_qr_scan"}, "fusion_lat": 0.0, "name": "ffe55aeb936c346f872f6c3ace4d71a9", "bike_id": "ffe55aeb936c346f872f6c3ace4d71a9", "is_disabled": 0, "type": "electric_scooter", "lat": 38.8987795, "lon": -77.0433435, "is_reserved": 0, "fusion_lon": 0.0}, {"rental_uris": {"ios": "https://dc.lft.to/lastmile_qr_scan", "android": "https://dc.lft.to/lastmile_qr_scan"}, "fusion_lat": 0.0, "name": "634a73c02ab5cae2ad4191f499581a64", "bike_id": "634a73c02ab5cae2ad4191f499581a64", "is_disabled": 0, "type": "electric_scooter", "lat": 38.868315833333334, "lon": -76.977413, "is_reserved": 0, "fusion_lon": 0.0}, {"rental_uris": {"ios": "https://dc.lft.to/lastmile_qr_scan", "android": "https://dc.lft.to/lastmile_qr_scan"}, "fusion_lat": 0.0, "name": "b873f476fe8836db22200e8e3aebbe51", "bike_id": "b873f476fe8836db22200e8e3aebbe51", "is_disabled": 0, "type": "electric_scooter", "lat": 38.9037185, "lon": -77.03861883333333, "is_reserved": 0, "fusion_lon": 0.0}, {"rental_uris": {"ios": "https://dc.lft.to/lastmile_qr_scan", "android": "https://dc.lft.to/lastmile_qr_scan"}, "fusion_lat": 0.0, "name": "fc0845f35020b062ebabd283c05a0108", "bike_id": "fc0845f35020b062ebabd283c05a0108", "is_disabled": 0, "type": "electric_scooter", "lat": 38.9009235, "lon": -77.05068216666666, "is_reserved": 0, "fusion_lon": 0.0}, {"rental_uris": {"ios": "https://dc.lft.to/lastmile_qr_scan", "android": "https://dc.lft.to/lastmile_qr_scan"}, "fusion_lat": 0.0, "name": "aa248b89ac00d0540bc3146e3104ef78", "bike_id": "aa248b89ac00d0540bc3146e3104ef78", "is_disabled": 0, "type": "electric_scooter", "lat": 38.89704116666667, "lon": -77.02674066666667, "is_reserved": 0, "fusion_lon": 0.0}, {"rental_uris": {"ios": "https://dc.lft.to/lastmile_qr_scan", "android": "https://dc.lft.to/lastmile_qr_scan"}, "fusion_lat": 0.0, "name": "df6796c16940f43c7d4712173de5dc3e", "bike_id": "df6796c16940f43c7d4712173de5dc3e", "is_disabled": 0, "type": "electric_scooter", "lat": 38.867134166666666, "lon": -76.987073, "is_reserved": 0, "fusion_lon": 0.0}, {"rental_uris": {"ios": "https://dc.lft.to/lastmile_qr_scan", "android": "https://dc.lft.to/lastmile_qr_scan"}, "fusion_lat": 0.0, "name": "eb087df9281fc99d9dcb5a5735668de4", "bike_id": "eb087df9281fc99d9dcb5a5735668de4", "is_disabled": 0, "type": "electric_bike", "lat": 38.87368933333333, "lon": -76.9716755, "is_reserved": 0, "fusion_lon": 0.0}, {"rental_uris": {"ios": "https://dc.lft.to/lastmile_qr_scan", "android": "https://dc.lft.to/lastmile_qr_scan"}, "fusion_lat": 0.0, "name": "a94be154cb7ad22c2a810e761a127636", "bike_id": "a94be154cb7ad22c2a810e761a127636", "is_disabled": 0, "type": "electric_scooter", "lat": 38.8964575, "lon": -77.04660133333333, "is_reserved": 0, "fusion_lon": 0.0}, {"rental_uris": {"ios": "https://dc.lft.to/lastmile_qr_scan", "android": "https://dc.lft.to/lastmile_qr_scan"}, "fusion_lat": 0.0, "name": "b39724001a25bbda8b9e140962474bf5", "bike_id": "b39724001a25bbda8b9e140962474bf5", "is_disabled": 0, "type": "electric_scooter", "lat": 38.892375, "lon": -77.04661716666666, "is_reserved": 0, "fusion_lon": 0.0}, {"rental_uris": {"ios": "https://dc.lft.to/lastmile_qr_scan", "android": "https://dc.lft.to/lastmile_qr_scan"}, "fusion_lat": 0.0, "name": "830f05bac42bfc01bed1452e622921b8", "bike_id": "830f05bac42bfc01bed1452e622921b8", "is_disabled": 0, "type": "electric_scooter", "lat": 38.9113535, "lon": -77.02693116666667, "is_reserved": 0, "fusion_lon": 0.0}, {"rental_uris": {"ios": "https://dc.lft.to/lastmile_qr_scan", "android": "https://dc.lft.to/lastmile_qr_scan"}, "fusion_lat": 0.0, "name": "3580c77ad236a2299a59d6c97c01a5ca", "bike_id": "3580c77ad236a2299a59d6c97c01a5ca", "is_disabled": 0, "type": "electric_scooter", "lat": 38.895503833333336, "lon": -77.02200266666667, "is_reserved": 0, "fusion_lon": 0.0}, {"rental_uris": {"ios": "https://dc.lft.to/lastmile_qr_scan", "android": "https://dc.lft.to/lastmile_qr_scan"}, "fusion_lat": 0.0, "name": "46eaa1eeec6bd1087a8417382cde5e37", "bike_id": "46eaa1eeec6bd1087a8417382cde5e37", "is_disabled": 0, "type": "electric_scooter", "lat": 38.91412833333333, "lon": -77.04001233333334, "is_reserved": 0, "fusion_lon": 0.0}, {"rental_uris": {"ios": "https://dc.lft.to/lastmile_qr_scan", "android": "https://dc.lft.to/lastmile_qr_scan"}, "fusion_lat": 0.0, "name": "9e7584045449bfc5acc4db93f6b61c6d", "bike_id": "9e7584045449bfc5acc4db93f6b61c6d", "is_disabled": 0, "type": "electric_scooter", "lat": 38.885741333333335, "lon": -76.919074, "is_reserved": 0, "fusion_lon": 0.0}, {"rental_uris": {"ios": "https://dc.lft.to/lastmile_qr_scan", "android": "https://dc.lft.to/lastmile_qr_scan"}, "fusion_lat": 0.0, "name": "75a1be2cb8b54312fc843b6d4858b375", "bike_id": "75a1be2cb8b54312fc843b6d4858b375", "is_disabled": 0, "type": "electric_scooter", "lat": 38.90672716666667, "lon": -77.03803516666666, "is_reserved": 0, "fusion_lon": 0.0}, {"rental_uris": {"ios": "https://dc.lft.to/lastmile_qr_scan", "android": "https://dc.lft.to/lastmile_qr_scan"}, "fusion_lat": 0.0, "name": "be7fa813781d1b370777faf2fb05b663", "bike_id": "be7fa813781d1b370777faf2fb05b663", "is_disabled": 0, "type": "electric_scooter", "lat": 38.909109, "lon": -76.99771933333334, "is_reserved": 0, "fusion_lon": 0.0}, {"rental_uris": {"ios": "https://dc.lft.to/lastmile_qr_scan", "android": "https://dc.lft.to/lastmile_qr_scan"}, "fusion_lat": 0.0, "name": "304c2e83c21eb94cf50a43fb43b51a87", "bike_id": "304c2e83c21eb94cf50a43fb43b51a87", "is_disabled": 0, "type": "electric_scooter", "lat": 38.916809, "lon": -77.0296635, "is_reserved": 0, "fusion_lon": 0.0}, {"rental_uris": {"ios": "https://dc.lft.to/lastmile_qr_scan", "android": "https://dc.lft.to/lastmile_qr_scan"}, "fusion_lat": 0.0, "name": "f3947447bb62cbdf37695b762ec7c866", "bike_id": "f3947447bb62cbdf37695b762ec7c866", "is_disabled": 0, "type": "electric_scooter", "lat": 38.91268683333333, "lon": -77.0364515, "is_reserved": 0, "fusion_lon": 0.0}, {"rental_uris": {"ios": "https://dc.lft.to/lastmile_qr_scan", "android": "https://dc.lft.to/lastmile_qr_scan"}, "fusion_lat": 0.0, "name": "9d18838a71b430bcbf2edeb84a2fb2e0", "bike_id": "9d18838a71b430bcbf2edeb84a2fb2e0", "is_disabled": 0, "type": "electric_scooter", "lat": 38.938258, "lon": -76.98619133333334, "is_reserved": 0, "fusion_lon": 0.0}, {"rental_uris": {"ios": "https://dc.lft.to/lastmile_qr_scan", "android": "https://dc.lft.to/lastmile_qr_scan"}, "fusion_lat": 0.0, "name": "a045c6ff9efbb82d7737fcfb5fa15289", "bike_id": "a045c6ff9efbb82d7737fcfb5fa15289", "is_disabled": 0, "type": "electric_scooter", "lat": 38.91050966666667, "lon": -77.04342316666667, "is_reserved": 0, "fusion_lon": 0.0}, {"rental_uris": {"ios": "https://dc.lft.to/lastmile_qr_scan", "android": "https://dc.lft.to/lastmile_qr_scan"}, "fusion_lat": 0.0, "name": "9b6d1e3921e1afedb7ca5a2a72604adc", "bike_id": "9b6d1e3921e1afedb7ca5a2a72604adc", "is_disabled": 0, "type": "electric_scooter", "lat": 38.915220166666664, "lon": -77.01843166666667, "is_reserved": 0, "fusion_lon": 0.0}, {"rental_uris": {"ios": "https://dc.lft.to/lastmile_qr_scan", "android": "https://dc.lft.to/lastmile_qr_scan"}, "fusion_lat": 0.0, "name": "c1bc72716803a96d0f293feb9856510c", "bike_id": "c1bc72716803a96d0f293feb9856510c", "is_disabled": 0, "type": "electric_scooter", "lat": 38.89221966666667, "lon": -77.0480525, "is_reserved": 0, "fusion_lon": 0.0}, {"rental_uris": {"ios": "https://dc.lft.to/lastmile_qr_scan", "android": "https://dc.lft.to/lastmile_qr_scan"}, "fusion_lat": 0.0, "name": "1deee97b7f230010c4005d83c578cfe0", "bike_id": "1deee97b7f230010c4005d83c578cfe0", "is_disabled": 0, "type": "electric_scooter", "lat": 38.90240433333334, "lon": -77.01754783333334, "is_reserved": 0, "fusion_lon": 0.0}, {"rental_uris": {"ios": "https://dc.lft.to/lastmile_qr_scan", "android": "https://dc.lft.to/lastmile_qr_scan"}, "fusion_lat": 0.0, "name": "b0e04baf43fe5caafc0239e3506c1165", "bike_id": "b0e04baf43fe5caafc0239e3506c1165", "is_disabled": 0, "type": "electric_scooter", "lat": 38.915602666666665, "lon": -77.025179, "is_reserved": 0, "fusion_lon": 0.0}, {"rental_uris": {"ios": "https://dc.lft.to/lastmile_qr_scan", "android": "https://dc.lft.to/lastmile_qr_scan"}, "fusion_lat": 0.0, "name": "6472851a3274b94b3dc4cf78c72ddcb7", "bike_id": "6472851a3274b94b3dc4cf78c72ddcb7", "is_disabled": 0, "type": "electric_scooter", "lat": 38.91691483333334, "lon": -77.02675933333333, "is_reserved": 0, "fusion_lon": 0.0}, {"rental_uris": {"ios": "https://dc.lft.to/lastmile_qr_scan", "android": "https://dc.lft.to/lastmile_qr_scan"}, "fusion_lat": 0.0, "name": "890431d5e2a2bb7c319889de47ffc121", "bike_id": "890431d5e2a2bb7c319889de47ffc121", "is_disabled": 0, "type": "electric_scooter", "lat": 38.9066645, "lon": -77.02694666666666, "is_reserved": 0, "fusion_lon": 0.0}, {"rental_uris": {"ios": "https://dc.lft.to/lastmile_qr_scan", "android": "https://dc.lft.to/lastmile_qr_scan"}, "fusion_lat": 0.0, "name": "d5165756371f4cd968ce3450aafd2e44", "bike_id": "d5165756371f4cd968ce3450aafd2e44", "is_disabled": 0, "type": "electric_scooter", "lat": 38.94953983333333, "lon": -77.02721666666666, "is_reserved": 0, "fusion_lon": 0.0}, {"rental_uris": {"ios": "https://dc.lft.to/lastmile_qr_scan", "android": "https://dc.lft.to/lastmile_qr_scan"}, "fusion_lat": 0.0, "name": "493c502897fbc5b46de29b99d488f420", "bike_id": "493c502897fbc5b46de29b99d488f420", "is_disabled": 0, "type": "electric_scooter", "lat": 38.94200133333333, "lon": -77.02596016666666, "is_reserved": 0, "fusion_lon": 0.0}, {"rental_uris": {"ios": "https://dc.lft.to/lastmile_qr_scan", "android": "https://dc.lft.to/lastmile_qr_scan"}, "fusion_lat": 0.0, "name": "9938b32add78dd959b5b8cad3e986ebe", "bike_id": "9938b32add78dd959b5b8cad3e986ebe", "is_disabled": 0, "type": "electric_scooter", "lat": 38.8812975, "lon": -77.02684866666667, "is_reserved": 0, "fusion_lon": 0.0}, {"rental_uris": {"ios": "https://dc.lft.to/lastmile_qr_scan", "android": "https://dc.lft.to/lastmile_qr_scan"}, "fusion_lat": 0.0, "name": "f133839f2cf6c969aa199c18185699f9", "bike_id": "f133839f2cf6c969aa199c18185699f9", "is_disabled": 0, "type": "electric_scooter", "lat": 38.91696433333333, "lon": -77.03601283333333, "is_reserved": 0, "fusion_lon": 0.0}, {"rental_uris": {"ios": "https://dc.lft.to/lastmile_qr_scan", "android": "https://dc.lft.to/lastmile_qr_scan"}, "fusion_lat": 0.0, "name": "b563fc3f1d29a71f282204065ada72c7", "bike_id": "b563fc3f1d29a71f282204065ada72c7", "is_disabled": 0, "type": "electric_bike", "lat": 39.038933666666665, "lon": -77.050328, "is_reserved": 0, "fusion_lon": 0.0}, {"rental_uris": {"ios": "https://dc.lft.to/lastmile_qr_scan", "android": "https://dc.lft.to/lastmile_qr_scan"}, "fusion_lat": 0.0, "name": "a710ed3b88a1b1bc1ff2963ef269c6e8", "bike_id": "a710ed3b88a1b1bc1ff2963ef269c6e8", "is_disabled": 0, "type": "electric_scooter", "lat": 38.884763166666666, "lon": -77.0216165, "is_reserved": 0, "fusion_lon": 0.0}, {"rental_uris": {"ios": "https://dc.lft.to/lastmile_qr_scan", "android": "https://dc.lft.to/lastmile_qr_scan"}, "fusion_lat": 0.0, "name": "2ee0db436d6d2ff34aff3d3b8f18dc70", "bike_id": "2ee0db436d6d2ff34aff3d3b8f18dc70", "is_disabled": 0, "type": "electric_scooter", "lat": 38.91564, "lon": -77.03153533333334, "is_reserved": 0, "fusion_lon": 0.0}, {"rental_uris": {"ios": "https://dc.lft.to/lastmile_qr_scan", "android": "https://dc.lft.to/lastmile_qr_scan"}, "fusion_lat": 0.0, "name": "62acc1461966e1d1f80ac88303499477", "bike_id": "62acc1461966e1d1f80ac88303499477", "is_disabled": 0, "type": "electric_scooter", "lat": 38.9169465, "lon": -77.0297295, "is_reserved": 0, "fusion_lon": 0.0}, {"rental_uris": {"ios": "https://dc.lft.to/lastmile_qr_scan", "android": "https://dc.lft.to/lastmile_qr_scan"}, "fusion_lat": 0.0, "name": "292055f7a1b50b56898f33cf3e62102f", "bike_id": "292055f7a1b50b56898f33cf3e62102f", "is_disabled": 0, "type": "electric_bike", "lat": 38.859388, "lon": -77.08607916666666, "is_reserved": 0, "fusion_lon": 0.0}, {"rental_uris": {"ios": "https://dc.lft.to/lastmile_qr_scan", "android": "https://dc.lft.to/lastmile_qr_scan"}, "fusion_lat": 0.0, "name": "3d20acf34d62fe479225a5a6eb3edf11", "bike_id": "3d20acf34d62fe479225a5a6eb3edf11", "is_disabled": 0, "type": "electric_scooter", "lat": 38.907998, "lon": -77.0384405, "is_reserved": 0, "fusion_lon": 0.0}, {"rental_uris": {"ios": "https://dc.lft.to/lastmile_qr_scan", "android": "https://dc.lft.to/lastmile_qr_scan"}, "fusion_lat": 0.0, "name": "77b58f690ea3e56b6ab765f1bcd3ece8", "bike_id": "77b58f690ea3e56b6ab765f1bcd3ece8", "is_disabled": 0, "type": "electric_scooter", "lat": 38.95163933333333, "lon": -77.027472, "is_reserved": 0, "fusion_lon": 0.0}, {"rental_uris": {"ios": "https://dc.lft.to/lastmile_qr_scan", "android": "https://dc.lft.to/lastmile_qr_scan"}, "fusion_lat": 0.0, "name": "f6326e334e562ea080bda32e7e3f20ab", "bike_id": "f6326e334e562ea080bda32e7e3f20ab", "is_disabled": 0, "type": "electric_scooter", "lat": 38.890161166666665, "lon": -76.93736666666666, "is_reserved": 0, "fusion_lon": 0.0}, {"rental_uris": {"ios": "https://dc.lft.to/lastmile_qr_scan", "android": "https://dc.lft.to/lastmile_qr_scan"}, "fusion_lat": 0.0, "name": "0086dee35baa3730facc60263647c9da", "bike_id": "0086dee35baa3730facc60263647c9da", "is_disabled": 0, "type": "electric_bike", "lat": 38.922095, "lon": -76.9879765, "is_reserved": 0, "fusion_lon": 0.0}, {"rental_uris": {"ios": "https://dc.lft.to/lastmile_qr_scan", "android": "https://dc.lft.to/lastmile_qr_scan"}, "fusion_lat": 0.0, "name": "d5a2eff7ad062b8d9bd393eda9bae7c1", "bike_id": "d5a2eff7ad062b8d9bd393eda9bae7c1", "is_disabled": 0, "type": "electric_scooter", "lat": 38.866663, "lon": -76.98520633333334, "is_reserved": 0, "fusion_lon": 0.0}, {"rental_uris": {"ios": "https://dc.lft.to/lastmile_qr_scan", "android": "https://dc.lft.to/lastmile_qr_scan"}, "fusion_lat": 0.0, "name": "d5c5a065a4e6a7a05835d9645d60114e", "bike_id": "d5c5a065a4e6a7a05835d9645d60114e", "is_disabled": 0, "type": "electric_scooter", "lat": 38.876532833333336, "lon": -77.00842383333334, "is_reserved": 0, "fusion_lon": 0.0}, {"rental_uris": {"ios": "https://dc.lft.to/lastmile_qr_scan", "android": "https://dc.lft.to/lastmile_qr_scan"}, "fusion_lat": 0.0, "name": "1b815be333220e1baae00b9c02ed19a9", "bike_id": "1b815be333220e1baae00b9c02ed19a9", "is_disabled": 0, "type": "electric_scooter", "lat": 38.892202833333336, "lon": -77.02652883333333, "is_reserved": 0, "fusion_lon": 0.0}, {"rental_uris": {"ios": "https://dc.lft.to/lastmile_qr_scan", "android": "https://dc.lft.to/lastmile_qr_scan"}, "fusion_lat": 0.0, "name": "d1002b2f38511bb30bba80c54595e7c3", "bike_id": "d1002b2f38511bb30bba80c54595e7c3", "is_disabled": 0, "type": "electric_scooter", "lat": 38.87387066666667, "lon": -76.96606983333334, "is_reserved": 0, "fusion_lon": 0.0}, {"rental_uris": {"ios": "https://dc.lft.to/lastmile_qr_scan", "android": "https://dc.lft.to/lastmile_qr_scan"}, "fusion_lat": 0.0, "name": "cc40f8f098f9cf655a3744eff0bf22c3", "bike_id": "cc40f8f098f9cf655a3744eff0bf22c3", "is_disabled": 0, "type": "electric_scooter", "lat": 38.92505466666667, "lon": -77.00225016666667, "is_reserved": 0, "fusion_lon": 0.0}, {"rental_uris": {"ios": "https://dc.lft.to/lastmile_qr_scan", "android": "https://dc.lft.to/lastmile_qr_scan"}, "fusion_lat": 0.0, "name": "f4810d4ca867ccc4def1514e6b1d20a3", "bike_id": "f4810d4ca867ccc4def1514e6b1d20a3", "is_disabled": 0, "type": "electric_scooter", "lat": 38.89617033333333, "lon": -77.0268035, "is_reserved": 0, "fusion_lon": 0.0}, {"rental_uris": {"ios": "https://dc.lft.to/lastmile_qr_scan", "android": "https://dc.lft.to/lastmile_qr_scan"}, "fusion_lat": 0.0, "name": "cedf0ea91d6527858dd4771a00a4f0cc", "bike_id": "cedf0ea91d6527858dd4771a00a4f0cc", "is_disabled": 0, "type": "electric_scooter", "lat": 38.92158466666667, "lon": -77.040316, "is_reserved": 0, "fusion_lon": 0.0}, {"rental_uris": {"ios": "https://dc.lft.to/lastmile_qr_scan", "android": "https://dc.lft.to/lastmile_qr_scan"}, "fusion_lat": 0.0, "name": "626ae573c1439a90137b05c94553b591", "bike_id": "626ae573c1439a90137b05c94553b591", "is_disabled": 0, "type": "electric_scooter", "lat": 38.906676833333336, "lon": -77.02706216666667, "is_reserved": 0, "fusion_lon": 0.0}, {"rental_uris": {"ios": "https://dc.lft.to/lastmile_qr_scan", "android": "https://dc.lft.to/lastmile_qr_scan"}, "fusion_lat": 0.0, "name": "efab0093df7df9e5674e84f3c1b6381b", "bike_id": "efab0093df7df9e5674e84f3c1b6381b", "is_disabled": 0, "type": "electric_scooter", "lat": 38.890405333333334, "lon": -76.93751133333333, "is_reserved": 0, "fusion_lon": 0.0}, {"rental_uris": {"ios": "https://dc.lft.to/lastmile_qr_scan", "android": "https://dc.lft.to/lastmile_qr_scan"}, "fusion_lat": 0.0, "name": "f28c6efe05c1e762d226452cdad13308", "bike_id": "f28c6efe05c1e762d226452cdad13308", "is_disabled": 0, "type": "electric_scooter", "lat": 38.91821366666667, "lon": -77.04520366666667, "is_reserved": 0, "fusion_lon": 0.0}, {"rental_uris": {"ios": "https://dc.lft.to/lastmile_qr_scan", "android": "https://dc.lft.to/lastmile_qr_scan"}, "fusion_lat": 0.0, "name": "72981150c31c20f68c6405e8772118e7", "bike_id": "72981150c31c20f68c6405e8772118e7", "is_disabled": 0, "type": "electric_scooter", "lat": 38.8923965, "lon": -77.04660583333333, "is_reserved": 0, "fusion_lon": 0.0}, {"rental_uris": {"ios": "https://dc.lft.to/lastmile_qr_scan", "android": "https://dc.lft.to/lastmile_qr_scan"}, "fusion_lat": 0.0, "name": "207ad03bf4f63415575ad9c9b71ccfa8", "bike_id": "207ad03bf4f63415575ad9c9b71ccfa8", "is_disabled": 0, "type": "electric_scooter", "lat": 38.9045335, "lon": -77.03450666666667, "is_reserved": 0, "fusion_lon": 0.0}, {"rental_uris": {"ios": "https://dc.lft.to/lastmile_qr_scan", "android": "https://dc.lft.to/lastmile_qr_scan"}, "fusion_lat": 0.0, "name": "eedc0ffa8cc44db7bea54f8d3a7aa1f3", "bike_id": "eedc0ffa8cc44db7bea54f8d3a7aa1f3", "is_disabled": 0, "type": "electric_scooter", "lat": 38.932515, "lon": -77.0384705, "is_reserved": 0, "fusion_lon": 0.0}, {"rental_uris": {"ios": "https://dc.lft.to/lastmile_qr_scan", "android": "https://dc.lft.to/lastmile_qr_scan"}, "fusion_lat": 0.0, "name": "da9cd38d558bf477f8786e00565a3948", "bike_id": "da9cd38d558bf477f8786e00565a3948", "is_disabled": 0, "type": "electric_scooter", "lat": 38.92114333333333, "lon": -77.04376116666667, "is_reserved": 0, "fusion_lon": 0.0}, {"rental_uris": {"ios": "https://dc.lft.to/lastmile_qr_scan", "android": "https://dc.lft.to/lastmile_qr_scan"}, "fusion_lat": 0.0, "name": "6d42fb3df9e618098b8c402df7d60ee9", "bike_id": "6d42fb3df9e618098b8c402df7d60ee9", "is_disabled": 0, "type": "electric_scooter", "lat": 38.88643416666667, "lon": -77.00095683333333, "is_reserved": 0, "fusion_lon": 0.0}, {"rental_uris": {"ios": "https://dc.lft.to/lastmile_qr_scan", "android": "https://dc.lft.to/lastmile_qr_scan"}, "fusion_lat": 0.0, "name": "fc8f254dcad6e880fbf9b73dd47532b1", "bike_id": "fc8f254dcad6e880fbf9b73dd47532b1", "is_disabled": 0, "type": "electric_scooter", "lat": 38.870943833333335, "lon": -76.9687325, "is_reserved": 0, "fusion_lon": 0.0}, {"rental_uris": {"ios": "https://dc.lft.to/lastmile_qr_scan", "android": "https://dc.lft.to/lastmile_qr_scan"}, "fusion_lat": 0.0, "name": "7b5f3925a0b732a12c724c811b8c8d5e", "bike_id": "7b5f3925a0b732a12c724c811b8c8d5e", "is_disabled": 0, "type": "electric_scooter", "lat": 38.91659666666666, "lon": -77.02340333333333, "is_reserved": 0, "fusion_lon": 0.0}, {"rental_uris": {"ios": "https://dc.lft.to/lastmile_qr_scan", "android": "https://dc.lft.to/lastmile_qr_scan"}, "fusion_lat": 0.0, "name": "63e85dace2268badbe58b5931197fe23", "bike_id": "63e85dace2268badbe58b5931197fe23", "is_disabled": 0, "type": "electric_bike", "lat": 38.948344, "lon": -77.0063685, "is_reserved": 0, "fusion_lon": 0.0}, {"rental_uris": {"ios": "https://dc.lft.to/lastmile_qr_scan", "android": "https://dc.lft.to/lastmile_qr_scan"}, "fusion_lat": 0.0, "name": "c44c16d532fd995cbc8f21179fd87d75", "bike_id": "c44c16d532fd995cbc8f21179fd87d75", "is_disabled": 0, "type": "electric_scooter", "lat": 38.91679466666667, "lon": -77.02977033333333, "is_reserved": 0, "fusion_lon": 0.0}, {"rental_uris": {"ios": "https://dc.lft.to/lastmile_qr_scan", "android": "https://dc.lft.to/lastmile_qr_scan"}, "fusion_lat": 0.0, "name": "4d2ff4897de62686f406b65a8909100f", "bike_id": "4d2ff4897de62686f406b65a8909100f", "is_disabled": 0, "type": "electric_scooter", "lat": 38.86210116666667, "lon": -76.99484483333333, "is_reserved": 0, "fusion_lon": 0.0}, {"rental_uris": {"ios": "https://dc.lft.to/lastmile_qr_scan", "android": "https://dc.lft.to/lastmile_qr_scan"}, "fusion_lat": 0.0, "name": "74baa28e8d2657a0dbed92f9ef5577bb", "bike_id": "74baa28e8d2657a0dbed92f9ef5577bb", "is_disabled": 0, "type": "electric_scooter", "lat": 38.920790833333335, "lon": -77.04206483333333, "is_reserved": 0, "fusion_lon": 0.0}, {"rental_uris": {"ios": "https://dc.lft.to/lastmile_qr_scan", "android": "https://dc.lft.to/lastmile_qr_scan"}, "fusion_lat": 0.0, "name": "4724457389edda3add0a26c7649a0038", "bike_id": "4724457389edda3add0a26c7649a0038", "is_disabled": 0, "type": "electric_scooter", "lat": 38.892199833333336, "lon": -77.027816, "is_reserved": 0, "fusion_lon": 0.0}, {"rental_uris": {"ios": "https://dc.lft.to/lastmile_qr_scan", "android": "https://dc.lft.to/lastmile_qr_scan"}, "fusion_lat": 0.0, "name": "7ce75f80ac540453c34d71f6abb8343e", "bike_id": "7ce75f80ac540453c34d71f6abb8343e", "is_disabled": 0, "type": "electric_bike", "lat": 38.871503833333335, "lon": -76.93649816666667, "is_reserved": 0, "fusion_lon": 0.0}, {"rental_uris": {"ios": "https://dc.lft.to/lastmile_qr_scan", "android": "https://dc.lft.to/lastmile_qr_scan"}, "fusion_lat": 0.0, "name": "08434152be767ebbd3cc9826bc9abd0a", "bike_id": "08434152be767ebbd3cc9826bc9abd0a", "is_disabled": 0, "type": "electric_scooter", "lat": 38.926109833333335, "lon": -77.02162733333333, "is_reserved": 0, "fusion_lon": 0.0}, {"rental_uris": {"ios": "https://dc.lft.to/lastmile_qr_scan", "android": "https://dc.lft.to/lastmile_qr_scan"}, "fusion_lat": 0.0, "name": "6b67f5e49d9ff5258a238b4d8bede2e0", "bike_id": "6b67f5e49d9ff5258a238b4d8bede2e0", "is_disabled": 0, "type": "electric_scooter", "lat": 38.92140166666667, "lon": -77.043509, "is_reserved": 0, "fusion_lon": 0.0}, {"rental_uris": {"ios": "https://dc.lft.to/lastmile_qr_scan", "android": "https://dc.lft.to/lastmile_qr_scan"}, "fusion_lat": 0.0, "name": "003b1729f439929be0d67297d3ad93b8", "bike_id": "003b1729f439929be0d67297d3ad93b8", "is_disabled": 0, "type": "electric_scooter", "lat": 38.905987333333336, "lon": -77.00581933333333, "is_reserved": 0, "fusion_lon": 0.0}, {"rental_uris": {"ios": "https://dc.lft.to/lastmile_qr_scan", "android": "https://dc.lft.to/lastmile_qr_scan"}, "fusion_lat": 0.0, "name": "25991d2be7c0332c4c6232207cd9f264", "bike_id": "25991d2be7c0332c4c6232207cd9f264", "is_disabled": 0, "type": "electric_scooter", "lat": 38.939617, "lon": -77.027729, "is_reserved": 0, "fusion_lon": 0.0}, {"rental_uris": {"ios": "https://dc.lft.to/lastmile_qr_scan", "android": "https://dc.lft.to/lastmile_qr_scan"}, "fusion_lat": 0.0, "name": "c5f63441830feafd41619fbfefaee6a2", "bike_id": "c5f63441830feafd41619fbfefaee6a2", "is_disabled": 0, "type": "electric_scooter", "lat": 38.903609833333334, "lon": -77.03189716666667, "is_reserved": 0, "fusion_lon": 0.0}, {"rental_uris": {"ios": "https://dc.lft.to/lastmile_qr_scan", "android": "https://dc.lft.to/lastmile_qr_scan"}, "fusion_lat": 0.0, "name": "b49a077363d90973ab7ba8ca701e16bb", "bike_id": "b49a077363d90973ab7ba8ca701e16bb", "is_disabled": 0, "type": "electric_scooter", "lat": 38.90974283333333, "lon": -77.02691583333333, "is_reserved": 0, "fusion_lon": 0.0}, {"rental_uris": {"ios": "https://dc.lft.to/lastmile_qr_scan", "android": "https://dc.lft.to/lastmile_qr_scan"}, "fusion_lat": 0.0, "name": "b6e3632a26f83f6f5c79e63ea25cda5d", "bike_id": "b6e3632a26f83f6f5c79e63ea25cda5d", "is_disabled": 0, "type": "electric_scooter", "lat": 38.89223616666666, "lon": -77.03187633333333, "is_reserved": 0, "fusion_lon": 0.0}, {"rental_uris": {"ios": "https://dc.lft.to/lastmile_qr_scan", "android": "https://dc.lft.to/lastmile_qr_scan"}, "fusion_lat": 0.0, "name": "9f12e8e7a99394d5585518f373ebc54b", "bike_id": "9f12e8e7a99394d5585518f373ebc54b", "is_disabled": 0, "type": "electric_bike", "lat": 38.870826, "lon": -77.01214433333334, "is_reserved": 0, "fusion_lon": 0.0}, {"rental_uris": {"ios": "https://dc.lft.to/lastmile_qr_scan", "android": "https://dc.lft.to/lastmile_qr_scan"}, "fusion_lat": 0.0, "name": "439e5491ebeb3252ebde9082f03a12bb", "bike_id": "439e5491ebeb3252ebde9082f03a12bb", "is_disabled": 0, "type": "electric_scooter", "lat": 38.9026555, "lon": -77.03863783333334, "is_reserved": 0, "fusion_lon": 0.0}, {"rental_uris": {"ios": "https://dc.lft.to/lastmile_qr_scan", "android": "https://dc.lft.to/lastmile_qr_scan"}, "fusion_lat": 0.0, "name": "4442a1da81acf91a2b13518bdb257e30", "bike_id": "4442a1da81acf91a2b13518bdb257e30", "is_disabled": 0, "type": "electric_bike", "lat": 38.9070385, "lon": -77.02182, "is_reserved": 0, "fusion_lon": 0.0}, {"rental_uris": {"ios": "https://dc.lft.to/lastmile_qr_scan", "android": "https://dc.lft.to/lastmile_qr_scan"}, "fusion_lat": 0.0, "name": "5b10c62c98a74116547d3480cf1588fe", "bike_id": "5b10c62c98a74116547d3480cf1588fe", "is_disabled": 0, "type": "electric_scooter", "lat": 38.91600483333333, "lon": -77.02574216666666, "is_reserved": 0, "fusion_lon": 0.0}, {"rental_uris": {"ios": "https://dc.lft.to/lastmile_qr_scan", "android": "https://dc.lft.to/lastmile_qr_scan"}, "fusion_lat": 0.0, "name": "5e35b25a0db03c0f66428366e90f583b", "bike_id": "5e35b25a0db03c0f66428366e90f583b", "is_disabled": 0, "type": "electric_scooter", "lat": 38.90628783333333, "lon": -77.02180166666666, "is_reserved": 0, "fusion_lon": 0.0}, {"rental_uris": {"ios": "https://dc.lft.to/lastmile_qr_scan", "android": "https://dc.lft.to/lastmile_qr_scan"}, "fusion_lat": 0.0, "name": "cbb3ab00c27332a4e2c3d3a20582bbad", "bike_id": "cbb3ab00c27332a4e2c3d3a20582bbad", "is_disabled": 0, "type": "electric_scooter", "lat": 38.925397, "lon": -77.05240766666667, "is_reserved": 0, "fusion_lon": 0.0}, {"rental_uris": {"ios": "https://dc.lft.to/lastmile_qr_scan", "android": "https://dc.lft.to/lastmile_qr_scan"}, "fusion_lat": 0.0, "name": "74a3debc4376ada8c7b4da95482af34a", "bike_id": "74a3debc4376ada8c7b4da95482af34a", "is_disabled": 0, "type": "electric_scooter", "lat": 38.935763666666666, "lon": -77.03763033333334, "is_reserved": 0, "fusion_lon": 0.0}, {"rental_uris": {"ios": "https://dc.lft.to/lastmile_qr_scan", "android": "https://dc.lft.to/lastmile_qr_scan"}, "fusion_lat": 0.0, "name": "635d695fcc5e4d4b579c04029cdf5385", "bike_id": "635d695fcc5e4d4b579c04029cdf5385", "is_disabled": 0, "type": "electric_scooter", "lat": 38.920757333333334, "lon": -77.04214333333333, "is_reserved": 0, "fusion_lon": 0.0}, {"rental_uris": {"ios": "https://dc.lft.to/lastmile_qr_scan", "android": "https://dc.lft.to/lastmile_qr_scan"}, "fusion_lat": 0.0, "name": "eef21127e22419f5b8d302da3731d1d7", "bike_id": "eef21127e22419f5b8d302da3731d1d7", "is_disabled": 0, "type": "electric_scooter", "lat": 38.90277116666667, "lon": -77.034514, "is_reserved": 0, "fusion_lon": 0.0}, {"rental_uris": {"ios": "https://dc.lft.to/lastmile_qr_scan", "android": "https://dc.lft.to/lastmile_qr_scan"}, "fusion_lat": 0.0, "name": "f305dc65c951b7ae1720052d2fa59338", "bike_id": "f305dc65c951b7ae1720052d2fa59338", "is_disabled": 0, "type": "electric_scooter", "lat": 38.93211433333333, "lon": -76.99536466666666, "is_reserved": 0, "fusion_lon": 0.0}, {"rental_uris": {"ios": "https://dc.lft.to/lastmile_qr_scan", "android": "https://dc.lft.to/lastmile_qr_scan"}, "fusion_lat": 0.0, "name": "e195105a1e348c39718d04a6d313e829", "bike_id": "e195105a1e348c39718d04a6d313e829", "is_disabled": 0, "type": "electric_scooter", "lat": 38.90802716666666, "lon": -77.03837683333333, "is_reserved": 0, "fusion_lon": 0.0}, {"rental_uris": {"ios": "https://dc.lft.to/lastmile_qr_scan", "android": "https://dc.lft.to/lastmile_qr_scan"}, "fusion_lat": 0.0, "name": "b7bbe50f2cfd0b056c03386b4f135cfc", "bike_id": "b7bbe50f2cfd0b056c03386b4f135cfc", "is_disabled": 0, "type": "electric_scooter", "lat": 38.91475966666667, "lon": -77.0256055, "is_reserved": 0, "fusion_lon": 0.0}, {"rental_uris": {"ios": "https://dc.lft.to/lastmile_qr_scan", "android": "https://dc.lft.to/lastmile_qr_scan"}, "fusion_lat": 0.0, "name": "85030ef23ee0fd5941d8664fc5875097", "bike_id": "85030ef23ee0fd5941d8664fc5875097", "is_disabled": 0, "type": "electric_scooter", "lat": 38.92045066666667, "lon": -77.03291466666667, "is_reserved": 0, "fusion_lon": 0.0}, {"rental_uris": {"ios": "https://dc.lft.to/lastmile_qr_scan", "android": "https://dc.lft.to/lastmile_qr_scan"}, "fusion_lat": 0.0, "name": "31e0f0e849a7df6b92266beec0995d03", "bike_id": "31e0f0e849a7df6b92266beec0995d03", "is_disabled": 0, "type": "electric_scooter", "lat": 38.932957, "lon": -77.04535183333333, "is_reserved": 0, "fusion_lon": 0.0}, {"rental_uris": {"ios": "https://dc.lft.to/lastmile_qr_scan", "android": "https://dc.lft.to/lastmile_qr_scan"}, "fusion_lat": 0.0, "name": "a7d7d40728d7c85c667d3d3d1917844a", "bike_id": "a7d7d40728d7c85c667d3d3d1917844a", "is_disabled": 0, "type": "electric_scooter", "lat": 38.91554633333333, "lon": -77.02214966666666, "is_reserved": 0, "fusion_lon": 0.0}, {"rental_uris": {"ios": "https://dc.lft.to/lastmile_qr_scan", "android": "https://dc.lft.to/lastmile_qr_scan"}, "fusion_lat": 0.0, "name": "9c37ae06026443cd0de291e6a571216d", "bike_id": "9c37ae06026443cd0de291e6a571216d", "is_disabled": 0, "type": "electric_scooter", "lat": 38.917045, "lon": -77.038912, "is_reserved": 0, "fusion_lon": 0.0}, {"rental_uris": {"ios": "https://dc.lft.to/lastmile_qr_scan", "android": "https://dc.lft.to/lastmile_qr_scan"}, "fusion_lat": 0.0, "name": "2ce9f19ad5e526e870c81600a82103ad", "bike_id": "2ce9f19ad5e526e870c81600a82103ad", "is_disabled": 0, "type": "electric_scooter", "lat": 38.9040645, "lon": -77.04357783333333, "is_reserved": 0, "fusion_lon": 0.0}, {"rental_uris": {"ios": "https://dc.lft.to/lastmile_qr_scan", "android": "https://dc.lft.to/lastmile_qr_scan"}, "fusion_lat": 0.0, "name": "f840d8cde15ab18bd705f8eb77b0c601", "bike_id": "f840d8cde15ab18bd705f8eb77b0c601", "is_disabled": 0, "type": "electric_scooter", "lat": 38.89345433333333, "lon": -77.01169516666667, "is_reserved": 0, "fusion_lon": 0.0}, {"rental_uris": {"ios": "https://dc.lft.to/lastmile_qr_scan", "android": "https://dc.lft.to/lastmile_qr_scan"}, "fusion_lat": 0.0, "name": "168c932dbf04eba62681394c0c1fc37b", "bike_id": "168c932dbf04eba62681394c0c1fc37b", "is_disabled": 0, "type": "electric_scooter", "lat": 38.95399283333333, "lon": -77.0279755, "is_reserved": 0, "fusion_lon": 0.0}, {"rental_uris": {"ios": "https://dc.lft.to/lastmile_qr_scan", "android": "https://dc.lft.to/lastmile_qr_scan"}, "fusion_lat": 0.0, "name": "5ffaf1a9c839ed03766c06dd5980032e", "bike_id": "5ffaf1a9c839ed03766c06dd5980032e", "is_disabled": 0, "type": "electric_scooter", "lat": 38.95776516666667, "lon": -77.02745433333334, "is_reserved": 0, "fusion_lon": 0.0}, {"rental_uris": {"ios": "https://dc.lft.to/lastmile_qr_scan", "android": "https://dc.lft.to/lastmile_qr_scan"}, "fusion_lat": 0.0, "name": "101ca55e3975eff15bb640b6abee8989", "bike_id": "101ca55e3975eff15bb640b6abee8989", "is_disabled": 0, "type": "electric_scooter", "lat": 38.92343416666667, "lon": -77.05128216666667, "is_reserved": 0, "fusion_lon": 0.0}, {"rental_uris": {"ios": "https://dc.lft.to/lastmile_qr_scan", "android": "https://dc.lft.to/lastmile_qr_scan"}, "fusion_lat": 0.0, "name": "68332ed77140ab87186e84e2af202121", "bike_id": "68332ed77140ab87186e84e2af202121", "is_disabled": 0, "type": "electric_scooter", "lat": 38.93887816666667, "lon": -77.02488433333333, "is_reserved": 0, "fusion_lon": 0.0}, {"rental_uris": {"ios": "https://dc.lft.to/lastmile_qr_scan", "android": "https://dc.lft.to/lastmile_qr_scan"}, "fusion_lat": 0.0, "name": "bd18ec40ebd8ee7438d1a5b68fe169d2", "bike_id": "bd18ec40ebd8ee7438d1a5b68fe169d2", "is_disabled": 0, "type": "electric_scooter", "lat": 38.90107733333333, "lon": -77.03371116666666, "is_reserved": 0, "fusion_lon": 0.0}, {"rental_uris": {"ios": "https://dc.lft.to/lastmile_qr_scan", "android": "https://dc.lft.to/lastmile_qr_scan"}, "fusion_lat": 0.0, "name": "e66afed42566a66d6cad3c8c9e1418f8", "bike_id": "e66afed42566a66d6cad3c8c9e1418f8", "is_disabled": 0, "type": "electric_scooter", "lat": 38.91690033333333, "lon": -77.02954233333334, "is_reserved": 0, "fusion_lon": 0.0}, {"rental_uris": {"ios": "https://dc.lft.to/lastmile_qr_scan", "android": "https://dc.lft.to/lastmile_qr_scan"}, "fusion_lat": 0.0, "name": "41ddfce1b768cc580e517fb66a771991", "bike_id": "41ddfce1b768cc580e517fb66a771991", "is_disabled": 0, "type": "electric_bike", "lat": 38.910646, "lon": -77.009031, "is_reserved": 0, "fusion_lon": 0.0}, {"rental_uris": {"ios": "https://dc.lft.to/lastmile_qr_scan", "android": "https://dc.lft.to/lastmile_qr_scan"}, "fusion_lat": 0.0, "name": "a38b422f09ef7efa3834cf349da7346b", "bike_id": "a38b422f09ef7efa3834cf349da7346b", "is_disabled": 0, "type": "electric_scooter", "lat": 38.9306065, "lon": -77.0318305, "is_reserved": 0, "fusion_lon": 0.0}, {"rental_uris": {"ios": "https://dc.lft.to/lastmile_qr_scan", "android": "https://dc.lft.to/lastmile_qr_scan"}, "fusion_lat": 0.0, "name": "81836078e2dc4d864896bbd912e5a34d", "bike_id": "81836078e2dc4d864896bbd912e5a34d", "is_disabled": 0, "type": "electric_bike", "lat": 38.998132, "lon": -76.8836925, "is_reserved": 0, "fusion_lon": 0.0}, {"rental_uris": {"ios": "https://dc.lft.to/lastmile_qr_scan", "android": "https://dc.lft.to/lastmile_qr_scan"}, "fusion_lat": 0.0, "name": "c6c4e60b21254dcca2b3553ddd375ce6", "bike_id": "c6c4e60b21254dcca2b3553ddd375ce6", "is_disabled": 0, "type": "electric_bike", "lat": 38.9491415, "lon": -76.9770535, "is_reserved": 0, "fusion_lon": 0.0}, {"rental_uris": {"ios": "https://dc.lft.to/lastmile_qr_scan", "android": "https://dc.lft.to/lastmile_qr_scan"}, "fusion_lat": 0.0, "name": "b087072ed5f8402a9993283d90df9249", "bike_id": "b087072ed5f8402a9993283d90df9249", "is_disabled": 0, "type": "electric_scooter", "lat": 38.933594666666664, "lon": -77.05722766666666, "is_reserved": 0, "fusion_lon": 0.0}, {"rental_uris": {"ios": "https://dc.lft.to/lastmile_qr_scan", "android": "https://dc.lft.to/lastmile_qr_scan"}, "fusion_lat": 0.0, "name": "0ddcdc27e0360bb1d8072498126c5ad9", "bike_id": "0ddcdc27e0360bb1d8072498126c5ad9", "is_disabled": 0, "type": "electric_scooter", "lat": 38.929702166666665, "lon": -77.03778666666666, "is_reserved": 0, "fusion_lon": 0.0}, {"rental_uris": {"ios": "https://dc.lft.to/lastmile_qr_scan", "android": "https://dc.lft.to/lastmile_qr_scan"}, "fusion_lat": 0.0, "name": "e8941acea9b58d138d3feebdf2b0e4fc", "bike_id": "e8941acea9b58d138d3feebdf2b0e4fc", "is_disabled": 0, "type": "electric_scooter", "lat": 38.92748016666667, "lon": -77.0329145, "is_reserved": 0, "fusion_lon": 0.0}, {"rental_uris": {"ios": "https://dc.lft.to/lastmile_qr_scan", "android": "https://dc.lft.to/lastmile_qr_scan"}, "fusion_lat": 0.0, "name": "90b978f76bdd73991126cbd6ddc5089b", "bike_id": "90b978f76bdd73991126cbd6ddc5089b", "is_disabled": 0, "type": "electric_scooter", "lat": 38.9192425, "lon": -77.02481016666667, "is_reserved": 0, "fusion_lon": 0.0}, {"rental_uris": {"ios": "https://dc.lft.to/lastmile_qr_scan", "android": "https://dc.lft.to/lastmile_qr_scan"}, "fusion_lat": 0.0, "name": "7c420bf2d8f380b597babebafe35b509", "bike_id": "7c420bf2d8f380b597babebafe35b509", "is_disabled": 0, "type": "electric_scooter", "lat": 38.898183833333334, "lon": -77.033366, "is_reserved": 0, "fusion_lon": 0.0}, {"rental_uris": {"ios": "https://dc.lft.to/lastmile_qr_scan", "android": "https://dc.lft.to/lastmile_qr_scan"}, "fusion_lat": 0.0, "name": "6ae6b0f883987bc37a1c606be72deb65", "bike_id": "6ae6b0f883987bc37a1c606be72deb65", "is_disabled": 0, "type": "electric_scooter", "lat": 38.89037483333333, "lon": -76.95138933333334, "is_reserved": 0, "fusion_lon": 0.0}, {"rental_uris": {"ios": "https://dc.lft.to/lastmile_qr_scan", "android": "https://dc.lft.to/lastmile_qr_scan"}, "fusion_lat": 0.0, "name": "9bfb09a4e6b97a30dc69015bbe006600", "bike_id": "9bfb09a4e6b97a30dc69015bbe006600", "is_disabled": 0, "type": "electric_bike", "lat": 38.87416116666667, "lon": -77.08578783333333, "is_reserved": 0, "fusion_lon": 0.0}, {"rental_uris": {"ios": "https://dc.lft.to/lastmile_qr_scan", "android": "https://dc.lft.to/lastmile_qr_scan"}, "fusion_lat": 0.0, "name": "2b633bdcc3b94e438fad29e9fed5f40d", "bike_id": "2b633bdcc3b94e438fad29e9fed5f40d", "is_disabled": 0, "type": "electric_scooter", "lat": 38.895646166666666, "lon": -77.029826, "is_reserved": 0, "fusion_lon": 0.0}, {"rental_uris": {"ios": "https://dc.lft.to/lastmile_qr_scan", "android": "https://dc.lft.to/lastmile_qr_scan"}, "fusion_lat": 0.0, "name": "4ae9d52fb7ab6ffbcc1005f61b96a80d", "bike_id": "4ae9d52fb7ab6ffbcc1005f61b96a80d", "is_disabled": 0, "type": "electric_bike", "lat": 38.96220133333333, "lon": -77.0262365, "is_reserved": 0, "fusion_lon": 0.0}, {"rental_uris": {"ios": "https://dc.lft.to/lastmile_qr_scan", "android": "https://dc.lft.to/lastmile_qr_scan"}, "fusion_lat": 0.0, "name": "06ec8f4b96d2036c52444cc8d80fcfa8", "bike_id": "06ec8f4b96d2036c52444cc8d80fcfa8", "is_disabled": 0, "type": "electric_scooter", "lat": 38.923433833333334, "lon": -77.0417185, "is_reserved": 0, "fusion_lon": 0.0}, {"rental_uris": {"ios": "https://dc.lft.to/lastmile_qr_scan", "android": "https://dc.lft.to/lastmile_qr_scan"}, "fusion_lat": 0.0, "name": "de190d95d14e488175a5389cb4810177", "bike_id": "de190d95d14e488175a5389cb4810177", "is_disabled": 0, "type": "electric_scooter", "lat": 38.89743166666667, "lon": -77.0217695, "is_reserved": 0, "fusion_lon": 0.0}, {"rental_uris": {"ios": "https://dc.lft.to/lastmile_qr_scan", "android": "https://dc.lft.to/lastmile_qr_scan"}, "fusion_lat": 0.0, "name": "30294ac498e4035c28b6dc1eab4a962b", "bike_id": "30294ac498e4035c28b6dc1eab4a962b", "is_disabled": 0, "type": "electric_scooter", "lat": 38.91559983333333, "lon": -77.0221205, "is_reserved": 0, "fusion_lon": 0.0}, {"rental_uris": {"ios": "https://dc.lft.to/lastmile_qr_scan", "android": "https://dc.lft.to/lastmile_qr_scan"}, "fusion_lat": 0.0, "name": "ccf7a286154f14d6f0af1e42c82701ee", "bike_id": "ccf7a286154f14d6f0af1e42c82701ee", "is_disabled": 0, "type": "electric_bike", "lat": 38.905443, "lon": -77.06263283333334, "is_reserved": 0, "fusion_lon": 0.0}, {"rental_uris": {"ios": "https://dc.lft.to/lastmile_qr_scan", "android": "https://dc.lft.to/lastmile_qr_scan"}, "fusion_lat": 0.0, "name": "298543346de488ca579c907e4526ece3", "bike_id": "298543346de488ca579c907e4526ece3", "is_disabled": 0, "type": "electric_scooter", "lat": 38.928799833333336, "lon": -77.07304516666666, "is_reserved": 0, "fusion_lon": 0.0}, {"rental_uris": {"ios": "https://dc.lft.to/lastmile_qr_scan", "android": "https://dc.lft.to/lastmile_qr_scan"}, "fusion_lat": 0.0, "name": "3bb5d1ed0f725fdde1024903f5776523", "bike_id": "3bb5d1ed0f725fdde1024903f5776523", "is_disabled": 0, "type": "electric_scooter", "lat": 38.9038205, "lon": -77.03301583333334, "is_reserved": 0, "fusion_lon": 0.0}, {"rental_uris": {"ios": "https://dc.lft.to/lastmile_qr_scan", "android": "https://dc.lft.to/lastmile_qr_scan"}, "fusion_lat": 0.0, "name": "2a3f33c2c8719b990817c344a94a36b7", "bike_id": "2a3f33c2c8719b990817c344a94a36b7", "is_disabled": 0, "type": "electric_scooter", "lat": 38.91740716666666, "lon": -77.031852, "is_reserved": 0, "fusion_lon": 0.0}, {"rental_uris": {"ios": "https://dc.lft.to/lastmile_qr_scan", "android": "https://dc.lft.to/lastmile_qr_scan"}, "fusion_lat": 0.0, "name": "0e67210a776baedfb080a6963e8fab5f", "bike_id": "0e67210a776baedfb080a6963e8fab5f", "is_disabled": 0, "type": "electric_scooter", "lat": 38.84291283333334, "lon": -76.99946383333334, "is_reserved": 0, "fusion_lon": 0.0}, {"rental_uris": {"ios": "https://dc.lft.to/lastmile_qr_scan", "android": "https://dc.lft.to/lastmile_qr_scan"}, "fusion_lat": 0.0, "name": "665cabfc31a64adf204935fe466150f3", "bike_id": "665cabfc31a64adf204935fe466150f3", "is_disabled": 0, "type": "electric_scooter", "lat": 38.89903783333333, "lon": -76.93357333333333, "is_reserved": 0, "fusion_lon": 0.0}, {"rental_uris": {"ios": "https://dc.lft.to/lastmile_qr_scan", "android": "https://dc.lft.to/lastmile_qr_scan"}, "fusion_lat": 0.0, "name": "ba8d471515b8b13d333a968550729883", "bike_id": "ba8d471515b8b13d333a968550729883", "is_disabled": 0, "type": "electric_scooter", "lat": 38.9388595, "lon": -77.0248735, "is_reserved": 0, "fusion_lon": 0.0}, {"rental_uris": {"ios": "https://dc.lft.to/lastmile_qr_scan", "android": "https://dc.lft.to/lastmile_qr_scan"}, "fusion_lat": 0.0, "name": "244d717ca1466c470fe50a07aac105fc", "bike_id": "244d717ca1466c470fe50a07aac105fc", "is_disabled": 0, "type": "electric_scooter", "lat": 38.86651416666667, "lon": -76.98888933333333, "is_reserved": 0, "fusion_lon": 0.0}, {"rental_uris": {"ios": "https://dc.lft.to/lastmile_qr_scan", "android": "https://dc.lft.to/lastmile_qr_scan"}, "fusion_lat": 0.0, "name": "7be9669a10745e75daae86da82c4cf77", "bike_id": "7be9669a10745e75daae86da82c4cf77", "is_disabled": 0, "type": "electric_scooter", "lat": 38.9168295, "lon": -77.02804883333333, "is_reserved": 0, "fusion_lon": 0.0}, {"rental_uris": {"ios": "https://dc.lft.to/lastmile_qr_scan", "android": "https://dc.lft.to/lastmile_qr_scan"}, "fusion_lat": 0.0, "name": "d7d1205f260565e65a9bf64b95b1fdba", "bike_id": "d7d1205f260565e65a9bf64b95b1fdba", "is_disabled": 0, "type": "electric_scooter", "lat": 38.912943166666665, "lon": -77.04356583333333, "is_reserved": 0, "fusion_lon": 0.0}, {"rental_uris": {"ios": "https://dc.lft.to/lastmile_qr_scan", "android": "https://dc.lft.to/lastmile_qr_scan"}, "fusion_lat": 0.0, "name": "70cf708b74f1f9e7911be82c83709c2c", "bike_id": "70cf708b74f1f9e7911be82c83709c2c", "is_disabled": 0, "type": "electric_scooter", "lat": 38.9057895, "lon": -77.006051, "is_reserved": 0, "fusion_lon": 0.0}, {"rental_uris": {"ios": "https://dc.lft.to/lastmile_qr_scan", "android": "https://dc.lft.to/lastmile_qr_scan"}, "fusion_lat": 0.0, "name": "0de03f33a77ff748011022d28f7f1484", "bike_id": "0de03f33a77ff748011022d28f7f1484", "is_disabled": 0, "type": "electric_scooter", "lat": 38.895206333333334, "lon": -77.04335483333334, "is_reserved": 0, "fusion_lon": 0.0}, {"rental_uris": {"ios": "https://dc.lft.to/lastmile_qr_scan", "android": "https://dc.lft.to/lastmile_qr_scan"}, "fusion_lat": 0.0, "name": "dd8994f1769acb41ec06efb5f571aa98", "bike_id": "dd8994f1769acb41ec06efb5f571aa98", "is_disabled": 0, "type": "electric_scooter", "lat": 38.911774, "lon": -77.04467433333333, "is_reserved": 0, "fusion_lon": 0.0}, {"rental_uris": {"ios": "https://dc.lft.to/lastmile_qr_scan", "android": "https://dc.lft.to/lastmile_qr_scan"}, "fusion_lat": 0.0, "name": "a3920d3a90a0cb1b1d63d977536c6fcc", "bike_id": "a3920d3a90a0cb1b1d63d977536c6fcc", "is_disabled": 0, "type": "electric_scooter", "lat": 38.87626183333333, "lon": -76.96525666666666, "is_reserved": 0, "fusion_lon": 0.0}, {"rental_uris": {"ios": "https://dc.lft.to/lastmile_qr_scan", "android": "https://dc.lft.to/lastmile_qr_scan"}, "fusion_lat": 0.0, "name": "6501030f28d18e59483d507ef51ce2d6", "bike_id": "6501030f28d18e59483d507ef51ce2d6", "is_disabled": 0, "type": "electric_scooter", "lat": 38.881319500000004, "lon": -77.02689483333333, "is_reserved": 0, "fusion_lon": 0.0}, {"rental_uris": {"ios": "https://dc.lft.to/lastmile_qr_scan", "android": "https://dc.lft.to/lastmile_qr_scan"}, "fusion_lat": 0.0, "name": "ef0234d42ab8c2e05eaff96d4f818d05", "bike_id": "ef0234d42ab8c2e05eaff96d4f818d05", "is_disabled": 0, "type": "electric_scooter", "lat": 38.954254166666665, "lon": -77.02762416666667, "is_reserved": 0, "fusion_lon": 0.0}, {"rental_uris": {"ios": "https://dc.lft.to/lastmile_qr_scan", "android": "https://dc.lft.to/lastmile_qr_scan"}, "fusion_lat": 0.0, "name": "1bc18333be00d07ba754470b887df963", "bike_id": "1bc18333be00d07ba754470b887df963", "is_disabled": 0, "type": "electric_scooter", "lat": 38.9246815, "lon": -77.05234733333333, "is_reserved": 0, "fusion_lon": 0.0}, {"rental_uris": {"ios": "https://dc.lft.to/lastmile_qr_scan", "android": "https://dc.lft.to/lastmile_qr_scan"}, "fusion_lat": 0.0, "name": "411426f0137e07a229a8c00d6a596a09", "bike_id": "411426f0137e07a229a8c00d6a596a09", "is_disabled": 0, "type": "electric_scooter", "lat": 38.90026183333333, "lon": -76.99557016666667, "is_reserved": 0, "fusion_lon": 0.0}, {"rental_uris": {"ios": "https://dc.lft.to/lastmile_qr_scan", "android": "https://dc.lft.to/lastmile_qr_scan"}, "fusion_lat": 0.0, "name": "33c06f652af32da95e5149c84afb2d16", "bike_id": "33c06f652af32da95e5149c84afb2d16", "is_disabled": 0, "type": "electric_scooter", "lat": 38.89217766666667, "lon": -77.0433175, "is_reserved": 0, "fusion_lon": 0.0}, {"rental_uris": {"ios": "https://dc.lft.to/lastmile_qr_scan", "android": "https://dc.lft.to/lastmile_qr_scan"}, "fusion_lat": 0.0, "name": "82630c24eb15317bdfeb201284799ecd", "bike_id": "82630c24eb15317bdfeb201284799ecd", "is_disabled": 0, "type": "electric_scooter", "lat": 38.90521416666667, "lon": -77.06605183333333, "is_reserved": 0, "fusion_lon": 0.0}, {"rental_uris": {"ios": "https://dc.lft.to/lastmile_qr_scan", "android": "https://dc.lft.to/lastmile_qr_scan"}, "fusion_lat": 0.0, "name": "766c96394158eb78b1a504c8e937076b", "bike_id": "766c96394158eb78b1a504c8e937076b", "is_disabled": 0, "type": "electric_scooter", "lat": 38.907827833333336, "lon": -77.03859483333333, "is_reserved": 0, "fusion_lon": 0.0}, {"rental_uris": {"ios": "https://dc.lft.to/lastmile_qr_scan", "android": "https://dc.lft.to/lastmile_qr_scan"}, "fusion_lat": 0.0, "name": "1f4d6cc9a55a095fedf36e3992bfca5c", "bike_id": "1f4d6cc9a55a095fedf36e3992bfca5c", "is_disabled": 0, "type": "electric_scooter", "lat": 38.92363916666667, "lon": -77.05124766666667, "is_reserved": 0, "fusion_lon": 0.0}, {"rental_uris": {"ios": "https://dc.lft.to/lastmile_qr_scan", "android": "https://dc.lft.to/lastmile_qr_scan"}, "fusion_lat": 0.0, "name": "1386650152fa98773f1348e142d3b3e2", "bike_id": "1386650152fa98773f1348e142d3b3e2", "is_disabled": 0, "type": "electric_scooter", "lat": 38.9205605, "lon": -77.04190516666667, "is_reserved": 0, "fusion_lon": 0.0}, {"rental_uris": {"ios": "https://dc.lft.to/lastmile_qr_scan", "android": "https://dc.lft.to/lastmile_qr_scan"}, "fusion_lat": 0.0, "name": "9512ab062121c7cda4d48e2f559a5694", "bike_id": "9512ab062121c7cda4d48e2f559a5694", "is_disabled": 0, "type": "electric_scooter", "lat": 38.916874, "lon": -77.02813016666667, "is_reserved": 0, "fusion_lon": 0.0}, {"rental_uris": {"ios": "https://dc.lft.to/lastmile_qr_scan", "android": "https://dc.lft.to/lastmile_qr_scan"}, "fusion_lat": 0.0, "name": "029c1976f624b019efcf434300a72f24", "bike_id": "029c1976f624b019efcf434300a72f24", "is_disabled": 0, "type": "electric_scooter", "lat": 38.921508, "lon": -77.04347916666667, "is_reserved": 0, "fusion_lon": 0.0}, {"rental_uris": {"ios": "https://dc.lft.to/lastmile_qr_scan", "android": "https://dc.lft.to/lastmile_qr_scan"}, "fusion_lat": 0.0, "name": "dc6ad8b5862ce3c35f37652ac9c8ecf9", "bike_id": "dc6ad8b5862ce3c35f37652ac9c8ecf9", "is_disabled": 0, "type": "electric_scooter", "lat": 38.924699333333336, "lon": -77.03159683333334, "is_reserved": 0, "fusion_lon": 0.0}, {"rental_uris": {"ios": "https://dc.lft.to/lastmile_qr_scan", "android": "https://dc.lft.to/lastmile_qr_scan"}, "fusion_lat": 0.0, "name": "f803c79e9cdeb5ebecee40b1a11f71b2", "bike_id": "f803c79e9cdeb5ebecee40b1a11f71b2", "is_disabled": 0, "type": "electric_scooter", "lat": 38.88728833333333, "lon": -77.02826966666667, "is_reserved": 0, "fusion_lon": 0.0}, {"rental_uris": {"ios": "https://dc.lft.to/lastmile_qr_scan", "android": "https://dc.lft.to/lastmile_qr_scan"}, "fusion_lat": 0.0, "name": "d919f2f2310492070339b04a68a2217d", "bike_id": "d919f2f2310492070339b04a68a2217d", "is_disabled": 0, "type": "electric_scooter", "lat": 38.89882216666667, "lon": -76.9317535, "is_reserved": 0, "fusion_lon": 0.0}, {"rental_uris": {"ios": "https://dc.lft.to/lastmile_qr_scan", "android": "https://dc.lft.to/lastmile_qr_scan"}, "fusion_lat": 0.0, "name": "a12f3979ae1848a5743cef973b2a3d79", "bike_id": "a12f3979ae1848a5743cef973b2a3d79", "is_disabled": 0, "type": "electric_scooter", "lat": 38.883205833333335, "lon": -77.01549216666666, "is_reserved": 0, "fusion_lon": 0.0}, {"rental_uris": {"ios": "https://dc.lft.to/lastmile_qr_scan", "android": "https://dc.lft.to/lastmile_qr_scan"}, "fusion_lat": 0.0, "name": "272c28b4268701ca3bbc9e8b2effa65f", "bike_id": "272c28b4268701ca3bbc9e8b2effa65f", "is_disabled": 0, "type": "electric_scooter", "lat": 38.868866833333335, "lon": -76.9831385, "is_reserved": 0, "fusion_lon": 0.0}, {"rental_uris": {"ios": "https://dc.lft.to/lastmile_qr_scan", "android": "https://dc.lft.to/lastmile_qr_scan"}, "fusion_lat": 0.0, "name": "7a6ee42bbb95a120ae6ee82bfa35a131", "bike_id": "7a6ee42bbb95a120ae6ee82bfa35a131", "is_disabled": 0, "type": "electric_scooter", "lat": 38.84429766666667, "lon": -76.99779183333334, "is_reserved": 0, "fusion_lon": 0.0}, {"rental_uris": {"ios": "https://dc.lft.to/lastmile_qr_scan", "android": "https://dc.lft.to/lastmile_qr_scan"}, "fusion_lat": 0.0, "name": "437b59073edb0fd5453bcc184330669d", "bike_id": "437b59073edb0fd5453bcc184330669d", "is_disabled": 0, "type": "electric_scooter", "lat": 38.92157383333333, "lon": -77.02098833333334, "is_reserved": 0, "fusion_lon": 0.0}, {"rental_uris": {"ios": "https://dc.lft.to/lastmile_qr_scan", "android": "https://dc.lft.to/lastmile_qr_scan"}, "fusion_lat": 0.0, "name": "d315b6c6a5155913b39922ce0041ef02", "bike_id": "d315b6c6a5155913b39922ce0041ef02", "is_disabled": 0, "type": "electric_scooter", "lat": 38.920411666666666, "lon": -77.02989133333334, "is_reserved": 0, "fusion_lon": 0.0}, {"rental_uris": {"ios": "https://dc.lft.to/lastmile_qr_scan", "android": "https://dc.lft.to/lastmile_qr_scan"}, "fusion_lat": 0.0, "name": "be1ec88a51df31e0f9fc44474b4b50b0", "bike_id": "be1ec88a51df31e0f9fc44474b4b50b0", "is_disabled": 0, "type": "electric_scooter", "lat": 38.904431, "lon": -76.9825885, "is_reserved": 0, "fusion_lon": 0.0}, {"rental_uris": {"ios": "https://dc.lft.to/lastmile_qr_scan", "android": "https://dc.lft.to/lastmile_qr_scan"}, "fusion_lat": 0.0, "name": "c9bc1635b4666f638ff6cf6ecff45e22", "bike_id": "c9bc1635b4666f638ff6cf6ecff45e22", "is_disabled": 0, "type": "electric_bike", "lat": 38.8278445, "lon": -77.0091695, "is_reserved": 0, "fusion_lon": 0.0}, {"rental_uris": {"ios": "https://dc.lft.to/lastmile_qr_scan", "android": "https://dc.lft.to/lastmile_qr_scan"}, "fusion_lat": 0.0, "name": "561e7601a3171c942f6ec1f9663acfc5", "bike_id": "561e7601a3171c942f6ec1f9663acfc5", "is_disabled": 0, "type": "electric_scooter", "lat": 38.923614, "lon": -77.05130783333334, "is_reserved": 0, "fusion_lon": 0.0}, {"rental_uris": {"ios": "https://dc.lft.to/lastmile_qr_scan", "android": "https://dc.lft.to/lastmile_qr_scan"}, "fusion_lat": 0.0, "name": "b42ef27314c977638cff08bb1cc8471e", "bike_id": "b42ef27314c977638cff08bb1cc8471e", "is_disabled": 0, "type": "electric_scooter", "lat": 38.956041, "lon": -77.02761016666666, "is_reserved": 0, "fusion_lon": 0.0}, {"rental_uris": {"ios": "https://dc.lft.to/lastmile_qr_scan", "android": "https://dc.lft.to/lastmile_qr_scan"}, "fusion_lat": 0.0, "name": "55bee3c23d18888ae4e731b0b06e7252", "bike_id": "55bee3c23d18888ae4e731b0b06e7252", "is_disabled": 0, "type": "electric_scooter", "lat": 38.866637, "lon": -76.98519316666666, "is_reserved": 0, "fusion_lon": 0.0}, {"rental_uris": {"ios": "https://dc.lft.to/lastmile_qr_scan", "android": "https://dc.lft.to/lastmile_qr_scan"}, "fusion_lat": 0.0, "name": "9553a2e49c4012e7578d37a624a907d6", "bike_id": "9553a2e49c4012e7578d37a624a907d6", "is_disabled": 0, "type": "electric_scooter", "lat": 38.917024166666664, "lon": -77.0257755, "is_reserved": 0, "fusion_lon": 0.0}, {"rental_uris": {"ios": "https://dc.lft.to/lastmile_qr_scan", "android": "https://dc.lft.to/lastmile_qr_scan"}, "fusion_lat": 0.0, "name": "00b6c20dd47c053e4e1867978cdc7264", "bike_id": "00b6c20dd47c053e4e1867978cdc7264", "is_disabled": 0, "type": "electric_scooter", "lat": 38.9089045, "lon": -77.02278333333334, "is_reserved": 0, "fusion_lon": 0.0}, {"rental_uris": {"ios": "https://dc.lft.to/lastmile_qr_scan", "android": "https://dc.lft.to/lastmile_qr_scan"}, "fusion_lat": 0.0, "name": "e19f514ac05956d40667f73b560554be", "bike_id": "e19f514ac05956d40667f73b560554be", "is_disabled": 0, "type": "electric_scooter", "lat": 38.898758666666666, "lon": -76.931834, "is_reserved": 0, "fusion_lon": 0.0}, {"rental_uris": {"ios": "https://dc.lft.to/lastmile_qr_scan", "android": "https://dc.lft.to/lastmile_qr_scan"}, "fusion_lat": 0.0, "name": "9ab761c668c6187213f00661745e763d", "bike_id": "9ab761c668c6187213f00661745e763d", "is_disabled": 0, "type": "electric_scooter", "lat": 38.9256955, "lon": -77.02905033333333, "is_reserved": 0, "fusion_lon": 0.0}, {"rental_uris": {"ios": "https://dc.lft.to/lastmile_qr_scan", "android": "https://dc.lft.to/lastmile_qr_scan"}, "fusion_lat": 0.0, "name": "48806381c0aec9c50d7346501457022e", "bike_id": "48806381c0aec9c50d7346501457022e", "is_disabled": 0, "type": "electric_scooter", "lat": 38.91849916666666, "lon": -76.96541766666667, "is_reserved": 0, "fusion_lon": 0.0}, {"rental_uris": {"ios": "https://dc.lft.to/lastmile_qr_scan", "android": "https://dc.lft.to/lastmile_qr_scan"}, "fusion_lat": 0.0, "name": "ee15b76685de4a31a58df65c0a42fd85", "bike_id": "ee15b76685de4a31a58df65c0a42fd85", "is_disabled": 0, "type": "electric_scooter", "lat": 38.903687166666664, "lon": -77.045258, "is_reserved": 0, "fusion_lon": 0.0}, {"rental_uris": {"ios": "https://dc.lft.to/lastmile_qr_scan", "android": "https://dc.lft.to/lastmile_qr_scan"}, "fusion_lat": 0.0, "name": "851bc43cf8b7918b9ba04cfde33e782a", "bike_id": "851bc43cf8b7918b9ba04cfde33e782a", "is_disabled": 0, "type": "electric_scooter", "lat": 38.89218016666667, "lon": -77.023714, "is_reserved": 0, "fusion_lon": 0.0}, {"rental_uris": {"ios": "https://dc.lft.to/lastmile_qr_scan", "android": "https://dc.lft.to/lastmile_qr_scan"}, "fusion_lat": 0.0, "name": "f1e8e327d00eeccc6ef524de4cf8baee", "bike_id": "f1e8e327d00eeccc6ef524de4cf8baee", "is_disabled": 0, "type": "electric_scooter", "lat": 38.918262, "lon": -77.026945, "is_reserved": 0, "fusion_lon": 0.0}, {"rental_uris": {"ios": "https://dc.lft.to/lastmile_qr_scan", "android": "https://dc.lft.to/lastmile_qr_scan"}, "fusion_lat": 0.0, "name": "cb9686c96d09910d4befe476f300805c", "bike_id": "cb9686c96d09910d4befe476f300805c", "is_disabled": 0, "type": "electric_scooter", "lat": 38.918019, "lon": -77.00937583333334, "is_reserved": 0, "fusion_lon": 0.0}, {"rental_uris": {"ios": "https://dc.lft.to/lastmile_qr_scan", "android": "https://dc.lft.to/lastmile_qr_scan"}, "fusion_lat": 0.0, "name": "25a56bdce982a2bf1216411f69499aeb", "bike_id": "25a56bdce982a2bf1216411f69499aeb", "is_disabled": 0, "type": "electric_scooter", "lat": 38.90491383333333, "lon": -77.04105733333333, "is_reserved": 0, "fusion_lon": 0.0}, {"rental_uris": {"ios": "https://dc.lft.to/lastmile_qr_scan", "android": "https://dc.lft.to/lastmile_qr_scan"}, "fusion_lat": 0.0, "name": "59157e5324d3fdc692e04f65732e12aa", "bike_id": "59157e5324d3fdc692e04f65732e12aa", "is_disabled": 0, "type": "electric_scooter", "lat": 38.879151666666665, "lon": -77.03096483333333, "is_reserved": 0, "fusion_lon": 0.0}, {"rental_uris": {"ios": "https://dc.lft.to/lastmile_qr_scan", "android": "https://dc.lft.to/lastmile_qr_scan"}, "fusion_lat": 0.0, "name": "274e0b417d0f0606196beacf4345911d", "bike_id": "274e0b417d0f0606196beacf4345911d", "is_disabled": 0, "type": "electric_scooter", "lat": 38.90700533333333, "lon": -77.03401733333334, "is_reserved": 0, "fusion_lon": 0.0}, {"rental_uris": {"ios": "https://dc.lft.to/lastmile_qr_scan", "android": "https://dc.lft.to/lastmile_qr_scan"}, "fusion_lat": 0.0, "name": "234adbcce048f960db62c208011ad0ba", "bike_id": "234adbcce048f960db62c208011ad0ba", "is_disabled": 0, "type": "electric_bike", "lat": 38.852045833333335, "lon": -77.101292, "is_reserved": 0, "fusion_lon": 0.0}, {"rental_uris": {"ios": "https://dc.lft.to/lastmile_qr_scan", "android": "https://dc.lft.to/lastmile_qr_scan"}, "fusion_lat": 0.0, "name": "239aca5161d8c3dce7ec3a4654bee484", "bike_id": "239aca5161d8c3dce7ec3a4654bee484", "is_disabled": 0, "type": "electric_scooter", "lat": 38.901010166666666, "lon": -77.03986233333333, "is_reserved": 0, "fusion_lon": 0.0}, {"rental_uris": {"ios": "https://dc.lft.to/lastmile_qr_scan", "android": "https://dc.lft.to/lastmile_qr_scan"}, "fusion_lat": 0.0, "name": "dc24e448df2df9be9abd3e135cb994cf", "bike_id": "dc24e448df2df9be9abd3e135cb994cf", "is_disabled": 0, "type": "electric_scooter", "lat": 38.892163, "lon": -77.04365283333334, "is_reserved": 0, "fusion_lon": 0.0}, {"rental_uris": {"ios": "https://dc.lft.to/lastmile_qr_scan", "android": "https://dc.lft.to/lastmile_qr_scan"}, "fusion_lat": 0.0, "name": "2af514d629fc48019ceb6a537f8cfab8", "bike_id": "2af514d629fc48019ceb6a537f8cfab8", "is_disabled": 0, "type": "electric_scooter", "lat": 38.892254333333334, "lon": -77.05005866666667, "is_reserved": 0, "fusion_lon": 0.0}, {"rental_uris": {"ios": "https://dc.lft.to/lastmile_qr_scan", "android": "https://dc.lft.to/lastmile_qr_scan"}, "fusion_lat": 0.0, "name": "63215425d1cc9d97a3639c6d7f6e9447", "bike_id": "63215425d1cc9d97a3639c6d7f6e9447", "is_disabled": 0, "type": "electric_bike", "lat": 38.862089, "lon": -76.99779216666667, "is_reserved": 0, "fusion_lon": 0.0}, {"rental_uris": {"ios": "https://dc.lft.to/lastmile_qr_scan", "android": "https://dc.lft.to/lastmile_qr_scan"}, "fusion_lat": 0.0, "name": "33f2d2653840dfed94f44aabfd5a5272", "bike_id": "33f2d2653840dfed94f44aabfd5a5272", "is_disabled": 0, "type": "electric_scooter", "lat": 38.9187175, "lon": -77.035277, "is_reserved": 0, "fusion_lon": 0.0}, {"rental_uris": {"ios": "https://dc.lft.to/lastmile_qr_scan", "android": "https://dc.lft.to/lastmile_qr_scan"}, "fusion_lat": 0.0, "name": "09092427c5d620696d1d0611bb81ad63", "bike_id": "09092427c5d620696d1d0611bb81ad63", "is_disabled": 0, "type": "electric_scooter", "lat": 38.8665465, "lon": -76.985268, "is_reserved": 0, "fusion_lon": 0.0}, {"rental_uris": {"ios": "https://dc.lft.to/lastmile_qr_scan", "android": "https://dc.lft.to/lastmile_qr_scan"}, "fusion_lat": 0.0, "name": "32de3c6e5a2e34d39b6d40c0962866bb", "bike_id": "32de3c6e5a2e34d39b6d40c0962866bb", "is_disabled": 0, "type": "electric_bike", "lat": 38.87087966666667, "lon": -77.01216666666667, "is_reserved": 0, "fusion_lon": 0.0}, {"rental_uris": {"ios": "https://dc.lft.to/lastmile_qr_scan", "android": "https://dc.lft.to/lastmile_qr_scan"}, "fusion_lat": 0.0, "name": "74010e6397785e145599f512b022e727", "bike_id": "74010e6397785e145599f512b022e727", "is_disabled": 0, "type": "electric_scooter", "lat": 38.928570666666666, "lon": -77.03097816666667, "is_reserved": 0, "fusion_lon": 0.0}, {"rental_uris": {"ios": "https://dc.lft.to/lastmile_qr_scan", "android": "https://dc.lft.to/lastmile_qr_scan"}, "fusion_lat": 0.0, "name": "384a2a9541480fdd8db35bfbe2e1a23d", "bike_id": "384a2a9541480fdd8db35bfbe2e1a23d", "is_disabled": 0, "type": "electric_scooter", "lat": 38.914221, "lon": -77.03925183333334, "is_reserved": 0, "fusion_lon": 0.0}, {"rental_uris": {"ios": "https://dc.lft.to/lastmile_qr_scan", "android": "https://dc.lft.to/lastmile_qr_scan"}, "fusion_lat": 0.0, "name": "4c9705ef2423d3b2e71e7790a44860aa", "bike_id": "4c9705ef2423d3b2e71e7790a44860aa", "is_disabled": 0, "type": "electric_scooter", "lat": 38.915096166666665, "lon": -77.021913, "is_reserved": 0, "fusion_lon": 0.0}, {"rental_uris": {"ios": "https://dc.lft.to/lastmile_qr_scan", "android": "https://dc.lft.to/lastmile_qr_scan"}, "fusion_lat": 0.0, "name": "1424eab62864bb7df03063a4c6d612fc", "bike_id": "1424eab62864bb7df03063a4c6d612fc", "is_disabled": 0, "type": "electric_scooter", "lat": 38.91760633333333, "lon": -77.027048, "is_reserved": 0, "fusion_lon": 0.0}, {"rental_uris": {"ios": "https://dc.lft.to/lastmile_qr_scan", "android": "https://dc.lft.to/lastmile_qr_scan"}, "fusion_lat": 0.0, "name": "bf5a4424cc005e3c045f346315f98ee4", "bike_id": "bf5a4424cc005e3c045f346315f98ee4", "is_disabled": 0, "type": "electric_scooter", "lat": 38.923732, "lon": -77.043184, "is_reserved": 0, "fusion_lon": 0.0}, {"rental_uris": {"ios": "https://dc.lft.to/lastmile_qr_scan", "android": "https://dc.lft.to/lastmile_qr_scan"}, "fusion_lat": 0.0, "name": "9326068f08b6ab483e06cf7ce00b0a69", "bike_id": "9326068f08b6ab483e06cf7ce00b0a69", "is_disabled": 0, "type": "electric_scooter", "lat": 38.898822833333334, "lon": -76.93175483333333, "is_reserved": 0, "fusion_lon": 0.0}, {"rental_uris": {"ios": "https://dc.lft.to/lastmile_qr_scan", "android": "https://dc.lft.to/lastmile_qr_scan"}, "fusion_lat": 0.0, "name": "d4d3ab91284a360700099817ec450a1b", "bike_id": "d4d3ab91284a360700099817ec450a1b", "is_disabled": 0, "type": "electric_scooter", "lat": 38.94767916666667, "lon": -77.07939416666666, "is_reserved": 0, "fusion_lon": 0.0}, {"rental_uris": {"ios": "https://dc.lft.to/lastmile_qr_scan", "android": "https://dc.lft.to/lastmile_qr_scan"}, "fusion_lat": 0.0, "name": "7f19e1506f49d0be7fc5e0dc0206e1e2", "bike_id": "7f19e1506f49d0be7fc5e0dc0206e1e2", "is_disabled": 0, "type": "electric_scooter", "lat": 38.90527733333333, "lon": -77.04096233333334, "is_reserved": 0, "fusion_lon": 0.0}, {"rental_uris": {"ios": "https://dc.lft.to/lastmile_qr_scan", "android": "https://dc.lft.to/lastmile_qr_scan"}, "fusion_lat": 0.0, "name": "0e2951afddd0e36e59a1de65f9b05eca", "bike_id": "0e2951afddd0e36e59a1de65f9b05eca", "is_disabled": 0, "type": "electric_scooter", "lat": 38.906664166666665, "lon": -77.02706166666667, "is_reserved": 0, "fusion_lon": 0.0}, {"rental_uris": {"ios": "https://dc.lft.to/lastmile_qr_scan", "android": "https://dc.lft.to/lastmile_qr_scan"}, "fusion_lat": 0.0, "name": "44c1d1dea438c147e132f9c19f544c72", "bike_id": "44c1d1dea438c147e132f9c19f544c72", "is_disabled": 0, "type": "electric_scooter", "lat": 38.91559383333333, "lon": -77.022796, "is_reserved": 0, "fusion_lon": 0.0}, {"rental_uris": {"ios": "https://dc.lft.to/lastmile_qr_scan", "android": "https://dc.lft.to/lastmile_qr_scan"}, "fusion_lat": 0.0, "name": "00b83247255d3415d39f2051ad731248", "bike_id": "00b83247255d3415d39f2051ad731248", "is_disabled": 0, "type": "electric_scooter", "lat": 38.91719783333333, "lon": -77.03655216666667, "is_reserved": 0, "fusion_lon": 0.0}, {"rental_uris": {"ios": "https://dc.lft.to/lastmile_qr_scan", "android": "https://dc.lft.to/lastmile_qr_scan"}, "fusion_lat": 0.0, "name": "31afd9fbdd12f71df31d31d001b41098", "bike_id": "31afd9fbdd12f71df31d31d001b41098", "is_disabled": 0, "type": "electric_scooter", "lat": 38.934441, "lon": -77.02983733333333, "is_reserved": 0, "fusion_lon": 0.0}, {"rental_uris": {"ios": "https://dc.lft.to/lastmile_qr_scan", "android": "https://dc.lft.to/lastmile_qr_scan"}, "fusion_lat": 0.0, "name": "7946bb159a642cf673507fbae7020751", "bike_id": "7946bb159a642cf673507fbae7020751", "is_disabled": 0, "type": "electric_scooter", "lat": 38.91342983333333, "lon": -77.03187166666666, "is_reserved": 0, "fusion_lon": 0.0}, {"rental_uris": {"ios": "https://dc.lft.to/lastmile_qr_scan", "android": "https://dc.lft.to/lastmile_qr_scan"}, "fusion_lat": 0.0, "name": "bcadb3dc5cee22ace3cffc704fd7e989", "bike_id": "bcadb3dc5cee22ace3cffc704fd7e989", "is_disabled": 0, "type": "electric_scooter", "lat": 38.95180166666667, "lon": -77.027198, "is_reserved": 0, "fusion_lon": 0.0}, {"rental_uris": {"ios": "https://dc.lft.to/lastmile_qr_scan", "android": "https://dc.lft.to/lastmile_qr_scan"}, "fusion_lat": 0.0, "name": "828ed1949d1f9219bb60680d46f5aac2", "bike_id": "828ed1949d1f9219bb60680d46f5aac2", "is_disabled": 0, "type": "electric_scooter", "lat": 38.866964833333334, "lon": -76.98712833333333, "is_reserved": 0, "fusion_lon": 0.0}, {"rental_uris": {"ios": "https://dc.lft.to/lastmile_qr_scan", "android": "https://dc.lft.to/lastmile_qr_scan"}, "fusion_lat": 0.0, "name": "218958c1f9c3d615e48fd89b63e8b192", "bike_id": "218958c1f9c3d615e48fd89b63e8b192", "is_disabled": 0, "type": "electric_scooter", "lat": 38.898866166666664, "lon": -77.04050266666667, "is_reserved": 0, "fusion_lon": 0.0}, {"rental_uris": {"ios": "https://dc.lft.to/lastmile_qr_scan", "android": "https://dc.lft.to/lastmile_qr_scan"}, "fusion_lat": 0.0, "name": "1dbafb9cebcc72c37e2b414d0981eeb7", "bike_id": "1dbafb9cebcc72c37e2b414d0981eeb7", "is_disabled": 0, "type": "electric_scooter", "lat": 38.91807283333333, "lon": -77.04173883333333, "is_reserved": 0, "fusion_lon": 0.0}, {"rental_uris": {"ios": "https://dc.lft.to/lastmile_qr_scan", "android": "https://dc.lft.to/lastmile_qr_scan"}, "fusion_lat": 0.0, "name": "478dd41e174a3a39e4d52fb2389400d9", "bike_id": "478dd41e174a3a39e4d52fb2389400d9", "is_disabled": 0, "type": "electric_scooter", "lat": 38.90023883333333, "lon": -77.0020845, "is_reserved": 0, "fusion_lon": 0.0}, {"rental_uris": {"ios": "https://dc.lft.to/lastmile_qr_scan", "android": "https://dc.lft.to/lastmile_qr_scan"}, "fusion_lat": 0.0, "name": "55f5238b9dadfb0e30900a92a575b376", "bike_id": "55f5238b9dadfb0e30900a92a575b376", "is_disabled": 0, "type": "electric_scooter", "lat": 38.9066145, "lon": -77.026934, "is_reserved": 0, "fusion_lon": 0.0}, {"rental_uris": {"ios": "https://dc.lft.to/lastmile_qr_scan", "android": "https://dc.lft.to/lastmile_qr_scan"}, "fusion_lat": 0.0, "name": "d203884a3baed8953460dac0467bc774", "bike_id": "d203884a3baed8953460dac0467bc774", "is_disabled": 0, "type": "electric_scooter", "lat": 38.9386055, "lon": -77.0265385, "is_reserved": 0, "fusion_lon": 0.0}, {"rental_uris": {"ios": "https://dc.lft.to/lastmile_qr_scan", "android": "https://dc.lft.to/lastmile_qr_scan"}, "fusion_lat": 0.0, "name": "4f4ea34e45cd0f64542d08fa456e7628", "bike_id": "4f4ea34e45cd0f64542d08fa456e7628", "is_disabled": 0, "type": "electric_scooter", "lat": 38.92549, "lon": -77.05267, "is_reserved": 0, "fusion_lon": 0.0}, {"rental_uris": {"ios": "https://dc.lft.to/lastmile_qr_scan", "android": "https://dc.lft.to/lastmile_qr_scan"}, "fusion_lat": 0.0, "name": "ecc752cb75256ac00425f1aa2f94d828", "bike_id": "ecc752cb75256ac00425f1aa2f94d828", "is_disabled": 0, "type": "electric_bike", "lat": 38.845032, "lon": -76.99356733333333, "is_reserved": 0, "fusion_lon": 0.0}, {"rental_uris": {"ios": "https://dc.lft.to/lastmile_qr_scan", "android": "https://dc.lft.to/lastmile_qr_scan"}, "fusion_lat": 0.0, "name": "6d442a8551d98a2cf3ec0a162b75cff5", "bike_id": "6d442a8551d98a2cf3ec0a162b75cff5", "is_disabled": 0, "type": "electric_scooter", "lat": 38.906875166666666, "lon": -77.02716283333334, "is_reserved": 0, "fusion_lon": 0.0}, {"rental_uris": {"ios": "https://dc.lft.to/lastmile_qr_scan", "android": "https://dc.lft.to/lastmile_qr_scan"}, "fusion_lat": 0.0, "name": "65fb16b202c3a4e4c166c6c42865e556", "bike_id": "65fb16b202c3a4e4c166c6c42865e556", "is_disabled": 0, "type": "electric_bike", "lat": 38.956340833333336, "lon": -77.03650683333333, "is_reserved": 0, "fusion_lon": 0.0}, {"rental_uris": {"ios": "https://dc.lft.to/lastmile_qr_scan", "android": "https://dc.lft.to/lastmile_qr_scan"}, "fusion_lat": 0.0, "name": "27a24dc7406b035665ee6048c41abedd", "bike_id": "27a24dc7406b035665ee6048c41abedd", "is_disabled": 0, "type": "electric_scooter", "lat": 38.9125835, "lon": -77.04442, "is_reserved": 0, "fusion_lon": 0.0}, {"rental_uris": {"ios": "https://dc.lft.to/lastmile_qr_scan", "android": "https://dc.lft.to/lastmile_qr_scan"}, "fusion_lat": 0.0, "name": "c2291194ff04da5daf264c194406d263", "bike_id": "c2291194ff04da5daf264c194406d263", "is_disabled": 0, "type": "electric_scooter", "lat": 38.88718683333333, "lon": -77.02178716666667, "is_reserved": 0, "fusion_lon": 0.0}, {"rental_uris": {"ios": "https://dc.lft.to/lastmile_qr_scan", "android": "https://dc.lft.to/lastmile_qr_scan"}, "fusion_lat": 0.0, "name": "a21df30557d4c1ec074d8328d4e00531", "bike_id": "a21df30557d4c1ec074d8328d4e00531", "is_disabled": 0, "type": "electric_scooter", "lat": 38.89610583333334, "lon": -77.0446895, "is_reserved": 0, "fusion_lon": 0.0}, {"rental_uris": {"ios": "https://dc.lft.to/lastmile_qr_scan", "android": "https://dc.lft.to/lastmile_qr_scan"}, "fusion_lat": 0.0, "name": "c145ce98509f0af6cba0d9c1780f7de2", "bike_id": "c145ce98509f0af6cba0d9c1780f7de2", "is_disabled": 0, "type": "electric_bike", "lat": 38.8151045, "lon": -77.12652866666667, "is_reserved": 0, "fusion_lon": 0.0}, {"rental_uris": {"ios": "https://dc.lft.to/lastmile_qr_scan", "android": "https://dc.lft.to/lastmile_qr_scan"}, "fusion_lat": 0.0, "name": "a7720a7c85dbda6570f8b0943797f33e", "bike_id": "a7720a7c85dbda6570f8b0943797f33e", "is_disabled": 0, "type": "electric_scooter", "lat": 38.920991, "lon": -77.04695683333334, "is_reserved": 0, "fusion_lon": 0.0}, {"rental_uris": {"ios": "https://dc.lft.to/lastmile_qr_scan", "android": "https://dc.lft.to/lastmile_qr_scan"}, "fusion_lat": 0.0, "name": "ad5183fe78539ae11ea166cff31232a0", "bike_id": "ad5183fe78539ae11ea166cff31232a0", "is_disabled": 0, "type": "electric_bike", "lat": 38.831611333333335, "lon": -77.11321983333333, "is_reserved": 0, "fusion_lon": 0.0}, {"rental_uris": {"ios": "https://dc.lft.to/lastmile_qr_scan", "android": "https://dc.lft.to/lastmile_qr_scan"}, "fusion_lat": 0.0, "name": "5341bc0de20f985bba5c324af22229f8", "bike_id": "5341bc0de20f985bba5c324af22229f8", "is_disabled": 0, "type": "electric_scooter", "lat": 38.908297833333336, "lon": -77.043387, "is_reserved": 0, "fusion_lon": 0.0}, {"rental_uris": {"ios": "https://dc.lft.to/lastmile_qr_scan", "android": "https://dc.lft.to/lastmile_qr_scan"}, "fusion_lat": 0.0, "name": "807b30835590f6bb834804329eeb58bf", "bike_id": "807b30835590f6bb834804329eeb58bf", "is_disabled": 0, "type": "electric_scooter", "lat": 38.89939716666667, "lon": -77.04033366666667, "is_reserved": 0, "fusion_lon": 0.0}, {"rental_uris": {"ios": "https://dc.lft.to/lastmile_qr_scan", "android": "https://dc.lft.to/lastmile_qr_scan"}, "fusion_lat": 0.0, "name": "5bd562ac0bef6bd85842d2b0146aec9f", "bike_id": "5bd562ac0bef6bd85842d2b0146aec9f", "is_disabled": 0, "type": "electric_scooter", "lat": 38.86686316666667, "lon": -76.9854515, "is_reserved": 0, "fusion_lon": 0.0}, {"rental_uris": {"ios": "https://dc.lft.to/lastmile_qr_scan", "android": "https://dc.lft.to/lastmile_qr_scan"}, "fusion_lat": 0.0, "name": "8d45e5d78f6c26e02dc95c44a3137d3b", "bike_id": "8d45e5d78f6c26e02dc95c44a3137d3b", "is_disabled": 0, "type": "electric_scooter", "lat": 38.90276083333333, "lon": -77.03477466666666, "is_reserved": 0, "fusion_lon": 0.0}, {"rental_uris": {"ios": "https://dc.lft.to/lastmile_qr_scan", "android": "https://dc.lft.to/lastmile_qr_scan"}, "fusion_lat": 0.0, "name": "7320c7b09419720cf1face9100bf7755", "bike_id": "7320c7b09419720cf1face9100bf7755", "is_disabled": 0, "type": "electric_scooter", "lat": 38.90830233333333, "lon": -76.99703533333333, "is_reserved": 0, "fusion_lon": 0.0}, {"rental_uris": {"ios": "https://dc.lft.to/lastmile_qr_scan", "android": "https://dc.lft.to/lastmile_qr_scan"}, "fusion_lat": 0.0, "name": "a1e4176c58c47d288816c4311d02d783", "bike_id": "a1e4176c58c47d288816c4311d02d783", "is_disabled": 0, "type": "electric_scooter", "lat": 38.92417583333334, "lon": -77.01952916666667, "is_reserved": 0, "fusion_lon": 0.0}, {"rental_uris": {"ios": "https://dc.lft.to/lastmile_qr_scan", "android": "https://dc.lft.to/lastmile_qr_scan"}, "fusion_lat": 0.0, "name": "5ed40e042f36c2ac2568fc37d9c25a67", "bike_id": "5ed40e042f36c2ac2568fc37d9c25a67", "is_disabled": 0, "type": "electric_scooter", "lat": 38.892207, "lon": -77.02328616666667, "is_reserved": 0, "fusion_lon": 0.0}, {"rental_uris": {"ios": "https://dc.lft.to/lastmile_qr_scan", "android": "https://dc.lft.to/lastmile_qr_scan"}, "fusion_lat": 0.0, "name": "64dd4a99d1ad3c7512e56f38c8a9730b", "bike_id": "64dd4a99d1ad3c7512e56f38c8a9730b", "is_disabled": 0, "type": "electric_scooter", "lat": 38.91474083333333, "lon": -77.03208866666667, "is_reserved": 0, "fusion_lon": 0.0}, {"rental_uris": {"ios": "https://dc.lft.to/lastmile_qr_scan", "android": "https://dc.lft.to/lastmile_qr_scan"}, "fusion_lat": 0.0, "name": "ff63b13c75f05627c753e91e7b1dac7f", "bike_id": "ff63b13c75f05627c753e91e7b1dac7f", "is_disabled": 0, "type": "electric_scooter", "lat": 38.8922035, "lon": -77.04870316666667, "is_reserved": 0, "fusion_lon": 0.0}, {"rental_uris": {"ios": "https://dc.lft.to/lastmile_qr_scan", "android": "https://dc.lft.to/lastmile_qr_scan"}, "fusion_lat": 0.0, "name": "e9a3d6b3baced606eec8fe59a21f2684", "bike_id": "e9a3d6b3baced606eec8fe59a21f2684", "is_disabled": 0, "type": "electric_bike", "lat": 39.05633533333334, "lon": -77.12530016666666, "is_reserved": 0, "fusion_lon": 0.0}, {"rental_uris": {"ios": "https://dc.lft.to/lastmile_qr_scan", "android": "https://dc.lft.to/lastmile_qr_scan"}, "fusion_lat": 0.0, "name": "bd5ad9f7a29c095416bbdbaf58d13adf", "bike_id": "bd5ad9f7a29c095416bbdbaf58d13adf", "is_disabled": 0, "type": "electric_scooter", "lat": 38.88736883333333, "lon": -77.01536833333333, "is_reserved": 0, "fusion_lon": 0.0}, {"rental_uris": {"ios": "https://dc.lft.to/lastmile_qr_scan", "android": "https://dc.lft.to/lastmile_qr_scan"}, "fusion_lat": 0.0, "name": "6e1ffb889d5b92e056b3a2ee27f248da", "bike_id": "6e1ffb889d5b92e056b3a2ee27f248da", "is_disabled": 0, "type": "electric_scooter", "lat": 38.892207666666664, "lon": -77.04689966666666, "is_reserved": 0, "fusion_lon": 0.0}, {"rental_uris": {"ios": "https://dc.lft.to/lastmile_qr_scan", "android": "https://dc.lft.to/lastmile_qr_scan"}, "fusion_lat": 0.0, "name": "16d7a821cdedbd9d02fe7374a0222fb8", "bike_id": "16d7a821cdedbd9d02fe7374a0222fb8", "is_disabled": 0, "type": "electric_scooter", "lat": 38.917125666666664, "lon": -77.03194466666666, "is_reserved": 0, "fusion_lon": 0.0}, {"rental_uris": {"ios": "https://dc.lft.to/lastmile_qr_scan", "android": "https://dc.lft.to/lastmile_qr_scan"}, "fusion_lat": 0.0, "name": "2ca76f1c3472f7bdc450cbefc64df0ea", "bike_id": "2ca76f1c3472f7bdc450cbefc64df0ea", "is_disabled": 0, "type": "electric_scooter", "lat": 38.89845116666667, "lon": -76.94638366666666, "is_reserved": 0, "fusion_lon": 0.0}, {"rental_uris": {"ios": "https://dc.lft.to/lastmile_qr_scan", "android": "https://dc.lft.to/lastmile_qr_scan"}, "fusion_lat": 0.0, "name": "3a3c471949dc57b43d2519e6ad70ffb3", "bike_id": "3a3c471949dc57b43d2519e6ad70ffb3", "is_disabled": 0, "type": "electric_scooter", "lat": 38.90285733333333, "lon": -77.043865, "is_reserved": 0, "fusion_lon": 0.0}, {"rental_uris": {"ios": "https://dc.lft.to/lastmile_qr_scan", "android": "https://dc.lft.to/lastmile_qr_scan"}, "fusion_lat": 0.0, "name": "626ccd05b4d5f42f9e08e03312372917", "bike_id": "626ccd05b4d5f42f9e08e03312372917", "is_disabled": 0, "type": "electric_scooter", "lat": 38.9193205, "lon": -77.04556416666667, "is_reserved": 0, "fusion_lon": 0.0}, {"rental_uris": {"ios": "https://dc.lft.to/lastmile_qr_scan", "android": "https://dc.lft.to/lastmile_qr_scan"}, "fusion_lat": 0.0, "name": "0814f8ca0c2e938744a90bbe24105897", "bike_id": "0814f8ca0c2e938744a90bbe24105897", "is_disabled": 0, "type": "electric_scooter", "lat": 38.89903416666667, "lon": -76.99508183333333, "is_reserved": 0, "fusion_lon": 0.0}, {"rental_uris": {"ios": "https://dc.lft.to/lastmile_qr_scan", "android": "https://dc.lft.to/lastmile_qr_scan"}, "fusion_lat": 0.0, "name": "8a271b21317d2c368bc4c44bac4b63d9", "bike_id": "8a271b21317d2c368bc4c44bac4b63d9", "is_disabled": 0, "type": "electric_scooter", "lat": 38.907926, "lon": -76.9972985, "is_reserved": 0, "fusion_lon": 0.0}, {"rental_uris": {"ios": "https://dc.lft.to/lastmile_qr_scan", "android": "https://dc.lft.to/lastmile_qr_scan"},