{"data": {"bikes": [{"bike_id": "2a3556020db1a3c9dac3e62e9ea9495b", "is_reserved": 0, "fusion_lon": 0.0, "lat": 38.884887666666664, "is_disabled": 0, "name": "2a3556020db1a3c9dac3e62e9ea9495b", "fusion_lat": 0.0, "rental_uris": {"ios": "https://dc.lft.to/lastmile_qr_scan", "android": "https://dc.lft.to/lastmile_qr_scan"}, "lon": -77.03474883333334, "type": "electric_scooter"}, {"bike_id": "f1f81982d4d88a9605381331beb8cfe7", "is_reserved": 0, "fusion_lon": 0.0, "lat": 38.90459, "is_disabled": 0, "name": "f1f81982d4d88a9605381331beb8cfe7", "fusion_lat": 0.0, "rental_uris": {"ios": "https://dc.lft.to/lastmile_qr_scan", "android": "https://dc.lft.to/lastmile_qr_scan"}, "lon": -77.05334183333333, "type": "electric_scooter"}, {"bike_id": "4ff9f079f59cfeb7c6c693a9bf668456", "is_reserved": 0, "fusion_lon": 0.0, "lat": 38.910331, "is_disabled": 0, "name": "4ff9f079f59cfeb7c6c693a9bf668456", "fusion_lat": 0.0, "rental_uris": {"ios": "https://dc.lft.to/lastmile_qr_scan", "android": "https://dc.lft.to/lastmile_qr_scan"}, "lon": -77.04389433333333, "type": "electric_scooter"}, {"bike_id": "571e77982f78f5d330792af6e5638c77", "is_reserved": 0, "fusion_lon": 0.0, "lat": 38.90034983333334, "is_disabled": 0, "name": "571e77982f78f5d330792af6e5638c77", "fusion_lat": 0.0, "rental_uris": {"ios": "https://dc.lft.to/lastmile_qr_scan", "android": "https://dc.lft.to/lastmile_qr_scan"}, "lon": -77.005355, "type": "electric_scooter"}, {"bike_id": "31d2bf86c4e0dc847c007d7f77d13067", "is_reserved": 0, "fusion_lon": 0.0, "lat": 38.90972283333333, "is_disabled": 0, "name": "31d2bf86c4e0dc847c007d7f77d13067", "fusion_lat": 0.0, "rental_uris": {"ios": "https://dc.lft.to/lastmile_qr_scan", "android": "https://dc.lft.to/lastmile_qr_scan"}, "lon": -77.04877066666667, "type": "electric_scooter"}, {"bike_id": "bc2881cee26efecb44de0ed2741036cd", "is_reserved": 0, "fusion_lon": 0.0, "lat": 38.884298666666666, "is_disabled": 0, "name": "bc2881cee26efecb44de0ed2741036cd", "fusion_lat": 0.0, "rental_uris": {"ios": "https://dc.lft.to/lastmile_qr_scan", "android": "https://dc.lft.to/lastmile_qr_scan"}, "lon": -76.95757283333333, "type": "electric_scooter"}, {"bike_id": "3e119557973eee5e0db4c3c75f71e584", "is_reserved": 0, "fusion_lon": 0.0, "lat": 38.93147283333333, "is_disabled": 0, "name": "3e119557973eee5e0db4c3c75f71e584", "fusion_lat": 0.0, "rental_uris": {"ios": "https://dc.lft.to/lastmile_qr_scan", "android": "https://dc.lft.to/lastmile_qr_scan"}, "lon": -77.057093, "type": "electric_scooter"}, {"bike_id": "1eb59524fb5f02a54be104093faacc82", "is_reserved": 0, "fusion_lon": 0.0, "lat": 38.912146, "is_disabled": 0, "name": "1eb59524fb5f02a54be104093faacc82", "fusion_lat": 0.0, "rental_uris": {"ios": "https://dc.lft.to/lastmile_qr_scan", "android": "https://dc.lft.to/lastmile_qr_scan"}, "lon": -77.0280175, "type": "electric_scooter"}, {"bike_id": "04cf4687003c3c7a399566fbdb9ebedc", "is_reserved": 0, "fusion_lon": 0.0, "lat": 38.89831983333333, "is_disabled": 0, "name": "04cf4687003c3c7a399566fbdb9ebedc", "fusion_lat": 0.0, "rental_uris": {"ios": "https://dc.lft.to/lastmile_qr_scan", "android": "https://dc.lft.to/lastmile_qr_scan"}, "lon": -76.94638033333334, "type": "electric_scooter"}, {"bike_id": "01b3b9c2cf8e9fbd3a68566cd778399b", "is_reserved": 0, "fusion_lon": 0.0, "lat": 38.917728833333335, "is_disabled": 0, "name": "01b3b9c2cf8e9fbd3a68566cd778399b", "fusion_lat": 0.0, "rental_uris": {"ios": "https://dc.lft.to/lastmile_qr_scan", "android": "https://dc.lft.to/lastmile_qr_scan"}, "lon": -77.01498383333333, "type": "electric_scooter"}, {"bike_id": "7603e572228f4d7a745319377e6c220b", "is_reserved": 0, "fusion_lon": 0.0, "lat": 38.899156, "is_disabled": 0, "name": "7603e572228f4d7a745319377e6c220b", "fusion_lat": 0.0, "rental_uris": {"ios": "https://dc.lft.to/lastmile_qr_scan", "android": "https://dc.lft.to/lastmile_qr_scan"}, "lon": -77.03923183333333, "type": "electric_scooter"}, {"bike_id": "6df848bcc7442b0a5b3c4b78a11f1bee", "is_reserved": 0, "fusion_lon": 0.0, "lat": 38.866629, "is_disabled": 0, "name": "6df848bcc7442b0a5b3c4b78a11f1bee", "fusion_lat": 0.0, "rental_uris": {"ios": "https://dc.lft.to/lastmile_qr_scan", "android": "https://dc.lft.to/lastmile_qr_scan"}, "lon": -76.98904433333334, "type": "electric_scooter"}, {"bike_id": "660b0ec6916f05ca519172807553e928", "is_reserved": 0, "fusion_lon": 0.0, "lat": 38.93112516666667, "is_disabled": 0, "name": "660b0ec6916f05ca519172807553e928", "fusion_lat": 0.0, "rental_uris": {"ios": "https://dc.lft.to/lastmile_qr_scan", "android": "https://dc.lft.to/lastmile_qr_scan"}, "lon": -77.02137133333333, "type": "electric_scooter"}, {"bike_id": "57286e4996ae5adbf7d4075997ad2f04", "is_reserved": 0, "fusion_lon": 0.0, "lat": 38.91880466666667, "is_disabled": 0, "name": "57286e4996ae5adbf7d4075997ad2f04", "fusion_lat": 0.0, "rental_uris": {"ios": "https://dc.lft.to/lastmile_qr_scan", "android": "https://dc.lft.to/lastmile_qr_scan"}, "lon": -77.0445365, "type": "electric_scooter"}, {"bike_id": "76045b9815b26ac59e1f5bab0274a448", "is_reserved": 0, "fusion_lon": 0.0, "lat": 38.964932166666664, "is_disabled": 0, "name": "76045b9815b26ac59e1f5bab0274a448", "fusion_lat": 0.0, "rental_uris": {"ios": "https://dc.lft.to/lastmile_qr_scan", "android": "https://dc.lft.to/lastmile_qr_scan"}, "lon": -77.06488733333333, "type": "electric_bike"}, {"bike_id": "8d0820a044f1d9300694477eed178661", "is_reserved": 0, "fusion_lon": 0.0, "lat": 38.890620166666665, "is_disabled": 0, "name": "8d0820a044f1d9300694477eed178661", "fusion_lat": 0.0, "rental_uris": {"ios": "https://dc.lft.to/lastmile_qr_scan", "android": "https://dc.lft.to/lastmile_qr_scan"}, "lon": -77.02304216666667, "type": "electric_scooter"}, {"bike_id": "73ed6db99f0573fe841f78ea8605f333", "is_reserved": 0, "fusion_lon": 0.0, "lat": 38.923137, "is_disabled": 0, "name": "73ed6db99f0573fe841f78ea8605f333", "fusion_lat": 0.0, "rental_uris": {"ios": "https://dc.lft.to/lastmile_qr_scan", "android": "https://dc.lft.to/lastmile_qr_scan"}, "lon": -77.03657683333333, "type": "electric_scooter"}, {"bike_id": "099f5707a0249f83c0e5a49feee268a0", "is_reserved": 0, "fusion_lon": 0.0, "lat": 38.911688166666664, "is_disabled": 0, "name": "099f5707a0249f83c0e5a49feee268a0", "fusion_lat": 0.0, "rental_uris": {"ios": "https://dc.lft.to/lastmile_qr_scan", "android": "https://dc.lft.to/lastmile_qr_scan"}, "lon": -76.9864285, "type": "electric_scooter"}, {"bike_id": "fe297ccad8b1fe2fbc32178247bc2eb0", "is_reserved": 0, "fusion_lon": 0.0, "lat": 38.899567833333336, "is_disabled": 0, "name": "fe297ccad8b1fe2fbc32178247bc2eb0", "fusion_lat": 0.0, "rental_uris": {"ios": "https://dc.lft.to/lastmile_qr_scan", "android": "https://dc.lft.to/lastmile_qr_scan"}, "lon": -77.05274283333334, "type": "electric_scooter"}, {"bike_id": "5e90ad6e651fa7fdc62da56d8a69e71f", "is_reserved": 0, "fusion_lon": 0.0, "lat": 38.92271616666667, "is_disabled": 0, "name": "5e90ad6e651fa7fdc62da56d8a69e71f", "fusion_lat": 0.0, "rental_uris": {"ios": "https://dc.lft.to/lastmile_qr_scan", "android": "https://dc.lft.to/lastmile_qr_scan"}, "lon": -77.018238, "type": "electric_scooter"}, {"bike_id": "f464685db3a5ce90694e715a1754fae4", "is_reserved": 0, "fusion_lon": 0.0, "lat": 38.901256333333336, "is_disabled": 0, "name": "f464685db3a5ce90694e715a1754fae4", "fusion_lat": 0.0, "rental_uris": {"ios": "https://dc.lft.to/lastmile_qr_scan", "android": "https://dc.lft.to/lastmile_qr_scan"}, "lon": -76.99708433333333, "type": "electric_scooter"}, {"bike_id": "6f67f0c9dc011b2f3e86c28bc9f82e31", "is_reserved": 0, "fusion_lon": 0.0, "lat": 38.9271215, "is_disabled": 0, "name": "6f67f0c9dc011b2f3e86c28bc9f82e31", "fusion_lat": 0.0, "rental_uris": {"ios": "https://dc.lft.to/lastmile_qr_scan", "android": "https://dc.lft.to/lastmile_qr_scan"}, "lon": -77.04049166666667, "type": "electric_scooter"}, {"bike_id": "350dc843495fd568bc762e2eea24e9d2", "is_reserved": 0, "fusion_lon": 0.0, "lat": 38.8921895, "is_disabled": 0, "name": "350dc843495fd568bc762e2eea24e9d2", "fusion_lat": 0.0, "rental_uris": {"ios": "https://dc.lft.to/lastmile_qr_scan", "android": "https://dc.lft.to/lastmile_qr_scan"}, "lon": -77.10781233333333, "type": "electric_bike"}, {"bike_id": "a1e72529d72f45b9f7ed4c33131e4275", "is_reserved": 0, "fusion_lon": 0.0, "lat": 38.902685, "is_disabled": 0, "name": "a1e72529d72f45b9f7ed4c33131e4275", "fusion_lat": 0.0, "rental_uris": {"ios": "https://dc.lft.to/lastmile_qr_scan", "android": "https://dc.lft.to/lastmile_qr_scan"}, "lon": -77.053194, "type": "electric_scooter"}, {"bike_id": "3261f7a2864c76fab15ba2d75e5c31b8", "is_reserved": 0, "fusion_lon": 0.0, "lat": 38.912617166666664, "is_disabled": 0, "name": "3261f7a2864c76fab15ba2d75e5c31b8", "fusion_lat": 0.0, "rental_uris": {"ios": "https://dc.lft.to/lastmile_qr_scan", "android": "https://dc.lft.to/lastmile_qr_scan"}, "lon": -77.036254, "type": "electric_scooter"}, {"bike_id": "d01c78bd1913d5a0fa637cd5a9218b83", "is_reserved": 0, "fusion_lon": 0.0, "lat": 38.89623983333333, "is_disabled": 0, "name": "d01c78bd1913d5a0fa637cd5a9218b83", "fusion_lat": 0.0, "rental_uris": {"ios": "https://dc.lft.to/lastmile_qr_scan", "android": "https://dc.lft.to/lastmile_qr_scan"}, "lon": -77.048047, "type": "electric_scooter"}, {"bike_id": "158bdeace875aace49e7014462b6dc52", "is_reserved": 0, "fusion_lon": 0.0, "lat": 38.932957, "is_disabled": 0, "name": "158bdeace875aace49e7014462b6dc52", "fusion_lat": 0.0, "rental_uris": {"ios": "https://dc.lft.to/lastmile_qr_scan", "android": "https://dc.lft.to/lastmile_qr_scan"}, "lon": -77.028488, "type": "electric_scooter"}, {"bike_id": "fb8d9d36f2f41e7e21f45ca7a5403adc", "is_reserved": 0, "fusion_lon": 0.0, "lat": 38.90906733333333, "is_disabled": 0, "name": "fb8d9d36f2f41e7e21f45ca7a5403adc", "fusion_lat": 0.0, "rental_uris": {"ios": "https://dc.lft.to/lastmile_qr_scan", "android": "https://dc.lft.to/lastmile_qr_scan"}, "lon": -77.041583, "type": "electric_scooter"}, {"bike_id": "43f159bfb67224c9839ea2b57dbb24bf", "is_reserved": 0, "fusion_lon": 0.0, "lat": 38.93241916666667, "is_disabled": 0, "name": "43f159bfb67224c9839ea2b57dbb24bf", "fusion_lat": 0.0, "rental_uris": {"ios": "https://dc.lft.to/lastmile_qr_scan", "android": "https://dc.lft.to/lastmile_qr_scan"}, "lon": -77.03897533333334, "type": "electric_scooter"}, {"bike_id": "8bf72780b0814a17ddbc85dd8cb1335b", "is_reserved": 0, "fusion_lon": 0.0, "lat": 38.93391716666667, "is_disabled": 0, "name": "8bf72780b0814a17ddbc85dd8cb1335b", "fusion_lat": 0.0, "rental_uris": {"ios": "https://dc.lft.to/lastmile_qr_scan", "android": "https://dc.lft.to/lastmile_qr_scan"}, "lon": -77.035816, "type": "electric_scooter"}, {"bike_id": "0ca8bf3df90f72b2acce3f8fd22c0f3e", "is_reserved": 0, "fusion_lon": 0.0, "lat": 38.90855666666667, "is_disabled": 0, "name": "0ca8bf3df90f72b2acce3f8fd22c0f3e", "fusion_lat": 0.0, "rental_uris": {"ios": "https://dc.lft.to/lastmile_qr_scan", "android": "https://dc.lft.to/lastmile_qr_scan"}, "lon": -77.02727383333334, "type": "electric_scooter"}, {"bike_id": "cf4ee7dd621193717d5f6295a673c536", "is_reserved": 0, "fusion_lon": 0.0, "lat": 38.906980833333336, "is_disabled": 0, "name": "cf4ee7dd621193717d5f6295a673c536", "fusion_lat": 0.0, "rental_uris": {"ios": "https://dc.lft.to/lastmile_qr_scan", "android": "https://dc.lft.to/lastmile_qr_scan"}, "lon": -77.04491, "type": "electric_scooter"}, {"bike_id": "3a61ed993ae3aeccddf85492ed340058", "is_reserved": 0, "fusion_lon": 0.0, "lat": 38.9050055, "is_disabled": 0, "name": "3a61ed993ae3aeccddf85492ed340058", "fusion_lat": 0.0, "rental_uris": {"ios": "https://dc.lft.to/lastmile_qr_scan", "android": "https://dc.lft.to/lastmile_qr_scan"}, "lon": -77.06750433333333, "type": "electric_scooter"}, {"bike_id": "3b5aa706ba474158f4d49cec38e9ada3", "is_reserved": 0, "fusion_lon": 0.0, "lat": 38.9091465, "is_disabled": 0, "name": "3b5aa706ba474158f4d49cec38e9ada3", "fusion_lat": 0.0, "rental_uris": {"ios": "https://dc.lft.to/lastmile_qr_scan", "android": "https://dc.lft.to/lastmile_qr_scan"}, "lon": -77.00918916666667, "type": "electric_scooter"}, {"bike_id": "b9f804b53a0085aa7ca73ded7552de7f", "is_reserved": 0, "fusion_lon": 0.0, "lat": 38.8922685, "is_disabled": 0, "name": "b9f804b53a0085aa7ca73ded7552de7f", "fusion_lat": 0.0, "rental_uris": {"ios": "https://dc.lft.to/lastmile_qr_scan", "android": "https://dc.lft.to/lastmile_qr_scan"}, "lon": -77.022065, "type": "electric_scooter"}, {"bike_id": "7f8d0207ec6541377dee6547fa2d659c", "is_reserved": 0, "fusion_lon": 0.0, "lat": 38.92030966666667, "is_disabled": 0, "name": "7f8d0207ec6541377dee6547fa2d659c", "fusion_lat": 0.0, "rental_uris": {"ios": "https://dc.lft.to/lastmile_qr_scan", "android": "https://dc.lft.to/lastmile_qr_scan"}, "lon": -77.0279355, "type": "electric_scooter"}, {"bike_id": "d3417a283135bd12d77fd3e5e8b04e14", "is_reserved": 0, "fusion_lon": 0.0, "lat": 38.916446, "is_disabled": 0, "name": "d3417a283135bd12d77fd3e5e8b04e14", "fusion_lat": 0.0, "rental_uris": {"ios": "https://dc.lft.to/lastmile_qr_scan", "android": "https://dc.lft.to/lastmile_qr_scan"}, "lon": -77.0319625, "type": "electric_scooter"}, {"bike_id": "ac7508d20ae9137149c6667dbdbf03e8", "is_reserved": 0, "fusion_lon": 0.0, "lat": 38.91124083333333, "is_disabled": 0, "name": "ac7508d20ae9137149c6667dbdbf03e8", "fusion_lat": 0.0, "rental_uris": {"ios": "https://dc.lft.to/lastmile_qr_scan", "android": "https://dc.lft.to/lastmile_qr_scan"}, "lon": -77.0218795, "type": "electric_scooter"}, {"bike_id": "52e75400a328bccd8ac9787ee4f93a33", "is_reserved": 0, "fusion_lon": 0.0, "lat": 38.88723383333333, "is_disabled": 0, "name": "52e75400a328bccd8ac9787ee4f93a33", "fusion_lat": 0.0, "rental_uris": {"ios": "https://dc.lft.to/lastmile_qr_scan", "android": "https://dc.lft.to/lastmile_qr_scan"}, "lon": -77.025814, "type": "electric_scooter"}, {"bike_id": "edee71e46b9653b50fb9460b28f08acb", "is_reserved": 0, "fusion_lon": 0.0, "lat": 38.86371283333333, "is_disabled": 0, "name": "edee71e46b9653b50fb9460b28f08acb", "fusion_lat": 0.0, "rental_uris": {"ios": "https://dc.lft.to/lastmile_qr_scan", "android": "https://dc.lft.to/lastmile_qr_scan"}, "lon": -76.99058783333334, "type": "electric_scooter"}, {"bike_id": "98453b4e3b846406d06ef4b238c2d611", "is_reserved": 0, "fusion_lon": 0.0, "lat": 38.85290333333333, "is_disabled": 0, "name": "98453b4e3b846406d06ef4b238c2d611", "fusion_lat": 0.0, "rental_uris": {"ios": "https://dc.lft.to/lastmile_qr_scan", "android": "https://dc.lft.to/lastmile_qr_scan"}, "lon": -77.05278916666667, "type": "electric_bike"}, {"bike_id": "8270067587f9415b53327eb4b071f017", "is_reserved": 0, "fusion_lon": 0.0, "lat": 38.924792333333336, "is_disabled": 0, "name": "8270067587f9415b53327eb4b071f017", "fusion_lat": 0.0, "rental_uris": {"ios": "https://dc.lft.to/lastmile_qr_scan", "android": "https://dc.lft.to/lastmile_qr_scan"}, "lon": -77.0521295, "type": "electric_scooter"}, {"bike_id": "e205ada39761b5d9325e4005752b86b6", "is_reserved": 0, "fusion_lon": 0.0, "lat": 38.905708, "is_disabled": 0, "name": "e205ada39761b5d9325e4005752b86b6", "fusion_lat": 0.0, "rental_uris": {"ios": "https://dc.lft.to/lastmile_qr_scan", "android": "https://dc.lft.to/lastmile_qr_scan"}, "lon": -77.03067833333333, "type": "electric_scooter"}, {"bike_id": "06a9c63f7c68e870e3443f5f41dcd959", "is_reserved": 0, "fusion_lon": 0.0, "lat": 38.86526333333333, "is_disabled": 0, "name": "06a9c63f7c68e870e3443f5f41dcd959", "fusion_lat": 0.0, "rental_uris": {"ios": "https://dc.lft.to/lastmile_qr_scan", "android": "https://dc.lft.to/lastmile_qr_scan"}, "lon": -76.99020616666667, "type": "electric_scooter"}, {"bike_id": "85642484e421e70b2995028437cbc5c3", "is_reserved": 0, "fusion_lon": 0.0, "lat": 38.914508833333336, "is_disabled": 0, "name": "85642484e421e70b2995028437cbc5c3", "fusion_lat": 0.0, "rental_uris": {"ios": "https://dc.lft.to/lastmile_qr_scan", "android": "https://dc.lft.to/lastmile_qr_scan"}, "lon": -77.02186966666666, "type": "electric_scooter"}, {"bike_id": "69071c7f3ed6e994bc91c75152a74160", "is_reserved": 0, "fusion_lon": 0.0, "lat": 38.920882, "is_disabled": 0, "name": "69071c7f3ed6e994bc91c75152a74160", "fusion_lat": 0.0, "rental_uris": {"ios": "https://dc.lft.to/lastmile_qr_scan", "android": "https://dc.lft.to/lastmile_qr_scan"}, "lon": -77.024154, "type": "electric_scooter"}, {"bike_id": "263f33842c6d51c258c14b27b213ea99", "is_reserved": 0, "fusion_lon": 0.0, "lat": 38.89850283333333, "is_disabled": 0, "name": "263f33842c6d51c258c14b27b213ea99", "fusion_lat": 0.0, "rental_uris": {"ios": "https://dc.lft.to/lastmile_qr_scan", "android": "https://dc.lft.to/lastmile_qr_scan"}, "lon": -76.990426, "type": "electric_scooter"}, {"bike_id": "36998792de2b1272d9e504e9c845a029", "is_reserved": 0, "fusion_lon": 0.0, "lat": 38.91122716666667, "is_disabled": 0, "name": "36998792de2b1272d9e504e9c845a029", "fusion_lat": 0.0, "rental_uris": {"ios": "https://dc.lft.to/lastmile_qr_scan", "android": "https://dc.lft.to/lastmile_qr_scan"}, "lon": -77.03841333333334, "type": "electric_scooter"}, {"bike_id": "1b64e0e356de5fe8d5ef1c75300e3902", "is_reserved": 0, "fusion_lon": 0.0, "lat": 38.901066166666666, "is_disabled": 0, "name": "1b64e0e356de5fe8d5ef1c75300e3902", "fusion_lat": 0.0, "rental_uris": {"ios": "https://dc.lft.to/lastmile_qr_scan", "android": "https://dc.lft.to/lastmile_qr_scan"}, "lon": -77.03161783333333, "type": "electric_scooter"}, {"bike_id": "a530d92487dc6f0ea17f513be456726a", "is_reserved": 0, "fusion_lon": 0.0, "lat": 38.871421166666664, "is_disabled": 0, "name": "a530d92487dc6f0ea17f513be456726a", "fusion_lat": 0.0, "rental_uris": {"ios": "https://dc.lft.to/lastmile_qr_scan", "android": "https://dc.lft.to/lastmile_qr_scan"}, "lon": -76.97744900000001, "type": "electric_scooter"}, {"bike_id": "7f28576818dc1d28437ad4676388ca1f", "is_reserved": 0, "fusion_lon": 0.0, "lat": 38.8587665, "is_disabled": 0, "name": "7f28576818dc1d28437ad4676388ca1f", "fusion_lat": 0.0, "rental_uris": {"ios": "https://dc.lft.to/lastmile_qr_scan", "android": "https://dc.lft.to/lastmile_qr_scan"}, "lon": -77.09558333333334, "type": "electric_bike"}, {"bike_id": "decf955deb9eb8ab3559fa770003ada0", "is_reserved": 0, "fusion_lon": 0.0, "lat": 38.80707733333333, "is_disabled": 0, "name": "decf955deb9eb8ab3559fa770003ada0", "fusion_lat": 0.0, "rental_uris": {"ios": "https://dc.lft.to/lastmile_qr_scan", "android": "https://dc.lft.to/lastmile_qr_scan"}, "lon": -77.06172383333333, "type": "electric_bike"}, {"bike_id": "4f8929fc0d525e7598825394727d7953", "is_reserved": 0, "fusion_lon": 0.0, "lat": 38.94169616666667, "is_disabled": 0, "name": "4f8929fc0d525e7598825394727d7953", "fusion_lat": 0.0, "rental_uris": {"ios": "https://dc.lft.to/lastmile_qr_scan", "android": "https://dc.lft.to/lastmile_qr_scan"}, "lon": -77.04131733333334, "type": "electric_scooter"}, {"bike_id": "ca7dae5dc29f9321de4926239bd36933", "is_reserved": 0, "fusion_lon": 0.0, "lat": 38.91685666666667, "is_disabled": 0, "name": "ca7dae5dc29f9321de4926239bd36933", "fusion_lat": 0.0, "rental_uris": {"ios": "https://dc.lft.to/lastmile_qr_scan", "android": "https://dc.lft.to/lastmile_qr_scan"}, "lon": -77.01213333333334, "type": "electric_scooter"}, {"bike_id": "c4f8800cb43b80ee2321909f0c12a295", "is_reserved": 0, "fusion_lon": 0.0, "lat": 38.928955, "is_disabled": 0, "name": "c4f8800cb43b80ee2321909f0c12a295", "fusion_lat": 0.0, "rental_uris": {"ios": "https://dc.lft.to/lastmile_qr_scan", "android": "https://dc.lft.to/lastmile_qr_scan"}, "lon": -77.05456183333334, "type": "electric_scooter"}, {"bike_id": "3b0af15816d73d6a2407d2c4daebf52f", "is_reserved": 0, "fusion_lon": 0.0, "lat": 38.957304, "is_disabled": 0, "name": "3b0af15816d73d6a2407d2c4daebf52f", "fusion_lat": 0.0, "rental_uris": {"ios": "https://dc.lft.to/lastmile_qr_scan", "android": "https://dc.lft.to/lastmile_qr_scan"}, "lon": -76.9801565, "type": "electric_bike"}, {"bike_id": "d81af4074dfe10befe719d5c36683ad3", "is_reserved": 0, "fusion_lon": 0.0, "lat": 38.903936, "is_disabled": 0, "name": "d81af4074dfe10befe719d5c36683ad3", "fusion_lat": 0.0, "rental_uris": {"ios": "https://dc.lft.to/lastmile_qr_scan", "android": "https://dc.lft.to/lastmile_qr_scan"}, "lon": -77.011043, "type": "electric_scooter"}, {"bike_id": "393c0fdbbbf29cfac402192bba27816a", "is_reserved": 0, "fusion_lon": 0.0, "lat": 38.8987825, "is_disabled": 0, "name": "393c0fdbbbf29cfac402192bba27816a", "fusion_lat": 0.0, "rental_uris": {"ios": "https://dc.lft.to/lastmile_qr_scan", "android": "https://dc.lft.to/lastmile_qr_scan"}, "lon": -76.93160683333333, "type": "electric_scooter"}, {"bike_id": "3b8f7779758234f0c7949baacaaa846b", "is_reserved": 0, "fusion_lon": 0.0, "lat": 38.92144066666667, "is_disabled": 0, "name": "3b8f7779758234f0c7949baacaaa846b", "fusion_lat": 0.0, "rental_uris": {"ios": "https://dc.lft.to/lastmile_qr_scan", "android": "https://dc.lft.to/lastmile_qr_scan"}, "lon": -77.03490583333334, "type": "electric_scooter"}, {"bike_id": "487bdf99f34ecc4932c4447f4832121b", "is_reserved": 0, "fusion_lon": 0.0, "lat": 38.906763166666664, "is_disabled": 0, "name": "487bdf99f34ecc4932c4447f4832121b", "fusion_lat": 0.0, "rental_uris": {"ios": "https://dc.lft.to/lastmile_qr_scan", "android": "https://dc.lft.to/lastmile_qr_scan"}, "lon": -77.062729, "type": "electric_bike"}, {"bike_id": "c967bf5816458808a67b628115611749", "is_reserved": 0, "fusion_lon": 0.0, "lat": 38.905770833333335, "is_disabled": 0, "name": "c967bf5816458808a67b628115611749", "fusion_lat": 0.0, "rental_uris": {"ios": "https://dc.lft.to/lastmile_qr_scan", "android": "https://dc.lft.to/lastmile_qr_scan"}, "lon": -77.00594383333333, "type": "electric_scooter"}, {"bike_id": "24f3d8bca2fefee3543be997c5d7c8ad", "is_reserved": 0, "fusion_lon": 0.0, "lat": 38.9981755, "is_disabled": 0, "name": "24f3d8bca2fefee3543be997c5d7c8ad", "fusion_lat": 0.0, "rental_uris": {"ios": "https://dc.lft.to/lastmile_qr_scan", "android": "https://dc.lft.to/lastmile_qr_scan"}, "lon": -76.8837435, "type": "electric_bike"}, {"bike_id": "5bb403aacb25115de2ba01e427694f1d", "is_reserved": 0, "fusion_lon": 0.0, "lat": 38.9034605, "is_disabled": 0, "name": "5bb403aacb25115de2ba01e427694f1d", "fusion_lat": 0.0, "rental_uris": {"ios": "https://dc.lft.to/lastmile_qr_scan", "android": "https://dc.lft.to/lastmile_qr_scan"}, "lon": -77.06656, "type": "electric_scooter"}, {"bike_id": "470f5f4ee9fd8ff4faca135ff94efda2", "is_reserved": 0, "fusion_lon": 0.0, "lat": 38.90602616666666, "is_disabled": 0, "name": "470f5f4ee9fd8ff4faca135ff94efda2", "fusion_lat": 0.0, "rental_uris": {"ios": "https://dc.lft.to/lastmile_qr_scan", "android": "https://dc.lft.to/lastmile_qr_scan"}, "lon": -77.050977, "type": "electric_scooter"}, {"bike_id": "795852fb9dfbb16e14ddfe032670366c", "is_reserved": 0, "fusion_lon": 0.0, "lat": 38.934340666666664, "is_disabled": 0, "name": "795852fb9dfbb16e14ddfe032670366c", "fusion_lat": 0.0, "rental_uris": {"ios": "https://dc.lft.to/lastmile_qr_scan", "android": "https://dc.lft.to/lastmile_qr_scan"}, "lon": -77.04001383333333, "type": "electric_scooter"}, {"bike_id": "bef44ee52a5df4274fc35a5264cc1812", "is_reserved": 0, "fusion_lon": 0.0, "lat": 38.9217175, "is_disabled": 0, "name": "bef44ee52a5df4274fc35a5264cc1812", "fusion_lat": 0.0, "rental_uris": {"ios": "https://dc.lft.to/lastmile_qr_scan", "android": "https://dc.lft.to/lastmile_qr_scan"}, "lon": -77.04026316666666, "type": "electric_scooter"}, {"bike_id": "51fefae9a5fc380a02e156264afabd4a", "is_reserved": 0, "fusion_lon": 0.0, "lat": 38.885139833333334, "is_disabled": 0, "name": "51fefae9a5fc380a02e156264afabd4a", "fusion_lat": 0.0, "rental_uris": {"ios": "https://dc.lft.to/lastmile_qr_scan", "android": "https://dc.lft.to/lastmile_qr_scan"}, "lon": -77.005742, "type": "electric_scooter"}, {"bike_id": "da030fad3ccb8b9d989710d3fc3993a9", "is_reserved": 0, "fusion_lon": 0.0, "lat": 38.8860905, "is_disabled": 0, "name": "da030fad3ccb8b9d989710d3fc3993a9", "fusion_lat": 0.0, "rental_uris": {"ios": "https://dc.lft.to/lastmile_qr_scan", "android": "https://dc.lft.to/lastmile_qr_scan"}, "lon": -76.93609083333334, "type": "electric_scooter"}, {"bike_id": "3c25af46980d8695eb3dfc510fffa2d1", "is_reserved": 0, "fusion_lon": 0.0, "lat": 38.83720066666667, "is_disabled": 0, "name": "3c25af46980d8695eb3dfc510fffa2d1", "fusion_lat": 0.0, "rental_uris": {"ios": "https://dc.lft.to/lastmile_qr_scan", "android": "https://dc.lft.to/lastmile_qr_scan"}, "lon": -76.99772683333333, "type": "electric_bike"}, {"bike_id": "546e826d94e59da86e30c324e140ec1e", "is_reserved": 0, "fusion_lon": 0.0, "lat": 38.85517683333333, "is_disabled": 0, "name": "546e826d94e59da86e30c324e140ec1e", "fusion_lat": 0.0, "rental_uris": {"ios": "https://dc.lft.to/lastmile_qr_scan", "android": "https://dc.lft.to/lastmile_qr_scan"}, "lon": -76.98436283333334, "type": "electric_bike"}, {"bike_id": "3c4e7cfad8b7b81194ce6107e5b79f19", "is_reserved": 0, "fusion_lon": 0.0, "lat": 38.91385266666666, "is_disabled": 0, "name": "3c4e7cfad8b7b81194ce6107e5b79f19", "fusion_lat": 0.0, "rental_uris": {"ios": "https://dc.lft.to/lastmile_qr_scan", "android": "https://dc.lft.to/lastmile_qr_scan"}, "lon": -77.01706683333333, "type": "electric_scooter"}, {"bike_id": "71065ff45be0b247bb7fc27b4193b1c8", "is_reserved": 0, "fusion_lon": 0.0, "lat": 38.924825, "is_disabled": 0, "name": "71065ff45be0b247bb7fc27b4193b1c8", "fusion_lat": 0.0, "rental_uris": {"ios": "https://dc.lft.to/lastmile_qr_scan", "android": "https://dc.lft.to/lastmile_qr_scan"}, "lon": -77.0265355, "type": "electric_scooter"}, {"bike_id": "7bef4e9d1198e3de2ff4e4bda824f3c7", "is_reserved": 0, "fusion_lon": 0.0, "lat": 38.90469483333333, "is_disabled": 0, "name": "7bef4e9d1198e3de2ff4e4bda824f3c7", "fusion_lat": 0.0, "rental_uris": {"ios": "https://dc.lft.to/lastmile_qr_scan", "android": "https://dc.lft.to/lastmile_qr_scan"}, "lon": -77.04029966666667, "type": "electric_scooter"}, {"bike_id": "dd3c18aeaa3c421dab0e47384b82b408", "is_reserved": 0, "fusion_lon": 0.0, "lat": 38.90038083333334, "is_disabled": 0, "name": "dd3c18aeaa3c421dab0e47384b82b408", "fusion_lat": 0.0, "rental_uris": {"ios": "https://dc.lft.to/lastmile_qr_scan", "android": "https://dc.lft.to/lastmile_qr_scan"}, "lon": -77.00206166666666, "type": "electric_scooter"}, {"bike_id": "efadf52d183b04a302b2ddb188a3ef27", "is_reserved": 0, "fusion_lon": 0.0, "lat": 38.90135383333333, "is_disabled": 0, "name": "efadf52d183b04a302b2ddb188a3ef27", "fusion_lat": 0.0, "rental_uris": {"ios": "https://dc.lft.to/lastmile_qr_scan", "android": "https://dc.lft.to/lastmile_qr_scan"}, "lon": -77.0336385, "type": "electric_scooter"}, {"bike_id": "22cf7716040be096635a6537c2bcda4b", "is_reserved": 0, "fusion_lon": 0.0, "lat": 38.95069483333333, "is_disabled": 0, "name": "22cf7716040be096635a6537c2bcda4b", "fusion_lat": 0.0, "rental_uris": {"ios": "https://dc.lft.to/lastmile_qr_scan", "android": "https://dc.lft.to/lastmile_qr_scan"}, "lon": -77.0120175, "type": "electric_bike"}, {"bike_id": "c4ae0180f440b419d92acce34b3adb9b", "is_reserved": 0, "fusion_lon": 0.0, "lat": 38.90243666666667, "is_disabled": 0, "name": "c4ae0180f440b419d92acce34b3adb9b", "fusion_lat": 0.0, "rental_uris": {"ios": "https://dc.lft.to/lastmile_qr_scan", "android": "https://dc.lft.to/lastmile_qr_scan"}, "lon": -77.00718933333333, "type": "electric_scooter"}, {"bike_id": "de3b26af487b59364c165859e0d0d49e", "is_reserved": 0, "fusion_lon": 0.0, "lat": 38.93710633333333, "is_disabled": 0, "name": "de3b26af487b59364c165859e0d0d49e", "fusion_lat": 0.0, "rental_uris": {"ios": "https://dc.lft.to/lastmile_qr_scan", "android": "https://dc.lft.to/lastmile_qr_scan"}, "lon": -77.02935833333333, "type": "electric_scooter"}, {"bike_id": "4cf14adcba6a026231197601a6dac32e", "is_reserved": 0, "fusion_lon": 0.0, "lat": 38.92855383333333, "is_disabled": 0, "name": "4cf14adcba6a026231197601a6dac32e", "fusion_lat": 0.0, "rental_uris": {"ios": "https://dc.lft.to/lastmile_qr_scan", "android": "https://dc.lft.to/lastmile_qr_scan"}, "lon": -77.01393416666667, "type": "electric_scooter"}, {"bike_id": "9fce63d42bd7c824e9d90b911b8a2314", "is_reserved": 0, "fusion_lon": 0.0, "lat": 38.93971466666667, "is_disabled": 0, "name": "9fce63d42bd7c824e9d90b911b8a2314", "fusion_lat": 0.0, "rental_uris": {"ios": "https://dc.lft.to/lastmile_qr_scan", "android": "https://dc.lft.to/lastmile_qr_scan"}, "lon": -77.03267483333333, "type": "electric_scooter"}, {"bike_id": "e4c37f2d6718afbeb78ac0f2120c3951", "is_reserved": 0, "fusion_lon": 0.0, "lat": 38.921191, "is_disabled": 0, "name": "e4c37f2d6718afbeb78ac0f2120c3951", "fusion_lat": 0.0, "rental_uris": {"ios": "https://dc.lft.to/lastmile_qr_scan", "android": "https://dc.lft.to/lastmile_qr_scan"}, "lon": -77.04588766666667, "type": "electric_scooter"}, {"bike_id": "6388a539ebcd3b42fd6ec9626feecf0d", "is_reserved": 0, "fusion_lon": 0.0, "lat": 38.844255833333335, "is_disabled": 0, "name": "6388a539ebcd3b42fd6ec9626feecf0d", "fusion_lat": 0.0, "rental_uris": {"ios": "https://dc.lft.to/lastmile_qr_scan", "android": "https://dc.lft.to/lastmile_qr_scan"}, "lon": -76.99778483333333, "type": "electric_scooter"}, {"bike_id": "f7d84359276d05997f291f75358ed431", "is_reserved": 0, "fusion_lon": 0.0, "lat": 38.917873, "is_disabled": 0, "name": "f7d84359276d05997f291f75358ed431", "fusion_lat": 0.0, "rental_uris": {"ios": "https://dc.lft.to/lastmile_qr_scan", "android": "https://dc.lft.to/lastmile_qr_scan"}, "lon": -77.02700383333334, "type": "electric_scooter"}, {"bike_id": "d003830226dfdd888dffa212426bcec4", "is_reserved": 0, "fusion_lon": 0.0, "lat": 38.91556516666667, "is_disabled": 0, "name": "d003830226dfdd888dffa212426bcec4", "fusion_lat": 0.0, "rental_uris": {"ios": "https://dc.lft.to/lastmile_qr_scan", "android": "https://dc.lft.to/lastmile_qr_scan"}, "lon": -77.0141725, "type": "electric_scooter"}, {"bike_id": "0172e8cf5990f5bc3c260d767c549b4d", "is_reserved": 0, "fusion_lon": 0.0, "lat": 38.86924783333333, "is_disabled": 0, "name": "0172e8cf5990f5bc3c260d767c549b4d", "fusion_lat": 0.0, "rental_uris": {"ios": "https://dc.lft.to/lastmile_qr_scan", "android": "https://dc.lft.to/lastmile_qr_scan"}, "lon": -76.98304433333334, "type": "electric_scooter"}, {"bike_id": "f715aca1ef896fd1a9e028086ba97a9f", "is_reserved": 0, "fusion_lon": 0.0, "lat": 38.90407283333333, "is_disabled": 0, "name": "f715aca1ef896fd1a9e028086ba97a9f", "fusion_lat": 0.0, "rental_uris": {"ios": "https://dc.lft.to/lastmile_qr_scan", "android": "https://dc.lft.to/lastmile_qr_scan"}, "lon": -77.03619016666667, "type": "electric_scooter"}, {"bike_id": "9a7f9ad5112868cffe336b0ea856d3e8", "is_reserved": 0, "fusion_lon": 0.0, "lat": 38.88869783333333, "is_disabled": 0, "name": "9a7f9ad5112868cffe336b0ea856d3e8", "fusion_lat": 0.0, "rental_uris": {"ios": "https://dc.lft.to/lastmile_qr_scan", "android": "https://dc.lft.to/lastmile_qr_scan"}, "lon": -76.99033666666666, "type": "electric_scooter"}, {"bike_id": "987679e293fbd72e488b4d1a2dcdcccb", "is_reserved": 0, "fusion_lon": 0.0, "lat": 38.872164, "is_disabled": 0, "name": "987679e293fbd72e488b4d1a2dcdcccb", "fusion_lat": 0.0, "rental_uris": {"ios": "https://dc.lft.to/lastmile_qr_scan", "android": "https://dc.lft.to/lastmile_qr_scan"}, "lon": -77.00569766666666, "type": "electric_scooter"}, {"bike_id": "6f98788db4e4404226180cc6c1405474", "is_reserved": 0, "fusion_lon": 0.0, "lat": 38.91772866666667, "is_disabled": 0, "name": "6f98788db4e4404226180cc6c1405474", "fusion_lat": 0.0, "rental_uris": {"ios": "https://dc.lft.to/lastmile_qr_scan", "android": "https://dc.lft.to/lastmile_qr_scan"}, "lon": -77.04056466666667, "type": "electric_scooter"}, {"bike_id": "b6f3014618eca1509b335e7c3956f878", "is_reserved": 0, "fusion_lon": 0.0, "lat": 38.892992, "is_disabled": 0, "name": "b6f3014618eca1509b335e7c3956f878", "fusion_lat": 0.0, "rental_uris": {"ios": "https://dc.lft.to/lastmile_qr_scan", "android": "https://dc.lft.to/lastmile_qr_scan"}, "lon": -77.01236166666666, "type": "electric_scooter"}, {"bike_id": "e4647e89baba73fd0955e1297dd554e7", "is_reserved": 0, "fusion_lon": 0.0, "lat": 38.91271583333333, "is_disabled": 0, "name": "e4647e89baba73fd0955e1297dd554e7", "fusion_lat": 0.0, "rental_uris": {"ios": "https://dc.lft.to/lastmile_qr_scan", "android": "https://dc.lft.to/lastmile_qr_scan"}, "lon": -77.0269435, "type": "electric_scooter"}, {"bike_id": "0438b05949043a3d45c2e4be8d356b1f", "is_reserved": 0, "fusion_lon": 0.0, "lat": 38.912759333333334, "is_disabled": 0, "name": "0438b05949043a3d45c2e4be8d356b1f", "fusion_lat": 0.0, "rental_uris": {"ios": "https://dc.lft.to/lastmile_qr_scan", "android": "https://dc.lft.to/lastmile_qr_scan"}, "lon": -77.01355566666666, "type": "electric_scooter"}, {"bike_id": "977cf8a4c557fc274a60f5dce308d16a", "is_reserved": 0, "fusion_lon": 0.0, "lat": 38.91931783333333, "is_disabled": 0, "name": "977cf8a4c557fc274a60f5dce308d16a", "fusion_lat": 0.0, "rental_uris": {"ios": "https://dc.lft.to/lastmile_qr_scan", "android": "https://dc.lft.to/lastmile_qr_scan"}, "lon": -77.044891, "type": "electric_scooter"}, {"bike_id": "a9b5de7ceb14ef60aa1b7f106bf725a6", "is_reserved": 0, "fusion_lon": 0.0, "lat": 38.90609666666667, "is_disabled": 0, "name": "a9b5de7ceb14ef60aa1b7f106bf725a6", "fusion_lat": 0.0, "rental_uris": {"ios": "https://dc.lft.to/lastmile_qr_scan", "android": "https://dc.lft.to/lastmile_qr_scan"}, "lon": -77.04145466666667, "type": "electric_scooter"}, {"bike_id": "877669489594bd41797366c61bc0085e", "is_reserved": 0, "fusion_lon": 0.0, "lat": 38.90095733333333, "is_disabled": 0, "name": "877669489594bd41797366c61bc0085e", "fusion_lat": 0.0, "rental_uris": {"ios": "https://dc.lft.to/lastmile_qr_scan", "android": "https://dc.lft.to/lastmile_qr_scan"}, "lon": -76.974675, "type": "electric_scooter"}, {"bike_id": "75d13d7ebc4dcea41081586e091b7112", "is_reserved": 0, "fusion_lon": 0.0, "lat": 38.90962616666667, "is_disabled": 0, "name": "75d13d7ebc4dcea41081586e091b7112", "fusion_lat": 0.0, "rental_uris": {"ios": "https://dc.lft.to/lastmile_qr_scan", "android": "https://dc.lft.to/lastmile_qr_scan"}, "lon": -77.02556316666667, "type": "electric_scooter"}, {"bike_id": "46cfd044e24cd4024debe8e82bac9c64", "is_reserved": 0, "fusion_lon": 0.0, "lat": 38.8926575, "is_disabled": 0, "name": "46cfd044e24cd4024debe8e82bac9c64", "fusion_lat": 0.0, "rental_uris": {"ios": "https://dc.lft.to/lastmile_qr_scan", "android": "https://dc.lft.to/lastmile_qr_scan"}, "lon": -77.02206416666667, "type": "electric_bike"}, {"bike_id": "15242b532bff8f3e5f208dfe5ba6e561", "is_reserved": 0, "fusion_lon": 0.0, "lat": 38.897265, "is_disabled": 0, "name": "15242b532bff8f3e5f208dfe5ba6e561", "fusion_lat": 0.0, "rental_uris": {"ios": "https://dc.lft.to/lastmile_qr_scan", "android": "https://dc.lft.to/lastmile_qr_scan"}, "lon": -77.043413, "type": "electric_scooter"}, {"bike_id": "c14d2038403f2eda965b2351a649c3b4", "is_reserved": 0, "fusion_lon": 0.0, "lat": 38.915486333333334, "is_disabled": 0, "name": "c14d2038403f2eda965b2351a649c3b4", "fusion_lat": 0.0, "rental_uris": {"ios": "https://dc.lft.to/lastmile_qr_scan", "android": "https://dc.lft.to/lastmile_qr_scan"}, "lon": -77.0385155, "type": "electric_scooter"}, {"bike_id": "f887dd60c86c9596da81a128e817ea29", "is_reserved": 0, "fusion_lon": 0.0, "lat": 38.90729066666667, "is_disabled": 0, "name": "f887dd60c86c9596da81a128e817ea29", "fusion_lat": 0.0, "rental_uris": {"ios": "https://dc.lft.to/lastmile_qr_scan", "android": "https://dc.lft.to/lastmile_qr_scan"}, "lon": -77.03218466666667, "type": "electric_scooter"}, {"bike_id": "ebd00fb5d2000733d6cf6bab819c4bb0", "is_reserved": 0, "fusion_lon": 0.0, "lat": 38.90016766666667, "is_disabled": 0, "name": "ebd00fb5d2000733d6cf6bab819c4bb0", "fusion_lat": 0.0, "rental_uris": {"ios": "https://dc.lft.to/lastmile_qr_scan", "android": "https://dc.lft.to/lastmile_qr_scan"}, "lon": -77.0404025, "type": "electric_scooter"}, {"bike_id": "2d7905a745d4e53c4655f5a5cdc8da9f", "is_reserved": 0, "fusion_lon": 0.0, "lat": 38.89095316666667, "is_disabled": 0, "name": "2d7905a745d4e53c4655f5a5cdc8da9f", "fusion_lat": 0.0, "rental_uris": {"ios": "https://dc.lft.to/lastmile_qr_scan", "android": "https://dc.lft.to/lastmile_qr_scan"}, "lon": -76.94397666666667, "type": "electric_scooter"}, {"bike_id": "e3e958e875586bfe9765a25a41e314c7", "is_reserved": 0, "fusion_lon": 0.0, "lat": 38.898861333333336, "is_disabled": 0, "name": "e3e958e875586bfe9765a25a41e314c7", "fusion_lat": 0.0, "rental_uris": {"ios": "https://dc.lft.to/lastmile_qr_scan", "android": "https://dc.lft.to/lastmile_qr_scan"}, "lon": -77.03973183333333, "type": "electric_scooter"}, {"bike_id": "1f27a240c4b74db55500baac3bb8454d", "is_reserved": 0, "fusion_lon": 0.0, "lat": 38.9361295, "is_disabled": 0, "name": "1f27a240c4b74db55500baac3bb8454d", "fusion_lat": 0.0, "rental_uris": {"ios": "https://dc.lft.to/lastmile_qr_scan", "android": "https://dc.lft.to/lastmile_qr_scan"}, "lon": -77.10647483333334, "type": "electric_bike"}, {"bike_id": "3835f80d467ffe03f0904be41c862e18", "is_reserved": 0, "fusion_lon": 0.0, "lat": 38.9180555, "is_disabled": 0, "name": "3835f80d467ffe03f0904be41c862e18", "fusion_lat": 0.0, "rental_uris": {"ios": "https://dc.lft.to/lastmile_qr_scan", "android": "https://dc.lft.to/lastmile_qr_scan"}, "lon": -77.03567566666666, "type": "electric_scooter"}, {"bike_id": "c7d3c318ae5e7e37f1a3e042273018d5", "is_reserved": 0, "fusion_lon": 0.0, "lat": 38.9097345, "is_disabled": 0, "name": "c7d3c318ae5e7e37f1a3e042273018d5", "fusion_lat": 0.0, "rental_uris": {"ios": "https://dc.lft.to/lastmile_qr_scan", "android": "https://dc.lft.to/lastmile_qr_scan"}, "lon": -77.0526725, "type": "electric_scooter"}, {"bike_id": "ef96f655a5276731380118d66369398f", "is_reserved": 0, "fusion_lon": 0.0, "lat": 38.923609166666665, "is_disabled": 0, "name": "ef96f655a5276731380118d66369398f", "fusion_lat": 0.0, "rental_uris": {"ios": "https://dc.lft.to/lastmile_qr_scan", "android": "https://dc.lft.to/lastmile_qr_scan"}, "lon": -77.019156, "type": "electric_scooter"}, {"bike_id": "cb8a960053816f8a74ecab97aee58c70", "is_reserved": 0, "fusion_lon": 0.0, "lat": 38.92772683333333, "is_disabled": 0, "name": "cb8a960053816f8a74ecab97aee58c70", "fusion_lat": 0.0, "rental_uris": {"ios": "https://dc.lft.to/lastmile_qr_scan", "android": "https://dc.lft.to/lastmile_qr_scan"}, "lon": -77.027804, "type": "electric_scooter"}, {"bike_id": "dcdcb0795e0b41c6a680361488ff76dd", "is_reserved": 0, "fusion_lon": 0.0, "lat": 38.900862333333336, "is_disabled": 0, "name": "dcdcb0795e0b41c6a680361488ff76dd", "fusion_lat": 0.0, "rental_uris": {"ios": "https://dc.lft.to/lastmile_qr_scan", "android": "https://dc.lft.to/lastmile_qr_scan"}, "lon": -76.93873783333333, "type": "electric_scooter"}, {"bike_id": "e4756197d34bfa4f79f2e108dac288dd", "is_reserved": 0, "fusion_lon": 0.0, "lat": 38.9247495, "is_disabled": 0, "name": "e4756197d34bfa4f79f2e108dac288dd", "fusion_lat": 0.0, "rental_uris": {"ios": "https://dc.lft.to/lastmile_qr_scan", "android": "https://dc.lft.to/lastmile_qr_scan"}, "lon": -77.05214266666667, "type": "electric_scooter"}, {"bike_id": "6399b23812041f8424d3f37cd0eb4a68", "is_reserved": 0, "fusion_lon": 0.0, "lat": 38.93162316666667, "is_disabled": 0, "name": "6399b23812041f8424d3f37cd0eb4a68", "fusion_lat": 0.0, "rental_uris": {"ios": "https://dc.lft.to/lastmile_qr_scan", "android": "https://dc.lft.to/lastmile_qr_scan"}, "lon": -77.05652183333333, "type": "electric_scooter"}, {"bike_id": "fe98facbd898f8e7e759e4aee2b86dee", "is_reserved": 0, "fusion_lon": 0.0, "lat": 38.887738, "is_disabled": 0, "name": "fe98facbd898f8e7e759e4aee2b86dee", "fusion_lat": 0.0, "rental_uris": {"ios": "https://dc.lft.to/lastmile_qr_scan", "android": "https://dc.lft.to/lastmile_qr_scan"}, "lon": -76.93265683333334, "type": "electric_scooter"}, {"bike_id": "a62888aaaae814fb626c3d4cb79b2b13", "is_reserved": 0, "fusion_lon": 0.0, "lat": 38.899706333333334, "is_disabled": 0, "name": "a62888aaaae814fb626c3d4cb79b2b13", "fusion_lat": 0.0, "rental_uris": {"ios": "https://dc.lft.to/lastmile_qr_scan", "android": "https://dc.lft.to/lastmile_qr_scan"}, "lon": -77.01554166666666, "type": "electric_scooter"}, {"bike_id": "cd5d34791c304c8fa6524e9fd95c00cb", "is_reserved": 0, "fusion_lon": 0.0, "lat": 38.88781266666667, "is_disabled": 0, "name": "cd5d34791c304c8fa6524e9fd95c00cb", "fusion_lat": 0.0, "rental_uris": {"ios": "https://dc.lft.to/lastmile_qr_scan", "android": "https://dc.lft.to/lastmile_qr_scan"}, "lon": -76.95532433333334, "type": "electric_scooter"}, {"bike_id": "d59eaab027623e8209728846e054b04b", "is_reserved": 0, "fusion_lon": 0.0, "lat": 38.9094465, "is_disabled": 0, "name": "d59eaab027623e8209728846e054b04b", "fusion_lat": 0.0, "rental_uris": {"ios": "https://dc.lft.to/lastmile_qr_scan", "android": "https://dc.lft.to/lastmile_qr_scan"}, "lon": -77.0384365, "type": "electric_scooter"}, {"bike_id": "722e43ea87057797c006343462b9e941", "is_reserved": 0, "fusion_lon": 0.0, "lat": 38.90488716666667, "is_disabled": 0, "name": "722e43ea87057797c006343462b9e941", "fusion_lat": 0.0, "rental_uris": {"ios": "https://dc.lft.to/lastmile_qr_scan", "android": "https://dc.lft.to/lastmile_qr_scan"}, "lon": -77.04647766666666, "type": "electric_scooter"}, {"bike_id": "66d5b12cfc25a712a4912a2d2e6f5c6f", "is_reserved": 0, "fusion_lon": 0.0, "lat": 38.896803166666665, "is_disabled": 0, "name": "66d5b12cfc25a712a4912a2d2e6f5c6f", "fusion_lat": 0.0, "rental_uris": {"ios": "https://dc.lft.to/lastmile_qr_scan", "android": "https://dc.lft.to/lastmile_qr_scan"}, "lon": -77.02591683333333, "type": "electric_scooter"}, {"bike_id": "8bdc9b8e7b73bdf12f4a3f899850339c", "is_reserved": 0, "fusion_lon": 0.0, "lat": 38.92769166666667, "is_disabled": 0, "name": "8bdc9b8e7b73bdf12f4a3f899850339c", "fusion_lat": 0.0, "rental_uris": {"ios": "https://dc.lft.to/lastmile_qr_scan", "android": "https://dc.lft.to/lastmile_qr_scan"}, "lon": -77.03245133333333, "type": "electric_scooter"}, {"bike_id": "4f7517623b59c0caf7d617fe1fcb9739", "is_reserved": 0, "fusion_lon": 0.0, "lat": 38.90261866666667, "is_disabled": 0, "name": "4f7517623b59c0caf7d617fe1fcb9739", "fusion_lat": 0.0, "rental_uris": {"ios": "https://dc.lft.to/lastmile_qr_scan", "android": "https://dc.lft.to/lastmile_qr_scan"}, "lon": -77.03850716666666, "type": "electric_scooter"}, {"bike_id": "d98c5f8cc0c7ee52f2375e5f56133289", "is_reserved": 0, "fusion_lon": 0.0, "lat": 38.89842566666667, "is_disabled": 0, "name": "d98c5f8cc0c7ee52f2375e5f56133289", "fusion_lat": 0.0, "rental_uris": {"ios": "https://dc.lft.to/lastmile_qr_scan", "android": "https://dc.lft.to/lastmile_qr_scan"}, "lon": -76.995082, "type": "electric_scooter"}, {"bike_id": "960cbca5146e66d0f4b7eb2833529ea8", "is_reserved": 0, "fusion_lon": 0.0, "lat": 38.93515433333334, "is_disabled": 0, "name": "960cbca5146e66d0f4b7eb2833529ea8", "fusion_lat": 0.0, "rental_uris": {"ios": "https://dc.lft.to/lastmile_qr_scan", "android": "https://dc.lft.to/lastmile_qr_scan"}, "lon": -77.032959, "type": "electric_scooter"}, {"bike_id": "db944de3a374207776b34fcf409292b8", "is_reserved": 0, "fusion_lon": 0.0, "lat": 38.911153166666665, "is_disabled": 0, "name": "db944de3a374207776b34fcf409292b8", "fusion_lat": 0.0, "rental_uris": {"ios": "https://dc.lft.to/lastmile_qr_scan", "android": "https://dc.lft.to/lastmile_qr_scan"}, "lon": -77.03734633333333, "type": "electric_scooter"}, {"bike_id": "b443cf6c28400fa761ef286254fc0c1a", "is_reserved": 0, "fusion_lon": 0.0, "lat": 38.9161335, "is_disabled": 0, "name": "b443cf6c28400fa761ef286254fc0c1a", "fusion_lat": 0.0, "rental_uris": {"ios": "https://dc.lft.to/lastmile_qr_scan", "android": "https://dc.lft.to/lastmile_qr_scan"}, "lon": -77.022978, "type": "electric_scooter"}, {"bike_id": "f90cb756efc70f042dbf764fb214d9e4", "is_reserved": 0, "fusion_lon": 0.0, "lat": 38.84291983333333, "is_disabled": 0, "name": "f90cb756efc70f042dbf764fb214d9e4", "fusion_lat": 0.0, "rental_uris": {"ios": "https://dc.lft.to/lastmile_qr_scan", "android": "https://dc.lft.to/lastmile_qr_scan"}, "lon": -76.9994545, "type": "electric_scooter"}, {"bike_id": "5dd59ce98c87fbb13f9d37e71ab89808", "is_reserved": 0, "fusion_lon": 0.0, "lat": 38.88674483333333, "is_disabled": 0, "name": "5dd59ce98c87fbb13f9d37e71ab89808", "fusion_lat": 0.0, "rental_uris": {"ios": "https://dc.lft.to/lastmile_qr_scan", "android": "https://dc.lft.to/lastmile_qr_scan"}, "lon": -77.01368933333333, "type": "electric_scooter"}, {"bike_id": "292a5577b00b6c101896c1eb6008381a", "is_reserved": 0, "fusion_lon": 0.0, "lat": 38.92747766666667, "is_disabled": 0, "name": "292a5577b00b6c101896c1eb6008381a", "fusion_lat": 0.0, "rental_uris": {"ios": "https://dc.lft.to/lastmile_qr_scan", "android": "https://dc.lft.to/lastmile_qr_scan"}, "lon": -77.05387716666667, "type": "electric_scooter"}, {"bike_id": "b8790ae0ba69117e28da46936df93308", "is_reserved": 0, "fusion_lon": 0.0, "lat": 38.8922165, "is_disabled": 0, "name": "b8790ae0ba69117e28da46936df93308", "fusion_lat": 0.0, "rental_uris": {"ios": "https://dc.lft.to/lastmile_qr_scan", "android": "https://dc.lft.to/lastmile_qr_scan"}, "lon": -77.03221966666666, "type": "electric_scooter"}, {"bike_id": "83854173dc15d8de9a5143c3f5abc680", "is_reserved": 0, "fusion_lon": 0.0, "lat": 38.90261666666667, "is_disabled": 0, "name": "83854173dc15d8de9a5143c3f5abc680", "fusion_lat": 0.0, "rental_uris": {"ios": "https://dc.lft.to/lastmile_qr_scan", "android": "https://dc.lft.to/lastmile_qr_scan"}, "lon": -77.0395185, "type": "electric_scooter"}, {"bike_id": "4c36b9f5c928a461bdc0c48d535a53da", "is_reserved": 0, "fusion_lon": 0.0, "lat": 38.906207, "is_disabled": 0, "name": "4c36b9f5c928a461bdc0c48d535a53da", "fusion_lat": 0.0, "rental_uris": {"ios": "https://dc.lft.to/lastmile_qr_scan", "android": "https://dc.lft.to/lastmile_qr_scan"}, "lon": -77.00978983333333, "type": "electric_scooter"}, {"bike_id": "bbb8c3ed622e2d4f9f229248ea4e8300", "is_reserved": 0, "fusion_lon": 0.0, "lat": 38.91198516666667, "is_disabled": 0, "name": "bbb8c3ed622e2d4f9f229248ea4e8300", "fusion_lat": 0.0, "rental_uris": {"ios": "https://dc.lft.to/lastmile_qr_scan", "android": "https://dc.lft.to/lastmile_qr_scan"}, "lon": -77.02953333333333, "type": "electric_scooter"}, {"bike_id": "4a5a2e25b210c3cf767cd061f7c1ef9e", "is_reserved": 0, "fusion_lon": 0.0, "lat": 38.902745833333334, "is_disabled": 0, "name": "4a5a2e25b210c3cf767cd061f7c1ef9e", "fusion_lat": 0.0, "rental_uris": {"ios": "https://dc.lft.to/lastmile_qr_scan", "android": "https://dc.lft.to/lastmile_qr_scan"}, "lon": -77.03837916666667, "type": "electric_scooter"}, {"bike_id": "e059b5b59ed15f91f635cd54ee055825", "is_reserved": 0, "fusion_lon": 0.0, "lat": 38.92132383333333, "is_disabled": 0, "name": "e059b5b59ed15f91f635cd54ee055825", "fusion_lat": 0.0, "rental_uris": {"ios": "https://dc.lft.to/lastmile_qr_scan", "android": "https://dc.lft.to/lastmile_qr_scan"}, "lon": -77.02203, "type": "electric_scooter"}, {"bike_id": "bc38ce50de132cf7cc81a782ad1a9127", "is_reserved": 0, "fusion_lon": 0.0, "lat": 38.85246683333333, "is_disabled": 0, "name": "bc38ce50de132cf7cc81a782ad1a9127", "fusion_lat": 0.0, "rental_uris": {"ios": "https://dc.lft.to/lastmile_qr_scan", "android": "https://dc.lft.to/lastmile_qr_scan"}, "lon": -77.1142735, "type": "electric_bike"}, {"bike_id": "6f2c76b5228cf782b043f4a0e4e0d6e1", "is_reserved": 0, "fusion_lon": 0.0, "lat": 38.975785, "is_disabled": 0, "name": "6f2c76b5228cf782b043f4a0e4e0d6e1", "fusion_lat": 0.0, "rental_uris": {"ios": "https://dc.lft.to/lastmile_qr_scan", "android": "https://dc.lft.to/lastmile_qr_scan"}, "lon": -77.01710566666667, "type": "electric_scooter"}, {"bike_id": "3ccce705e59e958c48dfca3e8ea47045", "is_reserved": 0, "fusion_lon": 0.0, "lat": 38.89007816666667, "is_disabled": 0, "name": "3ccce705e59e958c48dfca3e8ea47045", "fusion_lat": 0.0, "rental_uris": {"ios": "https://dc.lft.to/lastmile_qr_scan", "android": "https://dc.lft.to/lastmile_qr_scan"}, "lon": -76.9374725, "type": "electric_scooter"}, {"bike_id": "abd64f157450ac8317f3b3f14eddf32e", "is_reserved": 0, "fusion_lon": 0.0, "lat": 38.910547666666666, "is_disabled": 0, "name": "abd64f157450ac8317f3b3f14eddf32e", "fusion_lat": 0.0, "rental_uris": {"ios": "https://dc.lft.to/lastmile_qr_scan", "android": "https://dc.lft.to/lastmile_qr_scan"}, "lon": -77.021937, "type": "electric_scooter"}, {"bike_id": "4d0ee944e0e37a00f8e9ebb0f1418fbd", "is_reserved": 0, "fusion_lon": 0.0, "lat": 38.92595416666666, "is_disabled": 0, "name": "4d0ee944e0e37a00f8e9ebb0f1418fbd", "fusion_lat": 0.0, "rental_uris": {"ios": "https://dc.lft.to/lastmile_qr_scan", "android": "https://dc.lft.to/lastmile_qr_scan"}, "lon": -77.0243355, "type": "electric_bike"}, {"bike_id": "0232072fab46e2334f54e3872f8bb290", "is_reserved": 0, "fusion_lon": 0.0, "lat": 38.88641766666667, "is_disabled": 0, "name": "0232072fab46e2334f54e3872f8bb290", "fusion_lat": 0.0, "rental_uris": {"ios": "https://dc.lft.to/lastmile_qr_scan", "android": "https://dc.lft.to/lastmile_qr_scan"}, "lon": -77.02140683333333, "type": "electric_scooter"}, {"bike_id": "155bc520267a89aebbfa9360e556de3b", "is_reserved": 0, "fusion_lon": 0.0, "lat": 38.90375433333333, "is_disabled": 0, "name": "155bc520267a89aebbfa9360e556de3b", "fusion_lat": 0.0, "rental_uris": {"ios": "https://dc.lft.to/lastmile_qr_scan", "android": "https://dc.lft.to/lastmile_qr_scan"}, "lon": -77.03913883333334, "type": "electric_scooter"}, {"bike_id": "bdc0d6692bd74510cd547a37528fd155", "is_reserved": 0, "fusion_lon": 0.0, "lat": 38.91787433333333, "is_disabled": 0, "name": "bdc0d6692bd74510cd547a37528fd155", "fusion_lat": 0.0, "rental_uris": {"ios": "https://dc.lft.to/lastmile_qr_scan", "android": "https://dc.lft.to/lastmile_qr_scan"}, "lon": -77.02696933333333, "type": "electric_scooter"}, {"bike_id": "5b66add38e76b5c6240949061644dd32", "is_reserved": 0, "fusion_lon": 0.0, "lat": 38.91522883333333, "is_disabled": 0, "name": "5b66add38e76b5c6240949061644dd32", "fusion_lat": 0.0, "rental_uris": {"ios": "https://dc.lft.to/lastmile_qr_scan", "android": "https://dc.lft.to/lastmile_qr_scan"}, "lon": -77.04638733333333, "type": "electric_scooter"}, {"bike_id": "63d2add3130fdab66a1ed03285863c6e", "is_reserved": 0, "fusion_lon": 0.0, "lat": 38.90684483333333, "is_disabled": 0, "name": "63d2add3130fdab66a1ed03285863c6e", "fusion_lat": 0.0, "rental_uris": {"ios": "https://dc.lft.to/lastmile_qr_scan", "android": "https://dc.lft.to/lastmile_qr_scan"}, "lon": -77.00048, "type": "electric_scooter"}, {"bike_id": "98313ab65abde3e034c61ff50a87b071", "is_reserved": 0, "fusion_lon": 0.0, "lat": 38.92456766666667, "is_disabled": 0, "name": "98313ab65abde3e034c61ff50a87b071", "fusion_lat": 0.0, "rental_uris": {"ios": "https://dc.lft.to/lastmile_qr_scan", "android": "https://dc.lft.to/lastmile_qr_scan"}, "lon": -76.99910816666667, "type": "electric_scooter"}, {"bike_id": "151993ded54f7a21685f042c82a07d63", "is_reserved": 0, "fusion_lon": 0.0, "lat": 38.813311166666665, "is_disabled": 0, "name": "151993ded54f7a21685f042c82a07d63", "fusion_lat": 0.0, "rental_uris": {"ios": "https://dc.lft.to/lastmile_qr_scan", "android": "https://dc.lft.to/lastmile_qr_scan"}, "lon": -77.051062, "type": "electric_bike"}, {"bike_id": "b6b95c504eb384a7c12a82b08ee8d0b2", "is_reserved": 0, "fusion_lon": 0.0, "lat": 38.89472716666667, "is_disabled": 0, "name": "b6b95c504eb384a7c12a82b08ee8d0b2", "fusion_lat": 0.0, "rental_uris": {"ios": "https://dc.lft.to/lastmile_qr_scan", "android": "https://dc.lft.to/lastmile_qr_scan"}, "lon": -76.99538, "type": "electric_scooter"}, {"bike_id": "394027d0dbebf52596ae1a4850b65289", "is_reserved": 0, "fusion_lon": 0.0, "lat": 38.90522883333333, "is_disabled": 0, "name": "394027d0dbebf52596ae1a4850b65289", "fusion_lat": 0.0, "rental_uris": {"ios": "https://dc.lft.to/lastmile_qr_scan", "android": "https://dc.lft.to/lastmile_qr_scan"}, "lon": -77.0653095, "type": "electric_scooter"}, {"bike_id": "bacdabb708739345ee08c8b31d14d652", "is_reserved": 0, "fusion_lon": 0.0, "lat": 38.88412916666667, "is_disabled": 0, "name": "bacdabb708739345ee08c8b31d14d652", "fusion_lat": 0.0, "rental_uris": {"ios": "https://dc.lft.to/lastmile_qr_scan", "android": "https://dc.lft.to/lastmile_qr_scan"}, "lon": -77.01749166666667, "type": "electric_scooter"}, {"bike_id": "65139fe2e4015e47806a32a4de624884", "is_reserved": 0, "fusion_lon": 0.0, "lat": 38.897758333333336, "is_disabled": 0, "name": "65139fe2e4015e47806a32a4de624884", "fusion_lat": 0.0, "rental_uris": {"ios": "https://dc.lft.to/lastmile_qr_scan", "android": "https://dc.lft.to/lastmile_qr_scan"}, "lon": -77.03170816666666, "type": "electric_scooter"}, {"bike_id": "f0fd5f15d190e2bcbcac020ec111cd87", "is_reserved": 0, "fusion_lon": 0.0, "lat": 38.900188166666666, "is_disabled": 0, "name": "f0fd5f15d190e2bcbcac020ec111cd87", "fusion_lat": 0.0, "rental_uris": {"ios": "https://dc.lft.to/lastmile_qr_scan", "android": "https://dc.lft.to/lastmile_qr_scan"}, "lon": -77.03017366666667, "type": "electric_scooter"}, {"bike_id": "dee08eadd5080baa6f220ef364417132", "is_reserved": 0, "fusion_lon": 0.0, "lat": 38.9173735, "is_disabled": 0, "name": "dee08eadd5080baa6f220ef364417132", "fusion_lat": 0.0, "rental_uris": {"ios": "https://dc.lft.to/lastmile_qr_scan", "android": "https://dc.lft.to/lastmile_qr_scan"}, "lon": -77.02115733333333, "type": "electric_scooter"}, {"bike_id": "ea2f0a0b0a6ded67b06fb10e8ae68189", "is_reserved": 0, "fusion_lon": 0.0, "lat": 38.9418005, "is_disabled": 0, "name": "ea2f0a0b0a6ded67b06fb10e8ae68189", "fusion_lat": 0.0, "rental_uris": {"ios": "https://dc.lft.to/lastmile_qr_scan", "android": "https://dc.lft.to/lastmile_qr_scan"}, "lon": -77.02536166666667, "type": "electric_scooter"}, {"bike_id": "3fd44fb75d0f0ae0d86e144173e78f66", "is_reserved": 0, "fusion_lon": 0.0, "lat": 38.9308585, "is_disabled": 0, "name": "3fd44fb75d0f0ae0d86e144173e78f66", "fusion_lat": 0.0, "rental_uris": {"ios": "https://dc.lft.to/lastmile_qr_scan", "android": "https://dc.lft.to/lastmile_qr_scan"}, "lon": -77.02797183333334, "type": "electric_scooter"}, {"bike_id": "d1ed6fe387d1843cf4a27a7aa2e67a61", "is_reserved": 0, "fusion_lon": 0.0, "lat": 38.923577, "is_disabled": 0, "name": "d1ed6fe387d1843cf4a27a7aa2e67a61", "fusion_lat": 0.0, "rental_uris": {"ios": "https://dc.lft.to/lastmile_qr_scan", "android": "https://dc.lft.to/lastmile_qr_scan"}, "lon": -77.052454, "type": "electric_scooter"}, {"bike_id": "6f398ed82d8900a1ae7b1a2bd2be2898", "is_reserved": 0, "fusion_lon": 0.0, "lat": 38.9246855, "is_disabled": 0, "name": "6f398ed82d8900a1ae7b1a2bd2be2898", "fusion_lat": 0.0, "rental_uris": {"ios": "https://dc.lft.to/lastmile_qr_scan", "android": "https://dc.lft.to/lastmile_qr_scan"}, "lon": -77.0283245, "type": "electric_scooter"}, {"bike_id": "09298efa13529c35fd4399b4f610019b", "is_reserved": 0, "fusion_lon": 0.0, "lat": 38.90480633333333, "is_disabled": 0, "name": "09298efa13529c35fd4399b4f610019b", "fusion_lat": 0.0, "rental_uris": {"ios": "https://dc.lft.to/lastmile_qr_scan", "android": "https://dc.lft.to/lastmile_qr_scan"}, "lon": -77.04653433333333, "type": "electric_scooter"}, {"bike_id": "b4f525802bcdc0069e50606814ba212c", "is_reserved": 0, "fusion_lon": 0.0, "lat": 38.934587666666665, "is_disabled": 0, "name": "b4f525802bcdc0069e50606814ba212c", "fusion_lat": 0.0, "rental_uris": {"ios": "https://dc.lft.to/lastmile_qr_scan", "android": "https://dc.lft.to/lastmile_qr_scan"}, "lon": -77.02342116666667, "type": "electric_scooter"}, {"bike_id": "733ee4f9aa7b396268ea6d4f6b1499ca", "is_reserved": 0, "fusion_lon": 0.0, "lat": 38.862898333333334, "is_disabled": 0, "name": "733ee4f9aa7b396268ea6d4f6b1499ca", "fusion_lat": 0.0, "rental_uris": {"ios": "https://dc.lft.to/lastmile_qr_scan", "android": "https://dc.lft.to/lastmile_qr_scan"}, "lon": -76.99235983333334, "type": "electric_scooter"}, {"bike_id": "78119593b2371f6c028239fb86b65dea", "is_reserved": 0, "fusion_lon": 0.0, "lat": 38.917067, "is_disabled": 0, "name": "78119593b2371f6c028239fb86b65dea", "fusion_lat": 0.0, "rental_uris": {"ios": "https://dc.lft.to/lastmile_qr_scan", "android": "https://dc.lft.to/lastmile_qr_scan"}, "lon": -77.02292716666666, "type": "electric_scooter"}, {"bike_id": "7b96f94f8da763343db0b1cf44fef8eb", "is_reserved": 0, "fusion_lon": 0.0, "lat": 38.9565285, "is_disabled": 0, "name": "7b96f94f8da763343db0b1cf44fef8eb", "fusion_lat": 0.0, "rental_uris": {"ios": "https://dc.lft.to/lastmile_qr_scan", "android": "https://dc.lft.to/lastmile_qr_scan"}, "lon": -77.03293516666666, "type": "electric_scooter"}, {"bike_id": "6945de6caab5b6c431c4d371743dc591", "is_reserved": 0, "fusion_lon": 0.0, "lat": 38.8874365, "is_disabled": 0, "name": "6945de6caab5b6c431c4d371743dc591", "fusion_lat": 0.0, "rental_uris": {"ios": "https://dc.lft.to/lastmile_qr_scan", "android": "https://dc.lft.to/lastmile_qr_scan"}, "lon": -77.02264616666666, "type": "electric_bike"}, {"bike_id": "f6a813a3aef006211ad1f8f72e70e1bb", "is_reserved": 0, "fusion_lon": 0.0, "lat": 38.9155015, "is_disabled": 0, "name": "f6a813a3aef006211ad1f8f72e70e1bb", "fusion_lat": 0.0, "rental_uris": {"ios": "https://dc.lft.to/lastmile_qr_scan", "android": "https://dc.lft.to/lastmile_qr_scan"}, "lon": -77.03868366666667, "type": "electric_scooter"}, {"bike_id": "a1adc48d71bd0f93b563cfceebe74d38", "is_reserved": 0, "fusion_lon": 0.0, "lat": 38.92856283333333, "is_disabled": 0, "name": "a1adc48d71bd0f93b563cfceebe74d38", "fusion_lat": 0.0, "rental_uris": {"ios": "https://dc.lft.to/lastmile_qr_scan", "android": "https://dc.lft.to/lastmile_qr_scan"}, "lon": -77.222139, "type": "electric_bike"}, {"bike_id": "59290972a75f80df8b67aa94a05b0b58", "is_reserved": 0, "fusion_lon": 0.0, "lat": 39.0885785, "is_disabled": 0, "name": "59290972a75f80df8b67aa94a05b0b58", "fusion_lat": 0.0, "rental_uris": {"ios": "https://dc.lft.to/lastmile_qr_scan", "android": "https://dc.lft.to/lastmile_qr_scan"}, "lon": -77.178424, "type": "electric_bike"}, {"bike_id": "21fe23df6ad50e5a09dd60598c7f2a94", "is_reserved": 0, "fusion_lon": 0.0, "lat": 38.95746883333333, "is_disabled": 0, "name": "21fe23df6ad50e5a09dd60598c7f2a94", "fusion_lat": 0.0, "rental_uris": {"ios": "https://dc.lft.to/lastmile_qr_scan", "android": "https://dc.lft.to/lastmile_qr_scan"}, "lon": -77.02416683333334, "type": "electric_scooter"}, {"bike_id": "18136712fd923ef22120a074a95a1d47", "is_reserved": 0, "fusion_lon": 0.0, "lat": 38.909353833333334, "is_disabled": 0, "name": "18136712fd923ef22120a074a95a1d47", "fusion_lat": 0.0, "rental_uris": {"ios": "https://dc.lft.to/lastmile_qr_scan", "android": "https://dc.lft.to/lastmile_qr_scan"}, "lon": -77.04869933333333, "type": "electric_scooter"}, {"bike_id": "ce8a273be576a1a6ac61a04307ff8435", "is_reserved": 0, "fusion_lon": 0.0, "lat": 38.924299166666664, "is_disabled": 0, "name": "ce8a273be576a1a6ac61a04307ff8435", "fusion_lat": 0.0, "rental_uris": {"ios": "https://dc.lft.to/lastmile_qr_scan", "android": "https://dc.lft.to/lastmile_qr_scan"}, "lon": -76.9915285, "type": "electric_bike"}, {"bike_id": "d0823add0b1fa9b6b262cb6a4f11d3cf", "is_reserved": 0, "fusion_lon": 0.0, "lat": 38.95336483333333, "is_disabled": 0, "name": "d0823add0b1fa9b6b262cb6a4f11d3cf", "fusion_lat": 0.0, "rental_uris": {"ios": "https://dc.lft.to/lastmile_qr_scan", "android": "https://dc.lft.to/lastmile_qr_scan"}, "lon": -77.009622, "type": "electric_bike"}, {"bike_id": "af19601cc612db4349a8d64cfbc01d39", "is_reserved": 0, "fusion_lon": 0.0, "lat": 38.9066255, "is_disabled": 0, "name": "af19601cc612db4349a8d64cfbc01d39", "fusion_lat": 0.0, "rental_uris": {"ios": "https://dc.lft.to/lastmile_qr_scan", "android": "https://dc.lft.to/lastmile_qr_scan"}, "lon": -77.03815016666667, "type": "electric_scooter"}, {"bike_id": "4cf2c5d2a0795ba4b836d7895b2dbf47", "is_reserved": 0, "fusion_lon": 0.0, "lat": 38.92361916666667, "is_disabled": 0, "name": "4cf2c5d2a0795ba4b836d7895b2dbf47", "fusion_lat": 0.0, "rental_uris": {"ios": "https://dc.lft.to/lastmile_qr_scan", "android": "https://dc.lft.to/lastmile_qr_scan"}, "lon": -77.04384583333334, "type": "electric_scooter"}, {"bike_id": "2911b6d64760fecec59bb45f4abfa0e3", "is_reserved": 0, "fusion_lon": 0.0, "lat": 38.905696, "is_disabled": 0, "name": "2911b6d64760fecec59bb45f4abfa0e3", "fusion_lat": 0.0, "rental_uris": {"ios": "https://dc.lft.to/lastmile_qr_scan", "android": "https://dc.lft.to/lastmile_qr_scan"}, "lon": -77.0217175, "type": "electric_scooter"}, {"bike_id": "17d515c990050811ca07927b64c9b258", "is_reserved": 0, "fusion_lon": 0.0, "lat": 38.90975383333333, "is_disabled": 0, "name": "17d515c990050811ca07927b64c9b258", "fusion_lat": 0.0, "rental_uris": {"ios": "https://dc.lft.to/lastmile_qr_scan", "android": "https://dc.lft.to/lastmile_qr_scan"}, "lon": -77.04876266666666, "type": "electric_scooter"}, {"bike_id": "b365b986b4d47ec90f52fe3c14e41d45", "is_reserved": 0, "fusion_lon": 0.0, "lat": 38.90280466666667, "is_disabled": 0, "name": "b365b986b4d47ec90f52fe3c14e41d45", "fusion_lat": 0.0, "rental_uris": {"ios": "https://dc.lft.to/lastmile_qr_scan", "android": "https://dc.lft.to/lastmile_qr_scan"}, "lon": -77.03859416666667, "type": "electric_scooter"}, {"bike_id": "ba57c364a5b013b5712dbc2df7bf7081", "is_reserved": 0, "fusion_lon": 0.0, "lat": 38.88531116666667, "is_disabled": 0, "name": "ba57c364a5b013b5712dbc2df7bf7081", "fusion_lat": 0.0, "rental_uris": {"ios": "https://dc.lft.to/lastmile_qr_scan", "android": "https://dc.lft.to/lastmile_qr_scan"}, "lon": -77.0058305, "type": "electric_scooter"}, {"bike_id": "fc4aad5a8375cc6f934994072049f7f8", "is_reserved": 0, "fusion_lon": 0.0, "lat": 38.923663166666664, "is_disabled": 0, "name": "fc4aad5a8375cc6f934994072049f7f8", "fusion_lat": 0.0, "rental_uris": {"ios": "https://dc.lft.to/lastmile_qr_scan", "android": "https://dc.lft.to/lastmile_qr_scan"}, "lon": -77.05032483333333, "type": "electric_scooter"}, {"bike_id": "37c91a698c4c3d907c6a7892ab50977f", "is_reserved": 0, "fusion_lon": 0.0, "lat": 38.8666205, "is_disabled": 0, "name": "37c91a698c4c3d907c6a7892ab50977f", "fusion_lat": 0.0, "rental_uris": {"ios": "https://dc.lft.to/lastmile_qr_scan", "android": "https://dc.lft.to/lastmile_qr_scan"}, "lon": -76.98903316666667, "type": "electric_scooter"}, {"bike_id": "0ae9257630b1117c855986b4f8140899", "is_reserved": 0, "fusion_lon": 0.0, "lat": 38.90562116666667, "is_disabled": 0, "name": "0ae9257630b1117c855986b4f8140899", "fusion_lat": 0.0, "rental_uris": {"ios": "https://dc.lft.to/lastmile_qr_scan", "android": "https://dc.lft.to/lastmile_qr_scan"}, "lon": -77.03464216666667, "type": "electric_scooter"}, {"bike_id": "0f17a4f9171830b3046c1128d6500a5c", "is_reserved": 0, "fusion_lon": 0.0, "lat": 38.899125, "is_disabled": 0, "name": "0f17a4f9171830b3046c1128d6500a5c", "fusion_lat": 0.0, "rental_uris": {"ios": "https://dc.lft.to/lastmile_qr_scan", "android": "https://dc.lft.to/lastmile_qr_scan"}, "lon": -77.03910183333333, "type": "electric_scooter"}, {"bike_id": "41688185d6b4ea55b5bc980b4cc49cc4", "is_reserved": 0, "fusion_lon": 0.0, "lat": 38.911178166666666, "is_disabled": 0, "name": "41688185d6b4ea55b5bc980b4cc49cc4", "fusion_lat": 0.0, "rental_uris": {"ios": "https://dc.lft.to/lastmile_qr_scan", "android": "https://dc.lft.to/lastmile_qr_scan"}, "lon": -77.03828883333334, "type": "electric_scooter"}, {"bike_id": "f7440210259e7b10972f9830ecaad680", "is_reserved": 0, "fusion_lon": 0.0, "lat": 38.89715533333333, "is_disabled": 0, "name": "f7440210259e7b10972f9830ecaad680", "fusion_lat": 0.0, "rental_uris": {"ios": "https://dc.lft.to/lastmile_qr_scan", "android": "https://dc.lft.to/lastmile_qr_scan"}, "lon": -77.04310333333333, "type": "electric_scooter"}, {"bike_id": "f2afe02d6407d065391450b76fd6eb2e", "is_reserved": 0, "fusion_lon": 0.0, "lat": 38.933557666666665, "is_disabled": 0, "name": "f2afe02d6407d065391450b76fd6eb2e", "fusion_lat": 0.0, "rental_uris": {"ios": "https://dc.lft.to/lastmile_qr_scan", "android": "https://dc.lft.to/lastmile_qr_scan"}, "lon": -77.06938383333333, "type": "electric_scooter"}, {"bike_id": "50ff8a2366f9d945b004ce9adca241dc", "is_reserved": 0, "fusion_lon": 0.0, "lat": 38.91120883333333, "is_disabled": 0, "name": "50ff8a2366f9d945b004ce9adca241dc", "fusion_lat": 0.0, "rental_uris": {"ios": "https://dc.lft.to/lastmile_qr_scan", "android": "https://dc.lft.to/lastmile_qr_scan"}, "lon": -77.021885, "type": "electric_scooter"}, {"bike_id": "9db6974cda0b2afe317b8b367f8ddfe8", "is_reserved": 0, "fusion_lon": 0.0, "lat": 38.909099499999996, "is_disabled": 0, "name": "9db6974cda0b2afe317b8b367f8ddfe8", "fusion_lat": 0.0, "rental_uris": {"ios": "https://dc.lft.to/lastmile_qr_scan", "android": "https://dc.lft.to/lastmile_qr_scan"}, "lon": -77.03131483333334, "type": "electric_scooter"}, {"bike_id": "56e08907cebc8b7aba68c545064acc2a", "is_reserved": 0, "fusion_lon": 0.0, "lat": 38.90956216666667, "is_disabled": 0, "name": "56e08907cebc8b7aba68c545064acc2a", "fusion_lat": 0.0, "rental_uris": {"ios": "https://dc.lft.to/lastmile_qr_scan", "android": "https://dc.lft.to/lastmile_qr_scan"}, "lon": -77.0199925, "type": "electric_scooter"}, {"bike_id": "df63326105a1d4349ea4a5d94ebf4106", "is_reserved": 0, "fusion_lon": 0.0, "lat": 38.898395, "is_disabled": 0, "name": "df63326105a1d4349ea4a5d94ebf4106", "fusion_lat": 0.0, "rental_uris": {"ios": "https://dc.lft.to/lastmile_qr_scan", "android": "https://dc.lft.to/lastmile_qr_scan"}, "lon": -77.03345083333333, "type": "electric_scooter"}, {"bike_id": "d598445976c38b79da781c089d21188d", "is_reserved": 0, "fusion_lon": 0.0, "lat": 38.9217765, "is_disabled": 0, "name": "d598445976c38b79da781c089d21188d", "fusion_lat": 0.0, "rental_uris": {"ios": "https://dc.lft.to/lastmile_qr_scan", "android": "https://dc.lft.to/lastmile_qr_scan"}, "lon": -77.04282266666667, "type": "electric_scooter"}, {"bike_id": "23ce026452605b675962c2c16d9c1a9c", "is_reserved": 0, "fusion_lon": 0.0, "lat": 38.93482383333333, "is_disabled": 0, "name": "23ce026452605b675962c2c16d9c1a9c", "fusion_lat": 0.0, "rental_uris": {"ios": "https://dc.lft.to/lastmile_qr_scan", "android": "https://dc.lft.to/lastmile_qr_scan"}, "lon": -77.035178, "type": "electric_scooter"}, {"bike_id": "0a6063f87aa8b4059c33a4ab11a2b703", "is_reserved": 0, "fusion_lon": 0.0, "lat": 38.9104305, "is_disabled": 0, "name": "0a6063f87aa8b4059c33a4ab11a2b703", "fusion_lat": 0.0, "rental_uris": {"ios": "https://dc.lft.to/lastmile_qr_scan", "android": "https://dc.lft.to/lastmile_qr_scan"}, "lon": -77.02815933333333, "type": "electric_scooter"}, {"bike_id": "738dba01a51159f16dcabbbb443db706", "is_reserved": 0, "fusion_lon": 0.0, "lat": 38.930993666666666, "is_disabled": 0, "name": "738dba01a51159f16dcabbbb443db706", "fusion_lat": 0.0, "rental_uris": {"ios": "https://dc.lft.to/lastmile_qr_scan", "android": "https://dc.lft.to/lastmile_qr_scan"}, "lon": -77.02394316666667, "type": "electric_scooter"}, {"bike_id": "817aeec8587ce75504ae5728848a250a", "is_reserved": 0, "fusion_lon": 0.0, "lat": 38.9508675, "is_disabled": 0, "name": "817aeec8587ce75504ae5728848a250a", "fusion_lat": 0.0, "rental_uris": {"ios": "https://dc.lft.to/lastmile_qr_scan", "android": "https://dc.lft.to/lastmile_qr_scan"}, "lon": -77.02834716666666, "type": "electric_scooter"}, {"bike_id": "3daf2786a61774600981f23875902525", "is_reserved": 0, "fusion_lon": 0.0, "lat": 38.9156445, "is_disabled": 0, "name": "3daf2786a61774600981f23875902525", "fusion_lat": 0.0, "rental_uris": {"ios": "https://dc.lft.to/lastmile_qr_scan", "android": "https://dc.lft.to/lastmile_qr_scan"}, "lon": -77.03914516666667, "type": "electric_scooter"}, {"bike_id": "0f7158597bc4b39dab50e200f73ffcd3", "is_reserved": 0, "fusion_lon": 0.0, "lat": 38.930635, "is_disabled": 0, "name": "0f7158597bc4b39dab50e200f73ffcd3", "fusion_lat": 0.0, "rental_uris": {"ios": "https://dc.lft.to/lastmile_qr_scan", "android": "https://dc.lft.to/lastmile_qr_scan"}, "lon": -77.02982966666667, "type": "electric_scooter"}, {"bike_id": "718491dda516ef9f07df949a11887963", "is_reserved": 0, "fusion_lon": 0.0, "lat": 38.92191283333333, "is_disabled": 0, "name": "718491dda516ef9f07df949a11887963", "fusion_lat": 0.0, "rental_uris": {"ios": "https://dc.lft.to/lastmile_qr_scan", "android": "https://dc.lft.to/lastmile_qr_scan"}, "lon": -77.042461, "type": "electric_scooter"}, {"bike_id": "f1f4e75007e97031460ad0d57aa7b36b", "is_reserved": 0, "fusion_lon": 0.0, "lat": 38.896491, "is_disabled": 0, "name": "f1f4e75007e97031460ad0d57aa7b36b", "fusion_lat": 0.0, "rental_uris": {"ios": "https://dc.lft.to/lastmile_qr_scan", "android": "https://dc.lft.to/lastmile_qr_scan"}, "lon": -77.04335083333334, "type": "electric_scooter"}, {"bike_id": "3544829cf864aaf27c2a25517f1a66b1", "is_reserved": 0, "fusion_lon": 0.0, "lat": 38.89231783333334, "is_disabled": 0, "name": "3544829cf864aaf27c2a25517f1a66b1", "fusion_lat": 0.0, "rental_uris": {"ios": "https://dc.lft.to/lastmile_qr_scan", "android": "https://dc.lft.to/lastmile_qr_scan"}, "lon": -77.0217785, "type": "electric_scooter"}, {"bike_id": "1a36fd74c73b654a4c212c2ac4d9fe7a", "is_reserved": 0, "fusion_lon": 0.0, "lat": 38.86506633333333, "is_disabled": 0, "name": "1a36fd74c73b654a4c212c2ac4d9fe7a", "fusion_lat": 0.0, "rental_uris": {"ios": "https://dc.lft.to/lastmile_qr_scan", "android": "https://dc.lft.to/lastmile_qr_scan"}, "lon": -76.98978683333333, "type": "electric_scooter"}, {"bike_id": "059f1fd2579c9aabb3e28d8dd6e1444a", "is_reserved": 0, "fusion_lon": 0.0, "lat": 38.92627316666667, "is_disabled": 0, "name": "059f1fd2579c9aabb3e28d8dd6e1444a", "fusion_lat": 0.0, "rental_uris": {"ios": "https://dc.lft.to/lastmile_qr_scan", "android": "https://dc.lft.to/lastmile_qr_scan"}, "lon": -77.03788066666667, "type": "electric_scooter"}, {"bike_id": "b079abf9442817ae149f1bf4f2e4ce91", "is_reserved": 0, "fusion_lon": 0.0, "lat": 38.925823333333334, "is_disabled": 0, "name": "b079abf9442817ae149f1bf4f2e4ce91", "fusion_lat": 0.0, "rental_uris": {"ios": "https://dc.lft.to/lastmile_qr_scan", "android": "https://dc.lft.to/lastmile_qr_scan"}, "lon": -77.004734, "type": "electric_scooter"}, {"bike_id": "472a09ec718be0487cf4327da5043670", "is_reserved": 0, "fusion_lon": 0.0, "lat": 38.935778, "is_disabled": 0, "name": "472a09ec718be0487cf4327da5043670", "fusion_lat": 0.0, "rental_uris": {"ios": "https://dc.lft.to/lastmile_qr_scan", "android": "https://dc.lft.to/lastmile_qr_scan"}, "lon": -77.02767633333333, "type": "electric_scooter"}, {"bike_id": "b20da5bcf6bcda4758779f698822c5c5", "is_reserved": 0, "fusion_lon": 0.0, "lat": 38.893393833333334, "is_disabled": 0, "name": "b20da5bcf6bcda4758779f698822c5c5", "fusion_lat": 0.0, "rental_uris": {"ios": "https://dc.lft.to/lastmile_qr_scan", "android": "https://dc.lft.to/lastmile_qr_scan"}, "lon": -76.984599, "type": "electric_scooter"}, {"bike_id": "8fcfecf9efa4f3b13c5c1b346493518e", "is_reserved": 0, "fusion_lon": 0.0, "lat": 38.885119, "is_disabled": 0, "name": "8fcfecf9efa4f3b13c5c1b346493518e", "fusion_lat": 0.0, "rental_uris": {"ios": "https://dc.lft.to/lastmile_qr_scan", "android": "https://dc.lft.to/lastmile_qr_scan"}, "lon": -77.01545466666667, "type": "electric_scooter"}, {"bike_id": "57442e9e9d91a6f27cef071ac77230e8", "is_reserved": 0, "fusion_lon": 0.0, "lat": 38.8784925, "is_disabled": 0, "name": "57442e9e9d91a6f27cef071ac77230e8", "fusion_lat": 0.0, "rental_uris": {"ios": "https://dc.lft.to/lastmile_qr_scan", "android": "https://dc.lft.to/lastmile_qr_scan"}, "lon": -77.00505, "type": "electric_scooter"}, {"bike_id": "76de0357c5c7d62efb3b47dc432c5456", "is_reserved": 0, "fusion_lon": 0.0, "lat": 38.9133095, "is_disabled": 0, "name": "76de0357c5c7d62efb3b47dc432c5456", "fusion_lat": 0.0, "rental_uris": {"ios": "https://dc.lft.to/lastmile_qr_scan", "android": "https://dc.lft.to/lastmile_qr_scan"}, "lon": -77.04872116666667, "type": "electric_scooter"}, {"bike_id": "e83b07e6d17e88a9dfab6486ed5fca82", "is_reserved": 0, "fusion_lon": 0.0, "lat": 38.902475333333335, "is_disabled": 0, "name": "e83b07e6d17e88a9dfab6486ed5fca82", "fusion_lat": 0.0, "rental_uris": {"ios": "https://dc.lft.to/lastmile_qr_scan", "android": "https://dc.lft.to/lastmile_qr_scan"}, "lon": -77.04581083333333, "type": "electric_bike"}, {"bike_id": "263587b791c3bc7490b5d77142c0b36f", "is_reserved": 0, "fusion_lon": 0.0, "lat": 38.9265635, "is_disabled": 0, "name": "263587b791c3bc7490b5d77142c0b36f", "fusion_lat": 0.0, "rental_uris": {"ios": "https://dc.lft.to/lastmile_qr_scan", "android": "https://dc.lft.to/lastmile_qr_scan"}, "lon": -77.03719166666667, "type": "electric_scooter"}, {"bike_id": "598ade1a58d71924436b83c61fce81ea", "is_reserved": 0, "fusion_lon": 0.0, "lat": 38.927703, "is_disabled": 0, "name": "598ade1a58d71924436b83c61fce81ea", "fusion_lat": 0.0, "rental_uris": {"ios": "https://dc.lft.to/lastmile_qr_scan", "android": "https://dc.lft.to/lastmile_qr_scan"}, "lon": -77.02674933333333, "type": "electric_scooter"}, {"bike_id": "bade3f5ed02a54dc3686d37725b93255", "is_reserved": 0, "fusion_lon": 0.0, "lat": 38.89031283333333, "is_disabled": 0, "name": "bade3f5ed02a54dc3686d37725b93255", "fusion_lat": 0.0, "rental_uris": {"ios": "https://dc.lft.to/lastmile_qr_scan", "android": "https://dc.lft.to/lastmile_qr_scan"}, "lon": -76.93625033333333, "type": "electric_scooter"}, {"bike_id": "94050e0d202d31dc0fb5a31dae7704a3", "is_reserved": 0, "fusion_lon": 0.0, "lat": 38.89879283333333, "is_disabled": 0, "name": "94050e0d202d31dc0fb5a31dae7704a3", "fusion_lat": 0.0, "rental_uris": {"ios": "https://dc.lft.to/lastmile_qr_scan", "android": "https://dc.lft.to/lastmile_qr_scan"}, "lon": -77.03259366666667, "type": "electric_scooter"}, {"bike_id": "4ed3f493e5742131381aad532ec50844", "is_reserved": 0, "fusion_lon": 0.0, "lat": 38.90286366666667, "is_disabled": 0, "name": "4ed3f493e5742131381aad532ec50844", "fusion_lat": 0.0, "rental_uris": {"ios": "https://dc.lft.to/lastmile_qr_scan", "android": "https://dc.lft.to/lastmile_qr_scan"}, "lon": -77.01881716666666, "type": "electric_scooter"}, {"bike_id": "5939ae687890bff35887bb8112a68d40", "is_reserved": 0, "fusion_lon": 0.0, "lat": 38.97092633333333, "is_disabled": 0, "name": "5939ae687890bff35887bb8112a68d40", "fusion_lat": 0.0, "rental_uris": {"ios": "https://dc.lft.to/lastmile_qr_scan", "android": "https://dc.lft.to/lastmile_qr_scan"}, "lon": -77.06967666666667, "type": "electric_bike"}, {"bike_id": "1e2b47f67eda9c9b830456c2cb9049d1", "is_reserved": 0, "fusion_lon": 0.0, "lat": 38.902681666666666, "is_disabled": 0, "name": "1e2b47f67eda9c9b830456c2cb9049d1", "fusion_lat": 0.0, "rental_uris": {"ios": "https://dc.lft.to/lastmile_qr_scan", "android": "https://dc.lft.to/lastmile_qr_scan"}, "lon": -77.03974133333334, "type": "electric_scooter"}, {"bike_id": "9cd835ab79129dd50b056e11bd1019d8", "is_reserved": 0, "fusion_lon": 0.0, "lat": 38.941776, "is_disabled": 0, "name": "9cd835ab79129dd50b056e11bd1019d8", "fusion_lat": 0.0, "rental_uris": {"ios": "https://dc.lft.to/lastmile_qr_scan", "android": "https://dc.lft.to/lastmile_qr_scan"}, "lon": -77.03655033333334, "type": "electric_scooter"}, {"bike_id": "0eb336f19196e7a8fed8537e873143e1", "is_reserved": 0, "fusion_lon": 0.0, "lat": 38.900159, "is_disabled": 0, "name": "0eb336f19196e7a8fed8537e873143e1", "fusion_lat": 0.0, "rental_uris": {"ios": "https://dc.lft.to/lastmile_qr_scan", "android": "https://dc.lft.to/lastmile_qr_scan"}, "lon": -77.0333105, "type": "electric_scooter"}, {"bike_id": "1c5beb858380545b2264e5f87c3af5c1", "is_reserved": 0, "fusion_lon": 0.0, "lat": 38.91333133333333, "is_disabled": 0, "name": "1c5beb858380545b2264e5f87c3af5c1", "fusion_lat": 0.0, "rental_uris": {"ios": "https://dc.lft.to/lastmile_qr_scan", "android": "https://dc.lft.to/lastmile_qr_scan"}, "lon": -77.0481515, "type": "electric_scooter"}, {"bike_id": "9c7b3c0a68d51ffdf0ef8cbb03464574", "is_reserved": 0, "fusion_lon": 0.0, "lat": 38.89857083333333, "is_disabled": 0, "name": "9c7b3c0a68d51ffdf0ef8cbb03464574", "fusion_lat": 0.0, "rental_uris": {"ios": "https://dc.lft.to/lastmile_qr_scan", "android": "https://dc.lft.to/lastmile_qr_scan"}, "lon": -77.03202433333334, "type": "electric_scooter"}, {"bike_id": "434956f141a8cd304cd78e57467d827a", "is_reserved": 0, "fusion_lon": 0.0, "lat": 38.879209833333334, "is_disabled": 0, "name": "434956f141a8cd304cd78e57467d827a", "fusion_lat": 0.0, "rental_uris": {"ios": "https://dc.lft.to/lastmile_qr_scan", "android": "https://dc.lft.to/lastmile_qr_scan"}, "lon": -76.99248033333333, "type": "electric_scooter"}, {"bike_id": "956124da58c0b136fc6006ab19e8e24d", "is_reserved": 0, "fusion_lon": 0.0, "lat": 38.919801, "is_disabled": 0, "name": "956124da58c0b136fc6006ab19e8e24d", "fusion_lat": 0.0, "rental_uris": {"ios": "https://dc.lft.to/lastmile_qr_scan", "android": "https://dc.lft.to/lastmile_qr_scan"}, "lon": -77.0444675, "type": "electric_scooter"}, {"bike_id": "1862008005d900ef0834d62af3ddc3a3", "is_reserved": 0, "fusion_lon": 0.0, "lat": 38.87551333333333, "is_disabled": 0, "name": "1862008005d900ef0834d62af3ddc3a3", "fusion_lat": 0.0, "rental_uris": {"ios": "https://dc.lft.to/lastmile_qr_scan", "android": "https://dc.lft.to/lastmile_qr_scan"}, "lon": -76.96492566666667, "type": "electric_scooter"}, {"bike_id": "22701644425cafb5540324b4a9dde28f", "is_reserved": 0, "fusion_lon": 0.0, "lat": 38.91034883333333, "is_disabled": 0, "name": "22701644425cafb5540324b4a9dde28f", "fusion_lat": 0.0, "rental_uris": {"ios": "https://dc.lft.to/lastmile_qr_scan", "android": "https://dc.lft.to/lastmile_qr_scan"}, "lon": -77.04389366666666, "type": "electric_scooter"}, {"bike_id": "7e10740dc364b7d827cefbf17deca7c4", "is_reserved": 0, "fusion_lon": 0.0, "lat": 38.895252166666666, "is_disabled": 0, "name": "7e10740dc364b7d827cefbf17deca7c4", "fusion_lat": 0.0, "rental_uris": {"ios": "https://dc.lft.to/lastmile_qr_scan", "android": "https://dc.lft.to/lastmile_qr_scan"}, "lon": -77.048601, "type": "electric_scooter"}, {"bike_id": "c4235c8ef1d131d3ff8596013c5a556b", "is_reserved": 0, "fusion_lon": 0.0, "lat": 38.88864383333333, "is_disabled": 0, "name": "c4235c8ef1d131d3ff8596013c5a556b", "fusion_lat": 0.0, "rental_uris": {"ios": "https://dc.lft.to/lastmile_qr_scan", "android": "https://dc.lft.to/lastmile_qr_scan"}, "lon": -76.99486566666667, "type": "electric_bike"}, {"bike_id": "39d5de4d95939c0487564885592659f5", "is_reserved": 0, "fusion_lon": 0.0, "lat": 38.86201416666667, "is_disabled": 0, "name": "39d5de4d95939c0487564885592659f5", "fusion_lat": 0.0, "rental_uris": {"ios": "https://dc.lft.to/lastmile_qr_scan", "android": "https://dc.lft.to/lastmile_qr_scan"}, "lon": -76.994624, "type": "electric_scooter"}, {"bike_id": "2bae663417deac810594cdd502da78d0", "is_reserved": 0, "fusion_lon": 0.0, "lat": 38.899577, "is_disabled": 0, "name": "2bae663417deac810594cdd502da78d0", "fusion_lat": 0.0, "rental_uris": {"ios": "https://dc.lft.to/lastmile_qr_scan", "android": "https://dc.lft.to/lastmile_qr_scan"}, "lon": -76.9755455, "type": "electric_scooter"}, {"bike_id": "4848e227bdd6c9c717b32e1eeee29e3c", "is_reserved": 0, "fusion_lon": 0.0, "lat": 38.89999266666667, "is_disabled": 0, "name": "4848e227bdd6c9c717b32e1eeee29e3c", "fusion_lat": 0.0, "rental_uris": {"ios": "https://dc.lft.to/lastmile_qr_scan", "android": "https://dc.lft.to/lastmile_qr_scan"}, "lon": -77.05237216666667, "type": "electric_scooter"}, {"bike_id": "bfc0df9edaeec21fb14c9bf6917a70a0", "is_reserved": 0, "fusion_lon": 0.0, "lat": 38.91094066666667, "is_disabled": 0, "name": "bfc0df9edaeec21fb14c9bf6917a70a0", "fusion_lat": 0.0, "rental_uris": {"ios": "https://dc.lft.to/lastmile_qr_scan", "android": "https://dc.lft.to/lastmile_qr_scan"}, "lon": -77.04835133333333, "type": "electric_scooter"}, {"bike_id": "9b6b6e0dd4101f848791189dbad6632c", "is_reserved": 0, "fusion_lon": 0.0, "lat": 38.900288833333335, "is_disabled": 0, "name": "9b6b6e0dd4101f848791189dbad6632c", "fusion_lat": 0.0, "rental_uris": {"ios": "https://dc.lft.to/lastmile_qr_scan", "android": "https://dc.lft.to/lastmile_qr_scan"}, "lon": -76.9954135, "type": "electric_scooter"}, {"bike_id": "37da5fbbd89b32935cebe226c01208af", "is_reserved": 0, "fusion_lon": 0.0, "lat": 38.8922435, "is_disabled": 0, "name": "37da5fbbd89b32935cebe226c01208af", "fusion_lat": 0.0, "rental_uris": {"ios": "https://dc.lft.to/lastmile_qr_scan", "android": "https://dc.lft.to/lastmile_qr_scan"}, "lon": -77.0437, "type": "electric_scooter"}, {"bike_id": "c02af44c77a4ec16217bdbc2dc6dcd85", "is_reserved": 0, "fusion_lon": 0.0, "lat": 38.89483366666666, "is_disabled": 0, "name": "c02af44c77a4ec16217bdbc2dc6dcd85", "fusion_lat": 0.0, "rental_uris": {"ios": "https://dc.lft.to/lastmile_qr_scan", "android": "https://dc.lft.to/lastmile_qr_scan"}, "lon": -76.94873533333333, "type": "electric_scooter"}, {"bike_id": "6407c6ce22d58ebe38096ef20fe5731e", "is_reserved": 0, "fusion_lon": 0.0, "lat": 38.898307833333334, "is_disabled": 0, "name": "6407c6ce22d58ebe38096ef20fe5731e", "fusion_lat": 0.0, "rental_uris": {"ios": "https://dc.lft.to/lastmile_qr_scan", "android": "https://dc.lft.to/lastmile_qr_scan"}, "lon": -76.98046183333334, "type": "electric_scooter"}, {"bike_id": "ff8ce1a8eab34147d661c5b69a41cb3c", "is_reserved": 0, "fusion_lon": 0.0, "lat": 38.88120966666666, "is_disabled": 0, "name": "ff8ce1a8eab34147d661c5b69a41cb3c", "fusion_lat": 0.0, "rental_uris": {"ios": "https://dc.lft.to/lastmile_qr_scan", "android": "https://dc.lft.to/lastmile_qr_scan"}, "lon": -77.01686266666667, "type": "electric_bike"}, {"bike_id": "6b70334343b8e38b8270f0e5d7dd63ef", "is_reserved": 0, "fusion_lon": 0.0, "lat": 38.906695, "is_disabled": 0, "name": "6b70334343b8e38b8270f0e5d7dd63ef", "fusion_lat": 0.0, "rental_uris": {"ios": "https://dc.lft.to/lastmile_qr_scan", "android": "https://dc.lft.to/lastmile_qr_scan"}, "lon": -76.98788866666666, "type": "electric_scooter"}, {"bike_id": "4d05535e9d25b9ebe9ebb11b1a74e519", "is_reserved": 0, "fusion_lon": 0.0, "lat": 38.90249983333333, "is_disabled": 0, "name": "4d05535e9d25b9ebe9ebb11b1a74e519", "fusion_lat": 0.0, "rental_uris": {"ios": "https://dc.lft.to/lastmile_qr_scan", "android": "https://dc.lft.to/lastmile_qr_scan"}, "lon": -77.03268016666667, "type": "electric_scooter"}, {"bike_id": "5187d64a305cf5aef3f56cb0dff70738", "is_reserved": 0, "fusion_lon": 0.0, "lat": 38.958911666666665, "is_disabled": 0, "name": "5187d64a305cf5aef3f56cb0dff70738", "fusion_lat": 0.0, "rental_uris": {"ios": "https://dc.lft.to/lastmile_qr_scan", "android": "https://dc.lft.to/lastmile_qr_scan"}, "lon": -76.924837, "type": "electric_bike"}, {"bike_id": "d4ffbe8640c89b5f4f8404276f3e3c79", "is_reserved": 0, "fusion_lon": 0.0, "lat": 38.9257105, "is_disabled": 0, "name": "d4ffbe8640c89b5f4f8404276f3e3c79", "fusion_lat": 0.0, "rental_uris": {"ios": "https://dc.lft.to/lastmile_qr_scan", "android": "https://dc.lft.to/lastmile_qr_scan"}, "lon": -77.03106516666666, "type": "electric_scooter"}, {"bike_id": "36cfdfc160a24de2d129c200e332ec7b", "is_reserved": 0, "fusion_lon": 0.0, "lat": 38.918382, "is_disabled": 0, "name": "36cfdfc160a24de2d129c200e332ec7b", "fusion_lat": 0.0, "rental_uris": {"ios": "https://dc.lft.to/lastmile_qr_scan", "android": "https://dc.lft.to/lastmile_qr_scan"}, "lon": -77.02296816666667, "type": "electric_scooter"}, {"bike_id": "0360defdd3201b57411ab2476a248acb", "is_reserved": 0, "fusion_lon": 0.0, "lat": 38.918937, "is_disabled": 0, "name": "0360defdd3201b57411ab2476a248acb", "fusion_lat": 0.0, "rental_uris": {"ios": "https://dc.lft.to/lastmile_qr_scan", "android": "https://dc.lft.to/lastmile_qr_scan"}, "lon": -77.0320495, "type": "electric_scooter"}, {"bike_id": "35eedc1aa2da34a1368df66e64d16f3b", "is_reserved": 0, "fusion_lon": 0.0, "lat": 38.90299366666667, "is_disabled": 0, "name": "35eedc1aa2da34a1368df66e64d16f3b", "fusion_lat": 0.0, "rental_uris": {"ios": "https://dc.lft.to/lastmile_qr_scan", "android": "https://dc.lft.to/lastmile_qr_scan"}, "lon": -76.99857816666666, "type": "electric_scooter"}, {"bike_id": "181cb38fec6e2bc8aa7f2c3b0514eda8", "is_reserved": 0, "fusion_lon": 0.0, "lat": 38.89833, "is_disabled": 0, "name": "181cb38fec6e2bc8aa7f2c3b0514eda8", "fusion_lat": 0.0, "rental_uris": {"ios": "https://dc.lft.to/lastmile_qr_scan", "android": "https://dc.lft.to/lastmile_qr_scan"}, "lon": -77.03343466666666, "type": "electric_scooter"}, {"bike_id": "bdea9699c5c04d6ce54bf1b9d5c5152b", "is_reserved": 0, "fusion_lon": 0.0, "lat": 38.9047105, "is_disabled": 0, "name": "bdea9699c5c04d6ce54bf1b9d5c5152b", "fusion_lat": 0.0, "rental_uris": {"ios": "https://dc.lft.to/lastmile_qr_scan", "android": "https://dc.lft.to/lastmile_qr_scan"}, "lon": -77.0486545, "type": "electric_scooter"}, {"bike_id": "fe7504f8b62f377071b164cf818bdb4f", "is_reserved": 0, "fusion_lon": 0.0, "lat": 38.922639333333336, "is_disabled": 0, "name": "fe7504f8b62f377071b164cf818bdb4f", "fusion_lat": 0.0, "rental_uris": {"ios": "https://dc.lft.to/lastmile_qr_scan", "android": "https://dc.lft.to/lastmile_qr_scan"}, "lon": -77.01827716666666, "type": "electric_scooter"}, {"bike_id": "4047990764cd24c59e238678b9553a81", "is_reserved": 0, "fusion_lon": 0.0, "lat": 38.91932416666667, "is_disabled": 0, "name": "4047990764cd24c59e238678b9553a81", "fusion_lat": 0.0, "rental_uris": {"ios": "https://dc.lft.to/lastmile_qr_scan", "android": "https://dc.lft.to/lastmile_qr_scan"}, "lon": -77.03182283333334, "type": "electric_scooter"}, {"bike_id": "afa6457dac626f5efd82ef99608d3d8d", "is_reserved": 0, "fusion_lon": 0.0, "lat": 38.84295683333333, "is_disabled": 0, "name": "afa6457dac626f5efd82ef99608d3d8d", "fusion_lat": 0.0, "rental_uris": {"ios": "https://dc.lft.to/lastmile_qr_scan", "android": "https://dc.lft.to/lastmile_qr_scan"}, "lon": -76.99951183333333, "type": "electric_scooter"}, {"bike_id": "470d02a12eefb82fe041ce12c46f12f3", "is_reserved": 0, "fusion_lon": 0.0, "lat": 38.878333833333336, "is_disabled": 0, "name": "470d02a12eefb82fe041ce12c46f12f3", "fusion_lat": 0.0, "rental_uris": {"ios": "https://dc.lft.to/lastmile_qr_scan", "android": "https://dc.lft.to/lastmile_qr_scan"}, "lon": -76.9904085, "type": "electric_scooter"}, {"bike_id": "2d1e5d996923535bba80666eecd50341", "is_reserved": 0, "fusion_lon": 0.0, "lat": 38.94177066666666, "is_disabled": 0, "name": "2d1e5d996923535bba80666eecd50341", "fusion_lat": 0.0, "rental_uris": {"ios": "https://dc.lft.to/lastmile_qr_scan", "android": "https://dc.lft.to/lastmile_qr_scan"}, "lon": -77.02504033333334, "type": "electric_scooter"}, {"bike_id": "0cc750ca82d159c7faa32de48fcb34f0", "is_reserved": 0, "fusion_lon": 0.0, "lat": 38.905789666666664, "is_disabled": 0, "name": "0cc750ca82d159c7faa32de48fcb34f0", "fusion_lat": 0.0, "rental_uris": {"ios": "https://dc.lft.to/lastmile_qr_scan", "android": "https://dc.lft.to/lastmile_qr_scan"}, "lon": -77.02208016666667, "type": "electric_scooter"}, {"bike_id": "eef55e51ffee6be27ed7b31551220176", "is_reserved": 0, "fusion_lon": 0.0, "lat": 38.907758333333334, "is_disabled": 0, "name": "eef55e51ffee6be27ed7b31551220176", "fusion_lat": 0.0, "rental_uris": {"ios": "https://dc.lft.to/lastmile_qr_scan", "android": "https://dc.lft.to/lastmile_qr_scan"}, "lon": -77.06930216666666, "type": "electric_scooter"}, {"bike_id": "4fba685c5ccb33e21f861bade3a4f3d0", "is_reserved": 0, "fusion_lon": 0.0, "lat": 38.876284, "is_disabled": 0, "name": "4fba685c5ccb33e21f861bade3a4f3d0", "fusion_lat": 0.0, "rental_uris": {"ios": "https://dc.lft.to/lastmile_qr_scan", "android": "https://dc.lft.to/lastmile_qr_scan"}, "lon": -76.96526116666666, "type": "electric_scooter"}, {"bike_id": "54bb38c37dd2cb7246da29d34d3fa1dc", "is_reserved": 0, "fusion_lon": 0.0, "lat": 38.90444566666667, "is_disabled": 0, "name": "54bb38c37dd2cb7246da29d34d3fa1dc", "fusion_lat": 0.0, "rental_uris": {"ios": "https://dc.lft.to/lastmile_qr_scan", "android": "https://dc.lft.to/lastmile_qr_scan"}, "lon": -76.996225, "type": "electric_scooter"}, {"bike_id": "c39c1d57ab9f78f1193b4c1125460e2e", "is_reserved": 0, "fusion_lon": 0.0, "lat": 38.916308, "is_disabled": 0, "name": "c39c1d57ab9f78f1193b4c1125460e2e", "fusion_lat": 0.0, "rental_uris": {"ios": "https://dc.lft.to/lastmile_qr_scan", "android": "https://dc.lft.to/lastmile_qr_scan"}, "lon": -77.0317075, "type": "electric_scooter"}, {"bike_id": "c3db58b120b468a222c2891df672c9b0", "is_reserved": 0, "fusion_lon": 0.0, "lat": 38.9177285, "is_disabled": 0, "name": "c3db58b120b468a222c2891df672c9b0", "fusion_lat": 0.0, "rental_uris": {"ios": "https://dc.lft.to/lastmile_qr_scan", "android": "https://dc.lft.to/lastmile_qr_scan"}, "lon": -77.04057766666666, "type": "electric_scooter"}, {"bike_id": "0c9aea0c31a9c538daf61f969ff7b5b1", "is_reserved": 0, "fusion_lon": 0.0, "lat": 38.84293916666667, "is_disabled": 0, "name": "0c9aea0c31a9c538daf61f969ff7b5b1", "fusion_lat": 0.0, "rental_uris": {"ios": "https://dc.lft.to/lastmile_qr_scan", "android": "https://dc.lft.to/lastmile_qr_scan"}, "lon": -76.99950266666667, "type": "electric_scooter"}, {"bike_id": "23a23b6e4cfa9e0220b70c6e906287ea", "is_reserved": 0, "fusion_lon": 0.0, "lat": 38.9367635, "is_disabled": 0, "name": "23a23b6e4cfa9e0220b70c6e906287ea", "fusion_lat": 0.0, "rental_uris": {"ios": "https://dc.lft.to/lastmile_qr_scan", "android": "https://dc.lft.to/lastmile_qr_scan"}, "lon": -77.03594316666667, "type": "electric_scooter"}, {"bike_id": "2454cc360026e05f84837d92c33bf368", "is_reserved": 0, "fusion_lon": 0.0, "lat": 38.92406016666666, "is_disabled": 0, "name": "2454cc360026e05f84837d92c33bf368", "fusion_lat": 0.0, "rental_uris": {"ios": "https://dc.lft.to/lastmile_qr_scan", "android": "https://dc.lft.to/lastmile_qr_scan"}, "lon": -76.99724666666667, "type": "electric_bike"}, {"bike_id": "bebf0769c65865868f786add20e54619", "is_reserved": 0, "fusion_lon": 0.0, "lat": 38.9033555, "is_disabled": 0, "name": "bebf0769c65865868f786add20e54619", "fusion_lat": 0.0, "rental_uris": {"ios": "https://dc.lft.to/lastmile_qr_scan", "android": "https://dc.lft.to/lastmile_qr_scan"}, "lon": -77.065991, "type": "electric_scooter"}, {"bike_id": "2c30e4d007f65012cad49cb68ba586df", "is_reserved": 0, "fusion_lon": 0.0, "lat": 38.89838316666667, "is_disabled": 0, "name": "2c30e4d007f65012cad49cb68ba586df", "fusion_lat": 0.0, "rental_uris": {"ios": "https://dc.lft.to/lastmile_qr_scan", "android": "https://dc.lft.to/lastmile_qr_scan"}, "lon": -77.00756083333333, "type": "electric_scooter"}, {"bike_id": "dbbc7db4c9c23822bdda2e3a25cb3622", "is_reserved": 0, "fusion_lon": 0.0, "lat": 38.9138515, "is_disabled": 0, "name": "dbbc7db4c9c23822bdda2e3a25cb3622", "fusion_lat": 0.0, "rental_uris": {"ios": "https://dc.lft.to/lastmile_qr_scan", "android": "https://dc.lft.to/lastmile_qr_scan"}, "lon": -77.01796416666667, "type": "electric_scooter"}, {"bike_id": "fb4a1bb999b69837bc366ca1a3ec726e", "is_reserved": 0, "fusion_lon": 0.0, "lat": 38.914045333333334, "is_disabled": 0, "name": "fb4a1bb999b69837bc366ca1a3ec726e", "fusion_lat": 0.0, "rental_uris": {"ios": "https://dc.lft.to/lastmile_qr_scan", "android": "https://dc.lft.to/lastmile_qr_scan"}, "lon": -77.04144716666667, "type": "electric_scooter"}, {"bike_id": "4465672462b59715da9e91fed1fd54ce", "is_reserved": 0, "fusion_lon": 0.0, "lat": 38.9086685, "is_disabled": 0, "name": "4465672462b59715da9e91fed1fd54ce", "fusion_lat": 0.0, "rental_uris": {"ios": "https://dc.lft.to/lastmile_qr_scan", "android": "https://dc.lft.to/lastmile_qr_scan"}, "lon": -77.00632683333333, "type": "electric_scooter"}, {"bike_id": "2b9d3c89e8b36f5f16d5166c9aa1d03d", "is_reserved": 0, "fusion_lon": 0.0, "lat": 38.918100333333335, "is_disabled": 0, "name": "2b9d3c89e8b36f5f16d5166c9aa1d03d", "fusion_lat": 0.0, "rental_uris": {"ios": "https://dc.lft.to/lastmile_qr_scan", "android": "https://dc.lft.to/lastmile_qr_scan"}, "lon": -77.034435, "type": "electric_scooter"}, {"bike_id": "3a95733c7126b4aa4e2866a84f7c07df", "is_reserved": 0, "fusion_lon": 0.0, "lat": 38.91148783333333, "is_disabled": 0, "name": "3a95733c7126b4aa4e2866a84f7c07df", "fusion_lat": 0.0, "rental_uris": {"ios": "https://dc.lft.to/lastmile_qr_scan", "android": "https://dc.lft.to/lastmile_qr_scan"}, "lon": -77.04181183333333, "type": "electric_scooter"}, {"bike_id": "a5a4c8acaaf7804faf9f343bbf1c5b56", "is_reserved": 0, "fusion_lon": 0.0, "lat": 38.91572933333333, "is_disabled": 0, "name": "a5a4c8acaaf7804faf9f343bbf1c5b56", "fusion_lat": 0.0, "rental_uris": {"ios": "https://dc.lft.to/lastmile_qr_scan", "android": "https://dc.lft.to/lastmile_qr_scan"}, "lon": -77.0384565, "type": "electric_scooter"}, {"bike_id": "a4c25774966fac0a6a181bf658390539", "is_reserved": 0, "fusion_lon": 0.0, "lat": 38.915941, "is_disabled": 0, "name": "a4c25774966fac0a6a181bf658390539", "fusion_lat": 0.0, "rental_uris": {"ios": "https://dc.lft.to/lastmile_qr_scan", "android": "https://dc.lft.to/lastmile_qr_scan"}, "lon": -77.0447735, "type": "electric_scooter"}, {"bike_id": "e131e92b875ac078d4b6fcbcb0130064", "is_reserved": 0, "fusion_lon": 0.0, "lat": 38.902387166666664, "is_disabled": 0, "name": "e131e92b875ac078d4b6fcbcb0130064", "fusion_lat": 0.0, "rental_uris": {"ios": "https://dc.lft.to/lastmile_qr_scan", "android": "https://dc.lft.to/lastmile_qr_scan"}, "lon": -77.04427583333333, "type": "electric_scooter"}, {"bike_id": "4c1be368079def5bf22cac8bfa6fb55b", "is_reserved": 0, "fusion_lon": 0.0, "lat": 38.90962733333333, "is_disabled": 0, "name": "4c1be368079def5bf22cac8bfa6fb55b", "fusion_lat": 0.0, "rental_uris": {"ios": "https://dc.lft.to/lastmile_qr_scan", "android": "https://dc.lft.to/lastmile_qr_scan"}, "lon": -77.0316415, "type": "electric_scooter"}, {"bike_id": "b3e9afd94192c097d7534dce11afc71e", "is_reserved": 0, "fusion_lon": 0.0, "lat": 38.87978366666667, "is_disabled": 0, "name": "b3e9afd94192c097d7534dce11afc71e", "fusion_lat": 0.0, "rental_uris": {"ios": "https://dc.lft.to/lastmile_qr_scan", "android": "https://dc.lft.to/lastmile_qr_scan"}, "lon": -76.915992, "type": "electric_bike"}, {"bike_id": "54f189fad290fb2de0cb534c5228a680", "is_reserved": 0, "fusion_lon": 0.0, "lat": 38.90570116666667, "is_disabled": 0, "name": "54f189fad290fb2de0cb534c5228a680", "fusion_lat": 0.0, "rental_uris": {"ios": "https://dc.lft.to/lastmile_qr_scan", "android": "https://dc.lft.to/lastmile_qr_scan"}, "lon": -77.03839416666666, "type": "electric_scooter"}, {"bike_id": "52edefaae83941012c0d07b2d088f27a", "is_reserved": 0, "fusion_lon": 0.0, "lat": 38.92677966666667, "is_disabled": 0, "name": "52edefaae83941012c0d07b2d088f27a", "fusion_lat": 0.0, "rental_uris": {"ios": "https://dc.lft.to/lastmile_qr_scan", "android": "https://dc.lft.to/lastmile_qr_scan"}, "lon": -77.0955275, "type": "electric_scooter"}, {"bike_id": "94d1d2ef1b6ccfda8b7b6c80d841c214", "is_reserved": 0, "fusion_lon": 0.0, "lat": 38.905733833333336, "is_disabled": 0, "name": "94d1d2ef1b6ccfda8b7b6c80d841c214", "fusion_lat": 0.0, "rental_uris": {"ios": "https://dc.lft.to/lastmile_qr_scan", "android": "https://dc.lft.to/lastmile_qr_scan"}, "lon": -77.02202233333334, "type": "electric_scooter"}, {"bike_id": "defb94a4372ba6108f1ece21395d4fdf", "is_reserved": 0, "fusion_lon": 0.0, "lat": 38.936069333333336, "is_disabled": 0, "name": "defb94a4372ba6108f1ece21395d4fdf", "fusion_lat": 0.0, "rental_uris": {"ios": "https://dc.lft.to/lastmile_qr_scan", "android": "https://dc.lft.to/lastmile_qr_scan"}, "lon": -77.05591516666667, "type": "electric_scooter"}, {"bike_id": "0ba3ca9091eea61c35f06c28db649aaa", "is_reserved": 0, "fusion_lon": 0.0, "lat": 38.901544666666666, "is_disabled": 0, "name": "0ba3ca9091eea61c35f06c28db649aaa", "fusion_lat": 0.0, "rental_uris": {"ios": "https://dc.lft.to/lastmile_qr_scan", "android": "https://dc.lft.to/lastmile_qr_scan"}, "lon": -76.930684, "type": "electric_scooter"}, {"bike_id": "65100a3dda8a9eaaa30e33fe5551dc55", "is_reserved": 0, "fusion_lon": 0.0, "lat": 38.940653, "is_disabled": 0, "name": "65100a3dda8a9eaaa30e33fe5551dc55", "fusion_lat": 0.0, "rental_uris": {"ios": "https://dc.lft.to/lastmile_qr_scan", "android": "https://dc.lft.to/lastmile_qr_scan"}, "lon": -76.99462566666666, "type": "electric_scooter"}, {"bike_id": "edf302bb23cad6492c283d7c0d0e359a", "is_reserved": 0, "fusion_lon": 0.0, "lat": 38.91866316666667, "is_disabled": 0, "name": "edf302bb23cad6492c283d7c0d0e359a", "fusion_lat": 0.0, "rental_uris": {"ios": "https://dc.lft.to/lastmile_qr_scan", "android": "https://dc.lft.to/lastmile_qr_scan"}, "lon": -77.043807, "type": "electric_scooter"}, {"bike_id": "21d0cf6f33f70e81ce2ed9d4212d38c2", "is_reserved": 0, "fusion_lon": 0.0, "lat": 38.9224095, "is_disabled": 0, "name": "21d0cf6f33f70e81ce2ed9d4212d38c2", "fusion_lat": 0.0, "rental_uris": {"ios": "https://dc.lft.to/lastmile_qr_scan", "android": "https://dc.lft.to/lastmile_qr_scan"}, "lon": -77.03346966666666, "type": "electric_scooter"}, {"bike_id": "8e5fa14c8ba2b1dab96e28e784fda5c2", "is_reserved": 0, "fusion_lon": 0.0, "lat": 38.914178, "is_disabled": 0, "name": "8e5fa14c8ba2b1dab96e28e784fda5c2", "fusion_lat": 0.0, "rental_uris": {"ios": "https://dc.lft.to/lastmile_qr_scan", "android": "https://dc.lft.to/lastmile_qr_scan"}, "lon": -77.03908466666667, "type": "electric_scooter"}, {"bike_id": "36103a04ab57a8bd731e953b8ce7233d", "is_reserved": 0, "fusion_lon": 0.0, "lat": 38.892222833333335, "is_disabled": 0, "name": "36103a04ab57a8bd731e953b8ce7233d", "fusion_lat": 0.0, "rental_uris": {"ios": "https://dc.lft.to/lastmile_qr_scan", "android": "https://dc.lft.to/lastmile_qr_scan"}, "lon": -77.03983083333334, "type": "electric_scooter"}, {"bike_id": "6a57ca365a4a69bfa24cc22f177603b6", "is_reserved": 0, "fusion_lon": 0.0, "lat": 38.954777, "is_disabled": 0, "name": "6a57ca365a4a69bfa24cc22f177603b6", "fusion_lat": 0.0, "rental_uris": {"ios": "https://dc.lft.to/lastmile_qr_scan", "android": "https://dc.lft.to/lastmile_qr_scan"}, "lon": -77.08242, "type": "electric_bike"}, {"bike_id": "7d35ab37fc8cf8c549501491d0bbdb4c", "is_reserved": 0, "fusion_lon": 0.0, "lat": 38.89756333333333, "is_disabled": 0, "name": "7d35ab37fc8cf8c549501491d0bbdb4c", "fusion_lat": 0.0, "rental_uris": {"ios": "https://dc.lft.to/lastmile_qr_scan", "android": "https://dc.lft.to/lastmile_qr_scan"}, "lon": -76.94190583333334, "type": "electric_scooter"}, {"bike_id": "93b458a8d61bb0fd45ee4841d5a21cde", "is_reserved": 0, "fusion_lon": 0.0, "lat": 38.90448683333334, "is_disabled": 0, "name": "93b458a8d61bb0fd45ee4841d5a21cde", "fusion_lat": 0.0, "rental_uris": {"ios": "https://dc.lft.to/lastmile_qr_scan", "android": "https://dc.lft.to/lastmile_qr_scan"}, "lon": -77.04870616666666, "type": "electric_scooter"}, {"bike_id": "504d09342688a3b185d5333228ec0786", "is_reserved": 0, "fusion_lon": 0.0, "lat": 38.92089566666667, "is_disabled": 0, "name": "504d09342688a3b185d5333228ec0786", "fusion_lat": 0.0, "rental_uris": {"ios": "https://dc.lft.to/lastmile_qr_scan", "android": "https://dc.lft.to/lastmile_qr_scan"}, "lon": -77.0259635, "type": "electric_scooter"}, {"bike_id": "8232028775af84c41b2c2494c207d611", "is_reserved": 0, "fusion_lon": 0.0, "lat": 38.931490833333335, "is_disabled": 0, "name": "8232028775af84c41b2c2494c207d611", "fusion_lat": 0.0, "rental_uris": {"ios": "https://dc.lft.to/lastmile_qr_scan", "android": "https://dc.lft.to/lastmile_qr_scan"}, "lon": -77.038345, "type": "electric_scooter"}, {"bike_id": "52a7c07c4b1b71fc1ac06f9958fec0da", "is_reserved": 0, "fusion_lon": 0.0, "lat": 38.9259265, "is_disabled": 0, "name": "52a7c07c4b1b71fc1ac06f9958fec0da", "fusion_lat": 0.0, "rental_uris": {"ios": "https://dc.lft.to/lastmile_qr_scan", "android": "https://dc.lft.to/lastmile_qr_scan"}, "lon": -77.00559883333334, "type": "electric_scooter"}, {"bike_id": "1e84496374dce1a3e04f5ec239cb9729", "is_reserved": 0, "fusion_lon": 0.0, "lat": 38.8843245, "is_disabled": 0, "name": "1e84496374dce1a3e04f5ec239cb9729", "fusion_lat": 0.0, "rental_uris": {"ios": "https://dc.lft.to/lastmile_qr_scan", "android": "https://dc.lft.to/lastmile_qr_scan"}, "lon": -76.9575345, "type": "electric_scooter"}, {"bike_id": "fd78c93acc205e926df8584bcbd97e26", "is_reserved": 0, "fusion_lon": 0.0, "lat": 38.899079666666665, "is_disabled": 0, "name": "fd78c93acc205e926df8584bcbd97e26", "fusion_lat": 0.0, "rental_uris": {"ios": "https://dc.lft.to/lastmile_qr_scan", "android": "https://dc.lft.to/lastmile_qr_scan"}, "lon": -76.93350283333334, "type": "electric_scooter"},