{"data": {"bikes": [{"lat": 38.90274216666667, "is_disabled": 0, "type": "electric_scooter", "lon": -77.01788183333333, "bike_id": "670999e978b4a0c52203bf6ff4053fbc", "fusion_lat": 0.0, "name": "670999e978b4a0c52203bf6ff4053fbc", "is_reserved": 0, "rental_uris": {"android": "https://dc.lft.to/lastmile_qr_scan", "ios": "https://dc.lft.to/lastmile_qr_scan"}, "fusion_lon": 0.0}, {"lat": 38.943082833333335, "is_disabled": 0, "type": "electric_scooter", "lon": -77.05930083333334, "bike_id": "78d4973e75cd974446b4617a7a63b042", "fusion_lat": 0.0, "name": "78d4973e75cd974446b4617a7a63b042", "is_reserved": 0, "rental_uris": {"android": "https://dc.lft.to/lastmile_qr_scan", "ios": "https://dc.lft.to/lastmile_qr_scan"}, "fusion_lon": 0.0}, {"lat": 38.91108283333333, "is_disabled": 0, "type": "electric_scooter", "lon": -77.02334833333333, "bike_id": "daa65d3fac117ac8bc340fc1fa0b5e1b", "fusion_lat": 0.0, "name": "daa65d3fac117ac8bc340fc1fa0b5e1b", "is_reserved": 0, "rental_uris": {"android": "https://dc.lft.to/lastmile_qr_scan", "ios": "https://dc.lft.to/lastmile_qr_scan"}, "fusion_lon": 0.0}, {"lat": 38.90815283333333, "is_disabled": 0, "type": "electric_scooter", "lon": -77.04322666666667, "bike_id": "bba5360deaf21bc0a4c711a08e0ffe06", "fusion_lat": 0.0, "name": "bba5360deaf21bc0a4c711a08e0ffe06", "is_reserved": 0, "rental_uris": {"android": "https://dc.lft.to/lastmile_qr_scan", "ios": "https://dc.lft.to/lastmile_qr_scan"}, "fusion_lon": 0.0}, {"lat": 38.90280766666667, "is_disabled": 0, "type": "electric_bike", "lon": -77.06348083333333, "bike_id": "499462c75ad05e463d01e9bbe551b37d", "fusion_lat": 0.0, "name": "499462c75ad05e463d01e9bbe551b37d", "is_reserved": 0, "rental_uris": {"android": "https://dc.lft.to/lastmile_qr_scan", "ios": "https://dc.lft.to/lastmile_qr_scan"}, "fusion_lon": 0.0}, {"lat": 38.86378233333333, "is_disabled": 0, "type": "electric_scooter", "lon": -76.99256433333333, "bike_id": "0cc737b57f4496ae24c0c9637e31292e", "fusion_lat": 0.0, "name": "0cc737b57f4496ae24c0c9637e31292e", "is_reserved": 0, "rental_uris": {"android": "https://dc.lft.to/lastmile_qr_scan", "ios": "https://dc.lft.to/lastmile_qr_scan"}, "fusion_lon": 0.0}, {"lat": 38.91826833333333, "is_disabled": 0, "type": "electric_scooter", "lon": -77.02421366666667, "bike_id": "5ebe2be29ae455c877cd24d568fd2af9", "fusion_lat": 0.0, "name": "5ebe2be29ae455c877cd24d568fd2af9", "is_reserved": 0, "rental_uris": {"android": "https://dc.lft.to/lastmile_qr_scan", "ios": "https://dc.lft.to/lastmile_qr_scan"}, "fusion_lon": 0.0}, {"lat": 38.9235695, "is_disabled": 0, "type": "electric_scooter", "lon": -77.04390166666667, "bike_id": "7999c20b8b213da0e5a981c622d19ddc", "fusion_lat": 0.0, "name": "7999c20b8b213da0e5a981c622d19ddc", "is_reserved": 0, "rental_uris": {"android": "https://dc.lft.to/lastmile_qr_scan", "ios": "https://dc.lft.to/lastmile_qr_scan"}, "fusion_lon": 0.0}, {"lat": 38.909747333333335, "is_disabled": 0, "type": "electric_scooter", "lon": -77.03815283333333, "bike_id": "ecf31bef16c0e939123502db710c41e0", "fusion_lat": 0.0, "name": "ecf31bef16c0e939123502db710c41e0", "is_reserved": 0, "rental_uris": {"android": "https://dc.lft.to/lastmile_qr_scan", "ios": "https://dc.lft.to/lastmile_qr_scan"}, "fusion_lon": 0.0}, {"lat": 38.978345, "is_disabled": 0, "type": "electric_bike", "lon": -77.02647633333333, "bike_id": "8bff59c7170dfae2930f6ae0dd530d87", "fusion_lat": 0.0, "name": "8bff59c7170dfae2930f6ae0dd530d87", "is_reserved": 0, "rental_uris": {"android": "https://dc.lft.to/lastmile_qr_scan", "ios": "https://dc.lft.to/lastmile_qr_scan"}, "fusion_lon": 0.0}, {"lat": 38.85451483333333, "is_disabled": 0, "type": "electric_scooter", "lon": -76.97229066666667, "bike_id": "f987394cbc9c548e751d6c59ef0c94f2", "fusion_lat": 0.0, "name": "f987394cbc9c548e751d6c59ef0c94f2", "is_reserved": 0, "rental_uris": {"android": "https://dc.lft.to/lastmile_qr_scan", "ios": "https://dc.lft.to/lastmile_qr_scan"}, "fusion_lon": 0.0}, {"lat": 38.9135585, "is_disabled": 0, "type": "electric_scooter", "lon": -77.03206383333334, "bike_id": "a6621aa329239ee1aee1b265cb10ee52", "fusion_lat": 0.0, "name": "a6621aa329239ee1aee1b265cb10ee52", "is_reserved": 0, "rental_uris": {"android": "https://dc.lft.to/lastmile_qr_scan", "ios": "https://dc.lft.to/lastmile_qr_scan"}, "fusion_lon": 0.0}, {"lat": 38.916683166666665, "is_disabled": 0, "type": "electric_scooter", "lon": -77.0218895, "bike_id": "e14b0403b7847f66cd46d1b1d3c81415", "fusion_lat": 0.0, "name": "e14b0403b7847f66cd46d1b1d3c81415", "is_reserved": 0, "rental_uris": {"android": "https://dc.lft.to/lastmile_qr_scan", "ios": "https://dc.lft.to/lastmile_qr_scan"}, "fusion_lon": 0.0}, {"lat": 38.89550083333334, "is_disabled": 0, "type": "electric_scooter", "lon": -77.004402, "bike_id": "ad5e556fe206374ad78a05a3354dcb0f", "fusion_lat": 0.0, "name": "ad5e556fe206374ad78a05a3354dcb0f", "is_reserved": 0, "rental_uris": {"android": "https://dc.lft.to/lastmile_qr_scan", "ios": "https://dc.lft.to/lastmile_qr_scan"}, "fusion_lon": 0.0}, {"lat": 38.93531433333333, "is_disabled": 0, "type": "electric_scooter", "lon": -77.02345866666667, "bike_id": "e76df6185ac42106649b9b906a0538b5", "fusion_lat": 0.0, "name": "e76df6185ac42106649b9b906a0538b5", "is_reserved": 0, "rental_uris": {"android": "https://dc.lft.to/lastmile_qr_scan", "ios": "https://dc.lft.to/lastmile_qr_scan"}, "fusion_lon": 0.0}, {"lat": 38.90142066666667, "is_disabled": 0, "type": "electric_scooter", "lon": -77.04304516666667, "bike_id": "0c4ce10146a73f2075e6dfd2780d1ab1", "fusion_lat": 0.0, "name": "0c4ce10146a73f2075e6dfd2780d1ab1", "is_reserved": 0, "rental_uris": {"android": "https://dc.lft.to/lastmile_qr_scan", "ios": "https://dc.lft.to/lastmile_qr_scan"}, "fusion_lon": 0.0}, {"lat": 38.93689833333333, "is_disabled": 0, "type": "electric_bike", "lon": -77.05648866666667, "bike_id": "060ba5760fd61c0652d6b8af3903ad18", "fusion_lat": 0.0, "name": "060ba5760fd61c0652d6b8af3903ad18", "is_reserved": 0, "rental_uris": {"android": "https://dc.lft.to/lastmile_qr_scan", "ios": "https://dc.lft.to/lastmile_qr_scan"}, "fusion_lon": 0.0}, {"lat": 38.9181205, "is_disabled": 0, "type": "electric_scooter", "lon": -77.04163666666666, "bike_id": "c3e030677ad3d8411683c1edee5cfcb6", "fusion_lat": 0.0, "name": "c3e030677ad3d8411683c1edee5cfcb6", "is_reserved": 0, "rental_uris": {"android": "https://dc.lft.to/lastmile_qr_scan", "ios": "https://dc.lft.to/lastmile_qr_scan"}, "fusion_lon": 0.0}, {"lat": 38.92933266666667, "is_disabled": 0, "type": "electric_scooter", "lon": -77.03755866666667, "bike_id": "0205ece98f30cafbb8172d5a3862a5e1", "fusion_lat": 0.0, "name": "0205ece98f30cafbb8172d5a3862a5e1", "is_reserved": 0, "rental_uris": {"android": "https://dc.lft.to/lastmile_qr_scan", "ios": "https://dc.lft.to/lastmile_qr_scan"}, "fusion_lon": 0.0}, {"lat": 38.89974516666667, "is_disabled": 0, "type": "electric_scooter", "lon": -77.02070883333333, "bike_id": "9114256b4924fe03fa0a589a95032732", "fusion_lat": 0.0, "name": "9114256b4924fe03fa0a589a95032732", "is_reserved": 0, "rental_uris": {"android": "https://dc.lft.to/lastmile_qr_scan", "ios": "https://dc.lft.to/lastmile_qr_scan"}, "fusion_lon": 0.0}, {"lat": 38.91770783333333, "is_disabled": 0, "type": "electric_scooter", "lon": -77.018796, "bike_id": "133cbd725cbe4d017e3629f5929a609c", "fusion_lat": 0.0, "name": "133cbd725cbe4d017e3629f5929a609c", "is_reserved": 0, "rental_uris": {"android": "https://dc.lft.to/lastmile_qr_scan", "ios": "https://dc.lft.to/lastmile_qr_scan"}, "fusion_lon": 0.0}, {"lat": 38.91734366666667, "is_disabled": 0, "type": "electric_scooter", "lon": -77.03665916666667, "bike_id": "89cfefb899d9a143b9e9cee26bc24c60", "fusion_lat": 0.0, "name": "89cfefb899d9a143b9e9cee26bc24c60", "is_reserved": 0, "rental_uris": {"android": "https://dc.lft.to/lastmile_qr_scan", "ios": "https://dc.lft.to/lastmile_qr_scan"}, "fusion_lon": 0.0}, {"lat": 38.934839833333335, "is_disabled": 0, "type": "electric_scooter", "lon": -77.07267866666666, "bike_id": "7226adb6f39e65f87e9ae342f8e946e7", "fusion_lat": 0.0, "name": "7226adb6f39e65f87e9ae342f8e946e7", "is_reserved": 0, "rental_uris": {"android": "https://dc.lft.to/lastmile_qr_scan", "ios": "https://dc.lft.to/lastmile_qr_scan"}, "fusion_lon": 0.0}, {"lat": 38.83734583333333, "is_disabled": 0, "type": "electric_bike", "lon": -76.99767083333333, "bike_id": "fd9579ae2d5291aa8908cad3e4c325ce", "fusion_lat": 0.0, "name": "fd9579ae2d5291aa8908cad3e4c325ce", "is_reserved": 0, "rental_uris": {"android": "https://dc.lft.to/lastmile_qr_scan", "ios": "https://dc.lft.to/lastmile_qr_scan"}, "fusion_lon": 0.0}, {"lat": 38.905130166666666, "is_disabled": 0, "type": "electric_scooter", "lon": -77.02209666666667, "bike_id": "f07a1ab7b8a1baf74c8098e2457961d6", "fusion_lat": 0.0, "name": "f07a1ab7b8a1baf74c8098e2457961d6", "is_reserved": 0, "rental_uris": {"android": "https://dc.lft.to/lastmile_qr_scan", "ios": "https://dc.lft.to/lastmile_qr_scan"}, "fusion_lon": 0.0}, {"lat": 38.8567955, "is_disabled": 0, "type": "electric_scooter", "lon": -76.9817645, "bike_id": "0eba52f570cd90a937badd04fad0911b", "fusion_lat": 0.0, "name": "0eba52f570cd90a937badd04fad0911b", "is_reserved": 0, "rental_uris": {"android": "https://dc.lft.to/lastmile_qr_scan", "ios": "https://dc.lft.to/lastmile_qr_scan"}, "fusion_lon": 0.0}, {"lat": 38.865110333333334, "is_disabled": 0, "type": "electric_scooter", "lon": -76.99008083333334, "bike_id": "692b2865fe6573773045cbb7fab4a1f7", "fusion_lat": 0.0, "name": "692b2865fe6573773045cbb7fab4a1f7", "is_reserved": 0, "rental_uris": {"android": "https://dc.lft.to/lastmile_qr_scan", "ios": "https://dc.lft.to/lastmile_qr_scan"}, "fusion_lon": 0.0}, {"lat": 38.916708666666665, "is_disabled": 0, "type": "electric_scooter", "lon": -77.0228895, "bike_id": "fddfc6703762b5c55e49b43fa82f8aa1", "fusion_lat": 0.0, "name": "fddfc6703762b5c55e49b43fa82f8aa1", "is_reserved": 0, "rental_uris": {"android": "https://dc.lft.to/lastmile_qr_scan", "ios": "https://dc.lft.to/lastmile_qr_scan"}, "fusion_lon": 0.0}, {"lat": 38.8945675, "is_disabled": 0, "type": "electric_scooter", "lon": -76.9781045, "bike_id": "ded4c0282d953da82c018ccd99473df5", "fusion_lat": 0.0, "name": "ded4c0282d953da82c018ccd99473df5", "is_reserved": 0, "rental_uris": {"android": "https://dc.lft.to/lastmile_qr_scan", "ios": "https://dc.lft.to/lastmile_qr_scan"}, "fusion_lon": 0.0}, {"lat": 38.982801333333335, "is_disabled": 0, "type": "electric_bike", "lon": -77.01773066666667, "bike_id": "90ede5b0bd2d584b2c18aeebc94fdb91", "fusion_lat": 0.0, "name": "90ede5b0bd2d584b2c18aeebc94fdb91", "is_reserved": 0, "rental_uris": {"android": "https://dc.lft.to/lastmile_qr_scan", "ios": "https://dc.lft.to/lastmile_qr_scan"}, "fusion_lon": 0.0}, {"lat": 38.985128, "is_disabled": 0, "type": "electric_bike", "lon": -76.98198016666667, "bike_id": "5ecf0babb58a2c93c8a7530e2afc0d89", "fusion_lat": 0.0, "name": "5ecf0babb58a2c93c8a7530e2afc0d89", "is_reserved": 0, "rental_uris": {"android": "https://dc.lft.to/lastmile_qr_scan", "ios": "https://dc.lft.to/lastmile_qr_scan"}, "fusion_lon": 0.0}, {"lat": 38.90271966666667, "is_disabled": 0, "type": "electric_scooter", "lon": -77.026366, "bike_id": "9ec6bc06a29109dd8faea6e04d530b00", "fusion_lat": 0.0, "name": "9ec6bc06a29109dd8faea6e04d530b00", "is_reserved": 0, "rental_uris": {"android": "https://dc.lft.to/lastmile_qr_scan", "ios": "https://dc.lft.to/lastmile_qr_scan"}, "fusion_lon": 0.0}, {"lat": 38.9281895, "is_disabled": 0, "type": "electric_scooter", "lon": -77.01392716666666, "bike_id": "4eb590db738e236988d418f98569058d", "fusion_lat": 0.0, "name": "4eb590db738e236988d418f98569058d", "is_reserved": 0, "rental_uris": {"android": "https://dc.lft.to/lastmile_qr_scan", "ios": "https://dc.lft.to/lastmile_qr_scan"}, "fusion_lon": 0.0}, {"lat": 38.80576583333333, "is_disabled": 0, "type": "electric_bike", "lon": -77.06861416666666, "bike_id": "b4a0177ef4d93475655e6be57d6f20be", "fusion_lat": 0.0, "name": "b4a0177ef4d93475655e6be57d6f20be", "is_reserved": 0, "rental_uris": {"android": "https://dc.lft.to/lastmile_qr_scan", "ios": "https://dc.lft.to/lastmile_qr_scan"}, "fusion_lon": 0.0}, {"lat": 38.90732216666667, "is_disabled": 0, "type": "electric_bike", "lon": -77.0401355, "bike_id": "10f4bb95606d995525129cbfb12bcba2", "fusion_lat": 0.0, "name": "10f4bb95606d995525129cbfb12bcba2", "is_reserved": 0, "rental_uris": {"android": "https://dc.lft.to/lastmile_qr_scan", "ios": "https://dc.lft.to/lastmile_qr_scan"}, "fusion_lon": 0.0}, {"lat": 38.917252166666664, "is_disabled": 0, "type": "electric_scooter", "lon": -77.0319305, "bike_id": "3ae6c6fcf56a43c00d0b3ad1cc90cc75", "fusion_lat": 0.0, "name": "3ae6c6fcf56a43c00d0b3ad1cc90cc75", "is_reserved": 0, "rental_uris": {"android": "https://dc.lft.to/lastmile_qr_scan", "ios": "https://dc.lft.to/lastmile_qr_scan"}, "fusion_lon": 0.0}, {"lat": 38.909576, "is_disabled": 0, "type": "electric_scooter", "lon": -77.03466933333333, "bike_id": "dac5b4b6cf9ac409a605c826ab216513", "fusion_lat": 0.0, "name": "dac5b4b6cf9ac409a605c826ab216513", "is_reserved": 0, "rental_uris": {"android": "https://dc.lft.to/lastmile_qr_scan", "ios": "https://dc.lft.to/lastmile_qr_scan"}, "fusion_lon": 0.0}, {"lat": 38.909622166666665, "is_disabled": 0, "type": "electric_scooter", "lon": -77.03835833333333, "bike_id": "61c173eb2847e9db5022629308803fc3", "fusion_lat": 0.0, "name": "61c173eb2847e9db5022629308803fc3", "is_reserved": 0, "rental_uris": {"android": "https://dc.lft.to/lastmile_qr_scan", "ios": "https://dc.lft.to/lastmile_qr_scan"}, "fusion_lon": 0.0}, {"lat": 38.89222766666666, "is_disabled": 0, "type": "electric_scooter", "lon": -77.02211833333334, "bike_id": "69d8b66b73a908a408f1d697667746fe", "fusion_lat": 0.0, "name": "69d8b66b73a908a408f1d697667746fe", "is_reserved": 0, "rental_uris": {"android": "https://dc.lft.to/lastmile_qr_scan", "ios": "https://dc.lft.to/lastmile_qr_scan"}, "fusion_lon": 0.0}, {"lat": 38.90114916666667, "is_disabled": 0, "type": "electric_bike", "lon": -77.04880533333333, "bike_id": "a2599b81cb37ab84de98f035b3be43f1", "fusion_lat": 0.0, "name": "a2599b81cb37ab84de98f035b3be43f1", "is_reserved": 0, "rental_uris": {"android": "https://dc.lft.to/lastmile_qr_scan", "ios": "https://dc.lft.to/lastmile_qr_scan"}, "fusion_lon": 0.0}, {"lat": 38.919890333333335, "is_disabled": 0, "type": "electric_scooter", "lon": -77.0253515, "bike_id": "584fbe4911e54902c91b9019d4edcd61", "fusion_lat": 0.0, "name": "584fbe4911e54902c91b9019d4edcd61", "is_reserved": 0, "rental_uris": {"android": "https://dc.lft.to/lastmile_qr_scan", "ios": "https://dc.lft.to/lastmile_qr_scan"}, "fusion_lon": 0.0}, {"lat": 38.922918333333335, "is_disabled": 0, "type": "electric_scooter", "lon": -77.03654933333334, "bike_id": "246bca1e39c8aad69f4b72baa14f176a", "fusion_lat": 0.0, "name": "246bca1e39c8aad69f4b72baa14f176a", "is_reserved": 0, "rental_uris": {"android": "https://dc.lft.to/lastmile_qr_scan", "ios": "https://dc.lft.to/lastmile_qr_scan"}, "fusion_lon": 0.0}, {"lat": 38.89248883333333, "is_disabled": 0, "type": "electric_scooter", "lon": -77.03960133333334, "bike_id": "6b11365c29ad998a70ec9dd6826d3b29", "fusion_lat": 0.0, "name": "6b11365c29ad998a70ec9dd6826d3b29", "is_reserved": 0, "rental_uris": {"android": "https://dc.lft.to/lastmile_qr_scan", "ios": "https://dc.lft.to/lastmile_qr_scan"}, "fusion_lon": 0.0}, {"lat": 38.89921833333333, "is_disabled": 0, "type": "electric_scooter", "lon": -77.040432, "bike_id": "17217675ef5fa74c151a7c12b53c9692", "fusion_lat": 0.0, "name": "17217675ef5fa74c151a7c12b53c9692", "is_reserved": 0, "rental_uris": {"android": "https://dc.lft.to/lastmile_qr_scan", "ios": "https://dc.lft.to/lastmile_qr_scan"}, "fusion_lon": 0.0}, {"lat": 38.89866716666667, "is_disabled": 0, "type": "electric_scooter", "lon": -77.02008416666666, "bike_id": "d56e05991ec3b2a72ee6da13302efde7", "fusion_lat": 0.0, "name": "d56e05991ec3b2a72ee6da13302efde7", "is_reserved": 0, "rental_uris": {"android": "https://dc.lft.to/lastmile_qr_scan", "ios": "https://dc.lft.to/lastmile_qr_scan"}, "fusion_lon": 0.0}, {"lat": 38.91652216666667, "is_disabled": 0, "type": "electric_scooter", "lon": -77.02276016666667, "bike_id": "7ada1bb0f28ab753587c299bdbfe1f00", "fusion_lat": 0.0, "name": "7ada1bb0f28ab753587c299bdbfe1f00", "is_reserved": 0, "rental_uris": {"android": "https://dc.lft.to/lastmile_qr_scan", "ios": "https://dc.lft.to/lastmile_qr_scan"}, "fusion_lon": 0.0}, {"lat": 38.95064583333333, "is_disabled": 0, "type": "electric_bike", "lon": -77.00725983333334, "bike_id": "fd839b3cf939d440b3e7ca172aeadb18", "fusion_lat": 0.0, "name": "fd839b3cf939d440b3e7ca172aeadb18", "is_reserved": 0, "rental_uris": {"android": "https://dc.lft.to/lastmile_qr_scan", "ios": "https://dc.lft.to/lastmile_qr_scan"}, "fusion_lon": 0.0}, {"lat": 38.94079716666667, "is_disabled": 0, "type": "electric_scooter", "lon": -77.02389933333333, "bike_id": "2ec0f721bd7f402ec81ede918be3c4a5", "fusion_lat": 0.0, "name": "2ec0f721bd7f402ec81ede918be3c4a5", "is_reserved": 0, "rental_uris": {"android": "https://dc.lft.to/lastmile_qr_scan", "ios": "https://dc.lft.to/lastmile_qr_scan"}, "fusion_lon": 0.0}, {"lat": 38.89224083333333, "is_disabled": 0, "type": "electric_scooter", "lon": -77.0485875, "bike_id": "5204163b1c02a258e4fc59a3ab258025", "fusion_lat": 0.0, "name": "5204163b1c02a258e4fc59a3ab258025", "is_reserved": 0, "rental_uris": {"android": "https://dc.lft.to/lastmile_qr_scan", "ios": "https://dc.lft.to/lastmile_qr_scan"}, "fusion_lon": 0.0}, {"lat": 38.90792916666667, "is_disabled": 0, "type": "electric_scooter", "lon": -77.03996683333334, "bike_id": "9386f554b1a4b1c44ca8a99f80e23b4d", "fusion_lat": 0.0, "name": "9386f554b1a4b1c44ca8a99f80e23b4d", "is_reserved": 0, "rental_uris": {"android": "https://dc.lft.to/lastmile_qr_scan", "ios": "https://dc.lft.to/lastmile_qr_scan"}, "fusion_lon": 0.0}, {"lat": 38.899119666666664, "is_disabled": 0, "type": "electric_scooter", "lon": -76.933524, "bike_id": "0654e0f4e05f14c0928bbcb66c7ae190", "fusion_lat": 0.0, "name": "0654e0f4e05f14c0928bbcb66c7ae190", "is_reserved": 0, "rental_uris": {"android": "https://dc.lft.to/lastmile_qr_scan", "ios": "https://dc.lft.to/lastmile_qr_scan"}, "fusion_lon": 0.0}, {"lat": 38.9118325, "is_disabled": 0, "type": "electric_scooter", "lon": -77.0433125, "bike_id": "3b2a47c4ede4c405de6d7a1854d3414b", "fusion_lat": 0.0, "name": "3b2a47c4ede4c405de6d7a1854d3414b", "is_reserved": 0, "rental_uris": {"android": "https://dc.lft.to/lastmile_qr_scan", "ios": "https://dc.lft.to/lastmile_qr_scan"}, "fusion_lon": 0.0}, {"lat": 38.909994, "is_disabled": 0, "type": "electric_scooter", "lon": -77.040099, "bike_id": "9bcb0ab0a387d78d6c02ba518b6c8f37", "fusion_lat": 0.0, "name": "9bcb0ab0a387d78d6c02ba518b6c8f37", "is_reserved": 0, "rental_uris": {"android": "https://dc.lft.to/lastmile_qr_scan", "ios": "https://dc.lft.to/lastmile_qr_scan"}, "fusion_lon": 0.0}, {"lat": 38.917026, "is_disabled": 0, "type": "electric_scooter", "lon": -77.03564616666667, "bike_id": "2a97d0ea444ae6d4177819a67f928bc5", "fusion_lat": 0.0, "name": "2a97d0ea444ae6d4177819a67f928bc5", "is_reserved": 0, "rental_uris": {"android": "https://dc.lft.to/lastmile_qr_scan", "ios": "https://dc.lft.to/lastmile_qr_scan"}, "fusion_lon": 0.0}, {"lat": 38.853131166666664, "is_disabled": 0, "type": "electric_bike", "lon": -77.13120933333333, "bike_id": "4cac3add6db466fbef57af8fd442faa0", "fusion_lat": 0.0, "name": "4cac3add6db466fbef57af8fd442faa0", "is_reserved": 0, "rental_uris": {"android": "https://dc.lft.to/lastmile_qr_scan", "ios": "https://dc.lft.to/lastmile_qr_scan"}, "fusion_lon": 0.0}, {"lat": 38.9079365, "is_disabled": 0, "type": "electric_scooter", "lon": -77.04340733333333, "bike_id": "8cc6f98370f89bf48d5ec9ddd4532e26", "fusion_lat": 0.0, "name": "8cc6f98370f89bf48d5ec9ddd4532e26", "is_reserved": 0, "rental_uris": {"android": "https://dc.lft.to/lastmile_qr_scan", "ios": "https://dc.lft.to/lastmile_qr_scan"}, "fusion_lon": 0.0}, {"lat": 38.93127066666667, "is_disabled": 0, "type": "electric_scooter", "lon": -77.0340055, "bike_id": "45644824c98ae1aeb7c6e0b00d9c21ee", "fusion_lat": 0.0, "name": "45644824c98ae1aeb7c6e0b00d9c21ee", "is_reserved": 0, "rental_uris": {"android": "https://dc.lft.to/lastmile_qr_scan", "ios": "https://dc.lft.to/lastmile_qr_scan"}, "fusion_lon": 0.0}, {"lat": 38.9588665, "is_disabled": 0, "type": "electric_bike", "lon": -76.924847, "bike_id": "710e2703a1a062ecce7ede52d63e5043", "fusion_lat": 0.0, "name": "710e2703a1a062ecce7ede52d63e5043", "is_reserved": 0, "rental_uris": {"android": "https://dc.lft.to/lastmile_qr_scan", "ios": "https://dc.lft.to/lastmile_qr_scan"}, "fusion_lon": 0.0}, {"lat": 38.929063166666666, "is_disabled": 0, "type": "electric_scooter", "lon": -77.0165665, "bike_id": "12461ece2d833d4ad50fccafdb7de029", "fusion_lat": 0.0, "name": "12461ece2d833d4ad50fccafdb7de029", "is_reserved": 0, "rental_uris": {"android": "https://dc.lft.to/lastmile_qr_scan", "ios": "https://dc.lft.to/lastmile_qr_scan"}, "fusion_lon": 0.0}, {"lat": 38.89220316666667, "is_disabled": 0, "type": "electric_scooter", "lon": -77.02224783333334, "bike_id": "3dff78b7d700c0da8e9b7a9d0753bc7b", "fusion_lat": 0.0, "name": "3dff78b7d700c0da8e9b7a9d0753bc7b", "is_reserved": 0, "rental_uris": {"android": "https://dc.lft.to/lastmile_qr_scan", "ios": "https://dc.lft.to/lastmile_qr_scan"}, "fusion_lon": 0.0}, {"lat": 38.87290766666667, "is_disabled": 0, "type": "electric_scooter", "lon": -77.00985433333334, "bike_id": "d4a392fa5ee04942e3fa97b4e30532b3", "fusion_lat": 0.0, "name": "d4a392fa5ee04942e3fa97b4e30532b3", "is_reserved": 0, "rental_uris": {"android": "https://dc.lft.to/lastmile_qr_scan", "ios": "https://dc.lft.to/lastmile_qr_scan"}, "fusion_lon": 0.0}, {"lat": 38.90556383333333, "is_disabled": 0, "type": "electric_scooter", "lon": -76.9987625, "bike_id": "3df83f9f4132c93f8c28734c77395e85", "fusion_lat": 0.0, "name": "3df83f9f4132c93f8c28734c77395e85", "is_reserved": 0, "rental_uris": {"android": "https://dc.lft.to/lastmile_qr_scan", "ios": "https://dc.lft.to/lastmile_qr_scan"}, "fusion_lon": 0.0}, {"lat": 38.90387166666667, "is_disabled": 0, "type": "electric_scooter", "lon": -77.0426115, "bike_id": "9ae4bf1667e500b5a367384dafb17869", "fusion_lat": 0.0, "name": "9ae4bf1667e500b5a367384dafb17869", "is_reserved": 0, "rental_uris": {"android": "https://dc.lft.to/lastmile_qr_scan", "ios": "https://dc.lft.to/lastmile_qr_scan"}, "fusion_lon": 0.0}, {"lat": 38.86717316666667, "is_disabled": 0, "type": "electric_scooter", "lon": -76.98726983333333, "bike_id": "245467b8eac3325a57276313a8e89800", "fusion_lat": 0.0, "name": "245467b8eac3325a57276313a8e89800", "is_reserved": 0, "rental_uris": {"android": "https://dc.lft.to/lastmile_qr_scan", "ios": "https://dc.lft.to/lastmile_qr_scan"}, "fusion_lon": 0.0}, {"lat": 38.917006666666666, "is_disabled": 0, "type": "electric_scooter", "lon": -77.026622, "bike_id": "ce330756e6b0e0f6a9d4e93d7d93098d", "fusion_lat": 0.0, "name": "ce330756e6b0e0f6a9d4e93d7d93098d", "is_reserved": 0, "rental_uris": {"android": "https://dc.lft.to/lastmile_qr_scan", "ios": "https://dc.lft.to/lastmile_qr_scan"}, "fusion_lon": 0.0}, {"lat": 38.90951316666667, "is_disabled": 0, "type": "electric_scooter", "lon": -77.034449, "bike_id": "08baf106474bcc7f3bb9ec1a968d82b5", "fusion_lat": 0.0, "name": "08baf106474bcc7f3bb9ec1a968d82b5", "is_reserved": 0, "rental_uris": {"android": "https://dc.lft.to/lastmile_qr_scan", "ios": "https://dc.lft.to/lastmile_qr_scan"}, "fusion_lon": 0.0}, {"lat": 38.89220816666667, "is_disabled": 0, "type": "electric_scooter", "lon": -77.02224816666667, "bike_id": "9a534a59d06ff3923139fa51301e7e7b", "fusion_lat": 0.0, "name": "9a534a59d06ff3923139fa51301e7e7b", "is_reserved": 0, "rental_uris": {"android": "https://dc.lft.to/lastmile_qr_scan", "ios": "https://dc.lft.to/lastmile_qr_scan"}, "fusion_lon": 0.0}, {"lat": 38.86509066666667, "is_disabled": 0, "type": "electric_scooter", "lon": -76.99009766666667, "bike_id": "ccd12bef32844e7dff7f4efd3527f4e1", "fusion_lat": 0.0, "name": "ccd12bef32844e7dff7f4efd3527f4e1", "is_reserved": 0, "rental_uris": {"android": "https://dc.lft.to/lastmile_qr_scan", "ios": "https://dc.lft.to/lastmile_qr_scan"}, "fusion_lon": 0.0}, {"lat": 38.863518666666664, "is_disabled": 0, "type": "electric_scooter", "lon": -76.99004633333334, "bike_id": "41263cd5466058047d11f60e6b073cce", "fusion_lat": 0.0, "name": "41263cd5466058047d11f60e6b073cce", "is_reserved": 0, "rental_uris": {"android": "https://dc.lft.to/lastmile_qr_scan", "ios": "https://dc.lft.to/lastmile_qr_scan"}, "fusion_lon": 0.0}, {"lat": 38.92283533333333, "is_disabled": 0, "type": "electric_scooter", "lon": -77.02966783333333, "bike_id": "bf21db6c5a1e3d89932468c4895af4f8", "fusion_lat": 0.0, "name": "bf21db6c5a1e3d89932468c4895af4f8", "is_reserved": 0, "rental_uris": {"android": "https://dc.lft.to/lastmile_qr_scan", "ios": "https://dc.lft.to/lastmile_qr_scan"}, "fusion_lon": 0.0}, {"lat": 38.8988, "is_disabled": 0, "type": "electric_scooter", "lon": -77.05340166666667, "bike_id": "33da23602f8bb4efbbc55f25d420bcbf", "fusion_lat": 0.0, "name": "33da23602f8bb4efbbc55f25d420bcbf", "is_reserved": 0, "rental_uris": {"android": "https://dc.lft.to/lastmile_qr_scan", "ios": "https://dc.lft.to/lastmile_qr_scan"}, "fusion_lon": 0.0}, {"lat": 38.94836983333333, "is_disabled": 0, "type": "electric_bike", "lon": -77.03887966666667, "bike_id": "77219940fddeda6c3369a32aee5b9600", "fusion_lat": 0.0, "name": "77219940fddeda6c3369a32aee5b9600", "is_reserved": 0, "rental_uris": {"android": "https://dc.lft.to/lastmile_qr_scan", "ios": "https://dc.lft.to/lastmile_qr_scan"}, "fusion_lon": 0.0}, {"lat": 38.955592, "is_disabled": 0, "type": "electric_bike", "lon": -76.935496, "bike_id": "c5bbada5245e4e086f43758c9a5b89ff", "fusion_lat": 0.0, "name": "c5bbada5245e4e086f43758c9a5b89ff", "is_reserved": 0, "rental_uris": {"android": "https://dc.lft.to/lastmile_qr_scan", "ios": "https://dc.lft.to/lastmile_qr_scan"}, "fusion_lon": 0.0}, {"lat": 38.90678066666667, "is_disabled": 0, "type": "electric_scooter", "lon": -77.02709583333333, "bike_id": "e0751a5a35d121751f2c1aae8ecf1a19", "fusion_lat": 0.0, "name": "e0751a5a35d121751f2c1aae8ecf1a19", "is_reserved": 0, "rental_uris": {"android": "https://dc.lft.to/lastmile_qr_scan", "ios": "https://dc.lft.to/lastmile_qr_scan"}, "fusion_lon": 0.0}, {"lat": 38.89914183333333, "is_disabled": 0, "type": "electric_scooter", "lon": -76.93379133333333, "bike_id": "36badb587d2d662df4a3d767df81c60e", "fusion_lat": 0.0, "name": "36badb587d2d662df4a3d767df81c60e", "is_reserved": 0, "rental_uris": {"android": "https://dc.lft.to/lastmile_qr_scan", "ios": "https://dc.lft.to/lastmile_qr_scan"}, "fusion_lon": 0.0}, {"lat": 38.935067333333336, "is_disabled": 0, "type": "electric_scooter", "lon": -77.04288933333333, "bike_id": "e638c2c8c491edc1511d3500fb1a4b5e", "fusion_lat": 0.0, "name": "e638c2c8c491edc1511d3500fb1a4b5e", "is_reserved": 0, "rental_uris": {"android": "https://dc.lft.to/lastmile_qr_scan", "ios": "https://dc.lft.to/lastmile_qr_scan"}, "fusion_lon": 0.0}, {"lat": 38.89227983333333, "is_disabled": 0, "type": "electric_bike", "lon": -77.03446383333333, "bike_id": "9c52bf180a0e0e9e57bafd86af089d07", "fusion_lat": 0.0, "name": "9c52bf180a0e0e9e57bafd86af089d07", "is_reserved": 0, "rental_uris": {"android": "https://dc.lft.to/lastmile_qr_scan", "ios": "https://dc.lft.to/lastmile_qr_scan"}, "fusion_lon": 0.0}, {"lat": 38.91614083333333, "is_disabled": 0, "type": "electric_scooter", "lon": -77.023102, "bike_id": "2c85f8cf3cda345440f56baa6cbbd179", "fusion_lat": 0.0, "name": "2c85f8cf3cda345440f56baa6cbbd179", "is_reserved": 0, "rental_uris": {"android": "https://dc.lft.to/lastmile_qr_scan", "ios": "https://dc.lft.to/lastmile_qr_scan"}, "fusion_lon": 0.0}, {"lat": 38.92039533333333, "is_disabled": 0, "type": "electric_scooter", "lon": -77.04184083333334, "bike_id": "07c0f59bb293f74d692883a3c02c2373", "fusion_lat": 0.0, "name": "07c0f59bb293f74d692883a3c02c2373", "is_reserved": 0, "rental_uris": {"android": "https://dc.lft.to/lastmile_qr_scan", "ios": "https://dc.lft.to/lastmile_qr_scan"}, "fusion_lon": 0.0}, {"lat": 38.90637433333333, "is_disabled": 0, "type": "electric_scooter", "lon": -77.033876, "bike_id": "dccc18433a1329df5d9b3bacb9f5d2f2", "fusion_lat": 0.0, "name": "dccc18433a1329df5d9b3bacb9f5d2f2", "is_reserved": 0, "rental_uris": {"android": "https://dc.lft.to/lastmile_qr_scan", "ios": "https://dc.lft.to/lastmile_qr_scan"}, "fusion_lon": 0.0}, {"lat": 38.9068995, "is_disabled": 0, "type": "electric_scooter", "lon": -77.03769066666666, "bike_id": "8d19ebe1a9cd4a10fe729a1c449f86f2", "fusion_lat": 0.0, "name": "8d19ebe1a9cd4a10fe729a1c449f86f2", "is_reserved": 0, "rental_uris": {"android": "https://dc.lft.to/lastmile_qr_scan", "ios": "https://dc.lft.to/lastmile_qr_scan"}, "fusion_lon": 0.0}, {"lat": 38.89724, "is_disabled": 0, "type": "electric_scooter", "lon": -77.02166116666666, "bike_id": "36e6ecd90992cee6cc15b241c91748d9", "fusion_lat": 0.0, "name": "36e6ecd90992cee6cc15b241c91748d9", "is_reserved": 0, "rental_uris": {"android": "https://dc.lft.to/lastmile_qr_scan", "ios": "https://dc.lft.to/lastmile_qr_scan"}, "fusion_lon": 0.0}, {"lat": 38.91280666666667, "is_disabled": 0, "type": "electric_scooter", "lon": -77.02247366666667, "bike_id": "6b40053bd046578d32a6eaa0dac693bb", "fusion_lat": 0.0, "name": "6b40053bd046578d32a6eaa0dac693bb", "is_reserved": 0, "rental_uris": {"android": "https://dc.lft.to/lastmile_qr_scan", "ios": "https://dc.lft.to/lastmile_qr_scan"}, "fusion_lon": 0.0}, {"lat": 38.9319035, "is_disabled": 0, "type": "electric_scooter", "lon": -77.0283855, "bike_id": "5fdc0a3e53eadc076b09e4f44de1e19a", "fusion_lat": 0.0, "name": "5fdc0a3e53eadc076b09e4f44de1e19a", "is_reserved": 0, "rental_uris": {"android": "https://dc.lft.to/lastmile_qr_scan", "ios": "https://dc.lft.to/lastmile_qr_scan"}, "fusion_lon": 0.0}, {"lat": 38.89011683333333, "is_disabled": 0, "type": "electric_scooter", "lon": -76.9374415, "bike_id": "da229388667b7e94b95ecb2dfbf0d153", "fusion_lat": 0.0, "name": "da229388667b7e94b95ecb2dfbf0d153", "is_reserved": 0, "rental_uris": {"android": "https://dc.lft.to/lastmile_qr_scan", "ios": "https://dc.lft.to/lastmile_qr_scan"}, "fusion_lon": 0.0}, {"lat": 38.917945833333334, "is_disabled": 0, "type": "electric_scooter", "lon": -77.040435, "bike_id": "efb16d810f4a109f95e377257e279c52", "fusion_lat": 0.0, "name": "efb16d810f4a109f95e377257e279c52", "is_reserved": 0, "rental_uris": {"android": "https://dc.lft.to/lastmile_qr_scan", "ios": "https://dc.lft.to/lastmile_qr_scan"}, "fusion_lon": 0.0}, {"lat": 38.922840666666666, "is_disabled": 0, "type": "electric_scooter", "lon": -77.0366185, "bike_id": "a1ba2075193d7f5acfdbdf228a01689a", "fusion_lat": 0.0, "name": "a1ba2075193d7f5acfdbdf228a01689a", "is_reserved": 0, "rental_uris": {"android": "https://dc.lft.to/lastmile_qr_scan", "ios": "https://dc.lft.to/lastmile_qr_scan"}, "fusion_lon": 0.0}, {"lat": 38.89839283333333, "is_disabled": 0, "type": "electric_scooter", "lon": -77.02933033333333, "bike_id": "1675b98d61899f2f64499cab7f7b8bbf", "fusion_lat": 0.0, "name": "1675b98d61899f2f64499cab7f7b8bbf", "is_reserved": 0, "rental_uris": {"android": "https://dc.lft.to/lastmile_qr_scan", "ios": "https://dc.lft.to/lastmile_qr_scan"}, "fusion_lon": 0.0}, {"lat": 38.903918833333336, "is_disabled": 0, "type": "electric_scooter", "lon": -77.005687, "bike_id": "11080ccbb52b4c07b81814982bb664a2", "fusion_lat": 0.0, "name": "11080ccbb52b4c07b81814982bb664a2", "is_reserved": 0, "rental_uris": {"android": "https://dc.lft.to/lastmile_qr_scan", "ios": "https://dc.lft.to/lastmile_qr_scan"}, "fusion_lon": 0.0}, {"lat": 38.87672033333333, "is_disabled": 0, "type": "electric_scooter", "lon": -77.00402166666667, "bike_id": "562c591093dd4b972088d39afe6a626b", "fusion_lat": 0.0, "name": "562c591093dd4b972088d39afe6a626b", "is_reserved": 0, "rental_uris": {"android": "https://dc.lft.to/lastmile_qr_scan", "ios": "https://dc.lft.to/lastmile_qr_scan"}, "fusion_lon": 0.0}, {"lat": 38.91794133333333, "is_disabled": 0, "type": "electric_bike", "lon": -77.22344416666667, "bike_id": "f2b0ebcfc3df418b0698fc7e5cae493f", "fusion_lat": 0.0, "name": "f2b0ebcfc3df418b0698fc7e5cae493f", "is_reserved": 0, "rental_uris": {"android": "https://dc.lft.to/lastmile_qr_scan", "ios": "https://dc.lft.to/lastmile_qr_scan"}, "fusion_lon": 0.0}, {"lat": 38.920145, "is_disabled": 0, "type": "electric_scooter", "lon": -77.01435416666666, "bike_id": "00d789c72a1bcffcc4d4a206ce397403", "fusion_lat": 0.0, "name": "00d789c72a1bcffcc4d4a206ce397403", "is_reserved": 0, "rental_uris": {"android": "https://dc.lft.to/lastmile_qr_scan", "ios": "https://dc.lft.to/lastmile_qr_scan"}, "fusion_lon": 0.0}, {"lat": 38.92317, "is_disabled": 0, "type": "electric_scooter", "lon": -77.03662016666667, "bike_id": "b02ddaec53ea2bc0fda837b1555de52f", "fusion_lat": 0.0, "name": "b02ddaec53ea2bc0fda837b1555de52f", "is_reserved": 0, "rental_uris": {"android": "https://dc.lft.to/lastmile_qr_scan", "ios": "https://dc.lft.to/lastmile_qr_scan"}, "fusion_lon": 0.0}, {"lat": 38.89679316666667, "is_disabled": 0, "type": "electric_scooter", "lon": -77.0513055, "bike_id": "9c7e77e36a72724ba63883ee649316b7", "fusion_lat": 0.0, "name": "9c7e77e36a72724ba63883ee649316b7", "is_reserved": 0, "rental_uris": {"android": "https://dc.lft.to/lastmile_qr_scan", "ios": "https://dc.lft.to/lastmile_qr_scan"}, "fusion_lon": 0.0}, {"lat": 38.90239916666667, "is_disabled": 0, "type": "electric_scooter", "lon": -77.0197765, "bike_id": "ca2ccf805734b0418a8e5f8d291c82a0", "fusion_lat": 0.0, "name": "ca2ccf805734b0418a8e5f8d291c82a0", "is_reserved": 0, "rental_uris": {"android": "https://dc.lft.to/lastmile_qr_scan", "ios": "https://dc.lft.to/lastmile_qr_scan"}, "fusion_lon": 0.0}, {"lat": 38.9249735, "is_disabled": 0, "type": "electric_scooter", "lon": -77.02178233333333, "bike_id": "32e4c71937a332ce1d1c1d75a7dbc167", "fusion_lat": 0.0, "name": "32e4c71937a332ce1d1c1d75a7dbc167", "is_reserved": 0, "rental_uris": {"android": "https://dc.lft.to/lastmile_qr_scan", "ios": "https://dc.lft.to/lastmile_qr_scan"}, "fusion_lon": 0.0}, {"lat": 39.00390933333333, "is_disabled": 0, "type": "electric_bike", "lon": -77.01289766666666, "bike_id": "515925da5abfd2e00008c5ac08a29649", "fusion_lat": 0.0, "name": "515925da5abfd2e00008c5ac08a29649", "is_reserved": 0, "rental_uris": {"android": "https://dc.lft.to/lastmile_qr_scan", "ios": "https://dc.lft.to/lastmile_qr_scan"}, "fusion_lon": 0.0}, {"lat": 38.901654666666666, "is_disabled": 0, "type": "electric_scooter", "lon": -76.99857283333333, "bike_id": "18e6348490421cf33290ef7a6cee93bf", "fusion_lat": 0.0, "name": "18e6348490421cf33290ef7a6cee93bf", "is_reserved": 0, "rental_uris": {"android": "https://dc.lft.to/lastmile_qr_scan", "ios": "https://dc.lft.to/lastmile_qr_scan"}, "fusion_lon": 0.0}, {"lat": 38.9128135, "is_disabled": 0, "type": "electric_scooter", "lon": -77.04509216666666, "bike_id": "2cbc8ad8b2888f503c3ba7a7c00d73f9", "fusion_lat": 0.0, "name": "2cbc8ad8b2888f503c3ba7a7c00d73f9", "is_reserved": 0, "rental_uris": {"android": "https://dc.lft.to/lastmile_qr_scan", "ios": "https://dc.lft.to/lastmile_qr_scan"}, "fusion_lon": 0.0}, {"lat": 38.8595325, "is_disabled": 0, "type": "electric_scooter", "lon": -76.99141166666666, "bike_id": "18c51b721cbf257bac0b6212bf366425", "fusion_lat": 0.0, "name": "18c51b721cbf257bac0b6212bf366425", "is_reserved": 0, "rental_uris": {"android": "https://dc.lft.to/lastmile_qr_scan", "ios": "https://dc.lft.to/lastmile_qr_scan"}, "fusion_lon": 0.0}, {"lat": 38.91783683333333, "is_disabled": 0, "type": "electric_scooter", "lon": -77.0231025, "bike_id": "0faa4772249bb27180c443dbf200141c", "fusion_lat": 0.0, "name": "0faa4772249bb27180c443dbf200141c", "is_reserved": 0, "rental_uris": {"android": "https://dc.lft.to/lastmile_qr_scan", "ios": "https://dc.lft.to/lastmile_qr_scan"}, "fusion_lon": 0.0}, {"lat": 38.93643733333333, "is_disabled": 0, "type": "electric_scooter", "lon": -77.024736, "bike_id": "5dab9f449a5e34a1aa364e1d8df028c9", "fusion_lat": 0.0, "name": "5dab9f449a5e34a1aa364e1d8df028c9", "is_reserved": 0, "rental_uris": {"android": "https://dc.lft.to/lastmile_qr_scan", "ios": "https://dc.lft.to/lastmile_qr_scan"}, "fusion_lon": 0.0}, {"lat": 38.887359333333336, "is_disabled": 0, "type": "electric_scooter", "lon": -77.013886, "bike_id": "8da54aecccc69c6952f1de18406179fd", "fusion_lat": 0.0, "name": "8da54aecccc69c6952f1de18406179fd", "is_reserved": 0, "rental_uris": {"android": "https://dc.lft.to/lastmile_qr_scan", "ios": "https://dc.lft.to/lastmile_qr_scan"}, "fusion_lon": 0.0}, {"lat": 38.935096, "is_disabled": 0, "type": "electric_scooter", "lon": -77.03268766666666, "bike_id": "12998f380fd954638221a7beff716146", "fusion_lat": 0.0, "name": "12998f380fd954638221a7beff716146", "is_reserved": 0, "rental_uris": {"android": "https://dc.lft.to/lastmile_qr_scan", "ios": "https://dc.lft.to/lastmile_qr_scan"}, "fusion_lon": 0.0}, {"lat": 38.925203, "is_disabled": 0, "type": "electric_scooter", "lon": -77.04431066666666, "bike_id": "d998d058dc7589ff81e89f01f2645c5a", "fusion_lat": 0.0, "name": "d998d058dc7589ff81e89f01f2645c5a", "is_reserved": 0, "rental_uris": {"android": "https://dc.lft.to/lastmile_qr_scan", "ios": "https://dc.lft.to/lastmile_qr_scan"}, "fusion_lon": 0.0}, {"lat": 38.917933833333336, "is_disabled": 0, "type": "electric_scooter", "lon": -77.040407, "bike_id": "a32fbf6cb6e3062868301957c7c0931b", "fusion_lat": 0.0, "name": "a32fbf6cb6e3062868301957c7c0931b", "is_reserved": 0, "rental_uris": {"android": "https://dc.lft.to/lastmile_qr_scan", "ios": "https://dc.lft.to/lastmile_qr_scan"}, "fusion_lon": 0.0}, {"lat": 38.91125383333333, "is_disabled": 0, "type": "electric_scooter", "lon": -77.03842766666666, "bike_id": "10890e3556a3d428b200e276d276fad9", "fusion_lat": 0.0, "name": "10890e3556a3d428b200e276d276fad9", "is_reserved": 0, "rental_uris": {"android": "https://dc.lft.to/lastmile_qr_scan", "ios": "https://dc.lft.to/lastmile_qr_scan"}, "fusion_lon": 0.0}, {"lat": 38.930898166666665, "is_disabled": 0, "type": "electric_scooter", "lon": -77.03751266666667, "bike_id": "f82ac05967d153e47229ed7557ebf641", "fusion_lat": 0.0, "name": "f82ac05967d153e47229ed7557ebf641", "is_reserved": 0, "rental_uris": {"android": "https://dc.lft.to/lastmile_qr_scan", "ios": "https://dc.lft.to/lastmile_qr_scan"}, "fusion_lon": 0.0}, {"lat": 38.932446166666665, "is_disabled": 0, "type": "electric_scooter", "lon": -77.03270616666667, "bike_id": "8ecf2f8fdd3701f0e8124d7b530a9439", "fusion_lat": 0.0, "name": "8ecf2f8fdd3701f0e8124d7b530a9439", "is_reserved": 0, "rental_uris": {"android": "https://dc.lft.to/lastmile_qr_scan", "ios": "https://dc.lft.to/lastmile_qr_scan"}, "fusion_lon": 0.0}, {"lat": 38.918133166666664, "is_disabled": 0, "type": "electric_scooter", "lon": -77.031675, "bike_id": "db6738d0678eb7ea83d2e54c3422206d", "fusion_lat": 0.0, "name": "db6738d0678eb7ea83d2e54c3422206d", "is_reserved": 0, "rental_uris": {"android": "https://dc.lft.to/lastmile_qr_scan", "ios": "https://dc.lft.to/lastmile_qr_scan"}, "fusion_lon": 0.0}, {"lat": 38.908986, "is_disabled": 0, "type": "electric_scooter", "lon": -77.03149616666667, "bike_id": "538de5060302ab070c5ec79378b20d0b", "fusion_lat": 0.0, "name": "538de5060302ab070c5ec79378b20d0b", "is_reserved": 0, "rental_uris": {"android": "https://dc.lft.to/lastmile_qr_scan", "ios": "https://dc.lft.to/lastmile_qr_scan"}, "fusion_lon": 0.0}, {"lat": 38.893514333333336, "is_disabled": 0, "type": "electric_scooter", "lon": -77.04140783333334, "bike_id": "775d8691e9907c56aaebd30d791379f5", "fusion_lat": 0.0, "name": "775d8691e9907c56aaebd30d791379f5", "is_reserved": 0, "rental_uris": {"android": "https://dc.lft.to/lastmile_qr_scan", "ios": "https://dc.lft.to/lastmile_qr_scan"}, "fusion_lon": 0.0}, {"lat": 38.90028433333333, "is_disabled": 0, "type": "electric_scooter", "lon": -76.9937765, "bike_id": "bc738939404501de14c960d46f3dc51e", "fusion_lat": 0.0, "name": "bc738939404501de14c960d46f3dc51e", "is_reserved": 0, "rental_uris": {"android": "https://dc.lft.to/lastmile_qr_scan", "ios": "https://dc.lft.to/lastmile_qr_scan"}, "fusion_lon": 0.0}, {"lat": 38.937146166666665, "is_disabled": 0, "type": "electric_scooter", "lon": -77.03635116666666, "bike_id": "a4599a5f873a3e4786d7666266108603", "fusion_lat": 0.0, "name": "a4599a5f873a3e4786d7666266108603", "is_reserved": 0, "rental_uris": {"android": "https://dc.lft.to/lastmile_qr_scan", "ios": "https://dc.lft.to/lastmile_qr_scan"}, "fusion_lon": 0.0}, {"lat": 38.877081, "is_disabled": 0, "type": "electric_scooter", "lon": -77.01766583333334, "bike_id": "e715d0faadaf0ae9a9ac105c79456c3a", "fusion_lat": 0.0, "name": "e715d0faadaf0ae9a9ac105c79456c3a", "is_reserved": 0, "rental_uris": {"android": "https://dc.lft.to/lastmile_qr_scan", "ios": "https://dc.lft.to/lastmile_qr_scan"}, "fusion_lon": 0.0}, {"lat": 38.882729, "is_disabled": 0, "type": "electric_bike", "lon": -76.9324675, "bike_id": "55c121e21eecefa767c3dad112f0723d", "fusion_lat": 0.0, "name": "55c121e21eecefa767c3dad112f0723d", "is_reserved": 0, "rental_uris": {"android": "https://dc.lft.to/lastmile_qr_scan", "ios": "https://dc.lft.to/lastmile_qr_scan"}, "fusion_lon": 0.0}, {"lat": 38.86621616666667, "is_disabled": 0, "type": "electric_scooter", "lon": -76.98662366666667, "bike_id": "fafe782c5d6e593547de665f09ac1305", "fusion_lat": 0.0, "name": "fafe782c5d6e593547de665f09ac1305", "is_reserved": 0, "rental_uris": {"android": "https://dc.lft.to/lastmile_qr_scan", "ios": "https://dc.lft.to/lastmile_qr_scan"}, "fusion_lon": 0.0}, {"lat": 38.91118633333333, "is_disabled": 0, "type": "electric_scooter", "lon": -77.03865783333333, "bike_id": "9c9295a1fc21a3155df70a08838d9ba3", "fusion_lat": 0.0, "name": "9c9295a1fc21a3155df70a08838d9ba3", "is_reserved": 0, "rental_uris": {"android": "https://dc.lft.to/lastmile_qr_scan", "ios": "https://dc.lft.to/lastmile_qr_scan"}, "fusion_lon": 0.0}, {"lat": 38.92353683333333, "is_disabled": 0, "type": "electric_scooter", "lon": -77.05020983333333, "bike_id": "0810310bb13278a83a75fe5bec0f3aee", "fusion_lat": 0.0, "name": "0810310bb13278a83a75fe5bec0f3aee", "is_reserved": 0, "rental_uris": {"android": "https://dc.lft.to/lastmile_qr_scan", "ios": "https://dc.lft.to/lastmile_qr_scan"}, "fusion_lon": 0.0}, {"lat": 38.923682166666666, "is_disabled": 0, "type": "electric_scooter", "lon": -77.0505315, "bike_id": "e55894e0d14571ccb73da969c7bb8538", "fusion_lat": 0.0, "name": "e55894e0d14571ccb73da969c7bb8538", "is_reserved": 0, "rental_uris": {"android": "https://dc.lft.to/lastmile_qr_scan", "ios": "https://dc.lft.to/lastmile_qr_scan"}, "fusion_lon": 0.0}, {"lat": 38.918194166666666, "is_disabled": 0, "type": "electric_scooter", "lon": -77.03666833333334, "bike_id": "57d33de80e55da7c006c106d491f12c6", "fusion_lat": 0.0, "name": "57d33de80e55da7c006c106d491f12c6", "is_reserved": 0, "rental_uris": {"android": "https://dc.lft.to/lastmile_qr_scan", "ios": "https://dc.lft.to/lastmile_qr_scan"}, "fusion_lon": 0.0}, {"lat": 38.9024495, "is_disabled": 0, "type": "electric_scooter", "lon": -77.06261016666667, "bike_id": "44182f187f25a9b1aa4d4ecd725b7153", "fusion_lat": 0.0, "name": "44182f187f25a9b1aa4d4ecd725b7153", "is_reserved": 0, "rental_uris": {"android": "https://dc.lft.to/lastmile_qr_scan", "ios": "https://dc.lft.to/lastmile_qr_scan"}, "fusion_lon": 0.0}, {"lat": 38.936093, "is_disabled": 0, "type": "electric_scooter", "lon": -77.05859283333334, "bike_id": "7e629cdb525be5a560f87fee473546f6", "fusion_lat": 0.0, "name": "7e629cdb525be5a560f87fee473546f6", "is_reserved": 0, "rental_uris": {"android": "https://dc.lft.to/lastmile_qr_scan", "ios": "https://dc.lft.to/lastmile_qr_scan"}, "fusion_lon": 0.0}, {"lat": 38.906248833333336, "is_disabled": 0, "type": "electric_scooter", "lon": -77.0218485, "bike_id": "849be5a354209cf1ebb101ed141f26b0", "fusion_lat": 0.0, "name": "849be5a354209cf1ebb101ed141f26b0", "is_reserved": 0, "rental_uris": {"android": "https://dc.lft.to/lastmile_qr_scan", "ios": "https://dc.lft.to/lastmile_qr_scan"}, "fusion_lon": 0.0}, {"lat": 38.91605766666667, "is_disabled": 0, "type": "electric_scooter", "lon": -77.01732433333333, "bike_id": "24a0909b8fb69cae75bcd1dc0bdc6d88", "fusion_lat": 0.0, "name": "24a0909b8fb69cae75bcd1dc0bdc6d88", "is_reserved": 0, "rental_uris": {"android": "https://dc.lft.to/lastmile_qr_scan", "ios": "https://dc.lft.to/lastmile_qr_scan"}, "fusion_lon": 0.0}, {"lat": 38.9359295, "is_disabled": 0, "type": "electric_scooter", "lon": -77.037539, "bike_id": "426d36766b2c43383f33b5d589dca7af", "fusion_lat": 0.0, "name": "426d36766b2c43383f33b5d589dca7af", "is_reserved": 0, "rental_uris": {"android": "https://dc.lft.to/lastmile_qr_scan", "ios": "https://dc.lft.to/lastmile_qr_scan"}, "fusion_lon": 0.0}, {"lat": 38.950715833333334, "is_disabled": 0, "type": "electric_bike", "lon": -77.011937, "bike_id": "b52b68197b29acfb2ccf39d46ab86bc3", "fusion_lat": 0.0, "name": "b52b68197b29acfb2ccf39d46ab86bc3", "is_reserved": 0, "rental_uris": {"android": "https://dc.lft.to/lastmile_qr_scan", "ios": "https://dc.lft.to/lastmile_qr_scan"}, "fusion_lon": 0.0}, {"lat": 38.9282435, "is_disabled": 0, "type": "electric_scooter", "lon": -77.054414, "bike_id": "89c011d633e93d0003e47d7c3fd378c0", "fusion_lat": 0.0, "name": "89c011d633e93d0003e47d7c3fd378c0", "is_reserved": 0, "rental_uris": {"android": "https://dc.lft.to/lastmile_qr_scan", "ios": "https://dc.lft.to/lastmile_qr_scan"}, "fusion_lon": 0.0}, {"lat": 38.90143116666667, "is_disabled": 0, "type": "electric_scooter", "lon": -77.00305783333333, "bike_id": "71dcdbecdc5889775837511b63af9325", "fusion_lat": 0.0, "name": "71dcdbecdc5889775837511b63af9325", "is_reserved": 0, "rental_uris": {"android": "https://dc.lft.to/lastmile_qr_scan", "ios": "https://dc.lft.to/lastmile_qr_scan"}, "fusion_lon": 0.0}, {"lat": 38.91557383333333, "is_disabled": 0, "type": "electric_scooter", "lon": -77.0418145, "bike_id": "2b1ce009838bd52a1989f22950b85940", "fusion_lat": 0.0, "name": "2b1ce009838bd52a1989f22950b85940", "is_reserved": 0, "rental_uris": {"android": "https://dc.lft.to/lastmile_qr_scan", "ios": "https://dc.lft.to/lastmile_qr_scan"}, "fusion_lon": 0.0}, {"lat": 38.902806, "is_disabled": 0, "type": "electric_scooter", "lon": -77.0403185, "bike_id": "806c9920aee6cb8adbbb02d6b67b590e", "fusion_lat": 0.0, "name": "806c9920aee6cb8adbbb02d6b67b590e", "is_reserved": 0, "rental_uris": {"android": "https://dc.lft.to/lastmile_qr_scan", "ios": "https://dc.lft.to/lastmile_qr_scan"}, "fusion_lon": 0.0}, {"lat": 38.898393, "is_disabled": 0, "type": "electric_scooter", "lon": -77.02932566666667, "bike_id": "cf3caa90e2465a56960f1f52f865d3f9", "fusion_lat": 0.0, "name": "cf3caa90e2465a56960f1f52f865d3f9", "is_reserved": 0, "rental_uris": {"android": "https://dc.lft.to/lastmile_qr_scan", "ios": "https://dc.lft.to/lastmile_qr_scan"}, "fusion_lon": 0.0}, {"lat": 38.93041, "is_disabled": 0, "type": "electric_scooter", "lon": -77.03297933333333, "bike_id": "35cfaf6e7f4b58beb9ad15b239dd40e1", "fusion_lat": 0.0, "name": "35cfaf6e7f4b58beb9ad15b239dd40e1", "is_reserved": 0, "rental_uris": {"android": "https://dc.lft.to/lastmile_qr_scan", "ios": "https://dc.lft.to/lastmile_qr_scan"}, "fusion_lon": 0.0}, {"lat": 38.896452833333335, "is_disabled": 0, "type": "electric_scooter", "lon": -77.0269025, "bike_id": "7c45d82a56dd83c640ff6413e4f3a777", "fusion_lat": 0.0, "name": "7c45d82a56dd83c640ff6413e4f3a777", "is_reserved": 0, "rental_uris": {"android": "https://dc.lft.to/lastmile_qr_scan", "ios": "https://dc.lft.to/lastmile_qr_scan"}, "fusion_lon": 0.0}, {"lat": 38.905509, "is_disabled": 0, "type": "electric_scooter", "lon": -77.0417745, "bike_id": "4163b3cef2c2282b37cb0e9c3e05480d", "fusion_lat": 0.0, "name": "4163b3cef2c2282b37cb0e9c3e05480d", "is_reserved": 0, "rental_uris": {"android": "https://dc.lft.to/lastmile_qr_scan", "ios": "https://dc.lft.to/lastmile_qr_scan"}, "fusion_lon": 0.0}, {"lat": 38.91698483333333, "is_disabled": 0, "type": "electric_scooter", "lon": -77.02873166666667, "bike_id": "0ca7060bd75cf2c3130031198c480c4c", "fusion_lat": 0.0, "name": "0ca7060bd75cf2c3130031198c480c4c", "is_reserved": 0, "rental_uris": {"android": "https://dc.lft.to/lastmile_qr_scan", "ios": "https://dc.lft.to/lastmile_qr_scan"}, "fusion_lon": 0.0}, {"lat": 38.90011616666666, "is_disabled": 0, "type": "electric_scooter", "lon": -76.9223585, "bike_id": "6690413a06a06329aa59f5ee00de5f2f", "fusion_lat": 0.0, "name": "6690413a06a06329aa59f5ee00de5f2f", "is_reserved": 0, "rental_uris": {"android": "https://dc.lft.to/lastmile_qr_scan", "ios": "https://dc.lft.to/lastmile_qr_scan"}, "fusion_lon": 0.0}, {"lat": 38.899552666666665, "is_disabled": 0, "type": "electric_scooter", "lon": -77.00352733333334, "bike_id": "0fdc4a918c04933070dd4c322f866400", "fusion_lat": 0.0, "name": "0fdc4a918c04933070dd4c322f866400", "is_reserved": 0, "rental_uris": {"android": "https://dc.lft.to/lastmile_qr_scan", "ios": "https://dc.lft.to/lastmile_qr_scan"}, "fusion_lon": 0.0}, {"lat": 38.9171695, "is_disabled": 0, "type": "electric_scooter", "lon": -77.03344733333333, "bike_id": "7b91a5d8f09ffc3251be48918d5766a5", "fusion_lat": 0.0, "name": "7b91a5d8f09ffc3251be48918d5766a5", "is_reserved": 0, "rental_uris": {"android": "https://dc.lft.to/lastmile_qr_scan", "ios": "https://dc.lft.to/lastmile_qr_scan"}, "fusion_lon": 0.0}, {"lat": 38.93344316666666, "is_disabled": 0, "type": "electric_scooter", "lon": -76.99310766666666, "bike_id": "838f9d853307ae54d1605318f26ed9e2", "fusion_lat": 0.0, "name": "838f9d853307ae54d1605318f26ed9e2", "is_reserved": 0, "rental_uris": {"android": "https://dc.lft.to/lastmile_qr_scan", "ios": "https://dc.lft.to/lastmile_qr_scan"}, "fusion_lon": 0.0}, {"lat": 38.909623333333336, "is_disabled": 0, "type": "electric_scooter", "lon": -77.02163133333333, "bike_id": "a113df530faec83c7d6fbc79f93ec2fb", "fusion_lat": 0.0, "name": "a113df530faec83c7d6fbc79f93ec2fb", "is_reserved": 0, "rental_uris": {"android": "https://dc.lft.to/lastmile_qr_scan", "ios": "https://dc.lft.to/lastmile_qr_scan"}, "fusion_lon": 0.0}, {"lat": 38.90843316666667, "is_disabled": 0, "type": "electric_scooter", "lon": -77.03206783333333, "bike_id": "2326eb4e369c952d1f9c0849939293ed", "fusion_lat": 0.0, "name": "2326eb4e369c952d1f9c0849939293ed", "is_reserved": 0, "rental_uris": {"android": "https://dc.lft.to/lastmile_qr_scan", "ios": "https://dc.lft.to/lastmile_qr_scan"}, "fusion_lon": 0.0}, {"lat": 38.92332183333333, "is_disabled": 0, "type": "electric_scooter", "lon": -77.03204466666666, "bike_id": "718a4dafa992cfafd3d4a44d70666d81", "fusion_lat": 0.0, "name": "718a4dafa992cfafd3d4a44d70666d81", "is_reserved": 0, "rental_uris": {"android": "https://dc.lft.to/lastmile_qr_scan", "ios": "https://dc.lft.to/lastmile_qr_scan"}, "fusion_lon": 0.0}, {"lat": 38.92363266666667, "is_disabled": 0, "type": "electric_scooter", "lon": -77.05136283333333, "bike_id": "bba8f0bfd02441767d68ab89a2001382", "fusion_lat": 0.0, "name": "bba8f0bfd02441767d68ab89a2001382", "is_reserved": 0, "rental_uris": {"android": "https://dc.lft.to/lastmile_qr_scan", "ios": "https://dc.lft.to/lastmile_qr_scan"}, "fusion_lon": 0.0}, {"lat": 38.94439583333333, "is_disabled": 0, "type": "electric_scooter", "lon": -77.015077, "bike_id": "9cd39a355bd005f527d05070e0a26ec6", "fusion_lat": 0.0, "name": "9cd39a355bd005f527d05070e0a26ec6", "is_reserved": 0, "rental_uris": {"android": "https://dc.lft.to/lastmile_qr_scan", "ios": "https://dc.lft.to/lastmile_qr_scan"}, "fusion_lon": 0.0}, {"lat": 38.92239083333333, "is_disabled": 0, "type": "electric_scooter", "lon": -77.03348666666666, "bike_id": "01863cc916eb9172d131892810649c94", "fusion_lat": 0.0, "name": "01863cc916eb9172d131892810649c94", "is_reserved": 0, "rental_uris": {"android": "https://dc.lft.to/lastmile_qr_scan", "ios": "https://dc.lft.to/lastmile_qr_scan"}, "fusion_lon": 0.0}, {"lat": 38.900649333333334, "is_disabled": 0, "type": "electric_scooter", "lon": -77.00214016666666, "bike_id": "578c1965985d0e7981925e7f1210e189", "fusion_lat": 0.0, "name": "578c1965985d0e7981925e7f1210e189", "is_reserved": 0, "rental_uris": {"android": "https://dc.lft.to/lastmile_qr_scan", "ios": "https://dc.lft.to/lastmile_qr_scan"}, "fusion_lon": 0.0}, {"lat": 38.9171685, "is_disabled": 0, "type": "electric_scooter", "lon": -77.02954733333333, "bike_id": "b1c32097ef9ab0db296fc8d1a5caa5f6", "fusion_lat": 0.0, "name": "b1c32097ef9ab0db296fc8d1a5caa5f6", "is_reserved": 0, "rental_uris": {"android": "https://dc.lft.to/lastmile_qr_scan", "ios": "https://dc.lft.to/lastmile_qr_scan"}, "fusion_lon": 0.0}, {"lat": 38.94101, "is_disabled": 0, "type": "electric_scooter", "lon": -77.0211285, "bike_id": "9ce4fdf3e503525884d90499ba270471", "fusion_lat": 0.0, "name": "9ce4fdf3e503525884d90499ba270471", "is_reserved": 0, "rental_uris": {"android": "https://dc.lft.to/lastmile_qr_scan", "ios": "https://dc.lft.to/lastmile_qr_scan"}, "fusion_lon": 0.0}, {"lat": 38.9156655, "is_disabled": 0, "type": "electric_scooter", "lon": -77.03152016666667, "bike_id": "275f240c4f7e4e226ac4f80d7d88ae7d", "fusion_lat": 0.0, "name": "275f240c4f7e4e226ac4f80d7d88ae7d", "is_reserved": 0, "rental_uris": {"android": "https://dc.lft.to/lastmile_qr_scan", "ios": "https://dc.lft.to/lastmile_qr_scan"}, "fusion_lon": 0.0}, {"lat": 38.898456, "is_disabled": 0, "type": "electric_scooter", "lon": -76.94635383333333, "bike_id": "2b06d1752e46d53803c8701e82d1f241", "fusion_lat": 0.0, "name": "2b06d1752e46d53803c8701e82d1f241", "is_reserved": 0, "rental_uris": {"android": "https://dc.lft.to/lastmile_qr_scan", "ios": "https://dc.lft.to/lastmile_qr_scan"}, "fusion_lon": 0.0}, {"lat": 38.90841066666667, "is_disabled": 0, "type": "electric_scooter", "lon": -77.0383415, "bike_id": "77e035835cc2b5b3fe7ee1e0a86c9787", "fusion_lat": 0.0, "name": "77e035835cc2b5b3fe7ee1e0a86c9787", "is_reserved": 0, "rental_uris": {"android": "https://dc.lft.to/lastmile_qr_scan", "ios": "https://dc.lft.to/lastmile_qr_scan"}, "fusion_lon": 0.0}, {"lat": 38.90961733333333, "is_disabled": 0, "type": "electric_scooter", "lon": -77.023837, "bike_id": "69e730abae707962a90917a8a37d9337", "fusion_lat": 0.0, "name": "69e730abae707962a90917a8a37d9337", "is_reserved": 0, "rental_uris": {"android": "https://dc.lft.to/lastmile_qr_scan", "ios": "https://dc.lft.to/lastmile_qr_scan"}, "fusion_lon": 0.0}, {"lat": 38.90276133333333, "is_disabled": 0, "type": "electric_scooter", "lon": -77.03966683333333, "bike_id": "d6332118f0578a9649808208a597c567", "fusion_lat": 0.0, "name": "d6332118f0578a9649808208a597c567", "is_reserved": 0, "rental_uris": {"android": "https://dc.lft.to/lastmile_qr_scan", "ios": "https://dc.lft.to/lastmile_qr_scan"}, "fusion_lon": 0.0}, {"lat": 38.85191733333333, "is_disabled": 0, "type": "electric_bike", "lon": -76.96112983333333, "bike_id": "394f75f8bc1d2ab373419bb15ac79c97", "fusion_lat": 0.0, "name": "394f75f8bc1d2ab373419bb15ac79c97", "is_reserved": 0, "rental_uris": {"android": "https://dc.lft.to/lastmile_qr_scan", "ios": "https://dc.lft.to/lastmile_qr_scan"}, "fusion_lon": 0.0}, {"lat": 38.901883166666664, "is_disabled": 0, "type": "electric_scooter", "lon": -77.02696116666667, "bike_id": "7aba6d94a40a29beaa43d06c858a403e", "fusion_lat": 0.0, "name": "7aba6d94a40a29beaa43d06c858a403e", "is_reserved": 0, "rental_uris": {"android": "https://dc.lft.to/lastmile_qr_scan", "ios": "https://dc.lft.to/lastmile_qr_scan"}, "fusion_lon": 0.0}, {"lat": 38.85511983333333, "is_disabled": 0, "type": "electric_bike", "lon": -77.12020516666666, "bike_id": "55a7262322fbacd762c20557ad50bf24", "fusion_lat": 0.0, "name": "55a7262322fbacd762c20557ad50bf24", "is_reserved": 0, "rental_uris": {"android": "https://dc.lft.to/lastmile_qr_scan", "ios": "https://dc.lft.to/lastmile_qr_scan"}, "fusion_lon": 0.0}, {"lat": 39.02938183333333, "is_disabled": 0, "type": "electric_bike", "lon": -77.04929983333334, "bike_id": "4cb39fe6182f8b77e282d6a3c3253df6", "fusion_lat": 0.0, "name": "4cb39fe6182f8b77e282d6a3c3253df6", "is_reserved": 0, "rental_uris": {"android": "https://dc.lft.to/lastmile_qr_scan", "ios": "https://dc.lft.to/lastmile_qr_scan"}, "fusion_lon": 0.0}, {"lat": 38.9134785, "is_disabled": 0, "type": "electric_scooter", "lon": -77.04356733333333, "bike_id": "b35bf298592a3bcfe9cb669654ce8997", "fusion_lat": 0.0, "name": "b35bf298592a3bcfe9cb669654ce8997", "is_reserved": 0, "rental_uris": {"android": "https://dc.lft.to/lastmile_qr_scan", "ios": "https://dc.lft.to/lastmile_qr_scan"}, "fusion_lon": 0.0}, {"lat": 38.93115233333333, "is_disabled": 0, "type": "electric_scooter", "lon": -77.03839233333333, "bike_id": "5092020d32b25b02f94235d40cca1166", "fusion_lat": 0.0, "name": "5092020d32b25b02f94235d40cca1166", "is_reserved": 0, "rental_uris": {"android": "https://dc.lft.to/lastmile_qr_scan", "ios": "https://dc.lft.to/lastmile_qr_scan"}, "fusion_lon": 0.0}, {"lat": 38.884919833333335, "is_disabled": 0, "type": "electric_scooter", "lon": -77.00715216666667, "bike_id": "3409bdf996a60abaca6ccc4632ac426b", "fusion_lat": 0.0, "name": "3409bdf996a60abaca6ccc4632ac426b", "is_reserved": 0, "rental_uris": {"android": "https://dc.lft.to/lastmile_qr_scan", "ios": "https://dc.lft.to/lastmile_qr_scan"}, "fusion_lon": 0.0}, {"lat": 38.91554983333333, "is_disabled": 0, "type": "electric_scooter", "lon": -77.04186533333333, "bike_id": "d3e88f35162d8a1e5517cfd5564cf834", "fusion_lat": 0.0, "name": "d3e88f35162d8a1e5517cfd5564cf834", "is_reserved": 0, "rental_uris": {"android": "https://dc.lft.to/lastmile_qr_scan", "ios": "https://dc.lft.to/lastmile_qr_scan"}, "fusion_lon": 0.0}, {"lat": 38.80755716666667, "is_disabled": 0, "type": "electric_bike", "lon": -77.094542, "bike_id": "ca195ae65c4882fc4f377375c5823b29", "fusion_lat": 0.0, "name": "ca195ae65c4882fc4f377375c5823b29", "is_reserved": 0, "rental_uris": {"android": "https://dc.lft.to/lastmile_qr_scan", "ios": "https://dc.lft.to/lastmile_qr_scan"}, "fusion_lon": 0.0}, {"lat": 38.89213733333333, "is_disabled": 0, "type": "electric_scooter", "lon": -76.995874, "bike_id": "802301ccc8a4a67e96b44b238838e927", "fusion_lat": 0.0, "name": "802301ccc8a4a67e96b44b238838e927", "is_reserved": 0, "rental_uris": {"android": "https://dc.lft.to/lastmile_qr_scan", "ios": "https://dc.lft.to/lastmile_qr_scan"}, "fusion_lon": 0.0}, {"lat": 38.922367333333334, "is_disabled": 0, "type": "electric_scooter", "lon": -77.0424375, "bike_id": "56d6d2c90cbd9986900715299ac7c02c", "fusion_lat": 0.0, "name": "56d6d2c90cbd9986900715299ac7c02c", "is_reserved": 0, "rental_uris": {"android": "https://dc.lft.to/lastmile_qr_scan", "ios": "https://dc.lft.to/lastmile_qr_scan"}, "fusion_lon": 0.0}, {"lat": 38.918573333333335, "is_disabled": 0, "type": "electric_scooter", "lon": -77.03639333333334, "bike_id": "5ddd1ec4627a3c605dce1684db910248", "fusion_lat": 0.0, "name": "5ddd1ec4627a3c605dce1684db910248", "is_reserved": 0, "rental_uris": {"android": "https://dc.lft.to/lastmile_qr_scan", "ios": "https://dc.lft.to/lastmile_qr_scan"}, "fusion_lon": 0.0}, {"lat": 38.9078265, "is_disabled": 0, "type": "electric_scooter", "lon": -77.0434645, "bike_id": "c6a747a231122b547f0ce3b99b484d68", "fusion_lat": 0.0, "name": "c6a747a231122b547f0ce3b99b484d68", "is_reserved": 0, "rental_uris": {"android": "https://dc.lft.to/lastmile_qr_scan", "ios": "https://dc.lft.to/lastmile_qr_scan"}, "fusion_lon": 0.0}, {"lat": 38.90069283333333, "is_disabled": 0, "type": "electric_scooter", "lon": -77.00746083333334, "bike_id": "2b4b51c6bd0a5ff5b69890dce5b5e119", "fusion_lat": 0.0, "name": "2b4b51c6bd0a5ff5b69890dce5b5e119", "is_reserved": 0, "rental_uris": {"android": "https://dc.lft.to/lastmile_qr_scan", "ios": "https://dc.lft.to/lastmile_qr_scan"}, "fusion_lon": 0.0}, {"lat": 38.8921965, "is_disabled": 0, "type": "electric_scooter", "lon": -77.02781333333333, "bike_id": "bad5417bf3ea1bf626924f9c7eccff92", "fusion_lat": 0.0, "name": "bad5417bf3ea1bf626924f9c7eccff92", "is_reserved": 0, "rental_uris": {"android": "https://dc.lft.to/lastmile_qr_scan", "ios": "https://dc.lft.to/lastmile_qr_scan"}, "fusion_lon": 0.0}, {"lat": 38.94180933333333, "is_disabled": 0, "type": "electric_scooter", "lon": -77.041363, "bike_id": "a94cfc5233993aadfd74b2a757bc9a29", "fusion_lat": 0.0, "name": "a94cfc5233993aadfd74b2a757bc9a29", "is_reserved": 0, "rental_uris": {"android": "https://dc.lft.to/lastmile_qr_scan", "ios": "https://dc.lft.to/lastmile_qr_scan"}, "fusion_lon": 0.0}, {"lat": 38.911213000000004, "is_disabled": 0, "type": "electric_scooter", "lon": -77.03297966666666, "bike_id": "fc680b3eaa2c428ba0fc17828a63649e", "fusion_lat": 0.0, "name": "fc680b3eaa2c428ba0fc17828a63649e", "is_reserved": 0, "rental_uris": {"android": "https://dc.lft.to/lastmile_qr_scan", "ios": "https://dc.lft.to/lastmile_qr_scan"}, "fusion_lon": 0.0}, {"lat": 39.00011533333333, "is_disabled": 0, "type": "electric_bike", "lon": -76.910826, "bike_id": "ce06b278bdaec78c3386b0d118a58059", "fusion_lat": 0.0, "name": "ce06b278bdaec78c3386b0d118a58059", "is_reserved": 0, "rental_uris": {"android": "https://dc.lft.to/lastmile_qr_scan", "ios": "https://dc.lft.to/lastmile_qr_scan"}, "fusion_lon": 0.0}, {"lat": 38.8656185, "is_disabled": 0, "type": "electric_scooter", "lon": -76.974069, "bike_id": "113498e0a8202526f075a368150ce0f6", "fusion_lat": 0.0, "name": "113498e0a8202526f075a368150ce0f6", "is_reserved": 0, "rental_uris": {"android": "https://dc.lft.to/lastmile_qr_scan", "ios": "https://dc.lft.to/lastmile_qr_scan"}, "fusion_lon": 0.0}, {"lat": 38.88751766666667, "is_disabled": 0, "type": "electric_scooter", "lon": -77.032278, "bike_id": "639bf38f19cafe5d6a7d7620c672ae70", "fusion_lat": 0.0, "name": "639bf38f19cafe5d6a7d7620c672ae70", "is_reserved": 0, "rental_uris": {"android": "https://dc.lft.to/lastmile_qr_scan", "ios": "https://dc.lft.to/lastmile_qr_scan"}, "fusion_lon": 0.0}, {"lat": 38.8638815, "is_disabled": 0, "type": "electric_bike", "lon": -76.989908, "bike_id": "4d8ac43f8fde28ad959a53ffb0ac370a", "fusion_lat": 0.0, "name": "4d8ac43f8fde28ad959a53ffb0ac370a", "is_reserved": 0, "rental_uris": {"android": "https://dc.lft.to/lastmile_qr_scan", "ios": "https://dc.lft.to/lastmile_qr_scan"}, "fusion_lon": 0.0}, {"lat": 38.89776083333334, "is_disabled": 0, "type": "electric_scooter", "lon": -77.0270445, "bike_id": "c7aa2a9659602be25eba0d59ec8f8fd4", "fusion_lat": 0.0, "name": "c7aa2a9659602be25eba0d59ec8f8fd4", "is_reserved": 0, "rental_uris": {"android": "https://dc.lft.to/lastmile_qr_scan", "ios": "https://dc.lft.to/lastmile_qr_scan"}, "fusion_lon": 0.0}, {"lat": 38.93046533333333, "is_disabled": 0, "type": "electric_scooter", "lon": -77.04118266666667, "bike_id": "449f6b4b2749fb67696eedd7efb83bb9", "fusion_lat": 0.0, "name": "449f6b4b2749fb67696eedd7efb83bb9", "is_reserved": 0, "rental_uris": {"android": "https://dc.lft.to/lastmile_qr_scan", "ios": "https://dc.lft.to/lastmile_qr_scan"}, "fusion_lon": 0.0}, {"lat": 38.962773166666665, "is_disabled": 0, "type": "electric_bike", "lon": -76.98297366666667, "bike_id": "94d7e5bb4fb467db165e43ececc661fb", "fusion_lat": 0.0, "name": "94d7e5bb4fb467db165e43ececc661fb", "is_reserved": 0, "rental_uris": {"android": "https://dc.lft.to/lastmile_qr_scan", "ios": "https://dc.lft.to/lastmile_qr_scan"}, "fusion_lon": 0.0}, {"lat": 38.906474333333335, "is_disabled": 0, "type": "electric_scooter", "lon": -77.04201383333333, "bike_id": "a275dbbe9bb9e671abc98c431e352232", "fusion_lat": 0.0, "name": "a275dbbe9bb9e671abc98c431e352232", "is_reserved": 0, "rental_uris": {"android": "https://dc.lft.to/lastmile_qr_scan", "ios": "https://dc.lft.to/lastmile_qr_scan"}, "fusion_lon": 0.0}, {"lat": 38.902023666666665, "is_disabled": 0, "type": "electric_scooter", "lon": -76.98194666666667, "bike_id": "3631862f9fcc84b883117c1f4c7a03e4", "fusion_lat": 0.0, "name": "3631862f9fcc84b883117c1f4c7a03e4", "is_reserved": 0, "rental_uris": {"android": "https://dc.lft.to/lastmile_qr_scan", "ios": "https://dc.lft.to/lastmile_qr_scan"}, "fusion_lon": 0.0}, {"lat": 38.89343366666667, "is_disabled": 0, "type": "electric_scooter", "lon": -76.99161266666667, "bike_id": "90bdcaa76318b4895f07d599b5aeb085", "fusion_lat": 0.0, "name": "90bdcaa76318b4895f07d599b5aeb085", "is_reserved": 0, "rental_uris": {"android": "https://dc.lft.to/lastmile_qr_scan", "ios": "https://dc.lft.to/lastmile_qr_scan"}, "fusion_lon": 0.0}, {"lat": 38.9156695, "is_disabled": 0, "type": "electric_scooter", "lon": -77.03151383333334, "bike_id": "cfa7bad9cabb930b51398de6737ecd16", "fusion_lat": 0.0, "name": "cfa7bad9cabb930b51398de6737ecd16", "is_reserved": 0, "rental_uris": {"android": "https://dc.lft.to/lastmile_qr_scan", "ios": "https://dc.lft.to/lastmile_qr_scan"}, "fusion_lon": 0.0}, {"lat": 38.93546416666667, "is_disabled": 0, "type": "electric_scooter", "lon": -77.07292766666667, "bike_id": "eefb51d875f4b9aa2d267c7486cff416", "fusion_lat": 0.0, "name": "eefb51d875f4b9aa2d267c7486cff416", "is_reserved": 0, "rental_uris": {"android": "https://dc.lft.to/lastmile_qr_scan", "ios": "https://dc.lft.to/lastmile_qr_scan"}, "fusion_lon": 0.0}, {"lat": 38.863665166666664, "is_disabled": 0, "type": "electric_scooter", "lon": -76.99037333333334, "bike_id": "743d7111b5af6a0ad76ec567ed08d9f4", "fusion_lat": 0.0, "name": "743d7111b5af6a0ad76ec567ed08d9f4", "is_reserved": 0, "rental_uris": {"android": "https://dc.lft.to/lastmile_qr_scan", "ios": "https://dc.lft.to/lastmile_qr_scan"}, "fusion_lon": 0.0}, {"lat": 38.89230966666667, "is_disabled": 0, "type": "electric_scooter", "lon": -77.0322175, "bike_id": "2d005b9b303c5790c1e9844264818bc3", "fusion_lat": 0.0, "name": "2d005b9b303c5790c1e9844264818bc3", "is_reserved": 0, "rental_uris": {"android": "https://dc.lft.to/lastmile_qr_scan", "ios": "https://dc.lft.to/lastmile_qr_scan"}, "fusion_lon": 0.0}, {"lat": 38.89991783333333, "is_disabled": 0, "type": "electric_scooter", "lon": -77.02302433333334, "bike_id": "8ab3ae12c8cb334677ad6f7bf90148df", "fusion_lat": 0.0, "name": "8ab3ae12c8cb334677ad6f7bf90148df", "is_reserved": 0, "rental_uris": {"android": "https://dc.lft.to/lastmile_qr_scan", "ios": "https://dc.lft.to/lastmile_qr_scan"}, "fusion_lon": 0.0}, {"lat": 38.91427183333333, "is_disabled": 0, "type": "electric_scooter", "lon": -77.03186016666666, "bike_id": "40f544e0d7ff3089fa282092b1b6bc6d", "fusion_lat": 0.0, "name": "40f544e0d7ff3089fa282092b1b6bc6d", "is_reserved": 0, "rental_uris": {"android": "https://dc.lft.to/lastmile_qr_scan", "ios": "https://dc.lft.to/lastmile_qr_scan"}, "fusion_lon": 0.0}, {"lat": 38.892225333333336, "is_disabled": 0, "type": "electric_scooter", "lon": -77.0451395, "bike_id": "cfa9a9a00e1de8f0f9bb4d7015114070", "fusion_lat": 0.0, "name": "cfa9a9a00e1de8f0f9bb4d7015114070", "is_reserved": 0, "rental_uris": {"android": "https://dc.lft.to/lastmile_qr_scan", "ios": "https://dc.lft.to/lastmile_qr_scan"}, "fusion_lon": 0.0}, {"lat": 38.8948635, "is_disabled": 0, "type": "electric_scooter", "lon": -76.9950375, "bike_id": "068f4645f1c2e233c0d6f1d4fcdf8c61", "fusion_lat": 0.0, "name": "068f4645f1c2e233c0d6f1d4fcdf8c61", "is_reserved": 0, "rental_uris": {"android": "https://dc.lft.to/lastmile_qr_scan", "ios": "https://dc.lft.to/lastmile_qr_scan"}, "fusion_lon": 0.0}, {"lat": 38.917378666666664, "is_disabled": 0, "type": "electric_scooter", "lon": -77.03198266666666, "bike_id": "6d86a1cae0c239bd2a422f626a907a2e", "fusion_lat": 0.0, "name": "6d86a1cae0c239bd2a422f626a907a2e", "is_reserved": 0, "rental_uris": {"android": "https://dc.lft.to/lastmile_qr_scan", "ios": "https://dc.lft.to/lastmile_qr_scan"}, "fusion_lon": 0.0}, {"lat": 38.90654466666667, "is_disabled": 0, "type": "electric_scooter", "lon": -77.00589816666667, "bike_id": "ee303cd03edf98b0dc5d3bb9eebd207e", "fusion_lat": 0.0, "name": "ee303cd03edf98b0dc5d3bb9eebd207e", "is_reserved": 0, "rental_uris": {"android": "https://dc.lft.to/lastmile_qr_scan", "ios": "https://dc.lft.to/lastmile_qr_scan"}, "fusion_lon": 0.0}, {"lat": 38.90950616666667, "is_disabled": 0, "type": "electric_scooter", "lon": -77.046674, "bike_id": "60a4cf82f39f9e54bd739c5a7b696917", "fusion_lat": 0.0, "name": "60a4cf82f39f9e54bd739c5a7b696917", "is_reserved": 0, "rental_uris": {"android": "https://dc.lft.to/lastmile_qr_scan", "ios": "https://dc.lft.to/lastmile_qr_scan"}, "fusion_lon": 0.0}, {"lat": 38.896277833333336, "is_disabled": 0, "type": "electric_scooter", "lon": -77.02847166666666, "bike_id": "3380641cc262347b835571d070e28255", "fusion_lat": 0.0, "name": "3380641cc262347b835571d070e28255", "is_reserved": 0, "rental_uris": {"android": "https://dc.lft.to/lastmile_qr_scan", "ios": "https://dc.lft.to/lastmile_qr_scan"}, "fusion_lon": 0.0}, {"lat": 38.871569, "is_disabled": 0, "type": "electric_bike", "lon": -76.936503, "bike_id": "c5c734e213b5f811a4e336314e30b953", "fusion_lat": 0.0, "name": "c5c734e213b5f811a4e336314e30b953", "is_reserved": 0, "rental_uris": {"android": "https://dc.lft.to/lastmile_qr_scan", "ios": "https://dc.lft.to/lastmile_qr_scan"}, "fusion_lon": 0.0}, {"lat": 38.881191666666666, "is_disabled": 0, "type": "electric_scooter", "lon": -77.01644516666667, "bike_id": "9fea887f47a75c20d629b9a5c494f7a2", "fusion_lat": 0.0, "name": "9fea887f47a75c20d629b9a5c494f7a2", "is_reserved": 0, "rental_uris": {"android": "https://dc.lft.to/lastmile_qr_scan", "ios": "https://dc.lft.to/lastmile_qr_scan"}, "fusion_lon": 0.0}, {"lat": 38.921721833333336, "is_disabled": 0, "type": "electric_scooter", "lon": -77.04020266666667, "bike_id": "87561e5031f3f1b02be72b7ef5795d0e", "fusion_lat": 0.0, "name": "87561e5031f3f1b02be72b7ef5795d0e", "is_reserved": 0, "rental_uris": {"android": "https://dc.lft.to/lastmile_qr_scan", "ios": "https://dc.lft.to/lastmile_qr_scan"}, "fusion_lon": 0.0}, {"lat": 38.924518666666664, "is_disabled": 0, "type": "electric_scooter", "lon": -77.04024083333333, "bike_id": "3b1b44babd9fa22b08048d4ab18d6727", "fusion_lat": 0.0, "name": "3b1b44babd9fa22b08048d4ab18d6727", "is_reserved": 0, "rental_uris": {"android": "https://dc.lft.to/lastmile_qr_scan", "ios": "https://dc.lft.to/lastmile_qr_scan"}, "fusion_lon": 0.0}, {"lat": 38.91124966666667, "is_disabled": 0, "type": "electric_scooter", "lon": -77.03841083333333, "bike_id": "cbd4e32ff3fb5f639db7040fbc21d3f0", "fusion_lat": 0.0, "name": "cbd4e32ff3fb5f639db7040fbc21d3f0", "is_reserved": 0, "rental_uris": {"android": "https://dc.lft.to/lastmile_qr_scan", "ios": "https://dc.lft.to/lastmile_qr_scan"}, "fusion_lon": 0.0}, {"lat": 38.89004583333333, "is_disabled": 0, "type": "electric_scooter", "lon": -76.9374995, "bike_id": "f8042d97c479f4fdc5424d56ea4e17d9", "fusion_lat": 0.0, "name": "f8042d97c479f4fdc5424d56ea4e17d9", "is_reserved": 0, "rental_uris": {"android": "https://dc.lft.to/lastmile_qr_scan", "ios": "https://dc.lft.to/lastmile_qr_scan"}, "fusion_lon": 0.0}, {"lat": 38.90321383333333, "is_disabled": 0, "type": "electric_scooter", "lon": -77.05172416666667, "bike_id": "df7e7756cd49543492bd82a4efdc6b08", "fusion_lat": 0.0, "name": "df7e7756cd49543492bd82a4efdc6b08", "is_reserved": 0, "rental_uris": {"android": "https://dc.lft.to/lastmile_qr_scan", "ios": "https://dc.lft.to/lastmile_qr_scan"}, "fusion_lon": 0.0}, {"lat": 38.93584116666667, "is_disabled": 0, "type": "electric_bike", "lon": -77.10681216666667, "bike_id": "4a48eccfb92d49eedbf8009aac47cee4", "fusion_lat": 0.0, "name": "4a48eccfb92d49eedbf8009aac47cee4", "is_reserved": 0, "rental_uris": {"android": "https://dc.lft.to/lastmile_qr_scan", "ios": "https://dc.lft.to/lastmile_qr_scan"}, "fusion_lon": 0.0}, {"lat": 38.892241, "is_disabled": 0, "type": "electric_scooter", "lon": -77.04201683333334, "bike_id": "149ece93d9da1b3161cec0099a0a1f0d", "fusion_lat": 0.0, "name": "149ece93d9da1b3161cec0099a0a1f0d", "is_reserved": 0, "rental_uris": {"android": "https://dc.lft.to/lastmile_qr_scan", "ios": "https://dc.lft.to/lastmile_qr_scan"}, "fusion_lon": 0.0}, {"lat": 38.929717, "is_disabled": 0, "type": "electric_scooter", "lon": -77.02929633333333, "bike_id": "6057d673a10cb1f15a4ce7cdca15c626", "fusion_lat": 0.0, "name": "6057d673a10cb1f15a4ce7cdca15c626", "is_reserved": 0, "rental_uris": {"android": "https://dc.lft.to/lastmile_qr_scan", "ios": "https://dc.lft.to/lastmile_qr_scan"}, "fusion_lon": 0.0}, {"lat": 38.92313733333334, "is_disabled": 0, "type": "electric_scooter", "lon": -77.04218383333334, "bike_id": "6da2b61442bdb80610367aa51ebd8161", "fusion_lat": 0.0, "name": "6da2b61442bdb80610367aa51ebd8161", "is_reserved": 0, "rental_uris": {"android": "https://dc.lft.to/lastmile_qr_scan", "ios": "https://dc.lft.to/lastmile_qr_scan"}, "fusion_lon": 0.0}, {"lat": 38.93252283333333, "is_disabled": 0, "type": "electric_scooter", "lon": -77.03268033333333, "bike_id": "81cfb0b5df67680e580e28626703cabd", "fusion_lat": 0.0, "name": "81cfb0b5df67680e580e28626703cabd", "is_reserved": 0, "rental_uris": {"android": "https://dc.lft.to/lastmile_qr_scan", "ios": "https://dc.lft.to/lastmile_qr_scan"}, "fusion_lon": 0.0}, {"lat": 38.91052766666667, "is_disabled": 0, "type": "electric_scooter", "lon": -77.05586916666667, "bike_id": "962f9b358e99875bbde02ef1967175f5", "fusion_lat": 0.0, "name": "962f9b358e99875bbde02ef1967175f5", "is_reserved": 0, "rental_uris": {"android": "https://dc.lft.to/lastmile_qr_scan", "ios": "https://dc.lft.to/lastmile_qr_scan"}, "fusion_lon": 0.0}, {"lat": 38.912600833333336, "is_disabled": 0, "type": "electric_scooter", "lon": -77.02211333333334, "bike_id": "655d35bf5bae4eac63f51a0ad6051e7a", "fusion_lat": 0.0, "name": "655d35bf5bae4eac63f51a0ad6051e7a", "is_reserved": 0, "rental_uris": {"android": "https://dc.lft.to/lastmile_qr_scan", "ios": "https://dc.lft.to/lastmile_qr_scan"}, "fusion_lon": 0.0}, {"lat": 38.90101383333333, "is_disabled": 0, "type": "electric_scooter", "lon": -76.9848645, "bike_id": "376854dffcbe87b3c7888ff8d1b02aee", "fusion_lat": 0.0, "name": "376854dffcbe87b3c7888ff8d1b02aee", "is_reserved": 0, "rental_uris": {"android": "https://dc.lft.to/lastmile_qr_scan", "ios": "https://dc.lft.to/lastmile_qr_scan"}, "fusion_lon": 0.0}, {"lat": 38.90867566666667, "is_disabled": 0, "type": "electric_scooter", "lon": -77.045889, "bike_id": "edd1bd73e3098448bb49c188250514b7", "fusion_lat": 0.0, "name": "edd1bd73e3098448bb49c188250514b7", "is_reserved": 0, "rental_uris": {"android": "https://dc.lft.to/lastmile_qr_scan", "ios": "https://dc.lft.to/lastmile_qr_scan"}, "fusion_lon": 0.0}, {"lat": 38.90827516666667, "is_disabled": 0, "type": "electric_scooter", "lon": -77.01794533333333, "bike_id": "bf2e90e9f2fb683fbbee965453e7c029", "fusion_lat": 0.0, "name": "bf2e90e9f2fb683fbbee965453e7c029", "is_reserved": 0, "rental_uris": {"android": "https://dc.lft.to/lastmile_qr_scan", "ios": "https://dc.lft.to/lastmile_qr_scan"}, "fusion_lon": 0.0}, {"lat": 38.9180945, "is_disabled": 0, "type": "electric_scooter", "lon": -77.031632, "bike_id": "c5785d77e1dd228139ae67d632a01071", "fusion_lat": 0.0, "name": "c5785d77e1dd228139ae67d632a01071", "is_reserved": 0, "rental_uris": {"android": "https://dc.lft.to/lastmile_qr_scan", "ios": "https://dc.lft.to/lastmile_qr_scan"}, "fusion_lon": 0.0}, {"lat": 38.9156035, "is_disabled": 0, "type": "electric_scooter", "lon": -77.020489, "bike_id": "48c6212014526c3fc8670f7f09466c5b", "fusion_lat": 0.0, "name": "48c6212014526c3fc8670f7f09466c5b", "is_reserved": 0, "rental_uris": {"android": "https://dc.lft.to/lastmile_qr_scan", "ios": "https://dc.lft.to/lastmile_qr_scan"}, "fusion_lon": 0.0}, {"lat": 38.900523166666666, "is_disabled": 0, "type": "electric_scooter", "lon": -77.00218033333333, "bike_id": "1011f9dad0372399525cefe018476215", "fusion_lat": 0.0, "name": "1011f9dad0372399525cefe018476215", "is_reserved": 0, "rental_uris": {"android": "https://dc.lft.to/lastmile_qr_scan", "ios": "https://dc.lft.to/lastmile_qr_scan"}, "fusion_lon": 0.0}, {"lat": 38.923633, "is_disabled": 0, "type": "electric_scooter", "lon": -77.05134533333333, "bike_id": "284a3cb4819363a10656ddf621acb595", "fusion_lat": 0.0, "name": "284a3cb4819363a10656ddf621acb595", "is_reserved": 0, "rental_uris": {"android": "https://dc.lft.to/lastmile_qr_scan", "ios": "https://dc.lft.to/lastmile_qr_scan"}, "fusion_lon": 0.0}, {"lat": 38.836796666666665, "is_disabled": 0, "type": "electric_scooter", "lon": -77.005818, "bike_id": "d99d693cf8da38581972f5871903e200", "fusion_lat": 0.0, "name": "d99d693cf8da38581972f5871903e200", "is_reserved": 0, "rental_uris": {"android": "https://dc.lft.to/lastmile_qr_scan", "ios": "https://dc.lft.to/lastmile_qr_scan"}, "fusion_lon": 0.0}, {"lat": 38.919183333333336, "is_disabled": 0, "type": "electric_scooter", "lon": -77.048124, "bike_id": "559ada2f940f715b67cbc3a861485e98", "fusion_lat": 0.0, "name": "559ada2f940f715b67cbc3a861485e98", "is_reserved": 0, "rental_uris": {"android": "https://dc.lft.to/lastmile_qr_scan", "ios": "https://dc.lft.to/lastmile_qr_scan"}, "fusion_lon": 0.0}, {"lat": 38.91792933333333, "is_disabled": 0, "type": "electric_scooter", "lon": -77.032017, "bike_id": "b3bc37a3932d2eb0c8ede0a82dfb9671", "fusion_lat": 0.0, "name": "b3bc37a3932d2eb0c8ede0a82dfb9671", "is_reserved": 0, "rental_uris": {"android": "https://dc.lft.to/lastmile_qr_scan", "ios": "https://dc.lft.to/lastmile_qr_scan"}, "fusion_lon": 0.0}, {"lat": 38.92339116666667, "is_disabled": 0, "type": "electric_scooter", "lon": -77.03511533333334, "bike_id": "b29ecbacbad71ed2c2bfeba7878835c3", "fusion_lat": 0.0, "name": "b29ecbacbad71ed2c2bfeba7878835c3", "is_reserved": 0, "rental_uris": {"android": "https://dc.lft.to/lastmile_qr_scan", "ios": "https://dc.lft.to/lastmile_qr_scan"}, "fusion_lon": 0.0}, {"lat": 38.95958383333333, "is_disabled": 0, "type": "electric_scooter", "lon": -77.033155, "bike_id": "96757019207d9cf5e168f9a119db1dc1", "fusion_lat": 0.0, "name": "96757019207d9cf5e168f9a119db1dc1", "is_reserved": 0, "rental_uris": {"android": "https://dc.lft.to/lastmile_qr_scan", "ios": "https://dc.lft.to/lastmile_qr_scan"}, "fusion_lon": 0.0}, {"lat": 38.92496766666667, "is_disabled": 0, "type": "electric_scooter", "lon": -77.02159716666667, "bike_id": "5d5069709c10063ebd241a3605049b27", "fusion_lat": 0.0, "name": "5d5069709c10063ebd241a3605049b27", "is_reserved": 0, "rental_uris": {"android": "https://dc.lft.to/lastmile_qr_scan", "ios": "https://dc.lft.to/lastmile_qr_scan"}, "fusion_lon": 0.0}, {"lat": 38.916168, "is_disabled": 0, "type": "electric_bike", "lon": -77.00292916666666, "bike_id": "0d0d64c7c6d06bc71309004419922d4d", "fusion_lat": 0.0, "name": "0d0d64c7c6d06bc71309004419922d4d", "is_reserved": 0, "rental_uris": {"android": "https://dc.lft.to/lastmile_qr_scan", "ios": "https://dc.lft.to/lastmile_qr_scan"}, "fusion_lon": 0.0}, {"lat": 38.91330383333333, "is_disabled": 0, "type": "electric_scooter", "lon": -77.03263216666667, "bike_id": "99b5526dc602a759f3cc4f4391a97cc6", "fusion_lat": 0.0, "name": "99b5526dc602a759f3cc4f4391a97cc6", "is_reserved": 0, "rental_uris": {"android": "https://dc.lft.to/lastmile_qr_scan", "ios": "https://dc.lft.to/lastmile_qr_scan"}, "fusion_lon": 0.0}, {"lat": 38.937415666666666, "is_disabled": 0, "type": "electric_scooter", "lon": -77.036349, "bike_id": "7cdfe161328ab262eb1b8c4d7c010263", "fusion_lat": 0.0, "name": "7cdfe161328ab262eb1b8c4d7c010263", "is_reserved": 0, "rental_uris": {"android": "https://dc.lft.to/lastmile_qr_scan", "ios": "https://dc.lft.to/lastmile_qr_scan"}, "fusion_lon": 0.0}, {"lat": 38.88486916666667, "is_disabled": 0, "type": "electric_scooter", "lon": -77.03477816666667, "bike_id": "d937c6686551a4c28e4545d618b64951", "fusion_lat": 0.0, "name": "d937c6686551a4c28e4545d618b64951", "is_reserved": 0, "rental_uris": {"android": "https://dc.lft.to/lastmile_qr_scan", "ios": "https://dc.lft.to/lastmile_qr_scan"}, "fusion_lon": 0.0}, {"lat": 38.90549583333333, "is_disabled": 0, "type": "electric_scooter", "lon": -77.0570485, "bike_id": "9774f2583cf50e80fb965bde9b518818", "fusion_lat": 0.0, "name": "9774f2583cf50e80fb965bde9b518818", "is_reserved": 0, "rental_uris": {"android": "https://dc.lft.to/lastmile_qr_scan", "ios": "https://dc.lft.to/lastmile_qr_scan"}, "fusion_lon": 0.0}, {"lat": 38.959602333333336, "is_disabled": 0, "type": "electric_bike", "lon": -77.100906, "bike_id": "6984246552ac64ae7149fd13fa8520e5", "fusion_lat": 0.0, "name": "6984246552ac64ae7149fd13fa8520e5", "is_reserved": 0, "rental_uris": {"android": "https://dc.lft.to/lastmile_qr_scan", "ios": "https://dc.lft.to/lastmile_qr_scan"}, "fusion_lon": 0.0}, {"lat": 38.89226333333333, "is_disabled": 0, "type": "electric_scooter", "lon": -77.04684566666667, "bike_id": "18156f881cdc98637cb102270ef28115", "fusion_lat": 0.0, "name": "18156f881cdc98637cb102270ef28115", "is_reserved": 0, "rental_uris": {"android": "https://dc.lft.to/lastmile_qr_scan", "ios": "https://dc.lft.to/lastmile_qr_scan"}, "fusion_lon": 0.0}, {"lat": 38.931915833333335, "is_disabled": 0, "type": "electric_scooter", "lon": -77.0283795, "bike_id": "1042cf101855e6922c56fb5bbb87785b", "fusion_lat": 0.0, "name": "1042cf101855e6922c56fb5bbb87785b", "is_reserved": 0, "rental_uris": {"android": "https://dc.lft.to/lastmile_qr_scan", "ios": "https://dc.lft.to/lastmile_qr_scan"}, "fusion_lon": 0.0}, {"lat": 38.914324666666666, "is_disabled": 0, "type": "electric_scooter", "lon": -77.03187416666667, "bike_id": "f76dafc8630a2a5dd764f48800d1e66c", "fusion_lat": 0.0, "name": "f76dafc8630a2a5dd764f48800d1e66c", "is_reserved": 0, "rental_uris": {"android": "https://dc.lft.to/lastmile_qr_scan", "ios": "https://dc.lft.to/lastmile_qr_scan"}, "fusion_lon": 0.0}, {"lat": 38.79326666666667, "is_disabled": 0, "type": "electric_bike", "lon": -77.040201, "bike_id": "8726ed548cf1f6bf0e53b37bfe0edf1b", "fusion_lat": 0.0, "name": "8726ed548cf1f6bf0e53b37bfe0edf1b", "is_reserved": 0, "rental_uris": {"android": "https://dc.lft.to/lastmile_qr_scan", "ios": "https://dc.lft.to/lastmile_qr_scan"}, "fusion_lon": 0.0}, {"lat": 38.8922025, "is_disabled": 0, "type": "electric_scooter", "lon": -77.026279, "bike_id": "6b17c8ea65951c5a25c0c1c3f586ed3c", "fusion_lat": 0.0, "name": "6b17c8ea65951c5a25c0c1c3f586ed3c", "is_reserved": 0, "rental_uris": {"android": "https://dc.lft.to/lastmile_qr_scan", "ios": "https://dc.lft.to/lastmile_qr_scan"}, "fusion_lon": 0.0}, {"lat": 38.94905166666667, "is_disabled": 0, "type": "electric_bike", "lon": -76.9724115, "bike_id": "6072a26a96beb84b2b0e435849b75d49", "fusion_lat": 0.0, "name": "6072a26a96beb84b2b0e435849b75d49", "is_reserved": 0, "rental_uris": {"android": "https://dc.lft.to/lastmile_qr_scan", "ios": "https://dc.lft.to/lastmile_qr_scan"}, "fusion_lon": 0.0}, {"lat": 38.898869, "is_disabled": 0, "type": "electric_scooter", "lon": -77.032421, "bike_id": "47ae855cf4e50fcbaf143106ca5638dd", "fusion_lat": 0.0, "name": "47ae855cf4e50fcbaf143106ca5638dd", "is_reserved": 0, "rental_uris": {"android": "https://dc.lft.to/lastmile_qr_scan", "ios": "https://dc.lft.to/lastmile_qr_scan"}, "fusion_lon": 0.0}, {"lat": 38.87373066666667, "is_disabled": 0, "type": "electric_bike", "lon": -77.1180625, "bike_id": "645605c8b9243d0abceadca521655484", "fusion_lat": 0.0, "name": "645605c8b9243d0abceadca521655484", "is_reserved": 0, "rental_uris": {"android": "https://dc.lft.to/lastmile_qr_scan", "ios": "https://dc.lft.to/lastmile_qr_scan"}, "fusion_lon": 0.0}, {"lat": 38.901506166666664, "is_disabled": 0, "type": "electric_scooter", "lon": -77.01538283333333, "bike_id": "40a8a5e55725250a2ff1287e0f371f21", "fusion_lat": 0.0, "name": "40a8a5e55725250a2ff1287e0f371f21", "is_reserved": 0, "rental_uris": {"android": "https://dc.lft.to/lastmile_qr_scan", "ios": "https://dc.lft.to/lastmile_qr_scan"}, "fusion_lon": 0.0}, {"lat": 38.9015825, "is_disabled": 0, "type": "electric_scooter", "lon": -77.04387716666666, "bike_id": "b4a8ba5fb46151bcc959a29f10965bc1", "fusion_lat": 0.0, "name": "b4a8ba5fb46151bcc959a29f10965bc1", "is_reserved": 0, "rental_uris": {"android": "https://dc.lft.to/lastmile_qr_scan", "ios": "https://dc.lft.to/lastmile_qr_scan"}, "fusion_lon": 0.0}, {"lat": 38.88338266666667, "is_disabled": 0, "type": "electric_scooter", "lon": -77.00930866666667, "bike_id": "e64104b7703941a5b8632247e60f1f06", "fusion_lat": 0.0, "name": "e64104b7703941a5b8632247e60f1f06", "is_reserved": 0, "rental_uris": {"android": "https://dc.lft.to/lastmile_qr_scan", "ios": "https://dc.lft.to/lastmile_qr_scan"}, "fusion_lon": 0.0}, {"lat": 38.926875833333334, "is_disabled": 0, "type": "electric_scooter", "lon": -77.0157445, "bike_id": "a1d72e54bf9630a7aa021950e0655d11", "fusion_lat": 0.0, "name": "a1d72e54bf9630a7aa021950e0655d11", "is_reserved": 0, "rental_uris": {"android": "https://dc.lft.to/lastmile_qr_scan", "ios": "https://dc.lft.to/lastmile_qr_scan"}, "fusion_lon": 0.0}, {"lat": 38.899429833333336, "is_disabled": 0, "type": "electric_scooter", "lon": -77.0409435, "bike_id": "dd47c73657f798419991ca22a665aecc", "fusion_lat": 0.0, "name": "dd47c73657f798419991ca22a665aecc", "is_reserved": 0, "rental_uris": {"android": "https://dc.lft.to/lastmile_qr_scan", "ios": "https://dc.lft.to/lastmile_qr_scan"}, "fusion_lon": 0.0}, {"lat": 38.91967733333333, "is_disabled": 0, "type": "electric_bike", "lon": -76.972643, "bike_id": "f1291ab03b43bf138efa02a6a2f5c0e9", "fusion_lat": 0.0, "name": "f1291ab03b43bf138efa02a6a2f5c0e9", "is_reserved": 0, "rental_uris": {"android": "https://dc.lft.to/lastmile_qr_scan", "ios": "https://dc.lft.to/lastmile_qr_scan"}, "fusion_lon": 0.0}, {"lat": 38.894923, "is_disabled": 0, "type": "electric_scooter", "lon": -77.02205433333333, "bike_id": "6939751501463ec92e74ceb1c53607c2", "fusion_lat": 0.0, "name": "6939751501463ec92e74ceb1c53607c2", "is_reserved": 0, "rental_uris": {"android": "https://dc.lft.to/lastmile_qr_scan", "ios": "https://dc.lft.to/lastmile_qr_scan"}, "fusion_lon": 0.0}, {"lat": 38.93676116666666, "is_disabled": 0, "type": "electric_bike", "lon": -76.95204666666666, "bike_id": "0c25d2b9c8457fb2d0005b66477c9ee1", "fusion_lat": 0.0, "name": "0c25d2b9c8457fb2d0005b66477c9ee1", "is_reserved": 0, "rental_uris": {"android": "https://dc.lft.to/lastmile_qr_scan", "ios": "https://dc.lft.to/lastmile_qr_scan"}, "fusion_lon": 0.0}, {"lat": 38.917623, "is_disabled": 0, "type": "electric_scooter", "lon": -77.031799, "bike_id": "7eee0520d57241ccb0e31794687ef4aa", "fusion_lat": 0.0, "name": "7eee0520d57241ccb0e31794687ef4aa", "is_reserved": 0, "rental_uris": {"android": "https://dc.lft.to/lastmile_qr_scan", "ios": "https://dc.lft.to/lastmile_qr_scan"}, "fusion_lon": 0.0}, {"lat": 38.91274633333333, "is_disabled": 0, "type": "electric_scooter", "lon": -77.039413, "bike_id": "38601df0283bbb3b2335e9faebacf2a6", "fusion_lat": 0.0, "name": "38601df0283bbb3b2335e9faebacf2a6", "is_reserved": 0, "rental_uris": {"android": "https://dc.lft.to/lastmile_qr_scan", "ios": "https://dc.lft.to/lastmile_qr_scan"}, "fusion_lon": 0.0}, {"lat": 38.930112, "is_disabled": 0, "type": "electric_bike", "lon": -77.21647, "bike_id": "e0d58a42c5c2f297cb23328c4f5fc534", "fusion_lat": 0.0, "name": "e0d58a42c5c2f297cb23328c4f5fc534", "is_reserved": 0, "rental_uris": {"android": "https://dc.lft.to/lastmile_qr_scan", "ios": "https://dc.lft.to/lastmile_qr_scan"}, "fusion_lon": 0.0}, {"lat": 38.93522683333333, "is_disabled": 0, "type": "electric_scooter", "lon": -77.03266183333334, "bike_id": "dbba24c38c5da95e2e4989d8da6d5020", "fusion_lat": 0.0, "name": "dbba24c38c5da95e2e4989d8da6d5020", "is_reserved": 0, "rental_uris": {"android": "https://dc.lft.to/lastmile_qr_scan", "ios": "https://dc.lft.to/lastmile_qr_scan"}, "fusion_lon": 0.0}, {"lat": 38.90220133333333, "is_disabled": 0, "type": "electric_scooter", "lon": -76.94592633333333, "bike_id": "892f35552707288a52934b54aeed3e7f", "fusion_lat": 0.0, "name": "892f35552707288a52934b54aeed3e7f", "is_reserved": 0, "rental_uris": {"android": "https://dc.lft.to/lastmile_qr_scan", "ios": "https://dc.lft.to/lastmile_qr_scan"}, "fusion_lon": 0.0}, {"lat": 38.907302, "is_disabled": 0, "type": "electric_scooter", "lon": -77.03439116666667, "bike_id": "4adf5204d8d46e991722e540bb9153f7", "fusion_lat": 0.0, "name": "4adf5204d8d46e991722e540bb9153f7", "is_reserved": 0, "rental_uris": {"android": "https://dc.lft.to/lastmile_qr_scan", "ios": "https://dc.lft.to/lastmile_qr_scan"}, "fusion_lon": 0.0}, {"lat": 38.93695916666667, "is_disabled": 0, "type": "electric_scooter", "lon": -77.0239915, "bike_id": "208514ac60ca63517cc66d39faea0fde", "fusion_lat": 0.0, "name": "208514ac60ca63517cc66d39faea0fde", "is_reserved": 0, "rental_uris": {"android": "https://dc.lft.to/lastmile_qr_scan", "ios": "https://dc.lft.to/lastmile_qr_scan"}, "fusion_lon": 0.0}, {"lat": 38.91203466666666, "is_disabled": 0, "type": "electric_scooter", "lon": -77.027666, "bike_id": "aedc450cb7fdc3044f6c87cda58169b8", "fusion_lat": 0.0, "name": "aedc450cb7fdc3044f6c87cda58169b8", "is_reserved": 0, "rental_uris": {"android": "https://dc.lft.to/lastmile_qr_scan", "ios": "https://dc.lft.to/lastmile_qr_scan"}, "fusion_lon": 0.0}, {"lat": 38.994215, "is_disabled": 0, "type": "electric_bike", "lon": -77.02654566666666, "bike_id": "fa6c40482c5fd943e3af23b109959ddc", "fusion_lat": 0.0, "name": "fa6c40482c5fd943e3af23b109959ddc", "is_reserved": 0, "rental_uris": {"android": "https://dc.lft.to/lastmile_qr_scan", "ios": "https://dc.lft.to/lastmile_qr_scan"}, "fusion_lon": 0.0}, {"lat": 38.90503, "is_disabled": 0, "type": "electric_scooter", "lon": -77.02819683333334, "bike_id": "12c876bf887a67b926202fdf9a561026", "fusion_lat": 0.0, "name": "12c876bf887a67b926202fdf9a561026", "is_reserved": 0, "rental_uris": {"android": "https://dc.lft.to/lastmile_qr_scan", "ios": "https://dc.lft.to/lastmile_qr_scan"}, "fusion_lon": 0.0}, {"lat": 38.899369, "is_disabled": 0, "type": "electric_scooter", "lon": -77.03297133333334, "bike_id": "bb697411d5c8d17293228da56f5c357d", "fusion_lat": 0.0, "name": "bb697411d5c8d17293228da56f5c357d", "is_reserved": 0, "rental_uris": {"android": "https://dc.lft.to/lastmile_qr_scan", "ios": "https://dc.lft.to/lastmile_qr_scan"}, "fusion_lon": 0.0}, {"lat": 38.922085, "is_disabled": 0, "type": "electric_scooter", "lon": -77.04013183333333, "bike_id": "fe989201ce0153592d19a54aaa2bcc1c", "fusion_lat": 0.0, "name": "fe989201ce0153592d19a54aaa2bcc1c", "is_reserved": 0, "rental_uris": {"android": "https://dc.lft.to/lastmile_qr_scan", "ios": "https://dc.lft.to/lastmile_qr_scan"}, "fusion_lon": 0.0}, {"lat": 38.91212783333334, "is_disabled": 0, "type": "electric_scooter", "lon": -77.04489416666667, "bike_id": "39f093c319ab38d4fee1e20d9c3b3eb5", "fusion_lat": 0.0, "name": "39f093c319ab38d4fee1e20d9c3b3eb5", "is_reserved": 0, "rental_uris": {"android": "https://dc.lft.to/lastmile_qr_scan", "ios": "https://dc.lft.to/lastmile_qr_scan"}, "fusion_lon": 0.0}, {"lat": 38.90790583333333, "is_disabled": 0, "type": "electric_scooter", "lon": -77.04253, "bike_id": "1a55416ba087b11b1a69f9e2bc9b242a", "fusion_lat": 0.0, "name": "1a55416ba087b11b1a69f9e2bc9b242a", "is_reserved": 0, "rental_uris": {"android": "https://dc.lft.to/lastmile_qr_scan", "ios": "https://dc.lft.to/lastmile_qr_scan"}, "fusion_lon": 0.0}, {"lat": 38.955790666666665, "is_disabled": 0, "type": "electric_scooter", "lon": -77.07007616666667, "bike_id": "9ed1731d4e0f634a806d607c8278a8a0", "fusion_lat": 0.0, "name": "9ed1731d4e0f634a806d607c8278a8a0", "is_reserved": 0, "rental_uris": {"android": "https://dc.lft.to/lastmile_qr_scan", "ios": "https://dc.lft.to/lastmile_qr_scan"}, "fusion_lon": 0.0}, {"lat": 38.905725833333335, "is_disabled": 0, "type": "electric_scooter", "lon": -77.0059035, "bike_id": "d8e68291caefb9be2e4d5606595354d7", "fusion_lat": 0.0, "name": "d8e68291caefb9be2e4d5606595354d7", "is_reserved": 0, "rental_uris": {"android": "https://dc.lft.to/lastmile_qr_scan", "ios": "https://dc.lft.to/lastmile_qr_scan"}, "fusion_lon": 0.0}, {"lat": 38.910528666666664, "is_disabled": 0, "type": "electric_scooter", "lon": -77.015197, "bike_id": "813b3e8289e91e171999e1b14a551925", "fusion_lat": 0.0, "name": "813b3e8289e91e171999e1b14a551925", "is_reserved": 0, "rental_uris": {"android": "https://dc.lft.to/lastmile_qr_scan", "ios": "https://dc.lft.to/lastmile_qr_scan"}, "fusion_lon": 0.0}, {"lat": 38.881223, "is_disabled": 0, "type": "electric_scooter", "lon": -77.0140985, "bike_id": "a0f5413c406cd138329da3639fddb8cf", "fusion_lat": 0.0, "name": "a0f5413c406cd138329da3639fddb8cf", "is_reserved": 0, "rental_uris": {"android": "https://dc.lft.to/lastmile_qr_scan", "ios": "https://dc.lft.to/lastmile_qr_scan"}, "fusion_lon": 0.0}, {"lat": 38.86914083333333, "is_disabled": 0, "type": "electric_bike", "lon": -77.13182716666667, "bike_id": "2d6ade38654248c270458078857ee78a", "fusion_lat": 0.0, "name": "2d6ade38654248c270458078857ee78a", "is_reserved": 0, "rental_uris": {"android": "https://dc.lft.to/lastmile_qr_scan", "ios": "https://dc.lft.to/lastmile_qr_scan"}, "fusion_lon": 0.0}, {"lat": 38.90549733333334, "is_disabled": 0, "type": "electric_scooter", "lon": -77.05705983333333, "bike_id": "d55a2dbdb1d32e4bb27bdc79443eaf71", "fusion_lat": 0.0, "name": "d55a2dbdb1d32e4bb27bdc79443eaf71", "is_reserved": 0, "rental_uris": {"android": "https://dc.lft.to/lastmile_qr_scan", "ios": "https://dc.lft.to/lastmile_qr_scan"}, "fusion_lon": 0.0}, {"lat": 38.8043625, "is_disabled": 0, "type": "electric_bike", "lon": -77.06091116666667, "bike_id": "49acda8f051bf26332b704542a4f2ad3", "fusion_lat": 0.0, "name": "49acda8f051bf26332b704542a4f2ad3", "is_reserved": 0, "rental_uris": {"android": "https://dc.lft.to/lastmile_qr_scan", "ios": "https://dc.lft.to/lastmile_qr_scan"}, "fusion_lon": 0.0}, {"lat": 38.89845666666667, "is_disabled": 0, "type": "electric_scooter", "lon": -76.946346, "bike_id": "812324a26da78180c13819a7efb2ffb5", "fusion_lat": 0.0, "name": "812324a26da78180c13819a7efb2ffb5", "is_reserved": 0, "rental_uris": {"android": "https://dc.lft.to/lastmile_qr_scan", "ios": "https://dc.lft.to/lastmile_qr_scan"}, "fusion_lon": 0.0}, {"lat": 39.01577483333333, "is_disabled": 0, "type": "electric_bike", "lon": -77.0423805, "bike_id": "e2f8071f81e1d3dd00c2fbf46dd37f0e", "fusion_lat": 0.0, "name": "e2f8071f81e1d3dd00c2fbf46dd37f0e", "is_reserved": 0, "rental_uris": {"android": "https://dc.lft.to/lastmile_qr_scan", "ios": "https://dc.lft.to/lastmile_qr_scan"}, "fusion_lon": 0.0}, {"lat": 38.89715866666667, "is_disabled": 0, "type": "electric_scooter", "lon": -77.02150266666666, "bike_id": "e110294e4884d392c99f84daaad20a9a", "fusion_lat": 0.0, "name": "e110294e4884d392c99f84daaad20a9a", "is_reserved": 0, "rental_uris": {"android": "https://dc.lft.to/lastmile_qr_scan", "ios": "https://dc.lft.to/lastmile_qr_scan"}, "fusion_lon": 0.0}, {"lat": 38.9010495, "is_disabled": 0, "type": "electric_scooter", "lon": -77.02712733333334, "bike_id": "a6f203173a3f49e9026a0afede7cb213", "fusion_lat": 0.0, "name": "a6f203173a3f49e9026a0afede7cb213", "is_reserved": 0, "rental_uris": {"android": "https://dc.lft.to/lastmile_qr_scan", "ios": "https://dc.lft.to/lastmile_qr_scan"}, "fusion_lon": 0.0}, {"lat": 38.91415466666667, "is_disabled": 0, "type": "electric_scooter", "lon": -77.02567516666667, "bike_id": "766217b0e5881b06febeebd27f9c77c4", "fusion_lat": 0.0, "name": "766217b0e5881b06febeebd27f9c77c4", "is_reserved": 0, "rental_uris": {"android": "https://dc.lft.to/lastmile_qr_scan", "ios": "https://dc.lft.to/lastmile_qr_scan"}, "fusion_lon": 0.0}, {"lat": 38.95404416666667, "is_disabled": 0, "type": "electric_scooter", "lon": -77.03631766666666, "bike_id": "67db05b8ff9a508f6a54e12d0b10df2e", "fusion_lat": 0.0, "name": "67db05b8ff9a508f6a54e12d0b10df2e", "is_reserved": 0, "rental_uris": {"android": "https://dc.lft.to/lastmile_qr_scan", "ios": "https://dc.lft.to/lastmile_qr_scan"}, "fusion_lon": 0.0}, {"lat": 38.907215666666666, "is_disabled": 0, "type": "electric_scooter", "lon": -77.02961983333333, "bike_id": "69574d36a89da2db1aacdff50964edbd", "fusion_lat": 0.0, "name": "69574d36a89da2db1aacdff50964edbd", "is_reserved": 0, "rental_uris": {"android": "https://dc.lft.to/lastmile_qr_scan", "ios": "https://dc.lft.to/lastmile_qr_scan"}, "fusion_lon": 0.0}, {"lat": 38.9587965, "is_disabled": 0, "type": "electric_bike", "lon": -77.01035833333333, "bike_id": "279ae906f3cc13cb1f16f90e013af8bb", "fusion_lat": 0.0, "name": "279ae906f3cc13cb1f16f90e013af8bb", "is_reserved": 0, "rental_uris": {"android": "https://dc.lft.to/lastmile_qr_scan", "ios": "https://dc.lft.to/lastmile_qr_scan"}, "fusion_lon": 0.0}, {"lat": 38.88528083333333, "is_disabled": 0, "type": "electric_scooter", "lon": -77.01135483333333, "bike_id": "addd2d37dc37abc86be079ebf15b47c1", "fusion_lat": 0.0, "name": "addd2d37dc37abc86be079ebf15b47c1", "is_reserved": 0, "rental_uris": {"android": "https://dc.lft.to/lastmile_qr_scan", "ios": "https://dc.lft.to/lastmile_qr_scan"}, "fusion_lon": 0.0}, {"lat": 38.89223483333333, "is_disabled": 0, "type": "electric_scooter", "lon": -77.0437305, "bike_id": "4570b9458ee97a2bd32cb94221347386", "fusion_lat": 0.0, "name": "4570b9458ee97a2bd32cb94221347386", "is_reserved": 0, "rental_uris": {"android": "https://dc.lft.to/lastmile_qr_scan", "ios": "https://dc.lft.to/lastmile_qr_scan"}, "fusion_lon": 0.0}, {"lat": 38.93607433333333, "is_disabled": 0, "type": "electric_scooter", "lon": -77.05858433333333, "bike_id": "af469215a01c113c57d5cebad9c73930", "fusion_lat": 0.0, "name": "af469215a01c113c57d5cebad9c73930", "is_reserved": 0, "rental_uris": {"android": "https://dc.lft.to/lastmile_qr_scan", "ios": "https://dc.lft.to/lastmile_qr_scan"}, "fusion_lon": 0.0}, {"lat": 38.859453333333335, "is_disabled": 0, "type": "electric_bike", "lon": -77.08615833333333, "bike_id": "fd10d11e51d18d4137032b6b4485ca07", "fusion_lat": 0.0, "name": "fd10d11e51d18d4137032b6b4485ca07", "is_reserved": 0, "rental_uris": {"android": "https://dc.lft.to/lastmile_qr_scan", "ios": "https://dc.lft.to/lastmile_qr_scan"}, "fusion_lon": 0.0}, {"lat": 38.907779166666664, "is_disabled": 0, "type": "electric_scooter", "lon": -77.00371333333334, "bike_id": "3d37d5be141ae987376e1174544d78b4", "fusion_lat": 0.0, "name": "3d37d5be141ae987376e1174544d78b4", "is_reserved": 0, "rental_uris": {"android": "https://dc.lft.to/lastmile_qr_scan", "ios": "https://dc.lft.to/lastmile_qr_scan"}, "fusion_lon": 0.0}, {"lat": 38.933301666666665, "is_disabled": 0, "type": "electric_scooter", "lon": -77.0436975, "bike_id": "203ba791612b042336b7fb9f3aa1812b", "fusion_lat": 0.0, "name": "203ba791612b042336b7fb9f3aa1812b", "is_reserved": 0, "rental_uris": {"android": "https://dc.lft.to/lastmile_qr_scan", "ios": "https://dc.lft.to/lastmile_qr_scan"}, "fusion_lon": 0.0}, {"lat": 38.9022855, "is_disabled": 0, "type": "electric_scooter", "lon": -77.060469, "bike_id": "24e048073468b85967a1286536a014af", "fusion_lat": 0.0, "name": "24e048073468b85967a1286536a014af", "is_reserved": 0, "rental_uris": {"android": "https://dc.lft.to/lastmile_qr_scan", "ios": "https://dc.lft.to/lastmile_qr_scan"}, "fusion_lon": 0.0}, {"lat": 38.92485816666667, "is_disabled": 0, "type": "electric_scooter", "lon": -77.05759666666667, "bike_id": "ca005ed9f444b3db0722729ec768cac3", "fusion_lat": 0.0, "name": "ca005ed9f444b3db0722729ec768cac3", "is_reserved": 0, "rental_uris": {"android": "https://dc.lft.to/lastmile_qr_scan", "ios": "https://dc.lft.to/lastmile_qr_scan"}, "fusion_lon": 0.0}, {"lat": 38.919528, "is_disabled": 0, "type": "electric_scooter", "lon": -76.98086883333333, "bike_id": "30f6aa3daa53ff6809e4f43ac8bf7797", "fusion_lat": 0.0, "name": "30f6aa3daa53ff6809e4f43ac8bf7797", "is_reserved": 0, "rental_uris": {"android": "https://dc.lft.to/lastmile_qr_scan", "ios": "https://dc.lft.to/lastmile_qr_scan"}, "fusion_lon": 0.0}, {"lat": 39.02437533333333, "is_disabled": 0, "type": "electric_bike", "lon": -77.13099916666667, "bike_id": "902ff598a431c7d3b8687d9b4a46162c", "fusion_lat": 0.0, "name": "902ff598a431c7d3b8687d9b4a46162c", "is_reserved": 0, "rental_uris": {"android": "https://dc.lft.to/lastmile_qr_scan", "ios": "https://dc.lft.to/lastmile_qr_scan"}, "fusion_lon": 0.0}, {"lat": 38.94976066666667, "is_disabled": 0, "type": "electric_scooter", "lon": -77.06560433333334, "bike_id": "e4d0c18bb82f149ada580338ec4a46ab", "fusion_lat": 0.0, "name": "e4d0c18bb82f149ada580338ec4a46ab", "is_reserved": 0, "rental_uris": {"android": "https://dc.lft.to/lastmile_qr_scan", "ios": "https://dc.lft.to/lastmile_qr_scan"}, "fusion_lon": 0.0},