{"data": {"bikes": [{"name": "5b33c61b9958aa4e901180091c0204c1", "fusion_lat": 0.0, "type": "electric_scooter", "lat": 38.9207845, "is_reserved": 0, "is_disabled": 0, "fusion_lon": 0.0, "bike_id": "5b33c61b9958aa4e901180091c0204c1", "lon": -77.0239605, "rental_uris": {"ios": "https://dc.lft.to/lastmile_qr_scan", "android": "https://dc.lft.to/lastmile_qr_scan"}}, {"name": "b913783d80aa030b92951382f07ca97c", "fusion_lat": 0.0, "type": "electric_scooter", "lat": 38.911858, "is_reserved": 0, "is_disabled": 0, "fusion_lon": 0.0, "bike_id": "b913783d80aa030b92951382f07ca97c", "lon": -77.04453933333333, "rental_uris": {"ios": "https://dc.lft.to/lastmile_qr_scan", "android": "https://dc.lft.to/lastmile_qr_scan"}}, {"name": "3b5bd08deb43778fcafa69466fa04d85", "fusion_lat": 0.0, "type": "electric_scooter", "lat": 38.883429, "is_reserved": 0, "is_disabled": 0, "fusion_lon": 0.0, "bike_id": "3b5bd08deb43778fcafa69466fa04d85", "lon": -77.02330983333333, "rental_uris": {"ios": "https://dc.lft.to/lastmile_qr_scan", "android": "https://dc.lft.to/lastmile_qr_scan"}}, {"name": "ba62279461b8d69213acad5958baf715", "fusion_lat": 0.0, "type": "electric_scooter", "lat": 38.901416833333336, "is_reserved": 0, "is_disabled": 0, "fusion_lon": 0.0, "bike_id": "ba62279461b8d69213acad5958baf715", "lon": -77.03973, "rental_uris": {"ios": "https://dc.lft.to/lastmile_qr_scan", "android": "https://dc.lft.to/lastmile_qr_scan"}}, {"name": "52f217ad9488aba224029d01456e3bcf", "fusion_lat": 0.0, "type": "electric_scooter", "lat": 38.9140555, "is_reserved": 0, "is_disabled": 0, "fusion_lon": 0.0, "bike_id": "52f217ad9488aba224029d01456e3bcf", "lon": -77.00804883333333, "rental_uris": {"ios": "https://dc.lft.to/lastmile_qr_scan", "android": "https://dc.lft.to/lastmile_qr_scan"}}, {"name": "bf08e93ed0ac322cd58f0a145a1258d5", "fusion_lat": 0.0, "type": "electric_scooter", "lat": 38.921807333333334, "is_reserved": 0, "is_disabled": 0, "fusion_lon": 0.0, "bike_id": "bf08e93ed0ac322cd58f0a145a1258d5", "lon": -77.026628, "rental_uris": {"ios": "https://dc.lft.to/lastmile_qr_scan", "android": "https://dc.lft.to/lastmile_qr_scan"}}, {"name": "3caf1d892841c669fdb9686f32ef4f0c", "fusion_lat": 0.0, "type": "electric_bike", "lat": 38.861615, "is_reserved": 0, "is_disabled": 0, "fusion_lon": 0.0, "bike_id": "3caf1d892841c669fdb9686f32ef4f0c", "lon": -77.13093216666667, "rental_uris": {"ios": "https://dc.lft.to/lastmile_qr_scan", "android": "https://dc.lft.to/lastmile_qr_scan"}}, {"name": "d9bcdabdb454c6331496d36d5e092872", "fusion_lat": 0.0, "type": "electric_scooter", "lat": 38.905821, "is_reserved": 0, "is_disabled": 0, "fusion_lon": 0.0, "bike_id": "d9bcdabdb454c6331496d36d5e092872", "lon": -77.0313995, "rental_uris": {"ios": "https://dc.lft.to/lastmile_qr_scan", "android": "https://dc.lft.to/lastmile_qr_scan"}}, {"name": "6ae7d70ef185b0c0b71c64b25a96853f", "fusion_lat": 0.0, "type": "electric_scooter", "lat": 38.8875, "is_reserved": 0, "is_disabled": 0, "fusion_lon": 0.0, "bike_id": "6ae7d70ef185b0c0b71c64b25a96853f", "lon": -77.01541433333334, "rental_uris": {"ios": "https://dc.lft.to/lastmile_qr_scan", "android": "https://dc.lft.to/lastmile_qr_scan"}}, {"name": "f5afbcf82d4a102dc1670ee7ba6c3fa1", "fusion_lat": 0.0, "type": "electric_scooter", "lat": 38.89244, "is_reserved": 0, "is_disabled": 0, "fusion_lon": 0.0, "bike_id": "f5afbcf82d4a102dc1670ee7ba6c3fa1", "lon": -77.01778616666667, "rental_uris": {"ios": "https://dc.lft.to/lastmile_qr_scan", "android": "https://dc.lft.to/lastmile_qr_scan"}}, {"name": "2523bd9da8d4ee72e7ee55e47bdd6ef7", "fusion_lat": 0.0, "type": "electric_bike", "lat": 38.9676155, "is_reserved": 0, "is_disabled": 0, "fusion_lon": 0.0, "bike_id": "2523bd9da8d4ee72e7ee55e47bdd6ef7", "lon": -77.09161366666666, "rental_uris": {"ios": "https://dc.lft.to/lastmile_qr_scan", "android": "https://dc.lft.to/lastmile_qr_scan"}}, {"name": "22456052d70c6d7456bb60c8409f2134", "fusion_lat": 0.0, "type": "electric_scooter", "lat": 38.90237966666667, "is_reserved": 0, "is_disabled": 0, "fusion_lon": 0.0, "bike_id": "22456052d70c6d7456bb60c8409f2134", "lon": -76.97416233333334, "rental_uris": {"ios": "https://dc.lft.to/lastmile_qr_scan", "android": "https://dc.lft.to/lastmile_qr_scan"}}, {"name": "b9ce5d6abaf18a35953caf999ba3fc0a", "fusion_lat": 0.0, "type": "electric_scooter", "lat": 38.87447616666667, "is_reserved": 0, "is_disabled": 0, "fusion_lon": 0.0, "bike_id": "b9ce5d6abaf18a35953caf999ba3fc0a", "lon": -77.00925566666666, "rental_uris": {"ios": "https://dc.lft.to/lastmile_qr_scan", "android": "https://dc.lft.to/lastmile_qr_scan"}}, {"name": "2beb5a9a0fb83f33c5ee727730956677", "fusion_lat": 0.0, "type": "electric_scooter", "lat": 38.917999, "is_reserved": 0, "is_disabled": 0, "fusion_lon": 0.0, "bike_id": "2beb5a9a0fb83f33c5ee727730956677", "lon": -77.0401645, "rental_uris": {"ios": "https://dc.lft.to/lastmile_qr_scan", "android": "https://dc.lft.to/lastmile_qr_scan"}}, {"name": "bcfb97e28b53c77f1a6d53b8aaae11de", "fusion_lat": 0.0, "type": "electric_scooter", "lat": 38.915846333333334, "is_reserved": 0, "is_disabled": 0, "fusion_lon": 0.0, "bike_id": "bcfb97e28b53c77f1a6d53b8aaae11de", "lon": -77.03181583333334, "rental_uris": {"ios": "https://dc.lft.to/lastmile_qr_scan", "android": "https://dc.lft.to/lastmile_qr_scan"}}, {"name": "dfce2c6e5698eadfa0fbb492ea395afe", "fusion_lat": 0.0, "type": "electric_scooter", "lat": 38.91264066666667, "is_reserved": 0, "is_disabled": 0, "fusion_lon": 0.0, "bike_id": "dfce2c6e5698eadfa0fbb492ea395afe", "lon": -77.04151483333334, "rental_uris": {"ios": "https://dc.lft.to/lastmile_qr_scan", "android": "https://dc.lft.to/lastmile_qr_scan"}}, {"name": "7b5e62d1a03f34a8c3468661ffc270c1", "fusion_lat": 0.0, "type": "electric_scooter", "lat": 38.91024516666667, "is_reserved": 0, "is_disabled": 0, "fusion_lon": 0.0, "bike_id": "7b5e62d1a03f34a8c3468661ffc270c1", "lon": -77.04161116666667, "rental_uris": {"ios": "https://dc.lft.to/lastmile_qr_scan", "android": "https://dc.lft.to/lastmile_qr_scan"}}, {"name": "dc987f55afbf3b1ef6c2d27d062d57d3", "fusion_lat": 0.0, "type": "electric_bike", "lat": 38.85244733333333, "is_reserved": 0, "is_disabled": 0, "fusion_lon": 0.0, "bike_id": "dc987f55afbf3b1ef6c2d27d062d57d3", "lon": -77.11429166666667, "rental_uris": {"ios": "https://dc.lft.to/lastmile_qr_scan", "android": "https://dc.lft.to/lastmile_qr_scan"}}, {"name": "0d51c34a8c1518430d623845737d1935", "fusion_lat": 0.0, "type": "electric_scooter", "lat": 38.9586705, "is_reserved": 0, "is_disabled": 0, "fusion_lon": 0.0, "bike_id": "0d51c34a8c1518430d623845737d1935", "lon": -77.02051466666667, "rental_uris": {"ios": "https://dc.lft.to/lastmile_qr_scan", "android": "https://dc.lft.to/lastmile_qr_scan"}}, {"name": "56d134248084813b4bcc317a8744375e", "fusion_lat": 0.0, "type": "electric_scooter", "lat": 38.90962666666667, "is_reserved": 0, "is_disabled": 0, "fusion_lon": 0.0, "bike_id": "56d134248084813b4bcc317a8744375e", "lon": -77.041354, "rental_uris": {"ios": "https://dc.lft.to/lastmile_qr_scan", "android": "https://dc.lft.to/lastmile_qr_scan"}}, {"name": "04df879745b7ef13c07a1f2c00a09656", "fusion_lat": 0.0, "type": "electric_scooter", "lat": 38.918298166666666, "is_reserved": 0, "is_disabled": 0, "fusion_lon": 0.0, "bike_id": "04df879745b7ef13c07a1f2c00a09656", "lon": -77.027187, "rental_uris": {"ios": "https://dc.lft.to/lastmile_qr_scan", "android": "https://dc.lft.to/lastmile_qr_scan"}}, {"name": "1838927744f018391a22503824e33ffe", "fusion_lat": 0.0, "type": "electric_scooter", "lat": 38.907247, "is_reserved": 0, "is_disabled": 0, "fusion_lon": 0.0, "bike_id": "1838927744f018391a22503824e33ffe", "lon": -77.04492683333334, "rental_uris": {"ios": "https://dc.lft.to/lastmile_qr_scan", "android": "https://dc.lft.to/lastmile_qr_scan"}}, {"name": "308b1dbcbaa2d88d5c143ad5a56b9eea", "fusion_lat": 0.0, "type": "electric_scooter", "lat": 38.902645, "is_reserved": 0, "is_disabled": 0, "fusion_lon": 0.0, "bike_id": "308b1dbcbaa2d88d5c143ad5a56b9eea", "lon": -77.03855883333334, "rental_uris": {"ios": "https://dc.lft.to/lastmile_qr_scan", "android": "https://dc.lft.to/lastmile_qr_scan"}}, {"name": "10979ca0b5b8c43c7ea22385d2ab37a5", "fusion_lat": 0.0, "type": "electric_scooter", "lat": 38.93470966666667, "is_reserved": 0, "is_disabled": 0, "fusion_lon": 0.0, "bike_id": "10979ca0b5b8c43c7ea22385d2ab37a5", "lon": -77.02857483333334, "rental_uris": {"ios": "https://dc.lft.to/lastmile_qr_scan", "android": "https://dc.lft.to/lastmile_qr_scan"}}, {"name": "60c0a9b062514e9fd6009ab0cc5f93cb", "fusion_lat": 0.0, "type": "electric_scooter", "lat": 38.9196195, "is_reserved": 0, "is_disabled": 0, "fusion_lon": 0.0, "bike_id": "60c0a9b062514e9fd6009ab0cc5f93cb", "lon": -77.02515466666667, "rental_uris": {"ios": "https://dc.lft.to/lastmile_qr_scan", "android": "https://dc.lft.to/lastmile_qr_scan"}}, {"name": "f69d7ff3dae4be522e7453d7a42fca97", "fusion_lat": 0.0, "type": "electric_scooter", "lat": 38.886847833333334, "is_reserved": 0, "is_disabled": 0, "fusion_lon": 0.0, "bike_id": "f69d7ff3dae4be522e7453d7a42fca97", "lon": -76.9576065, "rental_uris": {"ios": "https://dc.lft.to/lastmile_qr_scan", "android": "https://dc.lft.to/lastmile_qr_scan"}}, {"name": "9b6c8b9a093fd5758207e64a3f847f6f", "fusion_lat": 0.0, "type": "electric_scooter", "lat": 38.911509833333334, "is_reserved": 0, "is_disabled": 0, "fusion_lon": 0.0, "bike_id": "9b6c8b9a093fd5758207e64a3f847f6f", "lon": -77.0442925, "rental_uris": {"ios": "https://dc.lft.to/lastmile_qr_scan", "android": "https://dc.lft.to/lastmile_qr_scan"}}, {"name": "a259da68e8e8475b32a9ab9054630345", "fusion_lat": 0.0, "type": "electric_scooter", "lat": 38.89740416666667, "is_reserved": 0, "is_disabled": 0, "fusion_lon": 0.0, "bike_id": "a259da68e8e8475b32a9ab9054630345", "lon": -76.93848316666667, "rental_uris": {"ios": "https://dc.lft.to/lastmile_qr_scan", "android": "https://dc.lft.to/lastmile_qr_scan"}}, {"name": "f2d7220f2ab51982237b02e6dc7969d1", "fusion_lat": 0.0, "type": "electric_scooter", "lat": 38.858498166666664, "is_reserved": 0, "is_disabled": 0, "fusion_lon": 0.0, "bike_id": "f2d7220f2ab51982237b02e6dc7969d1", "lon": -76.9588805, "rental_uris": {"ios": "https://dc.lft.to/lastmile_qr_scan", "android": "https://dc.lft.to/lastmile_qr_scan"}}, {"name": "ab83c11fa6881470e1f355f100f08b1c", "fusion_lat": 0.0, "type": "electric_scooter", "lat": 38.89536433333333, "is_reserved": 0, "is_disabled": 0, "fusion_lon": 0.0, "bike_id": "ab83c11fa6881470e1f355f100f08b1c", "lon": -77.02564433333333, "rental_uris": {"ios": "https://dc.lft.to/lastmile_qr_scan", "android": "https://dc.lft.to/lastmile_qr_scan"}}, {"name": "7b322bef4142dfac594885a682705ccc", "fusion_lat": 0.0, "type": "electric_scooter", "lat": 38.90779916666666, "is_reserved": 0, "is_disabled": 0, "fusion_lon": 0.0, "bike_id": "7b322bef4142dfac594885a682705ccc", "lon": -77.07171833333334, "rental_uris": {"ios": "https://dc.lft.to/lastmile_qr_scan", "android": "https://dc.lft.to/lastmile_qr_scan"}}, {"name": "6a51231fd114f2ca3156ab4507800822", "fusion_lat": 0.0, "type": "electric_scooter", "lat": 38.921640333333336, "is_reserved": 0, "is_disabled": 0, "fusion_lon": 0.0, "bike_id": "6a51231fd114f2ca3156ab4507800822", "lon": -77.04221016666666, "rental_uris": {"ios": "https://dc.lft.to/lastmile_qr_scan", "android": "https://dc.lft.to/lastmile_qr_scan"}}, {"name": "26ca220589c367df8801514a1d9f000a", "fusion_lat": 0.0, "type": "electric_bike", "lat": 38.94228066666667, "is_reserved": 0, "is_disabled": 0, "fusion_lon": 0.0, "bike_id": "26ca220589c367df8801514a1d9f000a", "lon": -77.013885, "rental_uris": {"ios": "https://dc.lft.to/lastmile_qr_scan", "android": "https://dc.lft.to/lastmile_qr_scan"}}, {"name": "2caffa99177afbb34bfa9a1835bbf9a2", "fusion_lat": 0.0, "type": "electric_scooter", "lat": 38.914924666666664, "is_reserved": 0, "is_disabled": 0, "fusion_lon": 0.0, "bike_id": "2caffa99177afbb34bfa9a1835bbf9a2", "lon": -77.04504866666667, "rental_uris": {"ios": "https://dc.lft.to/lastmile_qr_scan", "android": "https://dc.lft.to/lastmile_qr_scan"}}, {"name": "da3dd9fe33a5c350faf9ab93b9bf3b2f", "fusion_lat": 0.0, "type": "electric_scooter", "lat": 38.911092, "is_reserved": 0, "is_disabled": 0, "fusion_lon": 0.0, "bike_id": "da3dd9fe33a5c350faf9ab93b9bf3b2f", "lon": -77.03148266666666, "rental_uris": {"ios": "https://dc.lft.to/lastmile_qr_scan", "android": "https://dc.lft.to/lastmile_qr_scan"}}, {"name": "bd30e178904bfcb4cf87505c2c20d81f", "fusion_lat": 0.0, "type": "electric_scooter", "lat": 38.913144333333335, "is_reserved": 0, "is_disabled": 0, "fusion_lon": 0.0, "bike_id": "bd30e178904bfcb4cf87505c2c20d81f", "lon": -77.014352, "rental_uris": {"ios": "https://dc.lft.to/lastmile_qr_scan", "android": "https://dc.lft.to/lastmile_qr_scan"}}, {"name": "019c9c33ed563e00f3328b7ae6a8307d", "fusion_lat": 0.0, "type": "electric_scooter", "lat": 38.894516333333335, "is_reserved": 0, "is_disabled": 0, "fusion_lon": 0.0, "bike_id": "019c9c33ed563e00f3328b7ae6a8307d", "lon": -77.0192205, "rental_uris": {"ios": "https://dc.lft.to/lastmile_qr_scan", "android": "https://dc.lft.to/lastmile_qr_scan"}}, {"name": "0430ca91847a6a29fd842248882dd7ef", "fusion_lat": 0.0, "type": "electric_scooter", "lat": 38.937819166666664, "is_reserved": 0, "is_disabled": 0, "fusion_lon": 0.0, "bike_id": "0430ca91847a6a29fd842248882dd7ef", "lon": -77.06001266666667, "rental_uris": {"ios": "https://dc.lft.to/lastmile_qr_scan", "android": "https://dc.lft.to/lastmile_qr_scan"}}, {"name": "3357b6cdb3ef95c43c3263ea9e4151a3", "fusion_lat": 0.0, "type": "electric_bike", "lat": 38.799871833333334, "is_reserved": 0, "is_disabled": 0, "fusion_lon": 0.0, "bike_id": "3357b6cdb3ef95c43c3263ea9e4151a3", "lon": -77.12980916666666, "rental_uris": {"ios": "https://dc.lft.to/lastmile_qr_scan", "android": "https://dc.lft.to/lastmile_qr_scan"}}, {"name": "83bae3c0a053952fce0814f24b6d07b5", "fusion_lat": 0.0, "type": "electric_bike", "lat": 38.83831383333333, "is_reserved": 0, "is_disabled": 0, "fusion_lon": 0.0, "bike_id": "83bae3c0a053952fce0814f24b6d07b5", "lon": -76.99685616666666, "rental_uris": {"ios": "https://dc.lft.to/lastmile_qr_scan", "android": "https://dc.lft.to/lastmile_qr_scan"}}, {"name": "e69d8660baf4aa91e0380fc6a3c99ac1", "fusion_lat": 0.0, "type": "electric_bike", "lat": 38.89652983333333, "is_reserved": 0, "is_disabled": 0, "fusion_lon": 0.0, "bike_id": "e69d8660baf4aa91e0380fc6a3c99ac1", "lon": -77.08638516666667, "rental_uris": {"ios": "https://dc.lft.to/lastmile_qr_scan", "android": "https://dc.lft.to/lastmile_qr_scan"}}, {"name": "55356086fcf283589af6bab18c0497ca", "fusion_lat": 0.0, "type": "electric_scooter", "lat": 38.88577433333333, "is_reserved": 0, "is_disabled": 0, "fusion_lon": 0.0, "bike_id": "55356086fcf283589af6bab18c0497ca", "lon": -76.99623016666666, "rental_uris": {"ios": "https://dc.lft.to/lastmile_qr_scan", "android": "https://dc.lft.to/lastmile_qr_scan"}}, {"name": "ba2cecdab31b09a3e3172e513da6e23c", "fusion_lat": 0.0, "type": "electric_bike", "lat": 38.943616, "is_reserved": 0, "is_disabled": 0, "fusion_lon": 0.0, "bike_id": "ba2cecdab31b09a3e3172e513da6e23c", "lon": -77.00348766666667, "rental_uris": {"ios": "https://dc.lft.to/lastmile_qr_scan", "android": "https://dc.lft.to/lastmile_qr_scan"}}, {"name": "39ec3138cc19c869a92f0ec33e9f4904", "fusion_lat": 0.0, "type": "electric_scooter", "lat": 38.907369, "is_reserved": 0, "is_disabled": 0, "fusion_lon": 0.0, "bike_id": "39ec3138cc19c869a92f0ec33e9f4904", "lon": -77.034458, "rental_uris": {"ios": "https://dc.lft.to/lastmile_qr_scan", "android": "https://dc.lft.to/lastmile_qr_scan"}}, {"name": "a9d57a87502a5e216838e1f7d34cffab", "fusion_lat": 0.0, "type": "electric_scooter", "lat": 38.901280166666666, "is_reserved": 0, "is_disabled": 0, "fusion_lon": 0.0, "bike_id": "a9d57a87502a5e216838e1f7d34cffab", "lon": -77.03961666666666, "rental_uris": {"ios": "https://dc.lft.to/lastmile_qr_scan", "android": "https://dc.lft.to/lastmile_qr_scan"}}, {"name": "16877a62fc74d38c9a17b3c1eea29c67", "fusion_lat": 0.0, "type": "electric_bike", "lat": 38.8842975, "is_reserved": 0, "is_disabled": 0, "fusion_lon": 0.0, "bike_id": "16877a62fc74d38c9a17b3c1eea29c67", "lon": -76.95756916666667, "rental_uris": {"ios": "https://dc.lft.to/lastmile_qr_scan", "android": "https://dc.lft.to/lastmile_qr_scan"}}, {"name": "e9a2ef5863975f348ba9dbdfc1eabbe9", "fusion_lat": 0.0, "type": "electric_bike", "lat": 38.992461166666665, "is_reserved": 0, "is_disabled": 0, "fusion_lon": 0.0, "bike_id": "e9a2ef5863975f348ba9dbdfc1eabbe9", "lon": -76.87819033333334, "rental_uris": {"ios": "https://dc.lft.to/lastmile_qr_scan", "android": "https://dc.lft.to/lastmile_qr_scan"}}, {"name": "9493f4145cbc218908a853f13dd5206d", "fusion_lat": 0.0, "type": "electric_scooter", "lat": 38.905846, "is_reserved": 0, "is_disabled": 0, "fusion_lon": 0.0, "bike_id": "9493f4145cbc218908a853f13dd5206d", "lon": -77.0530795, "rental_uris": {"ios": "https://dc.lft.to/lastmile_qr_scan", "android": "https://dc.lft.to/lastmile_qr_scan"}}, {"name": "aada7ead255da5b65b602972908bab07", "fusion_lat": 0.0, "type": "electric_scooter", "lat": 38.90337783333333, "is_reserved": 0, "is_disabled": 0, "fusion_lon": 0.0, "bike_id": "aada7ead255da5b65b602972908bab07", "lon": -76.94664933333334, "rental_uris": {"ios": "https://dc.lft.to/lastmile_qr_scan", "android": "https://dc.lft.to/lastmile_qr_scan"}}, {"name": "c8bf0ba96dbac16ec221adbdda67ba55", "fusion_lat": 0.0, "type": "electric_scooter", "lat": 38.911263166666664, "is_reserved": 0, "is_disabled": 0, "fusion_lon": 0.0, "bike_id": "c8bf0ba96dbac16ec221adbdda67ba55", "lon": -77.0373625, "rental_uris": {"ios": "https://dc.lft.to/lastmile_qr_scan", "android": "https://dc.lft.to/lastmile_qr_scan"}}, {"name": "c741018bb46d0f43764f925b0d97aa7a", "fusion_lat": 0.0, "type": "electric_scooter", "lat": 38.90410033333333, "is_reserved": 0, "is_disabled": 0, "fusion_lon": 0.0, "bike_id": "c741018bb46d0f43764f925b0d97aa7a", "lon": -76.98103916666666, "rental_uris": {"ios": "https://dc.lft.to/lastmile_qr_scan", "android": "https://dc.lft.to/lastmile_qr_scan"}}, {"name": "595b17412628b7215f785b0b3189df31", "fusion_lat": 0.0, "type": "electric_scooter", "lat": 38.885966333333336, "is_reserved": 0, "is_disabled": 0, "fusion_lon": 0.0, "bike_id": "595b17412628b7215f785b0b3189df31", "lon": -77.02207166666666, "rental_uris": {"ios": "https://dc.lft.to/lastmile_qr_scan", "android": "https://dc.lft.to/lastmile_qr_scan"}}, {"name": "8d98cee09ed3e8cecc935a02b80a807c", "fusion_lat": 0.0, "type": "electric_scooter", "lat": 38.8985115, "is_reserved": 0, "is_disabled": 0, "fusion_lon": 0.0, "bike_id": "8d98cee09ed3e8cecc935a02b80a807c", "lon": -77.0161095, "rental_uris": {"ios": "https://dc.lft.to/lastmile_qr_scan", "android": "https://dc.lft.to/lastmile_qr_scan"}}, {"name": "4f8ef00bee25cb9035de8548d88f7869", "fusion_lat": 0.0, "type": "electric_bike", "lat": 38.88618266666667, "is_reserved": 0, "is_disabled": 0, "fusion_lon": 0.0, "bike_id": "4f8ef00bee25cb9035de8548d88f7869", "lon": -77.0222725, "rental_uris": {"ios": "https://dc.lft.to/lastmile_qr_scan", "android": "https://dc.lft.to/lastmile_qr_scan"}}, {"name": "c820e57d3e80632f3978bc4dbabcbc02", "fusion_lat": 0.0, "type": "electric_scooter", "lat": 38.934166833333336, "is_reserved": 0, "is_disabled": 0, "fusion_lon": 0.0, "bike_id": "c820e57d3e80632f3978bc4dbabcbc02", "lon": -77.0418015, "rental_uris": {"ios": "https://dc.lft.to/lastmile_qr_scan", "android": "https://dc.lft.to/lastmile_qr_scan"}}, {"name": "ed76af588f4c3d37cfcea544e07fcbb3", "fusion_lat": 0.0, "type": "electric_scooter", "lat": 38.92011266666667, "is_reserved": 0, "is_disabled": 0, "fusion_lon": 0.0, "bike_id": "ed76af588f4c3d37cfcea544e07fcbb3", "lon": -77.08193333333334, "rental_uris": {"ios": "https://dc.lft.to/lastmile_qr_scan", "android": "https://dc.lft.to/lastmile_qr_scan"}}, {"name": "8b7335344c14b88b8246c404d14f3f17", "fusion_lat": 0.0, "type": "electric_scooter", "lat": 38.92728566666667, "is_reserved": 0, "is_disabled": 0, "fusion_lon": 0.0, "bike_id": "8b7335344c14b88b8246c404d14f3f17", "lon": -77.0713725, "rental_uris": {"ios": "https://dc.lft.to/lastmile_qr_scan", "android": "https://dc.lft.to/lastmile_qr_scan"}}, {"name": "afd073ef546df889e7d6605da1914056", "fusion_lat": 0.0, "type": "electric_scooter", "lat": 38.893722333333336, "is_reserved": 0, "is_disabled": 0, "fusion_lon": 0.0, "bike_id": "afd073ef546df889e7d6605da1914056", "lon": -76.94997283333333, "rental_uris": {"ios": "https://dc.lft.to/lastmile_qr_scan", "android": "https://dc.lft.to/lastmile_qr_scan"}}, {"name": "e7cdbf04523bee9cca97d3596fa1fb8f", "fusion_lat": 0.0, "type": "electric_scooter", "lat": 38.91045916666667, "is_reserved": 0, "is_disabled": 0, "fusion_lon": 0.0, "bike_id": "e7cdbf04523bee9cca97d3596fa1fb8f", "lon": -77.04372883333333, "rental_uris": {"ios": "https://dc.lft.to/lastmile_qr_scan", "android": "https://dc.lft.to/lastmile_qr_scan"}}, {"name": "595f829dbfab8f5af3ecc5f044f4e026", "fusion_lat": 0.0, "type": "electric_bike", "lat": 38.88348333333333, "is_reserved": 0, "is_disabled": 0, "fusion_lon": 0.0, "bike_id": "595f829dbfab8f5af3ecc5f044f4e026", "lon": -77.18293316666667, "rental_uris": {"ios": "https://dc.lft.to/lastmile_qr_scan", "android": "https://dc.lft.to/lastmile_qr_scan"}}, {"name": "254f5c0d9c05e872536cc7fea51ecd59", "fusion_lat": 0.0, "type": "electric_scooter", "lat": 38.900222666666664, "is_reserved": 0, "is_disabled": 0, "fusion_lon": 0.0, "bike_id": "254f5c0d9c05e872536cc7fea51ecd59", "lon": -76.9985805, "rental_uris": {"ios": "https://dc.lft.to/lastmile_qr_scan", "android": "https://dc.lft.to/lastmile_qr_scan"}}, {"name": "a670f45f2dc57d31f244ce547e5b32d3", "fusion_lat": 0.0, "type": "electric_scooter", "lat": 38.91719966666667, "is_reserved": 0, "is_disabled": 0, "fusion_lon": 0.0, "bike_id": "a670f45f2dc57d31f244ce547e5b32d3", "lon": -77.03554033333333, "rental_uris": {"ios": "https://dc.lft.to/lastmile_qr_scan", "android": "https://dc.lft.to/lastmile_qr_scan"}}, {"name": "ccdacf4b1792449d0c7ced5ab3d2b199", "fusion_lat": 0.0, "type": "electric_bike", "lat": 38.858659833333334, "is_reserved": 0, "is_disabled": 0, "fusion_lon": 0.0, "bike_id": "ccdacf4b1792449d0c7ced5ab3d2b199", "lon": -77.09556816666667, "rental_uris": {"ios": "https://dc.lft.to/lastmile_qr_scan", "android": "https://dc.lft.to/lastmile_qr_scan"}}, {"name": "9b9c199e170b19cdde57072d65aa645e", "fusion_lat": 0.0, "type": "electric_scooter", "lat": 38.913556666666665, "is_reserved": 0, "is_disabled": 0, "fusion_lon": 0.0, "bike_id": "9b9c199e170b19cdde57072d65aa645e", "lon": -77.04173633333333, "rental_uris": {"ios": "https://dc.lft.to/lastmile_qr_scan", "android": "https://dc.lft.to/lastmile_qr_scan"}}, {"name": "f52cce1eb0018f929954b6583e492ae2", "fusion_lat": 0.0, "type": "electric_scooter", "lat": 38.906795, "is_reserved": 0, "is_disabled": 0, "fusion_lon": 0.0, "bike_id": "f52cce1eb0018f929954b6583e492ae2", "lon": -77.04889433333334, "rental_uris": {"ios": "https://dc.lft.to/lastmile_qr_scan", "android": "https://dc.lft.to/lastmile_qr_scan"}}, {"name": "d7ecfd445d607846fa2a66d1fe863149", "fusion_lat": 0.0, "type": "electric_scooter", "lat": 38.9177025, "is_reserved": 0, "is_disabled": 0, "fusion_lon": 0.0, "bike_id": "d7ecfd445d607846fa2a66d1fe863149", "lon": -77.04747916666666, "rental_uris": {"ios": "https://dc.lft.to/lastmile_qr_scan", "android": "https://dc.lft.to/lastmile_qr_scan"}}, {"name": "d9735b57d7460f20ef06394a13b29ebe", "fusion_lat": 0.0, "type": "electric_scooter", "lat": 38.9171285, "is_reserved": 0, "is_disabled": 0, "fusion_lon": 0.0, "bike_id": "d9735b57d7460f20ef06394a13b29ebe", "lon": -77.02892816666666, "rental_uris": {"ios": "https://dc.lft.to/lastmile_qr_scan", "android": "https://dc.lft.to/lastmile_qr_scan"}}, {"name": "36551d6041d922ab7a45e4cf7b5b5d83", "fusion_lat": 0.0, "type": "electric_bike", "lat": 38.8520425, "is_reserved": 0, "is_disabled": 0, "fusion_lon": 0.0, "bike_id": "36551d6041d922ab7a45e4cf7b5b5d83", "lon": -77.1012905, "rental_uris": {"ios": "https://dc.lft.to/lastmile_qr_scan", "android": "https://dc.lft.to/lastmile_qr_scan"}}, {"name": "1ff0fb970d897c4ec7ab58f59fa15e23", "fusion_lat": 0.0, "type": "electric_scooter", "lat": 38.9319895, "is_reserved": 0, "is_disabled": 0, "fusion_lon": 0.0, "bike_id": "1ff0fb970d897c4ec7ab58f59fa15e23", "lon": -77.0364085, "rental_uris": {"ios": "https://dc.lft.to/lastmile_qr_scan", "android": "https://dc.lft.to/lastmile_qr_scan"}}, {"name": "fbaf0b2a9f92be2016f6e633b76c6d82", "fusion_lat": 0.0, "type": "electric_scooter", "lat": 38.878062666666665, "is_reserved": 0, "is_disabled": 0, "fusion_lon": 0.0, "bike_id": "fbaf0b2a9f92be2016f6e633b76c6d82", "lon": -77.00356216666667, "rental_uris": {"ios": "https://dc.lft.to/lastmile_qr_scan", "android": "https://dc.lft.to/lastmile_qr_scan"}}, {"name": "2a597f552eef838d7ed5a8105bfa30e7", "fusion_lat": 0.0, "type": "electric_scooter", "lat": 38.929132333333335, "is_reserved": 0, "is_disabled": 0, "fusion_lon": 0.0, "bike_id": "2a597f552eef838d7ed5a8105bfa30e7", "lon": -77.01952033333333, "rental_uris": {"ios": "https://dc.lft.to/lastmile_qr_scan", "android": "https://dc.lft.to/lastmile_qr_scan"}}, {"name": "a1b3ca537c686d83b83a15c65de07b70", "fusion_lat": 0.0, "type": "electric_bike", "lat": 38.9479405, "is_reserved": 0, "is_disabled": 0, "fusion_lon": 0.0, "bike_id": "a1b3ca537c686d83b83a15c65de07b70", "lon": -77.021523, "rental_uris": {"ios": "https://dc.lft.to/lastmile_qr_scan", "android": "https://dc.lft.to/lastmile_qr_scan"}}, {"name": "b9736a0782684790f807be071d7678fa", "fusion_lat": 0.0, "type": "electric_scooter", "lat": 38.906423333333336, "is_reserved": 0, "is_disabled": 0, "fusion_lon": 0.0, "bike_id": "b9736a0782684790f807be071d7678fa", "lon": -77.00605983333334, "rental_uris": {"ios": "https://dc.lft.to/lastmile_qr_scan", "android": "https://dc.lft.to/lastmile_qr_scan"}}, {"name": "9a0d92e8a28708d479449507fcb04247", "fusion_lat": 0.0, "type": "electric_scooter", "lat": 38.908511, "is_reserved": 0, "is_disabled": 0, "fusion_lon": 0.0, "bike_id": "9a0d92e8a28708d479449507fcb04247", "lon": -77.0326825, "rental_uris": {"ios": "https://dc.lft.to/lastmile_qr_scan", "android": "https://dc.lft.to/lastmile_qr_scan"}}, {"name": "de3bb53276ee9afb0d3e95e8a528cc5d", "fusion_lat": 0.0, "type": "electric_bike", "lat": 38.94628433333333, "is_reserved": 0, "is_disabled": 0, "fusion_lon": 0.0, "bike_id": "de3bb53276ee9afb0d3e95e8a528cc5d", "lon": -77.01841833333333, "rental_uris": {"ios": "https://dc.lft.to/lastmile_qr_scan", "android": "https://dc.lft.to/lastmile_qr_scan"}}, {"name": "9e8a4285f0cef54aad65c5bb29160251", "fusion_lat": 0.0, "type": "electric_scooter", "lat": 38.923415166666665, "is_reserved": 0, "is_disabled": 0, "fusion_lon": 0.0, "bike_id": "9e8a4285f0cef54aad65c5bb29160251", "lon": -77.0510025, "rental_uris": {"ios": "https://dc.lft.to/lastmile_qr_scan", "android": "https://dc.lft.to/lastmile_qr_scan"}}, {"name": "507e2f87240385d99aa51636832bbfb7", "fusion_lat": 0.0, "type": "electric_scooter", "lat": 38.89529483333333, "is_reserved": 0, "is_disabled": 0, "fusion_lon": 0.0, "bike_id": "507e2f87240385d99aa51636832bbfb7", "lon": -77.0161185, "rental_uris": {"ios": "https://dc.lft.to/lastmile_qr_scan", "android": "https://dc.lft.to/lastmile_qr_scan"}}, {"name": "3d76eab6e5b27a66b32a72a0b6d75f3b", "fusion_lat": 0.0, "type": "electric_scooter", "lat": 38.91678183333333, "is_reserved": 0, "is_disabled": 0, "fusion_lon": 0.0, "bike_id": "3d76eab6e5b27a66b32a72a0b6d75f3b", "lon": -77.029827, "rental_uris": {"ios": "https://dc.lft.to/lastmile_qr_scan", "android": "https://dc.lft.to/lastmile_qr_scan"}}, {"name": "c0902fd2ff422d8c142537246bcde7c0", "fusion_lat": 0.0, "type": "electric_scooter", "lat": 38.87419583333333, "is_reserved": 0, "is_disabled": 0, "fusion_lon": 0.0, "bike_id": "c0902fd2ff422d8c142537246bcde7c0", "lon": -76.97180283333333, "rental_uris": {"ios": "https://dc.lft.to/lastmile_qr_scan", "android": "https://dc.lft.to/lastmile_qr_scan"}}, {"name": "2a334a8e760d3bba63975de673e5fee3", "fusion_lat": 0.0, "type": "electric_scooter", "lat": 38.91845333333333, "is_reserved": 0, "is_disabled": 0, "fusion_lon": 0.0, "bike_id": "2a334a8e760d3bba63975de673e5fee3", "lon": -77.02605333333334, "rental_uris": {"ios": "https://dc.lft.to/lastmile_qr_scan", "android": "https://dc.lft.to/lastmile_qr_scan"}}, {"name": "8d426bb025854efaa8ee993752be915c", "fusion_lat": 0.0, "type": "electric_scooter", "lat": 38.903661166666666, "is_reserved": 0, "is_disabled": 0, "fusion_lon": 0.0, "bike_id": "8d426bb025854efaa8ee993752be915c", "lon": -77.01102833333333, "rental_uris": {"ios": "https://dc.lft.to/lastmile_qr_scan", "android": "https://dc.lft.to/lastmile_qr_scan"}}, {"name": "5165c1d12d5f037d915168f97c48168e", "fusion_lat": 0.0, "type": "electric_scooter", "lat": 38.88462483333333, "is_reserved": 0, "is_disabled": 0, "fusion_lon": 0.0, "bike_id": "5165c1d12d5f037d915168f97c48168e", "lon": -77.01510316666666, "rental_uris": {"ios": "https://dc.lft.to/lastmile_qr_scan", "android": "https://dc.lft.to/lastmile_qr_scan"}}, {"name": "d54eb56ae8c847a9e9de571817d765c4", "fusion_lat": 0.0, "type": "electric_bike", "lat": 38.9489985, "is_reserved": 0, "is_disabled": 0, "fusion_lon": 0.0, "bike_id": "d54eb56ae8c847a9e9de571817d765c4", "lon": -76.96371183333333, "rental_uris": {"ios": "https://dc.lft.to/lastmile_qr_scan", "android": "https://dc.lft.to/lastmile_qr_scan"}}, {"name": "dcdeb722bc9b1fb859c8c7747f05c0a8", "fusion_lat": 0.0, "type": "electric_scooter", "lat": 38.89880083333333, "is_reserved": 0, "is_disabled": 0, "fusion_lon": 0.0, "bike_id": "dcdeb722bc9b1fb859c8c7747f05c0a8", "lon": -76.931581, "rental_uris": {"ios": "https://dc.lft.to/lastmile_qr_scan", "android": "https://dc.lft.to/lastmile_qr_scan"}}, {"name": "6c8f6a8657bcf4222a7a3c8e4c498702", "fusion_lat": 0.0, "type": "electric_scooter", "lat": 38.94178566666667, "is_reserved": 0, "is_disabled": 0, "fusion_lon": 0.0, "bike_id": "6c8f6a8657bcf4222a7a3c8e4c498702", "lon": -77.04134816666667, "rental_uris": {"ios": "https://dc.lft.to/lastmile_qr_scan", "android": "https://dc.lft.to/lastmile_qr_scan"}}, {"name": "705f38f5463979a6565eab29cb4698bc", "fusion_lat": 0.0, "type": "electric_bike", "lat": 38.8638305, "is_reserved": 0, "is_disabled": 0, "fusion_lon": 0.0, "bike_id": "705f38f5463979a6565eab29cb4698bc", "lon": -76.98993766666666, "rental_uris": {"ios": "https://dc.lft.to/lastmile_qr_scan", "android": "https://dc.lft.to/lastmile_qr_scan"}}, {"name": "2074a8a11ff49ea52229040d60cf1c87", "fusion_lat": 0.0, "type": "electric_scooter", "lat": 38.91187716666666, "is_reserved": 0, "is_disabled": 0, "fusion_lon": 0.0, "bike_id": "2074a8a11ff49ea52229040d60cf1c87", "lon": -77.03970016666666, "rental_uris": {"ios": "https://dc.lft.to/lastmile_qr_scan", "android": "https://dc.lft.to/lastmile_qr_scan"}}, {"name": "2565e2c8dd88a7e96b98c16d21c407ea", "fusion_lat": 0.0, "type": "electric_scooter", "lat": 38.914936, "is_reserved": 0, "is_disabled": 0, "fusion_lon": 0.0, "bike_id": "2565e2c8dd88a7e96b98c16d21c407ea", "lon": -77.03254616666666, "rental_uris": {"ios": "https://dc.lft.to/lastmile_qr_scan", "android": "https://dc.lft.to/lastmile_qr_scan"}}, {"name": "a63d2edc2cc145597805a89e19cc903b", "fusion_lat": 0.0, "type": "electric_scooter", "lat": 38.8922845, "is_reserved": 0, "is_disabled": 0, "fusion_lon": 0.0, "bike_id": "a63d2edc2cc145597805a89e19cc903b", "lon": -77.046458, "rental_uris": {"ios": "https://dc.lft.to/lastmile_qr_scan", "android": "https://dc.lft.to/lastmile_qr_scan"}}, {"name": "61eee73c6aea8c4bc4f1299dcd675bf1", "fusion_lat": 0.0, "type": "electric_scooter", "lat": 38.90343266666667, "is_reserved": 0, "is_disabled": 0, "fusion_lon": 0.0, "bike_id": "61eee73c6aea8c4bc4f1299dcd675bf1", "lon": -77.0664995, "rental_uris": {"ios": "https://dc.lft.to/lastmile_qr_scan", "android": "https://dc.lft.to/lastmile_qr_scan"}}, {"name": "07c2b1b821e3f7bccbff8d700c0841cc", "fusion_lat": 0.0, "type": "electric_scooter", "lat": 38.88784233333333, "is_reserved": 0, "is_disabled": 0, "fusion_lon": 0.0, "bike_id": "07c2b1b821e3f7bccbff8d700c0841cc", "lon": -76.9553195, "rental_uris": {"ios": "https://dc.lft.to/lastmile_qr_scan", "android": "https://dc.lft.to/lastmile_qr_scan"}}, {"name": "abdc9fa915d480e290f6309a863b87f5", "fusion_lat": 0.0, "type": "electric_scooter", "lat": 38.86920033333333, "is_reserved": 0, "is_disabled": 0, "fusion_lon": 0.0, "bike_id": "abdc9fa915d480e290f6309a863b87f5", "lon": -76.97502383333334, "rental_uris": {"ios": "https://dc.lft.to/lastmile_qr_scan", "android": "https://dc.lft.to/lastmile_qr_scan"}}, {"name": "014a441076136fac73d4fc7c68693dd0", "fusion_lat": 0.0, "type": "electric_scooter", "lat": 38.89951466666667, "is_reserved": 0, "is_disabled": 0, "fusion_lon": 0.0, "bike_id": "014a441076136fac73d4fc7c68693dd0", "lon": -77.052754, "rental_uris": {"ios": "https://dc.lft.to/lastmile_qr_scan", "android": "https://dc.lft.to/lastmile_qr_scan"}}, {"name": "cdfb64896eca7581204d83d21896e865", "fusion_lat": 0.0, "type": "electric_scooter", "lat": 38.943376666666666, "is_reserved": 0, "is_disabled": 0, "fusion_lon": 0.0, "bike_id": "cdfb64896eca7581204d83d21896e865", "lon": -77.06052433333333, "rental_uris": {"ios": "https://dc.lft.to/lastmile_qr_scan", "android": "https://dc.lft.to/lastmile_qr_scan"}}, {"name": "18d777ecf93b1110f9a9530928ac65e0", "fusion_lat": 0.0, "type": "electric_scooter", "lat": 38.895586, "is_reserved": 0, "is_disabled": 0, "fusion_lon": 0.0, "bike_id": "18d777ecf93b1110f9a9530928ac65e0", "lon": -77.04673816666667, "rental_uris": {"ios": "https://dc.lft.to/lastmile_qr_scan", "android": "https://dc.lft.to/lastmile_qr_scan"}}, {"name": "77353bd1da52d9808b2b79866ce3d11e", "fusion_lat": 0.0, "type": "electric_scooter", "lat": 38.9345625, "is_reserved": 0, "is_disabled": 0, "fusion_lon": 0.0, "bike_id": "77353bd1da52d9808b2b79866ce3d11e", "lon": -77.086394, "rental_uris": {"ios": "https://dc.lft.to/lastmile_qr_scan", "android": "https://dc.lft.to/lastmile_qr_scan"}}, {"name": "cf2effa881d20087f06764e3759db733", "fusion_lat": 0.0, "type": "electric_scooter", "lat": 38.87073, "is_reserved": 0, "is_disabled": 0, "fusion_lon": 0.0, "bike_id": "cf2effa881d20087f06764e3759db733", "lon": -77.011296, "rental_uris": {"ios": "https://dc.lft.to/lastmile_qr_scan", "android": "https://dc.lft.to/lastmile_qr_scan"}}, {"name": "0b9d4d6f2922fae7dd846003eaf56efc", "fusion_lat": 0.0, "type": "electric_scooter", "lat": 38.91727183333333, "is_reserved": 0, "is_disabled": 0, "fusion_lon": 0.0, "bike_id": "0b9d4d6f2922fae7dd846003eaf56efc", "lon": -77.0383965, "rental_uris": {"ios": "https://dc.lft.to/lastmile_qr_scan", "android": "https://dc.lft.to/lastmile_qr_scan"}}, {"name": "3a169b01e66ebda1fd384b92cbfe1553", "fusion_lat": 0.0, "type": "electric_scooter", "lat": 38.877275, "is_reserved": 0, "is_disabled": 0, "fusion_lon": 0.0, "bike_id": "3a169b01e66ebda1fd384b92cbfe1553", "lon": -77.00605816666666, "rental_uris": {"ios": "https://dc.lft.to/lastmile_qr_scan", "android": "https://dc.lft.to/lastmile_qr_scan"}}, {"name": "a079cad0349e112741f49d6fcb4bd584", "fusion_lat": 0.0, "type": "electric_scooter", "lat": 38.909633166666666, "is_reserved": 0, "is_disabled": 0, "fusion_lon": 0.0, "bike_id": "a079cad0349e112741f49d6fcb4bd584", "lon": -77.02378, "rental_uris": {"ios": "https://dc.lft.to/lastmile_qr_scan", "android": "https://dc.lft.to/lastmile_qr_scan"}}, {"name": "0e7343d236ea58e3e0edb143baed335c", "fusion_lat": 0.0, "type": "electric_scooter", "lat": 38.898414333333335, "is_reserved": 0, "is_disabled": 0, "fusion_lon": 0.0, "bike_id": "0e7343d236ea58e3e0edb143baed335c", "lon": -76.9926955, "rental_uris": {"ios": "https://dc.lft.to/lastmile_qr_scan", "android": "https://dc.lft.to/lastmile_qr_scan"}}, {"name": "e7b27f3ad04019d8a2b74690221636b9", "fusion_lat": 0.0, "type": "electric_bike", "lat": 38.8457205, "is_reserved": 0, "is_disabled": 0, "fusion_lon": 0.0, "bike_id": "e7b27f3ad04019d8a2b74690221636b9", "lon": -77.096269, "rental_uris": {"ios": "https://dc.lft.to/lastmile_qr_scan", "android": "https://dc.lft.to/lastmile_qr_scan"}}, {"name": "41ac784eb9ac07bed825240782eecc57", "fusion_lat": 0.0, "type": "electric_scooter", "lat": 38.92112733333333, "is_reserved": 0, "is_disabled": 0, "fusion_lon": 0.0, "bike_id": "41ac784eb9ac07bed825240782eecc57", "lon": -77.0220685, "rental_uris": {"ios": "https://dc.lft.to/lastmile_qr_scan", "android": "https://dc.lft.to/lastmile_qr_scan"}}, {"name": "e2b39fa7d2899dce2615d504e51fa5a7", "fusion_lat": 0.0, "type": "electric_scooter", "lat": 38.9222855, "is_reserved": 0, "is_disabled": 0, "fusion_lon": 0.0, "bike_id": "e2b39fa7d2899dce2615d504e51fa5a7", "lon": -77.04721916666666, "rental_uris": {"ios": "https://dc.lft.to/lastmile_qr_scan", "android": "https://dc.lft.to/lastmile_qr_scan"}}, {"name": "54ce97390ee8362119bd420b6381076c", "fusion_lat": 0.0, "type": "electric_scooter", "lat": 38.937051833333335, "is_reserved": 0, "is_disabled": 0, "fusion_lon": 0.0, "bike_id": "54ce97390ee8362119bd420b6381076c", "lon": -77.060997, "rental_uris": {"ios": "https://dc.lft.to/lastmile_qr_scan", "android": "https://dc.lft.to/lastmile_qr_scan"}}, {"name": "6104371df1e11714365ec3c2ff5e595b", "fusion_lat": 0.0, "type": "electric_scooter", "lat": 38.907363333333336, "is_reserved": 0, "is_disabled": 0, "fusion_lon": 0.0, "bike_id": "6104371df1e11714365ec3c2ff5e595b", "lon": -77.0344905, "rental_uris": {"ios": "https://dc.lft.to/lastmile_qr_scan", "android": "https://dc.lft.to/lastmile_qr_scan"}}, {"name": "3e0e840c957bcddf384ba96e7a5604f2", "fusion_lat": 0.0, "type": "electric_bike", "lat": 38.97382866666667, "is_reserved": 0, "is_disabled": 0, "fusion_lon": 0.0, "bike_id": "3e0e840c957bcddf384ba96e7a5604f2", "lon": -77.0647295, "rental_uris": {"ios": "https://dc.lft.to/lastmile_qr_scan", "android": "https://dc.lft.to/lastmile_qr_scan"}}, {"name": "c8fe031da5bfff73d6559fedd9c8e070", "fusion_lat": 0.0, "type": "electric_bike", "lat": 38.999096333333334, "is_reserved": 0, "is_disabled": 0, "fusion_lon": 0.0, "bike_id": "c8fe031da5bfff73d6559fedd9c8e070", "lon": -77.046249, "rental_uris": {"ios": "https://dc.lft.to/lastmile_qr_scan", "android": "https://dc.lft.to/lastmile_qr_scan"}}, {"name": "8bc6cdc4ac13fc30b474abded082d9a6", "fusion_lat": 0.0, "type": "electric_bike", "lat": 38.8707405, "is_reserved": 0, "is_disabled": 0, "fusion_lon": 0.0, "bike_id": "8bc6cdc4ac13fc30b474abded082d9a6", "lon": -77.11048233333334, "rental_uris": {"ios": "https://dc.lft.to/lastmile_qr_scan", "android": "https://dc.lft.to/lastmile_qr_scan"}}, {"name": "fff15ccdb85da55a4f6634c89c4f8c25", "fusion_lat": 0.0, "type": "electric_scooter", "lat": 38.8775415, "is_reserved": 0, "is_disabled": 0, "fusion_lon": 0.0, "bike_id": "fff15ccdb85da55a4f6634c89c4f8c25", "lon": -76.97241566666666, "rental_uris": {"ios": "https://dc.lft.to/lastmile_qr_scan", "android": "https://dc.lft.to/lastmile_qr_scan"}}, {"name": "d4655cfb4311ccd76f9a560ed4e5feb8", "fusion_lat": 0.0, "type": "electric_scooter", "lat": 38.92317883333333, "is_reserved": 0, "is_disabled": 0, "fusion_lon": 0.0, "bike_id": "d4655cfb4311ccd76f9a560ed4e5feb8", "lon": -77.04110233333333, "rental_uris": {"ios": "https://dc.lft.to/lastmile_qr_scan", "android": "https://dc.lft.to/lastmile_qr_scan"}}, {"name": "db79cb8c1defb876960f71f1cc5f15ee", "fusion_lat": 0.0, "type": "electric_scooter", "lat": 38.948387, "is_reserved": 0, "is_disabled": 0, "fusion_lon": 0.0, "bike_id": "db79cb8c1defb876960f71f1cc5f15ee", "lon": -77.0255125, "rental_uris": {"ios": "https://dc.lft.to/lastmile_qr_scan", "android": "https://dc.lft.to/lastmile_qr_scan"}}, {"name": "b906aaa59f7c0fcda0f6b598ec6047a0", "fusion_lat": 0.0, "type": "electric_scooter", "lat": 38.91622516666666, "is_reserved": 0, "is_disabled": 0, "fusion_lon": 0.0, "bike_id": "b906aaa59f7c0fcda0f6b598ec6047a0", "lon": -77.03210683333333, "rental_uris": {"ios": "https://dc.lft.to/lastmile_qr_scan", "android": "https://dc.lft.to/lastmile_qr_scan"}}, {"name": "21d91f41129d2238971599cf645e46cf", "fusion_lat": 0.0, "type": "electric_scooter", "lat": 38.8798485, "is_reserved": 0, "is_disabled": 0, "fusion_lon": 0.0, "bike_id": "21d91f41129d2238971599cf645e46cf", "lon": -76.98385483333334, "rental_uris": {"ios": "https://dc.lft.to/lastmile_qr_scan", "android": "https://dc.lft.to/lastmile_qr_scan"}}, {"name": "d2fbc5826b18b6e101abbd758506a314", "fusion_lat": 0.0, "type": "electric_scooter", "lat": 38.92364933333333, "is_reserved": 0, "is_disabled": 0, "fusion_lon": 0.0, "bike_id": "d2fbc5826b18b6e101abbd758506a314", "lon": -77.01910866666667, "rental_uris": {"ios": "https://dc.lft.to/lastmile_qr_scan", "android": "https://dc.lft.to/lastmile_qr_scan"}}, {"name": "d779ff53840ea3493b4ba1030aa1a2f2", "fusion_lat": 0.0, "type": "electric_scooter", "lat": 38.88702683333333, "is_reserved": 0, "is_disabled": 0, "fusion_lon": 0.0, "bike_id": "d779ff53840ea3493b4ba1030aa1a2f2", "lon": -77.0337155, "rental_uris": {"ios": "https://dc.lft.to/lastmile_qr_scan", "android": "https://dc.lft.to/lastmile_qr_scan"}}, {"name": "764be8df0dc38d8ef5d76faaa9a1d17d", "fusion_lat": 0.0, "type": "electric_scooter", "lat": 38.91105833333334, "is_reserved": 0, "is_disabled": 0, "fusion_lon": 0.0, "bike_id": "764be8df0dc38d8ef5d76faaa9a1d17d", "lon": -77.07356583333333, "rental_uris": {"ios": "https://dc.lft.to/lastmile_qr_scan", "android": "https://dc.lft.to/lastmile_qr_scan"}}, {"name": "aa4117cd6574d421b592bef34642e2a9", "fusion_lat": 0.0, "type": "electric_scooter", "lat": 38.942946166666665, "is_reserved": 0, "is_disabled": 0, "fusion_lon": 0.0, "bike_id": "aa4117cd6574d421b592bef34642e2a9", "lon": -77.02168433333334, "rental_uris": {"ios": "https://dc.lft.to/lastmile_qr_scan", "android": "https://dc.lft.to/lastmile_qr_scan"}}, {"name": "11790f88213e09968b87b732deab8b41", "fusion_lat": 0.0, "type": "electric_scooter", "lat": 38.957295, "is_reserved": 0, "is_disabled": 0, "fusion_lon": 0.0, "bike_id": "11790f88213e09968b87b732deab8b41", "lon": -77.023937, "rental_uris": {"ios": "https://dc.lft.to/lastmile_qr_scan", "android": "https://dc.lft.to/lastmile_qr_scan"}}, {"name": "f73d8ae67e68dd684b5773e96ca94102", "fusion_lat": 0.0, "type": "electric_scooter", "lat": 38.930019, "is_reserved": 0, "is_disabled": 0, "fusion_lon": 0.0, "bike_id": "f73d8ae67e68dd684b5773e96ca94102", "lon": -77.0552275, "rental_uris": {"ios": "https://dc.lft.to/lastmile_qr_scan", "android": "https://dc.lft.to/lastmile_qr_scan"}}, {"name": "e55b6144cf886b1331adcbe7aa6873c6", "fusion_lat": 0.0, "type": "electric_bike", "lat": 38.872002, "is_reserved": 0, "is_disabled": 0, "fusion_lon": 0.0, "bike_id": "e55b6144cf886b1331adcbe7aa6873c6", "lon": -77.00932183333333, "rental_uris": {"ios": "https://dc.lft.to/lastmile_qr_scan", "android": "https://dc.lft.to/lastmile_qr_scan"}}, {"name": "d8675951773c61c86f96ffe2a2e1d3a4", "fusion_lat": 0.0, "type": "electric_scooter", "lat": 38.874627, "is_reserved": 0, "is_disabled": 0, "fusion_lon": 0.0, "bike_id": "d8675951773c61c86f96ffe2a2e1d3a4", "lon": -77.00547283333333, "rental_uris": {"ios": "https://dc.lft.to/lastmile_qr_scan", "android": "https://dc.lft.to/lastmile_qr_scan"}}, {"name": "7ffe5718c4c6e77719a2bd91b3eff5ae", "fusion_lat": 0.0, "type": "electric_scooter", "lat": 38.91188666666667, "is_reserved": 0, "is_disabled": 0, "fusion_lon": 0.0, "bike_id": "7ffe5718c4c6e77719a2bd91b3eff5ae", "lon": -77.038648, "rental_uris": {"ios": "https://dc.lft.to/lastmile_qr_scan", "android": "https://dc.lft.to/lastmile_qr_scan"}}, {"name": "fa82418b12d7d370577f17b44da6fcf2", "fusion_lat": 0.0, "type": "electric_scooter", "lat": 38.859230833333335, "is_reserved": 0, "is_disabled": 0, "fusion_lon": 0.0, "bike_id": "fa82418b12d7d370577f17b44da6fcf2", "lon": -76.98982883333333, "rental_uris": {"ios": "https://dc.lft.to/lastmile_qr_scan", "android": "https://dc.lft.to/lastmile_qr_scan"}}, {"name": "048cea76adbcb81e2c6cd087a4bbdd4c", "fusion_lat": 0.0, "type": "electric_scooter", "lat": 38.872889, "is_reserved": 0, "is_disabled": 0, "fusion_lon": 0.0, "bike_id": "048cea76adbcb81e2c6cd087a4bbdd4c", "lon": -77.00983666666667, "rental_uris": {"ios": "https://dc.lft.to/lastmile_qr_scan", "android": "https://dc.lft.to/lastmile_qr_scan"}}, {"name": "df2a65ff55300558ee65d2ca9c342a62", "fusion_lat": 0.0, "type": "electric_scooter", "lat": 38.9283745, "is_reserved": 0, "is_disabled": 0, "fusion_lon": 0.0, "bike_id": "df2a65ff55300558ee65d2ca9c342a62", "lon": -77.054204, "rental_uris": {"ios": "https://dc.lft.to/lastmile_qr_scan", "android": "https://dc.lft.to/lastmile_qr_scan"}}, {"name": "ed33d76241994cd4946a39b0a94f839f", "fusion_lat": 0.0, "type": "electric_bike", "lat": 38.892179166666665, "is_reserved": 0, "is_disabled": 0, "fusion_lon": 0.0, "bike_id": "ed33d76241994cd4946a39b0a94f839f", "lon": -77.107803, "rental_uris": {"ios": "https://dc.lft.to/lastmile_qr_scan", "android": "https://dc.lft.to/lastmile_qr_scan"}}, {"name": "cdae70ccdf1f44785985e920563524fe", "fusion_lat": 0.0, "type": "electric_scooter", "lat": 38.9125945, "is_reserved": 0, "is_disabled": 0, "fusion_lon": 0.0, "bike_id": "cdae70ccdf1f44785985e920563524fe", "lon": -77.03151216666667, "rental_uris": {"ios": "https://dc.lft.to/lastmile_qr_scan", "android": "https://dc.lft.to/lastmile_qr_scan"}}, {"name": "b0087d80842540c778db2cbfd0e11fe3", "fusion_lat": 0.0, "type": "electric_scooter", "lat": 38.933918, "is_reserved": 0, "is_disabled": 0, "fusion_lon": 0.0, "bike_id": "b0087d80842540c778db2cbfd0e11fe3", "lon": -77.03581583333333, "rental_uris": {"ios": "https://dc.lft.to/lastmile_qr_scan", "android": "https://dc.lft.to/lastmile_qr_scan"}}, {"name": "8c1bbab3ab7fd27fd9aff673c69162a8", "fusion_lat": 0.0, "type": "electric_scooter", "lat": 38.88327733333333, "is_reserved": 0, "is_disabled": 0, "fusion_lon": 0.0, "bike_id": "8c1bbab3ab7fd27fd9aff673c69162a8", "lon": -77.0240225, "rental_uris": {"ios": "https://dc.lft.to/lastmile_qr_scan", "android": "https://dc.lft.to/lastmile_qr_scan"}}, {"name": "f9df2416d845a0eb8847423462c37cc0", "fusion_lat": 0.0, "type": "electric_scooter", "lat": 38.9169, "is_reserved": 0, "is_disabled": 0, "fusion_lon": 0.0, "bike_id": "f9df2416d845a0eb8847423462c37cc0", "lon": -77.0292075, "rental_uris": {"ios": "https://dc.lft.to/lastmile_qr_scan", "android": "https://dc.lft.to/lastmile_qr_scan"}}, {"name": "dbc3b40b626e8d5ca024dc5d027a4881", "fusion_lat": 0.0, "type": "electric_scooter", "lat": 38.90565733333333, "is_reserved": 0, "is_disabled": 0, "fusion_lon": 0.0, "bike_id": "dbc3b40b626e8d5ca024dc5d027a4881", "lon": -77.02759533333334, "rental_uris": {"ios": "https://dc.lft.to/lastmile_qr_scan", "android": "https://dc.lft.to/lastmile_qr_scan"}}, {"name": "d7b570787894d01851b7daca2a580020", "fusion_lat": 0.0, "type": "electric_scooter", "lat": 38.91140033333333, "is_reserved": 0, "is_disabled": 0, "fusion_lon": 0.0, "bike_id": "d7b570787894d01851b7daca2a580020", "lon": -77.04196116666667, "rental_uris": {"ios": "https://dc.lft.to/lastmile_qr_scan", "android": "https://dc.lft.to/lastmile_qr_scan"}}, {"name": "6e50ca5e890739f0ff928399de5dd618", "fusion_lat": 0.0, "type": "electric_scooter", "lat": 38.89188033333333, "is_reserved": 0, "is_disabled": 0, "fusion_lon": 0.0, "bike_id": "6e50ca5e890739f0ff928399de5dd618", "lon": -77.01585633333333, "rental_uris": {"ios": "https://dc.lft.to/lastmile_qr_scan", "android": "https://dc.lft.to/lastmile_qr_scan"}}, {"name": "be99b8feb3ade04ca7c5f82cfa2fdb7f", "fusion_lat": 0.0, "type": "electric_bike", "lat": 39.0531715, "is_reserved": 0, "is_disabled": 0, "fusion_lon": 0.0, "bike_id": "be99b8feb3ade04ca7c5f82cfa2fdb7f", "lon": -77.0477505, "rental_uris": {"ios": "https://dc.lft.to/lastmile_qr_scan", "android": "https://dc.lft.to/lastmile_qr_scan"}}, {"name": "4e6ae8d37196efe8a31a1e495edda55c", "fusion_lat": 0.0, "type": "electric_scooter", "lat": 38.922482333333335, "is_reserved": 0, "is_disabled": 0, "fusion_lon": 0.0, "bike_id": "4e6ae8d37196efe8a31a1e495edda55c", "lon": -76.99400533333333, "rental_uris": {"ios": "https://dc.lft.to/lastmile_qr_scan", "android": "https://dc.lft.to/lastmile_qr_scan"}}, {"name": "1e91314fead9fc7988ad418c7fb35266", "fusion_lat": 0.0, "type": "electric_scooter", "lat": 38.86536666666667, "is_reserved": 0, "is_disabled": 0, "fusion_lon": 0.0, "bike_id": "1e91314fead9fc7988ad418c7fb35266", "lon": -76.98709783333334, "rental_uris": {"ios": "https://dc.lft.to/lastmile_qr_scan", "android": "https://dc.lft.to/lastmile_qr_scan"}}, {"name": "272c77b139c52c0d40a47d67edb4cef5", "fusion_lat": 0.0, "type": "electric_scooter", "lat": 38.9058315, "is_reserved": 0, "is_disabled": 0, "fusion_lon": 0.0, "bike_id": "272c77b139c52c0d40a47d67edb4cef5", "lon": -77.023772, "rental_uris": {"ios": "https://dc.lft.to/lastmile_qr_scan", "android": "https://dc.lft.to/lastmile_qr_scan"}}, {"name": "65b6d2a03ee41b5aef3c1dbdca7d1ceb", "fusion_lat": 0.0, "type": "electric_scooter", "lat": 38.90129983333333, "is_reserved": 0, "is_disabled": 0, "fusion_lon": 0.0, "bike_id": "65b6d2a03ee41b5aef3c1dbdca7d1ceb", "lon": -77.04202666666667, "rental_uris": {"ios": "https://dc.lft.to/lastmile_qr_scan", "android": "https://dc.lft.to/lastmile_qr_scan"}}, {"name": "6ce62f094bdbd64a234c6daa12de2a8e", "fusion_lat": 0.0, "type": "electric_bike", "lat": 39.088600666666665, "is_reserved": 0, "is_disabled": 0, "fusion_lon": 0.0, "bike_id": "6ce62f094bdbd64a234c6daa12de2a8e", "lon": -77.17844666666667, "rental_uris": {"ios": "https://dc.lft.to/lastmile_qr_scan", "android": "https://dc.lft.to/lastmile_qr_scan"}}, {"name": "c25c89911e0115052b3a2fc76c6abf79", "fusion_lat": 0.0, "type": "electric_bike", "lat": 38.935212666666665, "is_reserved": 0, "is_disabled": 0, "fusion_lon": 0.0, "bike_id": "c25c89911e0115052b3a2fc76c6abf79", "lon": -76.95065683333333, "rental_uris": {"ios": "https://dc.lft.to/lastmile_qr_scan", "android": "https://dc.lft.to/lastmile_qr_scan"}}, {"name": "e04c7b7d7df00b880bbaedb4d6e79e6a", "fusion_lat": 0.0, "type": "electric_scooter", "lat": 38.91400766666667, "is_reserved": 0, "is_disabled": 0, "fusion_lon": 0.0, "bike_id": "e04c7b7d7df00b880bbaedb4d6e79e6a", "lon": -77.02231233333333, "rental_uris": {"ios": "https://dc.lft.to/lastmile_qr_scan", "android": "https://dc.lft.to/lastmile_qr_scan"}}, {"name": "1b2ba378b85dbbf7b21564fc44df8ba9", "fusion_lat": 0.0, "type": "electric_scooter", "lat": 38.956540833333335, "is_reserved": 0, "is_disabled": 0, "fusion_lon": 0.0, "bike_id": "1b2ba378b85dbbf7b21564fc44df8ba9", "lon": -77.032866, "rental_uris": {"ios": "https://dc.lft.to/lastmile_qr_scan", "android": "https://dc.lft.to/lastmile_qr_scan"}}, {"name": "82d3432a3bdcc7a10638490406ef6b41", "fusion_lat": 0.0, "type": "electric_bike", "lat": 38.95068933333334, "is_reserved": 0, "is_disabled": 0, "fusion_lon": 0.0, "bike_id": "82d3432a3bdcc7a10638490406ef6b41", "lon": -77.07758433333333, "rental_uris": {"ios": "https://dc.lft.to/lastmile_qr_scan", "android": "https://dc.lft.to/lastmile_qr_scan"}}, {"name": "e2a67fadc817cf6fdc6015b1c28925d7", "fusion_lat": 0.0, "type": "electric_bike", "lat": 38.928541, "is_reserved": 0, "is_disabled": 0, "fusion_lon": 0.0, "bike_id": "e2a67fadc817cf6fdc6015b1c28925d7", "lon": -77.2222525, "rental_uris": {"ios": "https://dc.lft.to/lastmile_qr_scan", "android": "https://dc.lft.to/lastmile_qr_scan"}}, {"name": "ec23992ac92b11968d744fe093476507", "fusion_lat": 0.0, "type": "electric_bike", "lat": 38.911887166666666, "is_reserved": 0, "is_disabled": 0, "fusion_lon": 0.0, "bike_id": "ec23992ac92b11968d744fe093476507", "lon": -77.011475, "rental_uris": {"ios": "https://dc.lft.to/lastmile_qr_scan", "android": "https://dc.lft.to/lastmile_qr_scan"}}, {"name": "f3c42990e6e6822779e9ebd7a10e9219", "fusion_lat": 0.0, "type": "electric_scooter", "lat": 38.902791, "is_reserved": 0, "is_disabled": 0, "fusion_lon": 0.0, "bike_id": "f3c42990e6e6822779e9ebd7a10e9219", "lon": -77.03672566666667, "rental_uris": {"ios": "https://dc.lft.to/lastmile_qr_scan", "android": "https://dc.lft.to/lastmile_qr_scan"}}, {"name": "ffc9ddbc2cdacfdfcb6cc64fceb47f6e", "fusion_lat": 0.0, "type": "electric_scooter", "lat": 38.9027135, "is_reserved": 0, "is_disabled": 0, "fusion_lon": 0.0, "bike_id": "ffc9ddbc2cdacfdfcb6cc64fceb47f6e", "lon": -76.98713383333333, "rental_uris": {"ios": "https://dc.lft.to/lastmile_qr_scan", "android": "https://dc.lft.to/lastmile_qr_scan"}}, {"name": "2cadb78eda43515a65c0ba22fb14e46e", "fusion_lat": 0.0, "type": "electric_scooter", "lat": 38.903185666666666, "is_reserved": 0, "is_disabled": 0, "fusion_lon": 0.0, "bike_id": "2cadb78eda43515a65c0ba22fb14e46e", "lon": -77.038616, "rental_uris": {"ios": "https://dc.lft.to/lastmile_qr_scan", "android": "https://dc.lft.to/lastmile_qr_scan"}}, {"name": "36d3c6f14f8be08a0bd07a28a58d5b42", "fusion_lat": 0.0, "type": "electric_bike", "lat": 38.838592166666665, "is_reserved": 0, "is_disabled": 0, "fusion_lon": 0.0, "bike_id": "36d3c6f14f8be08a0bd07a28a58d5b42", "lon": -77.08867216666667, "rental_uris": {"ios": "https://dc.lft.to/lastmile_qr_scan", "android": "https://dc.lft.to/lastmile_qr_scan"}}, {"name": "7564a911ea4e27fb35cab0ca20471d7d", "fusion_lat": 0.0, "type": "electric_scooter", "lat": 38.922116, "is_reserved": 0, "is_disabled": 0, "fusion_lon": 0.0, "bike_id": "7564a911ea4e27fb35cab0ca20471d7d", "lon": -77.04235483333333, "rental_uris": {"ios": "https://dc.lft.to/lastmile_qr_scan", "android": "https://dc.lft.to/lastmile_qr_scan"}}, {"name": "1f0cfc76f69327d61aebb41a8065ea92", "fusion_lat": 0.0, "type": "electric_scooter", "lat": 38.93100616666667, "is_reserved": 0, "is_disabled": 0, "fusion_lon": 0.0, "bike_id": "1f0cfc76f69327d61aebb41a8065ea92", "lon": -77.0240605, "rental_uris": {"ios": "https://dc.lft.to/lastmile_qr_scan", "android": "https://dc.lft.to/lastmile_qr_scan"}}, {"name": "36cc85f1fbd12545e2a7ffb613dea484", "fusion_lat": 0.0, "type": "electric_scooter", "lat": 38.901387, "is_reserved": 0, "is_disabled": 0, "fusion_lon": 0.0, "bike_id": "36cc85f1fbd12545e2a7ffb613dea484", "lon": -76.99970633333334, "rental_uris": {"ios": "https://dc.lft.to/lastmile_qr_scan", "android": "https://dc.lft.to/lastmile_qr_scan"}}, {"name": "57398babdbbb062a37e153da2316c92c", "fusion_lat": 0.0, "type": "electric_scooter", "lat": 38.889325166666666, "is_reserved": 0, "is_disabled": 0, "fusion_lon": 0.0, "bike_id": "57398babdbbb062a37e153da2316c92c", "lon": -76.94779416666667, "rental_uris": {"ios": "https://dc.lft.to/lastmile_qr_scan", "android": "https://dc.lft.to/lastmile_qr_scan"}}, {"name": "b694fc0b5ad3271a08c33649b3a22585", "fusion_lat": 0.0, "type": "electric_scooter", "lat": 38.93438, "is_reserved": 0, "is_disabled": 0, "fusion_lon": 0.0, "bike_id": "b694fc0b5ad3271a08c33649b3a22585", "lon": -77.04005583333333, "rental_uris": {"ios": "https://dc.lft.to/lastmile_qr_scan", "android": "https://dc.lft.to/lastmile_qr_scan"}}, {"name": "e132d1e063097749710fcb6666f469e9", "fusion_lat": 0.0, "type": "electric_bike", "lat": 38.902918, "is_reserved": 0, "is_disabled": 0, "fusion_lon": 0.0, "bike_id": "e132d1e063097749710fcb6666f469e9", "lon": -76.98083466666667, "rental_uris": {"ios": "https://dc.lft.to/lastmile_qr_scan", "android": "https://dc.lft.to/lastmile_qr_scan"}}, {"name": "c3cf2a43b281c38e0a7146a25bf1af30", "fusion_lat": 0.0, "type": "electric_scooter", "lat": 38.9142675, "is_reserved": 0, "is_disabled": 0, "fusion_lon": 0.0, "bike_id": "c3cf2a43b281c38e0a7146a25bf1af30", "lon": -77.02604866666667, "rental_uris": {"ios": "https://dc.lft.to/lastmile_qr_scan", "android": "https://dc.lft.to/lastmile_qr_scan"}}, {"name": "4669ff0381dc941ef2b3469d04c09176", "fusion_lat": 0.0, "type": "electric_bike", "lat": 38.9732475, "is_reserved": 0, "is_disabled": 0, "fusion_lon": 0.0, "bike_id": "4669ff0381dc941ef2b3469d04c09176", "lon": -77.02150083333333, "rental_uris": {"ios": "https://dc.lft.to/lastmile_qr_scan", "android": "https://dc.lft.to/lastmile_qr_scan"}}, {"name": "054bcfbf72c3aa5e9f17fc818cfc75c6", "fusion_lat": 0.0, "type": "electric_scooter", "lat": 38.918013333333334, "is_reserved": 0, "is_disabled": 0, "fusion_lon": 0.0, "bike_id": "054bcfbf72c3aa5e9f17fc818cfc75c6", "lon": -77.02815183333334, "rental_uris": {"ios": "https://dc.lft.to/lastmile_qr_scan", "android": "https://dc.lft.to/lastmile_qr_scan"}}, {"name": "c476ee629b840a9c07be5894f3758d18", "fusion_lat": 0.0, "type": "electric_scooter", "lat": 38.93892666666667, "is_reserved": 0, "is_disabled": 0, "fusion_lon": 0.0, "bike_id": "c476ee629b840a9c07be5894f3758d18", "lon": -77.01758616666666, "rental_uris": {"ios": "https://dc.lft.to/lastmile_qr_scan", "android": "https://dc.lft.to/lastmile_qr_scan"}}, {"name": "412f2fadeb5ca74c66571f2ce58ae5d7", "fusion_lat": 0.0, "type": "electric_scooter", "lat": 38.9302745, "is_reserved": 0, "is_disabled": 0, "fusion_lon": 0.0, "bike_id": "412f2fadeb5ca74c66571f2ce58ae5d7", "lon": -77.08370083333334, "rental_uris": {"ios": "https://dc.lft.to/lastmile_qr_scan", "android": "https://dc.lft.to/lastmile_qr_scan"}}, {"name": "51fa37894160e6c8c99f7c84a2bcf96b", "fusion_lat": 0.0, "type": "electric_scooter", "lat": 38.9191345, "is_reserved": 0, "is_disabled": 0, "fusion_lon": 0.0, "bike_id": "51fa37894160e6c8c99f7c84a2bcf96b", "lon": -77.01126333333333, "rental_uris": {"ios": "https://dc.lft.to/lastmile_qr_scan", "android": "https://dc.lft.to/lastmile_qr_scan"}}, {"name": "da6f9a80065796b1a1d31612b46a1236", "fusion_lat": 0.0, "type": "electric_scooter", "lat": 38.89973083333334, "is_reserved": 0, "is_disabled": 0, "fusion_lon": 0.0, "bike_id": "da6f9a80065796b1a1d31612b46a1236", "lon": -77.039433, "rental_uris": {"ios": "https://dc.lft.to/lastmile_qr_scan", "android": "https://dc.lft.to/lastmile_qr_scan"}}, {"name": "9143676239f9b1afa6d2d43e88e7b748", "fusion_lat": 0.0, "type": "electric_scooter", "lat": 38.924770333333335, "is_reserved": 0, "is_disabled": 0, "fusion_lon": 0.0, "bike_id": "9143676239f9b1afa6d2d43e88e7b748", "lon": -77.02999266666667, "rental_uris": {"ios": "https://dc.lft.to/lastmile_qr_scan", "android": "https://dc.lft.to/lastmile_qr_scan"}}, {"name": "aa36963eaebe53ed7b32e11820bca59f", "fusion_lat": 0.0, "type": "electric_scooter", "lat": 38.92557166666667, "is_reserved": 0, "is_disabled": 0, "fusion_lon": 0.0, "bike_id": "aa36963eaebe53ed7b32e11820bca59f", "lon": -77.000636, "rental_uris": {"ios": "https://dc.lft.to/lastmile_qr_scan", "android": "https://dc.lft.to/lastmile_qr_scan"}}, {"name": "66189e701a62f97772d317ee5c3ec381", "fusion_lat": 0.0, "type": "electric_scooter", "lat": 38.914154833333335, "is_reserved": 0, "is_disabled": 0, "fusion_lon": 0.0, "bike_id": "66189e701a62f97772d317ee5c3ec381", "lon": -77.04498333333333, "rental_uris": {"ios": "https://dc.lft.to/lastmile_qr_scan", "android": "https://dc.lft.to/lastmile_qr_scan"}}, {"name": "f9efc72ebdda16b6172f5d06f28e2a4a", "fusion_lat": 0.0, "type": "electric_scooter", "lat": 38.93578883333333, "is_reserved": 0, "is_disabled": 0, "fusion_lon": 0.0, "bike_id": "f9efc72ebdda16b6172f5d06f28e2a4a", "lon": -77.02850566666666, "rental_uris": {"ios": "https://dc.lft.to/lastmile_qr_scan", "android": "https://dc.lft.to/lastmile_qr_scan"}}, {"name": "318410e0df671591b85832a3ec010bfd", "fusion_lat": 0.0, "type": "electric_scooter", "lat": 38.92590666666667, "is_reserved": 0, "is_disabled": 0, "fusion_lon": 0.0, "bike_id": "318410e0df671591b85832a3ec010bfd", "lon": -77.00856766666666, "rental_uris": {"ios": "https://dc.lft.to/lastmile_qr_scan", "android": "https://dc.lft.to/lastmile_qr_scan"}}, {"name": "a47c80b6c6d2f0ddb63cd34b8ebb0027", "fusion_lat": 0.0, "type": "electric_scooter", "lat": 38.914184666666664, "is_reserved": 0, "is_disabled": 0, "fusion_lon": 0.0, "bike_id": "a47c80b6c6d2f0ddb63cd34b8ebb0027", "lon": -77.0449665, "rental_uris": {"ios": "https://dc.lft.to/lastmile_qr_scan", "android": "https://dc.lft.to/lastmile_qr_scan"}}, {"name": "5a5c3144ce5955da5de6dfe03be88e1a", "fusion_lat": 0.0, "type": "electric_scooter", "lat": 38.921115, "is_reserved": 0, "is_disabled": 0, "fusion_lon": 0.0, "bike_id": "5a5c3144ce5955da5de6dfe03be88e1a", "lon": -77.0393145, "rental_uris": {"ios": "https://dc.lft.to/lastmile_qr_scan", "android": "https://dc.lft.to/lastmile_qr_scan"}}, {"name": "e160d9c197dc8003caf93fed8f888529", "fusion_lat": 0.0, "type": "electric_scooter", "lat": 38.89832466666667, "is_reserved": 0, "is_disabled": 0, "fusion_lon": 0.0, "bike_id": "e160d9c197dc8003caf93fed8f888529", "lon": -76.94641466666667, "rental_uris": {"ios": "https://dc.lft.to/lastmile_qr_scan", "android": "https://dc.lft.to/lastmile_qr_scan"}}, {"name": "a968db03161b9eaad2dbf0211c6efbb4", "fusion_lat": 0.0, "type": "electric_scooter", "lat": 38.91278483333333, "is_reserved": 0, "is_disabled": 0, "fusion_lon": 0.0, "bike_id": "a968db03161b9eaad2dbf0211c6efbb4", "lon": -76.9379765, "rental_uris": {"ios": "https://dc.lft.to/lastmile_qr_scan", "android": "https://dc.lft.to/lastmile_qr_scan"}}, {"name": "124c23a1f75a8e022ef45ed13888f025", "fusion_lat": 0.0, "type": "electric_bike", "lat": 38.8773645, "is_reserved": 0, "is_disabled": 0, "fusion_lon": 0.0, "bike_id": "124c23a1f75a8e022ef45ed13888f025", "lon": -77.118446, "rental_uris": {"ios": "https://dc.lft.to/lastmile_qr_scan", "android": "https://dc.lft.to/lastmile_qr_scan"}}, {"name": "e7be78e511154077c00c7764a7498f29", "fusion_lat": 0.0, "type": "electric_scooter", "lat": 38.900222, "is_reserved": 0, "is_disabled": 0, "fusion_lon": 0.0, "bike_id": "e7be78e511154077c00c7764a7498f29", "lon": -77.00101233333334, "rental_uris": {"ios": "https://dc.lft.to/lastmile_qr_scan", "android": "https://dc.lft.to/lastmile_qr_scan"}}, {"name": "58279529fd216903f6350cf52ea4e81a", "fusion_lat": 0.0, "type": "electric_scooter", "lat": 38.922844166666664, "is_reserved": 0, "is_disabled": 0, "fusion_lon": 0.0, "bike_id": "58279529fd216903f6350cf52ea4e81a", "lon": -77.02974866666666, "rental_uris": {"ios": "https://dc.lft.to/lastmile_qr_scan", "android": "https://dc.lft.to/lastmile_qr_scan"}}, {"name": "71eaf39fabe89fac0e02dddfe584d949", "fusion_lat": 0.0, "type": "electric_scooter", "lat": 38.914046666666664, "is_reserved": 0, "is_disabled": 0, "fusion_lon": 0.0, "bike_id": "71eaf39fabe89fac0e02dddfe584d949", "lon": -77.02232516666666, "rental_uris": {"ios": "https://dc.lft.to/lastmile_qr_scan", "android": "https://dc.lft.to/lastmile_qr_scan"}}, {"name": "d59a219951a4766565d3d682c60aaca4", "fusion_lat": 0.0, "type": "electric_scooter", "lat": 38.87497466666667, "is_reserved": 0, "is_disabled": 0, "fusion_lon": 0.0, "bike_id": "d59a219951a4766565d3d682c60aaca4", "lon": -76.997934, "rental_uris": {"ios": "https://dc.lft.to/lastmile_qr_scan", "android": "https://dc.lft.to/lastmile_qr_scan"}}, {"name": "42c397d575cbb0bf1606b7abc78e07d4", "fusion_lat": 0.0, "type": "electric_scooter", "lat": 38.90639766666666, "is_reserved": 0, "is_disabled": 0, "fusion_lon": 0.0, "bike_id": "42c397d575cbb0bf1606b7abc78e07d4", "lon": -77.0059795, "rental_uris": {"ios": "https://dc.lft.to/lastmile_qr_scan", "android": "https://dc.lft.to/lastmile_qr_scan"}}, {"name": "cfa6d620f7f7443699d4ba7135f2bee4", "fusion_lat": 0.0, "type": "electric_scooter", "lat": 38.876189333333336, "is_reserved": 0, "is_disabled": 0, "fusion_lon": 0.0, "bike_id": "cfa6d620f7f7443699d4ba7135f2bee4", "lon": -76.96532016666667, "rental_uris": {"ios": "https://dc.lft.to/lastmile_qr_scan", "android": "https://dc.lft.to/lastmile_qr_scan"}}, {"name": "af13555b13853f747f95f9e79c7a0ab2", "fusion_lat": 0.0, "type": "electric_scooter", "lat": 38.912263, "is_reserved": 0, "is_disabled": 0, "fusion_lon": 0.0, "bike_id": "af13555b13853f747f95f9e79c7a0ab2", "lon": -77.02954283333334, "rental_uris": {"ios": "https://dc.lft.to/lastmile_qr_scan", "android": "https://dc.lft.to/lastmile_qr_scan"}}, {"name": "60d65d3494197b872b38630404df4eb7", "fusion_lat": 0.0, "type": "electric_bike", "lat": 38.923533166666665, "is_reserved": 0, "is_disabled": 0, "fusion_lon": 0.0, "bike_id": "60d65d3494197b872b38630404df4eb7", "lon": -76.992482, "rental_uris": {"ios": "https://dc.lft.to/lastmile_qr_scan", "android": "https://dc.lft.to/lastmile_qr_scan"}}, {"name": "8fd017c840b3e7af0dcc65de74c3b599", "fusion_lat": 0.0, "type": "electric_scooter", "lat": 38.8984205, "is_reserved": 0, "is_disabled": 0, "fusion_lon": 0.0, "bike_id": "8fd017c840b3e7af0dcc65de74c3b599", "lon": -77.0407895, "rental_uris": {"ios": "https://dc.lft.to/lastmile_qr_scan", "android": "https://dc.lft.to/lastmile_qr_scan"}}, {"name": "994783ac5f48c36cba57a6071b49fa75", "fusion_lat": 0.0, "type": "electric_bike", "lat": 38.95180666666667, "is_reserved": 0, "is_disabled": 0, "fusion_lon": 0.0, "bike_id": "994783ac5f48c36cba57a6071b49fa75", "lon": -76.93546133333334, "rental_uris": {"ios": "https://dc.lft.to/lastmile_qr_scan", "android": "https://dc.lft.to/lastmile_qr_scan"}}, {"name": "36683bf511550016be1f9d0feb811b24", "fusion_lat": 0.0, "type": "electric_scooter", "lat": 38.87333133333333, "is_reserved": 0, "is_disabled": 0, "fusion_lon": 0.0, "bike_id": "36683bf511550016be1f9d0feb811b24", "lon": -77.001187, "rental_uris": {"ios": "https://dc.lft.to/lastmile_qr_scan", "android": "https://dc.lft.to/lastmile_qr_scan"}}, {"name": "af89476c91edc17cc08627846695b9dc", "fusion_lat": 0.0, "type": "electric_scooter", "lat": 38.93824266666667, "is_reserved": 0, "is_disabled": 0, "fusion_lon": 0.0, "bike_id": "af89476c91edc17cc08627846695b9dc", "lon": -77.0264305, "rental_uris": {"ios": "https://dc.lft.to/lastmile_qr_scan", "android": "https://dc.lft.to/lastmile_qr_scan"}}, {"name": "0a40cdc57a7c9c601a22748e8e6983ec", "fusion_lat": 0.0, "type": "electric_scooter", "lat": 38.901417, "is_reserved": 0, "is_disabled": 0, "fusion_lon": 0.0, "bike_id": "0a40cdc57a7c9c601a22748e8e6983ec", "lon": -77.00075483333333, "rental_uris": {"ios": "https://dc.lft.to/lastmile_qr_scan", "android": "https://dc.lft.to/lastmile_qr_scan"}}, {"name": "84ec865c88c26793d586f6bb175defaf", "fusion_lat": 0.0, "type": "electric_scooter", "lat": 38.89731716666667, "is_reserved": 0, "is_disabled": 0, "fusion_lon": 0.0, "bike_id": "84ec865c88c26793d586f6bb175defaf", "lon": -77.03175333333333, "rental_uris": {"ios": "https://dc.lft.to/lastmile_qr_scan", "android": "https://dc.lft.to/lastmile_qr_scan"}}, {"name": "8d71627d2b87bbf720915fd907a42d9e", "fusion_lat": 0.0, "type": "electric_scooter", "lat": 38.88663183333333, "is_reserved": 0, "is_disabled": 0, "fusion_lon": 0.0, "bike_id": "8d71627d2b87bbf720915fd907a42d9e", "lon": -77.00132333333333, "rental_uris": {"ios": "https://dc.lft.to/lastmile_qr_scan", "android": "https://dc.lft.to/lastmile_qr_scan"}}, {"name": "703d9e9284ad42aa24784dc1d70dd7ab", "fusion_lat": 0.0, "type": "electric_scooter", "lat": 38.92735033333334, "is_reserved": 0, "is_disabled": 0, "fusion_lon": 0.0, "bike_id": "703d9e9284ad42aa24784dc1d70dd7ab", "lon": -77.02494916666667, "rental_uris": {"ios": "https://dc.lft.to/lastmile_qr_scan", "android": "https://dc.lft.to/lastmile_qr_scan"}}, {"name": "16b7357f79f9f9e0f179db60f97ec69a", "fusion_lat": 0.0, "type": "electric_scooter", "lat": 38.876554, "is_reserved": 0, "is_disabled": 0, "fusion_lon": 0.0, "bike_id": "16b7357f79f9f9e0f179db60f97ec69a", "lon": -77.00589466666666, "rental_uris": {"ios": "https://dc.lft.to/lastmile_qr_scan", "android": "https://dc.lft.to/lastmile_qr_scan"}}, {"name": "3b869d320c841b51393ebc6f4fea7bb9", "fusion_lat": 0.0, "type": "electric_scooter", "lat": 38.93707916666666, "is_reserved": 0, "is_disabled": 0, "fusion_lon": 0.0, "bike_id": "3b869d320c841b51393ebc6f4fea7bb9", "lon": -77.06103916666666, "rental_uris": {"ios": "https://dc.lft.to/lastmile_qr_scan", "android": "https://dc.lft.to/lastmile_qr_scan"}}, {"name": "08e4139d66fa3f32388ad659e68c3a52", "fusion_lat": 0.0, "type": "electric_scooter", "lat": 38.931269, "is_reserved": 0, "is_disabled": 0, "fusion_lon": 0.0, "bike_id": "08e4139d66fa3f32388ad659e68c3a52", "lon": -77.0360215, "rental_uris": {"ios": "https://dc.lft.to/lastmile_qr_scan", "android": "https://dc.lft.to/lastmile_qr_scan"}}, {"name": "c318469818bb718ac168050fe49c32c4", "fusion_lat": 0.0, "type": "electric_scooter", "lat": 38.9101135, "is_reserved": 0, "is_disabled": 0, "fusion_lon": 0.0, "bike_id": "c318469818bb718ac168050fe49c32c4", "lon": -76.99677, "rental_uris": {"ios": "https://dc.lft.to/lastmile_qr_scan", "android": "https://dc.lft.to/lastmile_qr_scan"}}, {"name": "86eddb28de724d07cc6cf9c12042dd2b", "fusion_lat": 0.0, "type": "electric_scooter", "lat": 38.94406566666667, "is_reserved": 0, "is_disabled": 0, "fusion_lon": 0.0, "bike_id": "86eddb28de724d07cc6cf9c12042dd2b", "lon": -77.06327666666667, "rental_uris": {"ios": "https://dc.lft.to/lastmile_qr_scan", "android": "https://dc.lft.to/lastmile_qr_scan"}}, {"name": "07db194ad5bfe4d9d11a9d12fa6a8e74", "fusion_lat": 0.0, "type": "electric_scooter", "lat": 38.92172466666667, "is_reserved": 0, "is_disabled": 0, "fusion_lon": 0.0, "bike_id": "07db194ad5bfe4d9d11a9d12fa6a8e74", "lon": -77.02915066666667, "rental_uris": {"ios": "https://dc.lft.to/lastmile_qr_scan", "android": "https://dc.lft.to/lastmile_qr_scan"}}, {"name": "ac61955b6b19a96e0e05ff591f5e0164", "fusion_lat": 0.0, "type": "electric_scooter", "lat": 38.900324833333336, "is_reserved": 0, "is_disabled": 0, "fusion_lon": 0.0, "bike_id": "ac61955b6b19a96e0e05ff591f5e0164", "lon": -77.00895116666666, "rental_uris": {"ios": "https://dc.lft.to/lastmile_qr_scan", "android": "https://dc.lft.to/lastmile_qr_scan"}}, {"name": "4e565a7f34b8e8b45d483f778e654b01", "fusion_lat": 0.0, "type": "electric_scooter", "lat": 38.900281666666665, "is_reserved": 0, "is_disabled": 0, "fusion_lon": 0.0, "bike_id": "4e565a7f34b8e8b45d483f778e654b01", "lon": -77.0402095, "rental_uris": {"ios": "https://dc.lft.to/lastmile_qr_scan", "android": "https://dc.lft.to/lastmile_qr_scan"}}, {"name": "04d628195ab4d1926a4f4e0d10670078", "fusion_lat": 0.0, "type": "electric_scooter", "lat": 38.87969916666667, "is_reserved": 0, "is_disabled": 0, "fusion_lon": 0.0, "bike_id": "04d628195ab4d1926a4f4e0d10670078", "lon": -77.01011116666666, "rental_uris": {"ios": "https://dc.lft.to/lastmile_qr_scan", "android": "https://dc.lft.to/lastmile_qr_scan"}}, {"name": "d5925210443d297f985435f82211d645", "fusion_lat": 0.0, "type": "electric_scooter", "lat": 38.8945725, "is_reserved": 0, "is_disabled": 0, "fusion_lon": 0.0, "bike_id": "d5925210443d297f985435f82211d645", "lon": -77.04548883333334, "rental_uris": {"ios": "https://dc.lft.to/lastmile_qr_scan", "android": "https://dc.lft.to/lastmile_qr_scan"}}, {"name": "b147e42c2778211bed5b2df153264416", "fusion_lat": 0.0, "type": "electric_scooter", "lat": 38.91756816666667, "is_reserved": 0, "is_disabled": 0, "fusion_lon": 0.0, "bike_id": "b147e42c2778211bed5b2df153264416", "lon": -77.0415755, "rental_uris": {"ios": "https://dc.lft.to/lastmile_qr_scan", "android": "https://dc.lft.to/lastmile_qr_scan"}}, {"name": "558b1ef3245f49a9c950f043d0f2755f", "fusion_lat": 0.0, "type": "electric_scooter", "lat": 38.9027195, "is_reserved": 0, "is_disabled": 0, "fusion_lon": 0.0, "bike_id": "558b1ef3245f49a9c950f043d0f2755f", "lon": -77.00359266666666, "rental_uris": {"ios": "https://dc.lft.to/lastmile_qr_scan", "android": "https://dc.lft.to/lastmile_qr_scan"}}, {"name": "70ffcf5f72869484901b64830ba03616", "fusion_lat": 0.0, "type": "electric_scooter", "lat": 38.92154883333333, "is_reserved": 0, "is_disabled": 0, "fusion_lon": 0.0, "bike_id": "70ffcf5f72869484901b64830ba03616", "lon": -77.0338545, "rental_uris": {"ios": "https://dc.lft.to/lastmile_qr_scan", "android": "https://dc.lft.to/lastmile_qr_scan"}}, {"name": "75165ceb84fde1e4f1418ad8e7b4dca6", "fusion_lat": 0.0, "type": "electric_scooter", "lat": 38.900799666666664, "is_reserved": 0, "is_disabled": 0, "fusion_lon": 0.0, "bike_id": "75165ceb84fde1e4f1418ad8e7b4dca6", "lon": -76.98026166666666, "rental_uris": {"ios": "https://dc.lft.to/lastmile_qr_scan", "android": "https://dc.lft.to/lastmile_qr_scan"}}, {"name": "f54ffdaac33bd1bbbc71860d226538e3", "fusion_lat": 0.0, "type": "electric_scooter", "lat": 38.930913333333336, "is_reserved": 0, "is_disabled": 0, "fusion_lon": 0.0, "bike_id": "f54ffdaac33bd1bbbc71860d226538e3", "lon": -77.02488233333334, "rental_uris": {"ios": "https://dc.lft.to/lastmile_qr_scan", "android": "https://dc.lft.to/lastmile_qr_scan"}}, {"name": "9745c06a7d1a39a85726aca39aab8244", "fusion_lat": 0.0, "type": "electric_scooter", "lat": 38.92163083333333, "is_reserved": 0, "is_disabled": 0, "fusion_lon": 0.0, "bike_id": "9745c06a7d1a39a85726aca39aab8244", "lon": -77.03382416666666, "rental_uris": {"ios": "https://dc.lft.to/lastmile_qr_scan", "android": "https://dc.lft.to/lastmile_qr_scan"}}, {"name": "c87b0ac5bc5c8cbdc32b03173b290d4c", "fusion_lat": 0.0, "type": "electric_scooter", "lat": 38.912608666666664, "is_reserved": 0, "is_disabled": 0, "fusion_lon": 0.0, "bike_id": "c87b0ac5bc5c8cbdc32b03173b290d4c", "lon": -77.03177216666667, "rental_uris": {"ios": "https://dc.lft.to/lastmile_qr_scan", "android": "https://dc.lft.to/lastmile_qr_scan"}}, {"name": "6589b6936b81a04df4de30315f1a8859", "fusion_lat": 0.0, "type": "electric_scooter", "lat": 38.892422, "is_reserved": 0, "is_disabled": 0, "fusion_lon": 0.0, "bike_id": "6589b6936b81a04df4de30315f1a8859", "lon": -77.01531916666667, "rental_uris": {"ios": "https://dc.lft.to/lastmile_qr_scan", "android": "https://dc.lft.to/lastmile_qr_scan"}}, {"name": "9a596936b41618c542a4b87d2a2e229f", "fusion_lat": 0.0, "type": "electric_scooter", "lat": 38.926321333333334, "is_reserved": 0, "is_disabled": 0, "fusion_lon": 0.0, "bike_id": "9a596936b41618c542a4b87d2a2e229f", "lon": -77.03790266666667, "rental_uris": {"ios": "https://dc.lft.to/lastmile_qr_scan", "android": "https://dc.lft.to/lastmile_qr_scan"}}, {"name": "0dc4a337d33a2d8bce2c72f3c0b4be65", "fusion_lat": 0.0, "type": "electric_scooter", "lat": 38.907668666666666, "is_reserved": 0, "is_disabled": 0, "fusion_lon": 0.0, "bike_id": "0dc4a337d33a2d8bce2c72f3c0b4be65", "lon": -77.05974066666667, "rental_uris": {"ios": "https://dc.lft.to/lastmile_qr_scan", "android": "https://dc.lft.to/lastmile_qr_scan"}}, {"name": "0a9763ad1adf2e61250b21290676d30f", "fusion_lat": 0.0, "type": "electric_scooter", "lat": 38.876582, "is_reserved": 0, "is_disabled": 0, "fusion_lon": 0.0, "bike_id": "0a9763ad1adf2e61250b21290676d30f", "lon": -77.0042645, "rental_uris": {"ios": "https://dc.lft.to/lastmile_qr_scan", "android": "https://dc.lft.to/lastmile_qr_scan"}}, {"name": "ed711bcd5c37a829ef3882e700672478", "fusion_lat": 0.0, "type": "electric_scooter", "lat": 38.913334166666665, "is_reserved": 0, "is_disabled": 0, "fusion_lon": 0.0, "bike_id": "ed711bcd5c37a829ef3882e700672478", "lon": -77.048714, "rental_uris": {"ios": "https://dc.lft.to/lastmile_qr_scan", "android": "https://dc.lft.to/lastmile_qr_scan"}}, {"name": "0c49248bcaaeb4205ccafe5d130fe682", "fusion_lat": 0.0, "type": "electric_scooter", "lat": 38.9119675, "is_reserved": 0, "is_disabled": 0, "fusion_lon": 0.0, "bike_id": "0c49248bcaaeb4205ccafe5d130fe682", "lon": -77.04532866666666, "rental_uris": {"ios": "https://dc.lft.to/lastmile_qr_scan", "android": "https://dc.lft.to/lastmile_qr_scan"}}, {"name": "0484b8ce93a45d51f2cfb0adc6b078a7", "fusion_lat": 0.0, "type": "electric_scooter", "lat": 38.90732933333334, "is_reserved": 0, "is_disabled": 0, "fusion_lon": 0.0, "bike_id": "0484b8ce93a45d51f2cfb0adc6b078a7", "lon": -77.04887533333333, "rental_uris": {"ios": "https://dc.lft.to/lastmile_qr_scan", "android": "https://dc.lft.to/lastmile_qr_scan"}}, {"name": "f018a0b69d742446e3ef987809d8fed6", "fusion_lat": 0.0, "type": "electric_scooter", "lat": 38.926965, "is_reserved": 0, "is_disabled": 0, "fusion_lon": 0.0, "bike_id": "f018a0b69d742446e3ef987809d8fed6", "lon": -77.024266, "rental_uris": {"ios": "https://dc.lft.to/lastmile_qr_scan", "android": "https://dc.lft.to/lastmile_qr_scan"}}, {"name": "75005bfc982f80e8c578a0edf540c479", "fusion_lat": 0.0, "type": "electric_bike", "lat": 38.8637975, "is_reserved": 0, "is_disabled": 0, "fusion_lon": 0.0, "bike_id": "75005bfc982f80e8c578a0edf540c479", "lon": -77.12901633333334, "rental_uris": {"ios": "https://dc.lft.to/lastmile_qr_scan", "android": "https://dc.lft.to/lastmile_qr_scan"}}, {"name": "68a76ad9d3eebf81f0088c56b0e34390", "fusion_lat": 0.0, "type": "electric_scooter", "lat": 38.905753, "is_reserved": 0, "is_disabled": 0, "fusion_lon": 0.0, "bike_id": "68a76ad9d3eebf81f0088c56b0e34390", "lon": -77.04218083333333, "rental_uris": {"ios": "https://dc.lft.to/lastmile_qr_scan", "android": "https://dc.lft.to/lastmile_qr_scan"}}, {"name": "60ffe338a0ea7d04a1cf81ae88f8a356", "fusion_lat": 0.0, "type": "electric_scooter", "lat": 38.8975335, "is_reserved": 0, "is_disabled": 0, "fusion_lon": 0.0, "bike_id": "60ffe338a0ea7d04a1cf81ae88f8a356", "lon": -77.02703133333333, "rental_uris": {"ios": "https://dc.lft.to/lastmile_qr_scan", "android": "https://dc.lft.to/lastmile_qr_scan"}}, {"name": "a8bed5b14fe8c4b5c5dcff12c9ed1742", "fusion_lat": 0.0, "type": "electric_bike", "lat": 38.9708725, "is_reserved": 0, "is_disabled": 0, "fusion_lon": 0.0, "bike_id": "a8bed5b14fe8c4b5c5dcff12c9ed1742", "lon": -77.06969666666667, "rental_uris": {"ios": "https://dc.lft.to/lastmile_qr_scan", "android": "https://dc.lft.to/lastmile_qr_scan"}}, {"name": "5f2fd6ce9bc03246ebf700ab91a47e88", "fusion_lat": 0.0, "type": "electric_scooter", "lat": 38.89970666666667, "is_reserved": 0, "is_disabled": 0, "fusion_lon": 0.0, "bike_id": "5f2fd6ce9bc03246ebf700ab91a47e88", "lon": -77.0552975, "rental_uris": {"ios": "https://dc.lft.to/lastmile_qr_scan", "android": "https://dc.lft.to/lastmile_qr_scan"}}, {"name": "8e422d932db0d2e30e91e648e8e3eb79", "fusion_lat": 0.0, "type": "electric_bike", "lat": 38.91004366666667, "is_reserved": 0, "is_disabled": 0, "fusion_lon": 0.0, "bike_id": "8e422d932db0d2e30e91e648e8e3eb79", "lon": -77.061773, "rental_uris": {"ios": "https://dc.lft.to/lastmile_qr_scan", "android": "https://dc.lft.to/lastmile_qr_scan"}}, {"name": "6a2fb5a98b55ccc7b4260d6c4c71b570", "fusion_lat": 0.0, "type": "electric_scooter", "lat": 38.88046766666667, "is_reserved": 0, "is_disabled": 0, "fusion_lon": 0.0, "bike_id": "6a2fb5a98b55ccc7b4260d6c4c71b570", "lon": -76.95985583333334, "rental_uris": {"ios": "https://dc.lft.to/lastmile_qr_scan", "android": "https://dc.lft.to/lastmile_qr_scan"}}, {"name": "272ba227b988e469aedd4fe357323f02", "fusion_lat": 0.0, "type": "electric_scooter", "lat": 38.915618333333335, "is_reserved": 0, "is_disabled": 0, "fusion_lon": 0.0, "bike_id": "272ba227b988e469aedd4fe357323f02", "lon": -77.03764783333334, "rental_uris": {"ios": "https://dc.lft.to/lastmile_qr_scan", "android": "https://dc.lft.to/lastmile_qr_scan"}}, {"name": "a36a1b4991bc72f1488596c2b1816b90", "fusion_lat": 0.0, "type": "electric_scooter", "lat": 38.919494666666665, "is_reserved": 0, "is_disabled": 0, "fusion_lon": 0.0, "bike_id": "a36a1b4991bc72f1488596c2b1816b90", "lon": -77.01402033333333, "rental_uris": {"ios": "https://dc.lft.to/lastmile_qr_scan", "android": "https://dc.lft.to/lastmile_qr_scan"}}, {"name": "563fe2577bcd6335de2706cf08f9c587", "fusion_lat": 0.0, "type": "electric_scooter", "lat": 38.885141833333336, "is_reserved": 0, "is_disabled": 0, "fusion_lon": 0.0, "bike_id": "563fe2577bcd6335de2706cf08f9c587", "lon": -77.033609, "rental_uris": {"ios": "https://dc.lft.to/lastmile_qr_scan", "android": "https://dc.lft.to/lastmile_qr_scan"}}, {"name": "c20913af9c09b7d410d175f635381d5f", "fusion_lat": 0.0, "type": "electric_scooter", "lat": 38.906709166666666, "is_reserved": 0, "is_disabled": 0, "fusion_lon": 0.0, "bike_id": "c20913af9c09b7d410d175f635381d5f", "lon": -77.0416995, "rental_uris": {"ios": "https://dc.lft.to/lastmile_qr_scan", "android": "https://dc.lft.to/lastmile_qr_scan"}}, {"name": "3dd1c34038c05e9a5bb5d4e684a7b52f", "fusion_lat": 0.0, "type": "electric_scooter", "lat": 38.91730966666667, "is_reserved": 0, "is_disabled": 0, "fusion_lon": 0.0, "bike_id": "3dd1c34038c05e9a5bb5d4e684a7b52f", "lon": -77.03842983333334, "rental_uris": {"ios": "https://dc.lft.to/lastmile_qr_scan", "android": "https://dc.lft.to/lastmile_qr_scan"}}, {"name": "5b207ec75a04df046c87fd885a621ef0", "fusion_lat": 0.0, "type": "electric_bike", "lat": 38.852158, "is_reserved": 0, "is_disabled": 0, "fusion_lon": 0.0, "bike_id": "5b207ec75a04df046c87fd885a621ef0", "lon": -77.12946666666667, "rental_uris": {"ios": "https://dc.lft.to/lastmile_qr_scan", "android": "https://dc.lft.to/lastmile_qr_scan"}}, {"name": "db9becfe1cbc9b4de9d9bf6787aa0688", "fusion_lat": 0.0, "type": "electric_scooter", "lat": 38.9305535, "is_reserved": 0, "is_disabled": 0, "fusion_lon": 0.0, "bike_id": "db9becfe1cbc9b4de9d9bf6787aa0688", "lon": -77.0232325, "rental_uris": {"ios": "https://dc.lft.to/lastmile_qr_scan", "android": "https://dc.lft.to/lastmile_qr_scan"}}, {"name": "fcbcb4cd16f21ccde67ac2863ce8a927", "fusion_lat": 0.0, "type": "electric_scooter", "lat": 38.87664016666667, "is_reserved": 0, "is_disabled": 0, "fusion_lon": 0.0, "bike_id": "fcbcb4cd16f21ccde67ac2863ce8a927", "lon": -77.002922, "rental_uris": {"ios": "https://dc.lft.to/lastmile_qr_scan", "android": "https://dc.lft.to/lastmile_qr_scan"}}, {"name": "7c40f94ace5f7fe3df4202df48f6d9ef", "fusion_lat": 0.0, "type": "electric_scooter", "lat": 38.89554016666666, "is_reserved": 0, "is_disabled": 0, "fusion_lon": 0.0, "bike_id": "7c40f94ace5f7fe3df4202df48f6d9ef", "lon": -76.98378033333333, "rental_uris": {"ios": "https://dc.lft.to/lastmile_qr_scan", "android": "https://dc.lft.to/lastmile_qr_scan"}}, {"name": "1c0fd7f2ca647d2f8b9f05204522303c", "fusion_lat": 0.0, "type": "electric_scooter", "lat": 38.900628, "is_reserved": 0, "is_disabled": 0, "fusion_lon": 0.0, "bike_id": "1c0fd7f2ca647d2f8b9f05204522303c", "lon": -76.94759533333334, "rental_uris": {"ios": "https://dc.lft.to/lastmile_qr_scan", "android": "https://dc.lft.to/lastmile_qr_scan"}}, {"name": "0de6f2562ee4230378b23ecd23564cb5", "fusion_lat": 0.0, "type": "electric_bike", "lat": 38.86593333333333, "is_reserved": 0, "is_disabled": 0, "fusion_lon": 0.0, "bike_id": "0de6f2562ee4230378b23ecd23564cb5", "lon": -76.932272, "rental_uris": {"ios": "https://dc.lft.to/lastmile_qr_scan", "android": "https://dc.lft.to/lastmile_qr_scan"}}, {"name": "d5b4432eb10a60c62945872503b317c8", "fusion_lat": 0.0, "type": "electric_bike", "lat": 38.98453883333333, "is_reserved": 0, "is_disabled": 0, "fusion_lon": 0.0, "bike_id": "d5b4432eb10a60c62945872503b317c8", "lon": -76.95524033333334, "rental_uris": {"ios": "https://dc.lft.to/lastmile_qr_scan", "android": "https://dc.lft.to/lastmile_qr_scan"}}, {"name": "cf6553a5daaeb904e49a3642744b46ee", "fusion_lat": 0.0, "type": "electric_scooter", "lat": 38.8831555, "is_reserved": 0, "is_disabled": 0, "fusion_lon": 0.0, "bike_id": "cf6553a5daaeb904e49a3642744b46ee", "lon": -77.015536, "rental_uris": {"ios": "https://dc.lft.to/lastmile_qr_scan", "android": "https://dc.lft.to/lastmile_qr_scan"}}, {"name": "009f95065827407ce7539fcd3fd0e0f0", "fusion_lat": 0.0, "type": "electric_scooter", "lat": 38.898814333333334, "is_reserved": 0, "is_disabled": 0, "fusion_lon": 0.0, "bike_id": "009f95065827407ce7539fcd3fd0e0f0", "lon": -76.93158616666666, "rental_uris": {"ios": "https://dc.lft.to/lastmile_qr_scan", "android": "https://dc.lft.to/lastmile_qr_scan"}}, {"name": "58275965876eb9157816bd2367a78049", "fusion_lat": 0.0, "type": "electric_scooter", "lat": 38.92530766666667, "is_reserved": 0, "is_disabled": 0, "fusion_lon": 0.0, "bike_id": "58275965876eb9157816bd2367a78049", "lon": -77.05547133333333, "rental_uris": {"ios": "https://dc.lft.to/lastmile_qr_scan", "android": "https://dc.lft.to/lastmile_qr_scan"}}, {"name": "e58c804779c1f0cba599fa9649b4f28e", "fusion_lat": 0.0, "type": "electric_scooter", "lat": 38.87185316666667, "is_reserved": 0, "is_disabled": 0, "fusion_lon": 0.0, "bike_id": "e58c804779c1f0cba599fa9649b4f28e", "lon": -77.00600783333333, "rental_uris": {"ios": "https://dc.lft.to/lastmile_qr_scan", "android": "https://dc.lft.to/lastmile_qr_scan"}}, {"name": "e6806b3d43b7837303cfa62ffeeda631", "fusion_lat": 0.0, "type": "electric_scooter", "lat": 38.90836133333333, "is_reserved": 0, "is_disabled": 0, "fusion_lon": 0.0, "bike_id": "e6806b3d43b7837303cfa62ffeeda631", "lon": -76.997035, "rental_uris": {"ios": "https://dc.lft.to/lastmile_qr_scan", "android": "https://dc.lft.to/lastmile_qr_scan"}}, {"name": "088c115c27627e639212f0b6dff883fe", "fusion_lat": 0.0, "type": "electric_scooter", "lat": 38.8843265, "is_reserved": 0, "is_disabled": 0, "fusion_lon": 0.0, "bike_id": "088c115c27627e639212f0b6dff883fe", "lon": -76.95757066666667, "rental_uris": {"ios": "https://dc.lft.to/lastmile_qr_scan", "android": "https://dc.lft.to/lastmile_qr_scan"}}, {"name": "72e91864afbf306097dc0f2e35a665fd", "fusion_lat": 0.0, "type": "electric_scooter", "lat": 38.87912, "is_reserved": 0, "is_disabled": 0, "fusion_lon": 0.0, "bike_id": "72e91864afbf306097dc0f2e35a665fd", "lon": -77.00557966666666, "rental_uris": {"ios": "https://dc.lft.to/lastmile_qr_scan", "android": "https://dc.lft.to/lastmile_qr_scan"}}, {"name": "7b718f357c738c95a600c708470cc824", "fusion_lat": 0.0, "type": "electric_scooter", "lat": 38.89403566666667, "is_reserved": 0, "is_disabled": 0, "fusion_lon": 0.0, "bike_id": "7b718f357c738c95a600c708470cc824", "lon": -76.94800583333334, "rental_uris": {"ios": "https://dc.lft.to/lastmile_qr_scan", "android": "https://dc.lft.to/lastmile_qr_scan"}}, {"name": "12a0c6b6e7a9c1cda9dd75d125125850", "fusion_lat": 0.0, "type": "electric_scooter", "lat": 38.915548, "is_reserved": 0, "is_disabled": 0, "fusion_lon": 0.0, "bike_id": "12a0c6b6e7a9c1cda9dd75d125125850", "lon": -77.031784, "rental_uris": {"ios": "https://dc.lft.to/lastmile_qr_scan", "android": "https://dc.lft.to/lastmile_qr_scan"}}, {"name": "e61f46256560bf2940d35d3247614575", "fusion_lat": 0.0, "type": "electric_bike", "lat": 38.83813883333333, "is_reserved": 0, "is_disabled": 0, "fusion_lon": 0.0, "bike_id": "e61f46256560bf2940d35d3247614575", "lon": -77.095233, "rental_uris": {"ios": "https://dc.lft.to/lastmile_qr_scan", "android": "https://dc.lft.to/lastmile_qr_scan"}}, {"name": "bb6d2ec5cafd8b96afff29458b6cbb96", "fusion_lat": 0.0, "type": "electric_scooter", "lat": 38.93976216666667, "is_reserved": 0, "is_disabled": 0, "fusion_lon": 0.0, "bike_id": "bb6d2ec5cafd8b96afff29458b6cbb96", "lon": -77.0356925, "rental_uris": {"ios": "https://dc.lft.to/lastmile_qr_scan", "android": "https://dc.lft.to/lastmile_qr_scan"}}, {"name": "8b696bde6681140bc6b61400fa6cd7a9", "fusion_lat": 0.0, "type": "electric_scooter", "lat": 38.857102, "is_reserved": 0, "is_disabled": 0, "fusion_lon": 0.0, "bike_id": "8b696bde6681140bc6b61400fa6cd7a9", "lon": -76.98127966666667, "rental_uris": {"ios": "https://dc.lft.to/lastmile_qr_scan", "android": "https://dc.lft.to/lastmile_qr_scan"}}, {"name": "a34933a3262ad28ca181a65c58ca0188", "fusion_lat": 0.0, "type": "electric_scooter", "lat": 38.905274, "is_reserved": 0, "is_disabled": 0, "fusion_lon": 0.0, "bike_id": "a34933a3262ad28ca181a65c58ca0188", "lon": -77.0576405, "rental_uris": {"ios": "https://dc.lft.to/lastmile_qr_scan", "android": "https://dc.lft.to/lastmile_qr_scan"}}, {"name": "f7223bfa56562136d404b7cea39301f7", "fusion_lat": 0.0, "type": "electric_scooter", "lat": 38.9298375, "is_reserved": 0, "is_disabled": 0, "fusion_lon": 0.0, "bike_id": "f7223bfa56562136d404b7cea39301f7", "lon": -77.03269433333334, "rental_uris": {"ios": "https://dc.lft.to/lastmile_qr_scan", "android": "https://dc.lft.to/lastmile_qr_scan"}}, {"name": "a3dd1630f10a890f855b8fb357edc9b0", "fusion_lat": 0.0, "type": "electric_scooter", "lat": 38.88743783333334, "is_reserved": 0, "is_disabled": 0, "fusion_lon": 0.0, "bike_id": "a3dd1630f10a890f855b8fb357edc9b0", "lon": -77.02129733333334, "rental_uris": {"ios": "https://dc.lft.to/lastmile_qr_scan", "android": "https://dc.lft.to/lastmile_qr_scan"}}, {"name": "0bdc887396d1fd73995a8a4210473041", "fusion_lat": 0.0, "type": "electric_scooter", "lat": 38.9100755, "is_reserved": 0, "is_disabled": 0, "fusion_lon": 0.0, "bike_id": "0bdc887396d1fd73995a8a4210473041", "lon": -77.016083, "rental_uris": {"ios": "https://dc.lft.to/lastmile_qr_scan", "android": "https://dc.lft.to/lastmile_qr_scan"}}, {"name": "5c5505a2293ecc3319cd1b60c956d13c", "fusion_lat": 0.0, "type": "electric_scooter", "lat": 38.90670766666667, "is_reserved": 0, "is_disabled": 0, "fusion_lon": 0.0, "bike_id": "5c5505a2293ecc3319cd1b60c956d13c", "lon": -77.0271415, "rental_uris": {"ios": "https://dc.lft.to/lastmile_qr_scan", "android": "https://dc.lft.to/lastmile_qr_scan"}}, {"name": "eafefec310663de6bfefc27cdcc58a3a", "fusion_lat": 0.0, "type": "electric_scooter", "lat": 38.91657883333333, "is_reserved": 0, "is_disabled": 0, "fusion_lon": 0.0, "bike_id": "eafefec310663de6bfefc27cdcc58a3a", "lon": -77.0230175, "rental_uris": {"ios": "https://dc.lft.to/lastmile_qr_scan", "android": "https://dc.lft.to/lastmile_qr_scan"}}, {"name": "d13600c6b9207833f7061bbf15f5571b", "fusion_lat": 0.0, "type": "electric_scooter", "lat": 38.86659233333334, "is_reserved": 0, "is_disabled": 0, "fusion_lon": 0.0, "bike_id": "d13600c6b9207833f7061bbf15f5571b", "lon": -76.98884283333334, "rental_uris": {"ios": "https://dc.lft.to/lastmile_qr_scan", "android": "https://dc.lft.to/lastmile_qr_scan"}}, {"name": "6d28081bb995099b9cbf7c47b450b468", "fusion_lat": 0.0, "type": "electric_scooter", "lat": 38.881010833333335, "is_reserved": 0, "is_disabled": 0, "fusion_lon": 0.0, "bike_id": "6d28081bb995099b9cbf7c47b450b468", "lon": -77.0121605, "rental_uris": {"ios": "https://dc.lft.to/lastmile_qr_scan", "android": "https://dc.lft.to/lastmile_qr_scan"}}, {"name": "ac268d6253c72e343b447be2c1a7b87c", "fusion_lat": 0.0, "type": "electric_scooter", "lat": 38.905073, "is_reserved": 0, "is_disabled": 0, "fusion_lon": 0.0, "bike_id": "ac268d6253c72e343b447be2c1a7b87c", "lon": -76.99448133333334, "rental_uris": {"ios": "https://dc.lft.to/lastmile_qr_scan", "android": "https://dc.lft.to/lastmile_qr_scan"}}, {"name": "36a02de02512868026e61e684123d241", "fusion_lat": 0.0, "type": "electric_scooter", "lat": 38.91604133333333, "is_reserved": 0, "is_disabled": 0, "fusion_lon": 0.0, "bike_id": "36a02de02512868026e61e684123d241", "lon": -77.03858316666667, "rental_uris": {"ios": "https://dc.lft.to/lastmile_qr_scan", "android": "https://dc.lft.to/lastmile_qr_scan"}}, {"name": "f825697456605166ef87bf4256e5eb87", "fusion_lat": 0.0, "type": "electric_bike", "lat": 38.8104785, "is_reserved": 0, "is_disabled": 0, "fusion_lon": 0.0, "bike_id": "f825697456605166ef87bf4256e5eb87", "lon": -77.0851305, "rental_uris": {"ios": "https://dc.lft.to/lastmile_qr_scan", "android": "https://dc.lft.to/lastmile_qr_scan"}}, {"name": "91879f3d8c1f14dd7e4fa5f6851165f3", "fusion_lat": 0.0, "type": "electric_bike", "lat": 39.0268665, "is_reserved": 0, "is_disabled": 0, "fusion_lon": 0.0, "bike_id": "91879f3d8c1f14dd7e4fa5f6851165f3", "lon": -77.1260075, "rental_uris": {"ios": "https://dc.lft.to/lastmile_qr_scan", "android": "https://dc.lft.to/lastmile_qr_scan"}}, {"name": "dd19d29f9224e90d830f5e6b3257267c", "fusion_lat": 0.0, "type": "electric_scooter", "lat": 38.90242816666667, "is_reserved": 0, "is_disabled": 0, "fusion_lon": 0.0, "bike_id": "dd19d29f9224e90d830f5e6b3257267c", "lon": -77.01756633333333, "rental_uris": {"ios": "https://dc.lft.to/lastmile_qr_scan", "android": "https://dc.lft.to/lastmile_qr_scan"}}, {"name": "d7502dacdca1741caafceb54b692eab0", "fusion_lat": 0.0, "type": "electric_scooter", "lat": 38.917056333333335, "is_reserved": 0, "is_disabled": 0, "fusion_lon": 0.0, "bike_id": "d7502dacdca1741caafceb54b692eab0", "lon": -77.0120435, "rental_uris": {"ios": "https://dc.lft.to/lastmile_qr_scan", "android": "https://dc.lft.to/lastmile_qr_scan"}}, {"name": "b4f819a0962014dfdf80ad171db45768", "fusion_lat": 0.0, "type": "electric_bike", "lat": 38.8543895, "is_reserved": 0, "is_disabled": 0, "fusion_lon": 0.0, "bike_id": "b4f819a0962014dfdf80ad171db45768", "lon": -76.90972733333334, "rental_uris": {"ios": "https://dc.lft.to/lastmile_qr_scan", "android": "https://dc.lft.to/lastmile_qr_scan"}}, {"name": "cc14d05d037199e5cf65cf8d7cc23e36", "fusion_lat": 0.0, "type": "electric_scooter", "lat": 38.93538216666666, "is_reserved": 0, "is_disabled": 0, "fusion_lon": 0.0, "bike_id": "cc14d05d037199e5cf65cf8d7cc23e36", "lon": -77.03404416666666, "rental_uris": {"ios": "https://dc.lft.to/lastmile_qr_scan", "android": "https://dc.lft.to/lastmile_qr_scan"}}, {"name": "94ff747da5d49943c2db6bb9436d2812", "fusion_lat": 0.0, "type": "electric_scooter", "lat": 38.92109933333333, "is_reserved": 0, "is_disabled": 0, "fusion_lon": 0.0, "bike_id": "94ff747da5d49943c2db6bb9436d2812", "lon": -77.0420685, "rental_uris": {"ios": "https://dc.lft.to/lastmile_qr_scan", "android": "https://dc.lft.to/lastmile_qr_scan"}}, {"name": "085b433648579ca9584252ff95dfd42e", "fusion_lat": 0.0, "type": "electric_scooter", "lat": 38.87661133333334, "is_reserved": 0, "is_disabled": 0, "fusion_lon": 0.0, "bike_id": "085b433648579ca9584252ff95dfd42e", "lon": -77.00073566666667, "rental_uris": {"ios": "https://dc.lft.to/lastmile_qr_scan", "android": "https://dc.lft.to/lastmile_qr_scan"}}, {"name": "6cc1a6b6ae5e59727401a6b2dcc31d41", "fusion_lat": 0.0, "type": "electric_scooter", "lat": 38.89230883333333, "is_reserved": 0, "is_disabled": 0, "fusion_lon": 0.0, "bike_id": "6cc1a6b6ae5e59727401a6b2dcc31d41", "lon": -77.04999883333333, "rental_uris": {"ios": "https://dc.lft.to/lastmile_qr_scan", "android": "https://dc.lft.to/lastmile_qr_scan"}}, {"name": "4f11e7fcba437ec6c3e895a99f1aa87b", "fusion_lat": 0.0, "type": "electric_scooter", "lat": 38.906669666666666, "is_reserved": 0, "is_disabled": 0, "fusion_lon": 0.0, "bike_id": "4f11e7fcba437ec6c3e895a99f1aa87b", "lon": -77.026947, "rental_uris": {"ios": "https://dc.lft.to/lastmile_qr_scan", "android": "https://dc.lft.to/lastmile_qr_scan"}}, {"name": "469012b50e8c40718f6a2684d77380de", "fusion_lat": 0.0, "type": "electric_scooter", "lat": 38.92992133333333, "is_reserved": 0, "is_disabled": 0, "fusion_lon": 0.0, "bike_id": "469012b50e8c40718f6a2684d77380de", "lon": -77.02308333333333, "rental_uris": {"ios": "https://dc.lft.to/lastmile_qr_scan", "android": "https://dc.lft.to/lastmile_qr_scan"}}, {"name": "448486724c5fa7aec3bf947edb04eb77", "fusion_lat": 0.0, "type": "electric_scooter", "lat": 38.895253833333335, "is_reserved": 0, "is_disabled": 0, "fusion_lon": 0.0, "bike_id": "448486724c5fa7aec3bf947edb04eb77", "lon": -76.94891083333333, "rental_uris": {"ios": "https://dc.lft.to/lastmile_qr_scan", "android": "https://dc.lft.to/lastmile_qr_scan"}}, {"name": "e5208f8b54b9c91e3afcce9249444bb6", "fusion_lat": 0.0, "type": "electric_scooter", "lat": 38.902729, "is_reserved": 0, "is_disabled": 0, "fusion_lon": 0.0, "bike_id": "e5208f8b54b9c91e3afcce9249444bb6", "lon": -77.0173565, "rental_uris": {"ios": "https://dc.lft.to/lastmile_qr_scan", "android": "https://dc.lft.to/lastmile_qr_scan"}}, {"name": "d40177169e897a1144dc8941c44d6d2d", "fusion_lat": 0.0, "type": "electric_scooter", "lat": 38.88221383333333, "is_reserved": 0, "is_disabled": 0, "fusion_lon": 0.0, "bike_id": "d40177169e897a1144dc8941c44d6d2d", "lon": -76.94176466666667, "rental_uris": {"ios": "https://dc.lft.to/lastmile_qr_scan", "android": "https://dc.lft.to/lastmile_qr_scan"}}, {"name": "932a8ecbe52b44e5993fa0c0ac89aefd", "fusion_lat": 0.0, "type": "electric_scooter", "lat": 38.932606, "is_reserved": 0, "is_disabled": 0, "fusion_lon": 0.0, "bike_id": "932a8ecbe52b44e5993fa0c0ac89aefd", "lon": -77.03261483333333, "rental_uris": {"ios": "https://dc.lft.to/lastmile_qr_scan", "android": "https://dc.lft.to/lastmile_qr_scan"}}, {"name": "f06590627d59b587550da3d5ea926b7f", "fusion_lat": 0.0, "type": "electric_scooter", "lat": 38.905660833333336, "is_reserved": 0, "is_disabled": 0, "fusion_lon": 0.0, "bike_id": "f06590627d59b587550da3d5ea926b7f", "lon": -76.99684366666666, "rental_uris": {"ios": "https://dc.lft.to/lastmile_qr_scan", "android": "https://dc.lft.to/lastmile_qr_scan"}}, {"name": "254d0720266b7d328d4e3f7ad45043b6", "fusion_lat": 0.0, "type": "electric_scooter", "lat": 38.914881666666666, "is_reserved": 0, "is_disabled": 0, "fusion_lon": 0.0, "bike_id": "254d0720266b7d328d4e3f7ad45043b6", "lon": -77.0414275, "rental_uris": {"ios": "https://dc.lft.to/lastmile_qr_scan", "android": "https://dc.lft.to/lastmile_qr_scan"}}, {"name": "e270aed9f23c495492c6236540e0561c", "fusion_lat": 0.0, "type": "electric_scooter", "lat": 38.862608333333334, "is_reserved": 0, "is_disabled": 0, "fusion_lon": 0.0, "bike_id": "e270aed9f23c495492c6236540e0561c", "lon": -76.987131, "rental_uris": {"ios": "https://dc.lft.to/lastmile_qr_scan", "android": "https://dc.lft.to/lastmile_qr_scan"}}, {"name": "60aedff78888435bb0320e43ef259397", "fusion_lat": 0.0, "type": "electric_scooter", "lat": 38.9162925, "is_reserved": 0, "is_disabled": 0, "fusion_lon": 0.0, "bike_id": "60aedff78888435bb0320e43ef259397", "lon": -77.0359725, "rental_uris": {"ios": "https://dc.lft.to/lastmile_qr_scan", "android": "https://dc.lft.to/lastmile_qr_scan"}}, {"name": "a9b42b692cadcf06b9bf6e9d38230bd8", "fusion_lat": 0.0, "type": "electric_scooter", "lat": 38.929287333333335, "is_reserved": 0, "is_disabled": 0, "fusion_lon": 0.0, "bike_id": "a9b42b692cadcf06b9bf6e9d38230bd8", "lon": -77.0233905, "rental_uris": {"ios": "https://dc.lft.to/lastmile_qr_scan", "android": "https://dc.lft.to/lastmile_qr_scan"}}, {"name": "c97c4b02646793c85c0a0843b39ee933", "fusion_lat": 0.0, "type": "electric_scooter", "lat": 38.91681033333333, "is_reserved": 0, "is_disabled": 0, "fusion_lon": 0.0, "bike_id": "c97c4b02646793c85c0a0843b39ee933", "lon": -77.036415, "rental_uris": {"ios": "https://dc.lft.to/lastmile_qr_scan", "android": "https://dc.lft.to/lastmile_qr_scan"}}, {"name": "2de1138cfd168e338918e27a36290c87", "fusion_lat": 0.0, "type": "electric_scooter", "lat": 38.88145016666667, "is_reserved": 0, "is_disabled": 0, "fusion_lon": 0.0, "bike_id": "2de1138cfd168e338918e27a36290c87", "lon": -77.01306383333333, "rental_uris": {"ios": "https://dc.lft.to/lastmile_qr_scan", "android": "https://dc.lft.to/lastmile_qr_scan"}}, {"name": "dbc212778f538a216e24f48f7a712e39", "fusion_lat": 0.0, "type": "electric_scooter", "lat": 38.920743333333334, "is_reserved": 0, "is_disabled": 0, "fusion_lon": 0.0, "bike_id": "dbc212778f538a216e24f48f7a712e39", "lon": -77.02391216666666, "rental_uris": {"ios": "https://dc.lft.to/lastmile_qr_scan", "android": "https://dc.lft.to/lastmile_qr_scan"}}, {"name": "bcecb9b487ea696fc97c47345146340a", "fusion_lat": 0.0, "type": "electric_scooter", "lat": 38.91417883333333, "is_reserved": 0, "is_disabled": 0, "fusion_lon": 0.0, "bike_id": "bcecb9b487ea696fc97c47345146340a", "lon": -77.027991, "rental_uris": {"ios": "https://dc.lft.to/lastmile_qr_scan", "android": "https://dc.lft.to/lastmile_qr_scan"}}, {"name": "a8cbad93aa9ade14dfd5ea55fd71984c", "fusion_lat": 0.0, "type": "electric_scooter", "lat": 38.924884166666665, "is_reserved": 0, "is_disabled": 0, "fusion_lon": 0.0, "bike_id": "a8cbad93aa9ade14dfd5ea55fd71984c", "lon": -77.02709233333333, "rental_uris": {"ios": "https://dc.lft.to/lastmile_qr_scan", "android": "https://dc.lft.to/lastmile_qr_scan"}}, {"name": "a3b5f5c78bc28abef17a4ce07e52e9fc", "fusion_lat": 0.0, "type": "electric_scooter", "lat": 38.908714, "is_reserved": 0, "is_disabled": 0, "fusion_lon": 0.0, "bike_id": "a3b5f5c78bc28abef17a4ce07e52e9fc", "lon": -77.034613, "rental_uris": {"ios": "https://dc.lft.to/lastmile_qr_scan", "android": "https://dc.lft.to/lastmile_qr_scan"}}, {"name": "17a1c96e5f65ee50a6fb9c28320b46e5", "fusion_lat": 0.0, "type": "electric_scooter", "lat": 38.92469216666667, "is_reserved": 0, "is_disabled": 0, "fusion_lon": 0.0, "bike_id": "17a1c96e5f65ee50a6fb9c28320b46e5", "lon": -77.03057183333334, "rental_uris": {"ios": "https://dc.lft.to/lastmile_qr_scan", "android": "https://dc.lft.to/lastmile_qr_scan"}}, {"name": "7ec8a8e37329f44017e7ead2e5d463ef", "fusion_lat": 0.0, "type": "electric_scooter", "lat": 38.909717666666666, "is_reserved": 0, "is_disabled": 0, "fusion_lon": 0.0, "bike_id": "7ec8a8e37329f44017e7ead2e5d463ef", "lon": -77.04668683333334, "rental_uris": {"ios": "https://dc.lft.to/lastmile_qr_scan", "android": "https://dc.lft.to/lastmile_qr_scan"}},