{"data": {"bikes": [{"rental_uris": {"android": "https://dc.lft.to/lastmile_qr_scan", "ios": "https://dc.lft.to/lastmile_qr_scan"}, "lon": -77.05587466666667, "name": "0f9c5c64b4a821bbbb35044c7dc537c8", "lat": 38.934322, "is_reserved": 0, "fusion_lat": 0.0, "bike_id": "0f9c5c64b4a821bbbb35044c7dc537c8", "type": "electric_scooter", "is_disabled": 0, "fusion_lon": 0.0}, {"rental_uris": {"android": "https://dc.lft.to/lastmile_qr_scan", "ios": "https://dc.lft.to/lastmile_qr_scan"}, "lon": -76.98659549999999, "name": "a9e859077544b48d782caeb0b11f00f9", "lat": 38.9107135, "is_reserved": 0, "fusion_lat": 0.0, "bike_id": "a9e859077544b48d782caeb0b11f00f9", "type": "electric_scooter", "is_disabled": 0, "fusion_lon": 0.0}, {"rental_uris": {"android": "https://dc.lft.to/lastmile_qr_scan", "ios": "https://dc.lft.to/lastmile_qr_scan"}, "lon": -77.038555, "name": "8d01d6b156a7d5a47f09f7643326e2ad", "lat": 38.907774, "is_reserved": 0, "fusion_lat": 0.0, "bike_id": "8d01d6b156a7d5a47f09f7643326e2ad", "type": "electric_scooter", "is_disabled": 0, "fusion_lon": 0.0}, {"rental_uris": {"android": "https://dc.lft.to/lastmile_qr_scan", "ios": "https://dc.lft.to/lastmile_qr_scan"}, "lon": -77.038593, "name": "23ef5cbe6dc862618e4c6926a097455e", "lat": 38.9177545, "is_reserved": 0, "fusion_lat": 0.0, "bike_id": "23ef5cbe6dc862618e4c6926a097455e", "type": "electric_scooter", "is_disabled": 0, "fusion_lon": 0.0}, {"rental_uris": {"android": "https://dc.lft.to/lastmile_qr_scan", "ios": "https://dc.lft.to/lastmile_qr_scan"}, "lon": -77.023253, "name": "07ead7180e8cda63a0cd3f256e0c2d42", "lat": 38.9071755, "is_reserved": 0, "fusion_lat": 0.0, "bike_id": "07ead7180e8cda63a0cd3f256e0c2d42", "type": "electric_scooter", "is_disabled": 0, "fusion_lon": 0.0}, {"rental_uris": {"android": "https://dc.lft.to/lastmile_qr_scan", "ios": "https://dc.lft.to/lastmile_qr_scan"}, "lon": -77.0526905, "name": "56714c21d5dbdcaefb51b9e0fe284732", "lat": 38.925612666666666, "is_reserved": 0, "fusion_lat": 0.0, "bike_id": "56714c21d5dbdcaefb51b9e0fe284732", "type": "electric_scooter", "is_disabled": 0, "fusion_lon": 0.0}, {"rental_uris": {"android": "https://dc.lft.to/lastmile_qr_scan", "ios": "https://dc.lft.to/lastmile_qr_scan"}, "lon": -77.0280345, "name": "2991fa3a746d5edb2ead8f66d226f57d", "lat": 38.939356833333335, "is_reserved": 0, "fusion_lat": 0.0, "bike_id": "2991fa3a746d5edb2ead8f66d226f57d", "type": "electric_scooter", "is_disabled": 0, "fusion_lon": 0.0}, {"rental_uris": {"android": "https://dc.lft.to/lastmile_qr_scan", "ios": "https://dc.lft.to/lastmile_qr_scan"}, "lon": -77.07768783333333, "name": "fcb91964f856bd47f897c7d29d2de98c", "lat": 38.925497, "is_reserved": 0, "fusion_lat": 0.0, "bike_id": "fcb91964f856bd47f897c7d29d2de98c", "type": "electric_scooter", "is_disabled": 0, "fusion_lon": 0.0}, {"rental_uris": {"android": "https://dc.lft.to/lastmile_qr_scan", "ios": "https://dc.lft.to/lastmile_qr_scan"}, "lon": -77.01030616666667, "name": "9e930f6d18f6fe002e8af033a6f04e43", "lat": 38.90638916666666, "is_reserved": 0, "fusion_lat": 0.0, "bike_id": "9e930f6d18f6fe002e8af033a6f04e43", "type": "electric_scooter", "is_disabled": 0, "fusion_lon": 0.0}, {"rental_uris": {"android": "https://dc.lft.to/lastmile_qr_scan", "ios": "https://dc.lft.to/lastmile_qr_scan"}, "lon": -77.10685033333333, "name": "40806d30b5be8564a9ac23f3ca9e2ab4", "lat": 38.864505, "is_reserved": 0, "fusion_lat": 0.0, "bike_id": "40806d30b5be8564a9ac23f3ca9e2ab4", "type": "electric_bike", "is_disabled": 0, "fusion_lon": 0.0}, {"rental_uris": {"android": "https://dc.lft.to/lastmile_qr_scan", "ios": "https://dc.lft.to/lastmile_qr_scan"}, "lon": -77.05678933333333, "name": "9056bd2cd14e1b65391b1f3f3bf4b082", "lat": 38.93154366666667, "is_reserved": 0, "fusion_lat": 0.0, "bike_id": "9056bd2cd14e1b65391b1f3f3bf4b082", "type": "electric_scooter", "is_disabled": 0, "fusion_lon": 0.0}, {"rental_uris": {"android": "https://dc.lft.to/lastmile_qr_scan", "ios": "https://dc.lft.to/lastmile_qr_scan"}, "lon": -77.04131933333333, "name": "35870b0e0f28c40e1139fc0d4cf11cf6", "lat": 38.91074416666667, "is_reserved": 0, "fusion_lat": 0.0, "bike_id": "35870b0e0f28c40e1139fc0d4cf11cf6", "type": "electric_scooter", "is_disabled": 0, "fusion_lon": 0.0}, {"rental_uris": {"android": "https://dc.lft.to/lastmile_qr_scan", "ios": "https://dc.lft.to/lastmile_qr_scan"}, "lon": -77.02357583333334, "name": "91444ab16c46ef24ddc6f76dcf694f54", "lat": 38.930006666666664, "is_reserved": 0, "fusion_lat": 0.0, "bike_id": "91444ab16c46ef24ddc6f76dcf694f54", "type": "electric_scooter", "is_disabled": 0, "fusion_lon": 0.0}, {"rental_uris": {"android": "https://dc.lft.to/lastmile_qr_scan", "ios": "https://dc.lft.to/lastmile_qr_scan"}, "lon": -77.03445916666666, "name": "574f0c25f278de9ff43b9b236a1f91dd", "lat": 38.909768, "is_reserved": 0, "fusion_lat": 0.0, "bike_id": "574f0c25f278de9ff43b9b236a1f91dd", "type": "electric_scooter", "is_disabled": 0, "fusion_lon": 0.0}, {"rental_uris": {"android": "https://dc.lft.to/lastmile_qr_scan", "ios": "https://dc.lft.to/lastmile_qr_scan"}, "lon": -77.04693816666666, "name": "079f18737fe9b1083652b62c0010648e", "lat": 38.892230833333336, "is_reserved": 0, "fusion_lat": 0.0, "bike_id": "079f18737fe9b1083652b62c0010648e", "type": "electric_scooter", "is_disabled": 0, "fusion_lon": 0.0}, {"rental_uris": {"android": "https://dc.lft.to/lastmile_qr_scan", "ios": "https://dc.lft.to/lastmile_qr_scan"}, "lon": -77.01154883333334, "name": "686a44e7fadca550d9f5a524c3e65de8", "lat": 38.90008433333333, "is_reserved": 0, "fusion_lat": 0.0, "bike_id": "686a44e7fadca550d9f5a524c3e65de8", "type": "electric_scooter", "is_disabled": 0, "fusion_lon": 0.0}, {"rental_uris": {"android": "https://dc.lft.to/lastmile_qr_scan", "ios": "https://dc.lft.to/lastmile_qr_scan"}, "lon": -76.9425325, "name": "b46124a558915d561bad2bc3f2305e7d", "lat": 38.89848816666667, "is_reserved": 0, "fusion_lat": 0.0, "bike_id": "b46124a558915d561bad2bc3f2305e7d", "type": "electric_scooter", "is_disabled": 0, "fusion_lon": 0.0}, {"rental_uris": {"android": "https://dc.lft.to/lastmile_qr_scan", "ios": "https://dc.lft.to/lastmile_qr_scan"}, "lon": -77.00071233333334, "name": "1a21abdd27c0a26c5e4f7d09339fbe36", "lat": 38.886781166666665, "is_reserved": 0, "fusion_lat": 0.0, "bike_id": "1a21abdd27c0a26c5e4f7d09339fbe36", "type": "electric_scooter", "is_disabled": 0, "fusion_lon": 0.0}, {"rental_uris": {"android": "https://dc.lft.to/lastmile_qr_scan", "ios": "https://dc.lft.to/lastmile_qr_scan"}, "lon": -77.00251133333333, "name": "b793f062ff802d40fce113d930ae3a6a", "lat": 38.876368, "is_reserved": 0, "fusion_lat": 0.0, "bike_id": "b793f062ff802d40fce113d930ae3a6a", "type": "electric_scooter", "is_disabled": 0, "fusion_lon": 0.0}, {"rental_uris": {"android": "https://dc.lft.to/lastmile_qr_scan", "ios": "https://dc.lft.to/lastmile_qr_scan"}, "lon": -77.03428766666667, "name": "09dd1163c62ac08ed93ca9a24de70cf6", "lat": 38.91918716666667, "is_reserved": 0, "fusion_lat": 0.0, "bike_id": "09dd1163c62ac08ed93ca9a24de70cf6", "type": "electric_scooter", "is_disabled": 0, "fusion_lon": 0.0}, {"rental_uris": {"android": "https://dc.lft.to/lastmile_qr_scan", "ios": "https://dc.lft.to/lastmile_qr_scan"}, "lon": -77.01481183333334, "name": "19e80d4ed98c0e4c452cd0cede630f82", "lat": 38.91924083333333, "is_reserved": 0, "fusion_lat": 0.0, "bike_id": "19e80d4ed98c0e4c452cd0cede630f82", "type": "electric_scooter", "is_disabled": 0, "fusion_lon": 0.0}, {"rental_uris": {"android": "https://dc.lft.to/lastmile_qr_scan", "ios": "https://dc.lft.to/lastmile_qr_scan"}, "lon": -77.000484, "name": "9e3a529ea231743165fc5eed56a258c4", "lat": 38.918988, "is_reserved": 0, "fusion_lat": 0.0, "bike_id": "9e3a529ea231743165fc5eed56a258c4", "type": "electric_scooter", "is_disabled": 0, "fusion_lon": 0.0}, {"rental_uris": {"android": "https://dc.lft.to/lastmile_qr_scan", "ios": "https://dc.lft.to/lastmile_qr_scan"}, "lon": -77.00897116666667, "name": "0e933e24d5c2a340c513cc436e7ef545", "lat": 38.876658, "is_reserved": 0, "fusion_lat": 0.0, "bike_id": "0e933e24d5c2a340c513cc436e7ef545", "type": "electric_scooter", "is_disabled": 0, "fusion_lon": 0.0}, {"rental_uris": {"android": "https://dc.lft.to/lastmile_qr_scan", "ios": "https://dc.lft.to/lastmile_qr_scan"}, "lon": -77.046346, "name": "1e3625544f2401edd925217db9c70f6c", "lat": 38.9180655, "is_reserved": 0, "fusion_lat": 0.0, "bike_id": "1e3625544f2401edd925217db9c70f6c", "type": "electric_scooter", "is_disabled": 0, "fusion_lon": 0.0}, {"rental_uris": {"android": "https://dc.lft.to/lastmile_qr_scan", "ios": "https://dc.lft.to/lastmile_qr_scan"}, "lon": -77.00212933333333, "name": "bd7e77fe6b8171df1e9bce7ef3db2997", "lat": 38.9024345, "is_reserved": 0, "fusion_lat": 0.0, "bike_id": "bd7e77fe6b8171df1e9bce7ef3db2997", "type": "electric_scooter", "is_disabled": 0, "fusion_lon": 0.0}, {"rental_uris": {"android": "https://dc.lft.to/lastmile_qr_scan", "ios": "https://dc.lft.to/lastmile_qr_scan"}, "lon": -77.000004, "name": "3ae7e1efb3858a20f3cca1e844fda168", "lat": 38.83326183333333, "is_reserved": 0, "fusion_lat": 0.0, "bike_id": "3ae7e1efb3858a20f3cca1e844fda168", "type": "electric_bike", "is_disabled": 0, "fusion_lon": 0.0}, {"rental_uris": {"android": "https://dc.lft.to/lastmile_qr_scan", "ios": "https://dc.lft.to/lastmile_qr_scan"}, "lon": -77.0203565, "name": "ecae05936c2f90f5c87ab372b0f786e2", "lat": 38.9130745, "is_reserved": 0, "fusion_lat": 0.0, "bike_id": "ecae05936c2f90f5c87ab372b0f786e2", "type": "electric_scooter", "is_disabled": 0, "fusion_lon": 0.0}, {"rental_uris": {"android": "https://dc.lft.to/lastmile_qr_scan", "ios": "https://dc.lft.to/lastmile_qr_scan"}, "lon": -77.04000966666666, "name": "692f2705912d286c8aeb23dd074f3683", "lat": 38.934308333333334, "is_reserved": 0, "fusion_lat": 0.0, "bike_id": "692f2705912d286c8aeb23dd074f3683", "type": "electric_scooter", "is_disabled": 0, "fusion_lon": 0.0}, {"rental_uris": {"android": "https://dc.lft.to/lastmile_qr_scan", "ios": "https://dc.lft.to/lastmile_qr_scan"}, "lon": -77.1843575, "name": "78bc5c9d98d79fe85b582dbbd414aad1", "lat": 38.890663333333336, "is_reserved": 0, "fusion_lat": 0.0, "bike_id": "78bc5c9d98d79fe85b582dbbd414aad1", "type": "electric_bike", "is_disabled": 0, "fusion_lon": 0.0}, {"rental_uris": {"android": "https://dc.lft.to/lastmile_qr_scan", "ios": "https://dc.lft.to/lastmile_qr_scan"}, "lon": -76.97434833333334, "name": "82e6e4ab7b00724b46a2fdbf8585eac2", "lat": 38.86431683333333, "is_reserved": 0, "fusion_lat": 0.0, "bike_id": "82e6e4ab7b00724b46a2fdbf8585eac2", "type": "electric_scooter", "is_disabled": 0, "fusion_lon": 0.0}, {"rental_uris": {"android": "https://dc.lft.to/lastmile_qr_scan", "ios": "https://dc.lft.to/lastmile_qr_scan"}, "lon": -77.02155266666666, "name": "a1a67bfd478bdbdd706e59d682fcd7ef", "lat": 38.92468783333333, "is_reserved": 0, "fusion_lat": 0.0, "bike_id": "a1a67bfd478bdbdd706e59d682fcd7ef", "type": "electric_scooter", "is_disabled": 0, "fusion_lon": 0.0}, {"rental_uris": {"android": "https://dc.lft.to/lastmile_qr_scan", "ios": "https://dc.lft.to/lastmile_qr_scan"}, "lon": -77.039349, "name": "deb2a77e4c0e20d1fd984dd790a09a54", "lat": 38.91257566666667, "is_reserved": 0, "fusion_lat": 0.0, "bike_id": "deb2a77e4c0e20d1fd984dd790a09a54", "type": "electric_scooter", "is_disabled": 0, "fusion_lon": 0.0}, {"rental_uris": {"android": "https://dc.lft.to/lastmile_qr_scan", "ios": "https://dc.lft.to/lastmile_qr_scan"}, "lon": -76.94961683333334, "name": "cb4e9b2344863fd715dda5decd17a625", "lat": 38.89466516666667, "is_reserved": 0, "fusion_lat": 0.0, "bike_id": "cb4e9b2344863fd715dda5decd17a625", "type": "electric_scooter", "is_disabled": 0, "fusion_lon": 0.0}, {"rental_uris": {"android": "https://dc.lft.to/lastmile_qr_scan", "ios": "https://dc.lft.to/lastmile_qr_scan"}, "lon": -77.0379545, "name": "d08ce6590ec7bc1092cf3d8e5bbc2bd8", "lat": 38.92511566666667, "is_reserved": 0, "fusion_lat": 0.0, "bike_id": "d08ce6590ec7bc1092cf3d8e5bbc2bd8", "type": "electric_scooter", "is_disabled": 0, "fusion_lon": 0.0}, {"rental_uris": {"android": "https://dc.lft.to/lastmile_qr_scan", "ios": "https://dc.lft.to/lastmile_qr_scan"}, "lon": -76.998136, "name": "308720847fbc071ac8f43f55c44c0c94", "lat": 38.81996566666667, "is_reserved": 0, "fusion_lat": 0.0, "bike_id": "308720847fbc071ac8f43f55c44c0c94", "type": "electric_bike", "is_disabled": 0, "fusion_lon": 0.0}, {"rental_uris": {"android": "https://dc.lft.to/lastmile_qr_scan", "ios": "https://dc.lft.to/lastmile_qr_scan"}, "lon": -76.98719416666667, "name": "91030cc2e0b39baf12f5577256d95941", "lat": 38.86629333333333, "is_reserved": 0, "fusion_lat": 0.0, "bike_id": "91030cc2e0b39baf12f5577256d95941", "type": "electric_scooter", "is_disabled": 0, "fusion_lon": 0.0}, {"rental_uris": {"android": "https://dc.lft.to/lastmile_qr_scan", "ios": "https://dc.lft.to/lastmile_qr_scan"}, "lon": -77.01541433333334, "name": "218b7d682ea4b626ce5ae11dc080164b", "lat": 38.94124433333333, "is_reserved": 0, "fusion_lat": 0.0, "bike_id": "218b7d682ea4b626ce5ae11dc080164b", "type": "electric_scooter", "is_disabled": 0, "fusion_lon": 0.0}, {"rental_uris": {"android": "https://dc.lft.to/lastmile_qr_scan", "ios": "https://dc.lft.to/lastmile_qr_scan"}, "lon": -77.0238395, "name": "85e136cc6529d951df0ce11815d279ef", "lat": 38.91143366666667, "is_reserved": 0, "fusion_lat": 0.0, "bike_id": "85e136cc6529d951df0ce11815d279ef", "type": "electric_scooter", "is_disabled": 0, "fusion_lon": 0.0}, {"rental_uris": {"android": "https://dc.lft.to/lastmile_qr_scan", "ios": "https://dc.lft.to/lastmile_qr_scan"}, "lon": -76.95097666666666, "name": "957fee26535778237304b4a0bf897a72", "lat": 38.884535166666666, "is_reserved": 0, "fusion_lat": 0.0, "bike_id": "957fee26535778237304b4a0bf897a72", "type": "electric_scooter", "is_disabled": 0, "fusion_lon": 0.0}, {"rental_uris": {"android": "https://dc.lft.to/lastmile_qr_scan", "ios": "https://dc.lft.to/lastmile_qr_scan"}, "lon": -77.02796966666666, "name": "30a2bf81b6a1fe3398e0249823e8adc4", "lat": 38.960409166666665, "is_reserved": 0, "fusion_lat": 0.0, "bike_id": "30a2bf81b6a1fe3398e0249823e8adc4", "type": "electric_scooter", "is_disabled": 0, "fusion_lon": 0.0}, {"rental_uris": {"android": "https://dc.lft.to/lastmile_qr_scan", "ios": "https://dc.lft.to/lastmile_qr_scan"}, "lon": -76.96558116666667, "name": "11b28e6534b8f0e85b04b534efd581e5", "lat": 38.91844283333333, "is_reserved": 0, "fusion_lat": 0.0, "bike_id": "11b28e6534b8f0e85b04b534efd581e5", "type": "electric_scooter", "is_disabled": 0, "fusion_lon": 0.0}, {"rental_uris": {"android": "https://dc.lft.to/lastmile_qr_scan", "ios": "https://dc.lft.to/lastmile_qr_scan"}, "lon": -77.018726, "name": "1b408964daee3d93039f954ef9e89f9d", "lat": 38.896613333333335, "is_reserved": 0, "fusion_lat": 0.0, "bike_id": "1b408964daee3d93039f954ef9e89f9d", "type": "electric_scooter", "is_disabled": 0, "fusion_lon": 0.0}, {"rental_uris": {"android": "https://dc.lft.to/lastmile_qr_scan", "ios": "https://dc.lft.to/lastmile_qr_scan"}, "lon": -76.99003066666667, "name": "b8c527769d0ec209df98c21d00e9c22d", "lat": 38.865035, "is_reserved": 0, "fusion_lat": 0.0, "bike_id": "b8c527769d0ec209df98c21d00e9c22d", "type": "electric_scooter", "is_disabled": 0, "fusion_lon": 0.0}, {"rental_uris": {"android": "https://dc.lft.to/lastmile_qr_scan", "ios": "https://dc.lft.to/lastmile_qr_scan"}, "lon": -77.02700933333334, "name": "ea4e2d0ec07d1e38848979ae882adb88", "lat": 38.90239716666667, "is_reserved": 0, "fusion_lat": 0.0, "bike_id": "ea4e2d0ec07d1e38848979ae882adb88", "type": "electric_scooter", "is_disabled": 0, "fusion_lon": 0.0}, {"rental_uris": {"android": "https://dc.lft.to/lastmile_qr_scan", "ios": "https://dc.lft.to/lastmile_qr_scan"}, "lon": -77.0487395, "name": "35074f16378504a05ebdce338dc6b3e8", "lat": 38.91300966666667, "is_reserved": 0, "fusion_lat": 0.0, "bike_id": "35074f16378504a05ebdce338dc6b3e8", "type": "electric_scooter", "is_disabled": 0, "fusion_lon": 0.0}, {"rental_uris": {"android": "https://dc.lft.to/lastmile_qr_scan", "ios": "https://dc.lft.to/lastmile_qr_scan"}, "lon": -77.03288566666667, "name": "de0c588a92e9177fe5daa2a39be6bdad", "lat": 38.8990235, "is_reserved": 0, "fusion_lat": 0.0, "bike_id": "de0c588a92e9177fe5daa2a39be6bdad", "type": "electric_scooter", "is_disabled": 0, "fusion_lon": 0.0}, {"rental_uris": {"android": "https://dc.lft.to/lastmile_qr_scan", "ios": "https://dc.lft.to/lastmile_qr_scan"}, "lon": -77.015556, "name": "93e81f975f944864501c549ef2a48d8b", "lat": 38.91408083333334, "is_reserved": 0, "fusion_lat": 0.0, "bike_id": "93e81f975f944864501c549ef2a48d8b", "type": "electric_scooter", "is_disabled": 0, "fusion_lon": 0.0}, {"rental_uris": {"android": "https://dc.lft.to/lastmile_qr_scan", "ios": "https://dc.lft.to/lastmile_qr_scan"}, "lon": -76.99836816666667, "name": "b14d79b77133a460229cd6aa34050fca", "lat": 38.90238, "is_reserved": 0, "fusion_lat": 0.0, "bike_id": "b14d79b77133a460229cd6aa34050fca", "type": "electric_scooter", "is_disabled": 0, "fusion_lon": 0.0}, {"rental_uris": {"android": "https://dc.lft.to/lastmile_qr_scan", "ios": "https://dc.lft.to/lastmile_qr_scan"}, "lon": -77.07603316666666, "name": "ce8631813a395144e129a7ed49888399", "lat": 38.94105716666667, "is_reserved": 0, "fusion_lat": 0.0, "bike_id": "ce8631813a395144e129a7ed49888399", "type": "electric_scooter", "is_disabled": 0, "fusion_lon": 0.0}, {"rental_uris": {"android": "https://dc.lft.to/lastmile_qr_scan", "ios": "https://dc.lft.to/lastmile_qr_scan"}, "lon": -77.04674083333333, "name": "782122abe9d8c6d83dad1f1a5933ebba", "lat": 38.907810833333336, "is_reserved": 0, "fusion_lat": 0.0, "bike_id": "782122abe9d8c6d83dad1f1a5933ebba", "type": "electric_scooter", "is_disabled": 0, "fusion_lon": 0.0}, {"rental_uris": {"android": "https://dc.lft.to/lastmile_qr_scan", "ios": "https://dc.lft.to/lastmile_qr_scan"}, "lon": -77.03754383333333, "name": "463a9bca8e4faacffb4286315970e1e6", "lat": 38.9076635, "is_reserved": 0, "fusion_lat": 0.0, "bike_id": "463a9bca8e4faacffb4286315970e1e6", "type": "electric_scooter", "is_disabled": 0, "fusion_lon": 0.0}, {"rental_uris": {"android": "https://dc.lft.to/lastmile_qr_scan", "ios": "https://dc.lft.to/lastmile_qr_scan"}, "lon": -77.039618, "name": "a0799431a757870df05db8dc8beccae3", "lat": 38.926094666666664, "is_reserved": 0, "fusion_lat": 0.0, "bike_id": "a0799431a757870df05db8dc8beccae3", "type": "electric_scooter", "is_disabled": 0, "fusion_lon": 0.0}, {"rental_uris": {"android": "https://dc.lft.to/lastmile_qr_scan", "ios": "https://dc.lft.to/lastmile_qr_scan"}, "lon": -76.988227, "name": "26603d2c77abe37a683ab20f471240e8", "lat": 38.890835333333335, "is_reserved": 0, "fusion_lat": 0.0, "bike_id": "26603d2c77abe37a683ab20f471240e8", "type": "electric_scooter", "is_disabled": 0, "fusion_lon": 0.0}, {"rental_uris": {"android": "https://dc.lft.to/lastmile_qr_scan", "ios": "https://dc.lft.to/lastmile_qr_scan"}, "lon": -77.04306416666667, "name": "623a776b4ca6f04c768c6fd94dfcbeb1", "lat": 38.931797, "is_reserved": 0, "fusion_lat": 0.0, "bike_id": "623a776b4ca6f04c768c6fd94dfcbeb1", "type": "electric_scooter", "is_disabled": 0, "fusion_lon": 0.0}, {"rental_uris": {"android": "https://dc.lft.to/lastmile_qr_scan", "ios": "https://dc.lft.to/lastmile_qr_scan"}, "lon": -76.9820765, "name": "2c8d49320b921b7b7b99cdeb6da97df3", "lat": 38.90198, "is_reserved": 0, "fusion_lat": 0.0, "bike_id": "2c8d49320b921b7b7b99cdeb6da97df3", "type": "electric_scooter", "is_disabled": 0, "fusion_lon": 0.0}, {"rental_uris": {"android": "https://dc.lft.to/lastmile_qr_scan", "ios": "https://dc.lft.to/lastmile_qr_scan"}, "lon": -77.03185883333333, "name": "ca0c0f4706767316221a373b205dccd2", "lat": 38.90977016666667, "is_reserved": 0, "fusion_lat": 0.0, "bike_id": "ca0c0f4706767316221a373b205dccd2", "type": "electric_scooter", "is_disabled": 0, "fusion_lon": 0.0}, {"rental_uris": {"android": "https://dc.lft.to/lastmile_qr_scan", "ios": "https://dc.lft.to/lastmile_qr_scan"}, "lon": -77.02472033333333, "name": "2802f073eb33c495e830b53b79eb12a4", "lat": 38.93102233333333, "is_reserved": 0, "fusion_lat": 0.0, "bike_id": "2802f073eb33c495e830b53b79eb12a4", "type": "electric_scooter", "is_disabled": 0, "fusion_lon": 0.0}, {"rental_uris": {"android": "https://dc.lft.to/lastmile_qr_scan", "ios": "https://dc.lft.to/lastmile_qr_scan"}, "lon": -77.0195905, "name": "816ed70c0a5d556ee2f3be88f82203ca", "lat": 38.902370833333336, "is_reserved": 0, "fusion_lat": 0.0, "bike_id": "816ed70c0a5d556ee2f3be88f82203ca", "type": "electric_scooter", "is_disabled": 0, "fusion_lon": 0.0}, {"rental_uris": {"android": "https://dc.lft.to/lastmile_qr_scan", "ios": "https://dc.lft.to/lastmile_qr_scan"}, "lon": -77.00579583333334, "name": "18926288d7335d49fd2809addfbcca40", "lat": 38.92939766666667, "is_reserved": 0, "fusion_lat": 0.0, "bike_id": "18926288d7335d49fd2809addfbcca40", "type": "electric_scooter", "is_disabled": 0, "fusion_lon": 0.0}, {"rental_uris": {"android": "https://dc.lft.to/lastmile_qr_scan", "ios": "https://dc.lft.to/lastmile_qr_scan"}, "lon": -77.02561833333333, "name": "af75aa8768e7ae6893c1864b62cabc34", "lat": 38.92401066666667, "is_reserved": 0, "fusion_lat": 0.0, "bike_id": "af75aa8768e7ae6893c1864b62cabc34", "type": "electric_scooter", "is_disabled": 0, "fusion_lon": 0.0}, {"rental_uris": {"android": "https://dc.lft.to/lastmile_qr_scan", "ios": "https://dc.lft.to/lastmile_qr_scan"}, "lon": -77.01978883333334, "name": "11048abd856a16a8593d5e38cb7ecb34", "lat": 38.89889016666667, "is_reserved": 0, "fusion_lat": 0.0, "bike_id": "11048abd856a16a8593d5e38cb7ecb34", "type": "electric_scooter", "is_disabled": 0, "fusion_lon": 0.0}, {"rental_uris": {"android": "https://dc.lft.to/lastmile_qr_scan", "ios": "https://dc.lft.to/lastmile_qr_scan"}, "lon": -77.00868416666667, "name": "149e863f366dc75c53f925a6159f6175", "lat": 38.9645995, "is_reserved": 0, "fusion_lat": 0.0, "bike_id": "149e863f366dc75c53f925a6159f6175", "type": "electric_bike", "is_disabled": 0, "fusion_lon": 0.0}, {"rental_uris": {"android": "https://dc.lft.to/lastmile_qr_scan", "ios": "https://dc.lft.to/lastmile_qr_scan"}, "lon": -77.02156766666667, "name": "4548ab0d5472ab3537fa5dea13ccb909", "lat": 38.92461316666667, "is_reserved": 0, "fusion_lat": 0.0, "bike_id": "4548ab0d5472ab3537fa5dea13ccb909", "type": "electric_scooter", "is_disabled": 0, "fusion_lon": 0.0}, {"rental_uris": {"android": "https://dc.lft.to/lastmile_qr_scan", "ios": "https://dc.lft.to/lastmile_qr_scan"}, "lon": -76.9465625, "name": "f1fb6ef8facaefd33a0214f9f2eab1c7", "lat": 38.89825866666666, "is_reserved": 0, "fusion_lat": 0.0, "bike_id": "f1fb6ef8facaefd33a0214f9f2eab1c7", "type": "electric_scooter", "is_disabled": 0, "fusion_lon": 0.0}, {"rental_uris": {"android": "https://dc.lft.to/lastmile_qr_scan", "ios": "https://dc.lft.to/lastmile_qr_scan"}, "lon": -77.03263833333334, "name": "7090da0b89003e667559549e0b054d51", "lat": 38.928090833333336, "is_reserved": 0, "fusion_lat": 0.0, "bike_id": "7090da0b89003e667559549e0b054d51", "type": "electric_scooter", "is_disabled": 0, "fusion_lon": 0.0}, {"rental_uris": {"android": "https://dc.lft.to/lastmile_qr_scan", "ios": "https://dc.lft.to/lastmile_qr_scan"}, "lon": -77.028362, "name": "ec32779066d9a49c842f4b3464a9e060", "lat": 38.9319165, "is_reserved": 0, "fusion_lat": 0.0, "bike_id": "ec32779066d9a49c842f4b3464a9e060", "type": "electric_scooter", "is_disabled": 0, "fusion_lon": 0.0}, {"rental_uris": {"android": "https://dc.lft.to/lastmile_qr_scan", "ios": "https://dc.lft.to/lastmile_qr_scan"}, "lon": -77.02001383333334, "name": "feda20cb9318319aac948bfe50edf918", "lat": 38.913639833333335, "is_reserved": 0, "fusion_lat": 0.0, "bike_id": "feda20cb9318319aac948bfe50edf918", "type": "electric_scooter", "is_disabled": 0, "fusion_lon": 0.0}, {"rental_uris": {"android": "https://dc.lft.to/lastmile_qr_scan", "ios": "https://dc.lft.to/lastmile_qr_scan"}, "lon": -76.95759283333334, "name": "cee39cb7592b90b4054d7c3399e8f9cc", "lat": 38.884251666666664, "is_reserved": 0, "fusion_lat": 0.0, "bike_id": "cee39cb7592b90b4054d7c3399e8f9cc", "type": "electric_scooter", "is_disabled": 0, "fusion_lon": 0.0}, {"rental_uris": {"android": "https://dc.lft.to/lastmile_qr_scan", "ios": "https://dc.lft.to/lastmile_qr_scan"}, "lon": -77.0355595, "name": "b928a0c28f129d3440c6c00f9ac10b21", "lat": 38.92470483333334, "is_reserved": 0, "fusion_lat": 0.0, "bike_id": "b928a0c28f129d3440c6c00f9ac10b21", "type": "electric_scooter", "is_disabled": 0, "fusion_lon": 0.0}, {"rental_uris": {"android": "https://dc.lft.to/lastmile_qr_scan", "ios": "https://dc.lft.to/lastmile_qr_scan"}, "lon": -76.95588416666666, "name": "0bb9ac18c52a5e26b87eb8fa61be9af5", "lat": 38.886078499999996, "is_reserved": 0, "fusion_lat": 0.0, "bike_id": "0bb9ac18c52a5e26b87eb8fa61be9af5", "type": "electric_scooter", "is_disabled": 0, "fusion_lon": 0.0}, {"rental_uris": {"android": "https://dc.lft.to/lastmile_qr_scan", "ios": "https://dc.lft.to/lastmile_qr_scan"}, "lon": -77.001299, "name": "3834086f64f2276758a4f0e73f511cb0", "lat": 38.905666833333335, "is_reserved": 0, "fusion_lat": 0.0, "bike_id": "3834086f64f2276758a4f0e73f511cb0", "type": "electric_scooter", "is_disabled": 0, "fusion_lon": 0.0}, {"rental_uris": {"android": "https://dc.lft.to/lastmile_qr_scan", "ios": "https://dc.lft.to/lastmile_qr_scan"}, "lon": -76.95885266666667, "name": "6165e2742086fb7bf947c75e7095f4f7", "lat": 38.88187683333334, "is_reserved": 0, "fusion_lat": 0.0, "bike_id": "6165e2742086fb7bf947c75e7095f4f7", "type": "electric_scooter", "is_disabled": 0, "fusion_lon": 0.0}, {"rental_uris": {"android": "https://dc.lft.to/lastmile_qr_scan", "ios": "https://dc.lft.to/lastmile_qr_scan"}, "lon": -77.02402333333333, "name": "8797f37bfd9795ab8a9cf7dcfffe49d3", "lat": 38.92092566666667, "is_reserved": 0, "fusion_lat": 0.0, "bike_id": "8797f37bfd9795ab8a9cf7dcfffe49d3", "type": "electric_scooter", "is_disabled": 0, "fusion_lon": 0.0}, {"rental_uris": {"android": "https://dc.lft.to/lastmile_qr_scan", "ios": "https://dc.lft.to/lastmile_qr_scan"}, "lon": -77.05001833333333, "name": "ba95aa97eb439008b0b7a8230a89726a", "lat": 38.8922955, "is_reserved": 0, "fusion_lat": 0.0, "bike_id": "ba95aa97eb439008b0b7a8230a89726a", "type": "electric_scooter", "is_disabled": 0, "fusion_lon": 0.0}, {"rental_uris": {"android": "https://dc.lft.to/lastmile_qr_scan", "ios": "https://dc.lft.to/lastmile_qr_scan"}, "lon": -77.04361533333334, "name": "d9ed681a10c44e52c56aac7236568911", "lat": 38.90409916666667, "is_reserved": 0, "fusion_lat": 0.0, "bike_id": "d9ed681a10c44e52c56aac7236568911", "type": "electric_scooter", "is_disabled": 0, "fusion_lon": 0.0}, {"rental_uris": {"android": "https://dc.lft.to/lastmile_qr_scan", "ios": "https://dc.lft.to/lastmile_qr_scan"}, "lon": -77.00071633333333, "name": "7331024c981ee997e50a67c624e599b1", "lat": 38.9013755, "is_reserved": 0, "fusion_lat": 0.0, "bike_id": "7331024c981ee997e50a67c624e599b1", "type": "electric_scooter", "is_disabled": 0, "fusion_lon": 0.0}, {"rental_uris": {"android": "https://dc.lft.to/lastmile_qr_scan", "ios": "https://dc.lft.to/lastmile_qr_scan"}, "lon": -77.02691483333334, "name": "67c15e62efc5eb2d62bd95d1d07a3596", "lat": 38.89723866666667, "is_reserved": 0, "fusion_lat": 0.0, "bike_id": "67c15e62efc5eb2d62bd95d1d07a3596", "type": "electric_scooter", "is_disabled": 0, "fusion_lon": 0.0}, {"rental_uris": {"android": "https://dc.lft.to/lastmile_qr_scan", "ios": "https://dc.lft.to/lastmile_qr_scan"}, "lon": -77.04482766666666, "name": "aaea4ffe651b20091d74bfa9fac68b70", "lat": 38.89522183333333, "is_reserved": 0, "fusion_lat": 0.0, "bike_id": "aaea4ffe651b20091d74bfa9fac68b70", "type": "electric_scooter", "is_disabled": 0, "fusion_lon": 0.0}, {"rental_uris": {"android": "https://dc.lft.to/lastmile_qr_scan", "ios": "https://dc.lft.to/lastmile_qr_scan"}, "lon": -77.04693166666667, "name": "55953851e665bc22698803c80ede8f05", "lat": 38.89224216666667, "is_reserved": 0, "fusion_lat": 0.0, "bike_id": "55953851e665bc22698803c80ede8f05", "type": "electric_scooter", "is_disabled": 0, "fusion_lon": 0.0}, {"rental_uris": {"android": "https://dc.lft.to/lastmile_qr_scan", "ios": "https://dc.lft.to/lastmile_qr_scan"}, "lon": -77.019234, "name": "f0bad326e47a5d377eb4630f383b813c", "lat": 38.92149533333333, "is_reserved": 0, "fusion_lat": 0.0, "bike_id": "f0bad326e47a5d377eb4630f383b813c", "type": "electric_scooter", "is_disabled": 0, "fusion_lon": 0.0}, {"rental_uris": {"android": "https://dc.lft.to/lastmile_qr_scan", "ios": "https://dc.lft.to/lastmile_qr_scan"}, "lon": -77.04301266666667, "name": "9936a65bff69df398f0fe7d3b514a3d5", "lat": 38.931824166666665, "is_reserved": 0, "fusion_lat": 0.0, "bike_id": "9936a65bff69df398f0fe7d3b514a3d5", "type": "electric_scooter", "is_disabled": 0, "fusion_lon": 0.0}, {"rental_uris": {"android": "https://dc.lft.to/lastmile_qr_scan", "ios": "https://dc.lft.to/lastmile_qr_scan"}, "lon": -77.03790283333333, "name": "bda58dad2856adc9ff2ebcd99f1a4200", "lat": 38.9360655, "is_reserved": 0, "fusion_lat": 0.0, "bike_id": "bda58dad2856adc9ff2ebcd99f1a4200", "type": "electric_scooter", "is_disabled": 0, "fusion_lon": 0.0}, {"rental_uris": {"android": "https://dc.lft.to/lastmile_qr_scan", "ios": "https://dc.lft.to/lastmile_qr_scan"}, "lon": -77.01821666666666, "name": "77cab63e25d3cb7c46b8a75dad0841d5", "lat": 38.922725, "is_reserved": 0, "fusion_lat": 0.0, "bike_id": "77cab63e25d3cb7c46b8a75dad0841d5", "type": "electric_scooter", "is_disabled": 0, "fusion_lon": 0.0}, {"rental_uris": {"android": "https://dc.lft.to/lastmile_qr_scan", "ios": "https://dc.lft.to/lastmile_qr_scan"}, "lon": -76.98865866666667, "name": "954d1122e5d474e6b897268e3b62f06c", "lat": 38.857687166666665, "is_reserved": 0, "fusion_lat": 0.0, "bike_id": "954d1122e5d474e6b897268e3b62f06c", "type": "electric_scooter", "is_disabled": 0, "fusion_lon": 0.0}, {"rental_uris": {"android": "https://dc.lft.to/lastmile_qr_scan", "ios": "https://dc.lft.to/lastmile_qr_scan"}, "lon": -77.0364275, "name": "f47e1e6e10f2091a5b3649bdce30187b", "lat": 38.91734783333333, "is_reserved": 0, "fusion_lat": 0.0, "bike_id": "f47e1e6e10f2091a5b3649bdce30187b", "type": "electric_scooter", "is_disabled": 0, "fusion_lon": 0.0}, {"rental_uris": {"android": "https://dc.lft.to/lastmile_qr_scan", "ios": "https://dc.lft.to/lastmile_qr_scan"}, "lon": -77.02365716666667, "name": "3b0bf1c5e80acefa64086de6859eab37", "lat": 38.92062766666667, "is_reserved": 0, "fusion_lat": 0.0, "bike_id": "3b0bf1c5e80acefa64086de6859eab37", "type": "electric_scooter", "is_disabled": 0, "fusion_lon": 0.0}, {"rental_uris": {"android": "https://dc.lft.to/lastmile_qr_scan", "ios": "https://dc.lft.to/lastmile_qr_scan"}, "lon": -77.03285783333334, "name": "5a780063f3ae703f9d965791186307d3", "lat": 38.948160333333334, "is_reserved": 0, "fusion_lat": 0.0, "bike_id": "5a780063f3ae703f9d965791186307d3", "type": "electric_scooter", "is_disabled": 0, "fusion_lon": 0.0}, {"rental_uris": {"android": "https://dc.lft.to/lastmile_qr_scan", "ios": "https://dc.lft.to/lastmile_qr_scan"}, "lon": -76.9980285, "name": "dd623bebff369e6530591817bc4d465d", "lat": 38.90135083333333, "is_reserved": 0, "fusion_lat": 0.0, "bike_id": "dd623bebff369e6530591817bc4d465d", "type": "electric_scooter", "is_disabled": 0, "fusion_lon": 0.0}, {"rental_uris": {"android": "https://dc.lft.to/lastmile_qr_scan", "ios": "https://dc.lft.to/lastmile_qr_scan"}, "lon": -77.03264466666667, "name": "1ac207a6ba0ed9d95dcba1d1a356a628", "lat": 38.9321375, "is_reserved": 0, "fusion_lat": 0.0, "bike_id": "1ac207a6ba0ed9d95dcba1d1a356a628", "type": "electric_scooter", "is_disabled": 0, "fusion_lon": 0.0}, {"rental_uris": {"android": "https://dc.lft.to/lastmile_qr_scan", "ios": "https://dc.lft.to/lastmile_qr_scan"}, "lon": -77.02803366666667, "name": "9b0bccd37ec060119c9dd7e84b0ec772", "lat": 38.90911533333333, "is_reserved": 0, "fusion_lat": 0.0, "bike_id": "9b0bccd37ec060119c9dd7e84b0ec772", "type": "electric_scooter", "is_disabled": 0, "fusion_lon": 0.0}, {"rental_uris": {"android": "https://dc.lft.to/lastmile_qr_scan", "ios": "https://dc.lft.to/lastmile_qr_scan"}, "lon": -77.01583283333333, "name": "e555f3f7a1604fc6b8703901f670aff7", "lat": 38.90023733333334, "is_reserved": 0, "fusion_lat": 0.0, "bike_id": "e555f3f7a1604fc6b8703901f670aff7", "type": "electric_scooter", "is_disabled": 0, "fusion_lon": 0.0}, {"rental_uris": {"android": "https://dc.lft.to/lastmile_qr_scan", "ios": "https://dc.lft.to/lastmile_qr_scan"}, "lon": -77.0042115, "name": "587c262814fd318007eefb20c5592aa8", "lat": 38.877108166666666, "is_reserved": 0, "fusion_lat": 0.0, "bike_id": "587c262814fd318007eefb20c5592aa8", "type": "electric_scooter", "is_disabled": 0, "fusion_lon": 0.0}, {"rental_uris": {"android": "https://dc.lft.to/lastmile_qr_scan", "ios": "https://dc.lft.to/lastmile_qr_scan"}, "lon": -77.02378466666667, "name": "f327017bd0f9426734e0f81545e2ecb9", "lat": 38.90238633333333, "is_reserved": 0, "fusion_lat": 0.0, "bike_id": "f327017bd0f9426734e0f81545e2ecb9", "type": "electric_scooter", "is_disabled": 0, "fusion_lon": 0.0}, {"rental_uris": {"android": "https://dc.lft.to/lastmile_qr_scan", "ios": "https://dc.lft.to/lastmile_qr_scan"}, "lon": -76.99690033333333, "name": "25286ebb4c1a679129e93df3f93e7d60", "lat": 38.88486483333333, "is_reserved": 0, "fusion_lat": 0.0, "bike_id": "25286ebb4c1a679129e93df3f93e7d60", "type": "electric_bike", "is_disabled": 0, "fusion_lon": 0.0}, {"rental_uris": {"android": "https://dc.lft.to/lastmile_qr_scan", "ios": "https://dc.lft.to/lastmile_qr_scan"}, "lon": -77.03199816666667, "name": "5451c2fbabc4a5ffa4b0516d6ec09d1e", "lat": 38.9038145, "is_reserved": 0, "fusion_lat": 0.0, "bike_id": "5451c2fbabc4a5ffa4b0516d6ec09d1e", "type": "electric_scooter", "is_disabled": 0, "fusion_lon": 0.0}, {"rental_uris": {"android": "https://dc.lft.to/lastmile_qr_scan", "ios": "https://dc.lft.to/lastmile_qr_scan"}, "lon": -77.02973916666667, "name": "a43bbd94130f9847215b7c0994b8c76a", "lat": 38.91685483333333, "is_reserved": 0, "fusion_lat": 0.0, "bike_id": "a43bbd94130f9847215b7c0994b8c76a", "type": "electric_scooter", "is_disabled": 0, "fusion_lon": 0.0}, {"rental_uris": {"android": "https://dc.lft.to/lastmile_qr_scan", "ios": "https://dc.lft.to/lastmile_qr_scan"}, "lon": -76.98196733333333, "name": "625d7929c5b48df0506475d76fb3331c", "lat": 38.98507216666667, "is_reserved": 0, "fusion_lat": 0.0, "bike_id": "625d7929c5b48df0506475d76fb3331c", "type": "electric_bike", "is_disabled": 0, "fusion_lon": 0.0}, {"rental_uris": {"android": "https://dc.lft.to/lastmile_qr_scan", "ios": "https://dc.lft.to/lastmile_qr_scan"}, "lon": -77.02196166666667, "name": "7ac9c251f95ad0a0ae97fc19ee272afd", "lat": 38.896232499999996, "is_reserved": 0, "fusion_lat": 0.0, "bike_id": "7ac9c251f95ad0a0ae97fc19ee272afd", "type": "electric_scooter", "is_disabled": 0, "fusion_lon": 0.0}, {"rental_uris": {"android": "https://dc.lft.to/lastmile_qr_scan", "ios": "https://dc.lft.to/lastmile_qr_scan"}, "lon": -77.03417083333333, "name": "780f0fd1984c29271337eae7c638cc4f", "lat": 38.90964533333333, "is_reserved": 0, "fusion_lat": 0.0, "bike_id": "780f0fd1984c29271337eae7c638cc4f", "type": "electric_scooter", "is_disabled": 0, "fusion_lon": 0.0}, {"rental_uris": {"android": "https://dc.lft.to/lastmile_qr_scan", "ios": "https://dc.lft.to/lastmile_qr_scan"}, "lon": -77.00382966666666, "name": "93885644350f336f2eb5d4a9452ec5c1", "lat": 38.87651833333334, "is_reserved": 0, "fusion_lat": 0.0, "bike_id": "93885644350f336f2eb5d4a9452ec5c1", "type": "electric_scooter", "is_disabled": 0, "fusion_lon": 0.0}, {"rental_uris": {"android": "https://dc.lft.to/lastmile_qr_scan", "ios": "https://dc.lft.to/lastmile_qr_scan"}, "lon": -77.00709333333333, "name": "9dcad749773cd9561fd4fcb190eae64f", "lat": 38.88488233333333, "is_reserved": 0, "fusion_lat": 0.0, "bike_id": "9dcad749773cd9561fd4fcb190eae64f", "type": "electric_scooter", "is_disabled": 0, "fusion_lon": 0.0}, {"rental_uris": {"android": "https://dc.lft.to/lastmile_qr_scan", "ios": "https://dc.lft.to/lastmile_qr_scan"}, "lon": -77.04351966666667, "name": "dd03e51448140db21a7769767f3cc5cd", "lat": 38.90724383333333, "is_reserved": 0, "fusion_lat": 0.0, "bike_id": "dd03e51448140db21a7769767f3cc5cd", "type": "electric_scooter", "is_disabled": 0, "fusion_lon": 0.0}, {"rental_uris": {"android": "https://dc.lft.to/lastmile_qr_scan", "ios": "https://dc.lft.to/lastmile_qr_scan"}, "lon": -76.9670665, "name": "2e3ed1a4be9f2267195091f8914a7b8a", "lat": 38.860352666666664, "is_reserved": 0, "fusion_lat": 0.0, "bike_id": "2e3ed1a4be9f2267195091f8914a7b8a", "type": "electric_scooter", "is_disabled": 0, "fusion_lon": 0.0}, {"rental_uris": {"android": "https://dc.lft.to/lastmile_qr_scan", "ios": "https://dc.lft.to/lastmile_qr_scan"}, "lon": -77.02306116666666, "name": "78223a9c34f6362fb58ab7ff60fba39c", "lat": 38.91840583333333, "is_reserved": 0, "fusion_lat": 0.0, "bike_id": "78223a9c34f6362fb58ab7ff60fba39c", "type": "electric_scooter", "is_disabled": 0, "fusion_lon": 0.0}, {"rental_uris": {"android": "https://dc.lft.to/lastmile_qr_scan", "ios": "https://dc.lft.to/lastmile_qr_scan"}, "lon": -77.03186666666667, "name": "dae8bbfae1586205f0c276db8353f28a", "lat": 38.90979133333333, "is_reserved": 0, "fusion_lat": 0.0, "bike_id": "dae8bbfae1586205f0c276db8353f28a", "type": "electric_scooter", "is_disabled": 0, "fusion_lon": 0.0}, {"rental_uris": {"android": "https://dc.lft.to/lastmile_qr_scan", "ios": "https://dc.lft.to/lastmile_qr_scan"}, "lon": -77.09720833333333, "name": "af40a77b071d2cd49d4bc3df608e512e", "lat": 38.9509815, "is_reserved": 0, "fusion_lat": 0.0, "bike_id": "af40a77b071d2cd49d4bc3df608e512e", "type": "electric_scooter", "is_disabled": 0, "fusion_lon": 0.0}, {"rental_uris": {"android": "https://dc.lft.to/lastmile_qr_scan", "ios": "https://dc.lft.to/lastmile_qr_scan"}, "lon": -77.0236815, "name": "a0908b1c271f8c50ed3f5b003437ae6c", "lat": 38.90682616666667, "is_reserved": 0, "fusion_lat": 0.0, "bike_id": "a0908b1c271f8c50ed3f5b003437ae6c", "type": "electric_scooter", "is_disabled": 0, "fusion_lon": 0.0}, {"rental_uris": {"android": "https://dc.lft.to/lastmile_qr_scan", "ios": "https://dc.lft.to/lastmile_qr_scan"}, "lon": -77.049563, "name": "90850aa6a29ec892b8d71d5204b138aa", "lat": 38.905463833333336, "is_reserved": 0, "fusion_lat": 0.0, "bike_id": "90850aa6a29ec892b8d71d5204b138aa", "type": "electric_scooter", "is_disabled": 0, "fusion_lon": 0.0}, {"rental_uris": {"android": "https://dc.lft.to/lastmile_qr_scan", "ios": "https://dc.lft.to/lastmile_qr_scan"}, "lon": -77.0560435, "name": "f924c0bfb1f14277e5c8fb785107ebce", "lat": 38.937036166666665, "is_reserved": 0, "fusion_lat": 0.0, "bike_id": "f924c0bfb1f14277e5c8fb785107ebce", "type": "electric_scooter", "is_disabled": 0, "fusion_lon": 0.0}, {"rental_uris": {"android": "https://dc.lft.to/lastmile_qr_scan", "ios": "https://dc.lft.to/lastmile_qr_scan"}, "lon": -77.03567633333333, "name": "bb96cf4b3f34cb9351e7370ce393c9ac", "lat": 38.927060166666664, "is_reserved": 0, "fusion_lat": 0.0, "bike_id": "bb96cf4b3f34cb9351e7370ce393c9ac", "type": "electric_scooter", "is_disabled": 0, "fusion_lon": 0.0}, {"rental_uris": {"android": "https://dc.lft.to/lastmile_qr_scan", "ios": "https://dc.lft.to/lastmile_qr_scan"}, "lon": -77.02694816666667, "name": "069ea025217aa40567e121d37736b159", "lat": 38.909519833333334, "is_reserved": 0, "fusion_lat": 0.0, "bike_id": "069ea025217aa40567e121d37736b159", "type": "electric_scooter", "is_disabled": 0, "fusion_lon": 0.0}, {"rental_uris": {"android": "https://dc.lft.to/lastmile_qr_scan", "ios": "https://dc.lft.to/lastmile_qr_scan"}, "lon": -77.0298135, "name": "5c06733874bc1b17715a5f15e662f028", "lat": 38.946070666666664, "is_reserved": 0, "fusion_lat": 0.0, "bike_id": "5c06733874bc1b17715a5f15e662f028", "type": "electric_scooter", "is_disabled": 0, "fusion_lon": 0.0}, {"rental_uris": {"android": "https://dc.lft.to/lastmile_qr_scan", "ios": "https://dc.lft.to/lastmile_qr_scan"}, "lon": -76.98657766666666, "name": "35b63c84abb57ece24d09a656a36e1e3", "lat": 38.8580735, "is_reserved": 0, "fusion_lat": 0.0, "bike_id": "35b63c84abb57ece24d09a656a36e1e3", "type": "electric_scooter", "is_disabled": 0, "fusion_lon": 0.0}, {"rental_uris": {"android": "https://dc.lft.to/lastmile_qr_scan", "ios": "https://dc.lft.to/lastmile_qr_scan"}, "lon": -77.07887333333333, "name": "9236a6d5b0157179379413f904ee3364", "lat": 38.842570333333335, "is_reserved": 0, "fusion_lat": 0.0, "bike_id": "9236a6d5b0157179379413f904ee3364", "type": "electric_bike", "is_disabled": 0, "fusion_lon": 0.0}, {"rental_uris": {"android": "https://dc.lft.to/lastmile_qr_scan", "ios": "https://dc.lft.to/lastmile_qr_scan"}, "lon": -77.03195716666667, "name": "295aaf8370563296c5825137ee971ed7", "lat": 38.91761316666667, "is_reserved": 0, "fusion_lat": 0.0, "bike_id": "295aaf8370563296c5825137ee971ed7", "type": "electric_scooter", "is_disabled": 0, "fusion_lon": 0.0}, {"rental_uris": {"android": "https://dc.lft.to/lastmile_qr_scan", "ios": "https://dc.lft.to/lastmile_qr_scan"}, "lon": -77.03446616666666, "name": "22b2ce7169f540c35697866b3227d204", "lat": 38.90945933333333, "is_reserved": 0, "fusion_lat": 0.0, "bike_id": "22b2ce7169f540c35697866b3227d204", "type": "electric_scooter", "is_disabled": 0, "fusion_lon": 0.0}, {"rental_uris": {"android": "https://dc.lft.to/lastmile_qr_scan", "ios": "https://dc.lft.to/lastmile_qr_scan"}, "lon": -77.04284416666667, "name": "3c171e31b83e8426be58cdc61fe92dbe", "lat": 38.90742566666667, "is_reserved": 0, "fusion_lat": 0.0, "bike_id": "3c171e31b83e8426be58cdc61fe92dbe", "type": "electric_scooter", "is_disabled": 0, "fusion_lon": 0.0}, {"rental_uris": {"android": "https://dc.lft.to/lastmile_qr_scan", "ios": "https://dc.lft.to/lastmile_qr_scan"}, "lon": -76.987113, "name": "39b732ec9d322fc1213034d303cd9de6", "lat": 38.863353833333335, "is_reserved": 0, "fusion_lat": 0.0, "bike_id": "39b732ec9d322fc1213034d303cd9de6", "type": "electric_bike", "is_disabled": 0, "fusion_lon": 0.0}, {"rental_uris": {"android": "https://dc.lft.to/lastmile_qr_scan", "ios": "https://dc.lft.to/lastmile_qr_scan"}, "lon": -77.022148, "name": "92bb6f6bec318fedc89a3cf99c466fb3", "lat": 38.9127395, "is_reserved": 0, "fusion_lat": 0.0, "bike_id": "92bb6f6bec318fedc89a3cf99c466fb3", "type": "electric_scooter", "is_disabled": 0, "fusion_lon": 0.0}, {"rental_uris": {"android": "https://dc.lft.to/lastmile_qr_scan", "ios": "https://dc.lft.to/lastmile_qr_scan"}, "lon": -77.02166566666666, "name": "2947d5ef27eb79c7bf48ee141ad08b18", "lat": 38.92506133333333, "is_reserved": 0, "fusion_lat": 0.0, "bike_id": "2947d5ef27eb79c7bf48ee141ad08b18", "type": "electric_scooter", "is_disabled": 0, "fusion_lon": 0.0}, {"rental_uris": {"android": "https://dc.lft.to/lastmile_qr_scan", "ios": "https://dc.lft.to/lastmile_qr_scan"}, "lon": -77.04728983333334, "name": "5f8d339c69f547cab07548838d39b1e5", "lat": 38.9014955, "is_reserved": 0, "fusion_lat": 0.0, "bike_id": "5f8d339c69f547cab07548838d39b1e5", "type": "electric_scooter", "is_disabled": 0, "fusion_lon": 0.0}, {"rental_uris": {"android": "https://dc.lft.to/lastmile_qr_scan", "ios": "https://dc.lft.to/lastmile_qr_scan"}, "lon": -76.932076, "name": "a87e923e0ede3a234d7b471beac1c0ff", "lat": 38.89668116666667, "is_reserved": 0, "fusion_lat": 0.0, "bike_id": "a87e923e0ede3a234d7b471beac1c0ff", "type": "electric_scooter", "is_disabled": 0, "fusion_lon": 0.0}, {"rental_uris": {"android": "https://dc.lft.to/lastmile_qr_scan", "ios": "https://dc.lft.to/lastmile_qr_scan"}, "lon": -77.02977466666667, "name": "6eaae51d8481640a7b60c3194fd60c3c", "lat": 38.93483283333333, "is_reserved": 0, "fusion_lat": 0.0, "bike_id": "6eaae51d8481640a7b60c3194fd60c3c", "type": "electric_bike", "is_disabled": 0, "fusion_lon": 0.0}, {"rental_uris": {"android": "https://dc.lft.to/lastmile_qr_scan", "ios": "https://dc.lft.to/lastmile_qr_scan"}, "lon": -77.0231805, "name": "68524870067b4d79a0a2df1766613191", "lat": 38.9072795, "is_reserved": 0, "fusion_lat": 0.0, "bike_id": "68524870067b4d79a0a2df1766613191", "type": "electric_scooter", "is_disabled": 0, "fusion_lon": 0.0}, {"rental_uris": {"android": "https://dc.lft.to/lastmile_qr_scan", "ios": "https://dc.lft.to/lastmile_qr_scan"}, "lon": -76.99628016666666, "name": "b0158cf50989ea65f3f2f3ad5b030670", "lat": 38.90065166666667, "is_reserved": 0, "fusion_lat": 0.0, "bike_id": "b0158cf50989ea65f3f2f3ad5b030670", "type": "electric_scooter", "is_disabled": 0, "fusion_lon": 0.0}, {"rental_uris": {"android": "https://dc.lft.to/lastmile_qr_scan", "ios": "https://dc.lft.to/lastmile_qr_scan"}, "lon": -77.04077666666667, "name": "5fb2aa647866daea7b8ee543398cd71d", "lat": 38.896186, "is_reserved": 0, "fusion_lat": 0.0, "bike_id": "5fb2aa647866daea7b8ee543398cd71d", "type": "electric_scooter", "is_disabled": 0, "fusion_lon": 0.0}, {"rental_uris": {"android": "https://dc.lft.to/lastmile_qr_scan", "ios": "https://dc.lft.to/lastmile_qr_scan"}, "lon": -77.04269466666666, "name": "fc6d5a9aee71926e845e1f6b3fa909bf", "lat": 38.907314, "is_reserved": 0, "fusion_lat": 0.0, "bike_id": "fc6d5a9aee71926e845e1f6b3fa909bf", "type": "electric_scooter", "is_disabled": 0, "fusion_lon": 0.0}, {"rental_uris": {"android": "https://dc.lft.to/lastmile_qr_scan", "ios": "https://dc.lft.to/lastmile_qr_scan"}, "lon": -77.0251205, "name": "6cffb778aaa4204ed77d224cc61dab5a", "lat": 38.9181015, "is_reserved": 0, "fusion_lat": 0.0, "bike_id": "6cffb778aaa4204ed77d224cc61dab5a", "type": "electric_scooter", "is_disabled": 0, "fusion_lon": 0.0}, {"rental_uris": {"android": "https://dc.lft.to/lastmile_qr_scan", "ios": "https://dc.lft.to/lastmile_qr_scan"}, "lon": -77.02101283333333, "name": "9f44bc60b75ad9d5b5fe74619dc7823d", "lat": 38.93008966666667, "is_reserved": 0, "fusion_lat": 0.0, "bike_id": "9f44bc60b75ad9d5b5fe74619dc7823d", "type": "electric_scooter", "is_disabled": 0, "fusion_lon": 0.0}, {"rental_uris": {"android": "https://dc.lft.to/lastmile_qr_scan", "ios": "https://dc.lft.to/lastmile_qr_scan"}, "lon": -76.98535066666666, "name": "f1d6d390f294525422ebb10fc16cc138", "lat": 38.899774, "is_reserved": 0, "fusion_lat": 0.0, "bike_id": "f1d6d390f294525422ebb10fc16cc138", "type": "electric_scooter", "is_disabled": 0, "fusion_lon": 0.0}, {"rental_uris": {"android": "https://dc.lft.to/lastmile_qr_scan", "ios": "https://dc.lft.to/lastmile_qr_scan"}, "lon": -77.04011516666667, "name": "925e78ba8dd28b4f29d3517172ed391d", "lat": 38.921951666666665, "is_reserved": 0, "fusion_lat": 0.0, "bike_id": "925e78ba8dd28b4f29d3517172ed391d", "type": "electric_scooter", "is_disabled": 0, "fusion_lon": 0.0}, {"rental_uris": {"android": "https://dc.lft.to/lastmile_qr_scan", "ios": "https://dc.lft.to/lastmile_qr_scan"}, "lon": -77.0383615, "name": "4fa0f08f66567602584b14259f03576d", "lat": 38.90977066666667, "is_reserved": 0, "fusion_lat": 0.0, "bike_id": "4fa0f08f66567602584b14259f03576d", "type": "electric_scooter", "is_disabled": 0, "fusion_lon": 0.0}, {"rental_uris": {"android": "https://dc.lft.to/lastmile_qr_scan", "ios": "https://dc.lft.to/lastmile_qr_scan"}, "lon": -77.032846, "name": "f3e7f493581511c18ecef2988dc81f1d", "lat": 38.93754933333334, "is_reserved": 0, "fusion_lat": 0.0, "bike_id": "f3e7f493581511c18ecef2988dc81f1d", "type": "electric_scooter", "is_disabled": 0, "fusion_lon": 0.0}, {"rental_uris": {"android": "https://dc.lft.to/lastmile_qr_scan", "ios": "https://dc.lft.to/lastmile_qr_scan"}, "lon": -77.040226, "name": "7b66a2d9c80a742fa584feccdd151ebc", "lat": 38.9029305, "is_reserved": 0, "fusion_lat": 0.0, "bike_id": "7b66a2d9c80a742fa584feccdd151ebc", "type": "electric_scooter", "is_disabled": 0, "fusion_lon": 0.0}, {"rental_uris": {"android": "https://dc.lft.to/lastmile_qr_scan", "ios": "https://dc.lft.to/lastmile_qr_scan"}, "lon": -77.0333115, "name": "8dafb196c1148a92209adeedbf74c6fd", "lat": 38.89821216666667, "is_reserved": 0, "fusion_lat": 0.0, "bike_id": "8dafb196c1148a92209adeedbf74c6fd", "type": "electric_scooter", "is_disabled": 0, "fusion_lon": 0.0}, {"rental_uris": {"android": "https://dc.lft.to/lastmile_qr_scan", "ios": "https://dc.lft.to/lastmile_qr_scan"}, "lon": -77.043997, "name": "e793d212f8980b1f72d917051b1e0d72", "lat": 38.9136645, "is_reserved": 0, "fusion_lat": 0.0, "bike_id": "e793d212f8980b1f72d917051b1e0d72", "type": "electric_scooter", "is_disabled": 0, "fusion_lon": 0.0}, {"rental_uris": {"android": "https://dc.lft.to/lastmile_qr_scan", "ios": "https://dc.lft.to/lastmile_qr_scan"}, "lon": -77.02166083333333, "name": "b757803ca9e9c8ec3438de93610b3012", "lat": 38.92507416666667, "is_reserved": 0, "fusion_lat": 0.0, "bike_id": "b757803ca9e9c8ec3438de93610b3012", "type": "electric_scooter", "is_disabled": 0, "fusion_lon": 0.0}, {"rental_uris": {"android": "https://dc.lft.to/lastmile_qr_scan", "ios": "https://dc.lft.to/lastmile_qr_scan"}, "lon": -77.00592633333333, "name": "b1610e763e17c06bd681aa2a1657a135", "lat": 38.905664333333334, "is_reserved": 0, "fusion_lat": 0.0, "bike_id": "b1610e763e17c06bd681aa2a1657a135", "type": "electric_scooter", "is_disabled": 0, "fusion_lon": 0.0}, {"rental_uris": {"android": "https://dc.lft.to/lastmile_qr_scan", "ios": "https://dc.lft.to/lastmile_qr_scan"}, "lon": -77.00866266666667, "name": "724d8ae8a6238257192ba1ae527ed8db", "lat": 38.967415333333335, "is_reserved": 0, "fusion_lat": 0.0, "bike_id": "724d8ae8a6238257192ba1ae527ed8db", "type": "electric_scooter", "is_disabled": 0, "fusion_lon": 0.0}, {"rental_uris": {"android": "https://dc.lft.to/lastmile_qr_scan", "ios": "https://dc.lft.to/lastmile_qr_scan"}, "lon": -76.95705516666666, "name": "a00d98441cc65fca597446c7342983cc", "lat": 38.89204183333333, "is_reserved": 0, "fusion_lat": 0.0, "bike_id": "a00d98441cc65fca597446c7342983cc", "type": "electric_scooter", "is_disabled": 0, "fusion_lon": 0.0}, {"rental_uris": {"android": "https://dc.lft.to/lastmile_qr_scan", "ios": "https://dc.lft.to/lastmile_qr_scan"}, "lon": -76.94412716666666, "name": "c641b82cc00fd107ae791d2bd4ddbfcb", "lat": 38.99224066666667, "is_reserved": 0, "fusion_lat": 0.0, "bike_id": "c641b82cc00fd107ae791d2bd4ddbfcb", "type": "electric_bike", "is_disabled": 0, "fusion_lon": 0.0}, {"rental_uris": {"android": "https://dc.lft.to/lastmile_qr_scan", "ios": "https://dc.lft.to/lastmile_qr_scan"}, "lon": -77.01410066666666, "name": "1e2c265e365bee1558535cb0ab5bdc8b", "lat": 38.905111833333336, "is_reserved": 0, "fusion_lat": 0.0, "bike_id": "1e2c265e365bee1558535cb0ab5bdc8b", "type": "electric_scooter", "is_disabled": 0, "fusion_lon": 0.0}, {"rental_uris": {"android": "https://dc.lft.to/lastmile_qr_scan", "ios": "https://dc.lft.to/lastmile_qr_scan"}, "lon": -77.02580633333334, "name": "2e9ad879f7a0951f2cdba80a6a9759df", "lat": 38.895671, "is_reserved": 0, "fusion_lat": 0.0, "bike_id": "2e9ad879f7a0951f2cdba80a6a9759df", "type": "electric_scooter", "is_disabled": 0, "fusion_lon": 0.0}, {"rental_uris": {"android": "https://dc.lft.to/lastmile_qr_scan", "ios": "https://dc.lft.to/lastmile_qr_scan"}, "lon": -77.12010083333334, "name": "d69f410738c42dfceb74f56efa66adfa", "lat": 38.85514716666667, "is_reserved": 0, "fusion_lat": 0.0, "bike_id": "d69f410738c42dfceb74f56efa66adfa", "type": "electric_bike", "is_disabled": 0, "fusion_lon": 0.0}, {"rental_uris": {"android": "https://dc.lft.to/lastmile_qr_scan", "ios": "https://dc.lft.to/lastmile_qr_scan"}, "lon": -77.01166066666667, "name": "5c9c86381b19ecf5a9ece5616b0f992b", "lat": 38.921372833333336, "is_reserved": 0, "fusion_lat": 0.0, "bike_id": "5c9c86381b19ecf5a9ece5616b0f992b", "type": "electric_scooter", "is_disabled": 0, "fusion_lon": 0.0}, {"rental_uris": {"android": "https://dc.lft.to/lastmile_qr_scan", "ios": "https://dc.lft.to/lastmile_qr_scan"}, "lon": -77.00592283333333, "name": "34c7f72fdcbcaa6ea34968fb39889fb2", "lat": 38.90559566666667, "is_reserved": 0, "fusion_lat": 0.0, "bike_id": "34c7f72fdcbcaa6ea34968fb39889fb2", "type": "electric_scooter", "is_disabled": 0, "fusion_lon": 0.0}, {"rental_uris": {"android": "https://dc.lft.to/lastmile_qr_scan", "ios": "https://dc.lft.to/lastmile_qr_scan"}, "lon": -77.12021266666666, "name": "755ef4e2c4184d89b00a5296cbda6c3e", "lat": 38.857856166666664, "is_reserved": 0, "fusion_lat": 0.0, "bike_id": "755ef4e2c4184d89b00a5296cbda6c3e", "type": "electric_bike", "is_disabled": 0, "fusion_lon": 0.0}, {"rental_uris": {"android": "https://dc.lft.to/lastmile_qr_scan", "ios": "https://dc.lft.to/lastmile_qr_scan"}, "lon": -76.99941266666667, "name": "130d6e27e00a9084e756d31d14998d72", "lat": 38.94071116666667, "is_reserved": 0, "fusion_lat": 0.0, "bike_id": "130d6e27e00a9084e756d31d14998d72", "type": "electric_scooter", "is_disabled": 0, "fusion_lon": 0.0}, {"rental_uris": {"android": "https://dc.lft.to/lastmile_qr_scan", "ios": "https://dc.lft.to/lastmile_qr_scan"}, "lon": -77.04545716666667, "name": "298eeba3f5821edaef634dca1fb8e053", "lat": 38.91941216666667, "is_reserved": 0, "fusion_lat": 0.0, "bike_id": "298eeba3f5821edaef634dca1fb8e053", "type": "electric_scooter", "is_disabled": 0, "fusion_lon": 0.0}, {"rental_uris": {"android": "https://dc.lft.to/lastmile_qr_scan", "ios": "https://dc.lft.to/lastmile_qr_scan"}, "lon": -77.0217445, "name": "22bc9c4f756c363220bc359527806cf2", "lat": 38.94288916666667, "is_reserved": 0, "fusion_lat": 0.0, "bike_id": "22bc9c4f756c363220bc359527806cf2", "type": "electric_scooter", "is_disabled": 0, "fusion_lon": 0.0}, {"rental_uris": {"android": "https://dc.lft.to/lastmile_qr_scan", "ios": "https://dc.lft.to/lastmile_qr_scan"}, "lon": -77.022453, "name": "4776c5f4d9c2b2614fa7a1eb45948d01", "lat": 38.92464983333333, "is_reserved": 0, "fusion_lat": 0.0, "bike_id": "4776c5f4d9c2b2614fa7a1eb45948d01", "type": "electric_scooter", "is_disabled": 0, "fusion_lon": 0.0}, {"rental_uris": {"android": "https://dc.lft.to/lastmile_qr_scan", "ios": "https://dc.lft.to/lastmile_qr_scan"}, "lon": -77.01752983333333, "name": "491d295fea09c4c45583ad3af059cc8a", "lat": 38.91448233333333, "is_reserved": 0, "fusion_lat": 0.0, "bike_id": "491d295fea09c4c45583ad3af059cc8a", "type": "electric_scooter", "is_disabled": 0, "fusion_lon": 0.0}, {"rental_uris": {"android": "https://dc.lft.to/lastmile_qr_scan", "ios": "https://dc.lft.to/lastmile_qr_scan"}, "lon": -77.0256615, "name": "c733699c2efb9e79da1728109826fc84", "lat": 38.9257555, "is_reserved": 0, "fusion_lat": 0.0, "bike_id": "c733699c2efb9e79da1728109826fc84", "type": "electric_scooter", "is_disabled": 0, "fusion_lon": 0.0}, {"rental_uris": {"android": "https://dc.lft.to/lastmile_qr_scan", "ios": "https://dc.lft.to/lastmile_qr_scan"}, "lon": -77.01441833333334, "name": "c4e2d5665498f7c073b89df4f3c98b1f", "lat": 38.919652166666665, "is_reserved": 0, "fusion_lat": 0.0, "bike_id": "c4e2d5665498f7c073b89df4f3c98b1f", "type": "electric_scooter", "is_disabled": 0, "fusion_lon": 0.0}, {"rental_uris": {"android": "https://dc.lft.to/lastmile_qr_scan", "ios": "https://dc.lft.to/lastmile_qr_scan"}, "lon": -77.00584266666667, "name": "5ffd084a332e82b2ff3a684c60e46a57", "lat": 38.905758, "is_reserved": 0, "fusion_lat": 0.0, "bike_id": "5ffd084a332e82b2ff3a684c60e46a57", "type": "electric_scooter", "is_disabled": 0, "fusion_lon": 0.0}, {"rental_uris": {"android": "https://dc.lft.to/lastmile_qr_scan", "ios": "https://dc.lft.to/lastmile_qr_scan"}, "lon": -77.04510916666666, "name": "17dd3e03fdef1bc7501b6763716d2b43", "lat": 38.89220783333333, "is_reserved": 0, "fusion_lat": 0.0, "bike_id": "17dd3e03fdef1bc7501b6763716d2b43", "type": "electric_scooter", "is_disabled": 0, "fusion_lon": 0.0}, {"rental_uris": {"android": "https://dc.lft.to/lastmile_qr_scan", "ios": "https://dc.lft.to/lastmile_qr_scan"}, "lon": -76.98333433333333, "name": "ed2468bd408a52b536527948b30a87c0", "lat": 38.86562516666667, "is_reserved": 0, "fusion_lat": 0.0, "bike_id": "ed2468bd408a52b536527948b30a87c0", "type": "electric_scooter", "is_disabled": 0, "fusion_lon": 0.0}, {"rental_uris": {"android": "https://dc.lft.to/lastmile_qr_scan", "ios": "https://dc.lft.to/lastmile_qr_scan"}, "lon": -77.03858033333333, "name": "52869e9dedf6884bb5ff752f96f2ca12", "lat": 38.907830833333335, "is_reserved": 0, "fusion_lat": 0.0, "bike_id": "52869e9dedf6884bb5ff752f96f2ca12", "type": "electric_scooter", "is_disabled": 0, "fusion_lon": 0.0}, {"rental_uris": {"android": "https://dc.lft.to/lastmile_qr_scan", "ios": "https://dc.lft.to/lastmile_qr_scan"}, "lon": -77.02641333333334, "name": "430b71f27ed0423df3a9032fc0fd4b50", "lat": 38.892224, "is_reserved": 0, "fusion_lat": 0.0, "bike_id": "430b71f27ed0423df3a9032fc0fd4b50", "type": "electric_scooter", "is_disabled": 0, "fusion_lon": 0.0}, {"rental_uris": {"android": "https://dc.lft.to/lastmile_qr_scan", "ios": "https://dc.lft.to/lastmile_qr_scan"}, "lon": -77.04670033333333, "name": "a178b48a0909af1d94795783348dc997", "lat": 38.90093566666667, "is_reserved": 0, "fusion_lat": 0.0, "bike_id": "a178b48a0909af1d94795783348dc997", "type": "electric_scooter", "is_disabled": 0, "fusion_lon": 0.0}, {"rental_uris": {"android": "https://dc.lft.to/lastmile_qr_scan", "ios": "https://dc.lft.to/lastmile_qr_scan"}, "lon": -77.03843466666666, "name": "e5cce3476edac22ab6616d7e81eac283", "lat": 38.9027235, "is_reserved": 0, "fusion_lat": 0.0, "bike_id": "e5cce3476edac22ab6616d7e81eac283", "type": "electric_scooter", "is_disabled": 0, "fusion_lon": 0.0}, {"rental_uris": {"android": "https://dc.lft.to/lastmile_qr_scan", "ios": "https://dc.lft.to/lastmile_qr_scan"}, "lon": -77.040651, "name": "368312ae3ec9481f9fa74883b50cfc23", "lat": 38.9314055, "is_reserved": 0, "fusion_lat": 0.0, "bike_id": "368312ae3ec9481f9fa74883b50cfc23", "type": "electric_scooter", "is_disabled": 0, "fusion_lon": 0.0}, {"rental_uris": {"android": "https://dc.lft.to/lastmile_qr_scan", "ios": "https://dc.lft.to/lastmile_qr_scan"}, "lon": -77.02205883333333, "name": "baa5c28f909530ae4a51851a73c793de", "lat": 38.915924, "is_reserved": 0, "fusion_lat": 0.0, "bike_id": "baa5c28f909530ae4a51851a73c793de", "type": "electric_scooter", "is_disabled": 0, "fusion_lon": 0.0}, {"rental_uris": {"android": "https://dc.lft.to/lastmile_qr_scan", "ios": "https://dc.lft.to/lastmile_qr_scan"}, "lon": -77.00433433333333, "name": "df784600183559995e01420e755b2f6f", "lat": 38.877102666666666, "is_reserved": 0, "fusion_lat": 0.0, "bike_id": "df784600183559995e01420e755b2f6f", "type": "electric_scooter", "is_disabled": 0, "fusion_lon": 0.0}, {"rental_uris": {"android": "https://dc.lft.to/lastmile_qr_scan", "ios": "https://dc.lft.to/lastmile_qr_scan"}, "lon": -77.03575566666666, "name": "780bad75641053ee7eb5ad160c611da1", "lat": 38.90958666666667, "is_reserved": 0, "fusion_lat": 0.0, "bike_id": "780bad75641053ee7eb5ad160c611da1", "type": "electric_scooter", "is_disabled": 0, "fusion_lon": 0.0}, {"rental_uris": {"android": "https://dc.lft.to/lastmile_qr_scan", "ios": "https://dc.lft.to/lastmile_qr_scan"}, "lon": -77.0517065, "name": "b83b8e70081e82f916c3c80f59423fb1", "lat": 38.89754083333333, "is_reserved": 0, "fusion_lat": 0.0, "bike_id": "b83b8e70081e82f916c3c80f59423fb1", "type": "electric_scooter", "is_disabled": 0, "fusion_lon": 0.0}, {"rental_uris": {"android": "https://dc.lft.to/lastmile_qr_scan", "ios": "https://dc.lft.to/lastmile_qr_scan"}, "lon": -77.00538933333333, "name": "a79b0cb8887a8ed7e24ed33bf9a9887b", "lat": 38.91266516666666, "is_reserved": 0, "fusion_lat": 0.0, "bike_id": "a79b0cb8887a8ed7e24ed33bf9a9887b", "type": "electric_scooter", "is_disabled": 0, "fusion_lon": 0.0}, {"rental_uris": {"android": "https://dc.lft.to/lastmile_qr_scan", "ios": "https://dc.lft.to/lastmile_qr_scan"}, "lon": -76.9797365, "name": "35356ef9f5fb9b8e1ecaed3e6d6a3c53", "lat": 38.89746183333333, "is_reserved": 0, "fusion_lat": 0.0, "bike_id": "35356ef9f5fb9b8e1ecaed3e6d6a3c53", "type": "electric_scooter", "is_disabled": 0, "fusion_lon": 0.0}, {"rental_uris": {"android": "https://dc.lft.to/lastmile_qr_scan", "ios": "https://dc.lft.to/lastmile_qr_scan"}, "lon": -76.985716, "name": "86d2105905ef8350223c1a530df2cb9f", "lat": 38.86680583333333, "is_reserved": 0, "fusion_lat": 0.0, "bike_id": "86d2105905ef8350223c1a530df2cb9f", "type": "electric_scooter", "is_disabled": 0, "fusion_lon": 0.0}, {"rental_uris": {"android": "https://dc.lft.to/lastmile_qr_scan", "ios": "https://dc.lft.to/lastmile_qr_scan"}, "lon": -77.00925516666666, "name": "5211cc7c01bd721d8b15249f1b41beef", "lat": 38.89641916666667, "is_reserved": 0, "fusion_lat": 0.0, "bike_id": "5211cc7c01bd721d8b15249f1b41beef", "type": "electric_scooter", "is_disabled": 0, "fusion_lon": 0.0}, {"rental_uris": {"android": "https://dc.lft.to/lastmile_qr_scan", "ios": "https://dc.lft.to/lastmile_qr_scan"}, "lon": -77.04513583333333, "name": "a001a3838aeeb2dcefbd686909f3233e", "lat": 38.89216966666667, "is_reserved": 0, "fusion_lat": 0.0, "bike_id": "a001a3838aeeb2dcefbd686909f3233e", "type": "electric_scooter", "is_disabled": 0, "fusion_lon": 0.0}, {"rental_uris": {"android": "https://dc.lft.to/lastmile_qr_scan", "ios": "https://dc.lft.to/lastmile_qr_scan"}, "lon": -77.03283233333333, "name": "aa7320d11fa7930a24b2a8465c0be1e5", "lat": 38.94090633333333, "is_reserved": 0, "fusion_lat": 0.0, "bike_id": "aa7320d11fa7930a24b2a8465c0be1e5", "type": "electric_scooter", "is_disabled": 0, "fusion_lon": 0.0}, {"rental_uris": {"android": "https://dc.lft.to/lastmile_qr_scan", "ios": "https://dc.lft.to/lastmile_qr_scan"}, "lon": -77.01608716666667, "name": "7cc9d8bff9bc0609608c6e84c1e8e9a1", "lat": 38.899741666666664, "is_reserved": 0, "fusion_lat": 0.0, "bike_id": "7cc9d8bff9bc0609608c6e84c1e8e9a1", "type": "electric_scooter", "is_disabled": 0, "fusion_lon": 0.0}, {"rental_uris": {"android": "https://dc.lft.to/lastmile_qr_scan", "ios": "https://dc.lft.to/lastmile_qr_scan"}, "lon": -77.02079, "name": "b5fa9e9468dd95480b9a30c9e6ba10d2", "lat": 38.901840666666665, "is_reserved": 0, "fusion_lat": 0.0, "bike_id": "b5fa9e9468dd95480b9a30c9e6ba10d2", "type": "electric_scooter", "is_disabled": 0, "fusion_lon": 0.0}, {"rental_uris": {"android": "https://dc.lft.to/lastmile_qr_scan", "ios": "https://dc.lft.to/lastmile_qr_scan"}, "lon": -77.035699, "name": "81802d25f0fd0f216e266dfa9e9e7a8c", "lat": 38.90150583333333, "is_reserved": 0, "fusion_lat": 0.0, "bike_id": "81802d25f0fd0f216e266dfa9e9e7a8c", "type": "electric_scooter", "is_disabled": 0, "fusion_lon": 0.0}, {"rental_uris": {"android": "https://dc.lft.to/lastmile_qr_scan", "ios": "https://dc.lft.to/lastmile_qr_scan"}, "lon": -77.02184733333333, "name": "aaf41abc17f1dcede53725db62e93fba", "lat": 38.901993833333336, "is_reserved": 0, "fusion_lat": 0.0, "bike_id": "aaf41abc17f1dcede53725db62e93fba", "type": "electric_scooter", "is_disabled": 0, "fusion_lon": 0.0}, {"rental_uris": {"android": "https://dc.lft.to/lastmile_qr_scan", "ios": "https://dc.lft.to/lastmile_qr_scan"}, "lon": -77.036299, "name": "9a939014fe1de422309c451b85057616", "lat": 38.936795333333336, "is_reserved": 0, "fusion_lat": 0.0, "bike_id": "9a939014fe1de422309c451b85057616", "type": "electric_scooter", "is_disabled": 0, "fusion_lon": 0.0}, {"rental_uris": {"android": "https://dc.lft.to/lastmile_qr_scan", "ios": "https://dc.lft.to/lastmile_qr_scan"}, "lon": -77.09160716666666, "name": "a1ff9e56646c03d76f0b0d57ccd35711", "lat": 38.939603, "is_reserved": 0, "fusion_lat": 0.0, "bike_id": "a1ff9e56646c03d76f0b0d57ccd35711", "type": "electric_scooter", "is_disabled": 0, "fusion_lon": 0.0}, {"rental_uris": {"android": "https://dc.lft.to/lastmile_qr_scan", "ios": "https://dc.lft.to/lastmile_qr_scan"}, "lon": -77.03290716666666, "name": "9d86bc8760762f6f683e20961cfa18b6", "lat": 38.9207185, "is_reserved": 0, "fusion_lat": 0.0, "bike_id": "9d86bc8760762f6f683e20961cfa18b6", "type": "electric_scooter", "is_disabled": 0, "fusion_lon": 0.0}, {"rental_uris": {"android": "https://dc.lft.to/lastmile_qr_scan", "ios": "https://dc.lft.to/lastmile_qr_scan"}, "lon": -77.01763683333333, "name": "d86d46339c696efd7928ae5bc3219a68", "lat": 38.902721166666666, "is_reserved": 0, "fusion_lat": 0.0, "bike_id": "d86d46339c696efd7928ae5bc3219a68", "type": "electric_scooter", "is_disabled": 0, "fusion_lon": 0.0}, {"rental_uris": {"android": "https://dc.lft.to/lastmile_qr_scan", "ios": "https://dc.lft.to/lastmile_qr_scan"}, "lon": -77.02689033333333, "name": "b48cbc744708998219db767b43131218", "lat": 38.89723133333333, "is_reserved": 0, "fusion_lat": 0.0, "bike_id": "b48cbc744708998219db767b43131218", "type": "electric_scooter", "is_disabled": 0, "fusion_lon": 0.0}, {"rental_uris": {"android": "https://dc.lft.to/lastmile_qr_scan", "ios": "https://dc.lft.to/lastmile_qr_scan"}, "lon": -77.01376516666667, "name": "612c79a754cc173fe9cd8847dfea3a48", "lat": 38.88705366666667, "is_reserved": 0, "fusion_lat": 0.0, "bike_id": "612c79a754cc173fe9cd8847dfea3a48", "type": "electric_scooter", "is_disabled": 0, "fusion_lon": 0.0}, {"rental_uris": {"android": "https://dc.lft.to/lastmile_qr_scan", "ios": "https://dc.lft.to/lastmile_qr_scan"}, "lon": -77.03764433333333, "name": "14798c31bf660476829d5c0d706e28e2", "lat": 38.93615666666667, "is_reserved": 0, "fusion_lat": 0.0, "bike_id": "14798c31bf660476829d5c0d706e28e2", "type": "electric_scooter", "is_disabled": 0, "fusion_lon": 0.0}, {"rental_uris": {"android": "https://dc.lft.to/lastmile_qr_scan", "ios": "https://dc.lft.to/lastmile_qr_scan"}, "lon": -77.01767633333333, "name": "688196f1032a51e24ba92a1a60c375ab", "lat": 38.90267633333333, "is_reserved": 0, "fusion_lat": 0.0, "bike_id": "688196f1032a51e24ba92a1a60c375ab", "type": "electric_scooter", "is_disabled": 0, "fusion_lon": 0.0}, {"rental_uris": {"android": "https://dc.lft.to/lastmile_qr_scan", "ios": "https://dc.lft.to/lastmile_qr_scan"}, "lon": -76.98726433333333, "name": "94acd114af4d75c1c6618d8810805fa6", "lat": 38.85592583333333, "is_reserved": 0, "fusion_lat": 0.0, "bike_id": "94acd114af4d75c1c6618d8810805fa6", "type": "electric_scooter", "is_disabled": 0, "fusion_lon": 0.0}, {"rental_uris": {"android": "https://dc.lft.to/lastmile_qr_scan", "ios": "https://dc.lft.to/lastmile_qr_scan"}, "lon": -77.03496666666666, "name": "65f62392738ed56dab252bb35eba1c0e", "lat": 38.9214905, "is_reserved": 0, "fusion_lat": 0.0, "bike_id": "65f62392738ed56dab252bb35eba1c0e", "type": "electric_scooter", "is_disabled": 0, "fusion_lon": 0.0}, {"rental_uris": {"android": "https://dc.lft.to/lastmile_qr_scan", "ios": "https://dc.lft.to/lastmile_qr_scan"}, "lon": -77.00604783333333, "name": "6a5ebcdbce693ecda0b5d7e11ccd3a12", "lat": 38.87564416666667, "is_reserved": 0, "fusion_lat": 0.0, "bike_id": "6a5ebcdbce693ecda0b5d7e11ccd3a12", "type": "electric_scooter", "is_disabled": 0, "fusion_lon": 0.0}, {"rental_uris": {"android": "https://dc.lft.to/lastmile_qr_scan", "ios": "https://dc.lft.to/lastmile_qr_scan"}, "lon": -77.02950866666667, "name": "5dfd891e1ba80c7548d105f03a3c6f51", "lat": 38.908726333333334, "is_reserved": 0, "fusion_lat": 0.0, "bike_id": "5dfd891e1ba80c7548d105f03a3c6f51", "type": "electric_scooter", "is_disabled": 0, "fusion_lon": 0.0}, {"rental_uris": {"android": "https://dc.lft.to/lastmile_qr_scan", "ios": "https://dc.lft.to/lastmile_qr_scan"}, "lon": -77.0298515, "name": "d4931369cdb62af86b85b6fe114851d8", "lat": 38.9073165, "is_reserved": 0, "fusion_lat": 0.0, "bike_id": "d4931369cdb62af86b85b6fe114851d8", "type": "electric_scooter", "is_disabled": 0, "fusion_lon": 0.0}, {"rental_uris": {"android": "https://dc.lft.to/lastmile_qr_scan", "ios": "https://dc.lft.to/lastmile_qr_scan"}, "lon": -76.99635716666667, "name": "eef9eccd6e67a32587a7afecf2b858df", "lat": 38.905283, "is_reserved": 0, "fusion_lat": 0.0, "bike_id": "eef9eccd6e67a32587a7afecf2b858df", "type": "electric_scooter", "is_disabled": 0, "fusion_lon": 0.0}, {"rental_uris": {"android": "https://dc.lft.to/lastmile_qr_scan", "ios": "https://dc.lft.to/lastmile_qr_scan"}, "lon": -77.0247755, "name": "fa05ffe4ae811b899ef4ed7927e1d380", "lat": 38.920675333333335, "is_reserved": 0, "fusion_lat": 0.0, "bike_id": "fa05ffe4ae811b899ef4ed7927e1d380", "type": "electric_scooter", "is_disabled": 0, "fusion_lon": 0.0}, {"rental_uris": {"android": "https://dc.lft.to/lastmile_qr_scan", "ios": "https://dc.lft.to/lastmile_qr_scan"}, "lon": -77.02739933333334, "name": "289a365bb891568bb6e7a7c9d3beb941", "lat": 38.927691, "is_reserved": 0, "fusion_lat": 0.0, "bike_id": "289a365bb891568bb6e7a7c9d3beb941", "type": "electric_scooter", "is_disabled": 0, "fusion_lon": 0.0}, {"rental_uris": {"android": "https://dc.lft.to/lastmile_qr_scan", "ios": "https://dc.lft.to/lastmile_qr_scan"}, "lon": -77.03581216666667, "name": "846f84a4a863b46d50eedf33bdfc93f0", "lat": 38.901619833333335, "is_reserved": 0, "fusion_lat": 0.0, "bike_id": "846f84a4a863b46d50eedf33bdfc93f0", "type": "electric_scooter", "is_disabled": 0, "fusion_lon": 0.0}, {"rental_uris": {"android": "https://dc.lft.to/lastmile_qr_scan", "ios": "https://dc.lft.to/lastmile_qr_scan"}, "lon": -77.02194983333334, "name": "15772bc9baf04b893848bd173ebf428e", "lat": 38.9001695, "is_reserved": 0, "fusion_lat": 0.0, "bike_id": "15772bc9baf04b893848bd173ebf428e", "type": "electric_scooter", "is_disabled": 0, "fusion_lon": 0.0}, {"rental_uris": {"android": "https://dc.lft.to/lastmile_qr_scan", "ios": "https://dc.lft.to/lastmile_qr_scan"}, "lon": -76.9333835, "name": "653094ee8b688b20a443f7be3ef2c8ee", "lat": 38.908662166666666, "is_reserved": 0, "fusion_lat": 0.0, "bike_id": "653094ee8b688b20a443f7be3ef2c8ee", "type": "electric_scooter", "is_disabled": 0, "fusion_lon": 0.0}, {"rental_uris": {"android": "https://dc.lft.to/lastmile_qr_scan", "ios": "https://dc.lft.to/lastmile_qr_scan"}, "lon": -77.02227916666666, "name": "dfb89fa8e7261b4ed92132de3e02d091", "lat": 38.9101415, "is_reserved": 0, "fusion_lat": 0.0, "bike_id": "dfb89fa8e7261b4ed92132de3e02d091", "type": "electric_scooter", "is_disabled": 0, "fusion_lon": 0.0}, {"rental_uris": {"android": "https://dc.lft.to/lastmile_qr_scan", "ios": "https://dc.lft.to/lastmile_qr_scan"}, "lon": -77.03501866666667, "name": "d43d35c82bc5b91337c2225c8f03def8", "lat": 38.92148566666667, "is_reserved": 0, "fusion_lat": 0.0, "bike_id": "d43d35c82bc5b91337c2225c8f03def8", "type": "electric_scooter", "is_disabled": 0, "fusion_lon": 0.0}, {"rental_uris": {"android": "https://dc.lft.to/lastmile_qr_scan", "ios": "https://dc.lft.to/lastmile_qr_scan"}, "lon": -77.03664133333334, "name": "70f8d457c022d069d901363654a492a6", "lat": 38.920916, "is_reserved": 0, "fusion_lat": 0.0, "bike_id": "70f8d457c022d069d901363654a492a6", "type": "electric_scooter", "is_disabled": 0, "fusion_lon": 0.0}, {"rental_uris": {"android": "https://dc.lft.to/lastmile_qr_scan", "ios": "https://dc.lft.to/lastmile_qr_scan"}, "lon": -77.02823233333334, "name": "9556cba0042e318f63c49269f8b9d104", "lat": 38.956129, "is_reserved": 0, "fusion_lat": 0.0, "bike_id": "9556cba0042e318f63c49269f8b9d104", "type": "electric_scooter", "is_disabled": 0, "fusion_lon": 0.0}, {"rental_uris": {"android": "https://dc.lft.to/lastmile_qr_scan", "ios": "https://dc.lft.to/lastmile_qr_scan"}, "lon": -77.03824816666666, "name": "a68fb1a0e1519a09599691495d8f8188", "lat": 38.912576, "is_reserved": 0, "fusion_lat": 0.0, "bike_id": "a68fb1a0e1519a09599691495d8f8188", "type": "electric_scooter", "is_disabled": 0, "fusion_lon": 0.0}, {"rental_uris": {"android": "https://dc.lft.to/lastmile_qr_scan", "ios": "https://dc.lft.to/lastmile_qr_scan"}, "lon": -77.055127, "name": "d274549cfa972159052b6d8b4a965611", "lat": 38.92946, "is_reserved": 0, "fusion_lat": 0.0, "bike_id": "d274549cfa972159052b6d8b4a965611", "type": "electric_scooter", "is_disabled": 0, "fusion_lon": 0.0}, {"rental_uris": {"android": "https://dc.lft.to/lastmile_qr_scan", "ios": "https://dc.lft.to/lastmile_qr_scan"}, "lon": -76.95188766666666, "name": "c381711b4bac2de9bd4cc44c5a440632", "lat": 39.0844845, "is_reserved": 0, "fusion_lat": 0.0, "bike_id": "c381711b4bac2de9bd4cc44c5a440632", "type": "electric_bike", "is_disabled": 0, "fusion_lon": 0.0}, {"rental_uris": {"android": "https://dc.lft.to/lastmile_qr_scan", "ios": "https://dc.lft.to/lastmile_qr_scan"}, "lon": -76.99780616666666, "name": "c14e1bd0e0d6288b66c67a3718d294a1", "lat": 38.8443725, "is_reserved": 0, "fusion_lat": 0.0, "bike_id": "c14e1bd0e0d6288b66c67a3718d294a1", "type": "electric_scooter", "is_disabled": 0, "fusion_lon": 0.0}, {"rental_uris": {"android": "https://dc.lft.to/lastmile_qr_scan", "ios": "https://dc.lft.to/lastmile_qr_scan"}, "lon": -77.0384065, "name": "b2ec163c88b9d3fe969ed2bfc8fb0d8d", "lat": 38.909799666666665, "is_reserved": 0, "fusion_lat": 0.0, "bike_id": "b2ec163c88b9d3fe969ed2bfc8fb0d8d", "type": "electric_scooter", "is_disabled": 0, "fusion_lon": 0.0}, {"rental_uris": {"android": "https://dc.lft.to/lastmile_qr_scan", "ios": "https://dc.lft.to/lastmile_qr_scan"}, "lon": -77.02405866666666, "name": "5660232d1ad872cab2713b6fdc3cabab", "lat": 38.916752333333335, "is_reserved": 0, "fusion_lat": 0.0, "bike_id": "5660232d1ad872cab2713b6fdc3cabab", "type": "electric_scooter", "is_disabled": 0, "fusion_lon": 0.0}, {"rental_uris": {"android": "https://dc.lft.to/lastmile_qr_scan", "ios": "https://dc.lft.to/lastmile_qr_scan"}, "lon": -77.04292533333333, "name": "6351ae8a931c2418e0c5c1439ff3e459", "lat": 38.92666533333333, "is_reserved": 0, "fusion_lat": 0.0, "bike_id": "6351ae8a931c2418e0c5c1439ff3e459", "type": "electric_scooter", "is_disabled": 0, "fusion_lon": 0.0}, {"rental_uris": {"android": "https://dc.lft.to/lastmile_qr_scan", "ios": "https://dc.lft.to/lastmile_qr_scan"}, "lon": -77.02678716666667, "name": "1215cfaa6d3a46530f96214ebec72045", "lat": 38.923855333333336, "is_reserved": 0, "fusion_lat": 0.0, "bike_id": "1215cfaa6d3a46530f96214ebec72045", "type": "electric_scooter", "is_disabled": 0, "fusion_lon": 0.0}, {"rental_uris": {"android": "https://dc.lft.to/lastmile_qr_scan", "ios": "https://dc.lft.to/lastmile_qr_scan"}, "lon": -77.03958916666667, "name": "bd1eba40a79e59244b56e69642f6a4b8", "lat": 38.933335, "is_reserved": 0, "fusion_lat": 0.0, "bike_id": "bd1eba40a79e59244b56e69642f6a4b8", "type": "electric_bike", "is_disabled": 0, "fusion_lon": 0.0}, {"rental_uris": {"android": "https://dc.lft.to/lastmile_qr_scan", "ios": "https://dc.lft.to/lastmile_qr_scan"}, "lon": -77.044783, "name": "124764b03230206d6dd43997a1d941c6", "lat": 38.91870216666667, "is_reserved": 0, "fusion_lat": 0.0, "bike_id": "124764b03230206d6dd43997a1d941c6", "type": "electric_scooter", "is_disabled": 0, "fusion_lon": 0.0}, {"rental_uris": {"android": "https://dc.lft.to/lastmile_qr_scan", "ios": "https://dc.lft.to/lastmile_qr_scan"}, "lon": -77.02377716666666, "name": "d9766aa033e2cb414ef0f079e54345b9", "lat": 38.90892916666667, "is_reserved": 0, "fusion_lat": 0.0, "bike_id": "d9766aa033e2cb414ef0f079e54345b9", "type": "electric_scooter", "is_disabled": 0, "fusion_lon": 0.0}, {"rental_uris": {"android": "https://dc.lft.to/lastmile_qr_scan", "ios": "https://dc.lft.to/lastmile_qr_scan"}, "lon": -77.18740716666667, "name": "97e8b73c1239a3169cfcfb0b40e85a52", "lat": 38.893500833333334, "is_reserved": 0, "fusion_lat": 0.0, "bike_id": "97e8b73c1239a3169cfcfb0b40e85a52", "type": "electric_bike", "is_disabled": 0, "fusion_lon": 0.0}, {"rental_uris": {"android": "https://dc.lft.to/lastmile_qr_scan", "ios": "https://dc.lft.to/lastmile_qr_scan"}, "lon": -77.02141733333333, "name": "6841953b57ea1980a41ee0852a548ecf", "lat": 38.94807766666667, "is_reserved": 0, "fusion_lat": 0.0, "bike_id": "6841953b57ea1980a41ee0852a548ecf", "type": "electric_bike", "is_disabled": 0, "fusion_lon": 0.0}, {"rental_uris": {"android": "https://dc.lft.to/lastmile_qr_scan", "ios": "https://dc.lft.to/lastmile_qr_scan"}, "lon": -77.02799016666667, "name": "74dd7f0259c33b6084a300d2a54f321e", "lat": 38.917125666666664, "is_reserved": 0, "fusion_lat": 0.0, "bike_id": "74dd7f0259c33b6084a300d2a54f321e", "type": "electric_scooter", "is_disabled": 0, "fusion_lon": 0.0}, {"rental_uris": {"android": "https://dc.lft.to/lastmile_qr_scan", "ios": "https://dc.lft.to/lastmile_qr_scan"}, "lon": -77.063061, "name": "9b185d268cf05c63e12a6a0dc81f79ba", "lat": 38.943731, "is_reserved": 0, "fusion_lat": 0.0, "bike_id": "9b185d268cf05c63e12a6a0dc81f79ba", "type": "electric_scooter", "is_disabled": 0, "fusion_lon": 0.0}, {"rental_uris": {"android": "https://dc.lft.to/lastmile_qr_scan", "ios": "https://dc.lft.to/lastmile_qr_scan"}, "lon": -77.03690233333333, "name": "53a3e06fdfa7ba7a8290fc713973bc2a", "lat": 38.936439666666665, "is_reserved": 0, "fusion_lat": 0.0, "bike_id": "53a3e06fdfa7ba7a8290fc713973bc2a", "type": "electric_bike", "is_disabled": 0, "fusion_lon": 0.0}, {"rental_uris": {"android": "https://dc.lft.to/lastmile_qr_scan", "ios": "https://dc.lft.to/lastmile_qr_scan"}, "lon": -77.030643, "name": "9c5dbd1ec50447c04f6558427db7335a", "lat": 38.922564, "is_reserved": 0, "fusion_lat": 0.0, "bike_id": "9c5dbd1ec50447c04f6558427db7335a", "type": "electric_scooter", "is_disabled": 0, "fusion_lon": 0.0}, {"rental_uris": {"android": "https://dc.lft.to/lastmile_qr_scan", "ios": "https://dc.lft.to/lastmile_qr_scan"}, "lon": -77.0229415, "name": "4bf34504c9685dbf93977d245ebdad61", "lat": 38.91434533333333, "is_reserved": 0, "fusion_lat": 0.0, "bike_id": "4bf34504c9685dbf93977d245ebdad61", "type": "electric_scooter", "is_disabled": 0, "fusion_lon": 0.0}, {"rental_uris": {"android": "https://dc.lft.to/lastmile_qr_scan", "ios": "https://dc.lft.to/lastmile_qr_scan"}, "lon": -77.01311116666666, "name": "f133ed59e755abbbd6d1185ed8bfd1d4", "lat": 38.90187066666667, "is_reserved": 0, "fusion_lat": 0.0, "bike_id": "f133ed59e755abbbd6d1185ed8bfd1d4", "type": "electric_scooter", "is_disabled": 0, "fusion_lon": 0.0}, {"rental_uris": {"android": "https://dc.lft.to/lastmile_qr_scan", "ios": "https://dc.lft.to/lastmile_qr_scan"}, "lon": -77.023869, "name": "4ee7befc53ea954cf826ea56299ee2dc", "lat": 38.926579, "is_reserved": 0, "fusion_lat": 0.0, "bike_id": "4ee7befc53ea954cf826ea56299ee2dc", "type": "electric_scooter", "is_disabled": 0, "fusion_lon": 0.0}, {"rental_uris": {"android": "https://dc.lft.to/lastmile_qr_scan", "ios": "https://dc.lft.to/lastmile_qr_scan"}, "lon": -77.04351, "name": "ed89c0c831cd4a0781b7a2b268e7e5f2", "lat": 38.9072205, "is_reserved": 0, "fusion_lat": 0.0, "bike_id": "ed89c0c831cd4a0781b7a2b268e7e5f2", "type": "electric_scooter", "is_disabled": 0, "fusion_lon": 0.0}, {"rental_uris": {"android": "https://dc.lft.to/lastmile_qr_scan", "ios": "https://dc.lft.to/lastmile_qr_scan"}, "lon": -77.04996866666667, "name": "b63723188364ece92160af1390706bdc", "lat": 38.8990385, "is_reserved": 0, "fusion_lat": 0.0, "bike_id": "b63723188364ece92160af1390706bdc", "type": "electric_scooter", "is_disabled": 0, "fusion_lon": 0.0}, {"rental_uris": {"android": "https://dc.lft.to/lastmile_qr_scan", "ios": "https://dc.lft.to/lastmile_qr_scan"}, "lon": -77.0339755, "name": "c2541aeac94fe372dc62d325a1ca7c0f", "lat": 38.9040255, "is_reserved": 0, "fusion_lat": 0.0, "bike_id": "c2541aeac94fe372dc62d325a1ca7c0f", "type": "electric_scooter", "is_disabled": 0, "fusion_lon": 0.0}, {"rental_uris": {"android": "https://dc.lft.to/lastmile_qr_scan", "ios": "https://dc.lft.to/lastmile_qr_scan"}, "lon": -77.01618083333334, "name": "4c0d5a0613f57b72f018e7e8f6d45466", "lat": 38.903709166666665, "is_reserved": 0, "fusion_lat": 0.0, "bike_id": "4c0d5a0613f57b72f018e7e8f6d45466", "type": "electric_scooter", "is_disabled": 0, "fusion_lon": 0.0}, {"rental_uris": {"android": "https://dc.lft.to/lastmile_qr_scan", "ios": "https://dc.lft.to/lastmile_qr_scan"}, "lon": -77.04374683333333, "name": "cf73a0537bb510690fc4d126ac14e8ad", "lat": 38.8922045, "is_reserved": 0, "fusion_lat": 0.0, "bike_id": "cf73a0537bb510690fc4d126ac14e8ad", "type": "electric_scooter", "is_disabled": 0, "fusion_lon": 0.0}, {"rental_uris": {"android": "https://dc.lft.to/lastmile_qr_scan", "ios": "https://dc.lft.to/lastmile_qr_scan"}, "lon": -77.03839833333333, "name": "a9fd606140fc809efec638e674bd659f", "lat": 38.907862333333334, "is_reserved": 0, "fusion_lat": 0.0, "bike_id": "a9fd606140fc809efec638e674bd659f", "type": "electric_scooter", "is_disabled": 0, "fusion_lon": 0.0}, {"rental_uris": {"android": "https://dc.lft.to/lastmile_qr_scan", "ios": "https://dc.lft.to/lastmile_qr_scan"}, "lon": -77.0175475, "name": "0befe1d5b52742bb2748214a221776b9", "lat": 38.8947145, "is_reserved": 0, "fusion_lat": 0.0, "bike_id": "0befe1d5b52742bb2748214a221776b9", "type": "electric_scooter", "is_disabled": 0, "fusion_lon": 0.0}, {"rental_uris": {"android": "https://dc.lft.to/lastmile_qr_scan", "ios": "https://dc.lft.to/lastmile_qr_scan"}, "lon": -76.990009, "name": "8b3eb37ae557b3c1aacf1778cff16dd1", "lat": 38.865025, "is_reserved": 0, "fusion_lat": 0.0, "bike_id": "8b3eb37ae557b3c1aacf1778cff16dd1", "type": "electric_scooter", "is_disabled": 0, "fusion_lon": 0.0}, {"rental_uris": {"android": "https://dc.lft.to/lastmile_qr_scan", "ios": "https://dc.lft.to/lastmile_qr_scan"}, "lon": -77.038303, "name": "262d0035f2f9bb649e6b27978e9a83e6", "lat": 38.90129316666667, "is_reserved": 0, "fusion_lat": 0.0, "bike_id": "262d0035f2f9bb649e6b27978e9a83e6", "type": "electric_scooter", "is_disabled": 0, "fusion_lon": 0.0}, {"rental_uris": {"android": "https://dc.lft.to/lastmile_qr_scan", "ios": "https://dc.lft.to/lastmile_qr_scan"}, "lon": -77.03317416666667, "name": "0532702d582a3b73361b240f1c5086db", "lat": 38.9029295, "is_reserved": 0, "fusion_lat": 0.0, "bike_id": "0532702d582a3b73361b240f1c5086db", "type": "electric_scooter", "is_disabled": 0, "fusion_lon": 0.0}, {"rental_uris": {"android": "https://dc.lft.to/lastmile_qr_scan", "ios": "https://dc.lft.to/lastmile_qr_scan"}, "lon": -77.0240815, "name": "c4f7401bc7fc60c269d9ce3de561b4f5", "lat": 38.916908166666666, "is_reserved": 0, "fusion_lat": 0.0, "bike_id": "c4f7401bc7fc60c269d9ce3de561b4f5", "type": "electric_scooter", "is_disabled": 0, "fusion_lon": 0.0}, {"rental_uris": {"android": "https://dc.lft.to/lastmile_qr_scan", "ios": "https://dc.lft.to/lastmile_qr_scan"}, "lon": -76.98792416666667, "name": "d43c163a50b251b84bc716ed968bf86b", "lat": 38.912347833333335, "is_reserved": 0, "fusion_lat": 0.0, "bike_id": "d43c163a50b251b84bc716ed968bf86b", "type": "electric_scooter", "is_disabled": 0, "fusion_lon": 0.0}, {"rental_uris": {"android": "https://dc.lft.to/lastmile_qr_scan", "ios": "https://dc.lft.to/lastmile_qr_scan"}, "lon": -77.03148083333333, "name": "fd1c8784a8977b33b64e8fc66a4137fd", "lat": 38.92787416666667, "is_reserved": 0, "fusion_lat": 0.0, "bike_id": "fd1c8784a8977b33b64e8fc66a4137fd", "type": "electric_scooter", "is_disabled": 0, "fusion_lon": 0.0}, {"rental_uris": {"android": "https://dc.lft.to/lastmile_qr_scan", "ios": "https://dc.lft.to/lastmile_qr_scan"}, "lon": -77.01814233333333, "name": "0119dd73fcc657c5e70ce8b576770532", "lat": 38.97377916666667, "is_reserved": 0, "fusion_lat": 0.0, "bike_id": "0119dd73fcc657c5e70ce8b576770532", "type": "electric_scooter", "is_disabled": 0, "fusion_lon": 0.0}, {"rental_uris": {"android": "https://dc.lft.to/lastmile_qr_scan", "ios": "https://dc.lft.to/lastmile_qr_scan"}, "lon": -77.02963416666667, "name": "738e03b15dae890a1af29913070df504", "lat": 38.92074866666667, "is_reserved": 0, "fusion_lat": 0.0, "bike_id": "738e03b15dae890a1af29913070df504", "type": "electric_scooter", "is_disabled": 0, "fusion_lon": 0.0}, {"rental_uris": {"android": "https://dc.lft.to/lastmile_qr_scan", "ios": "https://dc.lft.to/lastmile_qr_scan"}, "lon": -77.0241825, "name": "cf131912bc24ca39a0ec8bfe8b945e4f", "lat": 38.91142966666666, "is_reserved": 0, "fusion_lat": 0.0, "bike_id": "cf131912bc24ca39a0ec8bfe8b945e4f", "type": "electric_scooter", "is_disabled": 0, "fusion_lon": 0.0}, {"rental_uris": {"android": "https://dc.lft.to/lastmile_qr_scan", "ios": "https://dc.lft.to/lastmile_qr_scan"}, "lon": -77.03094316666666, "name": "737b03e3d2a09c9e268b7e4408bd5de1", "lat": 38.92372966666667, "is_reserved": 0, "fusion_lat": 0.0, "bike_id": "737b03e3d2a09c9e268b7e4408bd5de1", "type": "electric_scooter", "is_disabled": 0, "fusion_lon": 0.0}, {"rental_uris": {"android": "https://dc.lft.to/lastmile_qr_scan", "ios": "https://dc.lft.to/lastmile_qr_scan"}, "lon": -77.0364315, "name": "0a6eee49100aef59cb74e4ca3178bca5", "lat": 38.9173545, "is_reserved": 0, "fusion_lat": 0.0, "bike_id": "0a6eee49100aef59cb74e4ca3178bca5", "type": "electric_scooter", "is_disabled": 0, "fusion_lon": 0.0}, {"rental_uris": {"android": "https://dc.lft.to/lastmile_qr_scan", "ios": "https://dc.lft.to/lastmile_qr_scan"}, "lon": -76.93127283333334, "name": "8e5906190419ae256badb73537ae5727", "lat": 38.89794466666667, "is_reserved": 0, "fusion_lat": 0.0, "bike_id": "8e5906190419ae256badb73537ae5727", "type": "electric_scooter", "is_disabled": 0, "fusion_lon": 0.0}, {"rental_uris": {"android": "https://dc.lft.to/lastmile_qr_scan", "ios": "https://dc.lft.to/lastmile_qr_scan"}, "lon": -77.0198255, "name": "37f6eacaeb5738d19401226448162030", "lat": 38.911667666666666, "is_reserved": 0, "fusion_lat": 0.0, "bike_id": "37f6eacaeb5738d19401226448162030", "type": "electric_scooter", "is_disabled": 0, "fusion_lon": 0.0}, {"rental_uris": {"android": "https://dc.lft.to/lastmile_qr_scan", "ios": "https://dc.lft.to/lastmile_qr_scan"}, "lon": -77.023546, "name": "ef8367bbc636a52d43ab4d46d2c02224", "lat": 38.902042, "is_reserved": 0, "fusion_lat": 0.0, "bike_id": "ef8367bbc636a52d43ab4d46d2c02224", "type": "electric_scooter", "is_disabled": 0, "fusion_lon": 0.0}, {"rental_uris": {"android": "https://dc.lft.to/lastmile_qr_scan", "ios": "https://dc.lft.to/lastmile_qr_scan"}, "lon": -77.034858, "name": "7935defff7bc7937cd47cdb8bc5cc6be", "lat": 38.90023083333333, "is_reserved": 0, "fusion_lat": 0.0, "bike_id": "7935defff7bc7937cd47cdb8bc5cc6be", "type": "electric_scooter", "is_disabled": 0, "fusion_lon": 0.0}, {"rental_uris": {"android": "https://dc.lft.to/lastmile_qr_scan", "ios": "https://dc.lft.to/lastmile_qr_scan"}, "lon": -77.0044105, "name": "ea072164f7ceace12e9f9a023ec6e96b", "lat": 38.877199166666664, "is_reserved": 0, "fusion_lat": 0.0, "bike_id": "ea072164f7ceace12e9f9a023ec6e96b", "type": "electric_scooter", "is_disabled": 0, "fusion_lon": 0.0}, {"rental_uris": {"android": "https://dc.lft.to/lastmile_qr_scan", "ios": "https://dc.lft.to/lastmile_qr_scan"}, "lon": -76.972272, "name": "a0ffc112c3d87cce87f84e17b870ee7a", "lat": 38.90033283333333, "is_reserved": 0, "fusion_lat": 0.0, "bike_id": "a0ffc112c3d87cce87f84e17b870ee7a", "type": "electric_bike", "is_disabled": 0, "fusion_lon": 0.0}, {"rental_uris": {"android": "https://dc.lft.to/lastmile_qr_scan", "ios": "https://dc.lft.to/lastmile_qr_scan"}, "lon": -77.023753, "name": "9d3e8b851615370473026e3ed7df2345", "lat": 38.953043, "is_reserved": 0, "fusion_lat": 0.0, "bike_id": "9d3e8b851615370473026e3ed7df2345", "type": "electric_scooter", "is_disabled": 0, "fusion_lon": 0.0}, {"rental_uris": {"android": "https://dc.lft.to/lastmile_qr_scan", "ios": "https://dc.lft.to/lastmile_qr_scan"}, "lon": -77.02839183333333, "name": "b6f3dbd125c1cfa3313648d0a05db099", "lat": 38.924673166666665, "is_reserved": 0, "fusion_lat": 0.0, "bike_id": "b6f3dbd125c1cfa3313648d0a05db099", "type": "electric_scooter", "is_disabled": 0, "fusion_lon": 0.0}, {"rental_uris": {"android": "https://dc.lft.to/lastmile_qr_scan", "ios": "https://dc.lft.to/lastmile_qr_scan"}, "lon": -76.99974216666666, "name": "b6d680699b559ccbac3e8d08af2c4390", "lat": 38.90834866666667, "is_reserved": 0, "fusion_lat": 0.0, "bike_id": "b6d680699b559ccbac3e8d08af2c4390", "type": "electric_scooter", "is_disabled": 0, "fusion_lon": 0.0}, {"rental_uris": {"android": "https://dc.lft.to/lastmile_qr_scan", "ios": "https://dc.lft.to/lastmile_qr_scan"}, "lon": -76.94656, "name": "8f7c4f4121e8460bc94f2c9a54ed8a58", "lat": 38.89825966666667, "is_reserved": 0, "fusion_lat": 0.0, "bike_id": "8f7c4f4121e8460bc94f2c9a54ed8a58", "type": "electric_scooter", "is_disabled": 0, "fusion_lon": 0.0}, {"rental_uris": {"android": "https://dc.lft.to/lastmile_qr_scan", "ios": "https://dc.lft.to/lastmile_qr_scan"}, "lon": -77.0473125, "name": "19733b34ec9da8dce72ee66cce8f4725", "lat": 38.902364, "is_reserved": 0, "fusion_lat": 0.0, "bike_id": "19733b34ec9da8dce72ee66cce8f4725", "type": "electric_scooter", "is_disabled": 0, "fusion_lon": 0.0}, {"rental_uris": {"android": "https://dc.lft.to/lastmile_qr_scan", "ios": "https://dc.lft.to/lastmile_qr_scan"}, "lon": -76.99851283333334, "name": "24d1508b14a75ef1311f1daf4893527e", "lat": 38.90036466666667, "is_reserved": 0, "fusion_lat": 0.0, "bike_id": "24d1508b14a75ef1311f1daf4893527e", "type": "electric_scooter", "is_disabled": 0, "fusion_lon": 0.0}, {"rental_uris": {"android": "https://dc.lft.to/lastmile_qr_scan", "ios": "https://dc.lft.to/lastmile_qr_scan"}, "lon": -77.01780733333334, "name": "fe1e7296773768ef7d810700723f2e80", "lat": 38.920485166666666, "is_reserved": 0, "fusion_lat": 0.0, "bike_id": "fe1e7296773768ef7d810700723f2e80", "type": "electric_scooter", "is_disabled": 0, "fusion_lon": 0.0}, {"rental_uris": {"android": "https://dc.lft.to/lastmile_qr_scan", "ios": "https://dc.lft.to/lastmile_qr_scan"}, "lon": -77.032859, "name": "8e374b0f5426e656b1d9cd2f098b04ee", "lat": 38.93252433333333, "is_reserved": 0, "fusion_lat": 0.0, "bike_id": "8e374b0f5426e656b1d9cd2f098b04ee", "type": "electric_scooter", "is_disabled": 0, "fusion_lon": 0.0}, {"rental_uris": {"android": "https://dc.lft.to/lastmile_qr_scan", "ios": "https://dc.lft.to/lastmile_qr_scan"}, "lon": -76.995488, "name": "f6321264680211201429666425726d18", "lat": 38.83160683333333, "is_reserved": 0, "fusion_lat": 0.0, "bike_id": "f6321264680211201429666425726d18", "type": "electric_bike", "is_disabled": 0, "fusion_lon": 0.0}, {"rental_uris": {"android": "https://dc.lft.to/lastmile_qr_scan", "ios": "https://dc.lft.to/lastmile_qr_scan"}, "lon": -77.032667, "name": "c021cd85618e6cbbab0e3f773d4270f7", "lat": 38.939836166666666, "is_reserved": 0, "fusion_lat": 0.0, "bike_id": "c021cd85618e6cbbab0e3f773d4270f7", "type": "electric_scooter", "is_disabled": 0, "fusion_lon": 0.0}, {"rental_uris": {"android": "https://dc.lft.to/lastmile_qr_scan", "ios": "https://dc.lft.to/lastmile_qr_scan"}, "lon": -76.98337616666667, "name": "36707f1f1bebd80f70e7a14d19009776", "lat": 38.8656875, "is_reserved": 0, "fusion_lat": 0.0, "bike_id": "36707f1f1bebd80f70e7a14d19009776", "type": "electric_scooter", "is_disabled": 0, "fusion_lon": 0.0}, {"rental_uris": {"android": "https://dc.lft.to/lastmile_qr_scan", "ios": "https://dc.lft.to/lastmile_qr_scan"}, "lon": -76.99987516666667, "name": "c1bcf92789e94f175cce0c57e1a7d186", "lat": 38.87491633333333, "is_reserved": 0, "fusion_lat": 0.0, "bike_id": "c1bcf92789e94f175cce0c57e1a7d186", "type": "electric_scooter", "is_disabled": 0, "fusion_lon": 0.0}, {"rental_uris": {"android": "https://dc.lft.to/lastmile_qr_scan", "ios": "https://dc.lft.to/lastmile_qr_scan"}, "lon": -77.02715433333333, "name": "31f35f8ea331f2c1c9e319fc90ac8c8b", "lat": 38.92883333333333, "is_reserved": 0, "fusion_lat": 0.0, "bike_id": "31f35f8ea331f2c1c9e319fc90ac8c8b", "type": "electric_scooter", "is_disabled": 0, "fusion_lon": 0.0}, {"rental_uris": {"android": "https://dc.lft.to/lastmile_qr_scan", "ios": "https://dc.lft.to/lastmile_qr_scan"}, "lon": -77.00593283333333, "name": "9a329c12c40c01e94e34a7cc3fb23a43", "lat": 38.905563, "is_reserved": 0, "fusion_lat": 0.0, "bike_id": "9a329c12c40c01e94e34a7cc3fb23a43", "type": "electric_scooter", "is_disabled": 0, "fusion_lon": 0.0}, {"rental_uris": {"android": "https://dc.lft.to/lastmile_qr_scan", "ios": "https://dc.lft.to/lastmile_qr_scan"}, "lon": -77.02609166666667, "name": "df5fd1627b262ab0cc6c35cf2c77f698", "lat": 38.928493, "is_reserved": 0, "fusion_lat": 0.0, "bike_id": "df5fd1627b262ab0cc6c35cf2c77f698", "type": "electric_bike", "is_disabled": 0, "fusion_lon": 0.0}, {"rental_uris": {"android": "https://dc.lft.to/lastmile_qr_scan", "ios": "https://dc.lft.to/lastmile_qr_scan"}, "lon": -77.16605633333333, "name": "ef06edbe6200b1840bb82a664bec836b", "lat": 39.11977233333333, "is_reserved": 0, "fusion_lat": 0.0, "bike_id": "ef06edbe6200b1840bb82a664bec836b", "type": "electric_bike", "is_disabled": 0, "fusion_lon": 0.0}, {"rental_uris": {"android": "https://dc.lft.to/lastmile_qr_scan", "ios": "https://dc.lft.to/lastmile_qr_scan"}, "lon": -77.04628666666666, "name": "8bbd9ffe6a5c16d46a492ceed57a3305", "lat": 38.897371166666666, "is_reserved": 0, "fusion_lat": 0.0, "bike_id": "8bbd9ffe6a5c16d46a492ceed57a3305", "type": "electric_scooter", "is_disabled": 0, "fusion_lon": 0.0}, {"rental_uris": {"android": "https://dc.lft.to/lastmile_qr_scan", "ios": "https://dc.lft.to/lastmile_qr_scan"}, "lon": -77.002607, "name": "313ba027a0c7dce9b0fc838864483653", "lat": 38.89490466666667, "is_reserved": 0, "fusion_lat": 0.0, "bike_id": "313ba027a0c7dce9b0fc838864483653", "type": "electric_scooter", "is_disabled": 0, "fusion_lon": 0.0}, {"rental_uris": {"android": "https://dc.lft.to/lastmile_qr_scan", "ios": "https://dc.lft.to/lastmile_qr_scan"}, "lon": -77.02176233333333, "name": "4fa9fb6b9825ec4c2682e287f4d45c60", "lat": 38.9199205, "is_reserved": 0, "fusion_lat": 0.0, "bike_id": "4fa9fb6b9825ec4c2682e287f4d45c60", "type": "electric_scooter", "is_disabled": 0, "fusion_lon": 0.0}, {"rental_uris": {"android": "https://dc.lft.to/lastmile_qr_scan", "ios": "https://dc.lft.to/lastmile_qr_scan"}, "lon": -77.0326205, "name": "9befc6ab907438337269b52c0ac457bc", "lat": 38.93985333333333, "is_reserved": 0, "fusion_lat": 0.0, "bike_id": "9befc6ab907438337269b52c0ac457bc", "type": "electric_scooter", "is_disabled": 0, "fusion_lon": 0.0}, {"rental_uris": {"android": "https://dc.lft.to/lastmile_qr_scan", "ios": "https://dc.lft.to/lastmile_qr_scan"}, "lon": -77.019778, "name": "043baebc9bf175643ab7a22cb58382a2", "lat": 38.96382633333333, "is_reserved": 0, "fusion_lat": 0.0, "bike_id": "043baebc9bf175643ab7a22cb58382a2", "type": "electric_bike", "is_disabled": 0, "fusion_lon": 0.0}, {"rental_uris": {"android": "https://dc.lft.to/lastmile_qr_scan", "ios": "https://dc.lft.to/lastmile_qr_scan"}, "lon": -77.016205, "name": "a71f46217c8c98d013ca662f5358d82c", "lat": 38.9564195, "is_reserved": 0, "fusion_lat": 0.0, "bike_id": "a71f46217c8c98d013ca662f5358d82c", "type": "electric_scooter", "is_disabled": 0, "fusion_lon": 0.0}, {"rental_uris": {"android": "https://dc.lft.to/lastmile_qr_scan", "ios": "https://dc.lft.to/lastmile_qr_scan"}, "lon": -77.02046016666667, "name": "25201201ce415a1c8d7cf8d36339ee2f", "lat": 38.915588166666666, "is_reserved": 0, "fusion_lat": 0.0, "bike_id": "25201201ce415a1c8d7cf8d36339ee2f", "type": "electric_scooter", "is_disabled": 0, "fusion_lon": 0.0}, {"rental_uris": {"android": "https://dc.lft.to/lastmile_qr_scan", "ios": "https://dc.lft.to/lastmile_qr_scan"}, "lon": -76.97667516666667, "name": "2237bd22b733ed98e661bcdcd8f01bd9", "lat": 38.84054416666667, "is_reserved": 0, "fusion_lat": 0.0, "bike_id": "2237bd22b733ed98e661bcdcd8f01bd9", "type": "electric_scooter", "is_disabled": 0, "fusion_lon": 0.0}, {"rental_uris": {"android": "https://dc.lft.to/lastmile_qr_scan", "ios": "https://dc.lft.to/lastmile_qr_scan"}, "lon": -77.01767966666667, "name": "183fc2ee85f0ebae9eb776d1e2d4063c", "lat": 38.902706, "is_reserved": 0, "fusion_lat": 0.0, "bike_id": "183fc2ee85f0ebae9eb776d1e2d4063c", "type": "electric_scooter", "is_disabled": 0, "fusion_lon": 0.0}, {"rental_uris": {"android": "https://dc.lft.to/lastmile_qr_scan", "ios": "https://dc.lft.to/lastmile_qr_scan"}, "lon": -77.01402933333334, "name": "89170669bb2cfc34fc9609be82ad1af9", "lat": 38.928468333333335, "is_reserved": 0, "fusion_lat": 0.0, "bike_id": "89170669bb2cfc34fc9609be82ad1af9", "type": "electric_scooter", "is_disabled": 0, "fusion_lon": 0.0}, {"rental_uris": {"android": "https://dc.lft.to/lastmile_qr_scan", "ios": "https://dc.lft.to/lastmile_qr_scan"}, "lon": -77.0396735, "name": "79ea79d824ac6c36c04a826a6cac138b", "lat": 38.919808833333335, "is_reserved": 0, "fusion_lat": 0.0, "bike_id": "79ea79d824ac6c36c04a826a6cac138b", "type": "electric_scooter", "is_disabled": 0, "fusion_lon": 0.0}, {"rental_uris": {"android": "https://dc.lft.to/lastmile_qr_scan", "ios": "https://dc.lft.to/lastmile_qr_scan"}, "lon": -77.00534433333333, "name": "5134eedf87e9041401552753de4fd3e4", "lat": 38.846477166666666, "is_reserved": 0, "fusion_lat": 0.0, "bike_id": "5134eedf87e9041401552753de4fd3e4", "type": "electric_scooter", "is_disabled": 0, "fusion_lon": 0.0}, {"rental_uris": {"android": "https://dc.lft.to/lastmile_qr_scan", "ios": "https://dc.lft.to/lastmile_qr_scan"}, "lon": -76.93180566666666, "name": "7b6e624738c7118c403cfd3af74202db", "lat": 38.89832, "is_reserved": 0, "fusion_lat": 0.0, "bike_id": "7b6e624738c7118c403cfd3af74202db", "type": "electric_scooter", "is_disabled": 0, "fusion_lon": 0.0}, {"rental_uris": {"android": "https://dc.lft.to/lastmile_qr_scan", "ios": "https://dc.lft.to/lastmile_qr_scan"}, "lon": -77.04144166666667, "name": "a6d8b52b6cb71a52fe277318590531a7", "lat": 38.90379766666667, "is_reserved": 0, "fusion_lat": 0.0, "bike_id": "a6d8b52b6cb71a52fe277318590531a7", "type": "electric_scooter", "is_disabled": 0, "fusion_lon": 0.0}, {"rental_uris": {"android": "https://dc.lft.to/lastmile_qr_scan", "ios": "https://dc.lft.to/lastmile_qr_scan"}, "lon": -77.03181, "name": "9cd28e92996325166c6909c699321540", "lat": 38.9135245, "is_reserved": 0, "fusion_lat": 0.0, "bike_id": "9cd28e92996325166c6909c699321540", "type": "electric_scooter", "is_disabled": 0, "fusion_lon": 0.0}, {"rental_uris": {"android": "https://dc.lft.to/lastmile_qr_scan", "ios": "https://dc.lft.to/lastmile_qr_scan"}, "lon": -77.02640933333333, "name": "22f0a9020f66765ea8c2fb1f8fb9fe17", "lat": 38.90422266666667, "is_reserved": 0, "fusion_lat": 0.0, "bike_id": "22f0a9020f66765ea8c2fb1f8fb9fe17", "type": "electric_scooter", "is_disabled": 0, "fusion_lon": 0.0}, {"rental_uris": {"android": "https://dc.lft.to/lastmile_qr_scan", "ios": "https://dc.lft.to/lastmile_qr_scan"}, "lon": -77.0273965, "name": "9efcefed05bf835eace4d7dab6f2bea1", "lat": 38.928677, "is_reserved": 0, "fusion_lat": 0.0, "bike_id": "9efcefed05bf835eace4d7dab6f2bea1", "type": "electric_scooter", "is_disabled": 0, "fusion_lon": 0.0}, {"rental_uris": {"android": "https://dc.lft.to/lastmile_qr_scan", "ios": "https://dc.lft.to/lastmile_qr_scan"}, "lon": -77.034095, "name": "fc7c755bdb51f489795e1c150f205df4", "lat": 38.9244075, "is_reserved": 0, "fusion_lat": 0.0, "bike_id": "fc7c755bdb51f489795e1c150f205df4", "type": "electric_scooter", "is_disabled": 0, "fusion_lon": 0.0}, {"rental_uris": {"android": "https://dc.lft.to/lastmile_qr_scan", "ios": "https://dc.lft.to/lastmile_qr_scan"}, "lon": -77.03641416666666, "name": "f92c0bdb8c8f0717274870bfa4432402", "lat": 38.914590833333335, "is_reserved": 0, "fusion_lat": 0.0, "bike_id": "f92c0bdb8c8f0717274870bfa4432402", "type": "electric_scooter", "is_disabled": 0, "fusion_lon": 0.0}, {"rental_uris": {"android": "https://dc.lft.to/lastmile_qr_scan", "ios": "https://dc.lft.to/lastmile_qr_scan"}, "lon": -77.02527833333333, "name": "c699a858c8ea77f7ce848ca122aedcb8", "lat": 38.93750883333333, "is_reserved": 0, "fusion_lat": 0.0, "bike_id": "c699a858c8ea77f7ce848ca122aedcb8", "type": "electric_scooter", "is_disabled": 0, "fusion_lon": 0.0}, {"rental_uris": {"android": "https://dc.lft.to/lastmile_qr_scan", "ios": "https://dc.lft.to/lastmile_qr_scan"}, "lon": -76.98881333333334, "name": "ffd87131ce8a5b89f1cd1cd496a2a76b", "lat": 38.8666035, "is_reserved": 0, "fusion_lat": 0.0, "bike_id": "ffd87131ce8a5b89f1cd1cd496a2a76b", "type": "electric_scooter", "is_disabled": 0, "fusion_lon": 0.0}, {"rental_uris": {"android": "https://dc.lft.to/lastmile_qr_scan", "ios": "https://dc.lft.to/lastmile_qr_scan"}, "lon": -77.010246, "name": "ba092dc295ae8e87715be5390ebd8b6c", "lat": 38.9202985, "is_reserved": 0, "fusion_lat": 0.0, "bike_id": "ba092dc295ae8e87715be5390ebd8b6c", "type": "electric_scooter", "is_disabled": 0, "fusion_lon": 0.0}, {"rental_uris": {"android": "https://dc.lft.to/lastmile_qr_scan", "ios": "https://dc.lft.to/lastmile_qr_scan"}, "lon": -77.02694733333334, "name": "45a2ae109be4ba4168f8f3c65a042dd3", "lat": 38.909464, "is_reserved": 0, "fusion_lat": 0.0, "bike_id": "45a2ae109be4ba4168f8f3c65a042dd3", "type": "electric_scooter", "is_disabled": 0, "fusion_lon": 0.0},