{"data": {"bikes": [{"lon": -77.03839833333333, "fusion_lon": 0.0, "bike_id": "0a14734fdb54d5ed1d38913366e63197", "type": "electric_scooter", "name": "0a14734fdb54d5ed1d38913366e63197", "rental_uris": {"android": "https://dc.lft.to/lastmile_qr_scan", "ios": "https://dc.lft.to/lastmile_qr_scan"}, "is_disabled": 0, "fusion_lat": 0.0, "lat": 38.90480516666667, "is_reserved": 0}, {"lon": -77.00281516666666, "fusion_lon": 0.0, "bike_id": "ec022a98507acaf894c0c05b420a01a8", "type": "electric_scooter", "name": "ec022a98507acaf894c0c05b420a01a8", "rental_uris": {"android": "https://dc.lft.to/lastmile_qr_scan", "ios": "https://dc.lft.to/lastmile_qr_scan"}, "is_disabled": 0, "fusion_lat": 0.0, "lat": 38.877276, "is_reserved": 0}, {"lon": -77.02201816666667, "fusion_lon": 0.0, "bike_id": "17c2cbca5cdf50da3989f110783812d9", "type": "electric_scooter", "name": "17c2cbca5cdf50da3989f110783812d9", "rental_uris": {"android": "https://dc.lft.to/lastmile_qr_scan", "ios": "https://dc.lft.to/lastmile_qr_scan"}, "is_disabled": 0, "fusion_lat": 0.0, "lat": 38.9154465, "is_reserved": 0}, {"lon": -76.98189116666667, "fusion_lon": 0.0, "bike_id": "f27a019e050ed88e6b24d4e3a550a681", "type": "electric_scooter", "name": "f27a019e050ed88e6b24d4e3a550a681", "rental_uris": {"android": "https://dc.lft.to/lastmile_qr_scan", "ios": "https://dc.lft.to/lastmile_qr_scan"}, "is_disabled": 0, "fusion_lat": 0.0, "lat": 38.862073, "is_reserved": 0}, {"lon": -77.0352455, "fusion_lon": 0.0, "bike_id": "23fd2eeb27b4ac639e1c967a97869535", "type": "electric_scooter", "name": "23fd2eeb27b4ac639e1c967a97869535", "rental_uris": {"android": "https://dc.lft.to/lastmile_qr_scan", "ios": "https://dc.lft.to/lastmile_qr_scan"}, "is_disabled": 0, "fusion_lat": 0.0, "lat": 38.92326933333333, "is_reserved": 0}, {"lon": -77.034618, "fusion_lon": 0.0, "bike_id": "05a73dde41363aa976b51da0d0c9408c", "type": "electric_scooter", "name": "05a73dde41363aa976b51da0d0c9408c", "rental_uris": {"android": "https://dc.lft.to/lastmile_qr_scan", "ios": "https://dc.lft.to/lastmile_qr_scan"}, "is_disabled": 0, "fusion_lat": 0.0, "lat": 38.9170815, "is_reserved": 0}, {"lon": -77.04999533333333, "fusion_lon": 0.0, "bike_id": "0db4613f931f5bc517a599f0c777071e", "type": "electric_scooter", "name": "0db4613f931f5bc517a599f0c777071e", "rental_uris": {"android": "https://dc.lft.to/lastmile_qr_scan", "ios": "https://dc.lft.to/lastmile_qr_scan"}, "is_disabled": 0, "fusion_lat": 0.0, "lat": 38.89229183333333, "is_reserved": 0}, {"lon": -76.986774, "fusion_lon": 0.0, "bike_id": "08711756b81e7f0d1b93badbec5289fc", "type": "electric_scooter", "name": "08711756b81e7f0d1b93badbec5289fc", "rental_uris": {"android": "https://dc.lft.to/lastmile_qr_scan", "ios": "https://dc.lft.to/lastmile_qr_scan"}, "is_disabled": 0, "fusion_lat": 0.0, "lat": 38.912901, "is_reserved": 0}, {"lon": -77.01767483333333, "fusion_lon": 0.0, "bike_id": "17bfc4462c1d76ca74b21fb94b5bee6d", "type": "electric_scooter", "name": "17bfc4462c1d76ca74b21fb94b5bee6d", "rental_uris": {"android": "https://dc.lft.to/lastmile_qr_scan", "ios": "https://dc.lft.to/lastmile_qr_scan"}, "is_disabled": 0, "fusion_lat": 0.0, "lat": 38.902465166666666, "is_reserved": 0}, {"lon": -77.00005933333334, "fusion_lon": 0.0, "bike_id": "e7733b36a626ec6f13935bc9c85bdf7f", "type": "electric_scooter", "name": "e7733b36a626ec6f13935bc9c85bdf7f", "rental_uris": {"android": "https://dc.lft.to/lastmile_qr_scan", "ios": "https://dc.lft.to/lastmile_qr_scan"}, "is_disabled": 0, "fusion_lat": 0.0, "lat": 38.900279166666664, "is_reserved": 0}, {"lon": -76.98694816666666, "fusion_lon": 0.0, "bike_id": "cc95b3bb780b4edb730b0d2eac6f82bb", "type": "electric_scooter", "name": "cc95b3bb780b4edb730b0d2eac6f82bb", "rental_uris": {"android": "https://dc.lft.to/lastmile_qr_scan", "ios": "https://dc.lft.to/lastmile_qr_scan"}, "is_disabled": 0, "fusion_lat": 0.0, "lat": 38.86722366666667, "is_reserved": 0}, {"lon": -77.02823383333333, "fusion_lon": 0.0, "bike_id": "c70e81ce809d41071e2b3e773ffac5c4", "type": "electric_scooter", "name": "c70e81ce809d41071e2b3e773ffac5c4", "rental_uris": {"android": "https://dc.lft.to/lastmile_qr_scan", "ios": "https://dc.lft.to/lastmile_qr_scan"}, "is_disabled": 0, "fusion_lat": 0.0, "lat": 38.93064966666667, "is_reserved": 0}, {"lon": -76.99948499999999, "fusion_lon": 0.0, "bike_id": "9a54939c7c711cad5100c9a6f934c8d5", "type": "electric_scooter", "name": "9a54939c7c711cad5100c9a6f934c8d5", "rental_uris": {"android": "https://dc.lft.to/lastmile_qr_scan", "ios": "https://dc.lft.to/lastmile_qr_scan"}, "is_disabled": 0, "fusion_lat": 0.0, "lat": 38.84294516666667, "is_reserved": 0}, {"lon": -76.99471633333333, "fusion_lon": 0.0, "bike_id": "014a522dd06e089ccdbedbd9b9a82d14", "type": "electric_scooter", "name": "014a522dd06e089ccdbedbd9b9a82d14", "rental_uris": {"android": "https://dc.lft.to/lastmile_qr_scan", "ios": "https://dc.lft.to/lastmile_qr_scan"}, "is_disabled": 0, "fusion_lat": 0.0, "lat": 38.90513583333333, "is_reserved": 0}, {"lon": -77.00578916666667, "fusion_lon": 0.0, "bike_id": "85709e6568afda302086da48d225df0c", "type": "electric_scooter", "name": "85709e6568afda302086da48d225df0c", "rental_uris": {"android": "https://dc.lft.to/lastmile_qr_scan", "ios": "https://dc.lft.to/lastmile_qr_scan"}, "is_disabled": 0, "fusion_lat": 0.0, "lat": 38.87652283333333, "is_reserved": 0}, {"lon": -76.98335883333333, "fusion_lon": 0.0, "bike_id": "748bbf87709ce201502f50e42fc5a6c9", "type": "electric_scooter", "name": "748bbf87709ce201502f50e42fc5a6c9", "rental_uris": {"android": "https://dc.lft.to/lastmile_qr_scan", "ios": "https://dc.lft.to/lastmile_qr_scan"}, "is_disabled": 0, "fusion_lat": 0.0, "lat": 38.9149105, "is_reserved": 0}, {"lon": -76.97438233333334, "fusion_lon": 0.0, "bike_id": "b6b7873c41e3b38b72ab8aad561a73d2", "type": "electric_scooter", "name": "b6b7873c41e3b38b72ab8aad561a73d2", "rental_uris": {"android": "https://dc.lft.to/lastmile_qr_scan", "ios": "https://dc.lft.to/lastmile_qr_scan"}, "is_disabled": 0, "fusion_lat": 0.0, "lat": 38.90242166666667, "is_reserved": 0}, {"lon": -77.02789066666666, "fusion_lon": 0.0, "bike_id": "fdf657b47966449e63ba29c221ef17ed", "type": "electric_scooter", "name": "fdf657b47966449e63ba29c221ef17ed", "rental_uris": {"android": "https://dc.lft.to/lastmile_qr_scan", "ios": "https://dc.lft.to/lastmile_qr_scan"}, "is_disabled": 0, "fusion_lat": 0.0, "lat": 38.930584833333334, "is_reserved": 0}, {"lon": -77.02419916666666, "fusion_lon": 0.0, "bike_id": "dc35c986fc5bddd8b40fd8a3c6f6a912", "type": "electric_scooter", "name": "dc35c986fc5bddd8b40fd8a3c6f6a912", "rental_uris": {"android": "https://dc.lft.to/lastmile_qr_scan", "ios": "https://dc.lft.to/lastmile_qr_scan"}, "is_disabled": 0, "fusion_lat": 0.0, "lat": 38.87967116666667, "is_reserved": 0}, {"lon": -77.02542583333333, "fusion_lon": 0.0, "bike_id": "7a56fb007151e08ae4341cbae776f2d5", "type": "electric_scooter", "name": "7a56fb007151e08ae4341cbae776f2d5", "rental_uris": {"android": "https://dc.lft.to/lastmile_qr_scan", "ios": "https://dc.lft.to/lastmile_qr_scan"}, "is_disabled": 0, "fusion_lat": 0.0, "lat": 38.89223483333333, "is_reserved": 0}, {"lon": -77.0340365, "fusion_lon": 0.0, "bike_id": "3de2d995f0c4740de38f82228e0fe551", "type": "electric_scooter", "name": "3de2d995f0c4740de38f82228e0fe551", "rental_uris": {"android": "https://dc.lft.to/lastmile_qr_scan", "ios": "https://dc.lft.to/lastmile_qr_scan"}, "is_disabled": 0, "fusion_lat": 0.0, "lat": 38.924425666666664, "is_reserved": 0}, {"lon": -76.98537816666666, "fusion_lon": 0.0, "bike_id": "0162db438c46ebbfbc09d3555ae63f55", "type": "electric_bike", "name": "0162db438c46ebbfbc09d3555ae63f55", "rental_uris": {"android": "https://dc.lft.to/lastmile_qr_scan", "ios": "https://dc.lft.to/lastmile_qr_scan"}, "is_disabled": 0, "fusion_lat": 0.0, "lat": 38.89245783333333, "is_reserved": 0}, {"lon": -77.04330033333333, "fusion_lon": 0.0, "bike_id": "721d692bca59e14c3d896299b56b32d7", "type": "electric_scooter", "name": "721d692bca59e14c3d896299b56b32d7", "rental_uris": {"android": "https://dc.lft.to/lastmile_qr_scan", "ios": "https://dc.lft.to/lastmile_qr_scan"}, "is_disabled": 0, "fusion_lat": 0.0, "lat": 38.896751, "is_reserved": 0}, {"lon": -76.98564666666667, "fusion_lon": 0.0, "bike_id": "dfedc95515b8fb66ee8bc641599171ba", "type": "electric_scooter", "name": "dfedc95515b8fb66ee8bc641599171ba", "rental_uris": {"android": "https://dc.lft.to/lastmile_qr_scan", "ios": "https://dc.lft.to/lastmile_qr_scan"}, "is_disabled": 0, "fusion_lat": 0.0, "lat": 38.86680233333333, "is_reserved": 0}, {"lon": -77.02761333333333, "fusion_lon": 0.0, "bike_id": "f819c6ebddb5c947a069f4b679d9d623", "type": "electric_scooter", "name": "f819c6ebddb5c947a069f4b679d9d623", "rental_uris": {"android": "https://dc.lft.to/lastmile_qr_scan", "ios": "https://dc.lft.to/lastmile_qr_scan"}, "is_disabled": 0, "fusion_lat": 0.0, "lat": 38.91343033333333, "is_reserved": 0}, {"lon": -77.04869983333333, "fusion_lon": 0.0, "bike_id": "a05f3fcee3a8e76fc936212e73414d39", "type": "electric_scooter", "name": "a05f3fcee3a8e76fc936212e73414d39", "rental_uris": {"android": "https://dc.lft.to/lastmile_qr_scan", "ios": "https://dc.lft.to/lastmile_qr_scan"}, "is_disabled": 0, "fusion_lat": 0.0, "lat": 38.899415, "is_reserved": 0}, {"lon": -76.98011033333333, "fusion_lon": 0.0, "bike_id": "eb178c03b5ae97726d67d885adcfb111", "type": "electric_scooter", "name": "eb178c03b5ae97726d67d885adcfb111", "rental_uris": {"android": "https://dc.lft.to/lastmile_qr_scan", "ios": "https://dc.lft.to/lastmile_qr_scan"}, "is_disabled": 0, "fusion_lat": 0.0, "lat": 38.86429433333333, "is_reserved": 0}, {"lon": -77.02970983333333, "fusion_lon": 0.0, "bike_id": "8e2c67bebc9ed525a570f6344ff1e50a", "type": "electric_scooter", "name": "8e2c67bebc9ed525a570f6344ff1e50a", "rental_uris": {"android": "https://dc.lft.to/lastmile_qr_scan", "ios": "https://dc.lft.to/lastmile_qr_scan"}, "is_disabled": 0, "fusion_lat": 0.0, "lat": 38.91299733333334, "is_reserved": 0}, {"lon": -77.00699283333333, "fusion_lon": 0.0, "bike_id": "b542de40c1dc74516f4d35e6cf925639", "type": "electric_scooter", "name": "b542de40c1dc74516f4d35e6cf925639", "rental_uris": {"android": "https://dc.lft.to/lastmile_qr_scan", "ios": "https://dc.lft.to/lastmile_qr_scan"}, "is_disabled": 0, "fusion_lat": 0.0, "lat": 38.89985383333333, "is_reserved": 0}, {"lon": -77.031891, "fusion_lon": 0.0, "bike_id": "c08625179bef364829c862ddc33fbe58", "type": "electric_scooter", "name": "c08625179bef364829c862ddc33fbe58", "rental_uris": {"android": "https://dc.lft.to/lastmile_qr_scan", "ios": "https://dc.lft.to/lastmile_qr_scan"}, "is_disabled": 0, "fusion_lat": 0.0, "lat": 38.92486, "is_reserved": 0}, {"lon": -77.04005, "fusion_lon": 0.0, "bike_id": "47aa2171b6a7d25ef57f2342442d781c", "type": "electric_scooter", "name": "47aa2171b6a7d25ef57f2342442d781c", "rental_uris": {"android": "https://dc.lft.to/lastmile_qr_scan", "ios": "https://dc.lft.to/lastmile_qr_scan"}, "is_disabled": 0, "fusion_lat": 0.0, "lat": 38.896229166666664, "is_reserved": 0}, {"lon": -77.023474, "fusion_lon": 0.0, "bike_id": "6481254305e20b42cffd39137dd6b331", "type": "electric_scooter", "name": "6481254305e20b42cffd39137dd6b331", "rental_uris": {"android": "https://dc.lft.to/lastmile_qr_scan", "ios": "https://dc.lft.to/lastmile_qr_scan"}, "is_disabled": 0, "fusion_lat": 0.0, "lat": 38.9241485, "is_reserved": 0}, {"lon": -77.0386035, "fusion_lon": 0.0, "bike_id": "857d89a6683d3e1cc9e90b333327f72c", "type": "electric_scooter", "name": "857d89a6683d3e1cc9e90b333327f72c", "rental_uris": {"android": "https://dc.lft.to/lastmile_qr_scan", "ios": "https://dc.lft.to/lastmile_qr_scan"}, "is_disabled": 0, "fusion_lat": 0.0, "lat": 38.902641333333335, "is_reserved": 0}, {"lon": -77.00132016666667, "fusion_lon": 0.0, "bike_id": "3de961e9d9c6df8996cfa1a7f0b52751", "type": "electric_scooter", "name": "3de961e9d9c6df8996cfa1a7f0b52751", "rental_uris": {"android": "https://dc.lft.to/lastmile_qr_scan", "ios": "https://dc.lft.to/lastmile_qr_scan"}, "is_disabled": 0, "fusion_lat": 0.0, "lat": 38.89273683333333, "is_reserved": 0}, {"lon": -77.0159495, "fusion_lon": 0.0, "bike_id": "9f87f6321eacf5fd2217ddcb04e3dc9c", "type": "electric_scooter", "name": "9f87f6321eacf5fd2217ddcb04e3dc9c", "rental_uris": {"android": "https://dc.lft.to/lastmile_qr_scan", "ios": "https://dc.lft.to/lastmile_qr_scan"}, "is_disabled": 0, "fusion_lat": 0.0, "lat": 38.901464, "is_reserved": 0}, {"lon": -77.02288333333334, "fusion_lon": 0.0, "bike_id": "848d0ac53261dbbef98c7ace9a020e80", "type": "electric_scooter", "name": "848d0ac53261dbbef98c7ace9a020e80", "rental_uris": {"android": "https://dc.lft.to/lastmile_qr_scan", "ios": "https://dc.lft.to/lastmile_qr_scan"}, "is_disabled": 0, "fusion_lat": 0.0, "lat": 38.91709783333334, "is_reserved": 0}, {"lon": -77.0005725, "fusion_lon": 0.0, "bike_id": "f92953b6674d3d7db83c4014c49707da", "type": "electric_scooter", "name": "f92953b6674d3d7db83c4014c49707da", "rental_uris": {"android": "https://dc.lft.to/lastmile_qr_scan", "ios": "https://dc.lft.to/lastmile_qr_scan"}, "is_disabled": 0, "fusion_lat": 0.0, "lat": 38.92358683333333, "is_reserved": 0}, {"lon": -77.025575, "fusion_lon": 0.0, "bike_id": "91724ccc2b17584c7868e26828f5d8bf", "type": "electric_scooter", "name": "91724ccc2b17584c7868e26828f5d8bf", "rental_uris": {"android": "https://dc.lft.to/lastmile_qr_scan", "ios": "https://dc.lft.to/lastmile_qr_scan"}, "is_disabled": 0, "fusion_lat": 0.0, "lat": 38.941749333333334, "is_reserved": 0}, {"lon": -77.00000766666666, "fusion_lon": 0.0, "bike_id": "81aa3f435efbdccf81b79572ba154fe1", "type": "electric_scooter", "name": "81aa3f435efbdccf81b79572ba154fe1", "rental_uris": {"android": "https://dc.lft.to/lastmile_qr_scan", "ios": "https://dc.lft.to/lastmile_qr_scan"}, "is_disabled": 0, "fusion_lat": 0.0, "lat": 38.874558, "is_reserved": 0}, {"lon": -76.99040383333333, "fusion_lon": 0.0, "bike_id": "52eccad3d3c49438ca0426d34d45dde7", "type": "electric_scooter", "name": "52eccad3d3c49438ca0426d34d45dde7", "rental_uris": {"android": "https://dc.lft.to/lastmile_qr_scan", "ios": "https://dc.lft.to/lastmile_qr_scan"}, "is_disabled": 0, "fusion_lat": 0.0, "lat": 38.863913833333335, "is_reserved": 0}, {"lon": -77.02111083333334, "fusion_lon": 0.0, "bike_id": "c3c90e72c1f7661238710a1e53340cdb", "type": "electric_bike", "name": "c3c90e72c1f7661238710a1e53340cdb", "rental_uris": {"android": "https://dc.lft.to/lastmile_qr_scan", "ios": "https://dc.lft.to/lastmile_qr_scan"}, "is_disabled": 0, "fusion_lat": 0.0, "lat": 38.935993333333336, "is_reserved": 0}, {"lon": -76.94959483333334, "fusion_lon": 0.0, "bike_id": "c3544ee90068ff4bce563b69a8c10b92", "type": "electric_scooter", "name": "c3544ee90068ff4bce563b69a8c10b92", "rental_uris": {"android": "https://dc.lft.to/lastmile_qr_scan", "ios": "https://dc.lft.to/lastmile_qr_scan"}, "is_disabled": 0, "fusion_lat": 0.0, "lat": 38.894661, "is_reserved": 0}, {"lon": -76.99252766666666, "fusion_lon": 0.0, "bike_id": "8650e1e04fab0c3f250f255dcb0c9b15", "type": "electric_scooter", "name": "8650e1e04fab0c3f250f255dcb0c9b15", "rental_uris": {"android": "https://dc.lft.to/lastmile_qr_scan", "ios": "https://dc.lft.to/lastmile_qr_scan"}, "is_disabled": 0, "fusion_lat": 0.0, "lat": 38.8927315, "is_reserved": 0}, {"lon": -77.03821983333333, "fusion_lon": 0.0, "bike_id": "aa3ae973c32d4f6ba992562d00fca6c9", "type": "electric_scooter", "name": "aa3ae973c32d4f6ba992562d00fca6c9", "rental_uris": {"android": "https://dc.lft.to/lastmile_qr_scan", "ios": "https://dc.lft.to/lastmile_qr_scan"}, "is_disabled": 0, "fusion_lat": 0.0, "lat": 38.9112345, "is_reserved": 0}, {"lon": -77.03923083333333, "fusion_lon": 0.0, "bike_id": "2761ef0396fad1ca7c0c30b7f651e42e", "type": "electric_scooter", "name": "2761ef0396fad1ca7c0c30b7f651e42e", "rental_uris": {"android": "https://dc.lft.to/lastmile_qr_scan", "ios": "https://dc.lft.to/lastmile_qr_scan"}, "is_disabled": 0, "fusion_lat": 0.0, "lat": 38.902771, "is_reserved": 0}, {"lon": -77.03633033333334, "fusion_lon": 0.0, "bike_id": "3ff3a0702fd913be6e24e18d4b287b8b", "type": "electric_scooter", "name": "3ff3a0702fd913be6e24e18d4b287b8b", "rental_uris": {"android": "https://dc.lft.to/lastmile_qr_scan", "ios": "https://dc.lft.to/lastmile_qr_scan"}, "is_disabled": 0, "fusion_lat": 0.0, "lat": 38.911247333333336, "is_reserved": 0}, {"lon": -77.01971966666666, "fusion_lon": 0.0, "bike_id": "34888e88cfd3d4985e119363980141c0", "type": "electric_scooter", "name": "34888e88cfd3d4985e119363980141c0", "rental_uris": {"android": "https://dc.lft.to/lastmile_qr_scan", "ios": "https://dc.lft.to/lastmile_qr_scan"}, "is_disabled": 0, "fusion_lat": 0.0, "lat": 38.97751016666667, "is_reserved": 0}, {"lon": -77.04839266666667, "fusion_lon": 0.0, "bike_id": "2f8170dcb953628db7f8dcd8e2fa31a1", "type": "electric_scooter", "name": "2f8170dcb953628db7f8dcd8e2fa31a1", "rental_uris": {"android": "https://dc.lft.to/lastmile_qr_scan", "ios": "https://dc.lft.to/lastmile_qr_scan"}, "is_disabled": 0, "fusion_lat": 0.0, "lat": 38.91171833333333, "is_reserved": 0}, {"lon": -76.98244683333333, "fusion_lon": 0.0, "bike_id": "5adede783cd7030c784473acfb6b7ad9", "type": "electric_scooter", "name": "5adede783cd7030c784473acfb6b7ad9", "rental_uris": {"android": "https://dc.lft.to/lastmile_qr_scan", "ios": "https://dc.lft.to/lastmile_qr_scan"}, "is_disabled": 0, "fusion_lat": 0.0, "lat": 38.871177333333335, "is_reserved": 0}, {"lon": -76.99817783333333, "fusion_lon": 0.0, "bike_id": "2ab78fc45e4029bc72d2a763b886aaa5", "type": "electric_bike", "name": "2ab78fc45e4029bc72d2a763b886aaa5", "rental_uris": {"android": "https://dc.lft.to/lastmile_qr_scan", "ios": "https://dc.lft.to/lastmile_qr_scan"}, "is_disabled": 0, "fusion_lat": 0.0, "lat": 38.81985066666667, "is_reserved": 0}, {"lon": -77.02456616666667, "fusion_lon": 0.0, "bike_id": "2505fbab5a768e9f4b8a0ee516c849a9", "type": "electric_scooter", "name": "2505fbab5a768e9f4b8a0ee516c849a9", "rental_uris": {"android": "https://dc.lft.to/lastmile_qr_scan", "ios": "https://dc.lft.to/lastmile_qr_scan"}, "is_disabled": 0, "fusion_lat": 0.0, "lat": 38.9170635, "is_reserved": 0}, {"lon": -76.99545433333333, "fusion_lon": 0.0, "bike_id": "93cff2208bf0082cc61af99f1e321a18", "type": "electric_bike", "name": "93cff2208bf0082cc61af99f1e321a18", "rental_uris": {"android": "https://dc.lft.to/lastmile_qr_scan", "ios": "https://dc.lft.to/lastmile_qr_scan"}, "is_disabled": 0, "fusion_lat": 0.0, "lat": 38.8315855, "is_reserved": 0}, {"lon": -77.037118, "fusion_lon": 0.0, "bike_id": "49cd3b8aba800a121c91a47ae08c3065", "type": "electric_scooter", "name": "49cd3b8aba800a121c91a47ae08c3065", "rental_uris": {"android": "https://dc.lft.to/lastmile_qr_scan", "ios": "https://dc.lft.to/lastmile_qr_scan"}, "is_disabled": 0, "fusion_lat": 0.0, "lat": 38.928665333333335, "is_reserved": 0}, {"lon": -77.0320555, "fusion_lon": 0.0, "bike_id": "7d6a0e6c35845293c44c2008eeaa56f3", "type": "electric_scooter", "name": "7d6a0e6c35845293c44c2008eeaa56f3", "rental_uris": {"android": "https://dc.lft.to/lastmile_qr_scan", "ios": "https://dc.lft.to/lastmile_qr_scan"}, "is_disabled": 0, "fusion_lat": 0.0, "lat": 38.892307833333334, "is_reserved": 0}, {"lon": -76.98716616666667, "fusion_lon": 0.0, "bike_id": "f14d46703fb2d7850edc566c42277af4", "type": "electric_scooter", "name": "f14d46703fb2d7850edc566c42277af4", "rental_uris": {"android": "https://dc.lft.to/lastmile_qr_scan", "ios": "https://dc.lft.to/lastmile_qr_scan"}, "is_disabled": 0, "fusion_lat": 0.0, "lat": 38.86630683333333, "is_reserved": 0}, {"lon": -76.99061916666666, "fusion_lon": 0.0, "bike_id": "81df56eedd9f165113477f8ef92f3d7e", "type": "electric_scooter", "name": "81df56eedd9f165113477f8ef92f3d7e", "rental_uris": {"android": "https://dc.lft.to/lastmile_qr_scan", "ios": "https://dc.lft.to/lastmile_qr_scan"}, "is_disabled": 0, "fusion_lat": 0.0, "lat": 38.86370866666667, "is_reserved": 0}, {"lon": -77.0385405, "fusion_lon": 0.0, "bike_id": "c83aba539c18de3293c83be346ec014c", "type": "electric_scooter", "name": "c83aba539c18de3293c83be346ec014c", "rental_uris": {"android": "https://dc.lft.to/lastmile_qr_scan", "ios": "https://dc.lft.to/lastmile_qr_scan"}, "is_disabled": 0, "fusion_lat": 0.0, "lat": 38.9026925, "is_reserved": 0}, {"lon": -77.02306, "fusion_lon": 0.0, "bike_id": "67d510431843dd4228e361bc627a7be6", "type": "electric_scooter", "name": "67d510431843dd4228e361bc627a7be6", "rental_uris": {"android": "https://dc.lft.to/lastmile_qr_scan", "ios": "https://dc.lft.to/lastmile_qr_scan"}, "is_disabled": 0, "fusion_lat": 0.0, "lat": 38.894923166666665, "is_reserved": 0}, {"lon": -77.05149216666666, "fusion_lon": 0.0, "bike_id": "bf6093cce7b86f704216055455157fdc", "type": "electric_scooter", "name": "bf6093cce7b86f704216055455157fdc", "rental_uris": {"android": "https://dc.lft.to/lastmile_qr_scan", "ios": "https://dc.lft.to/lastmile_qr_scan"}, "is_disabled": 0, "fusion_lat": 0.0, "lat": 38.90187316666667, "is_reserved": 0}, {"lon": -77.0792895, "fusion_lon": 0.0, "bike_id": "135775ddc293ff65088cef1fb3610be1", "type": "electric_scooter", "name": "135775ddc293ff65088cef1fb3610be1", "rental_uris": {"android": "https://dc.lft.to/lastmile_qr_scan", "ios": "https://dc.lft.to/lastmile_qr_scan"}, "is_disabled": 0, "fusion_lat": 0.0, "lat": 38.949739666666666, "is_reserved": 0}, {"lon": -77.04610283333334, "fusion_lon": 0.0, "bike_id": "16ceb9601c9e7f6e6fa18604c26a9707", "type": "electric_scooter", "name": "16ceb9601c9e7f6e6fa18604c26a9707", "rental_uris": {"android": "https://dc.lft.to/lastmile_qr_scan", "ios": "https://dc.lft.to/lastmile_qr_scan"}, "is_disabled": 0, "fusion_lat": 0.0, "lat": 38.91676783333333, "is_reserved": 0}, {"lon": -77.002137, "fusion_lon": 0.0, "bike_id": "d73ada7042b3db956579aa6152b185c7", "type": "electric_scooter", "name": "d73ada7042b3db956579aa6152b185c7", "rental_uris": {"android": "https://dc.lft.to/lastmile_qr_scan", "ios": "https://dc.lft.to/lastmile_qr_scan"}, "is_disabled": 0, "fusion_lat": 0.0, "lat": 38.9145895, "is_reserved": 0}, {"lon": -77.08062816666667, "fusion_lon": 0.0, "bike_id": "11063d02e8727e29ab2391bf1fb209ac", "type": "electric_bike", "name": "11063d02e8727e29ab2391bf1fb209ac", "rental_uris": {"android": "https://dc.lft.to/lastmile_qr_scan", "ios": "https://dc.lft.to/lastmile_qr_scan"}, "is_disabled": 0, "fusion_lat": 0.0, "lat": 39.05253233333333, "is_reserved": 0}, {"lon": -77.01771033333333, "fusion_lon": 0.0, "bike_id": "06d2346e02352b0f94facdde6850597a", "type": "electric_scooter", "name": "06d2346e02352b0f94facdde6850597a", "rental_uris": {"android": "https://dc.lft.to/lastmile_qr_scan", "ios": "https://dc.lft.to/lastmile_qr_scan"}, "is_disabled": 0, "fusion_lat": 0.0, "lat": 38.90085233333333, "is_reserved": 0}, {"lon": -77.00500366666667, "fusion_lon": 0.0, "bike_id": "46360df15fec7332ebd87c49f3116634", "type": "electric_scooter", "name": "46360df15fec7332ebd87c49f3116634", "rental_uris": {"android": "https://dc.lft.to/lastmile_qr_scan", "ios": "https://dc.lft.to/lastmile_qr_scan"}, "is_disabled": 0, "fusion_lat": 0.0, "lat": 38.8745735, "is_reserved": 0}, {"lon": -77.03386783333333, "fusion_lon": 0.0, "bike_id": "0c629b4e3b9a3eea6d959fee5c48c4e3", "type": "electric_scooter", "name": "0c629b4e3b9a3eea6d959fee5c48c4e3", "rental_uris": {"android": "https://dc.lft.to/lastmile_qr_scan", "ios": "https://dc.lft.to/lastmile_qr_scan"}, "is_disabled": 0, "fusion_lat": 0.0, "lat": 38.92543116666667, "is_reserved": 0}, {"lon": -76.97028683333333, "fusion_lon": 0.0, "bike_id": "8c8c5fab090308f7c9c73e45a0cee326", "type": "electric_scooter", "name": "8c8c5fab090308f7c9c73e45a0cee326", "rental_uris": {"android": "https://dc.lft.to/lastmile_qr_scan", "ios": "https://dc.lft.to/lastmile_qr_scan"}, "is_disabled": 0, "fusion_lat": 0.0, "lat": 38.873578333333334, "is_reserved": 0}, {"lon": -77.03649733333333, "fusion_lon": 0.0, "bike_id": "9c0a9d8d60dababdfb96a68473a2c0d9", "type": "electric_bike", "name": "9c0a9d8d60dababdfb96a68473a2c0d9", "rental_uris": {"android": "https://dc.lft.to/lastmile_qr_scan", "ios": "https://dc.lft.to/lastmile_qr_scan"}, "is_disabled": 0, "fusion_lat": 0.0, "lat": 38.9364515, "is_reserved": 0}, {"lon": -77.04490366666667, "fusion_lon": 0.0, "bike_id": "87dbd05a02dc116b34a1b515420606ec", "type": "electric_scooter", "name": "87dbd05a02dc116b34a1b515420606ec", "rental_uris": {"android": "https://dc.lft.to/lastmile_qr_scan", "ios": "https://dc.lft.to/lastmile_qr_scan"}, "is_disabled": 0, "fusion_lat": 0.0, "lat": 38.897538, "is_reserved": 0}, {"lon": -77.0247285, "fusion_lon": 0.0, "bike_id": "cd28ded49cbc426626b03560587ad4c5", "type": "electric_scooter", "name": "cd28ded49cbc426626b03560587ad4c5", "rental_uris": {"android": "https://dc.lft.to/lastmile_qr_scan", "ios": "https://dc.lft.to/lastmile_qr_scan"}, "is_disabled": 0, "fusion_lat": 0.0, "lat": 38.930985166666666, "is_reserved": 0}, {"lon": -77.03258216666667, "fusion_lon": 0.0, "bike_id": "97ce7b6f8cfcc18f8ab74d8b0e165f2e", "type": "electric_scooter", "name": "97ce7b6f8cfcc18f8ab74d8b0e165f2e", "rental_uris": {"android": "https://dc.lft.to/lastmile_qr_scan", "ios": "https://dc.lft.to/lastmile_qr_scan"}, "is_disabled": 0, "fusion_lat": 0.0, "lat": 38.93577766666667, "is_reserved": 0}, {"lon": -77.069485, "fusion_lon": 0.0, "bike_id": "326bf00b0565ae8b99713330cd8b652e", "type": "electric_bike", "name": "326bf00b0565ae8b99713330cd8b652e", "rental_uris": {"android": "https://dc.lft.to/lastmile_qr_scan", "ios": "https://dc.lft.to/lastmile_qr_scan"}, "is_disabled": 0, "fusion_lat": 0.0, "lat": 38.995317, "is_reserved": 0}, {"lon": -77.02706816666667, "fusion_lon": 0.0, "bike_id": "3238ab151f1160ad60b4d4fcc746abce", "type": "electric_scooter", "name": "3238ab151f1160ad60b4d4fcc746abce", "rental_uris": {"android": "https://dc.lft.to/lastmile_qr_scan", "ios": "https://dc.lft.to/lastmile_qr_scan"}, "is_disabled": 0, "fusion_lat": 0.0, "lat": 38.91717833333333, "is_reserved": 0}, {"lon": -77.04179483333333, "fusion_lon": 0.0, "bike_id": "16a4c710560172da6934f4377e74ac9b", "type": "electric_scooter", "name": "16a4c710560172da6934f4377e74ac9b", "rental_uris": {"android": "https://dc.lft.to/lastmile_qr_scan", "ios": "https://dc.lft.to/lastmile_qr_scan"}, "is_disabled": 0, "fusion_lat": 0.0, "lat": 38.919057333333335, "is_reserved": 0}, {"lon": -77.02070633333334, "fusion_lon": 0.0, "bike_id": "53cb56ae62429b741f889642caf29859", "type": "electric_scooter", "name": "53cb56ae62429b741f889642caf29859", "rental_uris": {"android": "https://dc.lft.to/lastmile_qr_scan", "ios": "https://dc.lft.to/lastmile_qr_scan"}, "is_disabled": 0, "fusion_lat": 0.0, "lat": 38.9364665, "is_reserved": 0}, {"lon": -77.0006475, "fusion_lon": 0.0, "bike_id": "b8d56b0999fe5f751500159d1a9d1778", "type": "electric_scooter", "name": "b8d56b0999fe5f751500159d1a9d1778", "rental_uris": {"android": "https://dc.lft.to/lastmile_qr_scan", "ios": "https://dc.lft.to/lastmile_qr_scan"}, "is_disabled": 0, "fusion_lat": 0.0, "lat": 38.838895, "is_reserved": 0}, {"lon": -77.01850316666666, "fusion_lon": 0.0, "bike_id": "48850ed62d99e38b5ac5a7dc3f751313", "type": "electric_scooter", "name": "48850ed62d99e38b5ac5a7dc3f751313", "rental_uris": {"android": "https://dc.lft.to/lastmile_qr_scan", "ios": "https://dc.lft.to/lastmile_qr_scan"}, "is_disabled": 0, "fusion_lat": 0.0, "lat": 38.89976383333333, "is_reserved": 0}, {"lon": -77.0297185, "fusion_lon": 0.0, "bike_id": "b137ef31c65254ac7b03dce5e6ea3ab9", "type": "electric_scooter", "name": "b137ef31c65254ac7b03dce5e6ea3ab9", "rental_uris": {"android": "https://dc.lft.to/lastmile_qr_scan", "ios": "https://dc.lft.to/lastmile_qr_scan"}, "is_disabled": 0, "fusion_lat": 0.0, "lat": 38.91780266666667, "is_reserved": 0}, {"lon": -76.93396583333333, "fusion_lon": 0.0, "bike_id": "69c4cc7aff76dad9c841a2735714e566", "type": "electric_scooter", "name": "69c4cc7aff76dad9c841a2735714e566", "rental_uris": {"android": "https://dc.lft.to/lastmile_qr_scan", "ios": "https://dc.lft.to/lastmile_qr_scan"}, "is_disabled": 0, "fusion_lat": 0.0, "lat": 38.899016, "is_reserved": 0}, {"lon": -76.98769983333334, "fusion_lon": 0.0, "bike_id": "0b856ea1c10b5a7fa82522ad5e79627b", "type": "electric_scooter", "name": "0b856ea1c10b5a7fa82522ad5e79627b", "rental_uris": {"android": "https://dc.lft.to/lastmile_qr_scan", "ios": "https://dc.lft.to/lastmile_qr_scan"}, "is_disabled": 0, "fusion_lat": 0.0, "lat": 38.90026733333333, "is_reserved": 0}, {"lon": -77.02391483333334, "fusion_lon": 0.0, "bike_id": "795095307bcd5b493d23485133b49e4a", "type": "electric_scooter", "name": "795095307bcd5b493d23485133b49e4a", "rental_uris": {"android": "https://dc.lft.to/lastmile_qr_scan", "ios": "https://dc.lft.to/lastmile_qr_scan"}, "is_disabled": 0, "fusion_lat": 0.0, "lat": 38.91653083333333, "is_reserved": 0}, {"lon": -77.03401433333333, "fusion_lon": 0.0, "bike_id": "06e9c0e784285c81ebdbfdbe89eb0315", "type": "electric_scooter", "name": "06e9c0e784285c81ebdbfdbe89eb0315", "rental_uris": {"android": "https://dc.lft.to/lastmile_qr_scan", "ios": "https://dc.lft.to/lastmile_qr_scan"}, "is_disabled": 0, "fusion_lat": 0.0, "lat": 38.903640333333335, "is_reserved": 0}, {"lon": -76.9977665, "fusion_lon": 0.0, "bike_id": "2601f3f97f735f540932814249d14e01", "type": "electric_scooter", "name": "2601f3f97f735f540932814249d14e01", "rental_uris": {"android": "https://dc.lft.to/lastmile_qr_scan", "ios": "https://dc.lft.to/lastmile_qr_scan"}, "is_disabled": 0, "fusion_lat": 0.0, "lat": 38.844381, "is_reserved": 0}, {"lon": -77.04663783333334, "fusion_lon": 0.0, "bike_id": "ab994846770087895881525724425b1d", "type": "electric_scooter", "name": "ab994846770087895881525724425b1d", "rental_uris": {"android": "https://dc.lft.to/lastmile_qr_scan", "ios": "https://dc.lft.to/lastmile_qr_scan"}, "is_disabled": 0, "fusion_lat": 0.0, "lat": 38.89879583333333, "is_reserved": 0}, {"lon": -77.03440883333333, "fusion_lon": 0.0, "bike_id": "e9d613f7537f08b18380b5daff853103", "type": "electric_scooter", "name": "e9d613f7537f08b18380b5daff853103", "rental_uris": {"android": "https://dc.lft.to/lastmile_qr_scan", "ios": "https://dc.lft.to/lastmile_qr_scan"}, "is_disabled": 0, "fusion_lat": 0.0, "lat": 38.9179745, "is_reserved": 0}, {"lon": -77.027041, "fusion_lon": 0.0, "bike_id": "10048101de6905e8ad536076ae3e3c85", "type": "electric_scooter", "name": "10048101de6905e8ad536076ae3e3c85", "rental_uris": {"android": "https://dc.lft.to/lastmile_qr_scan", "ios": "https://dc.lft.to/lastmile_qr_scan"}, "is_disabled": 0, "fusion_lat": 0.0, "lat": 38.91718483333333, "is_reserved": 0}, {"lon": -77.0322415, "fusion_lon": 0.0, "bike_id": "45291d5add992964b7438629b8661fca", "type": "electric_scooter", "name": "45291d5add992964b7438629b8661fca", "rental_uris": {"android": "https://dc.lft.to/lastmile_qr_scan", "ios": "https://dc.lft.to/lastmile_qr_scan"}, "is_disabled": 0, "fusion_lat": 0.0, "lat": 38.914038, "is_reserved": 0}, {"lon": -77.03532883333334, "fusion_lon": 0.0, "bike_id": "7ea6810a1ca0dc2e88f1310f8ebdbb02", "type": "electric_scooter", "name": "7ea6810a1ca0dc2e88f1310f8ebdbb02", "rental_uris": {"android": "https://dc.lft.to/lastmile_qr_scan", "ios": "https://dc.lft.to/lastmile_qr_scan"}, "is_disabled": 0, "fusion_lat": 0.0, "lat": 38.91872133333333, "is_reserved": 0}, {"lon": -76.983505, "fusion_lon": 0.0, "bike_id": "022b14339a8f08d2dd2f7f13b1598411", "type": "electric_bike", "name": "022b14339a8f08d2dd2f7f13b1598411", "rental_uris": {"android": "https://dc.lft.to/lastmile_qr_scan", "ios": "https://dc.lft.to/lastmile_qr_scan"}, "is_disabled": 0, "fusion_lat": 0.0, "lat": 38.862585, "is_reserved": 0}, {"lon": -77.0525285, "fusion_lon": 0.0, "bike_id": "18eb03c327e7d0bf5cc2161ff1567b6d", "type": "electric_scooter", "name": "18eb03c327e7d0bf5cc2161ff1567b6d", "rental_uris": {"android": "https://dc.lft.to/lastmile_qr_scan", "ios": "https://dc.lft.to/lastmile_qr_scan"}, "is_disabled": 0, "fusion_lat": 0.0, "lat": 38.92381316666667, "is_reserved": 0}, {"lon": -77.04532083333334, "fusion_lon": 0.0, "bike_id": "4220bcafa4b9e7377aca09177d43788b", "type": "electric_scooter", "name": "4220bcafa4b9e7377aca09177d43788b", "rental_uris": {"android": "https://dc.lft.to/lastmile_qr_scan", "ios": "https://dc.lft.to/lastmile_qr_scan"}, "is_disabled": 0, "fusion_lat": 0.0, "lat": 38.89475783333334, "is_reserved": 0}, {"lon": -77.00383266666667, "fusion_lon": 0.0, "bike_id": "7d8c246a29eda3d885e291a8c959c9fe", "type": "electric_scooter", "name": "7d8c246a29eda3d885e291a8c959c9fe", "rental_uris": {"android": "https://dc.lft.to/lastmile_qr_scan", "ios": "https://dc.lft.to/lastmile_qr_scan"}, "is_disabled": 0, "fusion_lat": 0.0, "lat": 38.8485405, "is_reserved": 0}, {"lon": -77.03147316666667, "fusion_lon": 0.0, "bike_id": "8bf9e9b2f8437e2b34291566c7289f07", "type": "electric_scooter", "name": "8bf9e9b2f8437e2b34291566c7289f07", "rental_uris": {"android": "https://dc.lft.to/lastmile_qr_scan", "ios": "https://dc.lft.to/lastmile_qr_scan"}, "is_disabled": 0, "fusion_lat": 0.0, "lat": 38.9126685, "is_reserved": 0}, {"lon": -77.038511, "fusion_lon": 0.0, "bike_id": "86178f34f9b2f50c4ccc96f0e8590f1f", "type": "electric_scooter", "name": "86178f34f9b2f50c4ccc96f0e8590f1f", "rental_uris": {"android": "https://dc.lft.to/lastmile_qr_scan", "ios": "https://dc.lft.to/lastmile_qr_scan"}, "is_disabled": 0, "fusion_lat": 0.0, "lat": 38.90307466666667, "is_reserved": 0}, {"lon": -77.02288516666667, "fusion_lon": 0.0, "bike_id": "ea6ac3f6e3e85882ad0f1455f244406b", "type": "electric_scooter", "name": "ea6ac3f6e3e85882ad0f1455f244406b", "rental_uris": {"android": "https://dc.lft.to/lastmile_qr_scan", "ios": "https://dc.lft.to/lastmile_qr_scan"}, "is_disabled": 0, "fusion_lat": 0.0, "lat": 38.91678316666667, "is_reserved": 0}, {"lon": -77.032594, "fusion_lon": 0.0, "bike_id": "a34f4d9a2d0097f528e58463211bb560", "type": "electric_scooter", "name": "a34f4d9a2d0097f528e58463211bb560", "rental_uris": {"android": "https://dc.lft.to/lastmile_qr_scan", "ios": "https://dc.lft.to/lastmile_qr_scan"}, "is_disabled": 0, "fusion_lat": 0.0, "lat": 38.89723466666667, "is_reserved": 0}, {"lon": -77.038742, "fusion_lon": 0.0, "bike_id": "8b7af3cabf7066f83183676b2e3ec438", "type": "electric_scooter", "name": "8b7af3cabf7066f83183676b2e3ec438", "rental_uris": {"android": "https://dc.lft.to/lastmile_qr_scan", "ios": "https://dc.lft.to/lastmile_qr_scan"}, "is_disabled": 0, "fusion_lat": 0.0, "lat": 38.91706966666667, "is_reserved": 0}, {"lon": -76.9601875, "fusion_lon": 0.0, "bike_id": "8283def6201dc097d167956e982d0490", "type": "electric_scooter", "name": "8283def6201dc097d167956e982d0490", "rental_uris": {"android": "https://dc.lft.to/lastmile_qr_scan", "ios": "https://dc.lft.to/lastmile_qr_scan"}, "is_disabled": 0, "fusion_lat": 0.0, "lat": 38.86932, "is_reserved": 0}, {"lon": -76.90418149999999, "fusion_lon": 0.0, "bike_id": "7655fef452080df6b66aff7d3c9d1f43", "type": "electric_bike", "name": "7655fef452080df6b66aff7d3c9d1f43", "rental_uris": {"android": "https://dc.lft.to/lastmile_qr_scan", "ios": "https://dc.lft.to/lastmile_qr_scan"}, "is_disabled": 0, "fusion_lat": 0.0, "lat": 38.940558333333335, "is_reserved": 0}, {"lon": -77.0340955, "fusion_lon": 0.0, "bike_id": "6120f74441735c19c90fa8391bee1400", "type": "electric_scooter", "name": "6120f74441735c19c90fa8391bee1400", "rental_uris": {"android": "https://dc.lft.to/lastmile_qr_scan", "ios": "https://dc.lft.to/lastmile_qr_scan"}, "is_disabled": 0, "fusion_lat": 0.0, "lat": 38.9231385, "is_reserved": 0}, {"lon": -77.00808566666667, "fusion_lon": 0.0, "bike_id": "251527ff6d10f13b42b1f601d1e89224", "type": "electric_scooter", "name": "251527ff6d10f13b42b1f601d1e89224", "rental_uris": {"android": "https://dc.lft.to/lastmile_qr_scan", "ios": "https://dc.lft.to/lastmile_qr_scan"}, "is_disabled": 0, "fusion_lat": 0.0, "lat": 38.8316175, "is_reserved": 0}, {"lon": -77.04331683333334, "fusion_lon": 0.0, "bike_id": "12219b411035b63497a142b4f14e174c", "type": "electric_scooter", "name": "12219b411035b63497a142b4f14e174c", "rental_uris": {"android": "https://dc.lft.to/lastmile_qr_scan", "ios": "https://dc.lft.to/lastmile_qr_scan"}, "is_disabled": 0, "fusion_lat": 0.0, "lat": 38.91964683333333, "is_reserved": 0}, {"lon": -77.0342855, "fusion_lon": 0.0, "bike_id": "551b27f2e28d06abb3cd0953c032c463", "type": "electric_scooter", "name": "551b27f2e28d06abb3cd0953c032c463", "rental_uris": {"android": "https://dc.lft.to/lastmile_qr_scan", "ios": "https://dc.lft.to/lastmile_qr_scan"}, "is_disabled": 0, "fusion_lat": 0.0, "lat": 38.9273885, "is_reserved": 0}, {"lon": -77.015074, "fusion_lon": 0.0, "bike_id": "bf749c3ee5820fa207abb223cd5f6b50", "type": "electric_scooter", "name": "bf749c3ee5820fa207abb223cd5f6b50", "rental_uris": {"android": "https://dc.lft.to/lastmile_qr_scan", "ios": "https://dc.lft.to/lastmile_qr_scan"}, "is_disabled": 0, "fusion_lat": 0.0, "lat": 38.91768166666667, "is_reserved": 0}, {"lon": -77.048725, "fusion_lon": 0.0, "bike_id": "81316a8c2893daa64d9c1ed41b1d1635", "type": "electric_scooter", "name": "81316a8c2893daa64d9c1ed41b1d1635", "rental_uris": {"android": "https://dc.lft.to/lastmile_qr_scan", "ios": "https://dc.lft.to/lastmile_qr_scan"}, "is_disabled": 0, "fusion_lat": 0.0, "lat": 38.90910183333333, "is_reserved": 0}, {"lon": -77.02716616666666, "fusion_lon": 0.0, "bike_id": "3e508aff7b5d56956d4f922fc41677af", "type": "electric_scooter", "name": "3e508aff7b5d56956d4f922fc41677af", "rental_uris": {"android": "https://dc.lft.to/lastmile_qr_scan", "ios": "https://dc.lft.to/lastmile_qr_scan"}, "is_disabled": 0, "fusion_lat": 0.0, "lat": 38.92461266666667, "is_reserved": 0}, {"lon": -77.03730166666666, "fusion_lon": 0.0, "bike_id": "f363d74f4aef74fd287c4501bf799cd4", "type": "electric_scooter", "name": "f363d74f4aef74fd287c4501bf799cd4", "rental_uris": {"android": "https://dc.lft.to/lastmile_qr_scan", "ios": "https://dc.lft.to/lastmile_qr_scan"}, "is_disabled": 0, "fusion_lat": 0.0, "lat": 38.9265455, "is_reserved": 0}, {"lon": -77.05335766666667, "fusion_lon": 0.0, "bike_id": "1e94238a321eb7e7a7ddb16c1b4d10b0", "type": "electric_scooter", "name": "1e94238a321eb7e7a7ddb16c1b4d10b0", "rental_uris": {"android": "https://dc.lft.to/lastmile_qr_scan", "ios": "https://dc.lft.to/lastmile_qr_scan"}, "is_disabled": 0, "fusion_lat": 0.0, "lat": 38.90238166666666, "is_reserved": 0}, {"lon": -77.03287616666667, "fusion_lon": 0.0, "bike_id": "eae73a8c137c18c743b7eadd391353d1", "type": "electric_scooter", "name": "eae73a8c137c18c743b7eadd391353d1", "rental_uris": {"android": "https://dc.lft.to/lastmile_qr_scan", "ios": "https://dc.lft.to/lastmile_qr_scan"}, "is_disabled": 0, "fusion_lat": 0.0, "lat": 38.928865, "is_reserved": 0}, {"lon": -77.02658866666667, "fusion_lon": 0.0, "bike_id": "0ebf50a24a6150c4f9410d19076ceb80", "type": "electric_scooter", "name": "0ebf50a24a6150c4f9410d19076ceb80", "rental_uris": {"android": "https://dc.lft.to/lastmile_qr_scan", "ios": "https://dc.lft.to/lastmile_qr_scan"}, "is_disabled": 0, "fusion_lat": 0.0, "lat": 38.9170065, "is_reserved": 0}, {"lon": -77.04188283333333, "fusion_lon": 0.0, "bike_id": "1f5d9e0e65ba6fc9b4c72b92ea0466f1", "type": "electric_scooter", "name": "1f5d9e0e65ba6fc9b4c72b92ea0466f1", "rental_uris": {"android": "https://dc.lft.to/lastmile_qr_scan", "ios": "https://dc.lft.to/lastmile_qr_scan"}, "is_disabled": 0, "fusion_lat": 0.0, "lat": 38.91346683333333, "is_reserved": 0}, {"lon": -77.0329175, "fusion_lon": 0.0, "bike_id": "68cc685aa964b71bcb9a1049e0671230", "type": "electric_scooter", "name": "68cc685aa964b71bcb9a1049e0671230", "rental_uris": {"android": "https://dc.lft.to/lastmile_qr_scan", "ios": "https://dc.lft.to/lastmile_qr_scan"}, "is_disabled": 0, "fusion_lat": 0.0, "lat": 38.934362166666666, "is_reserved": 0}, {"lon": -77.029695, "fusion_lon": 0.0, "bike_id": "47560823176a3a676cbad6f4987fba6e", "type": "electric_scooter", "name": "47560823176a3a676cbad6f4987fba6e", "rental_uris": {"android": "https://dc.lft.to/lastmile_qr_scan", "ios": "https://dc.lft.to/lastmile_qr_scan"}, "is_disabled": 0, "fusion_lat": 0.0, "lat": 38.90656933333333, "is_reserved": 0}, {"lon": -77.01643216666666, "fusion_lon": 0.0, "bike_id": "3d93bcc466e390a4989b4860cfd43b0e", "type": "electric_scooter", "name": "3d93bcc466e390a4989b4860cfd43b0e", "rental_uris": {"android": "https://dc.lft.to/lastmile_qr_scan", "ios": "https://dc.lft.to/lastmile_qr_scan"}, "is_disabled": 0, "fusion_lat": 0.0, "lat": 38.881229166666664, "is_reserved": 0}, {"lon": -77.01623966666666, "fusion_lon": 0.0, "bike_id": "93d65f72de57ff63166218f36acc6f00", "type": "electric_scooter", "name": "93d65f72de57ff63166218f36acc6f00", "rental_uris": {"android": "https://dc.lft.to/lastmile_qr_scan", "ios": "https://dc.lft.to/lastmile_qr_scan"}, "is_disabled": 0, "fusion_lat": 0.0, "lat": 38.9115745, "is_reserved": 0}, {"lon": -77.0222165, "fusion_lon": 0.0, "bike_id": "b11ceeb1e1bf7c9bcb659314c55e55f8", "type": "electric_scooter", "name": "b11ceeb1e1bf7c9bcb659314c55e55f8", "rental_uris": {"android": "https://dc.lft.to/lastmile_qr_scan", "ios": "https://dc.lft.to/lastmile_qr_scan"}, "is_disabled": 0, "fusion_lat": 0.0, "lat": 38.93549933333333, "is_reserved": 0}, {"lon": -77.046117, "fusion_lon": 0.0, "bike_id": "d61f9b8d390781ea470459f5509085f4", "type": "electric_scooter", "name": "d61f9b8d390781ea470459f5509085f4", "rental_uris": {"android": "https://dc.lft.to/lastmile_qr_scan", "ios": "https://dc.lft.to/lastmile_qr_scan"}, "is_disabled": 0, "fusion_lat": 0.0, "lat": 38.915106, "is_reserved": 0}, {"lon": -77.01946983333333, "fusion_lon": 0.0, "bike_id": "cc0e500f46de668fea64418373ffcae4", "type": "electric_scooter", "name": "cc0e500f46de668fea64418373ffcae4", "rental_uris": {"android": "https://dc.lft.to/lastmile_qr_scan", "ios": "https://dc.lft.to/lastmile_qr_scan"}, "is_disabled": 0, "fusion_lat": 0.0, "lat": 38.92419, "is_reserved": 0}, {"lon": -77.04143316666666, "fusion_lon": 0.0, "bike_id": "777e871ec7b469e9b66478658783503c", "type": "electric_scooter", "name": "777e871ec7b469e9b66478658783503c", "rental_uris": {"android": "https://dc.lft.to/lastmile_qr_scan", "ios": "https://dc.lft.to/lastmile_qr_scan"}, "is_disabled": 0, "fusion_lat": 0.0, "lat": 38.9168825, "is_reserved": 0}, {"lon": -77.03625883333333, "fusion_lon": 0.0, "bike_id": "ac6bee342e0f7505e57fa14b7dbe356c", "type": "electric_scooter", "name": "ac6bee342e0f7505e57fa14b7dbe356c", "rental_uris": {"android": "https://dc.lft.to/lastmile_qr_scan", "ios": "https://dc.lft.to/lastmile_qr_scan"}, "is_disabled": 0, "fusion_lat": 0.0, "lat": 38.965508666666665, "is_reserved": 0}, {"lon": -77.03992, "fusion_lon": 0.0, "bike_id": "316e805dc76056ac175ea7e246114560", "type": "electric_scooter", "name": "316e805dc76056ac175ea7e246114560", "rental_uris": {"android": "https://dc.lft.to/lastmile_qr_scan", "ios": "https://dc.lft.to/lastmile_qr_scan"}, "is_disabled": 0, "fusion_lat": 0.0, "lat": 38.9036255, "is_reserved": 0}, {"lon": -76.99407766666667, "fusion_lon": 0.0, "bike_id": "3bc458b9f96cd85d2bd6c1df6e122607", "type": "electric_bike", "name": "3bc458b9f96cd85d2bd6c1df6e122607", "rental_uris": {"android": "https://dc.lft.to/lastmile_qr_scan", "ios": "https://dc.lft.to/lastmile_qr_scan"}, "is_disabled": 0, "fusion_lat": 0.0, "lat": 38.921734, "is_reserved": 0}, {"lon": -77.02398083333334, "fusion_lon": 0.0, "bike_id": "658f0e47ac0f83e9c1d3dc8589def983", "type": "electric_scooter", "name": "658f0e47ac0f83e9c1d3dc8589def983", "rental_uris": {"android": "https://dc.lft.to/lastmile_qr_scan", "ios": "https://dc.lft.to/lastmile_qr_scan"}, "is_disabled": 0, "fusion_lat": 0.0, "lat": 38.9166915, "is_reserved": 0}, {"lon": -77.03540966666667, "fusion_lon": 0.0, "bike_id": "7c4aabbf89e94333af52299bdb52fcd6", "type": "electric_scooter", "name": "7c4aabbf89e94333af52299bdb52fcd6", "rental_uris": {"android": "https://dc.lft.to/lastmile_qr_scan", "ios": "https://dc.lft.to/lastmile_qr_scan"}, "is_disabled": 0, "fusion_lat": 0.0, "lat": 38.925179166666666, "is_reserved": 0}, {"lon": -77.0999125, "fusion_lon": 0.0, "bike_id": "32e2a23060397fc4be1fea97d01304f9", "type": "electric_bike", "name": "32e2a23060397fc4be1fea97d01304f9", "rental_uris": {"android": "https://dc.lft.to/lastmile_qr_scan", "ios": "https://dc.lft.to/lastmile_qr_scan"}, "is_disabled": 0, "fusion_lat": 0.0, "lat": 38.85893216666667, "is_reserved": 0}, {"lon": -76.99034216666666, "fusion_lon": 0.0, "bike_id": "06b9e8a59cc60be853d2c32cbe3baff2", "type": "electric_scooter", "name": "06b9e8a59cc60be853d2c32cbe3baff2", "rental_uris": {"android": "https://dc.lft.to/lastmile_qr_scan", "ios": "https://dc.lft.to/lastmile_qr_scan"}, "is_disabled": 0, "fusion_lat": 0.0, "lat": 38.888791166666664, "is_reserved": 0}, {"lon": -77.00227883333334, "fusion_lon": 0.0, "bike_id": "c1026ea3399b9c68fab80d13f9fecf5d", "type": "electric_scooter", "name": "c1026ea3399b9c68fab80d13f9fecf5d", "rental_uris": {"android": "https://dc.lft.to/lastmile_qr_scan", "ios": "https://dc.lft.to/lastmile_qr_scan"}, "is_disabled": 0, "fusion_lat": 0.0, "lat": 38.88508983333333, "is_reserved": 0}, {"lon": -77.00949333333334, "fusion_lon": 0.0, "bike_id": "9751901c699d53a8b888fc9909d60b2b", "type": "electric_scooter", "name": "9751901c699d53a8b888fc9909d60b2b", "rental_uris": {"android": "https://dc.lft.to/lastmile_qr_scan", "ios": "https://dc.lft.to/lastmile_qr_scan"}, "is_disabled": 0, "fusion_lat": 0.0, "lat": 38.897409333333336, "is_reserved": 0}, {"lon": -77.01762133333334, "fusion_lon": 0.0, "bike_id": "44277292c9d028146c777ef363c152b9", "type": "electric_scooter", "name": "44277292c9d028146c777ef363c152b9", "rental_uris": {"android": "https://dc.lft.to/lastmile_qr_scan", "ios": "https://dc.lft.to/lastmile_qr_scan"}, "is_disabled": 0, "fusion_lat": 0.0, "lat": 38.92094433333333, "is_reserved": 0}, {"lon": -77.0312665, "fusion_lon": 0.0, "bike_id": "e9a963a050ee1b057d92e85e419c610d", "type": "electric_scooter", "name": "e9a963a050ee1b057d92e85e419c610d", "rental_uris": {"android": "https://dc.lft.to/lastmile_qr_scan", "ios": "https://dc.lft.to/lastmile_qr_scan"}, "is_disabled": 0, "fusion_lat": 0.0, "lat": 38.9045685, "is_reserved": 0}, {"lon": -77.02693016666667, "fusion_lon": 0.0, "bike_id": "42102f283b5a699265a220d5b0d3ea10", "type": "electric_scooter", "name": "42102f283b5a699265a220d5b0d3ea10", "rental_uris": {"android": "https://dc.lft.to/lastmile_qr_scan", "ios": "https://dc.lft.to/lastmile_qr_scan"}, "is_disabled": 0, "fusion_lat": 0.0, "lat": 38.926796833333334, "is_reserved": 0}, {"lon": -77.0163355, "fusion_lon": 0.0, "bike_id": "47bb0013529eedbb9110f01efa827e5d", "type": "electric_scooter", "name": "47bb0013529eedbb9110f01efa827e5d", "rental_uris": {"android": "https://dc.lft.to/lastmile_qr_scan", "ios": "https://dc.lft.to/lastmile_qr_scan"}, "is_disabled": 0, "fusion_lat": 0.0, "lat": 38.9032735, "is_reserved": 0}, {"lon": -77.004871, "fusion_lon": 0.0, "bike_id": "ddf9f411749b3cda86013954e1875e72", "type": "electric_scooter", "name": "ddf9f411749b3cda86013954e1875e72", "rental_uris": {"android": "https://dc.lft.to/lastmile_qr_scan", "ios": "https://dc.lft.to/lastmile_qr_scan"}, "is_disabled": 0, "fusion_lat": 0.0, "lat": 38.87464283333333, "is_reserved": 0}, {"lon": -77.04197266666667, "fusion_lon": 0.0, "bike_id": "d7e3044d1ceafe78a0e36f238b76ca67", "type": "electric_scooter", "name": "d7e3044d1ceafe78a0e36f238b76ca67", "rental_uris": {"android": "https://dc.lft.to/lastmile_qr_scan", "ios": "https://dc.lft.to/lastmile_qr_scan"}, "is_disabled": 0, "fusion_lat": 0.0, "lat": 38.9204255, "is_reserved": 0}, {"lon": -76.99907966666666, "fusion_lon": 0.0, "bike_id": "a64c9c58ec2d3d515773a6bfc1f335df", "type": "electric_scooter", "name": "a64c9c58ec2d3d515773a6bfc1f335df", "rental_uris": {"android": "https://dc.lft.to/lastmile_qr_scan", "ios": "https://dc.lft.to/lastmile_qr_scan"}, "is_disabled": 0, "fusion_lat": 0.0, "lat": 38.9092245, "is_reserved": 0}, {"lon": -77.084877, "fusion_lon": 0.0, "bike_id": "14fe547dc1e601428a1b964048a31915", "type": "electric_scooter", "name": "14fe547dc1e601428a1b964048a31915", "rental_uris": {"android": "https://dc.lft.to/lastmile_qr_scan", "ios": "https://dc.lft.to/lastmile_qr_scan"}, "is_disabled": 0, "fusion_lat": 0.0, "lat": 38.939029833333336, "is_reserved": 0}, {"lon": -77.0355515, "fusion_lon": 0.0, "bike_id": "919aa6fa968b6ae27dfd385faf0455ac", "type": "electric_scooter", "name": "919aa6fa968b6ae27dfd385faf0455ac", "rental_uris": {"android": "https://dc.lft.to/lastmile_qr_scan", "ios": "https://dc.lft.to/lastmile_qr_scan"}, "is_disabled": 0, "fusion_lat": 0.0, "lat": 38.90368616666667, "is_reserved": 0}, {"lon": -77.02477333333333, "fusion_lon": 0.0, "bike_id": "8b0502941befdb934a7f8d76d10f860b", "type": "electric_scooter", "name": "8b0502941befdb934a7f8d76d10f860b", "rental_uris": {"android": "https://dc.lft.to/lastmile_qr_scan", "ios": "https://dc.lft.to/lastmile_qr_scan"}, "is_disabled": 0, "fusion_lat": 0.0, "lat": 38.939624, "is_reserved": 0}, {"lon": -76.98543183333334, "fusion_lon": 0.0, "bike_id": "359eb1b632259abd525f2b78750062f7", "type": "electric_scooter", "name": "359eb1b632259abd525f2b78750062f7", "rental_uris": {"android": "https://dc.lft.to/lastmile_qr_scan", "ios": "https://dc.lft.to/lastmile_qr_scan"}, "is_disabled": 0, "fusion_lat": 0.0, "lat": 38.86686616666667, "is_reserved": 0}, {"lon": -77.03853733333334, "fusion_lon": 0.0, "bike_id": "a69060cda3aee1bc8475b927e2483f3d", "type": "electric_scooter", "name": "a69060cda3aee1bc8475b927e2483f3d", "rental_uris": {"android": "https://dc.lft.to/lastmile_qr_scan", "ios": "https://dc.lft.to/lastmile_qr_scan"}, "is_disabled": 0, "fusion_lat": 0.0, "lat": 38.912997833333336, "is_reserved": 0}, {"lon": -77.0220855, "fusion_lon": 0.0, "bike_id": "0f3cda5a9fa9af787dd254838e9c57ab", "type": "electric_scooter", "name": "0f3cda5a9fa9af787dd254838e9c57ab", "rental_uris": {"android": "https://dc.lft.to/lastmile_qr_scan", "ios": "https://dc.lft.to/lastmile_qr_scan"}, "is_disabled": 0, "fusion_lat": 0.0, "lat": 38.92796, "is_reserved": 0}, {"lon": -77.0966985, "fusion_lon": 0.0, "bike_id": "6bdbae811e2b43f53343d0ab783b390e", "type": "electric_bike", "name": "6bdbae811e2b43f53343d0ab783b390e", "rental_uris": {"android": "https://dc.lft.to/lastmile_qr_scan", "ios": "https://dc.lft.to/lastmile_qr_scan"}, "is_disabled": 0, "fusion_lat": 0.0, "lat": 38.9461875, "is_reserved": 0}, {"lon": -77.01816333333333, "fusion_lon": 0.0, "bike_id": "0d31f2b9a8d4a8599e614966d08a871f", "type": "electric_scooter", "name": "0d31f2b9a8d4a8599e614966d08a871f", "rental_uris": {"android": "https://dc.lft.to/lastmile_qr_scan", "ios": "https://dc.lft.to/lastmile_qr_scan"}, "is_disabled": 0, "fusion_lat": 0.0, "lat": 38.90114716666667, "is_reserved": 0}, {"lon": -77.02383, "fusion_lon": 0.0, "bike_id": "b37e938e2fe0349c121f587f7227fc01", "type": "electric_scooter", "name": "b37e938e2fe0349c121f587f7227fc01", "rental_uris": {"android": "https://dc.lft.to/lastmile_qr_scan", "ios": "https://dc.lft.to/lastmile_qr_scan"}, "is_disabled": 0, "fusion_lat": 0.0, "lat": 38.892292, "is_reserved": 0}, {"lon": -77.038521, "fusion_lon": 0.0, "bike_id": "521ec4e5bd35a282dcf79ca83e504512", "type": "electric_scooter", "name": "521ec4e5bd35a282dcf79ca83e504512", "rental_uris": {"android": "https://dc.lft.to/lastmile_qr_scan", "ios": "https://dc.lft.to/lastmile_qr_scan"}, "is_disabled": 0, "fusion_lat": 0.0, "lat": 38.917667, "is_reserved": 0}, {"lon": -77.0572895, "fusion_lon": 0.0, "bike_id": "8b6fc8a6b1f8d3b7ad4ebdf878f60766", "type": "electric_scooter", "name": "8b6fc8a6b1f8d3b7ad4ebdf878f60766", "rental_uris": {"android": "https://dc.lft.to/lastmile_qr_scan", "ios": "https://dc.lft.to/lastmile_qr_scan"}, "is_disabled": 0, "fusion_lat": 0.0, "lat": 38.933621333333335, "is_reserved": 0}, {"lon": -77.0391605, "fusion_lon": 0.0, "bike_id": "5787196244718cacbeac5f9311b59762", "type": "electric_scooter", "name": "5787196244718cacbeac5f9311b59762", "rental_uris": {"android": "https://dc.lft.to/lastmile_qr_scan", "ios": "https://dc.lft.to/lastmile_qr_scan"}, "is_disabled": 0, "fusion_lat": 0.0, "lat": 38.911171833333334, "is_reserved": 0}, {"lon": -76.92590816666667, "fusion_lon": 0.0, "bike_id": "b93c70a1000b6a82a996cdb1f255183b", "type": "electric_scooter", "name": "b93c70a1000b6a82a996cdb1f255183b", "rental_uris": {"android": "https://dc.lft.to/lastmile_qr_scan", "ios": "https://dc.lft.to/lastmile_qr_scan"}, "is_disabled": 0, "fusion_lat": 0.0, "lat": 38.893592166666664, "is_reserved": 0}, {"lon": -77.01271983333334, "fusion_lon": 0.0, "bike_id": "0121909e25038260e72d33c551bba3d3", "type": "electric_scooter", "name": "0121909e25038260e72d33c551bba3d3", "rental_uris": {"android": "https://dc.lft.to/lastmile_qr_scan", "ios": "https://dc.lft.to/lastmile_qr_scan"}, "is_disabled": 0, "fusion_lat": 0.0, "lat": 38.873050666666664, "is_reserved": 0}, {"lon": -77.02585933333333, "fusion_lon": 0.0, "bike_id": "8bc3b7805e125cf848d3b23e6d19b6da", "type": "electric_scooter", "name": "8bc3b7805e125cf848d3b23e6d19b6da", "rental_uris": {"android": "https://dc.lft.to/lastmile_qr_scan", "ios": "https://dc.lft.to/lastmile_qr_scan"}, "is_disabled": 0, "fusion_lat": 0.0, "lat": 38.96394566666667, "is_reserved": 0}, {"lon": -77.058576, "fusion_lon": 0.0, "bike_id": "a4357275a2d80bea3bafa30cd86a456f", "type": "electric_scooter", "name": "a4357275a2d80bea3bafa30cd86a456f", "rental_uris": {"android": "https://dc.lft.to/lastmile_qr_scan", "ios": "https://dc.lft.to/lastmile_qr_scan"}, "is_disabled": 0, "fusion_lat": 0.0, "lat": 38.93608866666667, "is_reserved": 0}, {"lon": -76.983359, "fusion_lon": 0.0, "bike_id": "7862b1111c38bd648114339df316034f", "type": "electric_scooter", "name": "7862b1111c38bd648114339df316034f", "rental_uris": {"android": "https://dc.lft.to/lastmile_qr_scan", "ios": "https://dc.lft.to/lastmile_qr_scan"}, "is_disabled": 0, "fusion_lat": 0.0, "lat": 38.90089866666667, "is_reserved": 0}, {"lon": -77.0320555, "fusion_lon": 0.0, "bike_id": "3a46c620a309c80d45ef7b4f8b6c57ad", "type": "electric_scooter", "name": "3a46c620a309c80d45ef7b4f8b6c57ad", "rental_uris": {"android": "https://dc.lft.to/lastmile_qr_scan", "ios": "https://dc.lft.to/lastmile_qr_scan"}, "is_disabled": 0, "fusion_lat": 0.0, "lat": 38.90273783333333, "is_reserved": 0}, {"lon": -77.01772333333334, "fusion_lon": 0.0, "bike_id": "40cce19c5b97204ea7991b9aee8ac255", "type": "electric_scooter", "name": "40cce19c5b97204ea7991b9aee8ac255", "rental_uris": {"android": "https://dc.lft.to/lastmile_qr_scan", "ios": "https://dc.lft.to/lastmile_qr_scan"}, "is_disabled": 0, "fusion_lat": 0.0, "lat": 38.887132333333334, "is_reserved": 0}, {"lon": -77.04349316666666, "fusion_lon": 0.0, "bike_id": "d890669893bf8edec4ecbacabffdc15e", "type": "electric_scooter", "name": "d890669893bf8edec4ecbacabffdc15e", "rental_uris": {"android": "https://dc.lft.to/lastmile_qr_scan", "ios": "https://dc.lft.to/lastmile_qr_scan"}, "is_disabled": 0, "fusion_lat": 0.0, "lat": 38.873847833333336, "is_reserved": 0}, {"lon": -77.0296005, "fusion_lon": 0.0, "bike_id": "544894f1118d4796fbd5bc46e91971c2", "type": "electric_scooter", "name": "544894f1118d4796fbd5bc46e91971c2", "rental_uris": {"android": "https://dc.lft.to/lastmile_qr_scan", "ios": "https://dc.lft.to/lastmile_qr_scan"}, "is_disabled": 0, "fusion_lat": 0.0, "lat": 38.922686166666665, "is_reserved": 0}, {"lon": -77.03410016666666, "fusion_lon": 0.0, "bike_id": "48f2e8c2b21aa306691f4ba51a474692", "type": "electric_scooter", "name": "48f2e8c2b21aa306691f4ba51a474692", "rental_uris": {"android": "https://dc.lft.to/lastmile_qr_scan", "ios": "https://dc.lft.to/lastmile_qr_scan"}, "is_disabled": 0, "fusion_lat": 0.0, "lat": 38.903915166666664, "is_reserved": 0}, {"lon": -77.00283566666667, "fusion_lon": 0.0, "bike_id": "b3541dd1b7d4055f8550bbe6ddf88cd0", "type": "electric_scooter", "name": "b3541dd1b7d4055f8550bbe6ddf88cd0", "rental_uris": {"android": "https://dc.lft.to/lastmile_qr_scan", "ios": "https://dc.lft.to/lastmile_qr_scan"}, "is_disabled": 0, "fusion_lat": 0.0, "lat": 38.87725916666667, "is_reserved": 0}, {"lon": -77.024821, "fusion_lon": 0.0, "bike_id": "7a60d9f433fc27c81ed7ff668ebc83b7", "type": "electric_scooter", "name": "7a60d9f433fc27c81ed7ff668ebc83b7", "rental_uris": {"android": "https://dc.lft.to/lastmile_qr_scan", "ios": "https://dc.lft.to/lastmile_qr_scan"}, "is_disabled": 0, "fusion_lat": 0.0, "lat": 38.93093983333333, "is_reserved": 0}, {"lon": -77.00328066666667, "fusion_lon": 0.0, "bike_id": "97fcb4b62c20473cbf918c4fd6c7280f", "type": "electric_scooter", "name": "97fcb4b62c20473cbf918c4fd6c7280f", "rental_uris": {"android": "https://dc.lft.to/lastmile_qr_scan", "ios": "https://dc.lft.to/lastmile_qr_scan"}, "is_disabled": 0, "fusion_lat": 0.0, "lat": 38.885014166666664, "is_reserved": 0}, {"lon": -77.01984816666666, "fusion_lon": 0.0, "bike_id": "4bd5b99f031e4f68fbdded0afb10d70f", "type": "electric_scooter", "name": "4bd5b99f031e4f68fbdded0afb10d70f", "rental_uris": {"android": "https://dc.lft.to/lastmile_qr_scan", "ios": "https://dc.lft.to/lastmile_qr_scan"}, "is_disabled": 0, "fusion_lat": 0.0, "lat": 38.89391416666667, "is_reserved": 0}, {"lon": -77.0497745, "fusion_lon": 0.0, "bike_id": "4461ed5b10620692236f2855bec91390", "type": "electric_scooter", "name": "4461ed5b10620692236f2855bec91390", "rental_uris": {"android": "https://dc.lft.to/lastmile_qr_scan", "ios": "https://dc.lft.to/lastmile_qr_scan"}, "is_disabled": 0, "fusion_lat": 0.0, "lat": 38.91790133333333, "is_reserved": 0}, {"lon": -76.98694516666667, "fusion_lon": 0.0, "bike_id": "d1aeed5c86269568161d8fc652e17614", "type": "electric_scooter", "name": "d1aeed5c86269568161d8fc652e17614", "rental_uris": {"android": "https://dc.lft.to/lastmile_qr_scan", "ios": "https://dc.lft.to/lastmile_qr_scan"}, "is_disabled": 0, "fusion_lat": 0.0, "lat": 38.867237833333334, "is_reserved": 0}, {"lon": -77.027108, "fusion_lon": 0.0, "bike_id": "36bad15ca30142fba45f5aae279f19e3", "type": "electric_scooter", "name": "36bad15ca30142fba45f5aae279f19e3", "rental_uris": {"android": "https://dc.lft.to/lastmile_qr_scan", "ios": "https://dc.lft.to/lastmile_qr_scan"}, "is_disabled": 0, "fusion_lat": 0.0, "lat": 38.88140283333333, "is_reserved": 0}, {"lon": -77.05730016666666, "fusion_lon": 0.0, "bike_id": "537aa23790c026d4bb3fe7da3205e6b5", "type": "electric_scooter", "name": "537aa23790c026d4bb3fe7da3205e6b5", "rental_uris": {"android": "https://dc.lft.to/lastmile_qr_scan", "ios": "https://dc.lft.to/lastmile_qr_scan"}, "is_disabled": 0, "fusion_lat": 0.0, "lat": 38.93360166666667, "is_reserved": 0}, {"lon": -77.02232666666667, "fusion_lon": 0.0, "bike_id": "99f90f85503c2d49460760167f271f01", "type": "electric_scooter", "name": "99f90f85503c2d49460760167f271f01", "rental_uris": {"android": "https://dc.lft.to/lastmile_qr_scan", "ios": "https://dc.lft.to/lastmile_qr_scan"}, "is_disabled": 0, "fusion_lat": 0.0, "lat": 38.9127515, "is_reserved": 0}, {"lon": -77.00203133333333, "fusion_lon": 0.0, "bike_id": "2e11844725b192167b036ecc649f21fc", "type": "electric_scooter", "name": "2e11844725b192167b036ecc649f21fc", "rental_uris": {"android": "https://dc.lft.to/lastmile_qr_scan", "ios": "https://dc.lft.to/lastmile_qr_scan"}, "is_disabled": 0, "fusion_lat": 0.0, "lat": 38.965542166666665, "is_reserved": 0}, {"lon": -76.98357816666666, "fusion_lon": 0.0, "bike_id": "878ae30f6f60b4b3c28cd0b54d35d369", "type": "electric_scooter", "name": "878ae30f6f60b4b3c28cd0b54d35d369", "rental_uris": {"android": "https://dc.lft.to/lastmile_qr_scan", "ios": "https://dc.lft.to/lastmile_qr_scan"}, "is_disabled": 0, "fusion_lat": 0.0, "lat": 38.8943655, "is_reserved": 0}, {"lon": -77.023082, "fusion_lon": 0.0, "bike_id": "43053d85490d2d00c147c042fcb13568", "type": "electric_scooter", "name": "43053d85490d2d00c147c042fcb13568", "rental_uris": {"android": "https://dc.lft.to/lastmile_qr_scan", "ios": "https://dc.lft.to/lastmile_qr_scan"}, "is_disabled": 0, "fusion_lat": 0.0, "lat": 38.915908333333334, "is_reserved": 0}, {"lon": -77.003509, "fusion_lon": 0.0, "bike_id": "448d775fa300c49bddf4ee4953ba994c", "type": "electric_scooter", "name": "448d775fa300c49bddf4ee4953ba994c", "rental_uris": {"android": "https://dc.lft.to/lastmile_qr_scan", "ios": "https://dc.lft.to/lastmile_qr_scan"}, "is_disabled": 0, "fusion_lat": 0.0, "lat": 38.887328333333336, "is_reserved": 0}, {"lon": -77.02687883333333, "fusion_lon": 0.0, "bike_id": "c51614cf25769e553002ec20d2088e7e", "type": "electric_scooter", "name": "c51614cf25769e553002ec20d2088e7e", "rental_uris": {"android": "https://dc.lft.to/lastmile_qr_scan", "ios": "https://dc.lft.to/lastmile_qr_scan"}, "is_disabled": 0, "fusion_lat": 0.0, "lat": 38.8949985, "is_reserved": 0}, {"lon": -77.04486166666666, "fusion_lon": 0.0, "bike_id": "c4b40d6e25e229565509b6d06c15026b", "type": "electric_scooter", "name": "c4b40d6e25e229565509b6d06c15026b", "rental_uris": {"android": "https://dc.lft.to/lastmile_qr_scan", "ios": "https://dc.lft.to/lastmile_qr_scan"}, "is_disabled": 0, "fusion_lat": 0.0, "lat": 38.900119333333336, "is_reserved": 0}, {"lon": -77.03853416666666, "fusion_lon": 0.0, "bike_id": "307de28af677304489f236f4f67bb834", "type": "electric_scooter", "name": "307de28af677304489f236f4f67bb834", "rental_uris": {"android": "https://dc.lft.to/lastmile_qr_scan", "ios": "https://dc.lft.to/lastmile_qr_scan"}, "is_disabled": 0, "fusion_lat": 0.0, "lat": 38.91710533333333, "is_reserved": 0}, {"lon": -77.017613, "fusion_lon": 0.0, "bike_id": "4eb750dfac13011dafa2d8bf3ab86bcc", "type": "electric_scooter", "name": "4eb750dfac13011dafa2d8bf3ab86bcc", "rental_uris": {"android": "https://dc.lft.to/lastmile_qr_scan", "ios": "https://dc.lft.to/lastmile_qr_scan"}, "is_disabled": 0, "fusion_lat": 0.0, "lat": 38.9022225, "is_reserved": 0}, {"lon": -76.989654, "fusion_lon": 0.0, "bike_id": "d4923abad6e5352af42d02a0de755c53", "type": "electric_bike", "name": "d4923abad6e5352af42d02a0de755c53", "rental_uris": {"android": "https://dc.lft.to/lastmile_qr_scan", "ios": "https://dc.lft.to/lastmile_qr_scan"}, "is_disabled": 0, "fusion_lat": 0.0, "lat": 38.89896933333333, "is_reserved": 0}, {"lon": -77.072542, "fusion_lon": 0.0, "bike_id": "0bae0a054550e64881a1632d115032d5", "type": "electric_scooter", "name": "0bae0a054550e64881a1632d115032d5", "rental_uris": {"android": "https://dc.lft.to/lastmile_qr_scan", "ios": "https://dc.lft.to/lastmile_qr_scan"}, "is_disabled": 0, "fusion_lat": 0.0, "lat": 38.9337595, "is_reserved": 0}, {"lon": -77.02161333333333, "fusion_lon": 0.0, "bike_id": "d9bd70da37b6a0107fbc746b4e20a8d0", "type": "electric_scooter", "name": "d9bd70da37b6a0107fbc746b4e20a8d0", "rental_uris": {"android": "https://dc.lft.to/lastmile_qr_scan", "ios": "https://dc.lft.to/lastmile_qr_scan"}, "is_disabled": 0, "fusion_lat": 0.0, "lat": 38.9162505, "is_reserved": 0}, {"lon": -77.016288, "fusion_lon": 0.0, "bike_id": "a4cea028d29a96188bdd42ca18923d82", "type": "electric_scooter", "name": "a4cea028d29a96188bdd42ca18923d82", "rental_uris": {"android": "https://dc.lft.to/lastmile_qr_scan", "ios": "https://dc.lft.to/lastmile_qr_scan"}, "is_disabled": 0, "fusion_lat": 0.0, "lat": 38.88111, "is_reserved": 0}, {"lon": -77.01773766666666, "fusion_lon": 0.0, "bike_id": "1384c1c3691944fc9ca93fa571657ddc", "type": "electric_scooter", "name": "1384c1c3691944fc9ca93fa571657ddc", "rental_uris": {"android": "https://dc.lft.to/lastmile_qr_scan", "ios": "https://dc.lft.to/lastmile_qr_scan"}, "is_disabled": 0, "fusion_lat": 0.0, "lat": 38.91335, "is_reserved": 0}, {"lon": -77.01737033333333, "fusion_lon": 0.0, "bike_id": "9396db92fcd0b2e09d7bd289785eff47", "type": "electric_scooter", "name": "9396db92fcd0b2e09d7bd289785eff47", "rental_uris": {"android": "https://dc.lft.to/lastmile_qr_scan", "ios": "https://dc.lft.to/lastmile_qr_scan"}, "is_disabled": 0, "fusion_lat": 0.0, "lat": 38.916085, "is_reserved": 0}, {"lon": -77.044069, "fusion_lon": 0.0, "bike_id": "f9876c5ca6b583bd14d91d6d5f781f37", "type": "electric_scooter", "name": "f9876c5ca6b583bd14d91d6d5f781f37", "rental_uris": {"android": "https://dc.lft.to/lastmile_qr_scan", "ios": "https://dc.lft.to/lastmile_qr_scan"}, "is_disabled": 0, "fusion_lat": 0.0, "lat": 38.910400333333335, "is_reserved": 0}, {"lon": -77.03400166666667, "fusion_lon": 0.0, "bike_id": "49bc286f00c95d0350b892c10f28d5a7", "type": "electric_scooter", "name": "49bc286f00c95d0350b892c10f28d5a7", "rental_uris": {"android": "https://dc.lft.to/lastmile_qr_scan", "ios": "https://dc.lft.to/lastmile_qr_scan"}, "is_disabled": 0, "fusion_lat": 0.0, "lat": 38.922032, "is_reserved": 0}, {"lon": -77.036327, "fusion_lon": 0.0, "bike_id": "f41600b6c27471432bf5f8c7c4b24cb3", "type": "electric_scooter", "name": "f41600b6c27471432bf5f8c7c4b24cb3", "rental_uris": {"android": "https://dc.lft.to/lastmile_qr_scan", "ios": "https://dc.lft.to/lastmile_qr_scan"}, "is_disabled": 0, "fusion_lat": 0.0, "lat": 38.9273995, "is_reserved": 0}, {"lon": -77.03040833333333, "fusion_lon": 0.0, "bike_id": "48dfaa1ece03f6d9264bfed903f49a00", "type": "electric_scooter", "name": "48dfaa1ece03f6d9264bfed903f49a00", "rental_uris": {"android": "https://dc.lft.to/lastmile_qr_scan", "ios": "https://dc.lft.to/lastmile_qr_scan"}, "is_disabled": 0, "fusion_lat": 0.0, "lat": 38.91629183333333, "is_reserved": 0}, {"lon": -77.0219725, "fusion_lon": 0.0, "bike_id": "61879dfe95493375bab2b156e143846c", "type": "electric_scooter", "name": "61879dfe95493375bab2b156e143846c", "rental_uris": {"android": "https://dc.lft.to/lastmile_qr_scan", "ios": "https://dc.lft.to/lastmile_qr_scan"}, "is_disabled": 0, "fusion_lat": 0.0, "lat": 38.91124883333333, "is_reserved": 0}, {"lon": -76.98371066666667, "fusion_lon": 0.0, "bike_id": "4a7e9ac3d94ec1c6f168b6851ee8fedb", "type": "electric_scooter", "name": "4a7e9ac3d94ec1c6f168b6851ee8fedb", "rental_uris": {"android": "https://dc.lft.to/lastmile_qr_scan", "ios": "https://dc.lft.to/lastmile_qr_scan"}, "is_disabled": 0, "fusion_lat": 0.0, "lat": 38.91494566666667, "is_reserved": 0}, {"lon": -77.000709, "fusion_lon": 0.0, "bike_id": "f06cb6cfca8cdc803beb9479c7050b37", "type": "electric_scooter", "name": "f06cb6cfca8cdc803beb9479c7050b37", "rental_uris": {"android": "https://dc.lft.to/lastmile_qr_scan", "ios": "https://dc.lft.to/lastmile_qr_scan"}, "is_disabled": 0, "fusion_lat": 0.0, "lat": 38.873859833333334, "is_reserved": 0}, {"lon": -77.05510266666667, "fusion_lon": 0.0, "bike_id": "c9db59fe6dfbc0961547d287be1a8707", "type": "electric_scooter", "name": "c9db59fe6dfbc0961547d287be1a8707", "rental_uris": {"android": "https://dc.lft.to/lastmile_qr_scan", "ios": "https://dc.lft.to/lastmile_qr_scan"}, "is_disabled": 0, "fusion_lat": 0.0, "lat": 38.929463166666665, "is_reserved": 0}, {"lon": -77.04155616666667, "fusion_lon": 0.0, "bike_id": "1190b391f758259280ceb2a9b820eeef", "type": "electric_scooter", "name": "1190b391f758259280ceb2a9b820eeef", "rental_uris": {"android": "https://dc.lft.to/lastmile_qr_scan", "ios": "https://dc.lft.to/lastmile_qr_scan"}, "is_disabled": 0, "fusion_lat": 0.0, "lat": 38.919534, "is_reserved": 0}, {"lon": -77.034243, "fusion_lon": 0.0, "bike_id": "00a3d2c8d23e4c851a2b66cba5f5da4d", "type": "electric_scooter", "name": "00a3d2c8d23e4c851a2b66cba5f5da4d", "rental_uris": {"android": "https://dc.lft.to/lastmile_qr_scan", "ios": "https://dc.lft.to/lastmile_qr_scan"}, "is_disabled": 0, "fusion_lat": 0.0, "lat": 38.909625166666665, "is_reserved": 0}, {"lon": -76.9159565, "fusion_lon": 0.0, "bike_id": "740fbb769270c6cce60dc98d9e7410b9", "type": "electric_bike", "name": "740fbb769270c6cce60dc98d9e7410b9", "rental_uris": {"android": "https://dc.lft.to/lastmile_qr_scan", "ios": "https://dc.lft.to/lastmile_qr_scan"}, "is_disabled": 0, "fusion_lat": 0.0, "lat": 38.879866166666666, "is_reserved": 0}, {"lon": -77.04159083333333, "fusion_lon": 0.0, "bike_id": "1b520fd5a84679c147b351c3872b6419", "type": "electric_scooter", "name": "1b520fd5a84679c147b351c3872b6419", "rental_uris": {"android": "https://dc.lft.to/lastmile_qr_scan", "ios": "https://dc.lft.to/lastmile_qr_scan"}, "is_disabled": 0, "fusion_lat": 0.0, "lat": 38.892366833333334, "is_reserved": 0}, {"lon": -77.06420666666666, "fusion_lon": 0.0, "bike_id": "6fbaec628c8df4659ab683fb53e6a2a3", "type": "electric_scooter", "name": "6fbaec628c8df4659ab683fb53e6a2a3", "rental_uris": {"android": "https://dc.lft.to/lastmile_qr_scan", "ios": "https://dc.lft.to/lastmile_qr_scan"}, "is_disabled": 0, "fusion_lat": 0.0, "lat": 38.913487333333336, "is_reserved": 0}, {"lon": -77.052548, "fusion_lon": 0.0, "bike_id": "62c0d1395684a27a267e24c0db10feb8", "type": "electric_scooter", "name": "62c0d1395684a27a267e24c0db10feb8", "rental_uris": {"android": "https://dc.lft.to/lastmile_qr_scan", "ios": "https://dc.lft.to/lastmile_qr_scan"}, "is_disabled": 0, "fusion_lat": 0.0, "lat": 38.927833166666666, "is_reserved": 0}, {"lon": -77.02783533333333, "fusion_lon": 0.0, "bike_id": "2923d9e9cb4e782cd534394a0a4a367b", "type": "electric_scooter", "name": "2923d9e9cb4e782cd534394a0a4a367b", "rental_uris": {"android": "https://dc.lft.to/lastmile_qr_scan", "ios": "https://dc.lft.to/lastmile_qr_scan"}, "is_disabled": 0, "fusion_lat": 0.0, "lat": 38.91695516666667, "is_reserved": 0}, {"lon": -77.001984, "fusion_lon": 0.0, "bike_id": "fa5f052843cc1981ed0cb2490603cb02", "type": "electric_scooter", "name": "fa5f052843cc1981ed0cb2490603cb02", "rental_uris": {"android": "https://dc.lft.to/lastmile_qr_scan", "ios": "https://dc.lft.to/lastmile_qr_scan"}, "is_disabled": 0, "fusion_lat": 0.0, "lat": 38.900274, "is_reserved": 0}, {"lon": -76.948944, "fusion_lon": 0.0, "bike_id": "d435043966d6c4b6e969357ce540f73c", "type": "electric_scooter", "name": "d435043966d6c4b6e969357ce540f73c", "rental_uris": {"android": "https://dc.lft.to/lastmile_qr_scan", "ios": "https://dc.lft.to/lastmile_qr_scan"}, "is_disabled": 0, "fusion_lat": 0.0, "lat": 38.895338833333334, "is_reserved": 0}, {"lon": -76.94854, "fusion_lon": 0.0, "bike_id": "c49e861ff055db4961287eea51482eaa", "type": "electric_scooter", "name": "c49e861ff055db4961287eea51482eaa", "rental_uris": {"android": "https://dc.lft.to/lastmile_qr_scan", "ios": "https://dc.lft.to/lastmile_qr_scan"}, "is_disabled": 0, "fusion_lat": 0.0, "lat": 38.883015666666665, "is_reserved": 0}, {"lon": -77.03193716666667, "fusion_lon": 0.0, "bike_id": "e5c04d7f5355f44c174092ac7c22e1b7", "type": "electric_scooter", "name": "e5c04d7f5355f44c174092ac7c22e1b7", "rental_uris": {"android": "https://dc.lft.to/lastmile_qr_scan", "ios": "https://dc.lft.to/lastmile_qr_scan"}, "is_disabled": 0, "fusion_lat": 0.0, "lat": 38.89238316666667, "is_reserved": 0}, {"lon": -77.04003083333333, "fusion_lon": 0.0, "bike_id": "b984819a8eb351c8d50218a3ac9a5233", "type": "electric_scooter", "name": "b984819a8eb351c8d50218a3ac9a5233", "rental_uris": {"android": "https://dc.lft.to/lastmile_qr_scan", "ios": "https://dc.lft.to/lastmile_qr_scan"}, "is_disabled": 0, "fusion_lat": 0.0, "lat": 38.93427716666667, "is_reserved": 0}, {"lon": -76.9986085, "fusion_lon": 0.0, "bike_id": "ef09ccb65d10a2633deb7f5897afc780", "type": "electric_scooter", "name": "ef09ccb65d10a2633deb7f5897afc780", "rental_uris": {"android": "https://dc.lft.to/lastmile_qr_scan", "ios": "https://dc.lft.to/lastmile_qr_scan"}, "is_disabled": 0, "fusion_lat": 0.0, "lat": 38.89182616666667, "is_reserved": 0}, {"lon": -76.9518515, "fusion_lon": 0.0, "bike_id": "21040ffb6db06491d9e66e8a22889a52", "type": "electric_scooter", "name": "21040ffb6db06491d9e66e8a22889a52", "rental_uris": {"android": "https://dc.lft.to/lastmile_qr_scan", "ios": "https://dc.lft.to/lastmile_qr_scan"}, "is_disabled": 0, "fusion_lat": 0.0, "lat": 38.891342, "is_reserved": 0}, {"lon": -77.03654216666666, "fusion_lon": 0.0, "bike_id": "19d55a297b088207e257b3692f3671ff", "type": "electric_scooter", "name": "19d55a297b088207e257b3692f3671ff", "rental_uris": {"android": "https://dc.lft.to/lastmile_qr_scan", "ios": "https://dc.lft.to/lastmile_qr_scan"}, "is_disabled": 0, "fusion_lat": 0.0, "lat": 38.9221195, "is_reserved": 0}, {"lon": -77.04293266666667, "fusion_lon": 0.0, "bike_id": "f04ac93ccb554f44be588335c36d3644", "type": "electric_scooter", "name": "f04ac93ccb554f44be588335c36d3644", "rental_uris": {"android": "https://dc.lft.to/lastmile_qr_scan", "ios": "https://dc.lft.to/lastmile_qr_scan"}, "is_disabled": 0, "fusion_lat": 0.0, "lat": 38.90658666666667, "is_reserved": 0}, {"lon": -77.040151, "fusion_lon": 0.0, "bike_id": "3ce11cd75cb23f14d78e2433d57267c7", "type": "electric_bike", "name": "3ce11cd75cb23f14d78e2433d57267c7", "rental_uris": {"android": "https://dc.lft.to/lastmile_qr_scan", "ios": "https://dc.lft.to/lastmile_qr_scan"}, "is_disabled": 0, "fusion_lat": 0.0, "lat": 38.996381166666666, "is_reserved": 0}, {"lon": -77.00845916666667, "fusion_lon": 0.0, "bike_id": "80b9074e4024c910ce45598d54f1dd0e", "type": "electric_scooter", "name": "80b9074e4024c910ce45598d54f1dd0e", "rental_uris": {"android": "https://dc.lft.to/lastmile_qr_scan", "ios": "https://dc.lft.to/lastmile_qr_scan"}, "is_disabled": 0, "fusion_lat": 0.0, "lat": 38.91047916666667, "is_reserved": 0}, {"lon": -77.02658316666667, "fusion_lon": 0.0, "bike_id": "77b5531b6d210c4da1525ab222be98c7", "type": "electric_scooter", "name": "77b5531b6d210c4da1525ab222be98c7", "rental_uris": {"android": "https://dc.lft.to/lastmile_qr_scan", "ios": "https://dc.lft.to/lastmile_qr_scan"}, "is_disabled": 0, "fusion_lat": 0.0, "lat": 38.91700866666667, "is_reserved": 0}, {"lon": -77.04362866666666, "fusion_lon": 0.0, "bike_id": "9471eddc48ec42f18c82aa89b0f66eec", "type": "electric_scooter", "name": "9471eddc48ec42f18c82aa89b0f66eec", "rental_uris": {"android": "https://dc.lft.to/lastmile_qr_scan", "ios": "https://dc.lft.to/lastmile_qr_scan"}, "is_disabled": 0, "fusion_lat": 0.0, "lat": 38.89729716666667, "is_reserved": 0}, {"lon": -77.00622483333333, "fusion_lon": 0.0, "bike_id": "98c5ebb7799d13035ba42c9c29650810", "type": "electric_scooter", "name": "98c5ebb7799d13035ba42c9c29650810", "rental_uris": {"android": "https://dc.lft.to/lastmile_qr_scan", "ios": "https://dc.lft.to/lastmile_qr_scan"}, "is_disabled": 0, "fusion_lat": 0.0, "lat": 38.871745, "is_reserved": 0}, {"lon": -77.02650683333333, "fusion_lon": 0.0, "bike_id": "0d1fad8f564c0c3d39aa6e0a05424c4c", "type": "electric_scooter", "name": "0d1fad8f564c0c3d39aa6e0a05424c4c", "rental_uris": {"android": "https://dc.lft.to/lastmile_qr_scan", "ios": "https://dc.lft.to/lastmile_qr_scan"}, "is_disabled": 0, "fusion_lat": 0.0, "lat": 38.93866716666667, "is_reserved": 0}, {"lon": -77.02392383333333, "fusion_lon": 0.0, "bike_id": "ebd067cd32ac8c63ae4ac76f3379741d", "type": "electric_scooter", "name": "ebd067cd32ac8c63ae4ac76f3379741d", "rental_uris": {"android": "https://dc.lft.to/lastmile_qr_scan", "ios": "https://dc.lft.to/lastmile_qr_scan"}, "is_disabled": 0, "fusion_lat": 0.0, "lat": 38.89734083333333, "is_reserved": 0}, {"lon": -77.02764516666667, "fusion_lon": 0.0, "bike_id": "33b7ca1b59daa9ed91f937ecce8cde16", "type": "electric_scooter", "name": "33b7ca1b59daa9ed91f937ecce8cde16", "rental_uris": {"android": "https://dc.lft.to/lastmile_qr_scan", "ios": "https://dc.lft.to/lastmile_qr_scan"}, "is_disabled": 0, "fusion_lat": 0.0, "lat": 38.91708966666667, "is_reserved": 0}, {"lon": -77.007419, "fusion_lon": 0.0, "bike_id": "dd59472ee68510022f8c612d584bfb22", "type": "electric_scooter", "name": "dd59472ee68510022f8c612d584bfb22", "rental_uris": {"android": "https://dc.lft.to/lastmile_qr_scan", "ios": "https://dc.lft.to/lastmile_qr_scan"}, "is_disabled": 0, "fusion_lat": 0.0, "lat": 38.877332833333334, "is_reserved": 0}, {"lon": -77.000661, "fusion_lon": 0.0, "bike_id": "0ef93dbfa6b865b1014547ef861683a9", "type": "electric_scooter", "name": "0ef93dbfa6b865b1014547ef861683a9", "rental_uris": {"android": "https://dc.lft.to/lastmile_qr_scan", "ios": "https://dc.lft.to/lastmile_qr_scan"}, "is_disabled": 0, "fusion_lat": 0.0, "lat": 38.876846666666665, "is_reserved": 0}, {"lon": -77.0281715, "fusion_lon": 0.0, "bike_id": "6e4815d790353086ad07fc54abfc7d03", "type": "electric_scooter", "name": "6e4815d790353086ad07fc54abfc7d03", "rental_uris": {"android": "https://dc.lft.to/lastmile_qr_scan", "ios": "https://dc.lft.to/lastmile_qr_scan"}, "is_disabled": 0, "fusion_lat": 0.0, "lat": 38.9164255, "is_reserved": 0}, {"lon": -77.07459066666667, "fusion_lon": 0.0, "bike_id": "2109c258f0645f479452dfa5dc94e21a", "type": "electric_scooter", "name": "2109c258f0645f479452dfa5dc94e21a", "rental_uris": {"android": "https://dc.lft.to/lastmile_qr_scan", "ios": "https://dc.lft.to/lastmile_qr_scan"}, "is_disabled": 0, "fusion_lat": 0.0, "lat": 38.935583, "is_reserved": 0}, {"lon": -77.03374116666667, "fusion_lon": 0.0, "bike_id": "e927ebab6d28fe71df32017303b3a684", "type": "electric_scooter", "name": "e927ebab6d28fe71df32017303b3a684", "rental_uris": {"android": "https://dc.lft.to/lastmile_qr_scan", "ios": "https://dc.lft.to/lastmile_qr_scan"}, "is_disabled": 0, "fusion_lat": 0.0, "lat": 38.9214835, "is_reserved": 0}, {"lon": -77.053206, "fusion_lon": 0.0, "bike_id": "72ba3ca8d78581357f0e83b0ef248d8c", "type": "electric_scooter", "name": "72ba3ca8d78581357f0e83b0ef248d8c", "rental_uris": {"android": "https://dc.lft.to/lastmile_qr_scan", "ios": "https://dc.lft.to/lastmile_qr_scan"}, "is_disabled": 0, "fusion_lat": 0.0, "lat": 38.906421333333334, "is_reserved": 0}, {"lon": -76.9761375, "fusion_lon": 0.0, "bike_id": "2fdb9f790cdb80e81b1033f157d23b86", "type": "electric_scooter", "name": "2fdb9f790cdb80e81b1033f157d23b86", "rental_uris": {"android": "https://dc.lft.to/lastmile_qr_scan", "ios": "https://dc.lft.to/lastmile_qr_scan"}, "is_disabled": 0, "fusion_lat": 0.0, "lat": 38.892802833333334, "is_reserved": 0}, {"lon": -77.04056916666667, "fusion_lon": 0.0, "bike_id": "c8335abaf316c44d072a95255f325673", "type": "electric_scooter", "name": "c8335abaf316c44d072a95255f325673", "rental_uris": {"android": "https://dc.lft.to/lastmile_qr_scan", "ios": "https://dc.lft.to/lastmile_qr_scan"}, "is_disabled": 0, "fusion_lat": 0.0, "lat": 38.905893166666665, "is_reserved": 0}, {"lon": -77.03715716666666, "fusion_lon": 0.0, "bike_id": "a7e93fc79bba68b3b30f62db2928ab70", "type": "electric_scooter", "name": "a7e93fc79bba68b3b30f62db2928ab70", "rental_uris": {"android": "https://dc.lft.to/lastmile_qr_scan", "ios": "https://dc.lft.to/lastmile_qr_scan"}, "is_disabled": 0, "fusion_lat": 0.0, "lat": 38.903745, "is_reserved": 0}, {"lon": -77.02715566666667, "fusion_lon": 0.0, "bike_id": "fbb6b0a0dd6f621871465f146110a6ab", "type": "electric_scooter", "name": "fbb6b0a0dd6f621871465f146110a6ab", "rental_uris": {"android": "https://dc.lft.to/lastmile_qr_scan", "ios": "https://dc.lft.to/lastmile_qr_scan"}, "is_disabled": 0, "fusion_lat": 0.0, "lat": 38.9246365, "is_reserved": 0}, {"lon": -77.03278916666666, "fusion_lon": 0.0, "bike_id": "40039ea88ed876e9c51677319e1d16c7", "type": "electric_scooter", "name": "40039ea88ed876e9c51677319e1d16c7", "rental_uris": {"android": "https://dc.lft.to/lastmile_qr_scan", "ios": "https://dc.lft.to/lastmile_qr_scan"}, "is_disabled": 0, "fusion_lat": 0.0, "lat": 38.901319666666666, "is_reserved": 0}, {"lon": -77.0506315, "fusion_lon": 0.0, "bike_id": "7fb7c6bf5430798bdf20fdb3560f0549", "type": "electric_scooter", "name": "7fb7c6bf5430798bdf20fdb3560f0549", "rental_uris": {"android": "https://dc.lft.to/lastmile_qr_scan", "ios": "https://dc.lft.to/lastmile_qr_scan"}, "is_disabled": 0, "fusion_lat": 0.0, "lat": 38.905335, "is_reserved": 0}, {"lon": -77.007118, "fusion_lon": 0.0, "bike_id": "3ade06a01049672d55bbb4d07a097f8b", "type": "electric_scooter", "name": "3ade06a01049672d55bbb4d07a097f8b", "rental_uris": {"android": "https://dc.lft.to/lastmile_qr_scan", "ios": "https://dc.lft.to/lastmile_qr_scan"}, "is_disabled": 0, "fusion_lat": 0.0, "lat": 38.88486966666667, "is_reserved": 0}, {"lon": -77.010452, "fusion_lon": 0.0, "bike_id": "5ba81bc1f54648ea0c6342f5489a5cd7", "type": "electric_bike", "name": "5ba81bc1f54648ea0c6342f5489a5cd7", "rental_uris": {"android": "https://dc.lft.to/lastmile_qr_scan", "ios": "https://dc.lft.to/lastmile_qr_scan"}, "is_disabled": 0, "fusion_lat": 0.0, "lat": 38.9169335, "is_reserved": 0}, {"lon": -76.98877283333333, "fusion_lon": 0.0, "bike_id": "5486321c4dc80a841b85c4eba4065513", "type": "electric_scooter", "name": "5486321c4dc80a841b85c4eba4065513", "rental_uris": {"android": "https://dc.lft.to/lastmile_qr_scan", "ios": "https://dc.lft.to/lastmile_qr_scan"}, "is_disabled": 0, "fusion_lat": 0.0, "lat": 38.866561833333336, "is_reserved": 0}, {"lon": -77.04406366666667, "fusion_lon": 0.0, "bike_id": "d74dccb84c2ec793899ea24b4a58ec7b", "type": "electric_scooter", "name": "d74dccb84c2ec793899ea24b4a58ec7b", "rental_uris": {"android": "https://dc.lft.to/lastmile_qr_scan", "ios": "https://dc.lft.to/lastmile_qr_scan"}, "is_disabled": 0, "fusion_lat": 0.0, "lat": 38.93421566666667, "is_reserved": 0}, {"lon": -76.99701966666666, "fusion_lon": 0.0, "bike_id": "9240373df24cba0a7e54e12bc6c16edd", "type": "electric_scooter", "name": "9240373df24cba0a7e54e12bc6c16edd", "rental_uris": {"android": "https://dc.lft.to/lastmile_qr_scan", "ios": "https://dc.lft.to/lastmile_qr_scan"}, "is_disabled": 0, "fusion_lat": 0.0, "lat": 38.921933333333335, "is_reserved": 0}, {"lon": -76.9782465, "fusion_lon": 0.0, "bike_id": "19bae76dbab335bec97335ebce636251", "type": "electric_scooter", "name": "19bae76dbab335bec97335ebce636251", "rental_uris": {"android": "https://dc.lft.to/lastmile_qr_scan", "ios": "https://dc.lft.to/lastmile_qr_scan"}, "is_disabled": 0, "fusion_lat": 0.0, "lat": 38.898482333333334, "is_reserved": 0}, {"lon": -77.0338435, "fusion_lon": 0.0, "bike_id": "2260e1426f54cdda38125e76eff7e8d1", "type": "electric_scooter", "name": "2260e1426f54cdda38125e76eff7e8d1", "rental_uris": {"android": "https://dc.lft.to/lastmile_qr_scan", "ios": "https://dc.lft.to/lastmile_qr_scan"}, "is_disabled": 0, "fusion_lat": 0.0, "lat": 38.9236, "is_reserved": 0}, {"lon": -77.03452466666667, "fusion_lon": 0.0, "bike_id": "5a0c08ee9978133d20dfbd01a89db08a", "type": "electric_scooter", "name": "5a0c08ee9978133d20dfbd01a89db08a", "rental_uris": {"android": "https://dc.lft.to/lastmile_qr_scan", "ios": "https://dc.lft.to/lastmile_qr_scan"}, "is_disabled": 0, "fusion_lat": 0.0, "lat": 38.9072845, "is_reserved": 0}, {"lon": -77.02960966666667, "fusion_lon": 0.0, "bike_id": "6514e8b520d7236005a4ccb3b0b1b61d", "type": "electric_scooter", "name": "6514e8b520d7236005a4ccb3b0b1b61d", "rental_uris": {"android": "https://dc.lft.to/lastmile_qr_scan", "ios": "https://dc.lft.to/lastmile_qr_scan"}, "is_disabled": 0, "fusion_lat": 0.0, "lat": 38.923375166666666, "is_reserved": 0}, {"lon": -77.033335, "fusion_lon": 0.0, "bike_id": "312933de82171ce32f1d3415a01e0cd7", "type": "electric_scooter", "name": "312933de82171ce32f1d3415a01e0cd7", "rental_uris": {"android": "https://dc.lft.to/lastmile_qr_scan", "ios": "https://dc.lft.to/lastmile_qr_scan"}, "is_disabled": 0, "fusion_lat": 0.0, "lat": 38.8981895, "is_reserved": 0}, {"lon": -77.03277533333333, "fusion_lon": 0.0, "bike_id": "996a73c215cfd3f3631e74cd15208a48", "type": "electric_scooter", "name": "996a73c215cfd3f3631e74cd15208a48", "rental_uris": {"android": "https://dc.lft.to/lastmile_qr_scan", "ios": "https://dc.lft.to/lastmile_qr_scan"}, "is_disabled": 0, "fusion_lat": 0.0, "lat": 38.937759, "is_reserved": 0}, {"lon": -77.03051966666666, "fusion_lon": 0.0, "bike_id": "f4857256c43c7c65a6d493aa88a6ccb1", "type": "electric_scooter", "name": "f4857256c43c7c65a6d493aa88a6ccb1", "rental_uris": {"android": "https://dc.lft.to/lastmile_qr_scan", "ios": "https://dc.lft.to/lastmile_qr_scan"}, "is_disabled": 0, "fusion_lat": 0.0, "lat": 38.923749666666666, "is_reserved": 0}, {"lon": -77.22888733333333, "fusion_lon": 0.0, "bike_id": "e86fbefab27a0d899b4e9e67eb820b35", "type": "electric_bike", "name": "e86fbefab27a0d899b4e9e67eb820b35", "rental_uris": {"android": "https://dc.lft.to/lastmile_qr_scan", "ios": "https://dc.lft.to/lastmile_qr_scan"}, "is_disabled": 0, "fusion_lat": 0.0, "lat": 38.90960416666667, "is_reserved": 0}, {"lon": -77.01984783333333, "fusion_lon": 0.0, "bike_id": "d317406fe7dde07d563e192a406d212e", "type": "electric_scooter", "name": "d317406fe7dde07d563e192a406d212e", "rental_uris": {"android": "https://dc.lft.to/lastmile_qr_scan", "ios": "https://dc.lft.to/lastmile_qr_scan"}, "is_disabled": 0, "fusion_lat": 0.0, "lat": 38.9050635, "is_reserved": 0}, {"lon": -77.03217033333334, "fusion_lon": 0.0, "bike_id": "720e6b2806919a0815ffd641b4074c05", "type": "electric_scooter", "name": "720e6b2806919a0815ffd641b4074c05", "rental_uris": {"android": "https://dc.lft.to/lastmile_qr_scan", "ios": "https://dc.lft.to/lastmile_qr_scan"}, "is_disabled": 0, "fusion_lat": 0.0, "lat": 38.914067333333335, "is_reserved": 0}, {"lon": -77.01159583333333, "fusion_lon": 0.0, "bike_id": "542fc0525261f8a2ea47059bcda2bcf2", "type": "electric_scooter", "name": "542fc0525261f8a2ea47059bcda2bcf2", "rental_uris": {"android": "https://dc.lft.to/lastmile_qr_scan", "ios": "https://dc.lft.to/lastmile_qr_scan"}, "is_disabled": 0, "fusion_lat": 0.0, "lat": 38.89640333333333, "is_reserved": 0}, {"lon": -77.06116383333334, "fusion_lon": 0.0, "bike_id": "c4f66b360467cd649c804172372b40eb", "type": "electric_scooter", "name": "c4f66b360467cd649c804172372b40eb", "rental_uris": {"android": "https://dc.lft.to/lastmile_qr_scan", "ios": "https://dc.lft.to/lastmile_qr_scan"}, "is_disabled": 0, "fusion_lat": 0.0, "lat": 38.94343333333333, "is_reserved": 0}, {"lon": -77.02236366666666, "fusion_lon": 0.0, "bike_id": "291297c3a09a585a9528cd10a249df27", "type": "electric_scooter", "name": "291297c3a09a585a9528cd10a249df27", "rental_uris": {"android": "https://dc.lft.to/lastmile_qr_scan", "ios": "https://dc.lft.to/lastmile_qr_scan"}, "is_disabled": 0, "fusion_lat": 0.0, "lat": 38.92219633333333, "is_reserved": 0}, {"lon": -77.05622133333334, "fusion_lon": 0.0, "bike_id": "ba4c5f41e323e15c051fb96afcc29a93", "type": "electric_scooter", "name": "ba4c5f41e323e15c051fb96afcc29a93", "rental_uris": {"android": "https://dc.lft.to/lastmile_qr_scan", "ios": "https://dc.lft.to/lastmile_qr_scan"}, "is_disabled": 0, "fusion_lat": 0.0, "lat": 38.931754, "is_reserved": 0}, {"lon": -77.03149566666667, "fusion_lon": 0.0, "bike_id": "05a83a1b3eda6656862d43740581c876", "type": "electric_scooter", "name": "05a83a1b3eda6656862d43740581c876", "rental_uris": {"android": "https://dc.lft.to/lastmile_qr_scan", "ios": "https://dc.lft.to/lastmile_qr_scan"}, "is_disabled": 0, "fusion_lat": 0.0, "lat": 38.911191333333335, "is_reserved": 0}, {"lon": -76.9998205, "fusion_lon": 0.0, "bike_id": "2f9b4be03e53b7104b494d05990d2851", "type": "electric_scooter", "name": "2f9b4be03e53b7104b494d05990d2851", "rental_uris": {"android": "https://dc.lft.to/lastmile_qr_scan", "ios": "https://dc.lft.to/lastmile_qr_scan"}, "is_disabled": 0, "fusion_lat": 0.0, "lat": 38.879189833333335, "is_reserved": 0}, {"lon": -77.0067235, "fusion_lon": 0.0, "bike_id": "266d7af0c137df981e7e98850ef8d50d", "type": "electric_bike", "name": "266d7af0c137df981e7e98850ef8d50d", "rental_uris": {"android": "https://dc.lft.to/lastmile_qr_scan", "ios": "https://dc.lft.to/lastmile_qr_scan"}, "is_disabled": 0, "fusion_lat": 0.0, "lat": 38.945141, "is_reserved": 0}, {"lon": -76.99857833333333, "fusion_lon": 0.0, "bike_id": "91c7eaf6fa66f1977d82106ba69158bf", "type": "electric_scooter", "name": "91c7eaf6fa66f1977d82106ba69158bf", "rental_uris": {"android": "https://dc.lft.to/lastmile_qr_scan", "ios": "https://dc.lft.to/lastmile_qr_scan"}, "is_disabled": 0, "fusion_lat": 0.0, "lat": 38.908935166666666, "is_reserved": 0}, {"lon": -77.04231633333333, "fusion_lon": 0.0, "bike_id": "9b5765fd660a13a54b1c0159aed80c9f", "type": "electric_scooter", "name": "9b5765fd660a13a54b1c0159aed80c9f", "rental_uris": {"android": "https://dc.lft.to/lastmile_qr_scan", "ios": "https://dc.lft.to/lastmile_qr_scan"}, "is_disabled": 0, "fusion_lat": 0.0, "lat": 38.920541666666665, "is_reserved": 0}, {"lon": -77.01416933333333, "fusion_lon": 0.0, "bike_id": "fe86c1cf28a39100b581d29ec5a6c050", "type": "electric_scooter", "name": "fe86c1cf28a39100b581d29ec5a6c050", "rental_uris": {"android": "https://dc.lft.to/lastmile_qr_scan", "ios": "https://dc.lft.to/lastmile_qr_scan"}, "is_disabled": 0, "fusion_lat": 0.0, "lat": 38.892217333333335, "is_reserved": 0}, {"lon": -77.02878316666667, "fusion_lon": 0.0, "bike_id": "3fb59c701088d85fb57994c8888eeed2", "type": "electric_scooter", "name": "3fb59c701088d85fb57994c8888eeed2", "rental_uris": {"android": "https://dc.lft.to/lastmile_qr_scan", "ios": "https://dc.lft.to/lastmile_qr_scan"}, "is_disabled": 0, "fusion_lat": 0.0, "lat": 38.915539, "is_reserved": 0}, {"lon": -77.06392666666666, "fusion_lon": 0.0, "bike_id": "bb265ae1605ca5cc1a476591e238d794", "type": "electric_scooter", "name": "bb265ae1605ca5cc1a476591e238d794", "rental_uris": {"android": "https://dc.lft.to/lastmile_qr_scan", "ios": "https://dc.lft.to/lastmile_qr_scan"}, "is_disabled": 0, "fusion_lat": 0.0, "lat": 38.944082, "is_reserved": 0}, {"lon": -77.0281205, "fusion_lon": 0.0, "bike_id": "2564dd71d6b8d36df4c6272ad2942f69", "type": "electric_scooter", "name": "2564dd71d6b8d36df4c6272ad2942f69", "rental_uris": {"android": "https://dc.lft.to/lastmile_qr_scan", "ios": "https://dc.lft.to/lastmile_qr_scan"}, "is_disabled": 0, "fusion_lat": 0.0, "lat": 38.9089235, "is_reserved": 0}, {"lon": -77.03918466666667, "fusion_lon": 0.0, "bike_id": "7498cda5520ccf22fc4496db5826e788", "type": "electric_scooter", "name": "7498cda5520ccf22fc4496db5826e788", "rental_uris": {"android": "https://dc.lft.to/lastmile_qr_scan", "ios": "https://dc.lft.to/lastmile_qr_scan"}, "is_disabled": 0, "fusion_lat": 0.0, "lat": 38.903630666666665, "is_reserved": 0}, {"lon": -77.0135625, "fusion_lon": 0.0, "bike_id": "0e2ac40ea67e1cfbb48067cf83d0f151", "type": "electric_scooter", "name": "0e2ac40ea67e1cfbb48067cf83d0f151", "rental_uris": {"android": "https://dc.lft.to/lastmile_qr_scan", "ios": "https://dc.lft.to/lastmile_qr_scan"}, "is_disabled": 0, "fusion_lat": 0.0, "lat": 38.9125465, "is_reserved": 0}, {"lon": -77.05115183333334, "fusion_lon": 0.0, "bike_id": "ffae2dab40c0d630b71941bded95b064", "type": "electric_scooter", "name": "ffae2dab40c0d630b71941bded95b064", "rental_uris": {"android": "https://dc.lft.to/lastmile_qr_scan", "ios": "https://dc.lft.to/lastmile_qr_scan"}, "is_disabled": 0, "fusion_lat": 0.0, "lat": 38.906376333333334, "is_reserved": 0}, {"lon": -77.05003633333334, "fusion_lon": 0.0, "bike_id": "6fba36527ddc1cc4656a9837e2c4c7b8", "type": "electric_bike", "name": "6fba36527ddc1cc4656a9837e2c4c7b8", "rental_uris": {"android": "https://dc.lft.to/lastmile_qr_scan", "ios": "https://dc.lft.to/lastmile_qr_scan"}, "is_disabled": 0, "fusion_lat": 0.0, "lat": 38.83768166666667, "is_reserved": 0}, {"lon": -77.04520783333334, "fusion_lon": 0.0, "bike_id": "468fac2ff90b559e201273789797265e", "type": "electric_scooter", "name": "468fac2ff90b559e201273789797265e", "rental_uris": {"android": "https://dc.lft.to/lastmile_qr_scan", "ios": "https://dc.lft.to/lastmile_qr_scan"}, "is_disabled": 0, "fusion_lat": 0.0, "lat": 38.9185205, "is_reserved": 0}, {"lon": -76.93070833333333, "fusion_lon": 0.0, "bike_id": "61f26a4775699cac96c931f4e2e587a6", "type": "electric_scooter", "name": "61f26a4775699cac96c931f4e2e587a6", "rental_uris": {"android": "https://dc.lft.to/lastmile_qr_scan", "ios": "https://dc.lft.to/lastmile_qr_scan"}, "is_disabled": 0, "fusion_lat": 0.0, "lat": 38.901642333333335, "is_reserved": 0}, {"lon": -77.07956233333333, "fusion_lon": 0.0, "bike_id": "9c5e972286e3533c8a1f55b9582d04e7", "type": "electric_scooter", "name": "9c5e972286e3533c8a1f55b9582d04e7", "rental_uris": {"android": "https://dc.lft.to/lastmile_qr_scan", "ios": "https://dc.lft.to/lastmile_qr_scan"}, "is_disabled": 0, "fusion_lat": 0.0, "lat": 38.94563316666667, "is_reserved": 0}, {"lon": -77.010809, "fusion_lon": 0.0, "bike_id": "ad56a6004f8dbbbb0842f0c7fd0a0216", "type": "electric_bike", "name": "ad56a6004f8dbbbb0842f0c7fd0a0216", "rental_uris": {"android": "https://dc.lft.to/lastmile_qr_scan", "ios": "https://dc.lft.to/lastmile_qr_scan"}, "is_disabled": 0, "fusion_lat": 0.0, "lat": 38.873038666666666, "is_reserved": 0}, {"lon": -77.02842066666666, "fusion_lon": 0.0, "bike_id": "a7af9092b1f54962931f2eee16d7facc", "type": "electric_scooter", "name": "a7af9092b1f54962931f2eee16d7facc", "rental_uris": {"android": "https://dc.lft.to/lastmile_qr_scan", "ios": "https://dc.lft.to/lastmile_qr_scan"}, "is_disabled": 0, "fusion_lat": 0.0, "lat": 38.9169965, "is_reserved": 0}, {"lon": -77.01318033333334, "fusion_lon": 0.0, "bike_id": "dc13c4bcc99ebb1847bef8000a5ff412", "type": "electric_scooter", "name": "dc13c4bcc99ebb1847bef8000a5ff412", "rental_uris": {"android": "https://dc.lft.to/lastmile_qr_scan", "ios": "https://dc.lft.to/lastmile_qr_scan"}, "is_disabled": 0, "fusion_lat": 0.0, "lat": 38.90081683333333, "is_reserved": 0}, {"lon": -77.02693916666666, "fusion_lon": 0.0, "bike_id": "5635f846569e5dcf28429e434179c912", "type": "electric_scooter", "name": "5635f846569e5dcf28429e434179c912", "rental_uris": {"android": "https://dc.lft.to/lastmile_qr_scan", "ios": "https://dc.lft.to/lastmile_qr_scan"}, "is_disabled": 0, "fusion_lat": 0.0, "lat": 38.94978233333333, "is_reserved": 0}, {"lon": -77.03855583333333, "fusion_lon": 0.0, "bike_id": "31afd8e30447b843cfcc3088ac8b4963", "type": "electric_scooter", "name": "31afd8e30447b843cfcc3088ac8b4963", "rental_uris": {"android": "https://dc.lft.to/lastmile_qr_scan", "ios": "https://dc.lft.to/lastmile_qr_scan"}, "is_disabled": 0, "fusion_lat": 0.0, "lat": 38.9028365, "is_reserved": 0}, {"lon": -76.96528116666667, "fusion_lon": 0.0, "bike_id": "13dbeb40c6d2fa4b956f3d2b27fa478c", "type": "electric_scooter", "name": "13dbeb40c6d2fa4b956f3d2b27fa478c", "rental_uris": {"android": "https://dc.lft.to/lastmile_qr_scan", "ios": "https://dc.lft.to/lastmile_qr_scan"}, "is_disabled": 0, "fusion_lat": 0.0, "lat": 38.87627583333333, "is_reserved": 0}, {"lon": -76.97548483333334, "fusion_lon": 0.0, "bike_id": "d2158d2162b9cafe409337d3460fdc1e", "type": "electric_scooter", "name": "d2158d2162b9cafe409337d3460fdc1e", "rental_uris": {"android": "https://dc.lft.to/lastmile_qr_scan", "ios": "https://dc.lft.to/lastmile_qr_scan"}, "is_disabled": 0, "fusion_lat": 0.0, "lat": 38.90324016666667, "is_reserved": 0}, {"lon": -77.03047666666667, "fusion_lon": 0.0, "bike_id": "812683f88779f1afeecef91ccdb1b279", "type": "electric_scooter", "name": "812683f88779f1afeecef91ccdb1b279", "rental_uris": {"android": "https://dc.lft.to/lastmile_qr_scan", "ios": "https://dc.lft.to/lastmile_qr_scan"}, "is_disabled": 0, "fusion_lat": 0.0, "lat": 38.916860166666666, "is_reserved": 0}, {"lon": -76.9861175, "fusion_lon": 0.0, "bike_id": "13172fd3a43dedce6748a7316cdae4fc", "type": "electric_scooter", "name": "13172fd3a43dedce6748a7316cdae4fc", "rental_uris": {"android": "https://dc.lft.to/lastmile_qr_scan", "ios": "https://dc.lft.to/lastmile_qr_scan"}, "is_disabled": 0, "fusion_lat": 0.0, "lat": 38.882894666666665, "is_reserved": 0}, {"lon": -76.98564683333333, "fusion_lon": 0.0, "bike_id": "0e6de1f670b60db00dc2a6abb7867f33", "type": "electric_scooter", "name": "0e6de1f670b60db00dc2a6abb7867f33", "rental_uris": {"android": "https://dc.lft.to/lastmile_qr_scan", "ios": "https://dc.lft.to/lastmile_qr_scan"}, "is_disabled": 0, "fusion_lat": 0.0, "lat": 38.8668105, "is_reserved": 0}, {"lon": -77.03576166666667, "fusion_lon": 0.0, "bike_id": "3df42a7069b99a3a75ff26df89b55913", "type": "electric_scooter", "name": "3df42a7069b99a3a75ff26df89b55913", "rental_uris": {"android": "https://dc.lft.to/lastmile_qr_scan", "ios": "https://dc.lft.to/lastmile_qr_scan"}, "is_disabled": 0, "fusion_lat": 0.0, "lat": 38.90374466666667, "is_reserved": 0}, {"lon": -76.98604950000001, "fusion_lon": 0.0, "bike_id": "624637961aa74398091ef35f24529544", "type": "electric_scooter", "name": "624637961aa74398091ef35f24529544", "rental_uris": {"android": "https://dc.lft.to/lastmile_qr_scan", "ios": "https://dc.lft.to/lastmile_qr_scan"}, "is_disabled": 0, "fusion_lat": 0.0, "lat": 38.900140666666665, "is_reserved": 0}, {"lon": -77.02092166666667, "fusion_lon": 0.0, "bike_id": "5bd6dfd6f2ba47c72a27a0d0d1a265fe", "type": "electric_scooter", "name": "5bd6dfd6f2ba47c72a27a0d0d1a265fe", "rental_uris": {"android": "https://dc.lft.to/lastmile_qr_scan", "ios": "https://dc.lft.to/lastmile_qr_scan"}, "is_disabled": 0, "fusion_lat": 0.0, "lat": 38.88183566666667, "is_reserved": 0}, {"lon": -76.94641033333333, "fusion_lon": 0.0, "bike_id": "8182730cfd93c8d5a0086862c6f97278", "type": "electric_scooter", "name": "8182730cfd93c8d5a0086862c6f97278", "rental_uris": {"android": "https://dc.lft.to/lastmile_qr_scan", "ios": "https://dc.lft.to/lastmile_qr_scan"}, "is_disabled": 0, "fusion_lat": 0.0, "lat": 38.89860616666667, "is_reserved": 0}, {"lon": -77.05418016666667, "fusion_lon": 0.0, "bike_id": "273a59968e02743c3b4c61d716f1d1a6", "type": "electric_bike", "name": "273a59968e02743c3b4c61d716f1d1a6", "rental_uris": {"android": "https://dc.lft.to/lastmile_qr_scan", "ios": "https://dc.lft.to/lastmile_qr_scan"}, "is_disabled": 0, "fusion_lat": 0.0, "lat": 38.935256333333335, "is_reserved": 0}, {"lon": -77.04027766666667, "fusion_lon": 0.0, "bike_id": "79aa87064b52dc3431f8f118a9f2225c", "type": "electric_scooter", "name": "79aa87064b52dc3431f8f118a9f2225c", "rental_uris": {"android": "https://dc.lft.to/lastmile_qr_scan", "ios": "https://dc.lft.to/lastmile_qr_scan"}, "is_disabled": 0, "fusion_lat": 0.0, "lat": 38.921702833333335, "is_reserved": 0}, {"lon": -77.01643316666667, "fusion_lon": 0.0, "bike_id": "a15dbf89cfb20e82ebc3364bd0ede91a", "type": "electric_scooter", "name": "a15dbf89cfb20e82ebc3364bd0ede91a", "rental_uris": {"android": "https://dc.lft.to/lastmile_qr_scan", "ios": "https://dc.lft.to/lastmile_qr_scan"}, "is_disabled": 0, "fusion_lat": 0.0, "lat": 38.88106466666667, "is_reserved": 0}, {"lon": -77.0435445, "fusion_lon": 0.0, "bike_id": "8d860636e70b8fc1b57571b40b08cb79", "type": "electric_scooter", "name": "8d860636e70b8fc1b57571b40b08cb79", "rental_uris": {"android": "https://dc.lft.to/lastmile_qr_scan", "ios": "https://dc.lft.to/lastmile_qr_scan"}, "is_disabled": 0, "fusion_lat": 0.0, "lat": 38.900333, "is_reserved": 0}, {"lon": -77.03827983333333, "fusion_lon": 0.0, "bike_id": "3ca5f98bf36107614d96669e701c51af", "type": "electric_scooter", "name": "3ca5f98bf36107614d96669e701c51af", "rental_uris": {"android": "https://dc.lft.to/lastmile_qr_scan", "ios": "https://dc.lft.to/lastmile_qr_scan"}, "is_disabled": 0, "fusion_lat": 0.0, "lat": 38.90794916666667, "is_reserved": 0}, {"lon": -77.00211983333334, "fusion_lon": 0.0, "bike_id": "5740b584a6ff91fe7bed050d4f80d8db", "type": "electric_scooter", "name": "5740b584a6ff91fe7bed050d4f80d8db", "rental_uris": {"android": "https://dc.lft.to/lastmile_qr_scan", "ios": "https://dc.lft.to/lastmile_qr_scan"}, "is_disabled": 0, "fusion_lat": 0.0, "lat": 38.914585833333334, "is_reserved": 0}, {"lon": -77.02204366666666, "fusion_lon": 0.0, "bike_id": "43c4d0f457748b7bbc3226e36e16e0a2", "type": "electric_scooter", "name": "43c4d0f457748b7bbc3226e36e16e0a2", "rental_uris": {"android": "https://dc.lft.to/lastmile_qr_scan", "ios": "https://dc.lft.to/lastmile_qr_scan"}, "is_disabled": 0, "fusion_lat": 0.0, "lat": 38.924681166666666, "is_reserved": 0}, {"lon": -77.044196, "fusion_lon": 0.0, "bike_id": "8d55123d99b40da02b944c76221e6c36", "type": "electric_scooter", "name": "8d55123d99b40da02b944c76221e6c36", "rental_uris": {"android": "https://dc.lft.to/lastmile_qr_scan", "ios": "https://dc.lft.to/lastmile_qr_scan"}, "is_disabled": 0, "fusion_lat": 0.0, "lat": 38.8940545, "is_reserved": 0}, {"lon": -76.98000016666667, "fusion_lon": 0.0, "bike_id": "fc1b43a8bf019f322fc6bd9c46ce9da9", "type": "electric_scooter", "name": "fc1b43a8bf019f322fc6bd9c46ce9da9", "rental_uris": {"android": "https://dc.lft.to/lastmile_qr_scan", "ios": "https://dc.lft.to/lastmile_qr_scan"}, "is_disabled": 0, "fusion_lat": 0.0, "lat": 38.90683, "is_reserved": 0},