{"data": {"bikes": [{"fusion_lat": 0.0, "type": "electric_scooter", "name": "369020e43c8fa54308160b6605684397", "fusion_lon": 0.0, "bike_id": "369020e43c8fa54308160b6605684397", "is_reserved": 0, "rental_uris": {"android": "https://dc.lft.to/lastmile_qr_scan", "ios": "https://dc.lft.to/lastmile_qr_scan"}, "lat": 38.8519565, "is_disabled": 0, "lon": -76.97073866666666}, {"fusion_lat": 0.0, "type": "electric_scooter", "name": "4e545d17093c15f661a8ccfa899f5f90", "fusion_lon": 0.0, "bike_id": "4e545d17093c15f661a8ccfa899f5f90", "is_reserved": 0, "rental_uris": {"android": "https://dc.lft.to/lastmile_qr_scan", "ios": "https://dc.lft.to/lastmile_qr_scan"}, "lat": 38.9215495, "is_disabled": 0, "lon": -77.02087633333333}, {"fusion_lat": 0.0, "type": "electric_scooter", "name": "8dea63e54433128875129dc739024537", "fusion_lon": 0.0, "bike_id": "8dea63e54433128875129dc739024537", "is_reserved": 0, "rental_uris": {"android": "https://dc.lft.to/lastmile_qr_scan", "ios": "https://dc.lft.to/lastmile_qr_scan"}, "lat": 38.9199595, "is_disabled": 0, "lon": -77.02142183333333}, {"fusion_lat": 0.0, "type": "electric_scooter", "name": "b031102474e5dac2528f2ba04ff36627", "fusion_lon": 0.0, "bike_id": "b031102474e5dac2528f2ba04ff36627", "is_reserved": 0, "rental_uris": {"android": "https://dc.lft.to/lastmile_qr_scan", "ios": "https://dc.lft.to/lastmile_qr_scan"}, "lat": 38.917022833333334, "is_disabled": 0, "lon": -77.0334895}, {"fusion_lat": 0.0, "type": "electric_scooter", "name": "64e21fa967c11ac138dbaf27e032ae3b", "fusion_lon": 0.0, "bike_id": "64e21fa967c11ac138dbaf27e032ae3b", "is_reserved": 0, "rental_uris": {"android": "https://dc.lft.to/lastmile_qr_scan", "ios": "https://dc.lft.to/lastmile_qr_scan"}, "lat": 38.90221283333333, "is_disabled": 0, "lon": -77.04508716666666}, {"fusion_lat": 0.0, "type": "electric_scooter", "name": "aa0b4856181e67cd95351d38588f0979", "fusion_lon": 0.0, "bike_id": "aa0b4856181e67cd95351d38588f0979", "is_reserved": 0, "rental_uris": {"android": "https://dc.lft.to/lastmile_qr_scan", "ios": "https://dc.lft.to/lastmile_qr_scan"}, "lat": 38.893987333333335, "is_disabled": 0, "lon": -76.946331}, {"fusion_lat": 0.0, "type": "electric_scooter", "name": "12a98f97209f978ea475d606c940875a", "fusion_lon": 0.0, "bike_id": "12a98f97209f978ea475d606c940875a", "is_reserved": 0, "rental_uris": {"android": "https://dc.lft.to/lastmile_qr_scan", "ios": "https://dc.lft.to/lastmile_qr_scan"}, "lat": 38.9063075, "is_disabled": 0, "lon": -77.03431333333333}, {"fusion_lat": 0.0, "type": "electric_scooter", "name": "faf52fbe9d79c732073bd6247926749d", "fusion_lon": 0.0, "bike_id": "faf52fbe9d79c732073bd6247926749d", "is_reserved": 0, "rental_uris": {"android": "https://dc.lft.to/lastmile_qr_scan", "ios": "https://dc.lft.to/lastmile_qr_scan"}, "lat": 38.913917166666664, "is_disabled": 0, "lon": -77.04490566666666}, {"fusion_lat": 0.0, "type": "electric_scooter", "name": "4adece7ea5ac871cd594ed596874de6d", "fusion_lon": 0.0, "bike_id": "4adece7ea5ac871cd594ed596874de6d", "is_reserved": 0, "rental_uris": {"android": "https://dc.lft.to/lastmile_qr_scan", "ios": "https://dc.lft.to/lastmile_qr_scan"}, "lat": 38.91676666666667, "is_disabled": 0, "lon": -77.02969633333333}, {"fusion_lat": 0.0, "type": "electric_scooter", "name": "0b4c6b5f4193dc2a0978477f9b710438", "fusion_lon": 0.0, "bike_id": "0b4c6b5f4193dc2a0978477f9b710438", "is_reserved": 0, "rental_uris": {"android": "https://dc.lft.to/lastmile_qr_scan", "ios": "https://dc.lft.to/lastmile_qr_scan"}, "lat": 38.913541, "is_disabled": 0, "lon": -77.04580683333333}, {"fusion_lat": 0.0, "type": "electric_bike", "name": "513a1afb1e96bcc53bee1143e0754cdd", "fusion_lon": 0.0, "bike_id": "513a1afb1e96bcc53bee1143e0754cdd", "is_reserved": 0, "rental_uris": {"android": "https://dc.lft.to/lastmile_qr_scan", "ios": "https://dc.lft.to/lastmile_qr_scan"}, "lat": 38.922686166666665, "is_disabled": 0, "lon": -77.02226633333333}, {"fusion_lat": 0.0, "type": "electric_bike", "name": "1f40e88465ed6e65ad5684badef6cd0d", "fusion_lon": 0.0, "bike_id": "1f40e88465ed6e65ad5684badef6cd0d", "is_reserved": 0, "rental_uris": {"android": "https://dc.lft.to/lastmile_qr_scan", "ios": "https://dc.lft.to/lastmile_qr_scan"}, "lat": 38.981536, "is_disabled": 0, "lon": -77.02646}, {"fusion_lat": 0.0, "type": "electric_bike", "name": "480dd7fb7076ba7cee3fcc3ab6514f12", "fusion_lon": 0.0, "bike_id": "480dd7fb7076ba7cee3fcc3ab6514f12", "is_reserved": 0, "rental_uris": {"android": "https://dc.lft.to/lastmile_qr_scan", "ios": "https://dc.lft.to/lastmile_qr_scan"}, "lat": 38.85935216666667, "is_disabled": 0, "lon": -77.118334}, {"fusion_lat": 0.0, "type": "electric_scooter", "name": "1a9ff3dd6f3d0b9045a3bdd9992dcf4d", "fusion_lon": 0.0, "bike_id": "1a9ff3dd6f3d0b9045a3bdd9992dcf4d", "is_reserved": 0, "rental_uris": {"android": "https://dc.lft.to/lastmile_qr_scan", "ios": "https://dc.lft.to/lastmile_qr_scan"}, "lat": 38.94983416666667, "is_disabled": 0, "lon": -77.02710333333333}, {"fusion_lat": 0.0, "type": "electric_scooter", "name": "5f5a651a49366e87271c7f9dfcad714f", "fusion_lon": 0.0, "bike_id": "5f5a651a49366e87271c7f9dfcad714f", "is_reserved": 0, "rental_uris": {"android": "https://dc.lft.to/lastmile_qr_scan", "ios": "https://dc.lft.to/lastmile_qr_scan"}, "lat": 38.88709866666667, "is_disabled": 0, "lon": -77.022057}, {"fusion_lat": 0.0, "type": "electric_scooter", "name": "2bcb56c56c3c9c55e1066219e272c4e0", "fusion_lon": 0.0, "bike_id": "2bcb56c56c3c9c55e1066219e272c4e0", "is_reserved": 0, "rental_uris": {"android": "https://dc.lft.to/lastmile_qr_scan", "ios": "https://dc.lft.to/lastmile_qr_scan"}, "lat": 38.86466583333333, "is_disabled": 0, "lon": -76.98231333333334}, {"fusion_lat": 0.0, "type": "electric_scooter", "name": "94f5a176ef4956f9071fc32399bf7e3d", "fusion_lon": 0.0, "bike_id": "94f5a176ef4956f9071fc32399bf7e3d", "is_reserved": 0, "rental_uris": {"android": "https://dc.lft.to/lastmile_qr_scan", "ios": "https://dc.lft.to/lastmile_qr_scan"}, "lat": 38.886103, "is_disabled": 0, "lon": -77.00137166666667}, {"fusion_lat": 0.0, "type": "electric_scooter", "name": "aa68d30e07ef282d9ef59a46ca0f6f78", "fusion_lon": 0.0, "bike_id": "aa68d30e07ef282d9ef59a46ca0f6f78", "is_reserved": 0, "rental_uris": {"android": "https://dc.lft.to/lastmile_qr_scan", "ios": "https://dc.lft.to/lastmile_qr_scan"}, "lat": 38.92143266666667, "is_disabled": 0, "lon": -77.0338135}, {"fusion_lat": 0.0, "type": "electric_scooter", "name": "7af6ed70c597f7f99ab7d3dcb7565df1", "fusion_lon": 0.0, "bike_id": "7af6ed70c597f7f99ab7d3dcb7565df1", "is_reserved": 0, "rental_uris": {"android": "https://dc.lft.to/lastmile_qr_scan", "ios": "https://dc.lft.to/lastmile_qr_scan"}, "lat": 38.898771333333336, "is_disabled": 0, "lon": -76.9318865}, {"fusion_lat": 0.0, "type": "electric_bike", "name": "53e674c3680f53adc93ec3f0e2908537", "fusion_lon": 0.0, "bike_id": "53e674c3680f53adc93ec3f0e2908537", "is_reserved": 0, "rental_uris": {"android": "https://dc.lft.to/lastmile_qr_scan", "ios": "https://dc.lft.to/lastmile_qr_scan"}, "lat": 38.9575895, "is_disabled": 0, "lon": -77.00712066666667}, {"fusion_lat": 0.0, "type": "electric_scooter", "name": "798530d9c93da291ca88127c8bfedbe5", "fusion_lon": 0.0, "bike_id": "798530d9c93da291ca88127c8bfedbe5", "is_reserved": 0, "rental_uris": {"android": "https://dc.lft.to/lastmile_qr_scan", "ios": "https://dc.lft.to/lastmile_qr_scan"}, "lat": 38.92505366666666, "is_disabled": 0, "lon": -77.00223766666667}, {"fusion_lat": 0.0, "type": "electric_scooter", "name": "8d08d6b85cb055aa69ac3c5c761f0fd4", "fusion_lon": 0.0, "bike_id": "8d08d6b85cb055aa69ac3c5c761f0fd4", "is_reserved": 0, "rental_uris": {"android": "https://dc.lft.to/lastmile_qr_scan", "ios": "https://dc.lft.to/lastmile_qr_scan"}, "lat": 38.87184533333333, "is_disabled": 0, "lon": -77.00583883333333}, {"fusion_lat": 0.0, "type": "electric_scooter", "name": "7224b5c661852e1c22db7e4cc13c4dca", "fusion_lon": 0.0, "bike_id": "7224b5c661852e1c22db7e4cc13c4dca", "is_reserved": 0, "rental_uris": {"android": "https://dc.lft.to/lastmile_qr_scan", "ios": "https://dc.lft.to/lastmile_qr_scan"}, "lat": 38.86505066666667, "is_disabled": 0, "lon": -76.99}, {"fusion_lat": 0.0, "type": "electric_scooter", "name": "b33b1f6d101afa206283af1dfece9762", "fusion_lon": 0.0, "bike_id": "b33b1f6d101afa206283af1dfece9762", "is_reserved": 0, "rental_uris": {"android": "https://dc.lft.to/lastmile_qr_scan", "ios": "https://dc.lft.to/lastmile_qr_scan"}, "lat": 38.94199716666667, "is_disabled": 0, "lon": -77.0250225}, {"fusion_lat": 0.0, "type": "electric_scooter", "name": "39e68c917f39d246f68adb57cfd29667", "fusion_lon": 0.0, "bike_id": "39e68c917f39d246f68adb57cfd29667", "is_reserved": 0, "rental_uris": {"android": "https://dc.lft.to/lastmile_qr_scan", "ios": "https://dc.lft.to/lastmile_qr_scan"}, "lat": 38.949877, "is_disabled": 0, "lon": -77.02703216666667}, {"fusion_lat": 0.0, "type": "electric_scooter", "name": "fa18b051254f92f75c48ebae3f7cf342", "fusion_lon": 0.0, "bike_id": "fa18b051254f92f75c48ebae3f7cf342", "is_reserved": 0, "rental_uris": {"android": "https://dc.lft.to/lastmile_qr_scan", "ios": "https://dc.lft.to/lastmile_qr_scan"}, "lat": 38.905286333333336, "is_disabled": 0, "lon": -77.05005633333333}, {"fusion_lat": 0.0, "type": "electric_scooter", "name": "c24243719e7b9eea147c761e757376d3", "fusion_lon": 0.0, "bike_id": "c24243719e7b9eea147c761e757376d3", "is_reserved": 0, "rental_uris": {"android": "https://dc.lft.to/lastmile_qr_scan", "ios": "https://dc.lft.to/lastmile_qr_scan"}, "lat": 38.91126933333334, "is_disabled": 0, "lon": -77.04422066666666}, {"fusion_lat": 0.0, "type": "electric_scooter", "name": "a668ba791f58bbb30789bb453efcaedf", "fusion_lon": 0.0, "bike_id": "a668ba791f58bbb30789bb453efcaedf", "is_reserved": 0, "rental_uris": {"android": "https://dc.lft.to/lastmile_qr_scan", "ios": "https://dc.lft.to/lastmile_qr_scan"}, "lat": 38.89892, "is_disabled": 0, "lon": -77.03285766666667}, {"fusion_lat": 0.0, "type": "electric_scooter", "name": "4347f8ac6b39e8ab3b03fa13c419bb2a", "fusion_lon": 0.0, "bike_id": "4347f8ac6b39e8ab3b03fa13c419bb2a", "is_reserved": 0, "rental_uris": {"android": "https://dc.lft.to/lastmile_qr_scan", "ios": "https://dc.lft.to/lastmile_qr_scan"}, "lat": 38.88616066666667, "is_disabled": 0, "lon": -77.01990933333333}, {"fusion_lat": 0.0, "type": "electric_scooter", "name": "af01a0c19cd87211bc3d3f4c725ac6c8", "fusion_lon": 0.0, "bike_id": "af01a0c19cd87211bc3d3f4c725ac6c8", "is_reserved": 0, "rental_uris": {"android": "https://dc.lft.to/lastmile_qr_scan", "ios": "https://dc.lft.to/lastmile_qr_scan"}, "lat": 38.89674216666667, "is_disabled": 0, "lon": -76.9476645}, {"fusion_lat": 0.0, "type": "electric_scooter", "name": "c0b8448105dd5cbccddaf57c9632a37a", "fusion_lon": 0.0, "bike_id": "c0b8448105dd5cbccddaf57c9632a37a", "is_reserved": 0, "rental_uris": {"android": "https://dc.lft.to/lastmile_qr_scan", "ios": "https://dc.lft.to/lastmile_qr_scan"}, "lat": 38.910417333333335, "is_disabled": 0, "lon": -77.04415916666666}, {"fusion_lat": 0.0, "type": "electric_scooter", "name": "482b5653180e5c6a38a202d384a00b29", "fusion_lon": 0.0, "bike_id": "482b5653180e5c6a38a202d384a00b29", "is_reserved": 0, "rental_uris": {"android": "https://dc.lft.to/lastmile_qr_scan", "ios": "https://dc.lft.to/lastmile_qr_scan"}, "lat": 38.88330366666667, "is_disabled": 0, "lon": -77.01746983333334}, {"fusion_lat": 0.0, "type": "electric_scooter", "name": "6a8001a8844281d7f7a2924d6452cf3a", "fusion_lon": 0.0, "bike_id": "6a8001a8844281d7f7a2924d6452cf3a", "is_reserved": 0, "rental_uris": {"android": "https://dc.lft.to/lastmile_qr_scan", "ios": "https://dc.lft.to/lastmile_qr_scan"}, "lat": 38.922318833333335, "is_disabled": 0, "lon": -77.02337566666667}, {"fusion_lat": 0.0, "type": "electric_scooter", "name": "af88727392a5beab4e6d87123427a759", "fusion_lon": 0.0, "bike_id": "af88727392a5beab4e6d87123427a759", "is_reserved": 0, "rental_uris": {"android": "https://dc.lft.to/lastmile_qr_scan", "ios": "https://dc.lft.to/lastmile_qr_scan"}, "lat": 38.92764566666666, "is_disabled": 0, "lon": -77.02791816666667}, {"fusion_lat": 0.0, "type": "electric_scooter", "name": "51b564da4b15e88de10c2f98bee2ac2b", "fusion_lon": 0.0, "bike_id": "51b564da4b15e88de10c2f98bee2ac2b", "is_reserved": 0, "rental_uris": {"android": "https://dc.lft.to/lastmile_qr_scan", "ios": "https://dc.lft.to/lastmile_qr_scan"}, "lat": 38.9359255, "is_disabled": 0, "lon": -77.05851016666666}, {"fusion_lat": 0.0, "type": "electric_scooter", "name": "e8c1f41d7e1f3471b92ebe01a3a25ec2", "fusion_lon": 0.0, "bike_id": "e8c1f41d7e1f3471b92ebe01a3a25ec2", "is_reserved": 0, "rental_uris": {"android": "https://dc.lft.to/lastmile_qr_scan", "ios": "https://dc.lft.to/lastmile_qr_scan"}, "lat": 38.92096866666667, "is_disabled": 0, "lon": -77.03275933333333}, {"fusion_lat": 0.0, "type": "electric_scooter", "name": "6c350a633e6dba2885b3a6bc6ae7f3eb", "fusion_lon": 0.0, "bike_id": "6c350a633e6dba2885b3a6bc6ae7f3eb", "is_reserved": 0, "rental_uris": {"android": "https://dc.lft.to/lastmile_qr_scan", "ios": "https://dc.lft.to/lastmile_qr_scan"}, "lat": 38.864133333333335, "is_disabled": 0, "lon": -76.974308}, {"fusion_lat": 0.0, "type": "electric_scooter", "name": "294da317a4ef8bcbebbad1d81e37e0a5", "fusion_lon": 0.0, "bike_id": "294da317a4ef8bcbebbad1d81e37e0a5", "is_reserved": 0, "rental_uris": {"android": "https://dc.lft.to/lastmile_qr_scan", "ios": "https://dc.lft.to/lastmile_qr_scan"}, "lat": 38.864444, "is_disabled": 0, "lon": -76.97754366666666}, {"fusion_lat": 0.0, "type": "electric_scooter", "name": "042e5763349c071708983dcad68e2d4e", "fusion_lon": 0.0, "bike_id": "042e5763349c071708983dcad68e2d4e", "is_reserved": 0, "rental_uris": {"android": "https://dc.lft.to/lastmile_qr_scan", "ios": "https://dc.lft.to/lastmile_qr_scan"}, "lat": 38.903783833333335, "is_disabled": 0, "lon": -77.04482983333334}, {"fusion_lat": 0.0, "type": "electric_bike", "name": "bc21fe1b5e91fdb6e91e4e4debe55492", "fusion_lon": 0.0, "bike_id": "bc21fe1b5e91fdb6e91e4e4debe55492", "is_reserved": 0, "rental_uris": {"android": "https://dc.lft.to/lastmile_qr_scan", "ios": "https://dc.lft.to/lastmile_qr_scan"}, "lat": 39.024333166666665, "is_disabled": 0, "lon": -77.13102933333333}, {"fusion_lat": 0.0, "type": "electric_scooter", "name": "971f47455c6ce360099954075e49a45c", "fusion_lon": 0.0, "bike_id": "971f47455c6ce360099954075e49a45c", "is_reserved": 0, "rental_uris": {"android": "https://dc.lft.to/lastmile_qr_scan", "ios": "https://dc.lft.to/lastmile_qr_scan"}, "lat": 38.91184483333333, "is_disabled": 0, "lon": -77.03818966666667}, {"fusion_lat": 0.0, "type": "electric_scooter", "name": "565f14e059ae12c94fdf4a22ecebee9d", "fusion_lon": 0.0, "bike_id": "565f14e059ae12c94fdf4a22ecebee9d", "is_reserved": 0, "rental_uris": {"android": "https://dc.lft.to/lastmile_qr_scan", "ios": "https://dc.lft.to/lastmile_qr_scan"}, "lat": 38.88704166666667, "is_disabled": 0, "lon": -77.01367266666666}, {"fusion_lat": 0.0, "type": "electric_bike", "name": "44800d015ae4b43f39d31943b548867c", "fusion_lon": 0.0, "bike_id": "44800d015ae4b43f39d31943b548867c", "is_reserved": 0, "rental_uris": {"android": "https://dc.lft.to/lastmile_qr_scan", "ios": "https://dc.lft.to/lastmile_qr_scan"}, "lat": 38.94783833333334, "is_disabled": 0, "lon": -76.97212683333333}, {"fusion_lat": 0.0, "type": "electric_scooter", "name": "65c30c447949e97aa80257d1b8ffb758", "fusion_lon": 0.0, "bike_id": "65c30c447949e97aa80257d1b8ffb758", "is_reserved": 0, "rental_uris": {"android": "https://dc.lft.to/lastmile_qr_scan", "ios": "https://dc.lft.to/lastmile_qr_scan"}, "lat": 38.8625705, "is_disabled": 0, "lon": -76.99611116666667}, {"fusion_lat": 0.0, "type": "electric_scooter", "name": "52cb6551a64870e7ea7162aa5e015d5d", "fusion_lon": 0.0, "bike_id": "52cb6551a64870e7ea7162aa5e015d5d", "is_reserved": 0, "rental_uris": {"android": "https://dc.lft.to/lastmile_qr_scan", "ios": "https://dc.lft.to/lastmile_qr_scan"}, "lat": 38.9024145, "is_disabled": 0, "lon": -77.01513633333333}, {"fusion_lat": 0.0, "type": "electric_scooter", "name": "987dda4f3e70cd303132bb3c0b8682ef", "fusion_lon": 0.0, "bike_id": "987dda4f3e70cd303132bb3c0b8682ef", "is_reserved": 0, "rental_uris": {"android": "https://dc.lft.to/lastmile_qr_scan", "ios": "https://dc.lft.to/lastmile_qr_scan"}, "lat": 38.90211566666667, "is_disabled": 0, "lon": -77.02329216666666}, {"fusion_lat": 0.0, "type": "electric_scooter", "name": "5023fc75933155dc6afda6a1f409cbf3", "fusion_lon": 0.0, "bike_id": "5023fc75933155dc6afda6a1f409cbf3", "is_reserved": 0, "rental_uris": {"android": "https://dc.lft.to/lastmile_qr_scan", "ios": "https://dc.lft.to/lastmile_qr_scan"}, "lat": 38.89467633333334, "is_disabled": 0, "lon": -77.01730033333334}, {"fusion_lat": 0.0, "type": "electric_scooter", "name": "b8bc38a414eb13276c2f11ff6b97b0ea", "fusion_lon": 0.0, "bike_id": "b8bc38a414eb13276c2f11ff6b97b0ea", "is_reserved": 0, "rental_uris": {"android": "https://dc.lft.to/lastmile_qr_scan", "ios": "https://dc.lft.to/lastmile_qr_scan"}, "lat": 38.9086125, "is_disabled": 0, "lon": -77.07094033333334}, {"fusion_lat": 0.0, "type": "electric_scooter", "name": "108f70876f00b59c8fdd873857801f89", "fusion_lon": 0.0, "bike_id": "108f70876f00b59c8fdd873857801f89", "is_reserved": 0, "rental_uris": {"android": "https://dc.lft.to/lastmile_qr_scan", "ios": "https://dc.lft.to/lastmile_qr_scan"}, "lat": 38.928673333333336, "is_disabled": 0, "lon": -77.0137105}, {"fusion_lat": 0.0, "type": "electric_scooter", "name": "0c24639750cd4380bcaebc1ae1fdf589", "fusion_lon": 0.0, "bike_id": "0c24639750cd4380bcaebc1ae1fdf589", "is_reserved": 0, "rental_uris": {"android": "https://dc.lft.to/lastmile_qr_scan", "ios": "https://dc.lft.to/lastmile_qr_scan"}, "lat": 38.920423166666666, "is_disabled": 0, "lon": -77.01681433333333}, {"fusion_lat": 0.0, "type": "electric_scooter", "name": "aef85ef7a89eee29fc7deeecc7da2699", "fusion_lon": 0.0, "bike_id": "aef85ef7a89eee29fc7deeecc7da2699", "is_reserved": 0, "rental_uris": {"android": "https://dc.lft.to/lastmile_qr_scan", "ios": "https://dc.lft.to/lastmile_qr_scan"}, "lat": 38.92111083333333, "is_disabled": 0, "lon": -77.04206816666667}, {"fusion_lat": 0.0, "type": "electric_scooter", "name": "2223bf64aae2e81a6745eaf7ef32b267", "fusion_lon": 0.0, "bike_id": "2223bf64aae2e81a6745eaf7ef32b267", "is_reserved": 0, "rental_uris": {"android": "https://dc.lft.to/lastmile_qr_scan", "ios": "https://dc.lft.to/lastmile_qr_scan"}, "lat": 38.88066083333333, "is_disabled": 0, "lon": -76.93219966666666}, {"fusion_lat": 0.0, "type": "electric_scooter", "name": "1c55a9c2d956b279f2ffbd60a7537a94", "fusion_lon": 0.0, "bike_id": "1c55a9c2d956b279f2ffbd60a7537a94", "is_reserved": 0, "rental_uris": {"android": "https://dc.lft.to/lastmile_qr_scan", "ios": "https://dc.lft.to/lastmile_qr_scan"}, "lat": 38.915396333333334, "is_disabled": 0, "lon": -77.012241}, {"fusion_lat": 0.0, "type": "electric_scooter", "name": "0617af6b588506fcb58fbb1904acb2c4", "fusion_lon": 0.0, "bike_id": "0617af6b588506fcb58fbb1904acb2c4", "is_reserved": 0, "rental_uris": {"android": "https://dc.lft.to/lastmile_qr_scan", "ios": "https://dc.lft.to/lastmile_qr_scan"}, "lat": 38.907273, "is_disabled": 0, "lon": -77.045645}, {"fusion_lat": 0.0, "type": "electric_scooter", "name": "60ba1b4d808d9ab62f2cecd940e7e847", "fusion_lon": 0.0, "bike_id": "60ba1b4d808d9ab62f2cecd940e7e847", "is_reserved": 0, "rental_uris": {"android": "https://dc.lft.to/lastmile_qr_scan", "ios": "https://dc.lft.to/lastmile_qr_scan"}, "lat": 38.89601666666667, "is_disabled": 0, "lon": -77.0217795}, {"fusion_lat": 0.0, "type": "electric_scooter", "name": "29707ad279257546d320ca0e6aaa6061", "fusion_lon": 0.0, "bike_id": "29707ad279257546d320ca0e6aaa6061", "is_reserved": 0, "rental_uris": {"android": "https://dc.lft.to/lastmile_qr_scan", "ios": "https://dc.lft.to/lastmile_qr_scan"}, "lat": 38.923506, "is_disabled": 0, "lon": -77.04015416666667}, {"fusion_lat": 0.0, "type": "electric_scooter", "name": "146ef7a3c1da89e87f487ad8630cdf04", "fusion_lon": 0.0, "bike_id": "146ef7a3c1da89e87f487ad8630cdf04", "is_reserved": 0, "rental_uris": {"android": "https://dc.lft.to/lastmile_qr_scan", "ios": "https://dc.lft.to/lastmile_qr_scan"}, "lat": 38.90707066666667, "is_disabled": 0, "lon": -77.00119566666666}, {"fusion_lat": 0.0, "type": "electric_bike", "name": "439b3f4c6c8e08406fcb84f7825a138c", "fusion_lon": 0.0, "bike_id": "439b3f4c6c8e08406fcb84f7825a138c", "is_reserved": 0, "rental_uris": {"android": "https://dc.lft.to/lastmile_qr_scan", "ios": "https://dc.lft.to/lastmile_qr_scan"}, "lat": 38.91013016666667, "is_disabled": 0, "lon": -77.22800316666667}, {"fusion_lat": 0.0, "type": "electric_scooter", "name": "19dd771c29c10ca529cb36b1ea0ce881", "fusion_lon": 0.0, "bike_id": "19dd771c29c10ca529cb36b1ea0ce881", "is_reserved": 0, "rental_uris": {"android": "https://dc.lft.to/lastmile_qr_scan", "ios": "https://dc.lft.to/lastmile_qr_scan"}, "lat": 38.90368433333333, "is_disabled": 0, "lon": -77.04483983333333}, {"fusion_lat": 0.0, "type": "electric_scooter", "name": "fcd66dfc43ab1d60d4d01da48d705601", "fusion_lon": 0.0, "bike_id": "fcd66dfc43ab1d60d4d01da48d705601", "is_reserved": 0, "rental_uris": {"android": "https://dc.lft.to/lastmile_qr_scan", "ios": "https://dc.lft.to/lastmile_qr_scan"}, "lat": 38.92052116666667, "is_disabled": 0, "lon": -77.02447733333334}, {"fusion_lat": 0.0, "type": "electric_bike", "name": "6b53216c185ea08a09df866e3a9b35a9", "fusion_lon": 0.0, "bike_id": "6b53216c185ea08a09df866e3a9b35a9", "is_reserved": 0, "rental_uris": {"android": "https://dc.lft.to/lastmile_qr_scan", "ios": "https://dc.lft.to/lastmile_qr_scan"}, "lat": 38.9422855, "is_disabled": 0, "lon": -76.96617983333333}, {"fusion_lat": 0.0, "type": "electric_scooter", "name": "75125fd7c163ecd57b96a609cb1766e4", "fusion_lon": 0.0, "bike_id": "75125fd7c163ecd57b96a609cb1766e4", "is_reserved": 0, "rental_uris": {"android": "https://dc.lft.to/lastmile_qr_scan", "ios": "https://dc.lft.to/lastmile_qr_scan"}, "lat": 38.889977, "is_disabled": 0, "lon": -77.04900766666667}, {"fusion_lat": 0.0, "type": "electric_scooter", "name": "9ea00f771ee1baa0eb62146fe1cc52ae", "fusion_lon": 0.0, "bike_id": "9ea00f771ee1baa0eb62146fe1cc52ae", "is_reserved": 0, "rental_uris": {"android": "https://dc.lft.to/lastmile_qr_scan", "ios": "https://dc.lft.to/lastmile_qr_scan"}, "lat": 38.8669755, "is_disabled": 0, "lon": -76.9859345}, {"fusion_lat": 0.0, "type": "electric_scooter", "name": "9c72c9669a0a6872682d68ae7a2cc3a0", "fusion_lon": 0.0, "bike_id": "9c72c9669a0a6872682d68ae7a2cc3a0", "is_reserved": 0, "rental_uris": {"android": "https://dc.lft.to/lastmile_qr_scan", "ios": "https://dc.lft.to/lastmile_qr_scan"}, "lat": 38.904256333333336, "is_disabled": 0, "lon": -77.0531845}, {"fusion_lat": 0.0, "type": "electric_scooter", "name": "a6fa3fa927c913cae2056a1aa052f389", "fusion_lon": 0.0, "bike_id": "a6fa3fa927c913cae2056a1aa052f389", "is_reserved": 0, "rental_uris": {"android": "https://dc.lft.to/lastmile_qr_scan", "ios": "https://dc.lft.to/lastmile_qr_scan"}, "lat": 38.94201983333333, "is_disabled": 0, "lon": -77.02511483333333}, {"fusion_lat": 0.0, "type": "electric_bike", "name": "51c4284a8cb8547ca81c33cbe1bb1363", "fusion_lon": 0.0, "bike_id": "51c4284a8cb8547ca81c33cbe1bb1363", "is_reserved": 0, "rental_uris": {"android": "https://dc.lft.to/lastmile_qr_scan", "ios": "https://dc.lft.to/lastmile_qr_scan"}, "lat": 38.96137266666667, "is_disabled": 0, "lon": -77.02290316666667}, {"fusion_lat": 0.0, "type": "electric_scooter", "name": "b7a8d6afd4c56fd092922e278c93c908", "fusion_lon": 0.0, "bike_id": "b7a8d6afd4c56fd092922e278c93c908", "is_reserved": 0, "rental_uris": {"android": "https://dc.lft.to/lastmile_qr_scan", "ios": "https://dc.lft.to/lastmile_qr_scan"}, "lat": 38.887292333333335, "is_disabled": 0, "lon": -77.02829533333333}, {"fusion_lat": 0.0, "type": "electric_scooter", "name": "2b5db6fb9ef7244acfe7920481334eb1", "fusion_lon": 0.0, "bike_id": "2b5db6fb9ef7244acfe7920481334eb1", "is_reserved": 0, "rental_uris": {"android": "https://dc.lft.to/lastmile_qr_scan", "ios": "https://dc.lft.to/lastmile_qr_scan"}, "lat": 38.89418083333333, "is_disabled": 0, "lon": -77.024036}, {"fusion_lat": 0.0, "type": "electric_scooter", "name": "409bef8dd74561716512912743477faf", "fusion_lon": 0.0, "bike_id": "409bef8dd74561716512912743477faf", "is_reserved": 0, "rental_uris": {"android": "https://dc.lft.to/lastmile_qr_scan", "ios": "https://dc.lft.to/lastmile_qr_scan"}, "lat": 38.89988, "is_disabled": 0, "lon": -77.00104983333334}, {"fusion_lat": 0.0, "type": "electric_bike", "name": "57054c88eccc2df8fb39070d9efe04b3", "fusion_lon": 0.0, "bike_id": "57054c88eccc2df8fb39070d9efe04b3", "is_reserved": 0, "rental_uris": {"android": "https://dc.lft.to/lastmile_qr_scan", "ios": "https://dc.lft.to/lastmile_qr_scan"}, "lat": 38.872836166666666, "is_disabled": 0, "lon": -77.2331755}, {"fusion_lat": 0.0, "type": "electric_scooter", "name": "c9946af4e737fbddc1d83cb0424d0f04", "fusion_lon": 0.0, "bike_id": "c9946af4e737fbddc1d83cb0424d0f04", "is_reserved": 0, "rental_uris": {"android": "https://dc.lft.to/lastmile_qr_scan", "ios": "https://dc.lft.to/lastmile_qr_scan"}, "lat": 38.952772, "is_disabled": 0, "lon": -77.06973133333334}, {"fusion_lat": 0.0, "type": "electric_scooter", "name": "2c405784f0f46471a37246cf2c62e031", "fusion_lon": 0.0, "bike_id": "2c405784f0f46471a37246cf2c62e031", "is_reserved": 0, "rental_uris": {"android": "https://dc.lft.to/lastmile_qr_scan", "ios": "https://dc.lft.to/lastmile_qr_scan"}, "lat": 38.89242866666667, "is_disabled": 0, "lon": -77.03354483333334}, {"fusion_lat": 0.0, "type": "electric_scooter", "name": "c0d437bb0e74a732d26efdc2593fa41a", "fusion_lon": 0.0, "bike_id": "c0d437bb0e74a732d26efdc2593fa41a", "is_reserved": 0, "rental_uris": {"android": "https://dc.lft.to/lastmile_qr_scan", "ios": "https://dc.lft.to/lastmile_qr_scan"}, "lat": 38.94326316666667, "is_disabled": 0, "lon": -77.02683516666667}, {"fusion_lat": 0.0, "type": "electric_scooter", "name": "20d126557de9f4c643e2112e9b2d966f", "fusion_lon": 0.0, "bike_id": "20d126557de9f4c643e2112e9b2d966f", "is_reserved": 0, "rental_uris": {"android": "https://dc.lft.to/lastmile_qr_scan", "ios": "https://dc.lft.to/lastmile_qr_scan"}, "lat": 38.906152666666664, "is_disabled": 0, "lon": -76.9868395}, {"fusion_lat": 0.0, "type": "electric_scooter", "name": "c41c9826c06ddcfc631ab79cef9bb9b2", "fusion_lon": 0.0, "bike_id": "c41c9826c06ddcfc631ab79cef9bb9b2", "is_reserved": 0, "rental_uris": {"android": "https://dc.lft.to/lastmile_qr_scan", "ios": "https://dc.lft.to/lastmile_qr_scan"}, "lat": 38.940860666666666, "is_disabled": 0, "lon": -77.02753016666666}, {"fusion_lat": 0.0, "type": "electric_scooter", "name": "db2e42800245e854664388d2b4ccfc2f", "fusion_lon": 0.0, "bike_id": "db2e42800245e854664388d2b4ccfc2f", "is_reserved": 0, "rental_uris": {"android": "https://dc.lft.to/lastmile_qr_scan", "ios": "https://dc.lft.to/lastmile_qr_scan"}, "lat": 38.92474683333333, "is_disabled": 0, "lon": -77.041546}, {"fusion_lat": 0.0, "type": "electric_scooter", "name": "5b5e29e9511e1e2ec65a94351f1c327c", "fusion_lon": 0.0, "bike_id": "5b5e29e9511e1e2ec65a94351f1c327c", "is_reserved": 0, "rental_uris": {"android": "https://dc.lft.to/lastmile_qr_scan", "ios": "https://dc.lft.to/lastmile_qr_scan"}, "lat": 38.87471566666667, "is_disabled": 0, "lon": -77.018917}, {"fusion_lat": 0.0, "type": "electric_bike", "name": "48cf020147d4f38ce4557c9f411c985b", "fusion_lon": 0.0, "bike_id": "48cf020147d4f38ce4557c9f411c985b", "is_reserved": 0, "rental_uris": {"android": "https://dc.lft.to/lastmile_qr_scan", "ios": "https://dc.lft.to/lastmile_qr_scan"}, "lat": 38.900307833333336, "is_disabled": 0, "lon": -76.97224183333333}, {"fusion_lat": 0.0, "type": "electric_scooter", "name": "626e9f20494f885193e6eae64de2db2d", "fusion_lon": 0.0, "bike_id": "626e9f20494f885193e6eae64de2db2d", "is_reserved": 0, "rental_uris": {"android": "https://dc.lft.to/lastmile_qr_scan", "ios": "https://dc.lft.to/lastmile_qr_scan"}, "lat": 38.91417883333333, "is_disabled": 0, "lon": -77.04920966666667}, {"fusion_lat": 0.0, "type": "electric_scooter", "name": "7f3f38868608b4fb543a3f87e24ecff7", "fusion_lon": 0.0, "bike_id": "7f3f38868608b4fb543a3f87e24ecff7", "is_reserved": 0, "rental_uris": {"android": "https://dc.lft.to/lastmile_qr_scan", "ios": "https://dc.lft.to/lastmile_qr_scan"}, "lat": 38.87284733333333, "is_disabled": 0, "lon": -77.0098025}, {"fusion_lat": 0.0, "type": "electric_scooter", "name": "20e1b0c040e9166c2364e1437f0f4ca6", "fusion_lon": 0.0, "bike_id": "20e1b0c040e9166c2364e1437f0f4ca6", "is_reserved": 0, "rental_uris": {"android": "https://dc.lft.to/lastmile_qr_scan", "ios": "https://dc.lft.to/lastmile_qr_scan"}, "lat": 38.876255666666665, "is_disabled": 0, "lon": -77.01255466666667}, {"fusion_lat": 0.0, "type": "electric_scooter", "name": "57f48d3c74796cde366b76eb1112670f", "fusion_lon": 0.0, "bike_id": "57f48d3c74796cde366b76eb1112670f", "is_reserved": 0, "rental_uris": {"android": "https://dc.lft.to/lastmile_qr_scan", "ios": "https://dc.lft.to/lastmile_qr_scan"}, "lat": 38.9205555, "is_disabled": 0, "lon": -77.02316033333334}, {"fusion_lat": 0.0, "type": "electric_scooter", "name": "1d141c31d16df4edac42565fd29ebd1f", "fusion_lon": 0.0, "bike_id": "1d141c31d16df4edac42565fd29ebd1f", "is_reserved": 0, "rental_uris": {"android": "https://dc.lft.to/lastmile_qr_scan", "ios": "https://dc.lft.to/lastmile_qr_scan"}, "lat": 38.885303, "is_disabled": 0, "lon": -77.00585266666667}, {"fusion_lat": 0.0, "type": "electric_scooter", "name": "0b2bee023af26f18de76d64ab598c0c1", "fusion_lon": 0.0, "bike_id": "0b2bee023af26f18de76d64ab598c0c1", "is_reserved": 0, "rental_uris": {"android": "https://dc.lft.to/lastmile_qr_scan", "ios": "https://dc.lft.to/lastmile_qr_scan"}, "lat": 38.86008066666667, "is_disabled": 0, "lon": -76.98517966666667}, {"fusion_lat": 0.0, "type": "electric_scooter", "name": "ee305895953f0706abeabd47b864f53c", "fusion_lon": 0.0, "bike_id": "ee305895953f0706abeabd47b864f53c", "is_reserved": 0, "rental_uris": {"android": "https://dc.lft.to/lastmile_qr_scan", "ios": "https://dc.lft.to/lastmile_qr_scan"}, "lat": 38.89610183333333, "is_disabled": 0, "lon": -77.04600166666667}, {"fusion_lat": 0.0, "type": "electric_scooter", "name": "a0316cfe2767327b01bbc8bb897695e1", "fusion_lon": 0.0, "bike_id": "a0316cfe2767327b01bbc8bb897695e1", "is_reserved": 0, "rental_uris": {"android": "https://dc.lft.to/lastmile_qr_scan", "ios": "https://dc.lft.to/lastmile_qr_scan"}, "lat": 38.881188333333334, "is_disabled": 0, "lon": -77.01664533333333}, {"fusion_lat": 0.0, "type": "electric_scooter", "name": "df716be31f84ba85e00f10293a801f91", "fusion_lon": 0.0, "bike_id": "df716be31f84ba85e00f10293a801f91", "is_reserved": 0, "rental_uris": {"android": "https://dc.lft.to/lastmile_qr_scan", "ios": "https://dc.lft.to/lastmile_qr_scan"}, "lat": 38.9191395, "is_disabled": 0, "lon": -77.04804366666667}, {"fusion_lat": 0.0, "type": "electric_scooter", "name": "64283e2e318f4bfd803726a9d8818929", "fusion_lon": 0.0, "bike_id": "64283e2e318f4bfd803726a9d8818929", "is_reserved": 0, "rental_uris": {"android": "https://dc.lft.to/lastmile_qr_scan", "ios": "https://dc.lft.to/lastmile_qr_scan"}, "lat": 38.895460166666666, "is_disabled": 0, "lon": -77.0565875}, {"fusion_lat": 0.0, "type": "electric_scooter", "name": "38f2114652275089fdc3bd02e496639e", "fusion_lon": 0.0, "bike_id": "38f2114652275089fdc3bd02e496639e", "is_reserved": 0, "rental_uris": {"android": "https://dc.lft.to/lastmile_qr_scan", "ios": "https://dc.lft.to/lastmile_qr_scan"}, "lat": 38.90271966666667, "is_disabled": 0, "lon": -77.0342615}, {"fusion_lat": 0.0, "type": "electric_scooter", "name": "3e7f49924ab7b26636556a5166e6f6a2", "fusion_lon": 0.0, "bike_id": "3e7f49924ab7b26636556a5166e6f6a2", "is_reserved": 0, "rental_uris": {"android": "https://dc.lft.to/lastmile_qr_scan", "ios": "https://dc.lft.to/lastmile_qr_scan"}, "lat": 38.91505383333333, "is_disabled": 0, "lon": -77.04341483333333}, {"fusion_lat": 0.0, "type": "electric_scooter", "name": "67383a9470b232aaa6ba21172b91544f", "fusion_lon": 0.0, "bike_id": "67383a9470b232aaa6ba21172b91544f", "is_reserved": 0, "rental_uris": {"android": "https://dc.lft.to/lastmile_qr_scan", "ios": "https://dc.lft.to/lastmile_qr_scan"}, "lat": 38.896071666666664, "is_disabled": 0, "lon": -77.04978083333333}, {"fusion_lat": 0.0, "type": "electric_bike", "name": "16eecaff9c02b4c901e334bb7c2b6c1f", "fusion_lon": 0.0, "bike_id": "16eecaff9c02b4c901e334bb7c2b6c1f", "is_reserved": 0, "rental_uris": {"android": "https://dc.lft.to/lastmile_qr_scan", "ios": "https://dc.lft.to/lastmile_qr_scan"}, "lat": 38.823761, "is_disabled": 0, "lon": -77.00228833333334}, {"fusion_lat": 0.0, "type": "electric_bike", "name": "ad3bf038a714ff535160c8db8afc36c2", "fusion_lon": 0.0, "bike_id": "ad3bf038a714ff535160c8db8afc36c2", "is_reserved": 0, "rental_uris": {"android": "https://dc.lft.to/lastmile_qr_scan", "ios": "https://dc.lft.to/lastmile_qr_scan"}, "lat": 38.852742166666665, "is_disabled": 0, "lon": -76.99583233333334}, {"fusion_lat": 0.0, "type": "electric_scooter", "name": "c4bfefea2b534870432b32ccda46951d", "fusion_lon": 0.0, "bike_id": "c4bfefea2b534870432b32ccda46951d", "is_reserved": 0, "rental_uris": {"android": "https://dc.lft.to/lastmile_qr_scan", "ios": "https://dc.lft.to/lastmile_qr_scan"}, "lat": 38.927443, "is_disabled": 0, "lon": -77.0363565}, {"fusion_lat": 0.0, "type": "electric_scooter", "name": "2156474e655b9d8098ce274dc28a2967", "fusion_lon": 0.0, "bike_id": "2156474e655b9d8098ce274dc28a2967", "is_reserved": 0, "rental_uris": {"android": "https://dc.lft.to/lastmile_qr_scan", "ios": "https://dc.lft.to/lastmile_qr_scan"}, "lat": 38.9082935, "is_disabled": 0, "lon": -77.07435683333334}, {"fusion_lat": 0.0, "type": "electric_scooter", "name": "2db49fa0857e16d81d6706cfdc145c4e", "fusion_lon": 0.0, "bike_id": "2db49fa0857e16d81d6706cfdc145c4e", "is_reserved": 0, "rental_uris": {"android": "https://dc.lft.to/lastmile_qr_scan", "ios": "https://dc.lft.to/lastmile_qr_scan"}, "lat": 38.95070066666667, "is_disabled": 0, "lon": -76.99562216666666}, {"fusion_lat": 0.0, "type": "electric_bike", "name": "1bcefc185cc8e6414eb8a0541449205f", "fusion_lon": 0.0, "bike_id": "1bcefc185cc8e6414eb8a0541449205f", "is_reserved": 0, "rental_uris": {"android": "https://dc.lft.to/lastmile_qr_scan", "ios": "https://dc.lft.to/lastmile_qr_scan"}, "lat": 38.972457166666665, "is_disabled": 0, "lon": -76.99278483333333}, {"fusion_lat": 0.0, "type": "electric_scooter", "name": "e219f3d527afe967a46aa375429b2372", "fusion_lon": 0.0, "bike_id": "e219f3d527afe967a46aa375429b2372", "is_reserved": 0, "rental_uris": {"android": "https://dc.lft.to/lastmile_qr_scan", "ios": "https://dc.lft.to/lastmile_qr_scan"}, "lat": 38.907431, "is_disabled": 0, "lon": -77.04518816666666}, {"fusion_lat": 0.0, "type": "electric_scooter", "name": "50ad19acf05c375ff431f82ca72dd3f8", "fusion_lon": 0.0, "bike_id": "50ad19acf05c375ff431f82ca72dd3f8", "is_reserved": 0, "rental_uris": {"android": "https://dc.lft.to/lastmile_qr_scan", "ios": "https://dc.lft.to/lastmile_qr_scan"}, "lat": 38.893566666666665, "is_disabled": 0, "lon": -77.003379}, {"fusion_lat": 0.0, "type": "electric_scooter", "name": "fa189e0174e9b91c65282d61fe05e28b", "fusion_lon": 0.0, "bike_id": "fa189e0174e9b91c65282d61fe05e28b", "is_reserved": 0, "rental_uris": {"android": "https://dc.lft.to/lastmile_qr_scan", "ios": "https://dc.lft.to/lastmile_qr_scan"}, "lat": 38.88613983333333, "is_disabled": 0, "lon": -77.00062766666667}, {"fusion_lat": 0.0, "type": "electric_scooter", "name": "d26e35817e574ede41d84cb2babe86b7", "fusion_lon": 0.0, "bike_id": "d26e35817e574ede41d84cb2babe86b7", "is_reserved": 0, "rental_uris": {"android": "https://dc.lft.to/lastmile_qr_scan", "ios": "https://dc.lft.to/lastmile_qr_scan"}, "lat": 38.8831515, "is_disabled": 0, "lon": -77.01755983333334}, {"fusion_lat": 0.0, "type": "electric_scooter", "name": "f50b601bb3b1b41d6334cdbf49f8081e", "fusion_lon": 0.0, "bike_id": "f50b601bb3b1b41d6334cdbf49f8081e", "is_reserved": 0, "rental_uris": {"android": "https://dc.lft.to/lastmile_qr_scan", "ios": "https://dc.lft.to/lastmile_qr_scan"}, "lat": 38.90410966666666, "is_disabled": 0, "lon": -77.029475}, {"fusion_lat": 0.0, "type": "electric_scooter", "name": "741bd14b500013c7b16afe3652ad2129", "fusion_lon": 0.0, "bike_id": "741bd14b500013c7b16afe3652ad2129", "is_reserved": 0, "rental_uris": {"android": "https://dc.lft.to/lastmile_qr_scan", "ios": "https://dc.lft.to/lastmile_qr_scan"}, "lat": 38.918905, "is_disabled": 0, "lon": -77.0481985}, {"fusion_lat": 0.0, "type": "electric_scooter", "name": "5a73919806a65f6831f611aea6a46f32", "fusion_lon": 0.0, "bike_id": "5a73919806a65f6831f611aea6a46f32", "is_reserved": 0, "rental_uris": {"android": "https://dc.lft.to/lastmile_qr_scan", "ios": "https://dc.lft.to/lastmile_qr_scan"}, "lat": 38.900711333333334, "is_disabled": 0, "lon": -77.04430233333333}, {"fusion_lat": 0.0, "type": "electric_scooter", "name": "29278dce8069dfa05b7b1c84bab2504e", "fusion_lon": 0.0, "bike_id": "29278dce8069dfa05b7b1c84bab2504e", "is_reserved": 0, "rental_uris": {"android": "https://dc.lft.to/lastmile_qr_scan", "ios": "https://dc.lft.to/lastmile_qr_scan"}, "lat": 38.8930645, "is_disabled": 0, "lon": -77.02167716666666}, {"fusion_lat": 0.0, "type": "electric_scooter", "name": "6ed0bdde842742e0a4f2ae24a60f80c6", "fusion_lon": 0.0, "bike_id": "6ed0bdde842742e0a4f2ae24a60f80c6", "is_reserved": 0, "rental_uris": {"android": "https://dc.lft.to/lastmile_qr_scan", "ios": "https://dc.lft.to/lastmile_qr_scan"}, "lat": 38.892219833333336, "is_disabled": 0, "lon": -77.03345033333333}, {"fusion_lat": 0.0, "type": "electric_scooter", "name": "5d7ef7b97b04acff3c8e66aa25cf7965", "fusion_lon": 0.0, "bike_id": "5d7ef7b97b04acff3c8e66aa25cf7965", "is_reserved": 0, "rental_uris": {"android": "https://dc.lft.to/lastmile_qr_scan", "ios": "https://dc.lft.to/lastmile_qr_scan"}, "lat": 38.90384483333333, "is_disabled": 0, "lon": -77.04525}, {"fusion_lat": 0.0, "type": "electric_bike", "name": "b76904bfc60610dc3c11664bc4296a3e", "fusion_lon": 0.0, "bike_id": "b76904bfc60610dc3c11664bc4296a3e", "is_reserved": 0, "rental_uris": {"android": "https://dc.lft.to/lastmile_qr_scan", "ios": "https://dc.lft.to/lastmile_qr_scan"}, "lat": 38.9287515, "is_disabled": 0, "lon": -77.012439}, {"fusion_lat": 0.0, "type": "electric_scooter", "name": "0e53d26bc6125265d5b202e5dee84563", "fusion_lon": 0.0, "bike_id": "0e53d26bc6125265d5b202e5dee84563", "is_reserved": 0, "rental_uris": {"android": "https://dc.lft.to/lastmile_qr_scan", "ios": "https://dc.lft.to/lastmile_qr_scan"}, "lat": 38.9026935, "is_disabled": 0, "lon": -77.03849483333333}, {"fusion_lat": 0.0, "type": "electric_bike", "name": "d01b8460c3558b1d24fb72e0ea7e0f81", "fusion_lon": 0.0, "bike_id": "d01b8460c3558b1d24fb72e0ea7e0f81", "is_reserved": 0, "rental_uris": {"android": "https://dc.lft.to/lastmile_qr_scan", "ios": "https://dc.lft.to/lastmile_qr_scan"}, "lat": 38.87943, "is_disabled": 0, "lon": -76.91622083333333}, {"fusion_lat": 0.0, "type": "electric_scooter", "name": "e1e4e47bb99837181f6f08c8234739cc", "fusion_lon": 0.0, "bike_id": "e1e4e47bb99837181f6f08c8234739cc", "is_reserved": 0, "rental_uris": {"android": "https://dc.lft.to/lastmile_qr_scan", "ios": "https://dc.lft.to/lastmile_qr_scan"}, "lat": 38.9005735, "is_disabled": 0, "lon": -77.04831066666667}, {"fusion_lat": 0.0, "type": "electric_scooter", "name": "c6a07cb3b57637cd2e0355593b6ad215", "fusion_lon": 0.0, "bike_id": "c6a07cb3b57637cd2e0355593b6ad215", "is_reserved": 0, "rental_uris": {"android": "https://dc.lft.to/lastmile_qr_scan", "ios": "https://dc.lft.to/lastmile_qr_scan"}, "lat": 38.92320633333333, "is_disabled": 0, "lon": -76.99897283333334}, {"fusion_lat": 0.0, "type": "electric_scooter", "name": "74b3eeb23865a6d09ef56a3c58422b59", "fusion_lon": 0.0, "bike_id": "74b3eeb23865a6d09ef56a3c58422b59", "is_reserved": 0, "rental_uris": {"android": "https://dc.lft.to/lastmile_qr_scan", "ios": "https://dc.lft.to/lastmile_qr_scan"}, "lat": 38.961061666666666, "is_disabled": 0, "lon": -77.00948283333334}, {"fusion_lat": 0.0, "type": "electric_scooter", "name": "6186e7cd62df204282144a9d38a028c4", "fusion_lon": 0.0, "bike_id": "6186e7cd62df204282144a9d38a028c4", "is_reserved": 0, "rental_uris": {"android": "https://dc.lft.to/lastmile_qr_scan", "ios": "https://dc.lft.to/lastmile_qr_scan"}, "lat": 38.905538, "is_disabled": 0, "lon": -77.03250583333333}, {"fusion_lat": 0.0, "type": "electric_scooter", "name": "a6db3c6075e1c15e94eede238ac1f2e9", "fusion_lon": 0.0, "bike_id": "a6db3c6075e1c15e94eede238ac1f2e9", "is_reserved": 0, "rental_uris": {"android": "https://dc.lft.to/lastmile_qr_scan", "ios": "https://dc.lft.to/lastmile_qr_scan"}, "lat": 38.9141495, "is_disabled": 0, "lon": -77.02598816666666}, {"fusion_lat": 0.0, "type": "electric_scooter", "name": "d8dd5d4e374958c6144b38a3bf1a087d", "fusion_lon": 0.0, "bike_id": "d8dd5d4e374958c6144b38a3bf1a087d", "is_reserved": 0, "rental_uris": {"android": "https://dc.lft.to/lastmile_qr_scan", "ios": "https://dc.lft.to/lastmile_qr_scan"}, "lat": 38.9144815, "is_disabled": 0, "lon": -77.02197283333334}, {"fusion_lat": 0.0, "type": "electric_scooter", "name": "599f36afd8851a8164cca36d48bd8715", "fusion_lon": 0.0, "bike_id": "599f36afd8851a8164cca36d48bd8715", "is_reserved": 0, "rental_uris": {"android": "https://dc.lft.to/lastmile_qr_scan", "ios": "https://dc.lft.to/lastmile_qr_scan"}, "lat": 38.90600083333333, "is_disabled": 0, "lon": -77.04144333333333}, {"fusion_lat": 0.0, "type": "electric_scooter", "name": "b35acf26f03654abd800e731a74a3bc8", "fusion_lon": 0.0, "bike_id": "b35acf26f03654abd800e731a74a3bc8", "is_reserved": 0, "rental_uris": {"android": "https://dc.lft.to/lastmile_qr_scan", "ios": "https://dc.lft.to/lastmile_qr_scan"}, "lat": 38.87337633333333, "is_disabled": 0, "lon": -76.96795666666667}, {"fusion_lat": 0.0, "type": "electric_scooter", "name": "8ceb9154c068ffddfa3afd62fff441c0", "fusion_lon": 0.0, "bike_id": "8ceb9154c068ffddfa3afd62fff441c0", "is_reserved": 0, "rental_uris": {"android": "https://dc.lft.to/lastmile_qr_scan", "ios": "https://dc.lft.to/lastmile_qr_scan"}, "lat": 38.9523225, "is_disabled": 0, "lon": -77.00210466666667}, {"fusion_lat": 0.0, "type": "electric_scooter", "name": "0f01a0f72d71ebb0fc62eafb3691f2e3", "fusion_lon": 0.0, "bike_id": "0f01a0f72d71ebb0fc62eafb3691f2e3", "is_reserved": 0, "rental_uris": {"android": "https://dc.lft.to/lastmile_qr_scan", "ios": "https://dc.lft.to/lastmile_qr_scan"}, "lat": 38.900338166666664, "is_disabled": 0, "lon": -77.001934}, {"fusion_lat": 0.0, "type": "electric_scooter", "name": "ad2c087d425a666612041e05aba8061e", "fusion_lon": 0.0, "bike_id": "ad2c087d425a666612041e05aba8061e", "is_reserved": 0, "rental_uris": {"android": "https://dc.lft.to/lastmile_qr_scan", "ios": "https://dc.lft.to/lastmile_qr_scan"}, "lat": 38.9094175, "is_disabled": 0, "lon": -77.04421583333334}, {"fusion_lat": 0.0, "type": "electric_scooter", "name": "48899466f0f87df3e07979d58578259b", "fusion_lon": 0.0, "bike_id": "48899466f0f87df3e07979d58578259b", "is_reserved": 0, "rental_uris": {"android": "https://dc.lft.to/lastmile_qr_scan", "ios": "https://dc.lft.to/lastmile_qr_scan"}, "lat": 38.91754916666667, "is_disabled": 0, "lon": -77.03125383333334}, {"fusion_lat": 0.0, "type": "electric_scooter", "name": "a1cb524a4bc3070c76223cf4a89e21c8", "fusion_lon": 0.0, "bike_id": "a1cb524a4bc3070c76223cf4a89e21c8", "is_reserved": 0, "rental_uris": {"android": "https://dc.lft.to/lastmile_qr_scan", "ios": "https://dc.lft.to/lastmile_qr_scan"}, "lat": 38.89316916666667, "is_disabled": 0, "lon": -76.95112383333333}, {"fusion_lat": 0.0, "type": "electric_scooter", "name": "1094ddda6a0c41771c847740446590f9", "fusion_lon": 0.0, "bike_id": "1094ddda6a0c41771c847740446590f9", "is_reserved": 0, "rental_uris": {"android": "https://dc.lft.to/lastmile_qr_scan", "ios": "https://dc.lft.to/lastmile_qr_scan"}, "lat": 38.89221883333333, "is_disabled": 0, "lon": -77.04375633333333}, {"fusion_lat": 0.0, "type": "electric_scooter", "name": "185e7e4e1b01958fffc9f7fbd60f9770", "fusion_lon": 0.0, "bike_id": "185e7e4e1b01958fffc9f7fbd60f9770", "is_reserved": 0, "rental_uris": {"android": "https://dc.lft.to/lastmile_qr_scan", "ios": "https://dc.lft.to/lastmile_qr_scan"}, "lat": 38.889932333333334, "is_disabled": 0, "lon": -76.93109683333333}, {"fusion_lat": 0.0, "type": "electric_scooter", "name": "c325153f27956b47ddd2abd410f68e3a", "fusion_lon": 0.0, "bike_id": "c325153f27956b47ddd2abd410f68e3a", "is_reserved": 0, "rental_uris": {"android": "https://dc.lft.to/lastmile_qr_scan", "ios": "https://dc.lft.to/lastmile_qr_scan"}, "lat": 38.91988766666667, "is_disabled": 0, "lon": -76.9730555}, {"fusion_lat": 0.0, "type": "electric_scooter", "name": "556eaaaf7ecd14dba469c125e088db32", "fusion_lon": 0.0, "bike_id": "556eaaaf7ecd14dba469c125e088db32", "is_reserved": 0, "rental_uris": {"android": "https://dc.lft.to/lastmile_qr_scan", "ios": "https://dc.lft.to/lastmile_qr_scan"}, "lat": 38.89790033333333, "is_disabled": 0, "lon": -77.02597933333334}, {"fusion_lat": 0.0, "type": "electric_scooter", "name": "c6f8479389c6253710545015d711a594", "fusion_lon": 0.0, "bike_id": "c6f8479389c6253710545015d711a594", "is_reserved": 0, "rental_uris": {"android": "https://dc.lft.to/lastmile_qr_scan", "ios": "https://dc.lft.to/lastmile_qr_scan"}, "lat": 38.91607883333333, "is_disabled": 0, "lon": -77.04151983333334}, {"fusion_lat": 0.0, "type": "electric_scooter", "name": "6a0bd2223999c3ce43296e27907116bc", "fusion_lon": 0.0, "bike_id": "6a0bd2223999c3ce43296e27907116bc", "is_reserved": 0, "rental_uris": {"android": "https://dc.lft.to/lastmile_qr_scan", "ios": "https://dc.lft.to/lastmile_qr_scan"}, "lat": 38.903201, "is_disabled": 0, "lon": -77.03294983333333}, {"fusion_lat": 0.0, "type": "electric_scooter", "name": "876f787a3deddacd074b42a94e20b9d4", "fusion_lon": 0.0, "bike_id": "876f787a3deddacd074b42a94e20b9d4", "is_reserved": 0, "rental_uris": {"android": "https://dc.lft.to/lastmile_qr_scan", "ios": "https://dc.lft.to/lastmile_qr_scan"}, "lat": 38.90134116666667, "is_disabled": 0, "lon": -77.04886383333333}, {"fusion_lat": 0.0, "type": "electric_scooter", "name": "0d0b793d81aea344c4838d56abc848f8", "fusion_lon": 0.0, "bike_id": "0d0b793d81aea344c4838d56abc848f8", "is_reserved": 0, "rental_uris": {"android": "https://dc.lft.to/lastmile_qr_scan", "ios": "https://dc.lft.to/lastmile_qr_scan"}, "lat": 38.92240283333334, "is_disabled": 0, "lon": -77.0365865}, {"fusion_lat": 0.0, "type": "electric_scooter", "name": "08e1e61488528b2897d1e767ddb5d84a", "fusion_lon": 0.0, "bike_id": "08e1e61488528b2897d1e767ddb5d84a", "is_reserved": 0, "rental_uris": {"android": "https://dc.lft.to/lastmile_qr_scan", "ios": "https://dc.lft.to/lastmile_qr_scan"}, "lat": 38.945257833333336, "is_disabled": 0, "lon": -77.02085866666667}, {"fusion_lat": 0.0, "type": "electric_scooter", "name": "ac0f722097c61b74fb8765c147d821db", "fusion_lon": 0.0, "bike_id": "ac0f722097c61b74fb8765c147d821db", "is_reserved": 0, "rental_uris": {"android": "https://dc.lft.to/lastmile_qr_scan", "ios": "https://dc.lft.to/lastmile_qr_scan"}, "lat": 38.916725666666665, "is_disabled": 0, "lon": -77.03214433333333}, {"fusion_lat": 0.0, "type": "electric_scooter", "name": "9a388b556a44f915f5073fde985b4859", "fusion_lon": 0.0, "bike_id": "9a388b556a44f915f5073fde985b4859", "is_reserved": 0, "rental_uris": {"android": "https://dc.lft.to/lastmile_qr_scan", "ios": "https://dc.lft.to/lastmile_qr_scan"}, "lat": 38.892167, "is_disabled": 0, "lon": -77.03166633333333}, {"fusion_lat": 0.0, "type": "electric_scooter", "name": "32608f7522a0774bb09623dc230a654f", "fusion_lon": 0.0, "bike_id": "32608f7522a0774bb09623dc230a654f", "is_reserved": 0, "rental_uris": {"android": "https://dc.lft.to/lastmile_qr_scan", "ios": "https://dc.lft.to/lastmile_qr_scan"}, "lat": 38.91329266666666, "is_disabled": 0, "lon": -77.0481845}, {"fusion_lat": 0.0, "type": "electric_scooter", "name": "601efa808914e14f41ea90421a69a7fa", "fusion_lon": 0.0, "bike_id": "601efa808914e14f41ea90421a69a7fa", "is_reserved": 0, "rental_uris": {"android": "https://dc.lft.to/lastmile_qr_scan", "ios": "https://dc.lft.to/lastmile_qr_scan"}, "lat": 38.91035016666667, "is_disabled": 0, "lon": -77.022018}, {"fusion_lat": 0.0, "type": "electric_scooter", "name": "4cd3e8f83e9a24a421b5aefbb2ba27fa", "fusion_lon": 0.0, "bike_id": "4cd3e8f83e9a24a421b5aefbb2ba27fa", "is_reserved": 0, "rental_uris": {"android": "https://dc.lft.to/lastmile_qr_scan", "ios": "https://dc.lft.to/lastmile_qr_scan"}, "lat": 38.89612183333333, "is_disabled": 0, "lon": -76.993012}, {"fusion_lat": 0.0, "type": "electric_scooter", "name": "64c4718c0a80bcd234f1c559471f5578", "fusion_lon": 0.0, "bike_id": "64c4718c0a80bcd234f1c559471f5578", "is_reserved": 0, "rental_uris": {"android": "https://dc.lft.to/lastmile_qr_scan", "ios": "https://dc.lft.to/lastmile_qr_scan"}, "lat": 38.87543933333333, "is_disabled": 0, "lon": -77.005973}, {"fusion_lat": 0.0, "type": "electric_scooter", "name": "37541660c51d5d7fa539d8a58e31a5ea", "fusion_lon": 0.0, "bike_id": "37541660c51d5d7fa539d8a58e31a5ea", "is_reserved": 0, "rental_uris": {"android": "https://dc.lft.to/lastmile_qr_scan", "ios": "https://dc.lft.to/lastmile_qr_scan"}, "lat": 38.9153465, "is_disabled": 0, "lon": -77.003476}, {"fusion_lat": 0.0, "type": "electric_scooter", "name": "5c142d24270a658c033c8835be823bea", "fusion_lon": 0.0, "bike_id": "5c142d24270a658c033c8835be823bea", "is_reserved": 0, "rental_uris": {"android": "https://dc.lft.to/lastmile_qr_scan", "ios": "https://dc.lft.to/lastmile_qr_scan"}, "lat": 38.87433333333333, "is_disabled": 0, "lon": -77.0004575}, {"fusion_lat": 0.0, "type": "electric_bike", "name": "95a8d4cf59ac00da55000c4fba678b36", "fusion_lon": 0.0, "bike_id": "95a8d4cf59ac00da55000c4fba678b36", "is_reserved": 0, "rental_uris": {"android": "https://dc.lft.to/lastmile_qr_scan", "ios": "https://dc.lft.to/lastmile_qr_scan"}, "lat": 38.98362733333333, "is_disabled": 0, "lon": -76.97222666666667}, {"fusion_lat": 0.0, "type": "electric_scooter", "name": "e63c224b8d46fe2382c82b161b035b74", "fusion_lon": 0.0, "bike_id": "e63c224b8d46fe2382c82b161b035b74", "is_reserved": 0, "rental_uris": {"android": "https://dc.lft.to/lastmile_qr_scan", "ios": "https://dc.lft.to/lastmile_qr_scan"}, "lat": 38.91656366666667, "is_disabled": 0, "lon": -77.03193866666666}, {"fusion_lat": 0.0, "type": "electric_scooter", "name": "d2991c02b373fa09b0a136b6dc5e11e8", "fusion_lon": 0.0, "bike_id": "d2991c02b373fa09b0a136b6dc5e11e8", "is_reserved": 0, "rental_uris": {"android": "https://dc.lft.to/lastmile_qr_scan", "ios": "https://dc.lft.to/lastmile_qr_scan"}, "lat": 38.866548, "is_disabled": 0, "lon": -76.98887333333333}, {"fusion_lat": 0.0, "type": "electric_scooter", "name": "fd0752b31cb0b6dacf97afd662d8acd7", "fusion_lon": 0.0, "bike_id": "fd0752b31cb0b6dacf97afd662d8acd7", "is_reserved": 0, "rental_uris": {"android": "https://dc.lft.to/lastmile_qr_scan", "ios": "https://dc.lft.to/lastmile_qr_scan"}, "lat": 38.89190216666667, "is_disabled": 0, "lon": -76.98863416666667}, {"fusion_lat": 0.0, "type": "electric_scooter", "name": "bc041ba71de32d83b59790f0301246e4", "fusion_lon": 0.0, "bike_id": "bc041ba71de32d83b59790f0301246e4", "is_reserved": 0, "rental_uris": {"android": "https://dc.lft.to/lastmile_qr_scan", "ios": "https://dc.lft.to/lastmile_qr_scan"}, "lat": 38.924728333333334, "is_disabled": 0, "lon": -77.02206316666667}, {"fusion_lat": 0.0, "type": "electric_scooter", "name": "c96940db0107b50fa776c5aa7a49d684", "fusion_lon": 0.0, "bike_id": "c96940db0107b50fa776c5aa7a49d684", "is_reserved": 0, "rental_uris": {"android": "https://dc.lft.to/lastmile_qr_scan", "ios": "https://dc.lft.to/lastmile_qr_scan"}, "lat": 38.95745933333333, "is_disabled": 0, "lon": -77.02066983333333}, {"fusion_lat": 0.0, "type": "electric_scooter", "name": "4c82b1d1496333ad25fc7a635016d59e", "fusion_lon": 0.0, "bike_id": "4c82b1d1496333ad25fc7a635016d59e", "is_reserved": 0, "rental_uris": {"android": "https://dc.lft.to/lastmile_qr_scan", "ios": "https://dc.lft.to/lastmile_qr_scan"}, "lat": 38.920714333333336, "is_disabled": 0, "lon": -77.02530016666667}, {"fusion_lat": 0.0, "type": "electric_scooter", "name": "9d54bbf6fd445d6ffb6a7330c8545d87", "fusion_lon": 0.0, "bike_id": "9d54bbf6fd445d6ffb6a7330c8545d87", "is_reserved": 0, "rental_uris": {"android": "https://dc.lft.to/lastmile_qr_scan", "ios": "https://dc.lft.to/lastmile_qr_scan"}, "lat": 38.89724283333334, "is_disabled": 0, "lon": -77.01374083333333}, {"fusion_lat": 0.0, "type": "electric_scooter", "name": "1e9ea9a3981a6be348c8725a9b441782", "fusion_lon": 0.0, "bike_id": "1e9ea9a3981a6be348c8725a9b441782", "is_reserved": 0, "rental_uris": {"android": "https://dc.lft.to/lastmile_qr_scan", "ios": "https://dc.lft.to/lastmile_qr_scan"}, "lat": 38.899516, "is_disabled": 0, "lon": -76.97536083333334}, {"fusion_lat": 0.0, "type": "electric_scooter", "name": "a4bffba683b93caad493da03cc3aae63", "fusion_lon": 0.0, "bike_id": "a4bffba683b93caad493da03cc3aae63", "is_reserved": 0, "rental_uris": {"android": "https://dc.lft.to/lastmile_qr_scan", "ios": "https://dc.lft.to/lastmile_qr_scan"}, "lat": 38.92436166666667, "is_disabled": 0, "lon": -77.0521075}, {"fusion_lat": 0.0, "type": "electric_scooter", "name": "b6bd3272cb9e0505d18e5035e7743134", "fusion_lon": 0.0, "bike_id": "b6bd3272cb9e0505d18e5035e7743134", "is_reserved": 0, "rental_uris": {"android": "https://dc.lft.to/lastmile_qr_scan", "ios": "https://dc.lft.to/lastmile_qr_scan"}, "lat": 38.8934365, "is_disabled": 0, "lon": -77.04193366666667}, {"fusion_lat": 0.0, "type": "electric_scooter", "name": "cdb72049a533afda5c9d60d8851b493f", "fusion_lon": 0.0, "bike_id": "cdb72049a533afda5c9d60d8851b493f", "is_reserved": 0, "rental_uris": {"android": "https://dc.lft.to/lastmile_qr_scan", "ios": "https://dc.lft.to/lastmile_qr_scan"}, "lat": 38.92842233333333, "is_disabled": 0, "lon": -77.01412116666667}, {"fusion_lat": 0.0, "type": "electric_scooter", "name": "bf0242da4d8c5340710d6daf5a4abcf8", "fusion_lon": 0.0, "bike_id": "bf0242da4d8c5340710d6daf5a4abcf8", "is_reserved": 0, "rental_uris": {"android": "https://dc.lft.to/lastmile_qr_scan", "ios": "https://dc.lft.to/lastmile_qr_scan"}, "lat": 38.90352033333333, "is_disabled": 0, "lon": -77.03298116666667}, {"fusion_lat": 0.0, "type": "electric_scooter", "name": "c8e1d273f469182c03a407ab0629255b", "fusion_lon": 0.0, "bike_id": "c8e1d273f469182c03a407ab0629255b", "is_reserved": 0, "rental_uris": {"android": "https://dc.lft.to/lastmile_qr_scan", "ios": "https://dc.lft.to/lastmile_qr_scan"}, "lat": 38.892131666666664, "is_disabled": 0, "lon": -77.04368766666667}, {"fusion_lat": 0.0, "type": "electric_scooter", "name": "0fb160d3daaae91c172a7d81348146fc", "fusion_lon": 0.0, "bike_id": "0fb160d3daaae91c172a7d81348146fc", "is_reserved": 0, "rental_uris": {"android": "https://dc.lft.to/lastmile_qr_scan", "ios": "https://dc.lft.to/lastmile_qr_scan"}, "lat": 38.893676166666665, "is_disabled": 0, "lon": -76.94996133333333}, {"fusion_lat": 0.0, "type": "electric_scooter", "name": "a8ed2323db7c83633b2ac5e6889d7752", "fusion_lon": 0.0, "bike_id": "a8ed2323db7c83633b2ac5e6889d7752", "is_reserved": 0, "rental_uris": {"android": "https://dc.lft.to/lastmile_qr_scan", "ios": "https://dc.lft.to/lastmile_qr_scan"}, "lat": 38.86699083333333, "is_disabled": 0, "lon": -76.98711066666667}, {"fusion_lat": 0.0, "type": "electric_scooter", "name": "bb4deab8462f4eec43a9a2e5b7059fae", "fusion_lon": 0.0, "bike_id": "bb4deab8462f4eec43a9a2e5b7059fae", "is_reserved": 0, "rental_uris": {"android": "https://dc.lft.to/lastmile_qr_scan", "ios": "https://dc.lft.to/lastmile_qr_scan"}, "lat": 38.90576933333333, "is_disabled": 0, "lon": -77.0059565}, {"fusion_lat": 0.0, "type": "electric_scooter", "name": "8f1297635e9038f32fd5e368c50c686d", "fusion_lon": 0.0, "bike_id": "8f1297635e9038f32fd5e368c50c686d", "is_reserved": 0, "rental_uris": {"android": "https://dc.lft.to/lastmile_qr_scan", "ios": "https://dc.lft.to/lastmile_qr_scan"}, "lat": 38.892485666666666, "is_disabled": 0, "lon": -77.046607}, {"fusion_lat": 0.0, "type": "electric_scooter", "name": "c99bebbf8258c5f40c2b69d2d8decf59", "fusion_lon": 0.0, "bike_id": "c99bebbf8258c5f40c2b69d2d8decf59", "is_reserved": 0, "rental_uris": {"android": "https://dc.lft.to/lastmile_qr_scan", "ios": "https://dc.lft.to/lastmile_qr_scan"}, "lat": 38.930831166666664, "is_disabled": 0, "lon": -77.0041285}, {"fusion_lat": 0.0, "type": "electric_scooter", "name": "c4491a7783762f36ddfc8a2f94d41fa5", "fusion_lon": 0.0, "bike_id": "c4491a7783762f36ddfc8a2f94d41fa5", "is_reserved": 0, "rental_uris": {"android": "https://dc.lft.to/lastmile_qr_scan", "ios": "https://dc.lft.to/lastmile_qr_scan"}, "lat": 38.9059275, "is_disabled": 0, "lon": -77.02197566666666}, {"fusion_lat": 0.0, "type": "electric_scooter", "name": "c2613c8e5162218e3df7f1fc1491f657", "fusion_lon": 0.0, "bike_id": "c2613c8e5162218e3df7f1fc1491f657", "is_reserved": 0, "rental_uris": {"android": "https://dc.lft.to/lastmile_qr_scan", "ios": "https://dc.lft.to/lastmile_qr_scan"}, "lat": 38.902303833333335, "is_disabled": 0, "lon": -77.02641883333334}, {"fusion_lat": 0.0, "type": "electric_scooter", "name": "9d130eb68156be68e788859c4499a224", "fusion_lon": 0.0, "bike_id": "9d130eb68156be68e788859c4499a224", "is_reserved": 0, "rental_uris": {"android": "https://dc.lft.to/lastmile_qr_scan", "ios": "https://dc.lft.to/lastmile_qr_scan"}, "lat": 38.91701116666667, "is_disabled": 0, "lon": -77.0011435}, {"fusion_lat": 0.0, "type": "electric_scooter", "name": "2a0f91a86e0508815667722862f76827", "fusion_lon": 0.0, "bike_id": "2a0f91a86e0508815667722862f76827", "is_reserved": 0, "rental_uris": {"android": "https://dc.lft.to/lastmile_qr_scan", "ios": "https://dc.lft.to/lastmile_qr_scan"}, "lat": 38.892214833333334, "is_disabled": 0, "lon": -77.04374683333333}, {"fusion_lat": 0.0, "type": "electric_scooter", "name": "7fdad1c543c7dacae1747582c35df194", "fusion_lon": 0.0, "bike_id": "7fdad1c543c7dacae1747582c35df194", "is_reserved": 0, "rental_uris": {"android": "https://dc.lft.to/lastmile_qr_scan", "ios": "https://dc.lft.to/lastmile_qr_scan"}, "lat": 38.91459783333333, "is_disabled": 0, "lon": -77.00900566666667}, {"fusion_lat": 0.0, "type": "electric_scooter", "name": "ac5c78c0ecb7daa8ed64981460dfdc2b", "fusion_lon": 0.0, "bike_id": "ac5c78c0ecb7daa8ed64981460dfdc2b", "is_reserved": 0, "rental_uris": {"android": "https://dc.lft.to/lastmile_qr_scan", "ios": "https://dc.lft.to/lastmile_qr_scan"}, "lat": 38.90468883333333, "is_disabled": 0, "lon": -77.02806116666666}, {"fusion_lat": 0.0, "type": "electric_bike", "name": "162c81a88452d08686cd47d5e7285e09", "fusion_lon": 0.0, "bike_id": "162c81a88452d08686cd47d5e7285e09", "is_reserved": 0, "rental_uris": {"android": "https://dc.lft.to/lastmile_qr_scan", "ios": "https://dc.lft.to/lastmile_qr_scan"}, "lat": 38.959268, "is_disabled": 0, "lon": -76.9253885}, {"fusion_lat": 0.0, "type": "electric_scooter", "name": "5373f0635fab49a22e6fe88bc65553a4", "fusion_lon": 0.0, "bike_id": "5373f0635fab49a22e6fe88bc65553a4", "is_reserved": 0, "rental_uris": {"android": "https://dc.lft.to/lastmile_qr_scan", "ios": "https://dc.lft.to/lastmile_qr_scan"}, "lat": 38.8872915, "is_disabled": 0, "lon": -77.0258385}, {"fusion_lat": 0.0, "type": "electric_scooter", "name": "f35bb9df05bccd67c1cd9248c54fe580", "fusion_lon": 0.0, "bike_id": "f35bb9df05bccd67c1cd9248c54fe580", "is_reserved": 0, "rental_uris": {"android": "https://dc.lft.to/lastmile_qr_scan", "ios": "https://dc.lft.to/lastmile_qr_scan"}, "lat": 38.91188783333333, "is_disabled": 0, "lon": -77.03023}, {"fusion_lat": 0.0, "type": "electric_scooter", "name": "f1598a3460cb12fdb9046f4030d5879f", "fusion_lon": 0.0, "bike_id": "f1598a3460cb12fdb9046f4030d5879f", "is_reserved": 0, "rental_uris": {"android": "https://dc.lft.to/lastmile_qr_scan", "ios": "https://dc.lft.to/lastmile_qr_scan"}, "lat": 38.8689615, "is_disabled": 0, "lon": -76.9823235}, {"fusion_lat": 0.0, "type": "electric_scooter", "name": "38543b431d08cd8f30f8147d22f82d5c", "fusion_lon": 0.0, "bike_id": "38543b431d08cd8f30f8147d22f82d5c", "is_reserved": 0, "rental_uris": {"android": "https://dc.lft.to/lastmile_qr_scan", "ios": "https://dc.lft.to/lastmile_qr_scan"}, "lat": 38.87627716666667, "is_disabled": 0, "lon": -77.00938716666667}, {"fusion_lat": 0.0, "type": "electric_scooter", "name": "c9d9378267d573ea72db383a362d1a73", "fusion_lon": 0.0, "bike_id": "c9d9378267d573ea72db383a362d1a73", "is_reserved": 0, "rental_uris": {"android": "https://dc.lft.to/lastmile_qr_scan", "ios": "https://dc.lft.to/lastmile_qr_scan"}, "lat": 38.898174833333336, "is_disabled": 0, "lon": -77.04359733333334}, {"fusion_lat": 0.0, "type": "electric_scooter", "name": "c2daffebe95b671349c9a4343fec830b", "fusion_lon": 0.0, "bike_id": "c2daffebe95b671349c9a4343fec830b", "is_reserved": 0, "rental_uris": {"android": "https://dc.lft.to/lastmile_qr_scan", "ios": "https://dc.lft.to/lastmile_qr_scan"}, "lat": 38.94215466666667, "is_disabled": 0, "lon": -77.02508216666666}, {"fusion_lat": 0.0, "type": "electric_scooter", "name": "5a5786bf0ba76ff650ecc8fff2e0d44f", "fusion_lon": 0.0, "bike_id": "5a5786bf0ba76ff650ecc8fff2e0d44f", "is_reserved": 0, "rental_uris": {"android": "https://dc.lft.to/lastmile_qr_scan", "ios": "https://dc.lft.to/lastmile_qr_scan"}, "lat": 38.93664316666667, "is_disabled": 0, "lon": -77.03428166666667}, {"fusion_lat": 0.0, "type": "electric_scooter", "name": "75ec59182164253f5f370a6eb18c80d1", "fusion_lon": 0.0, "bike_id": "75ec59182164253f5f370a6eb18c80d1", "is_reserved": 0, "rental_uris": {"android": "https://dc.lft.to/lastmile_qr_scan", "ios": "https://dc.lft.to/lastmile_qr_scan"}, "lat": 38.90092633333333, "is_disabled": 0, "lon": -77.02032966666667}, {"fusion_lat": 0.0, "type": "electric_scooter", "name": "236b3e761fe162b5f8089a00e294b118", "fusion_lon": 0.0, "bike_id": "236b3e761fe162b5f8089a00e294b118", "is_reserved": 0, "rental_uris": {"android": "https://dc.lft.to/lastmile_qr_scan", "ios": "https://dc.lft.to/lastmile_qr_scan"}, "lat": 38.90632133333333, "is_disabled": 0, "lon": -77.00593683333334}, {"fusion_lat": 0.0, "type": "electric_scooter", "name": "ab7f6b50dbadf1e80e0b1e7061582608", "fusion_lon": 0.0, "bike_id": "ab7f6b50dbadf1e80e0b1e7061582608", "is_reserved": 0, "rental_uris": {"android": "https://dc.lft.to/lastmile_qr_scan", "ios": "https://dc.lft.to/lastmile_qr_scan"}, "lat": 38.916221666666665, "is_disabled": 0, "lon": -77.0320375}, {"fusion_lat": 0.0, "type": "electric_bike", "name": "e934a302ed3d1b582bcb30d15df6b9cc", "fusion_lon": 0.0, "bike_id": "e934a302ed3d1b582bcb30d15df6b9cc", "is_reserved": 0, "rental_uris": {"android": "https://dc.lft.to/lastmile_qr_scan", "ios": "https://dc.lft.to/lastmile_qr_scan"}, "lat": 38.92974, "is_disabled": 0, "lon": -77.22574816666666}, {"fusion_lat": 0.0, "type": "electric_scooter", "name": "87a14ab093fb471c7ce3bf5ecbb7b6ad", "fusion_lon": 0.0, "bike_id": "87a14ab093fb471c7ce3bf5ecbb7b6ad", "is_reserved": 0, "rental_uris": {"android": "https://dc.lft.to/lastmile_qr_scan", "ios": "https://dc.lft.to/lastmile_qr_scan"}, "lat": 38.87159533333333, "is_disabled": 0, "lon": -76.97742816666667}, {"fusion_lat": 0.0, "type": "electric_scooter", "name": "54f9c76244b38c55c1b5b28c28556f02", "fusion_lon": 0.0, "bike_id": "54f9c76244b38c55c1b5b28c28556f02", "is_reserved": 0, "rental_uris": {"android": "https://dc.lft.to/lastmile_qr_scan", "ios": "https://dc.lft.to/lastmile_qr_scan"}, "lat": 38.928519666666666, "is_disabled": 0, "lon": -77.03315066666667}, {"fusion_lat": 0.0, "type": "electric_scooter", "name": "affeed31af79f74854545f58a9fd03de", "fusion_lon": 0.0, "bike_id": "affeed31af79f74854545f58a9fd03de", "is_reserved": 0, "rental_uris": {"android": "https://dc.lft.to/lastmile_qr_scan", "ios": "https://dc.lft.to/lastmile_qr_scan"}, "lat": 38.91634033333333, "is_disabled": 0, "lon": -77.0107785}, {"fusion_lat": 0.0, "type": "electric_scooter", "name": "9027ab3737cce999530da31213451b8a", "fusion_lon": 0.0, "bike_id": "9027ab3737cce999530da31213451b8a", "is_reserved": 0, "rental_uris": {"android": "https://dc.lft.to/lastmile_qr_scan", "ios": "https://dc.lft.to/lastmile_qr_scan"}, "lat": 38.91380083333333, "is_disabled": 0, "lon": -77.0331255}, {"fusion_lat": 0.0, "type": "electric_scooter", "name": "830b5e2a7c36e70708a59689a2411471", "fusion_lon": 0.0, "bike_id": "830b5e2a7c36e70708a59689a2411471", "is_reserved": 0, "rental_uris": {"android": "https://dc.lft.to/lastmile_qr_scan", "ios": "https://dc.lft.to/lastmile_qr_scan"}, "lat": 38.900083333333335, "is_disabled": 0, "lon": -77.031669}, {"fusion_lat": 0.0, "type": "electric_scooter", "name": "2b68878cb0796b959cf7c0a3845b7dc5", "fusion_lon": 0.0, "bike_id": "2b68878cb0796b959cf7c0a3845b7dc5", "is_reserved": 0, "rental_uris": {"android": "https://dc.lft.to/lastmile_qr_scan", "ios": "https://dc.lft.to/lastmile_qr_scan"}, "lat": 38.94292433333333, "is_disabled": 0, "lon": -77.02171066666666}, {"fusion_lat": 0.0, "type": "electric_scooter", "name": "1c9498028e6de6d6dbfda0b74d7fa5db", "fusion_lon": 0.0, "bike_id": "1c9498028e6de6d6dbfda0b74d7fa5db", "is_reserved": 0, "rental_uris": {"android": "https://dc.lft.to/lastmile_qr_scan", "ios": "https://dc.lft.to/lastmile_qr_scan"}, "lat": 38.899603666666664, "is_disabled": 0, "lon": -77.03398033333333}, {"fusion_lat": 0.0, "type": "electric_scooter", "name": "007206a9552b083de4e18909b608853e", "fusion_lon": 0.0, "bike_id": "007206a9552b083de4e18909b608853e", "is_reserved": 0, "rental_uris": {"android": "https://dc.lft.to/lastmile_qr_scan", "ios": "https://dc.lft.to/lastmile_qr_scan"}, "lat": 38.8717285, "is_disabled": 0, "lon": -77.00624333333333}, {"fusion_lat": 0.0, "type": "electric_scooter", "name": "9a1b35975fb6659b91d1f09eeb9e4382", "fusion_lon": 0.0, "bike_id": "9a1b35975fb6659b91d1f09eeb9e4382", "is_reserved": 0, "rental_uris": {"android": "https://dc.lft.to/lastmile_qr_scan", "ios": "https://dc.lft.to/lastmile_qr_scan"}, "lat": 38.90268716666667, "is_disabled": 0, "lon": -77.00349966666667}, {"fusion_lat": 0.0, "type": "electric_scooter", "name": "b50cca44a3ca80915b3fab899045af6e", "fusion_lon": 0.0, "bike_id": "b50cca44a3ca80915b3fab899045af6e", "is_reserved": 0, "rental_uris": {"android": "https://dc.lft.to/lastmile_qr_scan", "ios": "https://dc.lft.to/lastmile_qr_scan"}, "lat": 38.90539066666667, "is_disabled": 0, "lon": -77.0394285}, {"fusion_lat": 0.0, "type": "electric_scooter", "name": "f1073d6ad9a3b28bb0379ad99e99ddc6", "fusion_lon": 0.0, "bike_id": "f1073d6ad9a3b28bb0379ad99e99ddc6", "is_reserved": 0, "rental_uris": {"android": "https://dc.lft.to/lastmile_qr_scan", "ios": "https://dc.lft.to/lastmile_qr_scan"}, "lat": 38.92836883333333, "is_disabled": 0, "lon": -77.03296316666666}, {"fusion_lat": 0.0, "type": "electric_bike", "name": "719070490cd06a609455cde75b1b71e1", "fusion_lon": 0.0, "bike_id": "719070490cd06a609455cde75b1b71e1", "is_reserved": 0, "rental_uris": {"android": "https://dc.lft.to/lastmile_qr_scan", "ios": "https://dc.lft.to/lastmile_qr_scan"}, "lat": 38.95369933333333, "is_disabled": 0, "lon": -77.027932}, {"fusion_lat": 0.0, "type": "electric_scooter", "name": "e4aa9a1edf6cb0e659758678b9ad0adf", "fusion_lon": 0.0, "bike_id": "e4aa9a1edf6cb0e659758678b9ad0adf", "is_reserved": 0, "rental_uris": {"android": "https://dc.lft.to/lastmile_qr_scan", "ios": "https://dc.lft.to/lastmile_qr_scan"}, "lat": 38.9593265, "is_disabled": 0, "lon": -77.0312785}, {"fusion_lat": 0.0, "type": "electric_scooter", "name": "1e658fd9a5e1ed611f18400cc773f4f7", "fusion_lon": 0.0, "bike_id": "1e658fd9a5e1ed611f18400cc773f4f7", "is_reserved": 0, "rental_uris": {"android": "https://dc.lft.to/lastmile_qr_scan", "ios": "https://dc.lft.to/lastmile_qr_scan"}, "lat": 38.91275983333333, "is_disabled": 0, "lon": -77.0224765}, {"fusion_lat": 0.0, "type": "electric_scooter", "name": "c21d9d071be77f54175bc7623f761fb4", "fusion_lon": 0.0, "bike_id": "c21d9d071be77f54175bc7623f761fb4", "is_reserved": 0, "rental_uris": {"android": "https://dc.lft.to/lastmile_qr_scan", "ios": "https://dc.lft.to/lastmile_qr_scan"}, "lat": 38.907300166666666, "is_disabled": 0, "lon": -77.03446983333333}, {"fusion_lat": 0.0, "type": "electric_scooter", "name": "c0189c9e86be6eaa470c1e29953d7be9", "fusion_lon": 0.0, "bike_id": "c0189c9e86be6eaa470c1e29953d7be9", "is_reserved": 0, "rental_uris": {"android": "https://dc.lft.to/lastmile_qr_scan", "ios": "https://dc.lft.to/lastmile_qr_scan"}, "lat": 38.873623, "is_disabled": 0, "lon": -76.97012883333333}, {"fusion_lat": 0.0, "type": "electric_scooter", "name": "52978128b6947c13cce8774bc083ff08", "fusion_lon": 0.0, "bike_id": "52978128b6947c13cce8774bc083ff08", "is_reserved": 0, "rental_uris": {"android": "https://dc.lft.to/lastmile_qr_scan", "ios": "https://dc.lft.to/lastmile_qr_scan"}, "lat": 38.927100333333335, "is_disabled": 0, "lon": -77.02403433333333}, {"fusion_lat": 0.0, "type": "electric_scooter", "name": "1af3253ff3f72a1d603fa24fcc5b6c1f", "fusion_lon": 0.0, "bike_id": "1af3253ff3f72a1d603fa24fcc5b6c1f", "is_reserved": 0, "rental_uris": {"android": "https://dc.lft.to/lastmile_qr_scan", "ios": "https://dc.lft.to/lastmile_qr_scan"}, "lat": 38.92478766666667, "is_disabled": 0, "lon": -77.02199266666666}, {"fusion_lat": 0.0, "type": "electric_scooter", "name": "4be809cd33a45f5a9cadf91c1ecdc2eb", "fusion_lon": 0.0, "bike_id": "4be809cd33a45f5a9cadf91c1ecdc2eb", "is_reserved": 0, "rental_uris": {"android": "https://dc.lft.to/lastmile_qr_scan", "ios": "https://dc.lft.to/lastmile_qr_scan"}, "lat": 38.892407666666664, "is_disabled": 0, "lon": -77.04158466666667}, {"fusion_lat": 0.0, "type": "electric_scooter", "name": "796f0d123ead24373b69f34ff74b8a13", "fusion_lon": 0.0, "bike_id": "796f0d123ead24373b69f34ff74b8a13", "is_reserved": 0, "rental_uris": {"android": "https://dc.lft.to/lastmile_qr_scan", "ios": "https://dc.lft.to/lastmile_qr_scan"}, "lat": 38.862085666666665, "is_disabled": 0, "lon": -76.99477383333334}, {"fusion_lat": 0.0, "type": "electric_scooter", "name": "f87d50c87fec3e934e88e013fa5b0c2c", "fusion_lon": 0.0, "bike_id": "f87d50c87fec3e934e88e013fa5b0c2c", "is_reserved": 0, "rental_uris": {"android": "https://dc.lft.to/lastmile_qr_scan", "ios": "https://dc.lft.to/lastmile_qr_scan"}, "lat": 38.906414, "is_disabled": 0, "lon": -77.04885833333333}, {"fusion_lat": 0.0, "type": "electric_scooter", "name": "123a70b6a1a97cff084d463f191fdc08", "fusion_lon": 0.0, "bike_id": "123a70b6a1a97cff084d463f191fdc08", "is_reserved": 0, "rental_uris": {"android": "https://dc.lft.to/lastmile_qr_scan", "ios": "https://dc.lft.to/lastmile_qr_scan"}, "lat": 38.92750816666667, "is_disabled": 0, "lon": -77.02426433333333}, {"fusion_lat": 0.0, "type": "electric_scooter", "name": "595d3dbd2e1f95e7f100280e8753cf10", "fusion_lon": 0.0, "bike_id": "595d3dbd2e1f95e7f100280e8753cf10", "is_reserved": 0, "rental_uris": {"android": "https://dc.lft.to/lastmile_qr_scan", "ios": "https://dc.lft.to/lastmile_qr_scan"}, "lat": 38.92516833333333, "is_disabled": 0, "lon": -77.050463}, {"fusion_lat": 0.0, "type": "electric_scooter", "name": "47fbd1b6585908a878156b54c9a590dd", "fusion_lon": 0.0, "bike_id": "47fbd1b6585908a878156b54c9a590dd", "is_reserved": 0, "rental_uris": {"android": "https://dc.lft.to/lastmile_qr_scan", "ios": "https://dc.lft.to/lastmile_qr_scan"}, "lat": 38.927674833333334, "is_disabled": 0, "lon": -77.02066616666667}, {"fusion_lat": 0.0, "type": "electric_scooter", "name": "2478d6181940f57bbcdaf82374bd942b", "fusion_lon": 0.0, "bike_id": "2478d6181940f57bbcdaf82374bd942b", "is_reserved": 0, "rental_uris": {"android": "https://dc.lft.to/lastmile_qr_scan", "ios": "https://dc.lft.to/lastmile_qr_scan"}, "lat": 38.91743016666667, "is_disabled": 0, "lon": -77.03183533333333}, {"fusion_lat": 0.0, "type": "electric_scooter", "name": "1eebc71fe9f2cb79fd1f4d64c225e0d2", "fusion_lon": 0.0, "bike_id": "1eebc71fe9f2cb79fd1f4d64c225e0d2", "is_reserved": 0, "rental_uris": {"android": "https://dc.lft.to/lastmile_qr_scan", "ios": "https://dc.lft.to/lastmile_qr_scan"}, "lat": 38.903614, "is_disabled": 0, "lon": -77.034702}, {"fusion_lat": 0.0, "type": "electric_scooter", "name": "fb28fabee6875d40ed23b196f9b65eae", "fusion_lon": 0.0, "bike_id": "fb28fabee6875d40ed23b196f9b65eae", "is_reserved": 0, "rental_uris": {"android": "https://dc.lft.to/lastmile_qr_scan", "ios": "https://dc.lft.to/lastmile_qr_scan"}, "lat": 38.9125955, "is_disabled": 0, "lon": -77.03831216666667}, {"fusion_lat": 0.0, "type": "electric_scooter", "name": "8add21630b895541c46625bf2b317eec", "fusion_lon": 0.0, "bike_id": "8add21630b895541c46625bf2b317eec", "is_reserved": 0, "rental_uris": {"android": "https://dc.lft.to/lastmile_qr_scan", "ios": "https://dc.lft.to/lastmile_qr_scan"}, "lat": 38.9072375, "is_disabled": 0, "lon": -76.99817016666667}, {"fusion_lat": 0.0, "type": "electric_scooter", "name": "97b29b7173119de29db031aa2b904f35", "fusion_lon": 0.0, "bike_id": "97b29b7173119de29db031aa2b904f35", "is_reserved": 0, "rental_uris": {"android": "https://dc.lft.to/lastmile_qr_scan", "ios": "https://dc.lft.to/lastmile_qr_scan"}, "lat": 38.906018, "is_disabled": 0, "lon": -77.04018}, {"fusion_lat": 0.0, "type": "electric_scooter", "name": "d09ee23d423905a9168718650f403f4c", "fusion_lon": 0.0, "bike_id": "d09ee23d423905a9168718650f403f4c", "is_reserved": 0, "rental_uris": {"android": "https://dc.lft.to/lastmile_qr_scan", "ios": "https://dc.lft.to/lastmile_qr_scan"}, "lat": 38.93170716666667, "is_disabled": 0, "lon": -77.034183}, {"fusion_lat": 0.0, "type": "electric_bike", "name": "40830548484af989c004a32755425887", "fusion_lon": 0.0, "bike_id": "40830548484af989c004a32755425887", "is_reserved": 0, "rental_uris": {"android": "https://dc.lft.to/lastmile_qr_scan", "ios": "https://dc.lft.to/lastmile_qr_scan"}, "lat": 38.807077, "is_disabled": 0, "lon": -77.061776}, {"fusion_lat": 0.0, "type": "electric_scooter", "name": "1bf55d3a25dc0161f875c87c74b55986", "fusion_lon": 0.0, "bike_id": "1bf55d3a25dc0161f875c87c74b55986", "is_reserved": 0, "rental_uris": {"android": "https://dc.lft.to/lastmile_qr_scan", "ios": "https://dc.lft.to/lastmile_qr_scan"}, "lat": 38.90931966666667, "is_disabled": 0, "lon": -77.04176733333334}, {"fusion_lat": 0.0, "type": "electric_bike", "name": "b60e59202382e4dc5b4bf7a172ce3dab", "fusion_lon": 0.0, "bike_id": "b60e59202382e4dc5b4bf7a172ce3dab", "is_reserved": 0, "rental_uris": {"android": "https://dc.lft.to/lastmile_qr_scan", "ios": "https://dc.lft.to/lastmile_qr_scan"}, "lat": 38.98855983333333, "is_disabled": 0, "lon": -77.095681}, {"fusion_lat": 0.0, "type": "electric_scooter", "name": "2ba44940dcb8f5712ea2fea6a51a17ce", "fusion_lon": 0.0, "bike_id": "2ba44940dcb8f5712ea2fea6a51a17ce", "is_reserved": 0, "rental_uris": {"android": "https://dc.lft.to/lastmile_qr_scan", "ios": "https://dc.lft.to/lastmile_qr_scan"}, "lat": 38.91713266666667, "is_disabled": 0, "lon": -77.0366105}, {"fusion_lat": 0.0, "type": "electric_scooter", "name": "a1048ee86786abba4a94f0aeafc9023c", "fusion_lon": 0.0, "bike_id": "a1048ee86786abba4a94f0aeafc9023c", "is_reserved": 0, "rental_uris": {"android": "https://dc.lft.to/lastmile_qr_scan", "ios": "https://dc.lft.to/lastmile_qr_scan"}, "lat": 38.9232505, "is_disabled": 0, "lon": -77.01953683333333}, {"fusion_lat": 0.0, "type": "electric_scooter", "name": "9583a9b068972a4b09be41fab0c464f3", "fusion_lon": 0.0, "bike_id": "9583a9b068972a4b09be41fab0c464f3", "is_reserved": 0, "rental_uris": {"android": "https://dc.lft.to/lastmile_qr_scan", "ios": "https://dc.lft.to/lastmile_qr_scan"}, "lat": 38.8924035, "is_disabled": 0, "lon": -77.03350733333333}, {"fusion_lat": 0.0, "type": "electric_scooter", "name": "50fe64938be9f74fb573d9cef9741a57", "fusion_lon": 0.0, "bike_id": "50fe64938be9f74fb573d9cef9741a57", "is_reserved": 0, "rental_uris": {"android": "https://dc.lft.to/lastmile_qr_scan", "ios": "https://dc.lft.to/lastmile_qr_scan"}, "lat": 38.89224516666667, "is_disabled": 0, "lon": -77.04313333333333}, {"fusion_lat": 0.0, "type": "electric_scooter", "name": "037cdfdfe4bd1ff72c34d762d6a5a5fe", "fusion_lon": 0.0, "bike_id": "037cdfdfe4bd1ff72c34d762d6a5a5fe", "is_reserved": 0, "rental_uris": {"android": "https://dc.lft.to/lastmile_qr_scan", "ios": "https://dc.lft.to/lastmile_qr_scan"}, "lat": 38.907192333333334, "is_disabled": 0, "lon": -77.00193383333334}, {"fusion_lat": 0.0, "type": "electric_bike", "name": "669d07da87202e02001c15e14bc1dbef", "fusion_lon": 0.0, "bike_id": "669d07da87202e02001c15e14bc1dbef", "is_reserved": 0, "rental_uris": {"android": "https://dc.lft.to/lastmile_qr_scan", "ios": "https://dc.lft.to/lastmile_qr_scan"}, "lat": 38.93861166666667, "is_disabled": 0, "lon": -77.02632466666667}, {"fusion_lat": 0.0, "type": "electric_scooter", "name": "f93af37aaa546660c2c1fb6d119bee97", "fusion_lon": 0.0, "bike_id": "f93af37aaa546660c2c1fb6d119bee97", "is_reserved": 0, "rental_uris": {"android": "https://dc.lft.to/lastmile_qr_scan", "ios": "https://dc.lft.to/lastmile_qr_scan"}, "lat": 38.91258916666666, "is_disabled": 0, "lon": -77.03072366666666}, {"fusion_lat": 0.0, "type": "electric_scooter", "name": "be3bdc8273a3d7020d6ceaf63bf42e38", "fusion_lon": 0.0, "bike_id": "be3bdc8273a3d7020d6ceaf63bf42e38", "is_reserved": 0, "rental_uris": {"android": "https://dc.lft.to/lastmile_qr_scan", "ios": "https://dc.lft.to/lastmile_qr_scan"}, "lat": 38.892266666666664, "is_disabled": 0, "lon": -77.0311115}, {"fusion_lat": 0.0, "type": "electric_scooter", "name": "d1a42a480c5a9f922ac71e9bb5dd4055", "fusion_lon": 0.0, "bike_id": "d1a42a480c5a9f922ac71e9bb5dd4055", "is_reserved": 0, "rental_uris": {"android": "https://dc.lft.to/lastmile_qr_scan", "ios": "https://dc.lft.to/lastmile_qr_scan"}, "lat": 38.89912983333333, "is_disabled": 0, "lon": -77.03280316666667}, {"fusion_lat": 0.0, "type": "electric_scooter", "name": "20097565a257faaa8f3dda7f509779ed", "fusion_lon": 0.0, "bike_id": "20097565a257faaa8f3dda7f509779ed", "is_reserved": 0, "rental_uris": {"android": "https://dc.lft.to/lastmile_qr_scan", "ios": "https://dc.lft.to/lastmile_qr_scan"}, "lat": 38.9489975, "is_disabled": 0, "lon": -77.02073166666666}, {"fusion_lat": 0.0, "type": "electric_scooter", "name": "06acedd7a6f0152cf7a3504a223ca956", "fusion_lon": 0.0, "bike_id": "06acedd7a6f0152cf7a3504a223ca956", "is_reserved": 0, "rental_uris": {"android": "https://dc.lft.to/lastmile_qr_scan", "ios": "https://dc.lft.to/lastmile_qr_scan"}, "lat": 38.90041383333333, "is_disabled": 0, "lon": -76.998492}, {"fusion_lat": 0.0, "type": "electric_scooter", "name": "b9429388417510a930191d6a13634396", "fusion_lon": 0.0, "bike_id": "b9429388417510a930191d6a13634396", "is_reserved": 0, "rental_uris": {"android": "https://dc.lft.to/lastmile_qr_scan", "ios": "https://dc.lft.to/lastmile_qr_scan"}, "lat": 38.90864466666667, "is_disabled": 0, "lon": -77.03764666666666}, {"fusion_lat": 0.0, "type": "electric_scooter", "name": "717d3ebb1fffde587c1cdbf3091d2439", "fusion_lon": 0.0, "bike_id": "717d3ebb1fffde587c1cdbf3091d2439", "is_reserved": 0, "rental_uris": {"android": "https://dc.lft.to/lastmile_qr_scan", "ios": "https://dc.lft.to/lastmile_qr_scan"}, "lat": 38.92222116666667, "is_disabled": 0, "lon": -77.042455}, {"fusion_lat": 0.0, "type": "electric_scooter", "name": "25151d1a517a31ba1ec6d8e14d58e259", "fusion_lon": 0.0, "bike_id": "25151d1a517a31ba1ec6d8e14d58e259", "is_reserved": 0, "rental_uris": {"android": "https://dc.lft.to/lastmile_qr_scan", "ios": "https://dc.lft.to/lastmile_qr_scan"}, "lat": 38.879146, "is_disabled": 0, "lon": -77.00537883333334}, {"fusion_lat": 0.0, "type": "electric_scooter", "name": "4f1241ff7835ab1cb4b9dc0dec731981", "fusion_lon": 0.0, "bike_id": "4f1241ff7835ab1cb4b9dc0dec731981", "is_reserved": 0, "rental_uris": {"android": "https://dc.lft.to/lastmile_qr_scan", "ios": "https://dc.lft.to/lastmile_qr_scan"}, "lat": 38.871863, "is_disabled": 0, "lon": -77.00595516666667}, {"fusion_lat": 0.0, "type": "electric_scooter", "name": "4e47bd46f794a6978445e1c60a461970", "fusion_lon": 0.0, "bike_id": "4e47bd46f794a6978445e1c60a461970", "is_reserved": 0, "rental_uris": {"android": "https://dc.lft.to/lastmile_qr_scan", "ios": "https://dc.lft.to/lastmile_qr_scan"}, "lat": 38.88552516666667, "is_disabled": 0, "lon": -77.02021833333333}, {"fusion_lat": 0.0, "type": "electric_scooter", "name": "b24a0a3c5b809907732900a2cb3baaa4", "fusion_lon": 0.0, "bike_id": "b24a0a3c5b809907732900a2cb3baaa4", "is_reserved": 0, "rental_uris": {"android": "https://dc.lft.to/lastmile_qr_scan", "ios": "https://dc.lft.to/lastmile_qr_scan"}, "lat": 38.9329625, "is_disabled": 0, "lon": -77.08547083333333}, {"fusion_lat": 0.0, "type": "electric_scooter", "name": "973ffa7ecf4097ece197d95ecd80fc42", "fusion_lon": 0.0, "bike_id": "973ffa7ecf4097ece197d95ecd80fc42", "is_reserved": 0, "rental_uris": {"android": "https://dc.lft.to/lastmile_qr_scan", "ios": "https://dc.lft.to/lastmile_qr_scan"}, "lat": 38.91257316666667, "is_disabled": 0, "lon": -77.026866}, {"fusion_lat": 0.0, "type": "electric_scooter", "name": "6b0edccbd7d52f221dca944f12176147", "fusion_lon": 0.0, "bike_id": "6b0edccbd7d52f221dca944f12176147", "is_reserved": 0, "rental_uris": {"android": "https://dc.lft.to/lastmile_qr_scan", "ios": "https://dc.lft.to/lastmile_qr_scan"}, "lat": 38.89956, "is_disabled": 0, "lon": -77.03355216666667}, {"fusion_lat": 0.0, "type": "electric_scooter", "name": "2abfce608581ce5bc7a17effaad7cf4b", "fusion_lon": 0.0, "bike_id": "2abfce608581ce5bc7a17effaad7cf4b", "is_reserved": 0, "rental_uris": {"android": "https://dc.lft.to/lastmile_qr_scan", "ios": "https://dc.lft.to/lastmile_qr_scan"}, "lat": 38.92489033333333, "is_disabled": 0, "lon": -77.0576085}, {"fusion_lat": 0.0, "type": "electric_scooter", "name": "b6e8a5d717b4b5177ab537ee28024a5a", "fusion_lon": 0.0, "bike_id": "b6e8a5d717b4b5177ab537ee28024a5a", "is_reserved": 0, "rental_uris": {"android": "https://dc.lft.to/lastmile_qr_scan", "ios": "https://dc.lft.to/lastmile_qr_scan"}, "lat": 38.863708833333334, "is_disabled": 0, "lon": -76.9905885}, {"fusion_lat": 0.0, "type": "electric_scooter", "name": "703dc3fe2eda019e23876d208ba93faa", "fusion_lon": 0.0, "bike_id": "703dc3fe2eda019e23876d208ba93faa", "is_reserved": 0, "rental_uris": {"android": "https://dc.lft.to/lastmile_qr_scan", "ios": "https://dc.lft.to/lastmile_qr_scan"}, "lat": 38.86644483333333, "is_disabled": 0, "lon": -76.985063}, {"fusion_lat": 0.0, "type": "electric_scooter", "name": "f4c6190c9e7c52f09ce5560aeb7fd7b2", "fusion_lon": 0.0, "bike_id": "f4c6190c9e7c52f09ce5560aeb7fd7b2", "is_reserved": 0, "rental_uris": {"android": "https://dc.lft.to/lastmile_qr_scan", "ios": "https://dc.lft.to/lastmile_qr_scan"}, "lat": 38.89218433333333, "is_disabled": 0, "lon": -77.04378133333333}, {"fusion_lat": 0.0, "type": "electric_scooter", "name": "1bf89fba7f82dd0e7a9f42098979b5d4", "fusion_lon": 0.0, "bike_id": "1bf89fba7f82dd0e7a9f42098979b5d4", "is_reserved": 0, "rental_uris": {"android": "https://dc.lft.to/lastmile_qr_scan", "ios": "https://dc.lft.to/lastmile_qr_scan"}, "lat": 38.920973833333335, "is_disabled": 0, "lon": -77.0332605}, {"fusion_lat": 0.0, "type": "electric_scooter", "name": "250af81f5d1cbfd8a1b18a699388503a", "fusion_lon": 0.0, "bike_id": "250af81f5d1cbfd8a1b18a699388503a", "is_reserved": 0, "rental_uris": {"android": "https://dc.lft.to/lastmile_qr_scan", "ios": "https://dc.lft.to/lastmile_qr_scan"}, "lat": 38.910567, "is_disabled": 0, "lon": -77.0218445}, {"fusion_lat": 0.0, "type": "electric_scooter", "name": "89bc52ca24a75839a2c3fbd68c634a9e", "fusion_lon": 0.0, "bike_id": "89bc52ca24a75839a2c3fbd68c634a9e", "is_reserved": 0, "rental_uris": {"android": "https://dc.lft.to/lastmile_qr_scan", "ios": "https://dc.lft.to/lastmile_qr_scan"}, "lat": 38.93404866666667, "is_disabled": 0, "lon": -77.02206816666667}, {"fusion_lat": 0.0, "type": "electric_scooter", "name": "92bd29ad9595223ba4c66520bd282a82", "fusion_lon": 0.0, "bike_id": "92bd29ad9595223ba4c66520bd282a82", "is_reserved": 0, "rental_uris": {"android": "https://dc.lft.to/lastmile_qr_scan", "ios": "https://dc.lft.to/lastmile_qr_scan"}, "lat": 38.93000466666667, "is_disabled": 0, "lon": -77.01302583333333}, {"fusion_lat": 0.0, "type": "electric_scooter", "name": "482a99b524b121a58df1db054f3dd05d", "fusion_lon": 0.0, "bike_id": "482a99b524b121a58df1db054f3dd05d", "is_reserved": 0, "rental_uris": {"android": "https://dc.lft.to/lastmile_qr_scan", "ios": "https://dc.lft.to/lastmile_qr_scan"}, "lat": 38.914051666666666, "is_disabled": 0, "lon": -77.04491533333334}, {"fusion_lat": 0.0, "type": "electric_scooter", "name": "7ba7b3b2c02e4580afb48a204b03574b", "fusion_lon": 0.0, "bike_id": "7ba7b3b2c02e4580afb48a204b03574b", "is_reserved": 0, "rental_uris": {"android": "https://dc.lft.to/lastmile_qr_scan", "ios": "https://dc.lft.to/lastmile_qr_scan"}, "lat": 38.8745515, "is_disabled": 0, "lon": -77.0054415}, {"fusion_lat": 0.0, "type": "electric_scooter", "name": "d7c2c03ccf510c341c69c7896d7faae5", "fusion_lon": 0.0, "bike_id": "d7c2c03ccf510c341c69c7896d7faae5", "is_reserved": 0, "rental_uris": {"android": "https://dc.lft.to/lastmile_qr_scan", "ios": "https://dc.lft.to/lastmile_qr_scan"}, "lat": 38.892214333333335, "is_disabled": 0, "lon": -77.02220166666666}, {"fusion_lat": 0.0, "type": "electric_scooter", "name": "f258f27f69b0fbf40523d8b4f2117f4c", "fusion_lon": 0.0, "bike_id": "f258f27f69b0fbf40523d8b4f2117f4c", "is_reserved": 0, "rental_uris": {"android": "https://dc.lft.to/lastmile_qr_scan", "ios": "https://dc.lft.to/lastmile_qr_scan"}, "lat": 38.92743733333333, "is_disabled": 0, "lon": -77.03278366666666}, {"fusion_lat": 0.0, "type": "electric_scooter", "name": "255bafc6a21bdf5189e4fab00d02ad99", "fusion_lon": 0.0, "bike_id": "255bafc6a21bdf5189e4fab00d02ad99", "is_reserved": 0, "rental_uris": {"android": "https://dc.lft.to/lastmile_qr_scan", "ios": "https://dc.lft.to/lastmile_qr_scan"}, "lat": 38.9450965, "is_disabled": 0, "lon": -77.074573}, {"fusion_lat": 0.0, "type": "electric_scooter", "name": "c42b4cfcc969327d04e6fbde199f7ae0", "fusion_lon": 0.0, "bike_id": "c42b4cfcc969327d04e6fbde199f7ae0", "is_reserved": 0, "rental_uris": {"android": "https://dc.lft.to/lastmile_qr_scan", "ios": "https://dc.lft.to/lastmile_qr_scan"}, "lat": 38.843135333333336, "is_disabled": 0, "lon": -76.99930883333333}, {"fusion_lat": 0.0, "type": "electric_scooter", "name": "8363354f21e80260de87544381dbad3b", "fusion_lon": 0.0, "bike_id": "8363354f21e80260de87544381dbad3b", "is_reserved": 0, "rental_uris": {"android": "https://dc.lft.to/lastmile_qr_scan", "ios": "https://dc.lft.to/lastmile_qr_scan"}, "lat": 38.9059255, "is_disabled": 0, "lon": -77.02200466666666}, {"fusion_lat": 0.0, "type": "electric_bike", "name": "634b23bf324ccc0b475759efc65144ea", "fusion_lon": 0.0, "bike_id": "634b23bf324ccc0b475759efc65144ea", "is_reserved": 0, "rental_uris": {"android": "https://dc.lft.to/lastmile_qr_scan", "ios": "https://dc.lft.to/lastmile_qr_scan"}, "lat": 39.05633516666666, "is_disabled": 0, "lon": -77.12532}, {"fusion_lat": 0.0, "type": "electric_scooter", "name": "4eff7db28d541f0e4e82419627101424", "fusion_lon": 0.0, "bike_id": "4eff7db28d541f0e4e82419627101424", "is_reserved": 0, "rental_uris": {"android": "https://dc.lft.to/lastmile_qr_scan", "ios": "https://dc.lft.to/lastmile_qr_scan"}, "lat": 38.905076, "is_disabled": 0, "lon": -77.03848333333333}, {"fusion_lat": 0.0, "type": "electric_scooter", "name": "15632e5d5c99d340f2bec5a24358165a", "fusion_lon": 0.0, "bike_id": "15632e5d5c99d340f2bec5a24358165a", "is_reserved": 0, "rental_uris": {"android": "https://dc.lft.to/lastmile_qr_scan", "ios": "https://dc.lft.to/lastmile_qr_scan"}, "lat": 38.922191833333336, "is_disabled": 0, "lon": -77.022155}, {"fusion_lat": 0.0, "type": "electric_scooter", "name": "5db505e8af492b07f6fbd69f3beea3e3", "fusion_lon": 0.0, "bike_id": "5db505e8af492b07f6fbd69f3beea3e3", "is_reserved": 0, "rental_uris": {"android": "https://dc.lft.to/lastmile_qr_scan", "ios": "https://dc.lft.to/lastmile_qr_scan"}, "lat": 38.89502433333333, "is_disabled": 0, "lon": -76.9347695}, {"fusion_lat": 0.0, "type": "electric_scooter", "name": "22ec86b369b3a0efc510c721ab61f74a", "fusion_lon": 0.0, "bike_id": "22ec86b369b3a0efc510c721ab61f74a", "is_reserved": 0, "rental_uris": {"android": "https://dc.lft.to/lastmile_qr_scan", "ios": "https://dc.lft.to/lastmile_qr_scan"}, "lat": 38.892451333333334, "is_disabled": 0, "lon": -77.01728516666667}, {"fusion_lat": 0.0, "type": "electric_scooter", "name": "d2e0fa804512cea30a4e583578f741bc", "fusion_lon": 0.0, "bike_id": "d2e0fa804512cea30a4e583578f741bc", "is_reserved": 0, "rental_uris": {"android": "https://dc.lft.to/lastmile_qr_scan", "ios": "https://dc.lft.to/lastmile_qr_scan"}, "lat": 38.90126466666667, "is_disabled": 0, "lon": -77.05003933333333}, {"fusion_lat": 0.0, "type": "electric_scooter", "name": "36dc9c49b49acf5fced882d39015c5e5", "fusion_lon": 0.0, "bike_id": "36dc9c49b49acf5fced882d39015c5e5", "is_reserved": 0, "rental_uris": {"android": "https://dc.lft.to/lastmile_qr_scan", "ios": "https://dc.lft.to/lastmile_qr_scan"}, "lat": 38.88752183333333, "is_disabled": 0, "lon": -76.98694633333334}, {"fusion_lat": 0.0, "type": "electric_scooter", "name": "1fa74fad77e628d93bc19882853c62ac", "fusion_lon": 0.0, "bike_id": "1fa74fad77e628d93bc19882853c62ac", "is_reserved": 0, "rental_uris": {"android": "https://dc.lft.to/lastmile_qr_scan", "ios": "https://dc.lft.to/lastmile_qr_scan"}, "lat": 38.91886916666667, "is_disabled": 0, "lon": -77.0297465}, {"fusion_lat": 0.0, "type": "electric_bike", "name": "403d30e2ee9b05df5234d1a215206c1a", "fusion_lon": 0.0, "bike_id": "403d30e2ee9b05df5234d1a215206c1a", "is_reserved": 0, "rental_uris": {"android": "https://dc.lft.to/lastmile_qr_scan", "ios": "https://dc.lft.to/lastmile_qr_scan"}, "lat": 38.8455935, "is_disabled": 0, "lon": -77.066888}, {"fusion_lat": 0.0, "type": "electric_scooter", "name": "fadb645a047babc76ee446c4cac79b7a", "fusion_lon": 0.0, "bike_id": "fadb645a047babc76ee446c4cac79b7a", "is_reserved": 0, "rental_uris": {"android": "https://dc.lft.to/lastmile_qr_scan", "ios": "https://dc.lft.to/lastmile_qr_scan"}, "lat": 38.86651283333333, "is_disabled": 0, "lon": -76.9851445}, {"fusion_lat": 0.0, "type": "electric_scooter", "name": "b16ea273887213736c903c6d791c7e34", "fusion_lon": 0.0, "bike_id": "b16ea273887213736c903c6d791c7e34", "is_reserved": 0, "rental_uris": {"android": "https://dc.lft.to/lastmile_qr_scan", "ios": "https://dc.lft.to/lastmile_qr_scan"}, "lat": 38.922212, "is_disabled": 0, "lon": -77.042585}, {"fusion_lat": 0.0, "type": "electric_scooter", "name": "5a67b327c50169c3db2d952151e08bbf", "fusion_lon": 0.0, "bike_id": "5a67b327c50169c3db2d952151e08bbf", "is_reserved": 0, "rental_uris": {"android": "https://dc.lft.to/lastmile_qr_scan", "ios": "https://dc.lft.to/lastmile_qr_scan"}, "lat": 38.86658083333333, "is_disabled": 0, "lon": -76.988812}, {"fusion_lat": 0.0, "type": "electric_scooter", "name": "423677883ef63401b964a036ceba0b0f", "fusion_lon": 0.0, "bike_id": "423677883ef63401b964a036ceba0b0f", "is_reserved": 0, "rental_uris": {"android": "https://dc.lft.to/lastmile_qr_scan", "ios": "https://dc.lft.to/lastmile_qr_scan"}, "lat": 38.9034605, "is_disabled": 0, "lon": -77.02544616666667}, {"fusion_lat": 0.0, "type": "electric_bike", "name": "dc03be8a893c4938d3ed2bb1bfe9587f", "fusion_lon": 0.0, "bike_id": "dc03be8a893c4938d3ed2bb1bfe9587f", "is_reserved": 0, "rental_uris": {"android": "https://dc.lft.to/lastmile_qr_scan", "ios": "https://dc.lft.to/lastmile_qr_scan"}, "lat": 38.993459666666666, "is_disabled": 0, "lon": -77.11575716666667}, {"fusion_lat": 0.0, "type": "electric_scooter", "name": "dc840caa50e3e1d38fa1d006866e9476", "fusion_lon": 0.0, "bike_id": "dc840caa50e3e1d38fa1d006866e9476", "is_reserved": 0, "rental_uris": {"android": "https://dc.lft.to/lastmile_qr_scan", "ios": "https://dc.lft.to/lastmile_qr_scan"}, "lat": 38.892956166666664, "is_disabled": 0, "lon": -77.012274}, {"fusion_lat": 0.0, "type": "electric_scooter", "name": "9406c57307fcec48fde0795ff03a5e80", "fusion_lon": 0.0, "bike_id": "9406c57307fcec48fde0795ff03a5e80", "is_reserved": 0, "rental_uris": {"android": "https://dc.lft.to/lastmile_qr_scan", "ios": "https://dc.lft.to/lastmile_qr_scan"}, "lat": 38.92439383333333, "is_disabled": 0, "lon": -77.02981816666667}, {"fusion_lat": 0.0, "type": "electric_scooter", "name": "8549b5eb193a37c28f3996f1cb4ac48d", "fusion_lon": 0.0, "bike_id": "8549b5eb193a37c28f3996f1cb4ac48d", "is_reserved": 0, "rental_uris": {"android": "https://dc.lft.to/lastmile_qr_scan", "ios": "https://dc.lft.to/lastmile_qr_scan"}, "lat": 38.902805666666666, "is_disabled": 0, "lon": -77.04622466666666}, {"fusion_lat": 0.0, "type": "electric_scooter", "name": "61c7bfce2fa7338963d410ac86c8f6d0", "fusion_lon": 0.0, "bike_id": "61c7bfce2fa7338963d410ac86c8f6d0", "is_reserved": 0, "rental_uris": {"android": "https://dc.lft.to/lastmile_qr_scan", "ios": "https://dc.lft.to/lastmile_qr_scan"}, "lat": 38.917320333333336, "is_disabled": 0, "lon": -77.041658}, {"fusion_lat": 0.0, "type": "electric_scooter", "name": "d4a1a9f2d2e9e3bd349d4c7adbd022a3", "fusion_lon": 0.0, "bike_id": "d4a1a9f2d2e9e3bd349d4c7adbd022a3", "is_reserved": 0, "rental_uris": {"android": "https://dc.lft.to/lastmile_qr_scan", "ios": "https://dc.lft.to/lastmile_qr_scan"}, "lat": 38.900044333333334, "is_disabled": 0, "lon": -77.03169083333333}, {"fusion_lat": 0.0, "type": "electric_scooter", "name": "84e9fc542b9b8cf7917d965c43202631", "fusion_lon": 0.0, "bike_id": "84e9fc542b9b8cf7917d965c43202631", "is_reserved": 0, "rental_uris": {"android": "https://dc.lft.to/lastmile_qr_scan", "ios": "https://dc.lft.to/lastmile_qr_scan"}, "lat": 38.927013, "is_disabled": 0, "lon": -77.04119933333334}, {"fusion_lat": 0.0, "type": "electric_scooter", "name": "598cf152ca33dac19fbf7ca8415f02c9", "fusion_lon": 0.0, "bike_id": "598cf152ca33dac19fbf7ca8415f02c9", "is_reserved": 0, "rental_uris": {"android": "https://dc.lft.to/lastmile_qr_scan", "ios": "https://dc.lft.to/lastmile_qr_scan"}, "lat": 38.930080333333336, "is_disabled": 0, "lon": -77.05525733333333}, {"fusion_lat": 0.0, "type": "electric_scooter", "name": "2dab9ed5579b3b1cecfb537f352589e8", "fusion_lon": 0.0, "bike_id": "2dab9ed5579b3b1cecfb537f352589e8", "is_reserved": 0, "rental_uris": {"android": "https://dc.lft.to/lastmile_qr_scan", "ios": "https://dc.lft.to/lastmile_qr_scan"}, "lat": 38.91614333333333, "is_disabled": 0, "lon": -77.03165466666667}, {"fusion_lat": 0.0, "type": "electric_scooter", "name": "8cb679e024f9a57e8ed03249d23fe143", "fusion_lon": 0.0, "bike_id": "8cb679e024f9a57e8ed03249d23fe143", "is_reserved": 0, "rental_uris": {"android": "https://dc.lft.to/lastmile_qr_scan", "ios": "https://dc.lft.to/lastmile_qr_scan"}, "lat": 38.91823816666667, "is_disabled": 0, "lon": -77.02418916666667}, {"fusion_lat": 0.0, "type": "electric_scooter", "name": "ccb7b9eb4d72b7ad0d017fbd8c2655d2", "fusion_lon": 0.0, "bike_id": "ccb7b9eb4d72b7ad0d017fbd8c2655d2", "is_reserved": 0, "rental_uris": {"android": "https://dc.lft.to/lastmile_qr_scan", "ios": "https://dc.lft.to/lastmile_qr_scan"}, "lat": 38.94097083333333, "is_disabled": 0, "lon": -77.02116483333333}, {"fusion_lat": 0.0, "type": "electric_bike", "name": "99e475af7e8860cdeb3e9f9c347d0cef", "fusion_lon": 0.0, "bike_id": "99e475af7e8860cdeb3e9f9c347d0cef", "is_reserved": 0, "rental_uris": {"android": "https://dc.lft.to/lastmile_qr_scan", "ios": "https://dc.lft.to/lastmile_qr_scan"}, "lat": 38.9690305, "is_disabled": 0, "lon": -76.99496783333333}, {"fusion_lat": 0.0, "type": "electric_bike", "name": "0f2576d5f6039ec35fffb1d6db103ce5", "fusion_lon": 0.0, "bike_id": "0f2576d5f6039ec35fffb1d6db103ce5", "is_reserved": 0, "rental_uris": {"android": "https://dc.lft.to/lastmile_qr_scan", "ios": "https://dc.lft.to/lastmile_qr_scan"}, "lat": 38.96321783333333, "is_disabled": 0, "lon": -76.97366466666666}, {"fusion_lat": 0.0, "type": "electric_bike", "name": "06faba426c50cd42781898c3c8d8919a", "fusion_lon": 0.0, "bike_id": "06faba426c50cd42781898c3c8d8919a", "is_reserved": 0, "rental_uris": {"android": "https://dc.lft.to/lastmile_qr_scan", "ios": "https://dc.lft.to/lastmile_qr_scan"}, "lat": 38.874774, "is_disabled": 0, "lon": -76.96528133333334}, {"fusion_lat": 0.0, "type": "electric_scooter", "name": "eca20657ed7d9a9846cab8e79c2ff148", "fusion_lon": 0.0, "bike_id": "eca20657ed7d9a9846cab8e79c2ff148", "is_reserved": 0, "rental_uris": {"android": "https://dc.lft.to/lastmile_qr_scan", "ios": "https://dc.lft.to/lastmile_qr_scan"}, "lat": 38.908610333333336, "is_disabled": 0, "lon": -77.08596483333334}, {"fusion_lat": 0.0, "type": "electric_scooter", "name": "51bfdfd9e17065c78137208e592b3399", "fusion_lon": 0.0, "bike_id": "51bfdfd9e17065c78137208e592b3399", "is_reserved": 0, "rental_uris": {"android": "https://dc.lft.to/lastmile_qr_scan", "ios": "https://dc.lft.to/lastmile_qr_scan"}, "lat": 38.9242665, "is_disabled": 0, "lon": -77.05181233333333}, {"fusion_lat": 0.0, "type": "electric_scooter", "name": "1d63250b6331d71b7d081d40e4563c9e", "fusion_lon": 0.0, "bike_id": "1d63250b6331d71b7d081d40e4563c9e", "is_reserved": 0, "rental_uris": {"android": "https://dc.lft.to/lastmile_qr_scan", "ios": "https://dc.lft.to/lastmile_qr_scan"}, "lat": 38.9284855, "is_disabled": 0, "lon": -77.01592633333334}, {"fusion_lat": 0.0, "type": "electric_scooter", "name": "9730b294ea6d8e82d401dfd7234e7065", "fusion_lon": 0.0, "bike_id": "9730b294ea6d8e82d401dfd7234e7065", "is_reserved": 0, "rental_uris": {"android": "https://dc.lft.to/lastmile_qr_scan", "ios": "https://dc.lft.to/lastmile_qr_scan"}, "lat": 38.8875085, "is_disabled": 0, "lon": -77.031632}, {"fusion_lat": 0.0, "type": "electric_scooter", "name": "2aa52678640d595b2c7cd693c1570b3f", "fusion_lon": 0.0, "bike_id": "2aa52678640d595b2c7cd693c1570b3f", "is_reserved": 0, "rental_uris": {"android": "https://dc.lft.to/lastmile_qr_scan", "ios": "https://dc.lft.to/lastmile_qr_scan"}, "lat": 38.912753, "is_disabled": 0, "lon": -77.02248133333333}, {"fusion_lat": 0.0, "type": "electric_scooter", "name": "d3fcd37aadfb8a8c2e658fa5ef08f031", "fusion_lon": 0.0, "bike_id": "d3fcd37aadfb8a8c2e658fa5ef08f031", "is_reserved": 0, "rental_uris": {"android": "https://dc.lft.to/lastmile_qr_scan", "ios": "https://dc.lft.to/lastmile_qr_scan"}, "lat": 38.9153045, "is_disabled": 0, "lon": -77.02188483333333}, {"fusion_lat": 0.0, "type": "electric_scooter", "name": "6933f77f1a1127a0400c87a2ea996bb1", "fusion_lon": 0.0, "bike_id": "6933f77f1a1127a0400c87a2ea996bb1", "is_reserved": 0, "rental_uris": {"android": "https://dc.lft.to/lastmile_qr_scan", "ios": "https://dc.lft.to/lastmile_qr_scan"}, "lat": 38.928735833333334, "is_disabled": 0, "lon": -77.03636516666667}, {"fusion_lat": 0.0, "type": "electric_scooter", "name": "a75e2452da5d60b920a12640e513a298", "fusion_lon": 0.0, "bike_id": "a75e2452da5d60b920a12640e513a298", "is_reserved": 0, "rental_uris": {"android": "https://dc.lft.to/lastmile_qr_scan", "ios": "https://dc.lft.to/lastmile_qr_scan"}, "lat": 38.9025285, "is_disabled": 0, "lon": -77.01840483333334}, {"fusion_lat": 0.0, "type": "electric_scooter", "name": "30b7b6c19a32d574798343ce1c23daf6", "fusion_lon": 0.0, "bike_id": "30b7b6c19a32d574798343ce1c23daf6", "is_reserved": 0, "rental_uris": {"android": "https://dc.lft.to/lastmile_qr_scan", "ios": "https://dc.lft.to/lastmile_qr_scan"}, "lat": 38.90655266666667, "is_disabled": 0, "lon": -77.03864966666667}, {"fusion_lat": 0.0, "type": "electric_scooter", "name": "5cb47d2541052cfe5f41eb3d6338b22f", "fusion_lon": 0.0, "bike_id": "5cb47d2541052cfe5f41eb3d6338b22f", "is_reserved": 0, "rental_uris": {"android": "https://dc.lft.to/lastmile_qr_scan", "ios": "https://dc.lft.to/lastmile_qr_scan"}, "lat": 38.9118465, "is_disabled": 0, "lon": -77.044778}, {"fusion_lat": 0.0, "type": "electric_scooter", "name": "48f1ff0825456c3f5f36e07ae7472f84", "fusion_lon": 0.0, "bike_id": "48f1ff0825456c3f5f36e07ae7472f84", "is_reserved": 0, "rental_uris": {"android": "https://dc.lft.to/lastmile_qr_scan", "ios": "https://dc.lft.to/lastmile_qr_scan"}, "lat": 38.8972725, "is_disabled": 0, "lon": -77.00929416666666},