{"data": {"bikes": [{"bike_id": "16b83e6980c801739b78eef1d2849bd5", "type": "electric_scooter", "is_disabled": 0, "lat": 38.911139166666665, "rental_uris": {"ios": "https://dc.lft.to/lastmile_qr_scan", "android": "https://dc.lft.to/lastmile_qr_scan"}, "is_reserved": 0, "fusion_lon": 0.0, "fusion_lat": 0.0, "lon": -77.04987, "name": "16b83e6980c801739b78eef1d2849bd5"}, {"bike_id": "997e41bd54e6dd6576eca832480ba467", "type": "electric_scooter", "is_disabled": 0, "lat": 38.92371383333333, "rental_uris": {"ios": "https://dc.lft.to/lastmile_qr_scan", "android": "https://dc.lft.to/lastmile_qr_scan"}, "is_reserved": 0, "fusion_lon": 0.0, "fusion_lat": 0.0, "lon": -77.05027466666667, "name": "997e41bd54e6dd6576eca832480ba467"}, {"bike_id": "b3cb2fc8d5f3f8ceb74e96f6f72363d5", "type": "electric_scooter", "is_disabled": 0, "lat": 38.9235995, "rental_uris": {"ios": "https://dc.lft.to/lastmile_qr_scan", "android": "https://dc.lft.to/lastmile_qr_scan"}, "is_reserved": 0, "fusion_lon": 0.0, "fusion_lat": 0.0, "lon": -77.05055266666666, "name": "b3cb2fc8d5f3f8ceb74e96f6f72363d5"}, {"bike_id": "22611e724e0de48bbbada947760ef746", "type": "electric_scooter", "is_disabled": 0, "lat": 38.9157145, "rental_uris": {"ios": "https://dc.lft.to/lastmile_qr_scan", "android": "https://dc.lft.to/lastmile_qr_scan"}, "is_reserved": 0, "fusion_lon": 0.0, "fusion_lat": 0.0, "lon": -77.019581, "name": "22611e724e0de48bbbada947760ef746"}, {"bike_id": "577f06c27b97eca8a5114fd9284b993e", "type": "electric_bike", "is_disabled": 0, "lat": 38.936114833333335, "rental_uris": {"ios": "https://dc.lft.to/lastmile_qr_scan", "android": "https://dc.lft.to/lastmile_qr_scan"}, "is_reserved": 0, "fusion_lon": 0.0, "fusion_lat": 0.0, "lon": -77.05855666666666, "name": "577f06c27b97eca8a5114fd9284b993e"}, {"bike_id": "d4a95031925e0f61fe69e79085c7ed69", "type": "electric_scooter", "is_disabled": 0, "lat": 38.909733, "rental_uris": {"ios": "https://dc.lft.to/lastmile_qr_scan", "android": "https://dc.lft.to/lastmile_qr_scan"}, "is_reserved": 0, "fusion_lon": 0.0, "fusion_lat": 0.0, "lon": -77.0228085, "name": "d4a95031925e0f61fe69e79085c7ed69"}, {"bike_id": "70653e14b1bfd16c75fe3ff1cd4ea395", "type": "electric_scooter", "is_disabled": 0, "lat": 38.876837, "rental_uris": {"ios": "https://dc.lft.to/lastmile_qr_scan", "android": "https://dc.lft.to/lastmile_qr_scan"}, "is_reserved": 0, "fusion_lon": 0.0, "fusion_lat": 0.0, "lon": -77.01757966666666, "name": "70653e14b1bfd16c75fe3ff1cd4ea395"}, {"bike_id": "eb7589c0f160022b20fd5de81b70e89a", "type": "electric_scooter", "is_disabled": 0, "lat": 38.913165666666664, "rental_uris": {"ios": "https://dc.lft.to/lastmile_qr_scan", "android": "https://dc.lft.to/lastmile_qr_scan"}, "is_reserved": 0, "fusion_lon": 0.0, "fusion_lat": 0.0, "lon": -77.03851166666666, "name": "eb7589c0f160022b20fd5de81b70e89a"}, {"bike_id": "c90ef49618a47d07c0ede1afba1eac86", "type": "electric_scooter", "is_disabled": 0, "lat": 38.9155115, "rental_uris": {"ios": "https://dc.lft.to/lastmile_qr_scan", "android": "https://dc.lft.to/lastmile_qr_scan"}, "is_reserved": 0, "fusion_lon": 0.0, "fusion_lat": 0.0, "lon": -77.024155, "name": "c90ef49618a47d07c0ede1afba1eac86"}, {"bike_id": "55624921d7bb91e5f9af1ee564706c51", "type": "electric_bike", "is_disabled": 0, "lat": 38.859367666666664, "rental_uris": {"ios": "https://dc.lft.to/lastmile_qr_scan", "android": "https://dc.lft.to/lastmile_qr_scan"}, "is_reserved": 0, "fusion_lon": 0.0, "fusion_lat": 0.0, "lon": -77.11831816666667, "name": "55624921d7bb91e5f9af1ee564706c51"}, {"bike_id": "983e3e4aae595087c21012e3055a841d", "type": "electric_scooter", "is_disabled": 0, "lat": 38.87531283333333, "rental_uris": {"ios": "https://dc.lft.to/lastmile_qr_scan", "android": "https://dc.lft.to/lastmile_qr_scan"}, "is_reserved": 0, "fusion_lon": 0.0, "fusion_lat": 0.0, "lon": -77.00046266666666, "name": "983e3e4aae595087c21012e3055a841d"}, {"bike_id": "df54dd6726811d7a2e87a17a1dad32f6", "type": "electric_bike", "is_disabled": 0, "lat": 38.823666, "rental_uris": {"ios": "https://dc.lft.to/lastmile_qr_scan", "android": "https://dc.lft.to/lastmile_qr_scan"}, "is_reserved": 0, "fusion_lon": 0.0, "fusion_lat": 0.0, "lon": -77.002202, "name": "df54dd6726811d7a2e87a17a1dad32f6"}, {"bike_id": "829c208b8f0792cd978e86b69e2670f5", "type": "electric_scooter", "is_disabled": 0, "lat": 38.89226133333333, "rental_uris": {"ios": "https://dc.lft.to/lastmile_qr_scan", "android": "https://dc.lft.to/lastmile_qr_scan"}, "is_reserved": 0, "fusion_lon": 0.0, "fusion_lat": 0.0, "lon": -77.01375666666667, "name": "829c208b8f0792cd978e86b69e2670f5"}, {"bike_id": "aa72fcbc2b5ecee6c30bb80c54fc200e", "type": "electric_bike", "is_disabled": 0, "lat": 39.01477916666666, "rental_uris": {"ios": "https://dc.lft.to/lastmile_qr_scan", "android": "https://dc.lft.to/lastmile_qr_scan"}, "is_reserved": 0, "fusion_lon": 0.0, "fusion_lat": 0.0, "lon": -77.054944, "name": "aa72fcbc2b5ecee6c30bb80c54fc200e"}, {"bike_id": "6e0b66f74878b7b4db859d585cadf2de", "type": "electric_scooter", "is_disabled": 0, "lat": 38.957826833333336, "rental_uris": {"ios": "https://dc.lft.to/lastmile_qr_scan", "android": "https://dc.lft.to/lastmile_qr_scan"}, "is_reserved": 0, "fusion_lon": 0.0, "fusion_lat": 0.0, "lon": -77.0246235, "name": "6e0b66f74878b7b4db859d585cadf2de"}, {"bike_id": "e34c5d5b0167959fc543e7a0750ebc8d", "type": "electric_scooter", "is_disabled": 0, "lat": 38.887411666666665, "rental_uris": {"ios": "https://dc.lft.to/lastmile_qr_scan", "android": "https://dc.lft.to/lastmile_qr_scan"}, "is_reserved": 0, "fusion_lon": 0.0, "fusion_lat": 0.0, "lon": -77.02564733333334, "name": "e34c5d5b0167959fc543e7a0750ebc8d"}, {"bike_id": "3e0904222d49ae55a769f32997f51a15", "type": "electric_scooter", "is_disabled": 0, "lat": 38.9147835, "rental_uris": {"ios": "https://dc.lft.to/lastmile_qr_scan", "android": "https://dc.lft.to/lastmile_qr_scan"}, "is_reserved": 0, "fusion_lon": 0.0, "fusion_lat": 0.0, "lon": -77.04555283333333, "name": "3e0904222d49ae55a769f32997f51a15"}, {"bike_id": "945a2836ec0481b6954a0f06051c9935", "type": "electric_scooter", "is_disabled": 0, "lat": 38.919664, "rental_uris": {"ios": "https://dc.lft.to/lastmile_qr_scan", "android": "https://dc.lft.to/lastmile_qr_scan"}, "is_reserved": 0, "fusion_lon": 0.0, "fusion_lat": 0.0, "lon": -77.014387, "name": "945a2836ec0481b6954a0f06051c9935"}, {"bike_id": "f0726563250a97b8a5609218f6c2b01d", "type": "electric_scooter", "is_disabled": 0, "lat": 38.89469866666666, "rental_uris": {"ios": "https://dc.lft.to/lastmile_qr_scan", "android": "https://dc.lft.to/lastmile_qr_scan"}, "is_reserved": 0, "fusion_lon": 0.0, "fusion_lat": 0.0, "lon": -76.9948875, "name": "f0726563250a97b8a5609218f6c2b01d"}, {"bike_id": "3514380a0dfbfedb976141cfc06e2a04", "type": "electric_scooter", "is_disabled": 0, "lat": 38.919123, "rental_uris": {"ios": "https://dc.lft.to/lastmile_qr_scan", "android": "https://dc.lft.to/lastmile_qr_scan"}, "is_reserved": 0, "fusion_lon": 0.0, "fusion_lat": 0.0, "lon": -77.03340116666666, "name": "3514380a0dfbfedb976141cfc06e2a04"}, {"bike_id": "bca99864737f44b349a8a3e837442f13", "type": "electric_bike", "is_disabled": 0, "lat": 38.90869, "rental_uris": {"ios": "https://dc.lft.to/lastmile_qr_scan", "android": "https://dc.lft.to/lastmile_qr_scan"}, "is_reserved": 0, "fusion_lon": 0.0, "fusion_lat": 0.0, "lon": -77.076482, "name": "bca99864737f44b349a8a3e837442f13"}, {"bike_id": "1c428d5bd3222cf4e8fdd605127a313d", "type": "electric_scooter", "is_disabled": 0, "lat": 38.898411833333334, "rental_uris": {"ios": "https://dc.lft.to/lastmile_qr_scan", "android": "https://dc.lft.to/lastmile_qr_scan"}, "is_reserved": 0, "fusion_lon": 0.0, "fusion_lat": 0.0, "lon": -76.94635133333334, "name": "1c428d5bd3222cf4e8fdd605127a313d"}, {"bike_id": "7ca7a3b0686c3abc5f85c343de036746", "type": "electric_scooter", "is_disabled": 0, "lat": 38.922934166666664, "rental_uris": {"ios": "https://dc.lft.to/lastmile_qr_scan", "android": "https://dc.lft.to/lastmile_qr_scan"}, "is_reserved": 0, "fusion_lon": 0.0, "fusion_lat": 0.0, "lon": -77.07317883333333, "name": "7ca7a3b0686c3abc5f85c343de036746"}, {"bike_id": "958a4087ccb0673f02b0ae11e6bbbf6f", "type": "electric_scooter", "is_disabled": 0, "lat": 38.93253083333333, "rental_uris": {"ios": "https://dc.lft.to/lastmile_qr_scan", "android": "https://dc.lft.to/lastmile_qr_scan"}, "is_reserved": 0, "fusion_lon": 0.0, "fusion_lat": 0.0, "lon": -77.0298895, "name": "958a4087ccb0673f02b0ae11e6bbbf6f"}, {"bike_id": "1e82b235ba3dc569561b7b51b784e82e", "type": "electric_scooter", "is_disabled": 0, "lat": 38.9198095, "rental_uris": {"ios": "https://dc.lft.to/lastmile_qr_scan", "android": "https://dc.lft.to/lastmile_qr_scan"}, "is_reserved": 0, "fusion_lon": 0.0, "fusion_lat": 0.0, "lon": -77.01789833333333, "name": "1e82b235ba3dc569561b7b51b784e82e"}, {"bike_id": "b7cbfa1490f6ce527eafd4f0c18c2748", "type": "electric_scooter", "is_disabled": 0, "lat": 38.90579416666667, "rental_uris": {"ios": "https://dc.lft.to/lastmile_qr_scan", "android": "https://dc.lft.to/lastmile_qr_scan"}, "is_reserved": 0, "fusion_lon": 0.0, "fusion_lat": 0.0, "lon": -77.05140066666667, "name": "b7cbfa1490f6ce527eafd4f0c18c2748"}, {"bike_id": "3fca3da25f9c969241ad1e1d8aa352c7", "type": "electric_bike", "is_disabled": 0, "lat": 38.9641215, "rental_uris": {"ios": "https://dc.lft.to/lastmile_qr_scan", "android": "https://dc.lft.to/lastmile_qr_scan"}, "is_reserved": 0, "fusion_lon": 0.0, "fusion_lat": 0.0, "lon": -77.00003316666667, "name": "3fca3da25f9c969241ad1e1d8aa352c7"}, {"bike_id": "9e45d8cd2c6d405f9e46ebc82a5e2076", "type": "electric_scooter", "is_disabled": 0, "lat": 38.904178, "rental_uris": {"ios": "https://dc.lft.to/lastmile_qr_scan", "android": "https://dc.lft.to/lastmile_qr_scan"}, "is_reserved": 0, "fusion_lon": 0.0, "fusion_lat": 0.0, "lon": -77.04885216666666, "name": "9e45d8cd2c6d405f9e46ebc82a5e2076"}, {"bike_id": "77e2b5b02a63fc05b64ebd3f0e5815c8", "type": "electric_scooter", "is_disabled": 0, "lat": 38.918294833333334, "rental_uris": {"ios": "https://dc.lft.to/lastmile_qr_scan", "android": "https://dc.lft.to/lastmile_qr_scan"}, "is_reserved": 0, "fusion_lon": 0.0, "fusion_lat": 0.0, "lon": -77.039419, "name": "77e2b5b02a63fc05b64ebd3f0e5815c8"}, {"bike_id": "486306423b7a85b5ae84e7b50f49d448", "type": "electric_scooter", "is_disabled": 0, "lat": 38.922133333333335, "rental_uris": {"ios": "https://dc.lft.to/lastmile_qr_scan", "android": "https://dc.lft.to/lastmile_qr_scan"}, "is_reserved": 0, "fusion_lon": 0.0, "fusion_lat": 0.0, "lon": -77.04244333333334, "name": "486306423b7a85b5ae84e7b50f49d448"}, {"bike_id": "077ca4d6d5321b3b9721d6b9db94ca5b", "type": "electric_scooter", "is_disabled": 0, "lat": 38.90086, "rental_uris": {"ios": "https://dc.lft.to/lastmile_qr_scan", "android": "https://dc.lft.to/lastmile_qr_scan"}, "is_reserved": 0, "fusion_lon": 0.0, "fusion_lat": 0.0, "lon": -77.04999033333333, "name": "077ca4d6d5321b3b9721d6b9db94ca5b"}, {"bike_id": "beeb970ce115863eae07bb9650d4c189", "type": "electric_scooter", "is_disabled": 0, "lat": 38.911043666666664, "rental_uris": {"ios": "https://dc.lft.to/lastmile_qr_scan", "android": "https://dc.lft.to/lastmile_qr_scan"}, "is_reserved": 0, "fusion_lon": 0.0, "fusion_lat": 0.0, "lon": -77.0022055, "name": "beeb970ce115863eae07bb9650d4c189"}, {"bike_id": "e4cf0fa00a9bb709807121d0c93a7f03", "type": "electric_scooter", "is_disabled": 0, "lat": 38.938210166666664, "rental_uris": {"ios": "https://dc.lft.to/lastmile_qr_scan", "android": "https://dc.lft.to/lastmile_qr_scan"}, "is_reserved": 0, "fusion_lon": 0.0, "fusion_lat": 0.0, "lon": -77.05992516666667, "name": "e4cf0fa00a9bb709807121d0c93a7f03"}, {"bike_id": "a0617905923b7fd6fb288f2364b4a931", "type": "electric_scooter", "is_disabled": 0, "lat": 38.88485266666667, "rental_uris": {"ios": "https://dc.lft.to/lastmile_qr_scan", "android": "https://dc.lft.to/lastmile_qr_scan"}, "is_reserved": 0, "fusion_lon": 0.0, "fusion_lat": 0.0, "lon": -77.03476983333333, "name": "a0617905923b7fd6fb288f2364b4a931"}, {"bike_id": "9011ab353b22627e3015e207f1836d25", "type": "electric_scooter", "is_disabled": 0, "lat": 38.920367166666665, "rental_uris": {"ios": "https://dc.lft.to/lastmile_qr_scan", "android": "https://dc.lft.to/lastmile_qr_scan"}, "is_reserved": 0, "fusion_lon": 0.0, "fusion_lat": 0.0, "lon": -77.03127716666667, "name": "9011ab353b22627e3015e207f1836d25"}, {"bike_id": "920c4bd008b1c43497c522794101e986", "type": "electric_scooter", "is_disabled": 0, "lat": 38.91234566666667, "rental_uris": {"ios": "https://dc.lft.to/lastmile_qr_scan", "android": "https://dc.lft.to/lastmile_qr_scan"}, "is_reserved": 0, "fusion_lon": 0.0, "fusion_lat": 0.0, "lon": -77.04521216666667, "name": "920c4bd008b1c43497c522794101e986"}, {"bike_id": "a0139502ee6b95031a103c005618efc2", "type": "electric_scooter", "is_disabled": 0, "lat": 38.8932675, "rental_uris": {"ios": "https://dc.lft.to/lastmile_qr_scan", "android": "https://dc.lft.to/lastmile_qr_scan"}, "is_reserved": 0, "fusion_lon": 0.0, "fusion_lat": 0.0, "lon": -77.03184833333333, "name": "a0139502ee6b95031a103c005618efc2"}, {"bike_id": "4479e342fde2b47f50035268bbc5a636", "type": "electric_scooter", "is_disabled": 0, "lat": 38.92224366666667, "rental_uris": {"ios": "https://dc.lft.to/lastmile_qr_scan", "android": "https://dc.lft.to/lastmile_qr_scan"}, "is_reserved": 0, "fusion_lon": 0.0, "fusion_lat": 0.0, "lon": -77.043327, "name": "4479e342fde2b47f50035268bbc5a636"}, {"bike_id": "a0a8edf2779faa6e8f80ad33b9dad4b6", "type": "electric_bike", "is_disabled": 0, "lat": 38.84527683333334, "rental_uris": {"ios": "https://dc.lft.to/lastmile_qr_scan", "android": "https://dc.lft.to/lastmile_qr_scan"}, "is_reserved": 0, "fusion_lon": 0.0, "fusion_lat": 0.0, "lon": -76.97397866666667, "name": "a0a8edf2779faa6e8f80ad33b9dad4b6"}, {"bike_id": "13f61156e8a245009aee857e85c2435c", "type": "electric_scooter", "is_disabled": 0, "lat": 38.90478566666667, "rental_uris": {"ios": "https://dc.lft.to/lastmile_qr_scan", "android": "https://dc.lft.to/lastmile_qr_scan"}, "is_reserved": 0, "fusion_lon": 0.0, "fusion_lat": 0.0, "lon": -76.99627116666667, "name": "13f61156e8a245009aee857e85c2435c"}, {"bike_id": "c9b4d546a1b815690d68a7e3ac9a7a81", "type": "electric_scooter", "is_disabled": 0, "lat": 38.947912333333335, "rental_uris": {"ios": "https://dc.lft.to/lastmile_qr_scan", "android": "https://dc.lft.to/lastmile_qr_scan"}, "is_reserved": 0, "fusion_lon": 0.0, "fusion_lat": 0.0, "lon": -77.02131, "name": "c9b4d546a1b815690d68a7e3ac9a7a81"}, {"bike_id": "f8d3d9a5709dd1d19eed5493f004662a", "type": "electric_scooter", "is_disabled": 0, "lat": 38.89222766666666, "rental_uris": {"ios": "https://dc.lft.to/lastmile_qr_scan", "android": "https://dc.lft.to/lastmile_qr_scan"}, "is_reserved": 0, "fusion_lon": 0.0, "fusion_lat": 0.0, "lon": -77.04007633333333, "name": "f8d3d9a5709dd1d19eed5493f004662a"}, {"bike_id": "21e43de85584f1edf0ec01efe5f012a6", "type": "electric_scooter", "is_disabled": 0, "lat": 38.9178935, "rental_uris": {"ios": "https://dc.lft.to/lastmile_qr_scan", "android": "https://dc.lft.to/lastmile_qr_scan"}, "is_reserved": 0, "fusion_lon": 0.0, "fusion_lat": 0.0, "lon": -77.023064, "name": "21e43de85584f1edf0ec01efe5f012a6"}, {"bike_id": "945de29103009c4c2c58645a25832922", "type": "electric_scooter", "is_disabled": 0, "lat": 38.92525283333333, "rental_uris": {"ios": "https://dc.lft.to/lastmile_qr_scan", "android": "https://dc.lft.to/lastmile_qr_scan"}, "is_reserved": 0, "fusion_lon": 0.0, "fusion_lat": 0.0, "lon": -77.07632, "name": "945de29103009c4c2c58645a25832922"}, {"bike_id": "bdcd84470d7fb75b5b884685183f3146", "type": "electric_scooter", "is_disabled": 0, "lat": 38.9166335, "rental_uris": {"ios": "https://dc.lft.to/lastmile_qr_scan", "android": "https://dc.lft.to/lastmile_qr_scan"}, "is_reserved": 0, "fusion_lon": 0.0, "fusion_lat": 0.0, "lon": -77.02312366666666, "name": "bdcd84470d7fb75b5b884685183f3146"}, {"bike_id": "1e404c8247d9b46026181668707946dd", "type": "electric_scooter", "is_disabled": 0, "lat": 38.91482533333333, "rental_uris": {"ios": "https://dc.lft.to/lastmile_qr_scan", "android": "https://dc.lft.to/lastmile_qr_scan"}, "is_reserved": 0, "fusion_lon": 0.0, "fusion_lat": 0.0, "lon": -77.02581733333334, "name": "1e404c8247d9b46026181668707946dd"}, {"bike_id": "438111a87805b11b2e07c1fb93ea621a", "type": "electric_scooter", "is_disabled": 0, "lat": 38.915664166666666, "rental_uris": {"ios": "https://dc.lft.to/lastmile_qr_scan", "android": "https://dc.lft.to/lastmile_qr_scan"}, "is_reserved": 0, "fusion_lon": 0.0, "fusion_lat": 0.0, "lon": -77.0126285, "name": "438111a87805b11b2e07c1fb93ea621a"}, {"bike_id": "2b3fc121965145f710b24c8b0566bebd", "type": "electric_scooter", "is_disabled": 0, "lat": 38.911784833333336, "rental_uris": {"ios": "https://dc.lft.to/lastmile_qr_scan", "android": "https://dc.lft.to/lastmile_qr_scan"}, "is_reserved": 0, "fusion_lon": 0.0, "fusion_lat": 0.0, "lon": -77.01693833333333, "name": "2b3fc121965145f710b24c8b0566bebd"}, {"bike_id": "66709ba2f6ee6435b911d746cd5ac7a5", "type": "electric_scooter", "is_disabled": 0, "lat": 38.8258495, "rental_uris": {"ios": "https://dc.lft.to/lastmile_qr_scan", "android": "https://dc.lft.to/lastmile_qr_scan"}, "is_reserved": 0, "fusion_lon": 0.0, "fusion_lat": 0.0, "lon": -77.00716366666667, "name": "66709ba2f6ee6435b911d746cd5ac7a5"}, {"bike_id": "36ab27d1aec63f6d9d9acb9b29f9bdb8", "type": "electric_scooter", "is_disabled": 0, "lat": 38.862469833333336, "rental_uris": {"ios": "https://dc.lft.to/lastmile_qr_scan", "android": "https://dc.lft.to/lastmile_qr_scan"}, "is_reserved": 0, "fusion_lon": 0.0, "fusion_lat": 0.0, "lon": -76.99501833333333, "name": "36ab27d1aec63f6d9d9acb9b29f9bdb8"}, {"bike_id": "e7cb5e6fd3fb3d8b1d4a81eb2c84f028", "type": "electric_scooter", "is_disabled": 0, "lat": 38.91265816666667, "rental_uris": {"ios": "https://dc.lft.to/lastmile_qr_scan", "android": "https://dc.lft.to/lastmile_qr_scan"}, "is_reserved": 0, "fusion_lon": 0.0, "fusion_lat": 0.0, "lon": -77.04710483333334, "name": "e7cb5e6fd3fb3d8b1d4a81eb2c84f028"}, {"bike_id": "cc409fe643f7808b2eb14903b42c27e9", "type": "electric_scooter", "is_disabled": 0, "lat": 38.90364366666667, "rental_uris": {"ios": "https://dc.lft.to/lastmile_qr_scan", "android": "https://dc.lft.to/lastmile_qr_scan"}, "is_reserved": 0, "fusion_lon": 0.0, "fusion_lat": 0.0, "lon": -77.03238016666667, "name": "cc409fe643f7808b2eb14903b42c27e9"}, {"bike_id": "ca1c25407b7498c8654e1aaa42a7babf", "type": "electric_scooter", "is_disabled": 0, "lat": 38.92523416666667, "rental_uris": {"ios": "https://dc.lft.to/lastmile_qr_scan", "android": "https://dc.lft.to/lastmile_qr_scan"}, "is_reserved": 0, "fusion_lon": 0.0, "fusion_lat": 0.0, "lon": -77.0412015, "name": "ca1c25407b7498c8654e1aaa42a7babf"}, {"bike_id": "d325adebb241f7fc8893de5224bfd666", "type": "electric_scooter", "is_disabled": 0, "lat": 38.905613, "rental_uris": {"ios": "https://dc.lft.to/lastmile_qr_scan", "android": "https://dc.lft.to/lastmile_qr_scan"}, "is_reserved": 0, "fusion_lon": 0.0, "fusion_lat": 0.0, "lon": -77.06528616666667, "name": "d325adebb241f7fc8893de5224bfd666"}, {"bike_id": "85e40e075bc789fd0ffb0d5c08e19d2c", "type": "electric_scooter", "is_disabled": 0, "lat": 38.911707166666666, "rental_uris": {"ios": "https://dc.lft.to/lastmile_qr_scan", "android": "https://dc.lft.to/lastmile_qr_scan"}, "is_reserved": 0, "fusion_lon": 0.0, "fusion_lat": 0.0, "lon": -77.03185233333333, "name": "85e40e075bc789fd0ffb0d5c08e19d2c"}, {"bike_id": "05a756f487c3012e6f3d32f3bf6ef24f", "type": "electric_scooter", "is_disabled": 0, "lat": 38.91985616666667, "rental_uris": {"ios": "https://dc.lft.to/lastmile_qr_scan", "android": "https://dc.lft.to/lastmile_qr_scan"}, "is_reserved": 0, "fusion_lon": 0.0, "fusion_lat": 0.0, "lon": -77.03255366666667, "name": "05a756f487c3012e6f3d32f3bf6ef24f"}, {"bike_id": "b30115e231de7aafccf305dbec608e77", "type": "electric_bike", "is_disabled": 0, "lat": 38.9206715, "rental_uris": {"ios": "https://dc.lft.to/lastmile_qr_scan", "android": "https://dc.lft.to/lastmile_qr_scan"}, "is_reserved": 0, "fusion_lon": 0.0, "fusion_lat": 0.0, "lon": -76.89070833333334, "name": "b30115e231de7aafccf305dbec608e77"}, {"bike_id": "fcd9371cbf82eda3c7ab0ec20b34e76a", "type": "electric_bike", "is_disabled": 0, "lat": 38.85773483333333, "rental_uris": {"ios": "https://dc.lft.to/lastmile_qr_scan", "android": "https://dc.lft.to/lastmile_qr_scan"}, "is_reserved": 0, "fusion_lon": 0.0, "fusion_lat": 0.0, "lon": -76.987714, "name": "fcd9371cbf82eda3c7ab0ec20b34e76a"}, {"bike_id": "7fb1e26a5809c5c88a46b4b95604296b", "type": "electric_scooter", "is_disabled": 0, "lat": 38.930992, "rental_uris": {"ios": "https://dc.lft.to/lastmile_qr_scan", "android": "https://dc.lft.to/lastmile_qr_scan"}, "is_reserved": 0, "fusion_lon": 0.0, "fusion_lat": 0.0, "lon": -77.02663266666667, "name": "7fb1e26a5809c5c88a46b4b95604296b"}, {"bike_id": "9c7ebc3e1ef63c94c260fba9e619f159", "type": "electric_scooter", "is_disabled": 0, "lat": 38.91282833333333, "rental_uris": {"ios": "https://dc.lft.to/lastmile_qr_scan", "android": "https://dc.lft.to/lastmile_qr_scan"}, "is_reserved": 0, "fusion_lon": 0.0, "fusion_lat": 0.0, "lon": -77.06113766666667, "name": "9c7ebc3e1ef63c94c260fba9e619f159"}, {"bike_id": "f200d8d6e8b06aade70ec6cea5fa448c", "type": "electric_scooter", "is_disabled": 0, "lat": 38.9193345, "rental_uris": {"ios": "https://dc.lft.to/lastmile_qr_scan", "android": "https://dc.lft.to/lastmile_qr_scan"}, "is_reserved": 0, "fusion_lon": 0.0, "fusion_lat": 0.0, "lon": -77.031814, "name": "f200d8d6e8b06aade70ec6cea5fa448c"}, {"bike_id": "20532bb4f4f383b627a583775161cd74", "type": "electric_scooter", "is_disabled": 0, "lat": 38.91543133333333, "rental_uris": {"ios": "https://dc.lft.to/lastmile_qr_scan", "android": "https://dc.lft.to/lastmile_qr_scan"}, "is_reserved": 0, "fusion_lon": 0.0, "fusion_lat": 0.0, "lon": -77.03642916666666, "name": "20532bb4f4f383b627a583775161cd74"}, {"bike_id": "165eec3db7d11dd126f568e1ea05718e", "type": "electric_scooter", "is_disabled": 0, "lat": 38.92342333333333, "rental_uris": {"ios": "https://dc.lft.to/lastmile_qr_scan", "android": "https://dc.lft.to/lastmile_qr_scan"}, "is_reserved": 0, "fusion_lon": 0.0, "fusion_lat": 0.0, "lon": -77.03482316666667, "name": "165eec3db7d11dd126f568e1ea05718e"}, {"bike_id": "1064a6fc8fed4d12c60a667b02b2e602", "type": "electric_scooter", "is_disabled": 0, "lat": 38.8974645, "rental_uris": {"ios": "https://dc.lft.to/lastmile_qr_scan", "android": "https://dc.lft.to/lastmile_qr_scan"}, "is_reserved": 0, "fusion_lon": 0.0, "fusion_lat": 0.0, "lon": -76.94184766666666, "name": "1064a6fc8fed4d12c60a667b02b2e602"}, {"bike_id": "4abcad1f97f9f96c843760a2a457581d", "type": "electric_bike", "is_disabled": 0, "lat": 38.9053105, "rental_uris": {"ios": "https://dc.lft.to/lastmile_qr_scan", "android": "https://dc.lft.to/lastmile_qr_scan"}, "is_reserved": 0, "fusion_lon": 0.0, "fusion_lat": 0.0, "lon": -77.029201, "name": "4abcad1f97f9f96c843760a2a457581d"}, {"bike_id": "cf64391bf9d7682f076decbcbff2bf47", "type": "electric_scooter", "is_disabled": 0, "lat": 38.915326, "rental_uris": {"ios": "https://dc.lft.to/lastmile_qr_scan", "android": "https://dc.lft.to/lastmile_qr_scan"}, "is_reserved": 0, "fusion_lon": 0.0, "fusion_lat": 0.0, "lon": -77.0318725, "name": "cf64391bf9d7682f076decbcbff2bf47"}, {"bike_id": "71b7dc64e35d1de9f17db400bf6acaaa", "type": "electric_scooter", "is_disabled": 0, "lat": 38.8970605, "rental_uris": {"ios": "https://dc.lft.to/lastmile_qr_scan", "android": "https://dc.lft.to/lastmile_qr_scan"}, "is_reserved": 0, "fusion_lon": 0.0, "fusion_lat": 0.0, "lon": -77.04872066666667, "name": "71b7dc64e35d1de9f17db400bf6acaaa"}, {"bike_id": "28ecbb8ff8bcfba5ad6471c32b5989ae", "type": "electric_scooter", "is_disabled": 0, "lat": 38.916099833333334, "rental_uris": {"ios": "https://dc.lft.to/lastmile_qr_scan", "android": "https://dc.lft.to/lastmile_qr_scan"}, "is_reserved": 0, "fusion_lon": 0.0, "fusion_lat": 0.0, "lon": -77.03162, "name": "28ecbb8ff8bcfba5ad6471c32b5989ae"}, {"bike_id": "1280f7c19a7aabda0f3abc44db2392cd", "type": "electric_scooter", "is_disabled": 0, "lat": 38.947919666666664, "rental_uris": {"ios": "https://dc.lft.to/lastmile_qr_scan", "android": "https://dc.lft.to/lastmile_qr_scan"}, "is_reserved": 0, "fusion_lon": 0.0, "fusion_lat": 0.0, "lon": -77.02127583333333, "name": "1280f7c19a7aabda0f3abc44db2392cd"}, {"bike_id": "ab1a3e0c46a175af997bd7d73ffb95f9", "type": "electric_scooter", "is_disabled": 0, "lat": 38.89365733333333, "rental_uris": {"ios": "https://dc.lft.to/lastmile_qr_scan", "android": "https://dc.lft.to/lastmile_qr_scan"}, "is_reserved": 0, "fusion_lon": 0.0, "fusion_lat": 0.0, "lon": -76.94703133333333, "name": "ab1a3e0c46a175af997bd7d73ffb95f9"}, {"bike_id": "bc8c7c98c45cc9531ffef8c2cf1ebd64", "type": "electric_scooter", "is_disabled": 0, "lat": 38.973658, "rental_uris": {"ios": "https://dc.lft.to/lastmile_qr_scan", "android": "https://dc.lft.to/lastmile_qr_scan"}, "is_reserved": 0, "fusion_lon": 0.0, "fusion_lat": 0.0, "lon": -77.01860633333334, "name": "bc8c7c98c45cc9531ffef8c2cf1ebd64"}, {"bike_id": "d2552549e559c70f1c8c21462abd8cf2", "type": "electric_scooter", "is_disabled": 0, "lat": 38.905553833333336, "rental_uris": {"ios": "https://dc.lft.to/lastmile_qr_scan", "android": "https://dc.lft.to/lastmile_qr_scan"}, "is_reserved": 0, "fusion_lon": 0.0, "fusion_lat": 0.0, "lon": -77.028139, "name": "d2552549e559c70f1c8c21462abd8cf2"}, {"bike_id": "8d49efba62fbf83ae258d2a2cc3b0f36", "type": "electric_scooter", "is_disabled": 0, "lat": 38.9129375, "rental_uris": {"ios": "https://dc.lft.to/lastmile_qr_scan", "android": "https://dc.lft.to/lastmile_qr_scan"}, "is_reserved": 0, "fusion_lon": 0.0, "fusion_lat": 0.0, "lon": -77.02968766666666, "name": "8d49efba62fbf83ae258d2a2cc3b0f36"}, {"bike_id": "2105dc243ea4a1d48449c8580dfe46a1", "type": "electric_scooter", "is_disabled": 0, "lat": 38.90917866666667, "rental_uris": {"ios": "https://dc.lft.to/lastmile_qr_scan", "android": "https://dc.lft.to/lastmile_qr_scan"}, "is_reserved": 0, "fusion_lon": 0.0, "fusion_lat": 0.0, "lon": -77.031852, "name": "2105dc243ea4a1d48449c8580dfe46a1"}, {"bike_id": "5e74c01ffdd48502b1ebf1a55d6637fd", "type": "electric_scooter", "is_disabled": 0, "lat": 38.95852283333333, "rental_uris": {"ios": "https://dc.lft.to/lastmile_qr_scan", "android": "https://dc.lft.to/lastmile_qr_scan"}, "is_reserved": 0, "fusion_lon": 0.0, "fusion_lat": 0.0, "lon": -77.0280085, "name": "5e74c01ffdd48502b1ebf1a55d6637fd"}, {"bike_id": "aaaec0330d5c030af072bb10297b049c", "type": "electric_scooter", "is_disabled": 0, "lat": 38.913188833333336, "rental_uris": {"ios": "https://dc.lft.to/lastmile_qr_scan", "android": "https://dc.lft.to/lastmile_qr_scan"}, "is_reserved": 0, "fusion_lon": 0.0, "fusion_lat": 0.0, "lon": -77.03859666666666, "name": "aaaec0330d5c030af072bb10297b049c"}, {"bike_id": "f9b80ad14a9b9be9eae9f396102e4905", "type": "electric_scooter", "is_disabled": 0, "lat": 38.91636283333333, "rental_uris": {"ios": "https://dc.lft.to/lastmile_qr_scan", "android": "https://dc.lft.to/lastmile_qr_scan"}, "is_reserved": 0, "fusion_lon": 0.0, "fusion_lat": 0.0, "lon": -77.03220666666667, "name": "f9b80ad14a9b9be9eae9f396102e4905"}, {"bike_id": "6f0b1792dceb3fe968477092d3bd13e3", "type": "electric_bike", "is_disabled": 0, "lat": 38.80908316666667, "rental_uris": {"ios": "https://dc.lft.to/lastmile_qr_scan", "android": "https://dc.lft.to/lastmile_qr_scan"}, "is_reserved": 0, "fusion_lon": 0.0, "fusion_lat": 0.0, "lon": -77.08666533333333, "name": "6f0b1792dceb3fe968477092d3bd13e3"}, {"bike_id": "b39949cda1b27cc63e544ea41d0e1a09", "type": "electric_scooter", "is_disabled": 0, "lat": 38.92150916666667, "rental_uris": {"ios": "https://dc.lft.to/lastmile_qr_scan", "android": "https://dc.lft.to/lastmile_qr_scan"}, "is_reserved": 0, "fusion_lon": 0.0, "fusion_lat": 0.0, "lon": -77.03357533333333, "name": "b39949cda1b27cc63e544ea41d0e1a09"}, {"bike_id": "f6cf77ea4ae87f532c325d4fb8b8cfeb", "type": "electric_scooter", "is_disabled": 0, "lat": 38.874999833333334, "rental_uris": {"ios": "https://dc.lft.to/lastmile_qr_scan", "android": "https://dc.lft.to/lastmile_qr_scan"}, "is_reserved": 0, "fusion_lon": 0.0, "fusion_lat": 0.0, "lon": -77.01229133333334, "name": "f6cf77ea4ae87f532c325d4fb8b8cfeb"}, {"bike_id": "bb1d364f8a668cbe1f7bdf01dcb2eab4", "type": "electric_scooter", "is_disabled": 0, "lat": 38.900905333333334, "rental_uris": {"ios": "https://dc.lft.to/lastmile_qr_scan", "android": "https://dc.lft.to/lastmile_qr_scan"}, "is_reserved": 0, "fusion_lon": 0.0, "fusion_lat": 0.0, "lon": -76.9834285, "name": "bb1d364f8a668cbe1f7bdf01dcb2eab4"}, {"bike_id": "257aed0de0cd04ae95fdf06d58ea5476", "type": "electric_scooter", "is_disabled": 0, "lat": 38.9170445, "rental_uris": {"ios": "https://dc.lft.to/lastmile_qr_scan", "android": "https://dc.lft.to/lastmile_qr_scan"}, "is_reserved": 0, "fusion_lon": 0.0, "fusion_lat": 0.0, "lon": -77.03859366666667, "name": "257aed0de0cd04ae95fdf06d58ea5476"}, {"bike_id": "655c6f00e1ce8644e3f2332b3dc993c3", "type": "electric_scooter", "is_disabled": 0, "lat": 38.907359, "rental_uris": {"ios": "https://dc.lft.to/lastmile_qr_scan", "android": "https://dc.lft.to/lastmile_qr_scan"}, "is_reserved": 0, "fusion_lon": 0.0, "fusion_lat": 0.0, "lon": -77.0322155, "name": "655c6f00e1ce8644e3f2332b3dc993c3"}, {"bike_id": "801f2281322a3a4726ae098e3dd6f408", "type": "electric_bike", "is_disabled": 0, "lat": 38.919541833333334, "rental_uris": {"ios": "https://dc.lft.to/lastmile_qr_scan", "android": "https://dc.lft.to/lastmile_qr_scan"}, "is_reserved": 0, "fusion_lon": 0.0, "fusion_lat": 0.0, "lon": -77.00325566666666, "name": "801f2281322a3a4726ae098e3dd6f408"}, {"bike_id": "aa23d93915aa022097c5d4fb9b9d7618", "type": "electric_scooter", "is_disabled": 0, "lat": 38.8792215, "rental_uris": {"ios": "https://dc.lft.to/lastmile_qr_scan", "android": "https://dc.lft.to/lastmile_qr_scan"}, "is_reserved": 0, "fusion_lon": 0.0, "fusion_lat": 0.0, "lon": -77.00803616666667, "name": "aa23d93915aa022097c5d4fb9b9d7618"}, {"bike_id": "72c50d743e3f00bd0f0dab18f0dbf872", "type": "electric_scooter", "is_disabled": 0, "lat": 38.90055133333333, "rental_uris": {"ios": "https://dc.lft.to/lastmile_qr_scan", "android": "https://dc.lft.to/lastmile_qr_scan"}, "is_reserved": 0, "fusion_lon": 0.0, "fusion_lat": 0.0, "lon": -77.02630733333334, "name": "72c50d743e3f00bd0f0dab18f0dbf872"}, {"bike_id": "320f34ea10274ed78258a66839b8266c", "type": "electric_scooter", "is_disabled": 0, "lat": 38.892494166666665, "rental_uris": {"ios": "https://dc.lft.to/lastmile_qr_scan", "android": "https://dc.lft.to/lastmile_qr_scan"}, "is_reserved": 0, "fusion_lon": 0.0, "fusion_lat": 0.0, "lon": -77.04875766666666, "name": "320f34ea10274ed78258a66839b8266c"}, {"bike_id": "ed47f78b0668b47c4db1d8420e3bae66", "type": "electric_scooter", "is_disabled": 0, "lat": 38.892366833333334, "rental_uris": {"ios": "https://dc.lft.to/lastmile_qr_scan", "android": "https://dc.lft.to/lastmile_qr_scan"}, "is_reserved": 0, "fusion_lon": 0.0, "fusion_lat": 0.0, "lon": -76.9532515, "name": "ed47f78b0668b47c4db1d8420e3bae66"}, {"bike_id": "b6871726e6d5db7a2da453f529399ac7", "type": "electric_scooter", "is_disabled": 0, "lat": 38.92637916666666, "rental_uris": {"ios": "https://dc.lft.to/lastmile_qr_scan", "android": "https://dc.lft.to/lastmile_qr_scan"}, "is_reserved": 0, "fusion_lon": 0.0, "fusion_lat": 0.0, "lon": -77.01386983333333, "name": "b6871726e6d5db7a2da453f529399ac7"}, {"bike_id": "f2b789eafdde1e890987ae8ce87ee027", "type": "electric_scooter", "is_disabled": 0, "lat": 38.91772, "rental_uris": {"ios": "https://dc.lft.to/lastmile_qr_scan", "android": "https://dc.lft.to/lastmile_qr_scan"}, "is_reserved": 0, "fusion_lon": 0.0, "fusion_lat": 0.0, "lon": -77.02953766666667, "name": "f2b789eafdde1e890987ae8ce87ee027"}, {"bike_id": "2729f9a82955195372ab2af447370677", "type": "electric_scooter", "is_disabled": 0, "lat": 38.865047833333335, "rental_uris": {"ios": "https://dc.lft.to/lastmile_qr_scan", "android": "https://dc.lft.to/lastmile_qr_scan"}, "is_reserved": 0, "fusion_lon": 0.0, "fusion_lat": 0.0, "lon": -76.99005183333334, "name": "2729f9a82955195372ab2af447370677"}, {"bike_id": "a918092d5660ae4847500df4503d4159", "type": "electric_scooter", "is_disabled": 0, "lat": 38.92088916666667, "rental_uris": {"ios": "https://dc.lft.to/lastmile_qr_scan", "android": "https://dc.lft.to/lastmile_qr_scan"}, "is_reserved": 0, "fusion_lon": 0.0, "fusion_lat": 0.0, "lon": -77.02449166666666, "name": "a918092d5660ae4847500df4503d4159"}, {"bike_id": "5b5bc721daf3dabfd17ec064e7cad9cd", "type": "electric_scooter", "is_disabled": 0, "lat": 38.931822333333336, "rental_uris": {"ios": "https://dc.lft.to/lastmile_qr_scan", "android": "https://dc.lft.to/lastmile_qr_scan"}, "is_reserved": 0, "fusion_lon": 0.0, "fusion_lat": 0.0, "lon": -77.03160183333334, "name": "5b5bc721daf3dabfd17ec064e7cad9cd"}, {"bike_id": "f7615e5f5b6c07adb967c35a41e89657", "type": "electric_scooter", "is_disabled": 0, "lat": 38.8662665, "rental_uris": {"ios": "https://dc.lft.to/lastmile_qr_scan", "android": "https://dc.lft.to/lastmile_qr_scan"}, "is_reserved": 0, "fusion_lon": 0.0, "fusion_lat": 0.0, "lon": -76.98709116666667, "name": "f7615e5f5b6c07adb967c35a41e89657"}, {"bike_id": "3ff5d1cbf3f21a9811966dc2bed2c6c1", "type": "electric_scooter", "is_disabled": 0, "lat": 38.91492866666667, "rental_uris": {"ios": "https://dc.lft.to/lastmile_qr_scan", "android": "https://dc.lft.to/lastmile_qr_scan"}, "is_reserved": 0, "fusion_lon": 0.0, "fusion_lat": 0.0, "lon": -77.0356955, "name": "3ff5d1cbf3f21a9811966dc2bed2c6c1"}, {"bike_id": "26b69a94f199987cdc2fc0fd234dc594", "type": "electric_scooter", "is_disabled": 0, "lat": 38.896498666666666, "rental_uris": {"ios": "https://dc.lft.to/lastmile_qr_scan", "android": "https://dc.lft.to/lastmile_qr_scan"}, "is_reserved": 0, "fusion_lon": 0.0, "fusion_lat": 0.0, "lon": -77.07097066666667, "name": "26b69a94f199987cdc2fc0fd234dc594"}, {"bike_id": "0c4cff9cb1da3b1f4e967fc5b5097c31", "type": "electric_scooter", "is_disabled": 0, "lat": 38.92324633333333, "rental_uris": {"ios": "https://dc.lft.to/lastmile_qr_scan", "android": "https://dc.lft.to/lastmile_qr_scan"}, "is_reserved": 0, "fusion_lon": 0.0, "fusion_lat": 0.0, "lon": -77.05571816666667, "name": "0c4cff9cb1da3b1f4e967fc5b5097c31"}, {"bike_id": "4010aafc270fc6984523c602158918c7", "type": "electric_scooter", "is_disabled": 0, "lat": 38.9288095, "rental_uris": {"ios": "https://dc.lft.to/lastmile_qr_scan", "android": "https://dc.lft.to/lastmile_qr_scan"}, "is_reserved": 0, "fusion_lon": 0.0, "fusion_lat": 0.0, "lon": -77.039313, "name": "4010aafc270fc6984523c602158918c7"}, {"bike_id": "5c2f190b0ca5a740ddb311a7b786c9ca", "type": "electric_scooter", "is_disabled": 0, "lat": 38.91555683333333, "rental_uris": {"ios": "https://dc.lft.to/lastmile_qr_scan", "android": "https://dc.lft.to/lastmile_qr_scan"}, "is_reserved": 0, "fusion_lon": 0.0, "fusion_lat": 0.0, "lon": -77.03256783333333, "name": "5c2f190b0ca5a740ddb311a7b786c9ca"}, {"bike_id": "e98949b7205e5a9586ca0782ed8cbcdb", "type": "electric_scooter", "is_disabled": 0, "lat": 38.90852683333333, "rental_uris": {"ios": "https://dc.lft.to/lastmile_qr_scan", "android": "https://dc.lft.to/lastmile_qr_scan"}, "is_reserved": 0, "fusion_lon": 0.0, "fusion_lat": 0.0, "lon": -76.99965766666666, "name": "e98949b7205e5a9586ca0782ed8cbcdb"}, {"bike_id": "f193e503a544cc4793b171e44aa66a05", "type": "electric_scooter", "is_disabled": 0, "lat": 38.90866616666667, "rental_uris": {"ios": "https://dc.lft.to/lastmile_qr_scan", "android": "https://dc.lft.to/lastmile_qr_scan"}, "is_reserved": 0, "fusion_lon": 0.0, "fusion_lat": 0.0, "lon": -77.03176916666666, "name": "f193e503a544cc4793b171e44aa66a05"}, {"bike_id": "69f46921348dadac307fd600ede9ced7", "type": "electric_bike", "is_disabled": 0, "lat": 38.8972115, "rental_uris": {"ios": "https://dc.lft.to/lastmile_qr_scan", "android": "https://dc.lft.to/lastmile_qr_scan"}, "is_reserved": 0, "fusion_lon": 0.0, "fusion_lat": 0.0, "lon": -76.973408, "name": "69f46921348dadac307fd600ede9ced7"}, {"bike_id": "fafb97319d0e163274c84c6c3542ea70", "type": "electric_scooter", "is_disabled": 0, "lat": 38.908180333333334, "rental_uris": {"ios": "https://dc.lft.to/lastmile_qr_scan", "android": "https://dc.lft.to/lastmile_qr_scan"}, "is_reserved": 0, "fusion_lon": 0.0, "fusion_lat": 0.0, "lon": -77.04344283333333, "name": "fafb97319d0e163274c84c6c3542ea70"}, {"bike_id": "398b4c186fc14346371c4f79587f8106", "type": "electric_scooter", "is_disabled": 0, "lat": 38.887881166666666, "rental_uris": {"ios": "https://dc.lft.to/lastmile_qr_scan", "android": "https://dc.lft.to/lastmile_qr_scan"}, "is_reserved": 0, "fusion_lon": 0.0, "fusion_lat": 0.0, "lon": -76.95536483333333, "name": "398b4c186fc14346371c4f79587f8106"}, {"bike_id": "b09948bd5deb4de855295d5630a9030f", "type": "electric_bike", "is_disabled": 0, "lat": 38.89679116666667, "rental_uris": {"ios": "https://dc.lft.to/lastmile_qr_scan", "android": "https://dc.lft.to/lastmile_qr_scan"}, "is_reserved": 0, "fusion_lon": 0.0, "fusion_lat": 0.0, "lon": -77.02426366666667, "name": "b09948bd5deb4de855295d5630a9030f"}, {"bike_id": "8a987251c0ebba0974bcbaa88a4a4e39", "type": "electric_scooter", "is_disabled": 0, "lat": 38.9036135, "rental_uris": {"ios": "https://dc.lft.to/lastmile_qr_scan", "android": "https://dc.lft.to/lastmile_qr_scan"}, "is_reserved": 0, "fusion_lon": 0.0, "fusion_lat": 0.0, "lon": -77.0314175, "name": "8a987251c0ebba0974bcbaa88a4a4e39"}, {"bike_id": "5b328e75e35243bc91c8a58f8e2c17a1", "type": "electric_scooter", "is_disabled": 0, "lat": 38.916924, "rental_uris": {"ios": "https://dc.lft.to/lastmile_qr_scan", "android": "https://dc.lft.to/lastmile_qr_scan"}, "is_reserved": 0, "fusion_lon": 0.0, "fusion_lat": 0.0, "lon": -77.00818933333333, "name": "5b328e75e35243bc91c8a58f8e2c17a1"}, {"bike_id": "f928af8c217ee31d8426cd43b45f3c79", "type": "electric_scooter", "is_disabled": 0, "lat": 38.915535166666665, "rental_uris": {"ios": "https://dc.lft.to/lastmile_qr_scan", "android": "https://dc.lft.to/lastmile_qr_scan"}, "is_reserved": 0, "fusion_lon": 0.0, "fusion_lat": 0.0, "lon": -77.04447116666667, "name": "f928af8c217ee31d8426cd43b45f3c79"}, {"bike_id": "e9d6daeeeae7633f222912de7e544c0c", "type": "electric_scooter", "is_disabled": 0, "lat": 38.90492583333333, "rental_uris": {"ios": "https://dc.lft.to/lastmile_qr_scan", "android": "https://dc.lft.to/lastmile_qr_scan"}, "is_reserved": 0, "fusion_lon": 0.0, "fusion_lat": 0.0, "lon": -77.029637, "name": "e9d6daeeeae7633f222912de7e544c0c"}, {"bike_id": "55caa39317a6d10eeb45a0e510d110da", "type": "electric_scooter", "is_disabled": 0, "lat": 38.93519783333333, "rental_uris": {"ios": "https://dc.lft.to/lastmile_qr_scan", "android": "https://dc.lft.to/lastmile_qr_scan"}, "is_reserved": 0, "fusion_lon": 0.0, "fusion_lat": 0.0, "lon": -77.03355183333333, "name": "55caa39317a6d10eeb45a0e510d110da"}, {"bike_id": "9ef93fa9f2e763f288f1a64f7a16200a", "type": "electric_scooter", "is_disabled": 0, "lat": 38.91949733333333, "rental_uris": {"ios": "https://dc.lft.to/lastmile_qr_scan", "android": "https://dc.lft.to/lastmile_qr_scan"}, "is_reserved": 0, "fusion_lon": 0.0, "fusion_lat": 0.0, "lon": -77.04165566666667, "name": "9ef93fa9f2e763f288f1a64f7a16200a"}, {"bike_id": "2c9d2b673286037d8fb51a7086680f7d", "type": "electric_scooter", "is_disabled": 0, "lat": 38.9126145, "rental_uris": {"ios": "https://dc.lft.to/lastmile_qr_scan", "android": "https://dc.lft.to/lastmile_qr_scan"}, "is_reserved": 0, "fusion_lon": 0.0, "fusion_lat": 0.0, "lon": -77.00953616666666, "name": "2c9d2b673286037d8fb51a7086680f7d"}, {"bike_id": "e003936ae714d41bf0d612607c98d738", "type": "electric_scooter", "is_disabled": 0, "lat": 38.91562866666666, "rental_uris": {"ios": "https://dc.lft.to/lastmile_qr_scan", "android": "https://dc.lft.to/lastmile_qr_scan"}, "is_reserved": 0, "fusion_lon": 0.0, "fusion_lat": 0.0, "lon": -77.02591666666666, "name": "e003936ae714d41bf0d612607c98d738"}, {"bike_id": "fa569c4cc34823729fcacd3e0c6b1a7a", "type": "electric_bike", "is_disabled": 0, "lat": 38.96645433333333, "rental_uris": {"ios": "https://dc.lft.to/lastmile_qr_scan", "android": "https://dc.lft.to/lastmile_qr_scan"}, "is_reserved": 0, "fusion_lon": 0.0, "fusion_lat": 0.0, "lon": -76.97673616666667, "name": "fa569c4cc34823729fcacd3e0c6b1a7a"}, {"bike_id": "393849c6b54713d2a637513148550516", "type": "electric_bike", "is_disabled": 0, "lat": 38.9223855, "rental_uris": {"ios": "https://dc.lft.to/lastmile_qr_scan", "android": "https://dc.lft.to/lastmile_qr_scan"}, "is_reserved": 0, "fusion_lon": 0.0, "fusion_lat": 0.0, "lon": -77.04480766666667, "name": "393849c6b54713d2a637513148550516"}, {"bike_id": "d08031968fa5afdc5b03188b1dbe7f43", "type": "electric_scooter", "is_disabled": 0, "lat": 38.93461683333334, "rental_uris": {"ios": "https://dc.lft.to/lastmile_qr_scan", "android": "https://dc.lft.to/lastmile_qr_scan"}, "is_reserved": 0, "fusion_lon": 0.0, "fusion_lat": 0.0, "lon": -77.04536283333333, "name": "d08031968fa5afdc5b03188b1dbe7f43"}, {"bike_id": "01443881f029ae9c6cc17ca7f3b1f086", "type": "electric_scooter", "is_disabled": 0, "lat": 38.90728683333333, "rental_uris": {"ios": "https://dc.lft.to/lastmile_qr_scan", "android": "https://dc.lft.to/lastmile_qr_scan"}, "is_reserved": 0, "fusion_lon": 0.0, "fusion_lat": 0.0, "lon": -77.0320395, "name": "01443881f029ae9c6cc17ca7f3b1f086"}, {"bike_id": "20b304faf166d1fa23144dbd97e1bfaf", "type": "electric_scooter", "is_disabled": 0, "lat": 38.88279133333333, "rental_uris": {"ios": "https://dc.lft.to/lastmile_qr_scan", "android": "https://dc.lft.to/lastmile_qr_scan"}, "is_reserved": 0, "fusion_lon": 0.0, "fusion_lat": 0.0, "lon": -77.021456, "name": "20b304faf166d1fa23144dbd97e1bfaf"}, {"bike_id": "3e28d2e1a34ea4870e0fecaeddc75d20", "type": "electric_scooter", "is_disabled": 0, "lat": 38.922466166666666, "rental_uris": {"ios": "https://dc.lft.to/lastmile_qr_scan", "android": "https://dc.lft.to/lastmile_qr_scan"}, "is_reserved": 0, "fusion_lon": 0.0, "fusion_lat": 0.0, "lon": -77.04211333333333, "name": "3e28d2e1a34ea4870e0fecaeddc75d20"}, {"bike_id": "4536cc9f101dcac3f93962d90ae1ff78", "type": "electric_scooter", "is_disabled": 0, "lat": 38.89914533333334, "rental_uris": {"ios": "https://dc.lft.to/lastmile_qr_scan", "android": "https://dc.lft.to/lastmile_qr_scan"}, "is_reserved": 0, "fusion_lon": 0.0, "fusion_lat": 0.0, "lon": -76.93368616666666, "name": "4536cc9f101dcac3f93962d90ae1ff78"}, {"bike_id": "d26ec6de6206bf1040d18f19d2c6f90c", "type": "electric_scooter", "is_disabled": 0, "lat": 38.908692, "rental_uris": {"ios": "https://dc.lft.to/lastmile_qr_scan", "android": "https://dc.lft.to/lastmile_qr_scan"}, "is_reserved": 0, "fusion_lon": 0.0, "fusion_lat": 0.0, "lon": -77.08589866666667, "name": "d26ec6de6206bf1040d18f19d2c6f90c"}, {"bike_id": "41c5302e282a76caee5fde2aa34a92ff", "type": "electric_scooter", "is_disabled": 0, "lat": 38.914850666666666, "rental_uris": {"ios": "https://dc.lft.to/lastmile_qr_scan", "android": "https://dc.lft.to/lastmile_qr_scan"}, "is_reserved": 0, "fusion_lon": 0.0, "fusion_lat": 0.0, "lon": -77.03767616666667, "name": "41c5302e282a76caee5fde2aa34a92ff"}, {"bike_id": "87f705154188cbe520399089846014ef", "type": "electric_scooter", "is_disabled": 0, "lat": 38.9096975, "rental_uris": {"ios": "https://dc.lft.to/lastmile_qr_scan", "android": "https://dc.lft.to/lastmile_qr_scan"}, "is_reserved": 0, "fusion_lon": 0.0, "fusion_lat": 0.0, "lon": -77.04455783333333, "name": "87f705154188cbe520399089846014ef"}, {"bike_id": "beea37c65b03a23a5ae634ebd0403abe", "type": "electric_scooter", "is_disabled": 0, "lat": 38.89246116666666, "rental_uris": {"ios": "https://dc.lft.to/lastmile_qr_scan", "android": "https://dc.lft.to/lastmile_qr_scan"}, "is_reserved": 0, "fusion_lon": 0.0, "fusion_lat": 0.0, "lon": -77.05027366666667, "name": "beea37c65b03a23a5ae634ebd0403abe"}, {"bike_id": "164f7520cc6a95f49bb14fbd0f4fd412", "type": "electric_bike", "is_disabled": 0, "lat": 38.92371766666667, "rental_uris": {"ios": "https://dc.lft.to/lastmile_qr_scan", "android": "https://dc.lft.to/lastmile_qr_scan"}, "is_reserved": 0, "fusion_lon": 0.0, "fusion_lat": 0.0, "lon": -77.03037316666666, "name": "164f7520cc6a95f49bb14fbd0f4fd412"}, {"bike_id": "093aa602398fdef1b845a7b4e079a6d7", "type": "electric_scooter", "is_disabled": 0, "lat": 38.91324, "rental_uris": {"ios": "https://dc.lft.to/lastmile_qr_scan", "android": "https://dc.lft.to/lastmile_qr_scan"}, "is_reserved": 0, "fusion_lon": 0.0, "fusion_lat": 0.0, "lon": -77.03181816666667, "name": "093aa602398fdef1b845a7b4e079a6d7"}, {"bike_id": "a556f33931d8087d1f8b74e398ea90c1", "type": "electric_scooter", "is_disabled": 0, "lat": 38.89476033333333, "rental_uris": {"ios": "https://dc.lft.to/lastmile_qr_scan", "android": "https://dc.lft.to/lastmile_qr_scan"}, "is_reserved": 0, "fusion_lon": 0.0, "fusion_lat": 0.0, "lon": -76.94861916666666, "name": "a556f33931d8087d1f8b74e398ea90c1"}, {"bike_id": "45421f87788cab99a80c3122f162b80c", "type": "electric_scooter", "is_disabled": 0, "lat": 38.912634, "rental_uris": {"ios": "https://dc.lft.to/lastmile_qr_scan", "android": "https://dc.lft.to/lastmile_qr_scan"}, "is_reserved": 0, "fusion_lon": 0.0, "fusion_lat": 0.0, "lon": -77.03875166666667, "name": "45421f87788cab99a80c3122f162b80c"}, {"bike_id": "f730a8fae4c4dbb32c7992b78f43582e", "type": "electric_scooter", "is_disabled": 0, "lat": 38.91114916666667, "rental_uris": {"ios": "https://dc.lft.to/lastmile_qr_scan", "android": "https://dc.lft.to/lastmile_qr_scan"}, "is_reserved": 0, "fusion_lon": 0.0, "fusion_lat": 0.0, "lon": -77.02208383333334, "name": "f730a8fae4c4dbb32c7992b78f43582e"}, {"bike_id": "c113ac5c39203e71b37648040c6bc483", "type": "electric_scooter", "is_disabled": 0, "lat": 38.8922515, "rental_uris": {"ios": "https://dc.lft.to/lastmile_qr_scan", "android": "https://dc.lft.to/lastmile_qr_scan"}, "is_reserved": 0, "fusion_lon": 0.0, "fusion_lat": 0.0, "lon": -77.0317115, "name": "c113ac5c39203e71b37648040c6bc483"}, {"bike_id": "0bf2d5be9ba1881878508952b369966a", "type": "electric_scooter", "is_disabled": 0, "lat": 38.9019925, "rental_uris": {"ios": "https://dc.lft.to/lastmile_qr_scan", "android": "https://dc.lft.to/lastmile_qr_scan"}, "is_reserved": 0, "fusion_lon": 0.0, "fusion_lat": 0.0, "lon": -76.98208866666667, "name": "0bf2d5be9ba1881878508952b369966a"}, {"bike_id": "027888b43b231105918b621e0efa15c7", "type": "electric_scooter", "is_disabled": 0, "lat": 38.898376, "rental_uris": {"ios": "https://dc.lft.to/lastmile_qr_scan", "android": "https://dc.lft.to/lastmile_qr_scan"}, "is_reserved": 0, "fusion_lon": 0.0, "fusion_lat": 0.0, "lon": -76.9463055, "name": "027888b43b231105918b621e0efa15c7"}, {"bike_id": "c66b712b2d64e2047e3f3feb87ce3079", "type": "electric_bike", "is_disabled": 0, "lat": 38.87478466666666, "rental_uris": {"ios": "https://dc.lft.to/lastmile_qr_scan", "android": "https://dc.lft.to/lastmile_qr_scan"}, "is_reserved": 0, "fusion_lon": 0.0, "fusion_lat": 0.0, "lon": -76.9653085, "name": "c66b712b2d64e2047e3f3feb87ce3079"}, {"bike_id": "cdd1f61c671cff85ae59e8ef6cf180bc", "type": "electric_scooter", "is_disabled": 0, "lat": 38.90732, "rental_uris": {"ios": "https://dc.lft.to/lastmile_qr_scan", "android": "https://dc.lft.to/lastmile_qr_scan"}, "is_reserved": 0, "fusion_lon": 0.0, "fusion_lat": 0.0, "lon": -77.02383033333334, "name": "cdd1f61c671cff85ae59e8ef6cf180bc"}, {"bike_id": "2931b073335af08b6f6ad66462682177", "type": "electric_scooter", "is_disabled": 0, "lat": 38.90508916666667, "rental_uris": {"ios": "https://dc.lft.to/lastmile_qr_scan", "android": "https://dc.lft.to/lastmile_qr_scan"}, "is_reserved": 0, "fusion_lon": 0.0, "fusion_lat": 0.0, "lon": -77.01712366666666, "name": "2931b073335af08b6f6ad66462682177"}, {"bike_id": "f61b48d9083e8ed92d466ac0b747249d", "type": "electric_scooter", "is_disabled": 0, "lat": 38.907562166666665, "rental_uris": {"ios": "https://dc.lft.to/lastmile_qr_scan", "android": "https://dc.lft.to/lastmile_qr_scan"}, "is_reserved": 0, "fusion_lon": 0.0, "fusion_lat": 0.0, "lon": -77.01695666666667, "name": "f61b48d9083e8ed92d466ac0b747249d"}, {"bike_id": "57e5eabd797040451106a71446613820", "type": "electric_scooter", "is_disabled": 0, "lat": 38.932083166666665, "rental_uris": {"ios": "https://dc.lft.to/lastmile_qr_scan", "android": "https://dc.lft.to/lastmile_qr_scan"}, "is_reserved": 0, "fusion_lon": 0.0, "fusion_lat": 0.0, "lon": -77.03264566666667, "name": "57e5eabd797040451106a71446613820"}, {"bike_id": "815c2cfe73c5ae6dbb4ea9addca49ae8", "type": "electric_scooter", "is_disabled": 0, "lat": 38.93721083333333, "rental_uris": {"ios": "https://dc.lft.to/lastmile_qr_scan", "android": "https://dc.lft.to/lastmile_qr_scan"}, "is_reserved": 0, "fusion_lon": 0.0, "fusion_lat": 0.0, "lon": -77.02009483333333, "name": "815c2cfe73c5ae6dbb4ea9addca49ae8"}, {"bike_id": "916190c427b55c2585a05cc1ebe3d1e1", "type": "electric_scooter", "is_disabled": 0, "lat": 38.930797, "rental_uris": {"ios": "https://dc.lft.to/lastmile_qr_scan", "android": "https://dc.lft.to/lastmile_qr_scan"}, "is_reserved": 0, "fusion_lon": 0.0, "fusion_lat": 0.0, "lon": -77.02796233333333, "name": "916190c427b55c2585a05cc1ebe3d1e1"}, {"bike_id": "99f5ec9e2af75145c5bee9deb7b23847", "type": "electric_scooter", "is_disabled": 0, "lat": 38.928231833333335, "rental_uris": {"ios": "https://dc.lft.to/lastmile_qr_scan", "android": "https://dc.lft.to/lastmile_qr_scan"}, "is_reserved": 0, "fusion_lon": 0.0, "fusion_lat": 0.0, "lon": -77.02257016666667, "name": "99f5ec9e2af75145c5bee9deb7b23847"}, {"bike_id": "68fbdfddd5de04f2911db6afddfc422a", "type": "electric_scooter", "is_disabled": 0, "lat": 38.89219333333333, "rental_uris": {"ios": "https://dc.lft.to/lastmile_qr_scan", "android": "https://dc.lft.to/lastmile_qr_scan"}, "is_reserved": 0, "fusion_lon": 0.0, "fusion_lat": 0.0, "lon": -77.0225955, "name": "68fbdfddd5de04f2911db6afddfc422a"}, {"bike_id": "1e9074c66524a124aea03a275d49cf06", "type": "electric_bike", "is_disabled": 0, "lat": 38.97856066666667, "rental_uris": {"ios": "https://dc.lft.to/lastmile_qr_scan", "android": "https://dc.lft.to/lastmile_qr_scan"}, "is_reserved": 0, "fusion_lon": 0.0, "fusion_lat": 0.0, "lon": -76.94048866666667, "name": "1e9074c66524a124aea03a275d49cf06"}, {"bike_id": "d5ce42fa6196a02f71051ed72e0861c1", "type": "electric_scooter", "is_disabled": 0, "lat": 38.86703516666667, "rental_uris": {"ios": "https://dc.lft.to/lastmile_qr_scan", "android": "https://dc.lft.to/lastmile_qr_scan"}, "is_reserved": 0, "fusion_lon": 0.0, "fusion_lat": 0.0, "lon": -76.98717866666667, "name": "d5ce42fa6196a02f71051ed72e0861c1"}, {"bike_id": "1b31bf4b2b474b16452933dfa37ae17a", "type": "electric_scooter", "is_disabled": 0, "lat": 38.898825, "rental_uris": {"ios": "https://dc.lft.to/lastmile_qr_scan", "android": "https://dc.lft.to/lastmile_qr_scan"}, "is_reserved": 0, "fusion_lon": 0.0, "fusion_lat": 0.0, "lon": -76.9317775, "name": "1b31bf4b2b474b16452933dfa37ae17a"}, {"bike_id": "53ee486b96afba4a658f750a99a47e87", "type": "electric_scooter", "is_disabled": 0, "lat": 38.895496666666666, "rental_uris": {"ios": "https://dc.lft.to/lastmile_qr_scan", "android": "https://dc.lft.to/lastmile_qr_scan"}, "is_reserved": 0, "fusion_lon": 0.0, "fusion_lat": 0.0, "lon": -76.94943066666667, "name": "53ee486b96afba4a658f750a99a47e87"}, {"bike_id": "302369b07b977fa2467c811e5acb1228", "type": "electric_scooter", "is_disabled": 0, "lat": 38.91268516666667, "rental_uris": {"ios": "https://dc.lft.to/lastmile_qr_scan", "android": "https://dc.lft.to/lastmile_qr_scan"}, "is_reserved": 0, "fusion_lon": 0.0, "fusion_lat": 0.0, "lon": -77.04499016666666, "name": "302369b07b977fa2467c811e5acb1228"}, {"bike_id": "6a65e47b8ee3c73515e359126391d213", "type": "electric_scooter", "is_disabled": 0, "lat": 38.86702716666667, "rental_uris": {"ios": "https://dc.lft.to/lastmile_qr_scan", "android": "https://dc.lft.to/lastmile_qr_scan"}, "is_reserved": 0, "fusion_lon": 0.0, "fusion_lat": 0.0, "lon": -76.98707316666666, "name": "6a65e47b8ee3c73515e359126391d213"}, {"bike_id": "af695cab7007481f1fe31ebc9a9642cc", "type": "electric_scooter", "is_disabled": 0, "lat": 38.910185, "rental_uris": {"ios": "https://dc.lft.to/lastmile_qr_scan", "android": "https://dc.lft.to/lastmile_qr_scan"}, "is_reserved": 0, "fusion_lon": 0.0, "fusion_lat": 0.0, "lon": -77.03197066666667, "name": "af695cab7007481f1fe31ebc9a9642cc"}, {"bike_id": "4451fc1296e9e27815f2a770e46d5ac4", "type": "electric_scooter", "is_disabled": 0, "lat": 38.921390333333335, "rental_uris": {"ios": "https://dc.lft.to/lastmile_qr_scan", "android": "https://dc.lft.to/lastmile_qr_scan"}, "is_reserved": 0, "fusion_lon": 0.0, "fusion_lat": 0.0, "lon": -77.04363383333333, "name": "4451fc1296e9e27815f2a770e46d5ac4"}, {"bike_id": "0d3f169beb94b8bfa26b22f01e21ade3", "type": "electric_scooter", "is_disabled": 0, "lat": 38.87874466666667, "rental_uris": {"ios": "https://dc.lft.to/lastmile_qr_scan", "android": "https://dc.lft.to/lastmile_qr_scan"}, "is_reserved": 0, "fusion_lon": 0.0, "fusion_lat": 0.0, "lon": -77.019192, "name": "0d3f169beb94b8bfa26b22f01e21ade3"}, {"bike_id": "3394917542603a54d9eb2c2a5737bf0d", "type": "electric_scooter", "is_disabled": 0, "lat": 38.91769, "rental_uris": {"ios": "https://dc.lft.to/lastmile_qr_scan", "android": "https://dc.lft.to/lastmile_qr_scan"}, "is_reserved": 0, "fusion_lon": 0.0, "fusion_lat": 0.0, "lon": -77.047756, "name": "3394917542603a54d9eb2c2a5737bf0d"}, {"bike_id": "ff27a729de567c38fd3f0a046262eff8", "type": "electric_bike", "is_disabled": 0, "lat": 38.99098566666667, "rental_uris": {"ios": "https://dc.lft.to/lastmile_qr_scan", "android": "https://dc.lft.to/lastmile_qr_scan"}, "is_reserved": 0, "fusion_lon": 0.0, "fusion_lat": 0.0, "lon": -76.993799, "name": "ff27a729de567c38fd3f0a046262eff8"}, {"bike_id": "47057e886675aeabf5e2a38df57b3133", "type": "electric_scooter", "is_disabled": 0, "lat": 38.926340833333335, "rental_uris": {"ios": "https://dc.lft.to/lastmile_qr_scan", "android": "https://dc.lft.to/lastmile_qr_scan"}, "is_reserved": 0, "fusion_lon": 0.0, "fusion_lat": 0.0, "lon": -77.03791466666667, "name": "47057e886675aeabf5e2a38df57b3133"}, {"bike_id": "d578227e1ac8e70ebb08588e75ef1f9b", "type": "electric_scooter", "is_disabled": 0, "lat": 38.89239116666667, "rental_uris": {"ios": "https://dc.lft.to/lastmile_qr_scan", "android": "https://dc.lft.to/lastmile_qr_scan"}, "is_reserved": 0, "fusion_lon": 0.0, "fusion_lat": 0.0, "lon": -77.0450125, "name": "d578227e1ac8e70ebb08588e75ef1f9b"}, {"bike_id": "b88dd100e8fa07e97b1787a581fa8216", "type": "electric_scooter", "is_disabled": 0, "lat": 38.858984166666666, "rental_uris": {"ios": "https://dc.lft.to/lastmile_qr_scan", "android": "https://dc.lft.to/lastmile_qr_scan"}, "is_reserved": 0, "fusion_lon": 0.0, "fusion_lat": 0.0, "lon": -76.99729466666666, "name": "b88dd100e8fa07e97b1787a581fa8216"}, {"bike_id": "aa4f687ece9ea623de3de46d609bbfe4", "type": "electric_scooter", "is_disabled": 0, "lat": 38.877340333333336, "rental_uris": {"ios": "https://dc.lft.to/lastmile_qr_scan", "android": "https://dc.lft.to/lastmile_qr_scan"}, "is_reserved": 0, "fusion_lon": 0.0, "fusion_lat": 0.0, "lon": -77.00470216666666, "name": "aa4f687ece9ea623de3de46d609bbfe4"}, {"bike_id": "17ef40078a368c589d1c514f03aebdaa", "type": "electric_scooter", "is_disabled": 0, "lat": 38.8781165, "rental_uris": {"ios": "https://dc.lft.to/lastmile_qr_scan", "android": "https://dc.lft.to/lastmile_qr_scan"}, "is_reserved": 0, "fusion_lon": 0.0, "fusion_lat": 0.0, "lon": -76.97171, "name": "17ef40078a368c589d1c514f03aebdaa"}, {"bike_id": "3d8572589af2ab5991026486697e12b8", "type": "electric_scooter", "is_disabled": 0, "lat": 38.892393166666665, "rental_uris": {"ios": "https://dc.lft.to/lastmile_qr_scan", "android": "https://dc.lft.to/lastmile_qr_scan"}, "is_reserved": 0, "fusion_lon": 0.0, "fusion_lat": 0.0, "lon": -77.0396005, "name": "3d8572589af2ab5991026486697e12b8"}, {"bike_id": "a57222da7d2188952b98e600abd6308a", "type": "electric_bike", "is_disabled": 0, "lat": 38.96501133333334, "rental_uris": {"ios": "https://dc.lft.to/lastmile_qr_scan", "android": "https://dc.lft.to/lastmile_qr_scan"}, "is_reserved": 0, "fusion_lon": 0.0, "fusion_lat": 0.0, "lon": -77.028295, "name": "a57222da7d2188952b98e600abd6308a"}, {"bike_id": "cdff003a695b16c7cd43c2732e5d6780", "type": "electric_scooter", "is_disabled": 0, "lat": 38.9377115, "rental_uris": {"ios": "https://dc.lft.to/lastmile_qr_scan", "android": "https://dc.lft.to/lastmile_qr_scan"}, "is_reserved": 0, "fusion_lon": 0.0, "fusion_lat": 0.0, "lon": -77.01969183333334, "name": "cdff003a695b16c7cd43c2732e5d6780"}, {"bike_id": "1232d36e27af665df7b24db22c457010", "type": "electric_scooter", "is_disabled": 0, "lat": 38.91103583333334, "rental_uris": {"ios": "https://dc.lft.to/lastmile_qr_scan", "android": "https://dc.lft.to/lastmile_qr_scan"}, "is_reserved": 0, "fusion_lon": 0.0, "fusion_lat": 0.0, "lon": -77.0021995, "name": "1232d36e27af665df7b24db22c457010"}, {"bike_id": "1d50f7fda8fcb3a8511a71b79435b306", "type": "electric_scooter", "is_disabled": 0, "lat": 38.9023365, "rental_uris": {"ios": "https://dc.lft.to/lastmile_qr_scan", "android": "https://dc.lft.to/lastmile_qr_scan"}, "is_reserved": 0, "fusion_lon": 0.0, "fusion_lat": 0.0, "lon": -77.01909683333334, "name": "1d50f7fda8fcb3a8511a71b79435b306"}, {"bike_id": "053d528325d9ddf74981997b3ca9b56b", "type": "electric_scooter", "is_disabled": 0, "lat": 38.883112, "rental_uris": {"ios": "https://dc.lft.to/lastmile_qr_scan", "android": "https://dc.lft.to/lastmile_qr_scan"}, "is_reserved": 0, "fusion_lon": 0.0, "fusion_lat": 0.0, "lon": -77.00340583333333, "name": "053d528325d9ddf74981997b3ca9b56b"}, {"bike_id": "e35297315b1abb62eeb9baecc1fb9d5d", "type": "electric_scooter", "is_disabled": 0, "lat": 38.91562366666667, "rental_uris": {"ios": "https://dc.lft.to/lastmile_qr_scan", "android": "https://dc.lft.to/lastmile_qr_scan"}, "is_reserved": 0, "fusion_lon": 0.0, "fusion_lat": 0.0, "lon": -77.03137816666667, "name": "e35297315b1abb62eeb9baecc1fb9d5d"}, {"bike_id": "b4a5294e529f5fb497bd24410b98dd73", "type": "electric_scooter", "is_disabled": 0, "lat": 38.924779666666666, "rental_uris": {"ios": "https://dc.lft.to/lastmile_qr_scan", "android": "https://dc.lft.to/lastmile_qr_scan"}, "is_reserved": 0, "fusion_lon": 0.0, "fusion_lat": 0.0, "lon": -77.0309955, "name": "b4a5294e529f5fb497bd24410b98dd73"}, {"bike_id": "e7332dc8103c485997c55de1d0fdd1bc", "type": "electric_bike", "is_disabled": 0, "lat": 38.93548416666667, "rental_uris": {"ios": "https://dc.lft.to/lastmile_qr_scan", "android": "https://dc.lft.to/lastmile_qr_scan"}, "is_reserved": 0, "fusion_lon": 0.0, "fusion_lat": 0.0, "lon": -76.93896516666666, "name": "e7332dc8103c485997c55de1d0fdd1bc"}, {"bike_id": "d89447b2a422fb3b98044d2f46c70fa6", "type": "electric_scooter", "is_disabled": 0, "lat": 38.922489666666664, "rental_uris": {"ios": "https://dc.lft.to/lastmile_qr_scan", "android": "https://dc.lft.to/lastmile_qr_scan"}, "is_reserved": 0, "fusion_lon": 0.0, "fusion_lat": 0.0, "lon": -77.0308575, "name": "d89447b2a422fb3b98044d2f46c70fa6"}, {"bike_id": "43974ba71761c9f82b5627c615eb655e", "type": "electric_scooter", "is_disabled": 0, "lat": 38.870846666666665, "rental_uris": {"ios": "https://dc.lft.to/lastmile_qr_scan", "android": "https://dc.lft.to/lastmile_qr_scan"}, "is_reserved": 0, "fusion_lon": 0.0, "fusion_lat": 0.0, "lon": -77.012232, "name": "43974ba71761c9f82b5627c615eb655e"}, {"bike_id": "da6035bb13d5bbbca5031425ad7b8993", "type": "electric_scooter", "is_disabled": 0, "lat": 38.912756333333334, "rental_uris": {"ios": "https://dc.lft.to/lastmile_qr_scan", "android": "https://dc.lft.to/lastmile_qr_scan"}, "is_reserved": 0, "fusion_lon": 0.0, "fusion_lat": 0.0, "lon": -77.02947383333333, "name": "da6035bb13d5bbbca5031425ad7b8993"}, {"bike_id": "3670b7db99516b1694642564320eaa18", "type": "electric_scooter", "is_disabled": 0, "lat": 38.91267233333333, "rental_uris": {"ios": "https://dc.lft.to/lastmile_qr_scan", "android": "https://dc.lft.to/lastmile_qr_scan"}, "is_reserved": 0, "fusion_lon": 0.0, "fusion_lat": 0.0, "lon": -77.031464, "name": "3670b7db99516b1694642564320eaa18"}, {"bike_id": "a12397d29f0817981c6078368db0ed75", "type": "electric_scooter", "is_disabled": 0, "lat": 38.927708833333334, "rental_uris": {"ios": "https://dc.lft.to/lastmile_qr_scan", "android": "https://dc.lft.to/lastmile_qr_scan"}, "is_reserved": 0, "fusion_lon": 0.0, "fusion_lat": 0.0, "lon": -77.02779916666667, "name": "a12397d29f0817981c6078368db0ed75"}, {"bike_id": "56edf87bde947bbf6ed648b5f3322232", "type": "electric_bike", "is_disabled": 0, "lat": 38.920713166666665, "rental_uris": {"ios": "https://dc.lft.to/lastmile_qr_scan", "android": "https://dc.lft.to/lastmile_qr_scan"}, "is_reserved": 0, "fusion_lon": 0.0, "fusion_lat": 0.0, "lon": -77.02422566666667, "name": "56edf87bde947bbf6ed648b5f3322232"}, {"bike_id": "5c257e02308ff766e4373627aaf10ad1", "type": "electric_scooter", "is_disabled": 0, "lat": 38.914631666666665, "rental_uris": {"ios": "https://dc.lft.to/lastmile_qr_scan", "android": "https://dc.lft.to/lastmile_qr_scan"}, "is_reserved": 0, "fusion_lon": 0.0, "fusion_lat": 0.0, "lon": -77.04558683333333, "name": "5c257e02308ff766e4373627aaf10ad1"}, {"bike_id": "33c424ad290800a1d428d081bd71e236", "type": "electric_scooter", "is_disabled": 0, "lat": 38.867021, "rental_uris": {"ios": "https://dc.lft.to/lastmile_qr_scan", "android": "https://dc.lft.to/lastmile_qr_scan"}, "is_reserved": 0, "fusion_lon": 0.0, "fusion_lat": 0.0, "lon": -76.987144, "name": "33c424ad290800a1d428d081bd71e236"}, {"bike_id": "6eb1ee59fb57438bb1ec2ef840889444", "type": "electric_scooter", "is_disabled": 0, "lat": 38.900598333333335, "rental_uris": {"ios": "https://dc.lft.to/lastmile_qr_scan", "android": "https://dc.lft.to/lastmile_qr_scan"}, "is_reserved": 0, "fusion_lon": 0.0, "fusion_lat": 0.0, "lon": -76.9338305, "name": "6eb1ee59fb57438bb1ec2ef840889444"}, {"bike_id": "5c721fe79dacb7c8e6c5f48ecd86e318", "type": "electric_scooter", "is_disabled": 0, "lat": 38.901443, "rental_uris": {"ios": "https://dc.lft.to/lastmile_qr_scan", "android": "https://dc.lft.to/lastmile_qr_scan"}, "is_reserved": 0, "fusion_lon": 0.0, "fusion_lat": 0.0, "lon": -77.01497966666666, "name": "5c721fe79dacb7c8e6c5f48ecd86e318"}, {"bike_id": "e0bb6dc2bc8d6f0368b8e946dfab7415", "type": "electric_scooter", "is_disabled": 0, "lat": 38.905696166666665, "rental_uris": {"ios": "https://dc.lft.to/lastmile_qr_scan", "android": "https://dc.lft.to/lastmile_qr_scan"}, "is_reserved": 0, "fusion_lon": 0.0, "fusion_lat": 0.0, "lon": -76.976312, "name": "e0bb6dc2bc8d6f0368b8e946dfab7415"}, {"bike_id": "33bd2d7074061301c0008ea0e42d0335", "type": "electric_scooter", "is_disabled": 0, "lat": 38.9046995, "rental_uris": {"ios": "https://dc.lft.to/lastmile_qr_scan", "android": "https://dc.lft.to/lastmile_qr_scan"}, "is_reserved": 0, "fusion_lon": 0.0, "fusion_lat": 0.0, "lon": -77.043501, "name": "33bd2d7074061301c0008ea0e42d0335"}, {"bike_id": "75e1d7f1cd96ebbee8c3dc8a64fa6ec0", "type": "electric_scooter", "is_disabled": 0, "lat": 38.928489, "rental_uris": {"ios": "https://dc.lft.to/lastmile_qr_scan", "android": "https://dc.lft.to/lastmile_qr_scan"}, "is_reserved": 0, "fusion_lon": 0.0, "fusion_lat": 0.0, "lon": -77.03625583333333, "name": "75e1d7f1cd96ebbee8c3dc8a64fa6ec0"}, {"bike_id": "2ef227a2768be295b4ab80c55a4d6bb5", "type": "electric_scooter", "is_disabled": 0, "lat": 38.9134715, "rental_uris": {"ios": "https://dc.lft.to/lastmile_qr_scan", "android": "https://dc.lft.to/lastmile_qr_scan"}, "is_reserved": 0, "fusion_lon": 0.0, "fusion_lat": 0.0, "lon": -77.01227516666667, "name": "2ef227a2768be295b4ab80c55a4d6bb5"}, {"bike_id": "adb1cb82935cb1d7c9e40ebe6dd046e7", "type": "electric_scooter", "is_disabled": 0, "lat": 38.907288, "rental_uris": {"ios": "https://dc.lft.to/lastmile_qr_scan", "android": "https://dc.lft.to/lastmile_qr_scan"}, "is_reserved": 0, "fusion_lon": 0.0, "fusion_lat": 0.0, "lon": -76.98346283333333, "name": "adb1cb82935cb1d7c9e40ebe6dd046e7"}, {"bike_id": "839de106c0828d8ae9ff01973d076169", "type": "electric_scooter", "is_disabled": 0, "lat": 38.893223166666665, "rental_uris": {"ios": "https://dc.lft.to/lastmile_qr_scan", "android": "https://dc.lft.to/lastmile_qr_scan"}, "is_reserved": 0, "fusion_lon": 0.0, "fusion_lat": 0.0, "lon": -77.0318395, "name": "839de106c0828d8ae9ff01973d076169"}, {"bike_id": "99c3c5542ff687891d0c4ae3bee3672c", "type": "electric_scooter", "is_disabled": 0, "lat": 38.84637883333333, "rental_uris": {"ios": "https://dc.lft.to/lastmile_qr_scan", "android": "https://dc.lft.to/lastmile_qr_scan"}, "is_reserved": 0, "fusion_lon": 0.0, "fusion_lat": 0.0, "lon": -76.9912975, "name": "99c3c5542ff687891d0c4ae3bee3672c"}, {"bike_id": "5bf6a0aa5e589d8c1f6ba99902e513d2", "type": "electric_scooter", "is_disabled": 0, "lat": 38.918392833333336, "rental_uris": {"ios": "https://dc.lft.to/lastmile_qr_scan", "android": "https://dc.lft.to/lastmile_qr_scan"}, "is_reserved": 0, "fusion_lon": 0.0, "fusion_lat": 0.0, "lon": -77.039521, "name": "5bf6a0aa5e589d8c1f6ba99902e513d2"}, {"bike_id": "dd170724f88d746700e38cc7c94e42ec", "type": "electric_bike", "is_disabled": 0, "lat": 38.82175616666667, "rental_uris": {"ios": "https://dc.lft.to/lastmile_qr_scan", "android": "https://dc.lft.to/lastmile_qr_scan"}, "is_reserved": 0, "fusion_lon": 0.0, "fusion_lat": 0.0, "lon": -76.99513, "name": "dd170724f88d746700e38cc7c94e42ec"}, {"bike_id": "f3d61fc10b164d96c227735494a7eecb", "type": "electric_bike", "is_disabled": 0, "lat": 39.03571516666667, "rental_uris": {"ios": "https://dc.lft.to/lastmile_qr_scan", "android": "https://dc.lft.to/lastmile_qr_scan"}, "is_reserved": 0, "fusion_lon": 0.0, "fusion_lat": 0.0, "lon": -77.03938116666667, "name": "f3d61fc10b164d96c227735494a7eecb"}, {"bike_id": "950b86702cf07d087d9e86974475392a", "type": "electric_scooter", "is_disabled": 0, "lat": 38.8716185, "rental_uris": {"ios": "https://dc.lft.to/lastmile_qr_scan", "android": "https://dc.lft.to/lastmile_qr_scan"}, "is_reserved": 0, "fusion_lon": 0.0, "fusion_lat": 0.0, "lon": -77.01351733333334, "name": "950b86702cf07d087d9e86974475392a"}, {"bike_id": "edef39571232b656d5b4b0caa16bf8fc", "type": "electric_scooter", "is_disabled": 0, "lat": 38.90562766666667, "rental_uris": {"ios": "https://dc.lft.to/lastmile_qr_scan", "android": "https://dc.lft.to/lastmile_qr_scan"}, "is_reserved": 0, "fusion_lon": 0.0, "fusion_lat": 0.0, "lon": -77.0652925, "name": "edef39571232b656d5b4b0caa16bf8fc"}, {"bike_id": "c587607e5dcdd49c07ed51bb935eada9", "type": "electric_scooter", "is_disabled": 0, "lat": 38.917609166666665, "rental_uris": {"ios": "https://dc.lft.to/lastmile_qr_scan", "android": "https://dc.lft.to/lastmile_qr_scan"}, "is_reserved": 0, "fusion_lon": 0.0, "fusion_lat": 0.0, "lon": -77.01761916666666, "name": "c587607e5dcdd49c07ed51bb935eada9"}, {"bike_id": "abdc9eefd682849748a0b010111cee9e", "type": "electric_scooter", "is_disabled": 0, "lat": 38.90542816666667, "rental_uris": {"ios": "https://dc.lft.to/lastmile_qr_scan", "android": "https://dc.lft.to/lastmile_qr_scan"}, "is_reserved": 0, "fusion_lon": 0.0, "fusion_lat": 0.0, "lon": -77.02186766666667, "name": "abdc9eefd682849748a0b010111cee9e"}, {"bike_id": "fb8bbf6b3f18b4755cf0a43528e942d0", "type": "electric_bike", "is_disabled": 0, "lat": 38.89726066666667, "rental_uris": {"ios": "https://dc.lft.to/lastmile_qr_scan", "android": "https://dc.lft.to/lastmile_qr_scan"}, "is_reserved": 0, "fusion_lon": 0.0, "fusion_lat": 0.0, "lon": -76.97343733333334, "name": "fb8bbf6b3f18b4755cf0a43528e942d0"}, {"bike_id": "677810fcae659cb2cb97c9bb85d19724", "type": "electric_scooter", "is_disabled": 0, "lat": 38.874607, "rental_uris": {"ios": "https://dc.lft.to/lastmile_qr_scan", "android": "https://dc.lft.to/lastmile_qr_scan"}, "is_reserved": 0, "fusion_lon": 0.0, "fusion_lat": 0.0, "lon": -77.0093805, "name": "677810fcae659cb2cb97c9bb85d19724"}, {"bike_id": "5ac55d4fee48a027e1d9d8ef02bd115f", "type": "electric_scooter", "is_disabled": 0, "lat": 38.89357283333333, "rental_uris": {"ios": "https://dc.lft.to/lastmile_qr_scan", "android": "https://dc.lft.to/lastmile_qr_scan"}, "is_reserved": 0, "fusion_lon": 0.0, "fusion_lat": 0.0, "lon": -76.94933883333333, "name": "5ac55d4fee48a027e1d9d8ef02bd115f"}, {"bike_id": "6c4d6f58578dd002d79f070bf0a3e698", "type": "electric_scooter", "is_disabled": 0, "lat": 38.914631166666666, "rental_uris": {"ios": "https://dc.lft.to/lastmile_qr_scan", "android": "https://dc.lft.to/lastmile_qr_scan"}, "is_reserved": 0, "fusion_lon": 0.0, "fusion_lat": 0.0, "lon": -77.00215316666667, "name": "6c4d6f58578dd002d79f070bf0a3e698"}, {"bike_id": "3c27c693ad30cf964efcac43c3271624", "type": "electric_scooter", "is_disabled": 0, "lat": 38.935915333333334, "rental_uris": {"ios": "https://dc.lft.to/lastmile_qr_scan", "android": "https://dc.lft.to/lastmile_qr_scan"}, "is_reserved": 0, "fusion_lon": 0.0, "fusion_lat": 0.0, "lon": -77.03522833333334, "name": "3c27c693ad30cf964efcac43c3271624"}, {"bike_id": "2bb4956c42c4c05f09ccf69180b74159", "type": "electric_scooter", "is_disabled": 0, "lat": 38.91117283333333, "rental_uris": {"ios": "https://dc.lft.to/lastmile_qr_scan", "android": "https://dc.lft.to/lastmile_qr_scan"}, "is_reserved": 0, "fusion_lon": 0.0, "fusion_lat": 0.0, "lon": -77.02207483333333, "name": "2bb4956c42c4c05f09ccf69180b74159"}, {"bike_id": "529104e29f1f431521a620450bf3339f", "type": "electric_scooter", "is_disabled": 0, "lat": 38.90558033333333, "rental_uris": {"ios": "https://dc.lft.to/lastmile_qr_scan", "android": "https://dc.lft.to/lastmile_qr_scan"}, "is_reserved": 0, "fusion_lon": 0.0, "fusion_lat": 0.0, "lon": -77.02206816666667, "name": "529104e29f1f431521a620450bf3339f"}, {"bike_id": "e8c468e5d299a61e71e9b6026cd19138", "type": "electric_scooter", "is_disabled": 0, "lat": 38.932562833333336, "rental_uris": {"ios": "https://dc.lft.to/lastmile_qr_scan", "android": "https://dc.lft.to/lastmile_qr_scan"}, "is_reserved": 0, "fusion_lon": 0.0, "fusion_lat": 0.0, "lon": -77.0329885, "name": "e8c468e5d299a61e71e9b6026cd19138"}, {"bike_id": "a51d64de65f208b3707345aa56964016", "type": "electric_scooter", "is_disabled": 0, "lat": 38.8711985, "rental_uris": {"ios": "https://dc.lft.to/lastmile_qr_scan", "android": "https://dc.lft.to/lastmile_qr_scan"}, "is_reserved": 0, "fusion_lon": 0.0, "fusion_lat": 0.0, "lon": -76.9824205, "name": "a51d64de65f208b3707345aa56964016"}, {"bike_id": "c96e110c657773f75ae872b0725e5229", "type": "electric_scooter", "is_disabled": 0, "lat": 38.90070866666667, "rental_uris": {"ios": "https://dc.lft.to/lastmile_qr_scan", "android": "https://dc.lft.to/lastmile_qr_scan"}, "is_reserved": 0, "fusion_lon": 0.0, "fusion_lat": 0.0, "lon": -76.99018, "name": "c96e110c657773f75ae872b0725e5229"}, {"bike_id": "87c8974b341b105d34ffc6cf0a353fae", "type": "electric_scooter", "is_disabled": 0, "lat": 38.85706833333333, "rental_uris": {"ios": "https://dc.lft.to/lastmile_qr_scan", "android": "https://dc.lft.to/lastmile_qr_scan"}, "is_reserved": 0, "fusion_lon": 0.0, "fusion_lat": 0.0, "lon": -76.98989366666666, "name": "87c8974b341b105d34ffc6cf0a353fae"}, {"bike_id": "f823c944361d340ac1d981f3344073e1", "type": "electric_scooter", "is_disabled": 0, "lat": 38.90245183333333, "rental_uris": {"ios": "https://dc.lft.to/lastmile_qr_scan", "android": "https://dc.lft.to/lastmile_qr_scan"}, "is_reserved": 0, "fusion_lon": 0.0, "fusion_lat": 0.0, "lon": -77.03626566666667, "name": "f823c944361d340ac1d981f3344073e1"}, {"bike_id": "6a3545c000af32f91aff877100751efd", "type": "electric_bike", "is_disabled": 0, "lat": 39.05786, "rental_uris": {"ios": "https://dc.lft.to/lastmile_qr_scan", "android": "https://dc.lft.to/lastmile_qr_scan"}, "is_reserved": 0, "fusion_lon": 0.0, "fusion_lat": 0.0, "lon": -77.15026033333334, "name": "6a3545c000af32f91aff877100751efd"}, {"bike_id": "c60ff8fd63e945cd48355a305f89f77e", "type": "electric_bike", "is_disabled": 0, "lat": 38.819964, "rental_uris": {"ios": "https://dc.lft.to/lastmile_qr_scan", "android": "https://dc.lft.to/lastmile_qr_scan"}, "is_reserved": 0, "fusion_lon": 0.0, "fusion_lat": 0.0, "lon": -76.998115, "name": "c60ff8fd63e945cd48355a305f89f77e"}, {"bike_id": "2e49c60c111494ba765cb300229bfe87", "type": "electric_scooter", "is_disabled": 0, "lat": 38.916038666666665, "rental_uris": {"ios": "https://dc.lft.to/lastmile_qr_scan", "android": "https://dc.lft.to/lastmile_qr_scan"}, "is_reserved": 0, "fusion_lon": 0.0, "fusion_lat": 0.0, "lon": -77.02384716666667, "name": "2e49c60c111494ba765cb300229bfe87"}, {"bike_id": "5531a75c8792598ac3acbf420a8cb55c", "type": "electric_scooter", "is_disabled": 0, "lat": 38.905952, "rental_uris": {"ios": "https://dc.lft.to/lastmile_qr_scan", "android": "https://dc.lft.to/lastmile_qr_scan"}, "is_reserved": 0, "fusion_lon": 0.0, "fusion_lat": 0.0, "lon": -77.05704516666667, "name": "5531a75c8792598ac3acbf420a8cb55c"}, {"bike_id": "1836927a00bf17bbc23d0ea15bba911d", "type": "electric_scooter", "is_disabled": 0, "lat": 38.91108, "rental_uris": {"ios": "https://dc.lft.to/lastmile_qr_scan", "android": "https://dc.lft.to/lastmile_qr_scan"}, "is_reserved": 0, "fusion_lon": 0.0, "fusion_lat": 0.0, "lon": -77.04472766666666, "name": "1836927a00bf17bbc23d0ea15bba911d"}, {"bike_id": "14c2899caae7f0fd73037f95de7019d9", "type": "electric_scooter", "is_disabled": 0, "lat": 38.901943, "rental_uris": {"ios": "https://dc.lft.to/lastmile_qr_scan", "android": "https://dc.lft.to/lastmile_qr_scan"}, "is_reserved": 0, "fusion_lon": 0.0, "fusion_lat": 0.0, "lon": -77.05039666666667, "name": "14c2899caae7f0fd73037f95de7019d9"}, {"bike_id": "c12a8675665b3ce8abdda872d5c73f28", "type": "electric_scooter", "is_disabled": 0, "lat": 38.93866166666667, "rental_uris": {"ios": "https://dc.lft.to/lastmile_qr_scan", "android": "https://dc.lft.to/lastmile_qr_scan"}, "is_reserved": 0, "fusion_lon": 0.0, "fusion_lat": 0.0, "lon": -77.02476583333333, "name": "c12a8675665b3ce8abdda872d5c73f28"}, {"bike_id": "69284a249fe8a3f39405b943993ba7fe", "type": "electric_scooter", "is_disabled": 0, "lat": 38.90528233333333, "rental_uris": {"ios": "https://dc.lft.to/lastmile_qr_scan", "android": "https://dc.lft.to/lastmile_qr_scan"}, "is_reserved": 0, "fusion_lon": 0.0, "fusion_lat": 0.0, "lon": -77.04995233333334, "name": "69284a249fe8a3f39405b943993ba7fe"}, {"bike_id": "e4413987cef94ed20b90762c3ca3ecbb", "type": "electric_scooter", "is_disabled": 0, "lat": 38.89734166666667, "rental_uris": {"ios": "https://dc.lft.to/lastmile_qr_scan", "android": "https://dc.lft.to/lastmile_qr_scan"}, "is_reserved": 0, "fusion_lon": 0.0, "fusion_lat": 0.0, "lon": -77.054727, "name": "e4413987cef94ed20b90762c3ca3ecbb"}, {"bike_id": "67cb25d175819fe8a467361ce9d92983", "type": "electric_scooter", "is_disabled": 0, "lat": 38.92473966666667, "rental_uris": {"ios": "https://dc.lft.to/lastmile_qr_scan", "android": "https://dc.lft.to/lastmile_qr_scan"}, "is_reserved": 0, "fusion_lon": 0.0, "fusion_lat": 0.0, "lon": -77.028316, "name": "67cb25d175819fe8a467361ce9d92983"}, {"bike_id": "b77d606c50634814dc6ad3611f4f561c", "type": "electric_scooter", "is_disabled": 0, "lat": 38.926990333333336, "rental_uris": {"ios": "https://dc.lft.to/lastmile_qr_scan", "android": "https://dc.lft.to/lastmile_qr_scan"}, "is_reserved": 0, "fusion_lon": 0.0, "fusion_lat": 0.0, "lon": -77.020756, "name": "b77d606c50634814dc6ad3611f4f561c"}, {"bike_id": "40f1774785b256e02bb23a3bea63ee67", "type": "electric_scooter", "is_disabled": 0, "lat": 38.914104333333334, "rental_uris": {"ios": "https://dc.lft.to/lastmile_qr_scan", "android": "https://dc.lft.to/lastmile_qr_scan"}, "is_reserved": 0, "fusion_lon": 0.0, "fusion_lat": 0.0, "lon": -77.024263, "name": "40f1774785b256e02bb23a3bea63ee67"}, {"bike_id": "09d1e01af643c67db8489adc387f5522", "type": "electric_scooter", "is_disabled": 0, "lat": 38.91808616666667, "rental_uris": {"ios": "https://dc.lft.to/lastmile_qr_scan", "android": "https://dc.lft.to/lastmile_qr_scan"}, "is_reserved": 0, "fusion_lon": 0.0, "fusion_lat": 0.0, "lon": -77.03264783333333, "name": "09d1e01af643c67db8489adc387f5522"}, {"bike_id": "54dcf477ebd459e92aeeec3ec85d71f0", "type": "electric_scooter", "is_disabled": 0, "lat": 38.914198166666665, "rental_uris": {"ios": "https://dc.lft.to/lastmile_qr_scan", "android": "https://dc.lft.to/lastmile_qr_scan"}, "is_reserved": 0, "fusion_lon": 0.0, "fusion_lat": 0.0, "lon": -77.02404716666666, "name": "54dcf477ebd459e92aeeec3ec85d71f0"}, {"bike_id": "4bfb44a8c97633683c360c9b2e1f8587", "type": "electric_scooter", "is_disabled": 0, "lat": 38.91573016666667, "rental_uris": {"ios": "https://dc.lft.to/lastmile_qr_scan", "android": "https://dc.lft.to/lastmile_qr_scan"}, "is_reserved": 0, "fusion_lon": 0.0, "fusion_lat": 0.0, "lon": -77.01959433333333, "name": "4bfb44a8c97633683c360c9b2e1f8587"}, {"bike_id": "765ce9ade1531327f9826e7e10a043a8", "type": "electric_scooter", "is_disabled": 0, "lat": 38.9085975, "rental_uris": {"ios": "https://dc.lft.to/lastmile_qr_scan", "android": "https://dc.lft.to/lastmile_qr_scan"}, "is_reserved": 0, "fusion_lon": 0.0, "fusion_lat": 0.0, "lon": -77.04277016666667, "name": "765ce9ade1531327f9826e7e10a043a8"}, {"bike_id": "c18a837534615ee92939cdde08498d16", "type": "electric_scooter", "is_disabled": 0, "lat": 38.941816333333335, "rental_uris": {"ios": "https://dc.lft.to/lastmile_qr_scan", "android": "https://dc.lft.to/lastmile_qr_scan"}, "is_reserved": 0, "fusion_lon": 0.0, "fusion_lat": 0.0, "lon": -77.0248505, "name": "c18a837534615ee92939cdde08498d16"}, {"bike_id": "9c23b89aba0f8dea1ceca8d03e563cff", "type": "electric_scooter", "is_disabled": 0, "lat": 38.90139283333333, "rental_uris": {"ios": "https://dc.lft.to/lastmile_qr_scan", "android": "https://dc.lft.to/lastmile_qr_scan"}, "is_reserved": 0, "fusion_lon": 0.0, "fusion_lat": 0.0, "lon": -77.0432375, "name": "9c23b89aba0f8dea1ceca8d03e563cff"}, {"bike_id": "3c54c94c0f781aed5e9b6cde61696bc2", "type": "electric_scooter", "is_disabled": 0, "lat": 38.86703683333333, "rental_uris": {"ios": "https://dc.lft.to/lastmile_qr_scan", "android": "https://dc.lft.to/lastmile_qr_scan"}, "is_reserved": 0, "fusion_lon": 0.0, "fusion_lat": 0.0, "lon": -76.98559216666666, "name": "3c54c94c0f781aed5e9b6cde61696bc2"}, {"bike_id": "4802ba256637f8d8beab233acbab5bae", "type": "electric_scooter", "is_disabled": 0, "lat": 38.8978275, "rental_uris": {"ios": "https://dc.lft.to/lastmile_qr_scan", "android": "https://dc.lft.to/lastmile_qr_scan"}, "is_reserved": 0, "fusion_lon": 0.0, "fusion_lat": 0.0, "lon": -76.947345, "name": "4802ba256637f8d8beab233acbab5bae"}, {"bike_id": "a138822ddc8e032973a1d417bf8fd44d", "type": "electric_scooter", "is_disabled": 0, "lat": 38.906122833333335, "rental_uris": {"ios": "https://dc.lft.to/lastmile_qr_scan", "android": "https://dc.lft.to/lastmile_qr_scan"}, "is_reserved": 0, "fusion_lon": 0.0, "fusion_lat": 0.0, "lon": -77.03421283333333, "name": "a138822ddc8e032973a1d417bf8fd44d"}, {"bike_id": "9e33ff359f68891348c8d5b8dd0ad540", "type": "electric_scooter", "is_disabled": 0, "lat": 38.9276195, "rental_uris": {"ios": "https://dc.lft.to/lastmile_qr_scan", "android": "https://dc.lft.to/lastmile_qr_scan"}, "is_reserved": 0, "fusion_lon": 0.0, "fusion_lat": 0.0, "lon": -77.05645783333334, "name": "9e33ff359f68891348c8d5b8dd0ad540"}, {"bike_id": "be2b9e79bfc7143c90c14aa37a993253", "type": "electric_scooter", "is_disabled": 0, "lat": 38.907328666666665, "rental_uris": {"ios": "https://dc.lft.to/lastmile_qr_scan", "android": "https://dc.lft.to/lastmile_qr_scan"}, "is_reserved": 0, "fusion_lon": 0.0, "fusion_lat": 0.0, "lon": -77.0296995, "name": "be2b9e79bfc7143c90c14aa37a993253"}, {"bike_id": "dd5899f42269e7ec9fdf2f09dbfbd256", "type": "electric_scooter", "is_disabled": 0, "lat": 38.9076905, "rental_uris": {"ios": "https://dc.lft.to/lastmile_qr_scan", "android": "https://dc.lft.to/lastmile_qr_scan"}, "is_reserved": 0, "fusion_lon": 0.0, "fusion_lat": 0.0, "lon": -77.05800566666667, "name": "dd5899f42269e7ec9fdf2f09dbfbd256"}, {"bike_id": "18711e1e29a5d2bf55ec9a2fd3f04fa9", "type": "electric_scooter", "is_disabled": 0, "lat": 38.9224965, "rental_uris": {"ios": "https://dc.lft.to/lastmile_qr_scan", "android": "https://dc.lft.to/lastmile_qr_scan"}, "is_reserved": 0, "fusion_lon": 0.0, "fusion_lat": 0.0, "lon": -77.0401085, "name": "18711e1e29a5d2bf55ec9a2fd3f04fa9"}, {"bike_id": "1ddc0a6fe14a118720bf7eea7f8ae92b", "type": "electric_scooter", "is_disabled": 0, "lat": 38.909263333333335, "rental_uris": {"ios": "https://dc.lft.to/lastmile_qr_scan", "android": "https://dc.lft.to/lastmile_qr_scan"}, "is_reserved": 0, "fusion_lon": 0.0, "fusion_lat": 0.0, "lon": -77.04573466666666, "name": "1ddc0a6fe14a118720bf7eea7f8ae92b"}, {"bike_id": "d12a80b36cf879fcb86513650bfbcbe1", "type": "electric_scooter", "is_disabled": 0, "lat": 38.91418483333333, "rental_uris": {"ios": "https://dc.lft.to/lastmile_qr_scan", "android": "https://dc.lft.to/lastmile_qr_scan"}, "is_reserved": 0, "fusion_lon": 0.0, "fusion_lat": 0.0, "lon": -77.02816583333333, "name": "d12a80b36cf879fcb86513650bfbcbe1"}, {"bike_id": "0fd2ab71a905812eb6e8868b3a27682c", "type": "electric_scooter", "is_disabled": 0, "lat": 38.906455666666666, "rental_uris": {"ios": "https://dc.lft.to/lastmile_qr_scan", "android": "https://dc.lft.to/lastmile_qr_scan"}, "is_reserved": 0, "fusion_lon": 0.0, "fusion_lat": 0.0, "lon": -77.0352995, "name": "0fd2ab71a905812eb6e8868b3a27682c"}, {"bike_id": "adb94899fd7532ea40036170c3a7a1c5", "type": "electric_scooter", "is_disabled": 0, "lat": 38.91574333333333, "rental_uris": {"ios": "https://dc.lft.to/lastmile_qr_scan", "android": "https://dc.lft.to/lastmile_qr_scan"}, "is_reserved": 0, "fusion_lon": 0.0, "fusion_lat": 0.0, "lon": -77.01875166666666, "name": "adb94899fd7532ea40036170c3a7a1c5"}, {"bike_id": "15aeb0c22329391168cd7f85de9acd46", "type": "electric_scooter", "is_disabled": 0, "lat": 38.91577933333333, "rental_uris": {"ios": "https://dc.lft.to/lastmile_qr_scan", "android": "https://dc.lft.to/lastmile_qr_scan"}, "is_reserved": 0, "fusion_lon": 0.0, "fusion_lat": 0.0, "lon": -77.01235066666666, "name": "15aeb0c22329391168cd7f85de9acd46"}, {"bike_id": "3deb1a7929b7510735b01fbb072532f4", "type": "electric_scooter", "is_disabled": 0, "lat": 38.914217666666666, "rental_uris": {"ios": "https://dc.lft.to/lastmile_qr_scan", "android": "https://dc.lft.to/lastmile_qr_scan"}, "is_reserved": 0, "fusion_lon": 0.0, "fusion_lat": 0.0, "lon": -77.03181066666667, "name": "3deb1a7929b7510735b01fbb072532f4"}, {"bike_id": "aba6148967d2b5ab47262e5cf4183639", "type": "electric_scooter", "is_disabled": 0, "lat": 38.917454166666666, "rental_uris": {"ios": "https://dc.lft.to/lastmile_qr_scan", "android": "https://dc.lft.to/lastmile_qr_scan"}, "is_reserved": 0, "fusion_lon": 0.0, "fusion_lat": 0.0, "lon": -77.00695283333333, "name": "aba6148967d2b5ab47262e5cf4183639"}, {"bike_id": "26fc5fb265d810246dc3f6532b18b0f5", "type": "electric_scooter", "is_disabled": 0, "lat": 38.90387416666667, "rental_uris": {"ios": "https://dc.lft.to/lastmile_qr_scan", "android": "https://dc.lft.to/lastmile_qr_scan"}, "is_reserved": 0, "fusion_lon": 0.0, "fusion_lat": 0.0, "lon": -76.9821265, "name": "26fc5fb265d810246dc3f6532b18b0f5"}, {"bike_id": "3cc07086d7032cc6f146a35280067e9a", "type": "electric_scooter", "is_disabled": 0, "lat": 38.93081466666667, "rental_uris": {"ios": "https://dc.lft.to/lastmile_qr_scan", "android": "https://dc.lft.to/lastmile_qr_scan"}, "is_reserved": 0, "fusion_lon": 0.0, "fusion_lat": 0.0, "lon": -77.0215195, "name": "3cc07086d7032cc6f146a35280067e9a"}, {"bike_id": "66cb77d94cc10336451f885af4dd11cf", "type": "electric_scooter", "is_disabled": 0, "lat": 38.90657616666667, "rental_uris": {"ios": "https://dc.lft.to/lastmile_qr_scan", "android": "https://dc.lft.to/lastmile_qr_scan"}, "is_reserved": 0, "fusion_lon": 0.0, "fusion_lat": 0.0, "lon": -77.04294333333333, "name": "66cb77d94cc10336451f885af4dd11cf"}, {"bike_id": "e45cbce48f7172322e68fd02482f3c53", "type": "electric_scooter", "is_disabled": 0, "lat": 38.891339333333335, "rental_uris": {"ios": "https://dc.lft.to/lastmile_qr_scan", "android": "https://dc.lft.to/lastmile_qr_scan"}, "is_reserved": 0, "fusion_lon": 0.0, "fusion_lat": 0.0, "lon": -76.951895, "name": "e45cbce48f7172322e68fd02482f3c53"}, {"bike_id": "a14bc8fb283cba1fa9f5817b3531b07b", "type": "electric_scooter", "is_disabled": 0, "lat": 38.915178833333336, "rental_uris": {"ios": "https://dc.lft.to/lastmile_qr_scan", "android": "https://dc.lft.to/lastmile_qr_scan"}, "is_reserved": 0, "fusion_lon": 0.0, "fusion_lat": 0.0, "lon": -77.0198225, "name": "a14bc8fb283cba1fa9f5817b3531b07b"}, {"bike_id": "0097a1b897e15a1a2eca9a82abe56d31", "type": "electric_scooter", "is_disabled": 0, "lat": 38.9111615, "rental_uris": {"ios": "https://dc.lft.to/lastmile_qr_scan", "android": "https://dc.lft.to/lastmile_qr_scan"}, "is_reserved": 0, "fusion_lon": 0.0, "fusion_lat": 0.0, "lon": -77.0386585, "name": "0097a1b897e15a1a2eca9a82abe56d31"}, {"bike_id": "476166ceb6837a589801580b94843e77", "type": "electric_scooter", "is_disabled": 0, "lat": 38.92645683333333, "rental_uris": {"ios": "https://dc.lft.to/lastmile_qr_scan", "android": "https://dc.lft.to/lastmile_qr_scan"}, "is_reserved": 0, "fusion_lon": 0.0, "fusion_lat": 0.0, "lon": -77.03430083333333, "name": "476166ceb6837a589801580b94843e77"}, {"bike_id": "03c9feb9bc4b666aad291e0775d73c5e", "type": "electric_scooter", "is_disabled": 0, "lat": 38.918083333333335, "rental_uris": {"ios": "https://dc.lft.to/lastmile_qr_scan", "android": "https://dc.lft.to/lastmile_qr_scan"}, "is_reserved": 0, "fusion_lon": 0.0, "fusion_lat": 0.0, "lon": -77.03438166666666, "name": "03c9feb9bc4b666aad291e0775d73c5e"}, {"bike_id": "aca1e807d02342f87f5e8eb9081a4b05", "type": "electric_scooter", "is_disabled": 0, "lat": 38.905720333333335, "rental_uris": {"ios": "https://dc.lft.to/lastmile_qr_scan", "android": "https://dc.lft.to/lastmile_qr_scan"}, "is_reserved": 0, "fusion_lon": 0.0, "fusion_lat": 0.0, "lon": -77.030708, "name": "aca1e807d02342f87f5e8eb9081a4b05"}, {"bike_id": "009915f7bfe478eb956d62d095a961c5", "type": "electric_scooter", "is_disabled": 0, "lat": 38.92372966666667, "rental_uris": {"ios": "https://dc.lft.to/lastmile_qr_scan", "android": "https://dc.lft.to/lastmile_qr_scan"}, "is_reserved": 0, "fusion_lon": 0.0, "fusion_lat": 0.0, "lon": -77.03056433333333, "name": "009915f7bfe478eb956d62d095a961c5"}, {"bike_id": "bbaf9c4db0512ea62465e4ec86151a8b", "type": "electric_scooter", "is_disabled": 0, "lat": 38.93968566666667, "rental_uris": {"ios": "https://dc.lft.to/lastmile_qr_scan", "android": "https://dc.lft.to/lastmile_qr_scan"}, "is_reserved": 0, "fusion_lon": 0.0, "fusion_lat": 0.0, "lon": -77.02733933333333, "name": "bbaf9c4db0512ea62465e4ec86151a8b"}, {"bike_id": "824f99628b259d178ff61810af2cf87c", "type": "electric_scooter", "is_disabled": 0, "lat": 38.90735866666667, "rental_uris": {"ios": "https://dc.lft.to/lastmile_qr_scan", "android": "https://dc.lft.to/lastmile_qr_scan"}, "is_reserved": 0, "fusion_lon": 0.0, "fusion_lat": 0.0, "lon": -77.03984383333334, "name": "824f99628b259d178ff61810af2cf87c"}, {"bike_id": "f01aa50b33611dff106edaa638297710", "type": "electric_scooter", "is_disabled": 0, "lat": 38.89997366666667, "rental_uris": {"ios": "https://dc.lft.to/lastmile_qr_scan", "android": "https://dc.lft.to/lastmile_qr_scan"}, "is_reserved": 0, "fusion_lon": 0.0, "fusion_lat": 0.0, "lon": -77.02716383333333, "name": "f01aa50b33611dff106edaa638297710"}, {"bike_id": "7293cf9b8688ec8b586147d7e53f6107", "type": "electric_scooter", "is_disabled": 0, "lat": 38.90723916666666, "rental_uris": {"ios": "https://dc.lft.to/lastmile_qr_scan", "android": "https://dc.lft.to/lastmile_qr_scan"}, "is_reserved": 0, "fusion_lon": 0.0, "fusion_lat": 0.0, "lon": -77.0320795, "name": "7293cf9b8688ec8b586147d7e53f6107"}, {"bike_id": "a2a8da2cd3a0e4b2f4e634040c798270", "type": "electric_scooter", "is_disabled": 0, "lat": 38.923825666666666, "rental_uris": {"ios": "https://dc.lft.to/lastmile_qr_scan", "android": "https://dc.lft.to/lastmile_qr_scan"}, "is_reserved": 0, "fusion_lon": 0.0, "fusion_lat": 0.0, "lon": -77.03130333333333, "name": "a2a8da2cd3a0e4b2f4e634040c798270"}, {"bike_id": "453fe4e8de618f1ea940ffb9e2a7a592", "type": "electric_scooter", "is_disabled": 0, "lat": 38.90255166666667, "rental_uris": {"ios": "https://dc.lft.to/lastmile_qr_scan", "android": "https://dc.lft.to/lastmile_qr_scan"}, "is_reserved": 0, "fusion_lon": 0.0, "fusion_lat": 0.0, "lon": -77.01760316666666, "name": "453fe4e8de618f1ea940ffb9e2a7a592"}, {"bike_id": "7b11746bd997d42ea86f2eb1a2b75bb0", "type": "electric_scooter", "is_disabled": 0, "lat": 38.922882, "rental_uris": {"ios": "https://dc.lft.to/lastmile_qr_scan", "android": "https://dc.lft.to/lastmile_qr_scan"}, "is_reserved": 0, "fusion_lon": 0.0, "fusion_lat": 0.0, "lon": -77.02965416666666, "name": "7b11746bd997d42ea86f2eb1a2b75bb0"}, {"bike_id": "b7e21e676472650b6acfe983b81d8e8a", "type": "electric_scooter", "is_disabled": 0, "lat": 38.892216166666664, "rental_uris": {"ios": "https://dc.lft.to/lastmile_qr_scan", "android": "https://dc.lft.to/lastmile_qr_scan"}, "is_reserved": 0, "fusion_lon": 0.0, "fusion_lat": 0.0, "lon": -77.0397465, "name": "b7e21e676472650b6acfe983b81d8e8a"}, {"bike_id": "99fd0d563989e20c8da73fcf1b57d886", "type": "electric_scooter", "is_disabled": 0, "lat": 38.89666416666667, "rental_uris": {"ios": "https://dc.lft.to/lastmile_qr_scan", "android": "https://dc.lft.to/lastmile_qr_scan"}, "is_reserved": 0, "fusion_lon": 0.0, "fusion_lat": 0.0, "lon": -76.93211033333333, "name": "99fd0d563989e20c8da73fcf1b57d886"}, {"bike_id": "059152cb145048e6cafb99cc2c7c295f", "type": "electric_scooter", "is_disabled": 0, "lat": 38.887403, "rental_uris": {"ios": "https://dc.lft.to/lastmile_qr_scan", "android": "https://dc.lft.to/lastmile_qr_scan"}, "is_reserved": 0, "fusion_lon": 0.0, "fusion_lat": 0.0, "lon": -77.028351, "name": "059152cb145048e6cafb99cc2c7c295f"}, {"bike_id": "dd084b047113f3fb67f47782c7e0b448", "type": "electric_scooter", "is_disabled": 0, "lat": 38.921588666666665, "rental_uris": {"ios": "https://dc.lft.to/lastmile_qr_scan", "android": "https://dc.lft.to/lastmile_qr_scan"}, "is_reserved": 0, "fusion_lon": 0.0, "fusion_lat": 0.0, "lon": -77.03317916666667, "name": "dd084b047113f3fb67f47782c7e0b448"}, {"bike_id": "354ba5d32a40b536b4bac76a4aff2c44", "type": "electric_scooter", "is_disabled": 0, "lat": 38.899612166666664, "rental_uris": {"ios": "https://dc.lft.to/lastmile_qr_scan", "android": "https://dc.lft.to/lastmile_qr_scan"}, "is_reserved": 0, "fusion_lon": 0.0, "fusion_lat": 0.0, "lon": -77.01618116666667, "name": "354ba5d32a40b536b4bac76a4aff2c44"}, {"bike_id": "cea516f571e399cf507fec98b8a18855", "type": "electric_scooter", "is_disabled": 0, "lat": 38.91985616666667, "rental_uris": {"ios": "https://dc.lft.to/lastmile_qr_scan", "android": "https://dc.lft.to/lastmile_qr_scan"}, "is_reserved": 0, "fusion_lon": 0.0, "fusion_lat": 0.0, "lon": -77.0238815, "name": "cea516f571e399cf507fec98b8a18855"}, {"bike_id": "5d79976a1d4ec6ee4b7981cf740966ec", "type": "electric_scooter", "is_disabled": 0, "lat": 38.91810433333333, "rental_uris": {"ios": "https://dc.lft.to/lastmile_qr_scan", "android": "https://dc.lft.to/lastmile_qr_scan"}, "is_reserved": 0, "fusion_lon": 0.0, "fusion_lat": 0.0, "lon": -77.00933616666667, "name": "5d79976a1d4ec6ee4b7981cf740966ec"}, {"bike_id": "92a603041d89d4f2679b75fed1ac9f69", "type": "electric_scooter", "is_disabled": 0, "lat": 38.90598416666667, "rental_uris": {"ios": "https://dc.lft.to/lastmile_qr_scan", "android": "https://dc.lft.to/lastmile_qr_scan"}, "is_reserved": 0, "fusion_lon": 0.0, "fusion_lat": 0.0, "lon": -77.007513, "name": "92a603041d89d4f2679b75fed1ac9f69"}, {"bike_id": "7843ef807ec97d92fa0068c463165ab3", "type": "electric_scooter", "is_disabled": 0, "lat": 38.90046016666667, "rental_uris": {"ios": "https://dc.lft.to/lastmile_qr_scan", "android": "https://dc.lft.to/lastmile_qr_scan"}, "is_reserved": 0, "fusion_lon": 0.0, "fusion_lat": 0.0, "lon": -76.991526, "name": "7843ef807ec97d92fa0068c463165ab3"}, {"bike_id": "aed623791098d706bafccd9e64d822ee", "type": "electric_scooter", "is_disabled": 0, "lat": 38.89737483333333, "rental_uris": {"ios": "https://dc.lft.to/lastmile_qr_scan", "android": "https://dc.lft.to/lastmile_qr_scan"}, "is_reserved": 0, "fusion_lon": 0.0, "fusion_lat": 0.0, "lon": -77.02681, "name": "aed623791098d706bafccd9e64d822ee"}, {"bike_id": "486a991822ebe4aa4dbabd02e27bef6e", "type": "electric_scooter", "is_disabled": 0, "lat": 38.908678, "rental_uris": {"ios": "https://dc.lft.to/lastmile_qr_scan", "android": "https://dc.lft.to/lastmile_qr_scan"}, "is_reserved": 0, "fusion_lon": 0.0, "fusion_lat": 0.0, "lon": -76.99788283333334, "name": "486a991822ebe4aa4dbabd02e27bef6e"}, {"bike_id": "6a781a57b3dd1f4c23768889102f7490", "type": "electric_scooter", "is_disabled": 0, "lat": 38.92079233333333, "rental_uris": {"ios": "https://dc.lft.to/lastmile_qr_scan", "android": "https://dc.lft.to/lastmile_qr_scan"}, "is_reserved": 0, "fusion_lon": 0.0, "fusion_lat": 0.0, "lon": -77.02389716666667, "name": "6a781a57b3dd1f4c23768889102f7490"}, {"bike_id": "387d8b9bed4a67c34e4438e97e8f7349", "type": "electric_scooter", "is_disabled": 0, "lat": 38.838225, "rental_uris": {"ios": "https://dc.lft.to/lastmile_qr_scan", "android": "https://dc.lft.to/lastmile_qr_scan"}, "is_reserved": 0, "fusion_lon": 0.0, "fusion_lat": 0.0, "lon": -77.0027055, "name": "387d8b9bed4a67c34e4438e97e8f7349"}, {"bike_id": "0efeba8961d4bc82357790c83c8a1f4e", "type": "electric_scooter", "is_disabled": 0, "lat": 38.917580666666666, "rental_uris": {"ios": "https://dc.lft.to/lastmile_qr_scan", "android": "https://dc.lft.to/lastmile_qr_scan"}, "is_reserved": 0, "fusion_lon": 0.0, "fusion_lat": 0.0, "lon": -77.02488883333334, "name": "0efeba8961d4bc82357790c83c8a1f4e"}, {"bike_id": "0f207c4a7e81cca84753f17f31987bf6", "type": "electric_scooter", "is_disabled": 0, "lat": 38.8968025, "rental_uris": {"ios": "https://dc.lft.to/lastmile_qr_scan", "android": "https://dc.lft.to/lastmile_qr_scan"}, "is_reserved": 0, "fusion_lon": 0.0, "fusion_lat": 0.0, "lon": -77.02404283333334, "name": "0f207c4a7e81cca84753f17f31987bf6"}, {"bike_id": "21fb41b9c2deb7538cefe755deb98da0", "type": "electric_scooter", "is_disabled": 0, "lat": 38.93457016666667, "rental_uris": {"ios": "https://dc.lft.to/lastmile_qr_scan", "android": "https://dc.lft.to/lastmile_qr_scan"}, "is_reserved": 0, "fusion_lon": 0.0, "fusion_lat": 0.0, "lon": -77.0307485, "name": "21fb41b9c2deb7538cefe755deb98da0"}, {"bike_id": "30c965580875d38562050b082d486882", "type": "electric_scooter", "is_disabled": 0, "lat": 38.91416066666667, "rental_uris": {"ios": "https://dc.lft.to/lastmile_qr_scan", "android": "https://dc.lft.to/lastmile_qr_scan"}, "is_reserved": 0, "fusion_lon": 0.0, "fusion_lat": 0.0, "lon": -77.01231133333333, "name": "30c965580875d38562050b082d486882"}, {"bike_id": "0bbbe1f78f295cfce1ba5dcfd86fdab3", "type": "electric_scooter", "is_disabled": 0, "lat": 38.90987716666667, "rental_uris": {"ios": "https://dc.lft.to/lastmile_qr_scan", "android": "https://dc.lft.to/lastmile_qr_scan"}, "is_reserved": 0, "fusion_lon": 0.0, "fusion_lat": 0.0, "lon": -77.03865516666667, "name": "0bbbe1f78f295cfce1ba5dcfd86fdab3"}, {"bike_id": "9b7f72d1b7be2e45cae96c90847952de", "type": "electric_scooter", "is_disabled": 0, "lat": 38.9101965, "rental_uris": {"ios": "https://dc.lft.to/lastmile_qr_scan", "android": "https://dc.lft.to/lastmile_qr_scan"}, "is_reserved": 0, "fusion_lon": 0.0, "fusion_lat": 0.0, "lon": -77.0321355, "name": "9b7f72d1b7be2e45cae96c90847952de"}, {"bike_id": "25d6ea102caa61746f561e83884fdd13", "type": "electric_scooter", "is_disabled": 0, "lat": 38.89842866666667, "rental_uris": {"ios": "https://dc.lft.to/lastmile_qr_scan", "android": "https://dc.lft.to/lastmile_qr_scan"}, "is_reserved": 0, "fusion_lon": 0.0, "fusion_lat": 0.0, "lon": -76.94629916666666, "name": "25d6ea102caa61746f561e83884fdd13"}, {"bike_id": "dc2813af17f56a3eeed1a54aabb643d3", "type": "electric_scooter", "is_disabled": 0, "lat": 38.892380333333335, "rental_uris": {"ios": "https://dc.lft.to/lastmile_qr_scan", "android": "https://dc.lft.to/lastmile_qr_scan"}, "is_reserved": 0, "fusion_lon": 0.0, "fusion_lat": 0.0, "lon": -77.039572, "name": "dc2813af17f56a3eeed1a54aabb643d3"}, {"bike_id": "a551b545597af6ec49b1ae2b0c23ffec", "type": "electric_scooter", "is_disabled": 0, "lat": 38.89326366666667, "rental_uris": {"ios": "https://dc.lft.to/lastmile_qr_scan", "android": "https://dc.lft.to/lastmile_qr_scan"}, "is_reserved": 0, "fusion_lon": 0.0, "fusion_lat": 0.0, "lon": -77.04672733333334, "name": "a551b545597af6ec49b1ae2b0c23ffec"}, {"bike_id": "6e2da9aa1cc9a0cfd322652fce5fb704", "type": "electric_scooter", "is_disabled": 0, "lat": 38.889985333333335, "rental_uris": {"ios": "https://dc.lft.to/lastmile_qr_scan", "android": "https://dc.lft.to/lastmile_qr_scan"}, "is_reserved": 0, "fusion_lon": 0.0, "fusion_lat": 0.0, "lon": -77.00212333333333, "name": "6e2da9aa1cc9a0cfd322652fce5fb704"}, {"bike_id": "faea85ed9996ce8903d88b47be68a122", "type": "electric_bike", "is_disabled": 0, "lat": 38.93108383333333, "rental_uris": {"ios": "https://dc.lft.to/lastmile_qr_scan", "android": "https://dc.lft.to/lastmile_qr_scan"}, "is_reserved": 0, "fusion_lon": 0.0, "fusion_lat": 0.0, "lon": -77.02423233333333, "name": "faea85ed9996ce8903d88b47be68a122"}, {"bike_id": "f87741db77b9a5c7fd95d312b5cac668", "type": "electric_bike", "is_disabled": 0, "lat": 38.929638833333335, "rental_uris": {"ios": "https://dc.lft.to/lastmile_qr_scan", "android": "https://dc.lft.to/lastmile_qr_scan"}, "is_reserved": 0, "fusion_lon": 0.0, "fusion_lat": 0.0, "lon": -77.1856365, "name": "f87741db77b9a5c7fd95d312b5cac668"}, {"bike_id": "59984c63f41bb288ce88a7c9833c0e39", "type": "electric_scooter", "is_disabled": 0, "lat": 38.897914166666666, "rental_uris": {"ios": "https://dc.lft.to/lastmile_qr_scan", "android": "https://dc.lft.to/lastmile_qr_scan"}, "is_reserved": 0, "fusion_lon": 0.0, "fusion_lat": 0.0, "lon": -77.05029333333333, "name": "59984c63f41bb288ce88a7c9833c0e39"}, {"bike_id": "35fe7d53466ffe5bbbcfcfeedd7237ad", "type": "electric_scooter", "is_disabled": 0, "lat": 38.936242666666665, "rental_uris": {"ios": "https://dc.lft.to/lastmile_qr_scan", "android": "https://dc.lft.to/lastmile_qr_scan"}, "is_reserved": 0, "fusion_lon": 0.0, "fusion_lat": 0.0, "lon": -77.02456866666667, "name": "35fe7d53466ffe5bbbcfcfeedd7237ad"}, {"bike_id": "7ece713271735c569a684085272303b6", "type": "electric_bike", "is_disabled": 0, "lat": 38.861514, "rental_uris": {"ios": "https://dc.lft.to/lastmile_qr_scan", "android": "https://dc.lft.to/lastmile_qr_scan"}, "is_reserved": 0, "fusion_lon": 0.0, "fusion_lat": 0.0, "lon": -77.09143066666667, "name": "7ece713271735c569a684085272303b6"}, {"bike_id": "949150897b96c1716fae538f8ba2ab65", "type": "electric_scooter", "is_disabled": 0, "lat": 38.918067, "rental_uris": {"ios": "https://dc.lft.to/lastmile_qr_scan", "android": "https://dc.lft.to/lastmile_qr_scan"}, "is_reserved": 0, "fusion_lon": 0.0, "fusion_lat": 0.0, "lon": -77.0453105, "name": "949150897b96c1716fae538f8ba2ab65"}, {"bike_id": "1d9c7aae3033ca0cf04953ade4805e0f", "type": "electric_scooter", "is_disabled": 0, "lat": 38.932482, "rental_uris": {"ios": "https://dc.lft.to/lastmile_qr_scan", "android": "https://dc.lft.to/lastmile_qr_scan"}, "is_reserved": 0, "fusion_lon": 0.0, "fusion_lat": 0.0, "lon": -77.02004016666666, "name": "1d9c7aae3033ca0cf04953ade4805e0f"}, {"bike_id": "01a1feaa4156071ceccf54448c4b5882", "type": "electric_scooter", "is_disabled": 0, "lat": 38.90278983333333, "rental_uris": {"ios": "https://dc.lft.to/lastmile_qr_scan", "android": "https://dc.lft.to/lastmile_qr_scan"}, "is_reserved": 0, "fusion_lon": 0.0, "fusion_lat": 0.0, "lon": -77.05795066666667, "name": "01a1feaa4156071ceccf54448c4b5882"},