{"data": {"bikes": [{"rental_uris": {"android": "https://dc.lft.to/lastmile_qr_scan", "ios": "https://dc.lft.to/lastmile_qr_scan"}, "fusion_lat": 0.0, "is_reserved": 0, "lat": 38.897082833333336, "name": "4d86c9d1d94b4b8719e30f3e2b814e08", "bike_id": "4d86c9d1d94b4b8719e30f3e2b814e08", "is_disabled": 0, "fusion_lon": 0.0, "type": "electric_scooter", "lon": -76.99121316666667}, {"rental_uris": {"android": "https://dc.lft.to/lastmile_qr_scan", "ios": "https://dc.lft.to/lastmile_qr_scan"}, "fusion_lat": 0.0, "is_reserved": 0, "lat": 38.900257333333336, "name": "7df6906ecdd7adf1f5cd5244bc81c237", "bike_id": "7df6906ecdd7adf1f5cd5244bc81c237", "is_disabled": 0, "fusion_lon": 0.0, "type": "electric_scooter", "lon": -77.011925}, {"rental_uris": {"android": "https://dc.lft.to/lastmile_qr_scan", "ios": "https://dc.lft.to/lastmile_qr_scan"}, "fusion_lat": 0.0, "is_reserved": 0, "lat": 38.92435833333333, "name": "28d43af06db02177ab3fc8a64f53fd7c", "bike_id": "28d43af06db02177ab3fc8a64f53fd7c", "is_disabled": 0, "fusion_lon": 0.0, "type": "electric_scooter", "lon": -77.0203365}, {"rental_uris": {"android": "https://dc.lft.to/lastmile_qr_scan", "ios": "https://dc.lft.to/lastmile_qr_scan"}, "fusion_lat": 0.0, "is_reserved": 0, "lat": 38.980875, "name": "2f42338c95fc294b28108be64120fffa", "bike_id": "2f42338c95fc294b28108be64120fffa", "is_disabled": 0, "fusion_lon": 0.0, "type": "electric_bike", "lon": -77.026062}, {"rental_uris": {"android": "https://dc.lft.to/lastmile_qr_scan", "ios": "https://dc.lft.to/lastmile_qr_scan"}, "fusion_lat": 0.0, "is_reserved": 0, "lat": 38.9179775, "name": "d2ea90af3237929f86989a0302c4b94a", "bike_id": "d2ea90af3237929f86989a0302c4b94a", "is_disabled": 0, "fusion_lon": 0.0, "type": "electric_scooter", "lon": -77.04010833333334}, {"rental_uris": {"android": "https://dc.lft.to/lastmile_qr_scan", "ios": "https://dc.lft.to/lastmile_qr_scan"}, "fusion_lat": 0.0, "is_reserved": 0, "lat": 38.91334166666667, "name": "e6104418f051189fbcdcbf06a92f5b70", "bike_id": "e6104418f051189fbcdcbf06a92f5b70", "is_disabled": 0, "fusion_lon": 0.0, "type": "electric_scooter", "lon": -77.039899}, {"rental_uris": {"android": "https://dc.lft.to/lastmile_qr_scan", "ios": "https://dc.lft.to/lastmile_qr_scan"}, "fusion_lat": 0.0, "is_reserved": 0, "lat": 38.937794333333336, "name": "4664588cbe0b391582de26816b8b08fa", "bike_id": "4664588cbe0b391582de26816b8b08fa", "is_disabled": 0, "fusion_lon": 0.0, "type": "electric_scooter", "lon": -77.02263233333333}, {"rental_uris": {"android": "https://dc.lft.to/lastmile_qr_scan", "ios": "https://dc.lft.to/lastmile_qr_scan"}, "fusion_lat": 0.0, "is_reserved": 0, "lat": 38.923219333333336, "name": "f9e86c4f90fc8f37e73642ec52e97809", "bike_id": "f9e86c4f90fc8f37e73642ec52e97809", "is_disabled": 0, "fusion_lon": 0.0, "type": "electric_scooter", "lon": -77.01955133333334}, {"rental_uris": {"android": "https://dc.lft.to/lastmile_qr_scan", "ios": "https://dc.lft.to/lastmile_qr_scan"}, "fusion_lat": 0.0, "is_reserved": 0, "lat": 38.854337666666666, "name": "658f6e82e92ac9f9d84c5a125f5efd72", "bike_id": "658f6e82e92ac9f9d84c5a125f5efd72", "is_disabled": 0, "fusion_lon": 0.0, "type": "electric_bike", "lon": -77.083195}, {"rental_uris": {"android": "https://dc.lft.to/lastmile_qr_scan", "ios": "https://dc.lft.to/lastmile_qr_scan"}, "fusion_lat": 0.0, "is_reserved": 0, "lat": 38.923578666666664, "name": "d324bc4adb8c11f3bdc6f64c198c65e5", "bike_id": "d324bc4adb8c11f3bdc6f64c198c65e5", "is_disabled": 0, "fusion_lon": 0.0, "type": "electric_scooter", "lon": -77.05241666666667}, {"rental_uris": {"android": "https://dc.lft.to/lastmile_qr_scan", "ios": "https://dc.lft.to/lastmile_qr_scan"}, "fusion_lat": 0.0, "is_reserved": 0, "lat": 38.92746533333333, "name": "e25d6f1e438dd6555c045427f626fed8", "bike_id": "e25d6f1e438dd6555c045427f626fed8", "is_disabled": 0, "fusion_lon": 0.0, "type": "electric_scooter", "lon": -77.0327635}, {"rental_uris": {"android": "https://dc.lft.to/lastmile_qr_scan", "ios": "https://dc.lft.to/lastmile_qr_scan"}, "fusion_lat": 0.0, "is_reserved": 0, "lat": 38.946774, "name": "9daac5fb02a01414ff08bb7b6d31e0c2", "bike_id": "9daac5fb02a01414ff08bb7b6d31e0c2", "is_disabled": 0, "fusion_lon": 0.0, "type": "electric_bike", "lon": -76.9933015}, {"rental_uris": {"android": "https://dc.lft.to/lastmile_qr_scan", "ios": "https://dc.lft.to/lastmile_qr_scan"}, "fusion_lat": 0.0, "is_reserved": 0, "lat": 38.998891, "name": "cb9f0d95ca97866bdec193bc16c3c53d", "bike_id": "cb9f0d95ca97866bdec193bc16c3c53d", "is_disabled": 0, "fusion_lon": 0.0, "type": "electric_bike", "lon": -76.90863883333333}, {"rental_uris": {"android": "https://dc.lft.to/lastmile_qr_scan", "ios": "https://dc.lft.to/lastmile_qr_scan"}, "fusion_lat": 0.0, "is_reserved": 0, "lat": 38.91418733333333, "name": "c352fe4582c67f9229a6e0e027c169a8", "bike_id": "c352fe4582c67f9229a6e0e027c169a8", "is_disabled": 0, "fusion_lon": 0.0, "type": "electric_scooter", "lon": -77.03172883333333}, {"rental_uris": {"android": "https://dc.lft.to/lastmile_qr_scan", "ios": "https://dc.lft.to/lastmile_qr_scan"}, "fusion_lat": 0.0, "is_reserved": 0, "lat": 38.91913533333334, "name": "caeb83500644e79f8c333daba6eaef03", "bike_id": "caeb83500644e79f8c333daba6eaef03", "is_disabled": 0, "fusion_lon": 0.0, "type": "electric_scooter", "lon": -77.03194716666667}, {"rental_uris": {"android": "https://dc.lft.to/lastmile_qr_scan", "ios": "https://dc.lft.to/lastmile_qr_scan"}, "fusion_lat": 0.0, "is_reserved": 0, "lat": 38.90635133333333, "name": "60c3a42e0a5f98be1d8b560fa91e508d", "bike_id": "60c3a42e0a5f98be1d8b560fa91e508d", "is_disabled": 0, "fusion_lon": 0.0, "type": "electric_scooter", "lon": -77.00580816666667}, {"rental_uris": {"android": "https://dc.lft.to/lastmile_qr_scan", "ios": "https://dc.lft.to/lastmile_qr_scan"}, "fusion_lat": 0.0, "is_reserved": 0, "lat": 38.903311333333335, "name": "bdcded88a910c9847ae8a523c785036d", "bike_id": "bdcded88a910c9847ae8a523c785036d", "is_disabled": 0, "fusion_lon": 0.0, "type": "electric_scooter", "lon": -76.97592516666667}, {"rental_uris": {"android": "https://dc.lft.to/lastmile_qr_scan", "ios": "https://dc.lft.to/lastmile_qr_scan"}, "fusion_lat": 0.0, "is_reserved": 0, "lat": 38.896064833333334, "name": "d439d46bae88d267d7126e58d02ec036", "bike_id": "d439d46bae88d267d7126e58d02ec036", "is_disabled": 0, "fusion_lon": 0.0, "type": "electric_scooter", "lon": -77.03349933333334}, {"rental_uris": {"android": "https://dc.lft.to/lastmile_qr_scan", "ios": "https://dc.lft.to/lastmile_qr_scan"}, "fusion_lat": 0.0, "is_reserved": 0, "lat": 38.959342, "name": "deb70bf3f7eafc09415cefb4d721c529", "bike_id": "deb70bf3f7eafc09415cefb4d721c529", "is_disabled": 0, "fusion_lon": 0.0, "type": "electric_scooter", "lon": -77.03124133333333}, {"rental_uris": {"android": "https://dc.lft.to/lastmile_qr_scan", "ios": "https://dc.lft.to/lastmile_qr_scan"}, "fusion_lat": 0.0, "is_reserved": 0, "lat": 38.90040666666667, "name": "e139ddfba6a9aaab05b836bc097140a7", "bike_id": "e139ddfba6a9aaab05b836bc097140a7", "is_disabled": 0, "fusion_lon": 0.0, "type": "electric_scooter", "lon": -77.048482}, {"rental_uris": {"android": "https://dc.lft.to/lastmile_qr_scan", "ios": "https://dc.lft.to/lastmile_qr_scan"}, "fusion_lat": 0.0, "is_reserved": 0, "lat": 38.9073745, "name": "1f3ddea894d3ae3c3c9ef44e985b3312", "bike_id": "1f3ddea894d3ae3c3c9ef44e985b3312", "is_disabled": 0, "fusion_lon": 0.0, "type": "electric_scooter", "lon": -77.03893666666667}, {"rental_uris": {"android": "https://dc.lft.to/lastmile_qr_scan", "ios": "https://dc.lft.to/lastmile_qr_scan"}, "fusion_lat": 0.0, "is_reserved": 0, "lat": 38.92452983333333, "name": "fc778cc286a5415f6224c815a0073588", "bike_id": "fc778cc286a5415f6224c815a0073588", "is_disabled": 0, "fusion_lon": 0.0, "type": "electric_scooter", "lon": -77.0269255}, {"rental_uris": {"android": "https://dc.lft.to/lastmile_qr_scan", "ios": "https://dc.lft.to/lastmile_qr_scan"}, "fusion_lat": 0.0, "is_reserved": 0, "lat": 38.90779283333333, "name": "0994f92d366d3b8f2501542ccdb2cafb", "bike_id": "0994f92d366d3b8f2501542ccdb2cafb", "is_disabled": 0, "fusion_lon": 0.0, "type": "electric_scooter", "lon": -77.0451515}, {"rental_uris": {"android": "https://dc.lft.to/lastmile_qr_scan", "ios": "https://dc.lft.to/lastmile_qr_scan"}, "fusion_lat": 0.0, "is_reserved": 0, "lat": 38.9335315, "name": "f035ce44104ac209b95990c8244dac17", "bike_id": "f035ce44104ac209b95990c8244dac17", "is_disabled": 0, "fusion_lon": 0.0, "type": "electric_scooter", "lon": -77.02374166666667}, {"rental_uris": {"android": "https://dc.lft.to/lastmile_qr_scan", "ios": "https://dc.lft.to/lastmile_qr_scan"}, "fusion_lat": 0.0, "is_reserved": 0, "lat": 38.90741, "name": "ca16c85a81c7bc98120af673616595d2", "bike_id": "ca16c85a81c7bc98120af673616595d2", "is_disabled": 0, "fusion_lon": 0.0, "type": "electric_scooter", "lon": -77.050102}, {"rental_uris": {"android": "https://dc.lft.to/lastmile_qr_scan", "ios": "https://dc.lft.to/lastmile_qr_scan"}, "fusion_lat": 0.0, "is_reserved": 0, "lat": 38.898944, "name": "0d9ba56fe69b1937f09098b88e9b82a6", "bike_id": "0d9ba56fe69b1937f09098b88e9b82a6", "is_disabled": 0, "fusion_lon": 0.0, "type": "electric_scooter", "lon": -76.97609683333333}, {"rental_uris": {"android": "https://dc.lft.to/lastmile_qr_scan", "ios": "https://dc.lft.to/lastmile_qr_scan"}, "fusion_lat": 0.0, "is_reserved": 0, "lat": 38.919185666666664, "name": "37e7d00c474913e7a7367ea45389414e", "bike_id": "37e7d00c474913e7a7367ea45389414e", "is_disabled": 0, "fusion_lon": 0.0, "type": "electric_scooter", "lon": -77.03186633333334}, {"rental_uris": {"android": "https://dc.lft.to/lastmile_qr_scan", "ios": "https://dc.lft.to/lastmile_qr_scan"}, "fusion_lat": 0.0, "is_reserved": 0, "lat": 38.865205333333336, "name": "74ddf0d7a0e275ff9aa2a8ce43e5ae30", "bike_id": "74ddf0d7a0e275ff9aa2a8ce43e5ae30", "is_disabled": 0, "fusion_lon": 0.0, "type": "electric_scooter", "lon": -76.9690595}, {"rental_uris": {"android": "https://dc.lft.to/lastmile_qr_scan", "ios": "https://dc.lft.to/lastmile_qr_scan"}, "fusion_lat": 0.0, "is_reserved": 0, "lat": 38.892224166666665, "name": "722e8554edbdd0be006d571e22e6867d", "bike_id": "722e8554edbdd0be006d571e22e6867d", "is_disabled": 0, "fusion_lon": 0.0, "type": "electric_scooter", "lon": -77.03339266666667}, {"rental_uris": {"android": "https://dc.lft.to/lastmile_qr_scan", "ios": "https://dc.lft.to/lastmile_qr_scan"}, "fusion_lat": 0.0, "is_reserved": 0, "lat": 38.9191375, "name": "3b67dbd48f69c934c2889c4d097e357e", "bike_id": "3b67dbd48f69c934c2889c4d097e357e", "is_disabled": 0, "fusion_lon": 0.0, "type": "electric_scooter", "lon": -77.02949466666666}, {"rental_uris": {"android": "https://dc.lft.to/lastmile_qr_scan", "ios": "https://dc.lft.to/lastmile_qr_scan"}, "fusion_lat": 0.0, "is_reserved": 0, "lat": 38.887056, "name": "18f7d8fae10c7137547c6884d861fc45", "bike_id": "18f7d8fae10c7137547c6884d861fc45", "is_disabled": 0, "fusion_lon": 0.0, "type": "electric_scooter", "lon": -77.01366166666666}, {"rental_uris": {"android": "https://dc.lft.to/lastmile_qr_scan", "ios": "https://dc.lft.to/lastmile_qr_scan"}, "fusion_lat": 0.0, "is_reserved": 0, "lat": 38.83156233333333, "name": "d34a0355ca9a8ae2ef6c0f2c9c4cd783", "bike_id": "d34a0355ca9a8ae2ef6c0f2c9c4cd783", "is_disabled": 0, "fusion_lon": 0.0, "type": "electric_bike", "lon": -76.99540466666667}, {"rental_uris": {"android": "https://dc.lft.to/lastmile_qr_scan", "ios": "https://dc.lft.to/lastmile_qr_scan"}, "fusion_lat": 0.0, "is_reserved": 0, "lat": 38.929778, "name": "da78d67fb06a52c9bf4ce88963469f8c", "bike_id": "da78d67fb06a52c9bf4ce88963469f8c", "is_disabled": 0, "fusion_lon": 0.0, "type": "electric_scooter", "lon": -77.031891}, {"rental_uris": {"android": "https://dc.lft.to/lastmile_qr_scan", "ios": "https://dc.lft.to/lastmile_qr_scan"}, "fusion_lat": 0.0, "is_reserved": 0, "lat": 38.933918166666665, "name": "97ebe49d2069be746964c73f31cb45b4", "bike_id": "97ebe49d2069be746964c73f31cb45b4", "is_disabled": 0, "fusion_lon": 0.0, "type": "electric_scooter", "lon": -77.02226583333334}, {"rental_uris": {"android": "https://dc.lft.to/lastmile_qr_scan", "ios": "https://dc.lft.to/lastmile_qr_scan"}, "fusion_lat": 0.0, "is_reserved": 0, "lat": 38.881226, "name": "1d183cfbbded3871651f02008c43d4ba", "bike_id": "1d183cfbbded3871651f02008c43d4ba", "is_disabled": 0, "fusion_lon": 0.0, "type": "electric_scooter", "lon": -77.016934}, {"rental_uris": {"android": "https://dc.lft.to/lastmile_qr_scan", "ios": "https://dc.lft.to/lastmile_qr_scan"}, "fusion_lat": 0.0, "is_reserved": 0, "lat": 38.892330333333334, "name": "ba5687e6513659e8c9f2bfbfc3578472", "bike_id": "ba5687e6513659e8c9f2bfbfc3578472", "is_disabled": 0, "fusion_lon": 0.0, "type": "electric_scooter", "lon": -77.033805}, {"rental_uris": {"android": "https://dc.lft.to/lastmile_qr_scan", "ios": "https://dc.lft.to/lastmile_qr_scan"}, "fusion_lat": 0.0, "is_reserved": 0, "lat": 38.91415516666667, "name": "d6985f885457efff57f8d2afde1b9a7a", "bike_id": "d6985f885457efff57f8d2afde1b9a7a", "is_disabled": 0, "fusion_lon": 0.0, "type": "electric_scooter", "lon": -77.0190645}, {"rental_uris": {"android": "https://dc.lft.to/lastmile_qr_scan", "ios": "https://dc.lft.to/lastmile_qr_scan"}, "fusion_lat": 0.0, "is_reserved": 0, "lat": 38.905673, "name": "be797ee110bbb4ad0051424d98af1bc4", "bike_id": "be797ee110bbb4ad0051424d98af1bc4", "is_disabled": 0, "fusion_lon": 0.0, "type": "electric_scooter", "lon": -76.98210833333333}, {"rental_uris": {"android": "https://dc.lft.to/lastmile_qr_scan", "ios": "https://dc.lft.to/lastmile_qr_scan"}, "fusion_lat": 0.0, "is_reserved": 0, "lat": 38.90368266666667, "name": "ca89d3e24966e8c0d776850306a12ec7", "bike_id": "ca89d3e24966e8c0d776850306a12ec7", "is_disabled": 0, "fusion_lon": 0.0, "type": "electric_scooter", "lon": -77.01646666666667}, {"rental_uris": {"android": "https://dc.lft.to/lastmile_qr_scan", "ios": "https://dc.lft.to/lastmile_qr_scan"}, "fusion_lat": 0.0, "is_reserved": 0, "lat": 38.91504116666667, "name": "9fa5bc5ae1e9c06f1e8af4060818e1f1", "bike_id": "9fa5bc5ae1e9c06f1e8af4060818e1f1", "is_disabled": 0, "fusion_lon": 0.0, "type": "electric_scooter", "lon": -77.04494566666666}, {"rental_uris": {"android": "https://dc.lft.to/lastmile_qr_scan", "ios": "https://dc.lft.to/lastmile_qr_scan"}, "fusion_lat": 0.0, "is_reserved": 0, "lat": 38.90757583333333, "name": "8bc784f41856d350a02724cb40a858d8", "bike_id": "8bc784f41856d350a02724cb40a858d8", "is_disabled": 0, "fusion_lon": 0.0, "type": "electric_scooter", "lon": -77.00282016666667}, {"rental_uris": {"android": "https://dc.lft.to/lastmile_qr_scan", "ios": "https://dc.lft.to/lastmile_qr_scan"}, "fusion_lat": 0.0, "is_reserved": 0, "lat": 38.91880033333333, "name": "75a89b71ac19d55a0304bf9db5f47e68", "bike_id": "75a89b71ac19d55a0304bf9db5f47e68", "is_disabled": 0, "fusion_lon": 0.0, "type": "electric_scooter", "lon": -77.04173183333333}, {"rental_uris": {"android": "https://dc.lft.to/lastmile_qr_scan", "ios": "https://dc.lft.to/lastmile_qr_scan"}, "fusion_lat": 0.0, "is_reserved": 0, "lat": 38.920675, "name": "75278d0addb981b87ee3864892404d5a", "bike_id": "75278d0addb981b87ee3864892404d5a", "is_disabled": 0, "fusion_lon": 0.0, "type": "electric_scooter", "lon": -77.02564616666666}, {"rental_uris": {"android": "https://dc.lft.to/lastmile_qr_scan", "ios": "https://dc.lft.to/lastmile_qr_scan"}, "fusion_lat": 0.0, "is_reserved": 0, "lat": 38.915355, "name": "ec1ffd2cb2d427ac9f5e151ef1c7e020", "bike_id": "ec1ffd2cb2d427ac9f5e151ef1c7e020", "is_disabled": 0, "fusion_lon": 0.0, "type": "electric_scooter", "lon": -77.01225066666667}, {"rental_uris": {"android": "https://dc.lft.to/lastmile_qr_scan", "ios": "https://dc.lft.to/lastmile_qr_scan"}, "fusion_lat": 0.0, "is_reserved": 0, "lat": 38.88723433333333, "name": "a0dcdf8851670226bd7ca77af25005fe", "bike_id": "a0dcdf8851670226bd7ca77af25005fe", "is_disabled": 0, "fusion_lon": 0.0, "type": "electric_scooter", "lon": -76.9968025}, {"rental_uris": {"android": "https://dc.lft.to/lastmile_qr_scan", "ios": "https://dc.lft.to/lastmile_qr_scan"}, "fusion_lat": 0.0, "is_reserved": 0, "lat": 38.912581, "name": "bb33a4dfd3b9d7a4a06c86edd403d7a6", "bike_id": "bb33a4dfd3b9d7a4a06c86edd403d7a6", "is_disabled": 0, "fusion_lon": 0.0, "type": "electric_scooter", "lon": -77.0386805}, {"rental_uris": {"android": "https://dc.lft.to/lastmile_qr_scan", "ios": "https://dc.lft.to/lastmile_qr_scan"}, "fusion_lat": 0.0, "is_reserved": 0, "lat": 38.896164166666665, "name": "685c25930f6bd051ed0e5e459b578632", "bike_id": "685c25930f6bd051ed0e5e459b578632", "is_disabled": 0, "fusion_lon": 0.0, "type": "electric_scooter", "lon": -77.03039866666667}, {"rental_uris": {"android": "https://dc.lft.to/lastmile_qr_scan", "ios": "https://dc.lft.to/lastmile_qr_scan"}, "fusion_lat": 0.0, "is_reserved": 0, "lat": 38.87908066666667, "name": "2b3cfef1fd399b84f57b7d433b405f87", "bike_id": "2b3cfef1fd399b84f57b7d433b405f87", "is_disabled": 0, "fusion_lon": 0.0, "type": "electric_scooter", "lon": -77.00714216666667}, {"rental_uris": {"android": "https://dc.lft.to/lastmile_qr_scan", "ios": "https://dc.lft.to/lastmile_qr_scan"}, "fusion_lat": 0.0, "is_reserved": 0, "lat": 38.90178916666667, "name": "ad021834acaa825a8a7c01090f897968", "bike_id": "ad021834acaa825a8a7c01090f897968", "is_disabled": 0, "fusion_lon": 0.0, "type": "electric_scooter", "lon": -77.03382683333334}, {"rental_uris": {"android": "https://dc.lft.to/lastmile_qr_scan", "ios": "https://dc.lft.to/lastmile_qr_scan"}, "fusion_lat": 0.0, "is_reserved": 0, "lat": 38.91047566666667, "name": "cd6582c996c7f226ac605235d4fab212", "bike_id": "cd6582c996c7f226ac605235d4fab212", "is_disabled": 0, "fusion_lon": 0.0, "type": "electric_scooter", "lon": -77.03843583333334}, {"rental_uris": {"android": "https://dc.lft.to/lastmile_qr_scan", "ios": "https://dc.lft.to/lastmile_qr_scan"}, "fusion_lat": 0.0, "is_reserved": 0, "lat": 38.944120833333336, "name": "f0e0e1b437f6b657c387b9fcbdbffcca", "bike_id": "f0e0e1b437f6b657c387b9fcbdbffcca", "is_disabled": 0, "fusion_lon": 0.0, "type": "electric_scooter", "lon": -77.0632335}, {"rental_uris": {"android": "https://dc.lft.to/lastmile_qr_scan", "ios": "https://dc.lft.to/lastmile_qr_scan"}, "fusion_lat": 0.0, "is_reserved": 0, "lat": 38.932520833333335, "name": "bc913c4bde5bd0878f630837d290d1eb", "bike_id": "bc913c4bde5bd0878f630837d290d1eb", "is_disabled": 0, "fusion_lon": 0.0, "type": "electric_scooter", "lon": -77.03200866666667}, {"rental_uris": {"android": "https://dc.lft.to/lastmile_qr_scan", "ios": "https://dc.lft.to/lastmile_qr_scan"}, "fusion_lat": 0.0, "is_reserved": 0, "lat": 38.902803666666664, "name": "fad56a0aa905469bab42313f50c47b68", "bike_id": "fad56a0aa905469bab42313f50c47b68", "is_disabled": 0, "fusion_lon": 0.0, "type": "electric_scooter", "lon": -77.0321145}, {"rental_uris": {"android": "https://dc.lft.to/lastmile_qr_scan", "ios": "https://dc.lft.to/lastmile_qr_scan"}, "fusion_lat": 0.0, "is_reserved": 0, "lat": 38.91551233333333, "name": "41e4e90e801c3bb4b9a6f4b3fc1c680a", "bike_id": "41e4e90e801c3bb4b9a6f4b3fc1c680a", "is_disabled": 0, "fusion_lon": 0.0, "type": "electric_scooter", "lon": -77.03678383333333}, {"rental_uris": {"android": "https://dc.lft.to/lastmile_qr_scan", "ios": "https://dc.lft.to/lastmile_qr_scan"}, "fusion_lat": 0.0, "is_reserved": 0, "lat": 38.8887865, "name": "4e9533dfe05669a5146a78576d81518c", "bike_id": "4e9533dfe05669a5146a78576d81518c", "is_disabled": 0, "fusion_lon": 0.0, "type": "electric_scooter", "lon": -76.99035433333333}, {"rental_uris": {"android": "https://dc.lft.to/lastmile_qr_scan", "ios": "https://dc.lft.to/lastmile_qr_scan"}, "fusion_lat": 0.0, "is_reserved": 0, "lat": 38.905377666666666, "name": "e6879b04e8e03ea271eb370706e33334", "bike_id": "e6879b04e8e03ea271eb370706e33334", "is_disabled": 0, "fusion_lon": 0.0, "type": "electric_scooter", "lon": -77.04079566666667}, {"rental_uris": {"android": "https://dc.lft.to/lastmile_qr_scan", "ios": "https://dc.lft.to/lastmile_qr_scan"}, "fusion_lat": 0.0, "is_reserved": 0, "lat": 38.89991216666667, "name": "af1e401ed60e5028da737f185688624b", "bike_id": "af1e401ed60e5028da737f185688624b", "is_disabled": 0, "fusion_lon": 0.0, "type": "electric_scooter", "lon": -77.0224255}, {"rental_uris": {"android": "https://dc.lft.to/lastmile_qr_scan", "ios": "https://dc.lft.to/lastmile_qr_scan"}, "fusion_lat": 0.0, "is_reserved": 0, "lat": 38.8877085, "name": "f84665f9435b841cf179f32ea2040827", "bike_id": "f84665f9435b841cf179f32ea2040827", "is_disabled": 0, "fusion_lon": 0.0, "type": "electric_scooter", "lon": -76.93264233333333}, {"rental_uris": {"android": "https://dc.lft.to/lastmile_qr_scan", "ios": "https://dc.lft.to/lastmile_qr_scan"}, "fusion_lat": 0.0, "is_reserved": 0, "lat": 38.92735033333334, "name": "b216dc85cfce9166da95bce220bcd242", "bike_id": "b216dc85cfce9166da95bce220bcd242", "is_disabled": 0, "fusion_lon": 0.0, "type": "electric_scooter", "lon": -77.02252433333334}, {"rental_uris": {"android": "https://dc.lft.to/lastmile_qr_scan", "ios": "https://dc.lft.to/lastmile_qr_scan"}, "fusion_lat": 0.0, "is_reserved": 0, "lat": 38.8986905, "name": "29c9ecfdecf62a698e11a922086c5325", "bike_id": "29c9ecfdecf62a698e11a922086c5325", "is_disabled": 0, "fusion_lon": 0.0, "type": "electric_scooter", "lon": -77.05002616666667}, {"rental_uris": {"android": "https://dc.lft.to/lastmile_qr_scan", "ios": "https://dc.lft.to/lastmile_qr_scan"}, "fusion_lat": 0.0, "is_reserved": 0, "lat": 38.92327933333333, "name": "4a8890f9d9280400c95c6e08ca904ef5", "bike_id": "4a8890f9d9280400c95c6e08ca904ef5", "is_disabled": 0, "fusion_lon": 0.0, "type": "electric_scooter", "lon": -77.00056733333334}, {"rental_uris": {"android": "https://dc.lft.to/lastmile_qr_scan", "ios": "https://dc.lft.to/lastmile_qr_scan"}, "fusion_lat": 0.0, "is_reserved": 0, "lat": 38.91829216666667, "name": "fecbeb45656bef5f93433ec57a50ad5c", "bike_id": "fecbeb45656bef5f93433ec57a50ad5c", "is_disabled": 0, "fusion_lon": 0.0, "type": "electric_scooter", "lon": -77.031801}, {"rental_uris": {"android": "https://dc.lft.to/lastmile_qr_scan", "ios": "https://dc.lft.to/lastmile_qr_scan"}, "fusion_lat": 0.0, "is_reserved": 0, "lat": 38.83608016666667, "name": "985224b3c9664eea0681e02312b4771c", "bike_id": "985224b3c9664eea0681e02312b4771c", "is_disabled": 0, "fusion_lon": 0.0, "type": "electric_bike", "lon": -77.00385683333333}, {"rental_uris": {"android": "https://dc.lft.to/lastmile_qr_scan", "ios": "https://dc.lft.to/lastmile_qr_scan"}, "fusion_lat": 0.0, "is_reserved": 0, "lat": 38.90833333333333, "name": "57b03507088219c12fdaaadc0394e61d", "bike_id": "57b03507088219c12fdaaadc0394e61d", "is_disabled": 0, "fusion_lon": 0.0, "type": "electric_scooter", "lon": -76.99702333333333}, {"rental_uris": {"android": "https://dc.lft.to/lastmile_qr_scan", "ios": "https://dc.lft.to/lastmile_qr_scan"}, "fusion_lat": 0.0, "is_reserved": 0, "lat": 38.933175166666665, "name": "6b7db89e9ff95d99a4bc0a387dbe1a24", "bike_id": "6b7db89e9ff95d99a4bc0a387dbe1a24", "is_disabled": 0, "fusion_lon": 0.0, "type": "electric_scooter", "lon": -77.02907}, {"rental_uris": {"android": "https://dc.lft.to/lastmile_qr_scan", "ios": "https://dc.lft.to/lastmile_qr_scan"}, "fusion_lat": 0.0, "is_reserved": 0, "lat": 38.846282333333335, "name": "c3cc1fc2020ce76f82464d47138009f3", "bike_id": "c3cc1fc2020ce76f82464d47138009f3", "is_disabled": 0, "fusion_lon": 0.0, "type": "electric_scooter", "lon": -76.98124583333333}, {"rental_uris": {"android": "https://dc.lft.to/lastmile_qr_scan", "ios": "https://dc.lft.to/lastmile_qr_scan"}, "fusion_lat": 0.0, "is_reserved": 0, "lat": 38.995207, "name": "ccd5509517d151471c8fad6806ccdca9", "bike_id": "ccd5509517d151471c8fad6806ccdca9", "is_disabled": 0, "fusion_lon": 0.0, "type": "electric_bike", "lon": -76.99956583333334}, {"rental_uris": {"android": "https://dc.lft.to/lastmile_qr_scan", "ios": "https://dc.lft.to/lastmile_qr_scan"}, "fusion_lat": 0.0, "is_reserved": 0, "lat": 38.9171015, "name": "6314ca296addd5309022161251cd55ad", "bike_id": "6314ca296addd5309022161251cd55ad", "is_disabled": 0, "fusion_lon": 0.0, "type": "electric_scooter", "lon": -77.03351283333333}, {"rental_uris": {"android": "https://dc.lft.to/lastmile_qr_scan", "ios": "https://dc.lft.to/lastmile_qr_scan"}, "fusion_lat": 0.0, "is_reserved": 0, "lat": 38.923298333333335, "name": "ee1e695dfcb562333cbe6d377a36227c", "bike_id": "ee1e695dfcb562333cbe6d377a36227c", "is_disabled": 0, "fusion_lon": 0.0, "type": "electric_scooter", "lon": -77.0089305}, {"rental_uris": {"android": "https://dc.lft.to/lastmile_qr_scan", "ios": "https://dc.lft.to/lastmile_qr_scan"}, "fusion_lat": 0.0, "is_reserved": 0, "lat": 38.859461333333336, "name": "0ac5e3f400101c1f79d09d24f42f0399", "bike_id": "0ac5e3f400101c1f79d09d24f42f0399", "is_disabled": 0, "fusion_lon": 0.0, "type": "electric_scooter", "lon": -76.991513}, {"rental_uris": {"android": "https://dc.lft.to/lastmile_qr_scan", "ios": "https://dc.lft.to/lastmile_qr_scan"}, "fusion_lat": 0.0, "is_reserved": 0, "lat": 38.876521, "name": "55636afccf2eae247a0e51cecaa6cc3e", "bike_id": "55636afccf2eae247a0e51cecaa6cc3e", "is_disabled": 0, "fusion_lon": 0.0, "type": "electric_scooter", "lon": -77.00417816666666}, {"rental_uris": {"android": "https://dc.lft.to/lastmile_qr_scan", "ios": "https://dc.lft.to/lastmile_qr_scan"}, "fusion_lat": 0.0, "is_reserved": 0, "lat": 38.924496833333336, "name": "6f66c1276faac8cbd366583c69a02891", "bike_id": "6f66c1276faac8cbd366583c69a02891", "is_disabled": 0, "fusion_lon": 0.0, "type": "electric_scooter", "lon": -77.04112683333334}, {"rental_uris": {"android": "https://dc.lft.to/lastmile_qr_scan", "ios": "https://dc.lft.to/lastmile_qr_scan"}, "fusion_lat": 0.0, "is_reserved": 0, "lat": 38.90028233333334, "name": "f4ddcd77f2d36380a4f222c46be29864", "bike_id": "f4ddcd77f2d36380a4f222c46be29864", "is_disabled": 0, "fusion_lon": 0.0, "type": "electric_scooter", "lon": -77.02704933333334}, {"rental_uris": {"android": "https://dc.lft.to/lastmile_qr_scan", "ios": "https://dc.lft.to/lastmile_qr_scan"}, "fusion_lat": 0.0, "is_reserved": 0, "lat": 38.94131516666667, "name": "8ec51231a53d0c3e114a324baff1526b", "bike_id": "8ec51231a53d0c3e114a324baff1526b", "is_disabled": 0, "fusion_lon": 0.0, "type": "electric_scooter", "lon": -77.06175783333333}, {"rental_uris": {"android": "https://dc.lft.to/lastmile_qr_scan", "ios": "https://dc.lft.to/lastmile_qr_scan"}, "fusion_lat": 0.0, "is_reserved": 0, "lat": 38.9178445, "name": "70971d7376078e5923d6a5cb2ab2ef2d", "bike_id": "70971d7376078e5923d6a5cb2ab2ef2d", "is_disabled": 0, "fusion_lon": 0.0, "type": "electric_scooter", "lon": -77.03445783333333}, {"rental_uris": {"android": "https://dc.lft.to/lastmile_qr_scan", "ios": "https://dc.lft.to/lastmile_qr_scan"}, "fusion_lat": 0.0, "is_reserved": 0, "lat": 38.935017, "name": "5c985aa567c71d69e8d0e023b8f29c65", "bike_id": "5c985aa567c71d69e8d0e023b8f29c65", "is_disabled": 0, "fusion_lon": 0.0, "type": "electric_scooter", "lon": -77.02729016666666}, {"rental_uris": {"android": "https://dc.lft.to/lastmile_qr_scan", "ios": "https://dc.lft.to/lastmile_qr_scan"}, "fusion_lat": 0.0, "is_reserved": 0, "lat": 38.919774333333336, "name": "9d69780fd59b673cdcf51e894169d1d2", "bike_id": "9d69780fd59b673cdcf51e894169d1d2", "is_disabled": 0, "fusion_lon": 0.0, "type": "electric_scooter", "lon": -77.041282}, {"rental_uris": {"android": "https://dc.lft.to/lastmile_qr_scan", "ios": "https://dc.lft.to/lastmile_qr_scan"}, "fusion_lat": 0.0, "is_reserved": 0, "lat": 38.921830166666666, "name": "1ff57525dba4ed0181ac1e8fa62b2bc8", "bike_id": "1ff57525dba4ed0181ac1e8fa62b2bc8", "is_disabled": 0, "fusion_lon": 0.0, "type": "electric_scooter", "lon": -76.99840333333333}, {"rental_uris": {"android": "https://dc.lft.to/lastmile_qr_scan", "ios": "https://dc.lft.to/lastmile_qr_scan"}, "fusion_lat": 0.0, "is_reserved": 0, "lat": 38.88522, "name": "ec42838bddbafb22e9add389133919c3", "bike_id": "ec42838bddbafb22e9add389133919c3", "is_disabled": 0, "fusion_lon": 0.0, "type": "electric_scooter", "lon": -76.97714483333333}, {"rental_uris": {"android": "https://dc.lft.to/lastmile_qr_scan", "ios": "https://dc.lft.to/lastmile_qr_scan"}, "fusion_lat": 0.0, "is_reserved": 0, "lat": 38.960337833333334, "name": "ec5743d34a5b86ff5ee2edbec090e67a", "bike_id": "ec5743d34a5b86ff5ee2edbec090e67a", "is_disabled": 0, "fusion_lon": 0.0, "type": "electric_scooter", "lon": -77.024291}, {"rental_uris": {"android": "https://dc.lft.to/lastmile_qr_scan", "ios": "https://dc.lft.to/lastmile_qr_scan"}, "fusion_lat": 0.0, "is_reserved": 0, "lat": 38.90004733333333, "name": "c38bbe97227b506536b8eb49283256aa", "bike_id": "c38bbe97227b506536b8eb49283256aa", "is_disabled": 0, "fusion_lon": 0.0, "type": "electric_bike", "lon": -76.98037616666667}, {"rental_uris": {"android": "https://dc.lft.to/lastmile_qr_scan", "ios": "https://dc.lft.to/lastmile_qr_scan"}, "fusion_lat": 0.0, "is_reserved": 0, "lat": 38.915541, "name": "f637f3ce2968552dbe8306432bda7174", "bike_id": "f637f3ce2968552dbe8306432bda7174", "is_disabled": 0, "fusion_lon": 0.0, "type": "electric_scooter", "lon": -77.04713516666666}, {"rental_uris": {"android": "https://dc.lft.to/lastmile_qr_scan", "ios": "https://dc.lft.to/lastmile_qr_scan"}, "fusion_lat": 0.0, "is_reserved": 0, "lat": 38.89222183333333, "name": "da33555781521e4bcf3bae2cbb9ee911", "bike_id": "da33555781521e4bcf3bae2cbb9ee911", "is_disabled": 0, "fusion_lon": 0.0, "type": "electric_scooter", "lon": -77.03994333333333}, {"rental_uris": {"android": "https://dc.lft.to/lastmile_qr_scan", "ios": "https://dc.lft.to/lastmile_qr_scan"}, "fusion_lat": 0.0, "is_reserved": 0, "lat": 38.8522045, "name": "b054bcc9f8d7e424e2189da2ed10e8e1", "bike_id": "b054bcc9f8d7e424e2189da2ed10e8e1", "is_disabled": 0, "fusion_lon": 0.0, "type": "electric_scooter", "lon": -76.99427}, {"rental_uris": {"android": "https://dc.lft.to/lastmile_qr_scan", "ios": "https://dc.lft.to/lastmile_qr_scan"}, "fusion_lat": 0.0, "is_reserved": 0, "lat": 38.91939933333333, "name": "c11de8727ecee7274f027bee6dcbce0c", "bike_id": "c11de8727ecee7274f027bee6dcbce0c", "is_disabled": 0, "fusion_lon": 0.0, "type": "electric_scooter", "lon": -77.04884566666667}, {"rental_uris": {"android": "https://dc.lft.to/lastmile_qr_scan", "ios": "https://dc.lft.to/lastmile_qr_scan"}, "fusion_lat": 0.0, "is_reserved": 0, "lat": 38.923869, "name": "0f154263d7555fb32ff8bb05c84e8bba", "bike_id": "0f154263d7555fb32ff8bb05c84e8bba", "is_disabled": 0, "fusion_lon": 0.0, "type": "electric_scooter", "lon": -77.02690183333333}, {"rental_uris": {"android": "https://dc.lft.to/lastmile_qr_scan", "ios": "https://dc.lft.to/lastmile_qr_scan"}, "fusion_lat": 0.0, "is_reserved": 0, "lat": 38.92613466666667, "name": "84629a37c51f29e7ed6fd2a2993d09f1", "bike_id": "84629a37c51f29e7ed6fd2a2993d09f1", "is_disabled": 0, "fusion_lon": 0.0, "type": "electric_scooter", "lon": -77.021626}, {"rental_uris": {"android": "https://dc.lft.to/lastmile_qr_scan", "ios": "https://dc.lft.to/lastmile_qr_scan"}, "fusion_lat": 0.0, "is_reserved": 0, "lat": 38.89907916666667, "name": "66e9dcf9151b6a05ec0dc53c846578db", "bike_id": "66e9dcf9151b6a05ec0dc53c846578db", "is_disabled": 0, "fusion_lon": 0.0, "type": "electric_scooter", "lon": -76.9857635}, {"rental_uris": {"android": "https://dc.lft.to/lastmile_qr_scan", "ios": "https://dc.lft.to/lastmile_qr_scan"}, "fusion_lat": 0.0, "is_reserved": 0, "lat": 38.92520183333333, "name": "8731520044cc35420ecd7ca145238964", "bike_id": "8731520044cc35420ecd7ca145238964", "is_disabled": 0, "fusion_lon": 0.0, "type": "electric_scooter", "lon": -77.02981233333334}, {"rental_uris": {"android": "https://dc.lft.to/lastmile_qr_scan", "ios": "https://dc.lft.to/lastmile_qr_scan"}, "fusion_lat": 0.0, "is_reserved": 0, "lat": 38.9015635, "name": "e1408867ae90281922d070e8a29583ba", "bike_id": "e1408867ae90281922d070e8a29583ba", "is_disabled": 0, "fusion_lon": 0.0, "type": "electric_scooter", "lon": -76.92134966666667}, {"rental_uris": {"android": "https://dc.lft.to/lastmile_qr_scan", "ios": "https://dc.lft.to/lastmile_qr_scan"}, "fusion_lat": 0.0, "is_reserved": 0, "lat": 38.93612733333333, "name": "0552f5fc5474990b974a11d8a34b6ffa", "bike_id": "0552f5fc5474990b974a11d8a34b6ffa", "is_disabled": 0, "fusion_lon": 0.0, "type": "electric_scooter", "lon": -77.0321605}, {"rental_uris": {"android": "https://dc.lft.to/lastmile_qr_scan", "ios": "https://dc.lft.to/lastmile_qr_scan"}, "fusion_lat": 0.0, "is_reserved": 0, "lat": 38.916034333333336, "name": "00242d15a91eb1ff0a72b9aafa446d2b", "bike_id": "00242d15a91eb1ff0a72b9aafa446d2b", "is_disabled": 0, "fusion_lon": 0.0, "type": "electric_scooter", "lon": -77.02581266666667}, {"rental_uris": {"android": "https://dc.lft.to/lastmile_qr_scan", "ios": "https://dc.lft.to/lastmile_qr_scan"}, "fusion_lat": 0.0, "is_reserved": 0, "lat": 38.876477333333334, "name": "7cb1ffe039fc5fb38315506228763e20", "bike_id": "7cb1ffe039fc5fb38315506228763e20", "is_disabled": 0, "fusion_lon": 0.0, "type": "electric_scooter", "lon": -77.00068833333333}, {"rental_uris": {"android": "https://dc.lft.to/lastmile_qr_scan", "ios": "https://dc.lft.to/lastmile_qr_scan"}, "fusion_lat": 0.0, "is_reserved": 0, "lat": 38.90161233333333, "name": "9a1ba3bfa3bcc47531876ce63a6ef2d7", "bike_id": "9a1ba3bfa3bcc47531876ce63a6ef2d7", "is_disabled": 0, "fusion_lon": 0.0, "type": "electric_scooter", "lon": -77.03766433333334}, {"rental_uris": {"android": "https://dc.lft.to/lastmile_qr_scan", "ios": "https://dc.lft.to/lastmile_qr_scan"}, "fusion_lat": 0.0, "is_reserved": 0, "lat": 38.90129733333333, "name": "6f141cff31c7983dcafab87f9bf4b505", "bike_id": "6f141cff31c7983dcafab87f9bf4b505", "is_disabled": 0, "fusion_lon": 0.0, "type": "electric_scooter", "lon": -77.03179016666667}, {"rental_uris": {"android": "https://dc.lft.to/lastmile_qr_scan", "ios": "https://dc.lft.to/lastmile_qr_scan"}, "fusion_lat": 0.0, "is_reserved": 0, "lat": 38.921566166666665, "name": "6be94b706e3ef7de237e2d51e7036503", "bike_id": "6be94b706e3ef7de237e2d51e7036503", "is_disabled": 0, "fusion_lon": 0.0, "type": "electric_scooter", "lon": -77.03323983333334}, {"rental_uris": {"android": "https://dc.lft.to/lastmile_qr_scan", "ios": "https://dc.lft.to/lastmile_qr_scan"}, "fusion_lat": 0.0, "is_reserved": 0, "lat": 38.92311866666667, "name": "ab33206f1c07d9a58b24cdc4242aaef2", "bike_id": "ab33206f1c07d9a58b24cdc4242aaef2", "is_disabled": 0, "fusion_lon": 0.0, "type": "electric_scooter", "lon": -77.04577966666666}, {"rental_uris": {"android": "https://dc.lft.to/lastmile_qr_scan", "ios": "https://dc.lft.to/lastmile_qr_scan"}, "fusion_lat": 0.0, "is_reserved": 0, "lat": 38.907342, "name": "2aeec677f7d3c9663929db62a7a97fa1", "bike_id": "2aeec677f7d3c9663929db62a7a97fa1", "is_disabled": 0, "fusion_lon": 0.0, "type": "electric_scooter", "lon": -77.008066}, {"rental_uris": {"android": "https://dc.lft.to/lastmile_qr_scan", "ios": "https://dc.lft.to/lastmile_qr_scan"}, "fusion_lat": 0.0, "is_reserved": 0, "lat": 38.9082945, "name": "147e2fe9de8ea399ca924e8f615685c2", "bike_id": "147e2fe9de8ea399ca924e8f615685c2", "is_disabled": 0, "fusion_lon": 0.0, "type": "electric_bike", "lon": -76.9416045}, {"rental_uris": {"android": "https://dc.lft.to/lastmile_qr_scan", "ios": "https://dc.lft.to/lastmile_qr_scan"}, "fusion_lat": 0.0, "is_reserved": 0, "lat": 38.89904633333333, "name": "72bcc6620eee3439c8f8f36566467532", "bike_id": "72bcc6620eee3439c8f8f36566467532", "is_disabled": 0, "fusion_lon": 0.0, "type": "electric_scooter", "lon": -77.0270865}, {"rental_uris": {"android": "https://dc.lft.to/lastmile_qr_scan", "ios": "https://dc.lft.to/lastmile_qr_scan"}, "fusion_lat": 0.0, "is_reserved": 0, "lat": 38.90415933333333, "name": "89b45a30987b78903accc2f8f518a714", "bike_id": "89b45a30987b78903accc2f8f518a714", "is_disabled": 0, "fusion_lon": 0.0, "type": "electric_scooter", "lon": -76.9810955}, {"rental_uris": {"android": "https://dc.lft.to/lastmile_qr_scan", "ios": "https://dc.lft.to/lastmile_qr_scan"}, "fusion_lat": 0.0, "is_reserved": 0, "lat": 38.919177833333336, "name": "7937912082c5ff9a9163edf136350a73", "bike_id": "7937912082c5ff9a9163edf136350a73", "is_disabled": 0, "fusion_lon": 0.0, "type": "electric_scooter", "lon": -77.03185883333333}, {"rental_uris": {"android": "https://dc.lft.to/lastmile_qr_scan", "ios": "https://dc.lft.to/lastmile_qr_scan"}, "fusion_lat": 0.0, "is_reserved": 0, "lat": 38.90686866666667, "name": "d7a8c26887123a395ca2afc5ff0edaa4", "bike_id": "d7a8c26887123a395ca2afc5ff0edaa4", "is_disabled": 0, "fusion_lon": 0.0, "type": "electric_scooter", "lon": -77.01619533333333}, {"rental_uris": {"android": "https://dc.lft.to/lastmile_qr_scan", "ios": "https://dc.lft.to/lastmile_qr_scan"}, "fusion_lat": 0.0, "is_reserved": 0, "lat": 38.9178685, "name": "67c02bc7e8cdc1d4d47c878641018e35", "bike_id": "67c02bc7e8cdc1d4d47c878641018e35", "is_disabled": 0, "fusion_lon": 0.0, "type": "electric_scooter", "lon": -77.0230975}, {"rental_uris": {"android": "https://dc.lft.to/lastmile_qr_scan", "ios": "https://dc.lft.to/lastmile_qr_scan"}, "fusion_lat": 0.0, "is_reserved": 0, "lat": 38.9751065, "name": "e821e2cb5cb5ad669a2b912ae0636383", "bike_id": "e821e2cb5cb5ad669a2b912ae0636383", "is_disabled": 0, "fusion_lon": 0.0, "type": "electric_scooter", "lon": -77.01699216666667}, {"rental_uris": {"android": "https://dc.lft.to/lastmile_qr_scan", "ios": "https://dc.lft.to/lastmile_qr_scan"}, "fusion_lat": 0.0, "is_reserved": 0, "lat": 38.938534, "name": "6d9d2f1aa29fff3a361ba35bf5f455fe", "bike_id": "6d9d2f1aa29fff3a361ba35bf5f455fe", "is_disabled": 0, "fusion_lon": 0.0, "type": "electric_scooter", "lon": -77.02473483333333}, {"rental_uris": {"android": "https://dc.lft.to/lastmile_qr_scan", "ios": "https://dc.lft.to/lastmile_qr_scan"}, "fusion_lat": 0.0, "is_reserved": 0, "lat": 38.92827916666667, "name": "0c1f6a150bf8cd35b44cbc5dd6cb2936", "bike_id": "0c1f6a150bf8cd35b44cbc5dd6cb2936", "is_disabled": 0, "fusion_lon": 0.0, "type": "electric_scooter", "lon": -77.05411883333333}, {"rental_uris": {"android": "https://dc.lft.to/lastmile_qr_scan", "ios": "https://dc.lft.to/lastmile_qr_scan"}, "fusion_lat": 0.0, "is_reserved": 0, "lat": 38.936829333333336, "name": "ac6026793cf427d3e657857697525f50", "bike_id": "ac6026793cf427d3e657857697525f50", "is_disabled": 0, "fusion_lon": 0.0, "type": "electric_scooter", "lon": -77.03635116666666}, {"rental_uris": {"android": "https://dc.lft.to/lastmile_qr_scan", "ios": "https://dc.lft.to/lastmile_qr_scan"}, "fusion_lat": 0.0, "is_reserved": 0, "lat": 38.900829, "name": "ff4481050b4d543c8fd6c7fef009cd81", "bike_id": "ff4481050b4d543c8fd6c7fef009cd81", "is_disabled": 0, "fusion_lon": 0.0, "type": "electric_scooter", "lon": -77.04469583333334}, {"rental_uris": {"android": "https://dc.lft.to/lastmile_qr_scan", "ios": "https://dc.lft.to/lastmile_qr_scan"}, "fusion_lat": 0.0, "is_reserved": 0, "lat": 38.88794683333333, "name": "638bba9c5e6ae0ba3780e288e80796ba", "bike_id": "638bba9c5e6ae0ba3780e288e80796ba", "is_disabled": 0, "fusion_lon": 0.0, "type": "electric_scooter", "lon": -76.97709183333333}, {"rental_uris": {"android": "https://dc.lft.to/lastmile_qr_scan", "ios": "https://dc.lft.to/lastmile_qr_scan"}, "fusion_lat": 0.0, "is_reserved": 0, "lat": 38.899443166666664, "name": "a0fe28f2b192ac119d2bc2d2c9132852", "bike_id": "a0fe28f2b192ac119d2bc2d2c9132852", "is_disabled": 0, "fusion_lon": 0.0, "type": "electric_scooter", "lon": -77.05134966666667}, {"rental_uris": {"android": "https://dc.lft.to/lastmile_qr_scan", "ios": "https://dc.lft.to/lastmile_qr_scan"}, "fusion_lat": 0.0, "is_reserved": 0, "lat": 38.89356566666667, "name": "cab086f02322dcaf2fb5bc7130d86ecf", "bike_id": "cab086f02322dcaf2fb5bc7130d86ecf", "is_disabled": 0, "fusion_lon": 0.0, "type": "electric_scooter", "lon": -77.00337016666667}, {"rental_uris": {"android": "https://dc.lft.to/lastmile_qr_scan", "ios": "https://dc.lft.to/lastmile_qr_scan"}, "fusion_lat": 0.0, "is_reserved": 0, "lat": 38.9031915, "name": "ce5d988bcaf73fb351f610de7c248f72", "bike_id": "ce5d988bcaf73fb351f610de7c248f72", "is_disabled": 0, "fusion_lon": 0.0, "type": "electric_scooter", "lon": -76.98154016666666}, {"rental_uris": {"android": "https://dc.lft.to/lastmile_qr_scan", "ios": "https://dc.lft.to/lastmile_qr_scan"}, "fusion_lat": 0.0, "is_reserved": 0, "lat": 38.924692, "name": "78ec27d419f89730e7c2108ad1f904d4", "bike_id": "78ec27d419f89730e7c2108ad1f904d4", "is_disabled": 0, "fusion_lon": 0.0, "type": "electric_scooter", "lon": -77.05244633333334}, {"rental_uris": {"android": "https://dc.lft.to/lastmile_qr_scan", "ios": "https://dc.lft.to/lastmile_qr_scan"}, "fusion_lat": 0.0, "is_reserved": 0, "lat": 38.89355783333333, "name": "d52e72ed3b48867d385a5ab0ac5fca81", "bike_id": "d52e72ed3b48867d385a5ab0ac5fca81", "is_disabled": 0, "fusion_lon": 0.0, "type": "electric_scooter", "lon": -77.00342066666667}, {"rental_uris": {"android": "https://dc.lft.to/lastmile_qr_scan", "ios": "https://dc.lft.to/lastmile_qr_scan"}, "fusion_lat": 0.0, "is_reserved": 0, "lat": 38.897996166666665, "name": "56b06456141133879fa701c31c59b56d", "bike_id": "56b06456141133879fa701c31c59b56d", "is_disabled": 0, "fusion_lon": 0.0, "type": "electric_scooter", "lon": -77.012211}, {"rental_uris": {"android": "https://dc.lft.to/lastmile_qr_scan", "ios": "https://dc.lft.to/lastmile_qr_scan"}, "fusion_lat": 0.0, "is_reserved": 0, "lat": 38.901680166666665, "name": "80ece9252d719eef1b323ad5331b5a48", "bike_id": "80ece9252d719eef1b323ad5331b5a48", "is_disabled": 0, "fusion_lon": 0.0, "type": "electric_scooter", "lon": -76.93023566666666}, {"rental_uris": {"android": "https://dc.lft.to/lastmile_qr_scan", "ios": "https://dc.lft.to/lastmile_qr_scan"}, "fusion_lat": 0.0, "is_reserved": 0, "lat": 38.80730616666666, "name": "5c490090805a13db5658ba03f9538494", "bike_id": "5c490090805a13db5658ba03f9538494", "is_disabled": 0, "fusion_lon": 0.0, "type": "electric_bike", "lon": -76.99256766666667}, {"rental_uris": {"android": "https://dc.lft.to/lastmile_qr_scan", "ios": "https://dc.lft.to/lastmile_qr_scan"}, "fusion_lat": 0.0, "is_reserved": 0, "lat": 38.879952833333334, "name": "87b9a903590a62252ef1600874834b8a", "bike_id": "87b9a903590a62252ef1600874834b8a", "is_disabled": 0, "fusion_lon": 0.0, "type": "electric_scooter", "lon": -77.03741516666666}, {"rental_uris": {"android": "https://dc.lft.to/lastmile_qr_scan", "ios": "https://dc.lft.to/lastmile_qr_scan"}, "fusion_lat": 0.0, "is_reserved": 0, "lat": 38.9360445, "name": "c8411a5fc1f62c26e4ec893935d4c86d", "bike_id": "c8411a5fc1f62c26e4ec893935d4c86d", "is_disabled": 0, "fusion_lon": 0.0, "type": "electric_scooter", "lon": -77.05892416666667}, {"rental_uris": {"android": "https://dc.lft.to/lastmile_qr_scan", "ios": "https://dc.lft.to/lastmile_qr_scan"}, "fusion_lat": 0.0, "is_reserved": 0, "lat": 38.918871833333334, "name": "a43dde3b76244d26f238972cac6bf88b", "bike_id": "a43dde3b76244d26f238972cac6bf88b", "is_disabled": 0, "fusion_lon": 0.0, "type": "electric_scooter", "lon": -77.02718016666667}, {"rental_uris": {"android": "https://dc.lft.to/lastmile_qr_scan", "ios": "https://dc.lft.to/lastmile_qr_scan"}, "fusion_lat": 0.0, "is_reserved": 0, "lat": 38.90551716666667, "name": "393701807a73aa790df0ef40e67f0862", "bike_id": "393701807a73aa790df0ef40e67f0862", "is_disabled": 0, "fusion_lon": 0.0, "type": "electric_scooter", "lon": -77.03558833333334}, {"rental_uris": {"android": "https://dc.lft.to/lastmile_qr_scan", "ios": "https://dc.lft.to/lastmile_qr_scan"}, "fusion_lat": 0.0, "is_reserved": 0, "lat": 38.886874666666664, "name": "f28d2a70aa2cfe17df0f9077d19ad59a", "bike_id": "f28d2a70aa2cfe17df0f9077d19ad59a", "is_disabled": 0, "fusion_lon": 0.0, "type": "electric_scooter", "lon": -77.01389466666667}, {"rental_uris": {"android": "https://dc.lft.to/lastmile_qr_scan", "ios": "https://dc.lft.to/lastmile_qr_scan"}, "fusion_lat": 0.0, "is_reserved": 0, "lat": 38.926118333333335, "name": "bc0e9f996f6e7d6c8cdecbde578cb9be", "bike_id": "bc0e9f996f6e7d6c8cdecbde578cb9be", "is_disabled": 0, "fusion_lon": 0.0, "type": "electric_scooter", "lon": -77.02163016666667}, {"rental_uris": {"android": "https://dc.lft.to/lastmile_qr_scan", "ios": "https://dc.lft.to/lastmile_qr_scan"}, "fusion_lat": 0.0, "is_reserved": 0, "lat": 38.915425166666665, "name": "60159a080cf4a02109af9221341fd2aa", "bike_id": "60159a080cf4a02109af9221341fd2aa", "is_disabled": 0, "fusion_lon": 0.0, "type": "electric_scooter", "lon": -77.0281925}, {"rental_uris": {"android": "https://dc.lft.to/lastmile_qr_scan", "ios": "https://dc.lft.to/lastmile_qr_scan"}, "fusion_lat": 0.0, "is_reserved": 0, "lat": 38.92722833333333, "name": "5b2deca94f7e9045ce61a313499a4612", "bike_id": "5b2deca94f7e9045ce61a313499a4612", "is_disabled": 0, "fusion_lon": 0.0, "type": "electric_scooter", "lon": -77.029662}, {"rental_uris": {"android": "https://dc.lft.to/lastmile_qr_scan", "ios": "https://dc.lft.to/lastmile_qr_scan"}, "fusion_lat": 0.0, "is_reserved": 0, "lat": 38.9096275, "name": "b0e1c37b626fdae156896a3fae693b6c", "bike_id": "b0e1c37b626fdae156896a3fae693b6c", "is_disabled": 0, "fusion_lon": 0.0, "type": "electric_scooter", "lon": -77.02287}, {"rental_uris": {"android": "https://dc.lft.to/lastmile_qr_scan", "ios": "https://dc.lft.to/lastmile_qr_scan"}, "fusion_lat": 0.0, "is_reserved": 0, "lat": 38.89827666666667, "name": "1845c4ccab311151bcef9ba2c906afd2", "bike_id": "1845c4ccab311151bcef9ba2c906afd2", "is_disabled": 0, "fusion_lon": 0.0, "type": "electric_scooter", "lon": -77.04613683333334}, {"rental_uris": {"android": "https://dc.lft.to/lastmile_qr_scan", "ios": "https://dc.lft.to/lastmile_qr_scan"}, "fusion_lat": 0.0, "is_reserved": 0, "lat": 38.92155133333333, "name": "9b7c5a365634995c73bbbd147076476b", "bike_id": "9b7c5a365634995c73bbbd147076476b", "is_disabled": 0, "fusion_lon": 0.0, "type": "electric_scooter", "lon": -77.03465183333333}, {"rental_uris": {"android": "https://dc.lft.to/lastmile_qr_scan", "ios": "https://dc.lft.to/lastmile_qr_scan"}, "fusion_lat": 0.0, "is_reserved": 0, "lat": 38.92352566666667, "name": "91d0156723cc6e833f6e6d8d2a793d6a", "bike_id": "91d0156723cc6e833f6e6d8d2a793d6a", "is_disabled": 0, "fusion_lon": 0.0, "type": "electric_scooter", "lon": -77.03370466666667}, {"rental_uris": {"android": "https://dc.lft.to/lastmile_qr_scan", "ios": "https://dc.lft.to/lastmile_qr_scan"}, "fusion_lat": 0.0, "is_reserved": 0, "lat": 38.896331333333336, "name": "359cad274ec223ce2c0afa92e7abf54f", "bike_id": "359cad274ec223ce2c0afa92e7abf54f", "is_disabled": 0, "fusion_lon": 0.0, "type": "electric_scooter", "lon": -77.046496}, {"rental_uris": {"android": "https://dc.lft.to/lastmile_qr_scan", "ios": "https://dc.lft.to/lastmile_qr_scan"}, "fusion_lat": 0.0, "is_reserved": 0, "lat": 38.935333, "name": "946ac8d8816485be369d2f975d1deb68", "bike_id": "946ac8d8816485be369d2f975d1deb68", "is_disabled": 0, "fusion_lon": 0.0, "type": "electric_scooter", "lon": -77.023645}, {"rental_uris": {"android": "https://dc.lft.to/lastmile_qr_scan", "ios": "https://dc.lft.to/lastmile_qr_scan"}, "fusion_lat": 0.0, "is_reserved": 0, "lat": 38.924442166666665, "name": "dc1da62ef43376f77a97f55aaaaa7070", "bike_id": "dc1da62ef43376f77a97f55aaaaa7070", "is_disabled": 0, "fusion_lon": 0.0, "type": "electric_scooter", "lon": -77.03403533333334}, {"rental_uris": {"android": "https://dc.lft.to/lastmile_qr_scan", "ios": "https://dc.lft.to/lastmile_qr_scan"}, "fusion_lat": 0.0, "is_reserved": 0, "lat": 38.87654633333333, "name": "986bfaeed94e1c6673a94e84e46c5860", "bike_id": "986bfaeed94e1c6673a94e84e46c5860", "is_disabled": 0, "fusion_lon": 0.0, "type": "electric_scooter", "lon": -77.0026025}, {"rental_uris": {"android": "https://dc.lft.to/lastmile_qr_scan", "ios": "https://dc.lft.to/lastmile_qr_scan"}, "fusion_lat": 0.0, "is_reserved": 0, "lat": 38.917661333333335, "name": "3c6ee43304918f3d891ca780d2a50fdf", "bike_id": "3c6ee43304918f3d891ca780d2a50fdf", "is_disabled": 0, "fusion_lon": 0.0, "type": "electric_scooter", "lon": -77.01493833333333}, {"rental_uris": {"android": "https://dc.lft.to/lastmile_qr_scan", "ios": "https://dc.lft.to/lastmile_qr_scan"}, "fusion_lat": 0.0, "is_reserved": 0, "lat": 38.89421433333333, "name": "2e48e23b1f85a20244ba832c44e078af", "bike_id": "2e48e23b1f85a20244ba832c44e078af", "is_disabled": 0, "fusion_lon": 0.0, "type": "electric_scooter", "lon": -76.99775233333334}, {"rental_uris": {"android": "https://dc.lft.to/lastmile_qr_scan", "ios": "https://dc.lft.to/lastmile_qr_scan"}, "fusion_lat": 0.0, "is_reserved": 0, "lat": 38.912592, "name": "3121d06d2e55556783dcf7e9e9a297b6", "bike_id": "3121d06d2e55556783dcf7e9e9a297b6", "is_disabled": 0, "fusion_lon": 0.0, "type": "electric_scooter", "lon": -77.03815333333333}, {"rental_uris": {"android": "https://dc.lft.to/lastmile_qr_scan", "ios": "https://dc.lft.to/lastmile_qr_scan"}, "fusion_lat": 0.0, "is_reserved": 0, "lat": 39.03815183333333, "name": "a6b1924386b418fe0f8cf7b141097b4e", "bike_id": "a6b1924386b418fe0f8cf7b141097b4e", "is_disabled": 0, "fusion_lon": 0.0, "type": "electric_bike", "lon": -77.04228783333333}, {"rental_uris": {"android": "https://dc.lft.to/lastmile_qr_scan", "ios": "https://dc.lft.to/lastmile_qr_scan"}, "fusion_lat": 0.0, "is_reserved": 0, "lat": 38.90242966666667, "name": "1537bfc349b4fa16ffd27da64c6e9ab6", "bike_id": "1537bfc349b4fa16ffd27da64c6e9ab6", "is_disabled": 0, "fusion_lon": 0.0, "type": "electric_scooter", "lon": -76.97416216666667}, {"rental_uris": {"android": "https://dc.lft.to/lastmile_qr_scan", "ios": "https://dc.lft.to/lastmile_qr_scan"}, "fusion_lat": 0.0, "is_reserved": 0, "lat": 38.919554833333336, "name": "7e3f567b07baa237d2508a25eb944017", "bike_id": "7e3f567b07baa237d2508a25eb944017", "is_disabled": 0, "fusion_lon": 0.0, "type": "electric_scooter", "lon": -77.07870916666667}, {"rental_uris": {"android": "https://dc.lft.to/lastmile_qr_scan", "ios": "https://dc.lft.to/lastmile_qr_scan"}, "fusion_lat": 0.0, "is_reserved": 0, "lat": 38.89195333333333, "name": "bdb090fdf54d90b1535ce294faead68a", "bike_id": "bdb090fdf54d90b1535ce294faead68a", "is_disabled": 0, "fusion_lon": 0.0, "type": "electric_scooter", "lon": -77.02220566666666}, {"rental_uris": {"android": "https://dc.lft.to/lastmile_qr_scan", "ios": "https://dc.lft.to/lastmile_qr_scan"}, "fusion_lat": 0.0, "is_reserved": 0, "lat": 38.892225333333336, "name": "399c77e8177bef66f8fe855e0065603a", "bike_id": "399c77e8177bef66f8fe855e0065603a", "is_disabled": 0, "fusion_lon": 0.0, "type": "electric_scooter", "lon": -77.04368416666667}, {"rental_uris": {"android": "https://dc.lft.to/lastmile_qr_scan", "ios": "https://dc.lft.to/lastmile_qr_scan"}, "fusion_lat": 0.0, "is_reserved": 0, "lat": 38.92440533333333, "name": "8d7bafb0a25f312907e5e2686f1d62a2", "bike_id": "8d7bafb0a25f312907e5e2686f1d62a2", "is_disabled": 0, "fusion_lon": 0.0, "type": "electric_scooter", "lon": -77.03404316666666}, {"rental_uris": {"android": "https://dc.lft.to/lastmile_qr_scan", "ios": "https://dc.lft.to/lastmile_qr_scan"}, "fusion_lat": 0.0, "is_reserved": 0, "lat": 38.882242833333336, "name": "52e7d2848e2dec97861feebc3f69d0f8", "bike_id": "52e7d2848e2dec97861feebc3f69d0f8", "is_disabled": 0, "fusion_lon": 0.0, "type": "electric_scooter", "lon": -76.93904933333333}, {"rental_uris": {"android": "https://dc.lft.to/lastmile_qr_scan", "ios": "https://dc.lft.to/lastmile_qr_scan"}, "fusion_lat": 0.0, "is_reserved": 0, "lat": 38.917782333333335, "name": "2b59a2f2feb2d35b455dbb9f533178bc", "bike_id": "2b59a2f2feb2d35b455dbb9f533178bc", "is_disabled": 0, "fusion_lon": 0.0, "type": "electric_scooter", "lon": -77.02822516666667}, {"rental_uris": {"android": "https://dc.lft.to/lastmile_qr_scan", "ios": "https://dc.lft.to/lastmile_qr_scan"}, "fusion_lat": 0.0, "is_reserved": 0, "lat": 38.92614566666666, "name": "b62229b0e432c0e9ecd786cc2c95f147", "bike_id": "b62229b0e432c0e9ecd786cc2c95f147", "is_disabled": 0, "fusion_lon": 0.0, "type": "electric_scooter", "lon": -77.021579}, {"rental_uris": {"android": "https://dc.lft.to/lastmile_qr_scan", "ios": "https://dc.lft.to/lastmile_qr_scan"}, "fusion_lat": 0.0, "is_reserved": 0, "lat": 38.930189, "name": "edc8367695b614d33d013693714ae9c8", "bike_id": "edc8367695b614d33d013693714ae9c8", "is_disabled": 0, "fusion_lon": 0.0, "type": "electric_scooter", "lon": -77.03661116666666}, {"rental_uris": {"android": "https://dc.lft.to/lastmile_qr_scan", "ios": "https://dc.lft.to/lastmile_qr_scan"}, "fusion_lat": 0.0, "is_reserved": 0, "lat": 38.894835666666665, "name": "ae6b7c234bd3fefb980cc7e41f6a51b5", "bike_id": "ae6b7c234bd3fefb980cc7e41f6a51b5", "is_disabled": 0, "fusion_lon": 0.0, "type": "electric_scooter", "lon": -76.99576033333334}, {"rental_uris": {"android": "https://dc.lft.to/lastmile_qr_scan", "ios": "https://dc.lft.to/lastmile_qr_scan"}, "fusion_lat": 0.0, "is_reserved": 0, "lat": 38.8649115, "name": "fa34cef0d96f298f8fc60713e448cbcc", "bike_id": "fa34cef0d96f298f8fc60713e448cbcc", "is_disabled": 0, "fusion_lon": 0.0, "type": "electric_scooter", "lon": -76.977479}, {"rental_uris": {"android": "https://dc.lft.to/lastmile_qr_scan", "ios": "https://dc.lft.to/lastmile_qr_scan"}, "fusion_lat": 0.0, "is_reserved": 0, "lat": 38.881246, "name": "a66396dbec81e2ae15ee11cf86a5f787", "bike_id": "a66396dbec81e2ae15ee11cf86a5f787", "is_disabled": 0, "fusion_lon": 0.0, "type": "electric_scooter", "lon": -77.00098183333333}, {"rental_uris": {"android": "https://dc.lft.to/lastmile_qr_scan", "ios": "https://dc.lft.to/lastmile_qr_scan"}, "fusion_lat": 0.0, "is_reserved": 0, "lat": 38.944997, "name": "d6a040e3386c383e3f0fdd650477ce4d", "bike_id": "d6a040e3386c383e3f0fdd650477ce4d", "is_disabled": 0, "fusion_lon": 0.0, "type": "electric_bike", "lon": -77.00508883333333}, {"rental_uris": {"android": "https://dc.lft.to/lastmile_qr_scan", "ios": "https://dc.lft.to/lastmile_qr_scan"}, "fusion_lat": 0.0, "is_reserved": 0, "lat": 38.91899133333333, "name": "138599b91b81987debcfd2d1313f8af9", "bike_id": "138599b91b81987debcfd2d1313f8af9", "is_disabled": 0, "fusion_lon": 0.0, "type": "electric_scooter", "lon": -77.02383216666666}, {"rental_uris": {"android": "https://dc.lft.to/lastmile_qr_scan", "ios": "https://dc.lft.to/lastmile_qr_scan"}, "fusion_lat": 0.0, "is_reserved": 0, "lat": 38.92172733333334, "name": "2893167cf7dad8e0495ba24252bf520e", "bike_id": "2893167cf7dad8e0495ba24252bf520e", "is_disabled": 0, "fusion_lon": 0.0, "type": "electric_scooter", "lon": -77.02666033333334}, {"rental_uris": {"android": "https://dc.lft.to/lastmile_qr_scan", "ios": "https://dc.lft.to/lastmile_qr_scan"}, "fusion_lat": 0.0, "is_reserved": 0, "lat": 38.893525333333336, "name": "dd471e8faef56c82adb931c3429001c6", "bike_id": "dd471e8faef56c82adb931c3429001c6", "is_disabled": 0, "fusion_lon": 0.0, "type": "electric_scooter", "lon": -77.01742766666666}, {"rental_uris": {"android": "https://dc.lft.to/lastmile_qr_scan", "ios": "https://dc.lft.to/lastmile_qr_scan"}, "fusion_lat": 0.0, "is_reserved": 0, "lat": 38.935904666666666, "name": "5517a4f4d53fca0e8a7fe2afd455a04b", "bike_id": "5517a4f4d53fca0e8a7fe2afd455a04b", "is_disabled": 0, "fusion_lon": 0.0, "type": "electric_scooter", "lon": -77.03375116666666}, {"rental_uris": {"android": "https://dc.lft.to/lastmile_qr_scan", "ios": "https://dc.lft.to/lastmile_qr_scan"}, "fusion_lat": 0.0, "is_reserved": 0, "lat": 38.9003345, "name": "3671c573044e2618e9d60199d1fa4e07", "bike_id": "3671c573044e2618e9d60199d1fa4e07", "is_disabled": 0, "fusion_lon": 0.0, "type": "electric_scooter", "lon": -76.988303}, {"rental_uris": {"android": "https://dc.lft.to/lastmile_qr_scan", "ios": "https://dc.lft.to/lastmile_qr_scan"}, "fusion_lat": 0.0, "is_reserved": 0, "lat": 38.910681333333336, "name": "1c37fba7888a76df7e840cd9db347902", "bike_id": "1c37fba7888a76df7e840cd9db347902", "is_disabled": 0, "fusion_lon": 0.0, "type": "electric_scooter", "lon": -77.04606666666666}, {"rental_uris": {"android": "https://dc.lft.to/lastmile_qr_scan", "ios": "https://dc.lft.to/lastmile_qr_scan"}, "fusion_lat": 0.0, "is_reserved": 0, "lat": 38.917630833333334, "name": "f605fcc10095f3fd42e16fc17079588c", "bike_id": "f605fcc10095f3fd42e16fc17079588c", "is_disabled": 0, "fusion_lon": 0.0, "type": "electric_scooter", "lon": -77.0192195}, {"rental_uris": {"android": "https://dc.lft.to/lastmile_qr_scan", "ios": "https://dc.lft.to/lastmile_qr_scan"}, "fusion_lat": 0.0, "is_reserved": 0, "lat": 38.91996133333333, "name": "add731abf4ff398cf52227342cb3a442", "bike_id": "add731abf4ff398cf52227342cb3a442", "is_disabled": 0, "fusion_lon": 0.0, "type": "electric_scooter", "lon": -77.03219883333334}, {"rental_uris": {"android": "https://dc.lft.to/lastmile_qr_scan", "ios": "https://dc.lft.to/lastmile_qr_scan"}, "fusion_lat": 0.0, "is_reserved": 0, "lat": 38.905649833333335, "name": "518f43d675723b9753280c961ee0fef9", "bike_id": "518f43d675723b9753280c961ee0fef9", "is_disabled": 0, "fusion_lon": 0.0, "type": "electric_scooter", "lon": -77.03467433333333}, {"rental_uris": {"android": "https://dc.lft.to/lastmile_qr_scan", "ios": "https://dc.lft.to/lastmile_qr_scan"}, "fusion_lat": 0.0, "is_reserved": 0, "lat": 38.90724066666667, "name": "1b2fc7d6d595be4383f382c95a20e5b1", "bike_id": "1b2fc7d6d595be4383f382c95a20e5b1", "is_disabled": 0, "fusion_lon": 0.0, "type": "electric_scooter", "lon": -77.0268185}, {"rental_uris": {"android": "https://dc.lft.to/lastmile_qr_scan", "ios": "https://dc.lft.to/lastmile_qr_scan"}, "fusion_lat": 0.0, "is_reserved": 0, "lat": 38.92695116666667, "name": "c0c019c2af459ce557d9c8cb51611f59", "bike_id": "c0c019c2af459ce557d9c8cb51611f59", "is_disabled": 0, "fusion_lon": 0.0, "type": "electric_scooter", "lon": -77.01498416666666}, {"rental_uris": {"android": "https://dc.lft.to/lastmile_qr_scan", "ios": "https://dc.lft.to/lastmile_qr_scan"}, "fusion_lat": 0.0, "is_reserved": 0, "lat": 38.93599566666666, "name": "f4e8e36b3082c3968c4bc5e663401e80", "bike_id": "f4e8e36b3082c3968c4bc5e663401e80", "is_disabled": 0, "fusion_lon": 0.0, "type": "electric_scooter", "lon": -77.05874433333334}, {"rental_uris": {"android": "https://dc.lft.to/lastmile_qr_scan", "ios": "https://dc.lft.to/lastmile_qr_scan"}, "fusion_lat": 0.0, "is_reserved": 0, "lat": 38.90126333333333, "name": "40d8bd8334867a388862a52084fe15c8", "bike_id": "40d8bd8334867a388862a52084fe15c8", "is_disabled": 0, "fusion_lon": 0.0, "type": "electric_scooter", "lon": -77.030489}, {"rental_uris": {"android": "https://dc.lft.to/lastmile_qr_scan", "ios": "https://dc.lft.to/lastmile_qr_scan"}, "fusion_lat": 0.0, "is_reserved": 0, "lat": 38.915407, "name": "51bd68d81128672b51313d49d0c49e9b", "bike_id": "51bd68d81128672b51313d49d0c49e9b", "is_disabled": 0, "fusion_lon": 0.0, "type": "electric_scooter", "lon": -77.02973266666666}, {"rental_uris": {"android": "https://dc.lft.to/lastmile_qr_scan", "ios": "https://dc.lft.to/lastmile_qr_scan"}, "fusion_lat": 0.0, "is_reserved": 0, "lat": 38.897125, "name": "3c8fa9db35ce3d78b10928b9c41ff498", "bike_id": "3c8fa9db35ce3d78b10928b9c41ff498", "is_disabled": 0, "fusion_lon": 0.0, "type": "electric_scooter", "lon": -77.02193316666667}, {"rental_uris": {"android": "https://dc.lft.to/lastmile_qr_scan", "ios": "https://dc.lft.to/lastmile_qr_scan"}, "fusion_lat": 0.0, "is_reserved": 0, "lat": 38.880783, "name": "61de716a1a1a92a3cd578a0e58ed43b4", "bike_id": "61de716a1a1a92a3cd578a0e58ed43b4", "is_disabled": 0, "fusion_lon": 0.0, "type": "electric_scooter", "lon": -76.9853775}, {"rental_uris": {"android": "https://dc.lft.to/lastmile_qr_scan", "ios": "https://dc.lft.to/lastmile_qr_scan"}, "fusion_lat": 0.0, "is_reserved": 0, "lat": 38.902128166666664, "name": "4cd115352d435cf090c87ea4cd9803f6", "bike_id": "4cd115352d435cf090c87ea4cd9803f6", "is_disabled": 0, "fusion_lon": 0.0, "type": "electric_scooter", "lon": -77.02091116666666}, {"rental_uris": {"android": "https://dc.lft.to/lastmile_qr_scan", "ios": "https://dc.lft.to/lastmile_qr_scan"}, "fusion_lat": 0.0, "is_reserved": 0, "lat": 38.901259333333336, "name": "2069de8229f18c7832951527a619b70b", "bike_id": "2069de8229f18c7832951527a619b70b", "is_disabled": 0, "fusion_lon": 0.0, "type": "electric_scooter", "lon": -77.05003116666667}, {"rental_uris": {"android": "https://dc.lft.to/lastmile_qr_scan", "ios": "https://dc.lft.to/lastmile_qr_scan"}, "fusion_lat": 0.0, "is_reserved": 0, "lat": 38.908221833333336, "name": "1bc3084a853531e5a32ebb1abbcecf60", "bike_id": "1bc3084a853531e5a32ebb1abbcecf60", "is_disabled": 0, "fusion_lon": 0.0, "type": "electric_scooter", "lon": -77.00371083333333}, {"rental_uris": {"android": "https://dc.lft.to/lastmile_qr_scan", "ios": "https://dc.lft.to/lastmile_qr_scan"}, "fusion_lat": 0.0, "is_reserved": 0, "lat": 38.90691866666667, "name": "1e713550d65d5f92eb510f6025f640f3", "bike_id": "1e713550d65d5f92eb510f6025f640f3", "is_disabled": 0, "fusion_lon": 0.0, "type": "electric_scooter", "lon": -77.03585866666667}, {"rental_uris": {"android": "https://dc.lft.to/lastmile_qr_scan", "ios": "https://dc.lft.to/lastmile_qr_scan"}, "fusion_lat": 0.0, "is_reserved": 0, "lat": 38.90674833333333, "name": "667a88be2e489902e968d0c209845366", "bike_id": "667a88be2e489902e968d0c209845366", "is_disabled": 0, "fusion_lon": 0.0, "type": "electric_scooter", "lon": -77.02694883333334}, {"rental_uris": {"android": "https://dc.lft.to/lastmile_qr_scan", "ios": "https://dc.lft.to/lastmile_qr_scan"}, "fusion_lat": 0.0, "is_reserved": 0, "lat": 38.949124166666664, "name": "a079353dd6ad25040586696585556e61", "bike_id": "a079353dd6ad25040586696585556e61", "is_disabled": 0, "fusion_lon": 0.0, "type": "electric_scooter", "lon": -77.02069866666666}, {"rental_uris": {"android": "https://dc.lft.to/lastmile_qr_scan", "ios": "https://dc.lft.to/lastmile_qr_scan"}, "fusion_lat": 0.0, "is_reserved": 0, "lat": 38.901547, "name": "b8ea99f3aea1730a249686cf73956690", "bike_id": "b8ea99f3aea1730a249686cf73956690", "is_disabled": 0, "fusion_lon": 0.0, "type": "electric_scooter", "lon": -77.0248175}, {"rental_uris": {"android": "https://dc.lft.to/lastmile_qr_scan", "ios": "https://dc.lft.to/lastmile_qr_scan"}, "fusion_lat": 0.0, "is_reserved": 0, "lat": 38.912619666666664, "name": "9a6e9f05ac0a40f7c53e91e512301a90", "bike_id": "9a6e9f05ac0a40f7c53e91e512301a90", "is_disabled": 0, "fusion_lon": 0.0, "type": "electric_scooter", "lon": -77.03934683333334}, {"rental_uris": {"android": "https://dc.lft.to/lastmile_qr_scan", "ios": "https://dc.lft.to/lastmile_qr_scan"}, "fusion_lat": 0.0, "is_reserved": 0, "lat": 38.88270266666667, "name": "7cecf5c28dc4ce66cffccbe954288684", "bike_id": "7cecf5c28dc4ce66cffccbe954288684", "is_disabled": 0, "fusion_lon": 0.0, "type": "electric_scooter", "lon": -76.99471866666667}, {"rental_uris": {"android": "https://dc.lft.to/lastmile_qr_scan", "ios": "https://dc.lft.to/lastmile_qr_scan"}, "fusion_lat": 0.0, "is_reserved": 0, "lat": 38.9065045, "name": "e5552c08007e9808814a51131a97e6d6", "bike_id": "e5552c08007e9808814a51131a97e6d6", "is_disabled": 0, "fusion_lon": 0.0, "type": "electric_scooter", "lon": -77.053235}, {"rental_uris": {"android": "https://dc.lft.to/lastmile_qr_scan", "ios": "https://dc.lft.to/lastmile_qr_scan"}, "fusion_lat": 0.0, "is_reserved": 0, "lat": 38.92237816666667, "name": "5faf15f319dd2154c7aff7bdfd18d023", "bike_id": "5faf15f319dd2154c7aff7bdfd18d023", "is_disabled": 0, "fusion_lon": 0.0, "type": "electric_scooter", "lon": -77.0352635}, {"rental_uris": {"android": "https://dc.lft.to/lastmile_qr_scan", "ios": "https://dc.lft.to/lastmile_qr_scan"}, "fusion_lat": 0.0, "is_reserved": 0, "lat": 38.9223965, "name": "3221a6c6335307fc0ddb7cbd3cc065e2", "bike_id": "3221a6c6335307fc0ddb7cbd3cc065e2", "is_disabled": 0, "fusion_lon": 0.0, "type": "electric_scooter", "lon": -77.0366485}, {"rental_uris": {"android": "https://dc.lft.to/lastmile_qr_scan", "ios": "https://dc.lft.to/lastmile_qr_scan"}, "fusion_lat": 0.0, "is_reserved": 0, "lat": 38.80383166666667, "name": "7faa05b4faf3a5704028040882513e5b", "bike_id": "7faa05b4faf3a5704028040882513e5b", "is_disabled": 0, "fusion_lon": 0.0, "type": "electric_bike", "lon": -76.98818916666667}, {"rental_uris": {"android": "https://dc.lft.to/lastmile_qr_scan", "ios": "https://dc.lft.to/lastmile_qr_scan"}, "fusion_lat": 0.0, "is_reserved": 0, "lat": 38.918306666666666, "name": "d2a6d6172c5e49aefe49e317def54aad", "bike_id": "d2a6d6172c5e49aefe49e317def54aad", "is_disabled": 0, "fusion_lon": 0.0, "type": "electric_scooter", "lon": -77.03179933333334}, {"rental_uris": {"android": "https://dc.lft.to/lastmile_qr_scan", "ios": "https://dc.lft.to/lastmile_qr_scan"}, "fusion_lat": 0.0, "is_reserved": 0, "lat": 38.895342166666666, "name": "d8ba06f34e5faace58200b612b8ea9a8", "bike_id": "d8ba06f34e5faace58200b612b8ea9a8", "is_disabled": 0, "fusion_lon": 0.0, "type": "electric_scooter", "lon": -76.94888833333333}, {"rental_uris": {"android": "https://dc.lft.to/lastmile_qr_scan", "ios": "https://dc.lft.to/lastmile_qr_scan"}, "fusion_lat": 0.0, "is_reserved": 0, "lat": 38.895010666666664, "name": "acbd2a1f2ac9b6c5e1ec8d86da04239f", "bike_id": "acbd2a1f2ac9b6c5e1ec8d86da04239f", "is_disabled": 0, "fusion_lon": 0.0, "type": "electric_scooter", "lon": -76.934784}, {"rental_uris": {"android": "https://dc.lft.to/lastmile_qr_scan", "ios": "https://dc.lft.to/lastmile_qr_scan"}, "fusion_lat": 0.0, "is_reserved": 0, "lat": 38.89368183333333, "name": "63037cb1b168d06c17b6967275a32641", "bike_id": "63037cb1b168d06c17b6967275a32641", "is_disabled": 0, "fusion_lon": 0.0, "type": "electric_scooter", "lon": -76.93596516666666}, {"rental_uris": {"android": "https://dc.lft.to/lastmile_qr_scan", "ios": "https://dc.lft.to/lastmile_qr_scan"}, "fusion_lat": 0.0, "is_reserved": 0, "lat": 38.89224, "name": "fd3602c54bb83cf31772f495e65fe075", "bike_id": "fd3602c54bb83cf31772f495e65fe075", "is_disabled": 0, "fusion_lon": 0.0, "type": "electric_scooter", "lon": -77.04086833333334}, {"rental_uris": {"android": "https://dc.lft.to/lastmile_qr_scan", "ios": "https://dc.lft.to/lastmile_qr_scan"}, "fusion_lat": 0.0, "is_reserved": 0, "lat": 38.8666165, "name": "f6f3e9093565e2d3a9f6b7c3ce03271a", "bike_id": "f6f3e9093565e2d3a9f6b7c3ce03271a", "is_disabled": 0, "fusion_lon": 0.0, "type": "electric_scooter", "lon": -76.97912533333333}, {"rental_uris": {"android": "https://dc.lft.to/lastmile_qr_scan", "ios": "https://dc.lft.to/lastmile_qr_scan"}, "fusion_lat": 0.0, "is_reserved": 0, "lat": 38.913228, "name": "6d1f0cb1124faf2f7312f40349d6026b", "bike_id": "6d1f0cb1124faf2f7312f40349d6026b", "is_disabled": 0, "fusion_lon": 0.0, "type": "electric_scooter", "lon": -77.01658333333333}, {"rental_uris": {"android": "https://dc.lft.to/lastmile_qr_scan", "ios": "https://dc.lft.to/lastmile_qr_scan"}, "fusion_lat": 0.0, "is_reserved": 0, "lat": 38.974962166666664, "name": "fde7597e8f0a82bb2230f14407f20d2e", "bike_id": "fde7597e8f0a82bb2230f14407f20d2e", "is_disabled": 0, "fusion_lon": 0.0, "type": "electric_scooter", "lon": -77.0169765}, {"rental_uris": {"android": "https://dc.lft.to/lastmile_qr_scan", "ios": "https://dc.lft.to/lastmile_qr_scan"}, "fusion_lat": 0.0, "is_reserved": 0, "lat": 38.892242833333334, "name": "b6354084242204a0e9bcd656f2264b59", "bike_id": "b6354084242204a0e9bcd656f2264b59", "is_disabled": 0, "fusion_lon": 0.0, "type": "electric_scooter", "lon": -77.04503416666667}, {"rental_uris": {"android": "https://dc.lft.to/lastmile_qr_scan", "ios": "https://dc.lft.to/lastmile_qr_scan"}, "fusion_lat": 0.0, "is_reserved": 0, "lat": 38.879143, "name": "dffbe5d8ceb7a7e422649101c5a6314a", "bike_id": "dffbe5d8ceb7a7e422649101c5a6314a", "is_disabled": 0, "fusion_lon": 0.0, "type": "electric_scooter", "lon": -77.02159116666667}, {"rental_uris": {"android": "https://dc.lft.to/lastmile_qr_scan", "ios": "https://dc.lft.to/lastmile_qr_scan"}, "fusion_lat": 0.0, "is_reserved": 0, "lat": 38.943835666666665, "name": "bb63ff07cafbd7e33d3b08068d4a50d0", "bike_id": "bb63ff07cafbd7e33d3b08068d4a50d0", "is_disabled": 0, "fusion_lon": 0.0, "type": "electric_bike", "lon": -77.0235355}, {"rental_uris": {"android": "https://dc.lft.to/lastmile_qr_scan", "ios": "https://dc.lft.to/lastmile_qr_scan"}, "fusion_lat": 0.0, "is_reserved": 0, "lat": 38.91325233333333, "name": "8e3e111492978538f04f363b6cbe7dd0", "bike_id": "8e3e111492978538f04f363b6cbe7dd0", "is_disabled": 0, "fusion_lon": 0.0, "type": "electric_scooter", "lon": -77.01501416666666}, {"rental_uris": {"android": "https://dc.lft.to/lastmile_qr_scan", "ios": "https://dc.lft.to/lastmile_qr_scan"}, "fusion_lat": 0.0, "is_reserved": 0, "lat": 38.901896, "name": "431c2a054cfc9d4dee58745d182694e2", "bike_id": "431c2a054cfc9d4dee58745d182694e2", "is_disabled": 0, "fusion_lon": 0.0, "type": "electric_scooter", "lon": -77.02176966666667}, {"rental_uris": {"android": "https://dc.lft.to/lastmile_qr_scan", "ios": "https://dc.lft.to/lastmile_qr_scan"}, "fusion_lat": 0.0, "is_reserved": 0, "lat": 38.91449133333333, "name": "18e86c65373cb2036edf41a7f3812218", "bike_id": "18e86c65373cb2036edf41a7f3812218", "is_disabled": 0, "fusion_lon": 0.0, "type": "electric_bike", "lon": -76.97282216666666}, {"rental_uris": {"android": "https://dc.lft.to/lastmile_qr_scan", "ios": "https://dc.lft.to/lastmile_qr_scan"}, "fusion_lat": 0.0, "is_reserved": 0, "lat": 38.8988555, "name": "6eb99c6c0a2b15a9d57be74851d29211", "bike_id": "6eb99c6c0a2b15a9d57be74851d29211", "is_disabled": 0, "fusion_lon": 0.0, "type": "electric_scooter", "lon": -76.97998933333334}, {"rental_uris": {"android": "https://dc.lft.to/lastmile_qr_scan", "ios": "https://dc.lft.to/lastmile_qr_scan"}, "fusion_lat": 0.0, "is_reserved": 0, "lat": 38.9192085, "name": "3df9f5b3ca121bf08e918e31b6795ea8", "bike_id": "3df9f5b3ca121bf08e918e31b6795ea8", "is_disabled": 0, "fusion_lon": 0.0, "type": "electric_scooter", "lon": -77.07276816666666}, {"rental_uris": {"android": "https://dc.lft.to/lastmile_qr_scan", "ios": "https://dc.lft.to/lastmile_qr_scan"}, "fusion_lat": 0.0, "is_reserved": 0, "lat": 38.921499833333336, "name": "959df84e862e44e0e534545d4ed5f8b3", "bike_id": "959df84e862e44e0e534545d4ed5f8b3", "is_disabled": 0, "fusion_lon": 0.0, "type": "electric_scooter", "lon": -77.020747}, {"rental_uris": {"android": "https://dc.lft.to/lastmile_qr_scan", "ios": "https://dc.lft.to/lastmile_qr_scan"}, "fusion_lat": 0.0, "is_reserved": 0, "lat": 38.91102816666667, "name": "6fa4dd8a00050a7494a70e623363353c", "bike_id": "6fa4dd8a00050a7494a70e623363353c", "is_disabled": 0, "fusion_lon": 0.0, "type": "electric_scooter", "lon": -77.02187283333333}, {"rental_uris": {"android": "https://dc.lft.to/lastmile_qr_scan", "ios": "https://dc.lft.to/lastmile_qr_scan"}, "fusion_lat": 0.0, "is_reserved": 0, "lat": 38.907205, "name": "843f250c347010b8fe0c01bb28dd52c2", "bike_id": "843f250c347010b8fe0c01bb28dd52c2", "is_disabled": 0, "fusion_lon": 0.0, "type": "electric_scooter", "lon": -77.02544616666667}, {"rental_uris": {"android": "https://dc.lft.to/lastmile_qr_scan", "ios": "https://dc.lft.to/lastmile_qr_scan"}, "fusion_lat": 0.0, "is_reserved": 0, "lat": 38.9228295, "name": "df4a0a31b4c72470049c9dbe0a748b69", "bike_id": "df4a0a31b4c72470049c9dbe0a748b69", "is_disabled": 0, "fusion_lon": 0.0, "type": "electric_scooter", "lon": -76.99774316666667}, {"rental_uris": {"android": "https://dc.lft.to/lastmile_qr_scan", "ios": "https://dc.lft.to/lastmile_qr_scan"}, "fusion_lat": 0.0, "is_reserved": 0, "lat": 38.887032, "name": "6e74b547d728a7bb9a51833efb8967fc", "bike_id": "6e74b547d728a7bb9a51833efb8967fc", "is_disabled": 0, "fusion_lon": 0.0, "type": "electric_scooter", "lon": -77.00250783333334}, {"rental_uris": {"android": "https://dc.lft.to/lastmile_qr_scan", "ios": "https://dc.lft.to/lastmile_qr_scan"}, "fusion_lat": 0.0, "is_reserved": 0, "lat": 38.9189615, "name": "bd9b48dfc8c97a66e1a382ac7f3fabfa", "bike_id": "bd9b48dfc8c97a66e1a382ac7f3fabfa", "is_disabled": 0, "fusion_lon": 0.0, "type": "electric_scooter", "lon": -77.0197825}, {"rental_uris": {"android": "https://dc.lft.to/lastmile_qr_scan", "ios": "https://dc.lft.to/lastmile_qr_scan"}, "fusion_lat": 0.0, "is_reserved": 0, "lat": 38.926251, "name": "fdbe5cd336c4955674a0c7fe121bdd4a", "bike_id": "fdbe5cd336c4955674a0c7fe121bdd4a", "is_disabled": 0, "fusion_lon": 0.0, "type": "electric_scooter", "lon": -77.042569}, {"rental_uris": {"android": "https://dc.lft.to/lastmile_qr_scan", "ios": "https://dc.lft.to/lastmile_qr_scan"}, "fusion_lat": 0.0, "is_reserved": 0, "lat": 38.974994, "name": "0a19d96a95dc6caaae3d55e08e867007", "bike_id": "0a19d96a95dc6caaae3d55e08e867007", "is_disabled": 0, "fusion_lon": 0.0, "type": "electric_scooter", "lon": -77.01701483333333}, {"rental_uris": {"android": "https://dc.lft.to/lastmile_qr_scan", "ios": "https://dc.lft.to/lastmile_qr_scan"}, "fusion_lat": 0.0, "is_reserved": 0, "lat": 38.91764116666667, "name": "a64777c598139a10d31811d6c5d364cd", "bike_id": "a64777c598139a10d31811d6c5d364cd", "is_disabled": 0, "fusion_lon": 0.0, "type": "electric_scooter", "lon": -77.02320766666666}, {"rental_uris": {"android": "https://dc.lft.to/lastmile_qr_scan", "ios": "https://dc.lft.to/lastmile_qr_scan"}, "fusion_lat": 0.0, "is_reserved": 0, "lat": 38.912633666666665, "name": "dc5d859fb2a72ad8f6b2276765021ad9", "bike_id": "dc5d859fb2a72ad8f6b2276765021ad9", "is_disabled": 0, "fusion_lon": 0.0, "type": "electric_scooter", "lon": -77.04558216666666}, {"rental_uris": {"android": "https://dc.lft.to/lastmile_qr_scan", "ios": "https://dc.lft.to/lastmile_qr_scan"}, "fusion_lat": 0.0, "is_reserved": 0, "lat": 38.913415666666666, "name": "287edba03c7a395c7130b5622fa85e48", "bike_id": "287edba03c7a395c7130b5622fa85e48", "is_disabled": 0, "fusion_lon": 0.0, "type": "electric_scooter", "lon": -77.03203866666666}, {"rental_uris": {"android": "https://dc.lft.to/lastmile_qr_scan", "ios": "https://dc.lft.to/lastmile_qr_scan"}, "fusion_lat": 0.0, "is_reserved": 0, "lat": 38.905651, "name": "ca724378ac5e394195c6056ae3ed2a1c", "bike_id": "ca724378ac5e394195c6056ae3ed2a1c", "is_disabled": 0, "fusion_lon": 0.0, "type": "electric_scooter", "lon": -77.02422466666667}, {"rental_uris": {"android": "https://dc.lft.to/lastmile_qr_scan", "ios": "https://dc.lft.to/lastmile_qr_scan"}, "fusion_lat": 0.0, "is_reserved": 0, "lat": 38.88736733333333, "name": "111a89955c49a07f85321c8e0d40b9ef", "bike_id": "111a89955c49a07f85321c8e0d40b9ef", "is_disabled": 0, "fusion_lon": 0.0, "type": "electric_scooter", "lon": -77.03180666666667}, {"rental_uris": {"android": "https://dc.lft.to/lastmile_qr_scan", "ios": "https://dc.lft.to/lastmile_qr_scan"}, "fusion_lat": 0.0, "is_reserved": 0, "lat": 38.925657, "name": "4f56f58cc2a5f1fa6620c6d65ed3063b", "bike_id": "4f56f58cc2a5f1fa6620c6d65ed3063b", "is_disabled": 0, "fusion_lon": 0.0, "type": "electric_scooter", "lon": -76.9995765}, {"rental_uris": {"android": "https://dc.lft.to/lastmile_qr_scan", "ios": "https://dc.lft.to/lastmile_qr_scan"}, "fusion_lat": 0.0, "is_reserved": 0, "lat": 38.915554166666666, "name": "32e013b62a3795784a429c03ff0662f0", "bike_id": "32e013b62a3795784a429c03ff0662f0", "is_disabled": 0, "fusion_lon": 0.0, "type": "electric_scooter", "lon": -77.02138716666667}, {"rental_uris": {"android": "https://dc.lft.to/lastmile_qr_scan", "ios": "https://dc.lft.to/lastmile_qr_scan"}, "fusion_lat": 0.0, "is_reserved": 0, "lat": 38.894554666666664, "name": "d6ee0c7debbec76c05ae69049fdb3f4a", "bike_id": "d6ee0c7debbec76c05ae69049fdb3f4a", "is_disabled": 0, "fusion_lon": 0.0, "type": "electric_scooter", "lon": -77.02629983333334}, {"rental_uris": {"android": "https://dc.lft.to/lastmile_qr_scan", "ios": "https://dc.lft.to/lastmile_qr_scan"}, "fusion_lat": 0.0, "is_reserved": 0, "lat": 38.9036755, "name": "d20f9c1c487fc09a6fc364601801c660", "bike_id": "d20f9c1c487fc09a6fc364601801c660", "is_disabled": 0, "fusion_lon": 0.0, "type": "electric_scooter", "lon": -77.02198066666666}, {"rental_uris": {"android": "https://dc.lft.to/lastmile_qr_scan", "ios": "https://dc.lft.to/lastmile_qr_scan"}, "fusion_lat": 0.0, "is_reserved": 0, "lat": 38.907407166666665, "name": "1a7000d9ec7569ebbf209ec4af6f5d3c", "bike_id": "1a7000d9ec7569ebbf209ec4af6f5d3c", "is_disabled": 0, "fusion_lon": 0.0, "type": "electric_scooter", "lon": -77.04668866666667}, {"rental_uris": {"android": "https://dc.lft.to/lastmile_qr_scan", "ios": "https://dc.lft.to/lastmile_qr_scan"}, "fusion_lat": 0.0, "is_reserved": 0, "lat": 38.9056895, "name": "1b3e9cbf1fab81529558efec6a58a3c6", "bike_id": "1b3e9cbf1fab81529558efec6a58a3c6", "is_disabled": 0, "fusion_lon": 0.0, "type": "electric_scooter", "lon": -77.005787}, {"rental_uris": {"android": "https://dc.lft.to/lastmile_qr_scan", "ios": "https://dc.lft.to/lastmile_qr_scan"}, "fusion_lat": 0.0, "is_reserved": 0, "lat": 38.914134833333335, "name": "213eeecb5e84addea7310044f78ca295", "bike_id": "213eeecb5e84addea7310044f78ca295", "is_disabled": 0, "fusion_lon": 0.0, "type": "electric_scooter", "lon": -77.03105683333334}, {"rental_uris": {"android": "https://dc.lft.to/lastmile_qr_scan", "ios": "https://dc.lft.to/lastmile_qr_scan"}, "fusion_lat": 0.0, "is_reserved": 0, "lat": 38.96676766666667, "name": "5fdeb71fbc9e6034e07a0fd845e64f18", "bike_id": "5fdeb71fbc9e6034e07a0fd845e64f18", "is_disabled": 0, "fusion_lon": 0.0, "type": "electric_scooter", "lon": -77.03609783333333}, {"rental_uris": {"android": "https://dc.lft.to/lastmile_qr_scan", "ios": "https://dc.lft.to/lastmile_qr_scan"}, "fusion_lat": 0.0, "is_reserved": 0, "lat": 38.904031333333336, "name": "7cfb3b01e5fb4e9acbd047f2fa814b95", "bike_id": "7cfb3b01e5fb4e9acbd047f2fa814b95", "is_disabled": 0, "fusion_lon": 0.0, "type": "electric_scooter", "lon": -76.97352966666666}, {"rental_uris": {"android": "https://dc.lft.to/lastmile_qr_scan", "ios": "https://dc.lft.to/lastmile_qr_scan"}, "fusion_lat": 0.0, "is_reserved": 0, "lat": 38.92021833333333, "name": "8fe197cf78eea4e78f48283daa142715", "bike_id": "8fe197cf78eea4e78f48283daa142715", "is_disabled": 0, "fusion_lon": 0.0, "type": "electric_scooter", "lon": -77.03156383333334}, {"rental_uris": {"android": "https://dc.lft.to/lastmile_qr_scan", "ios": "https://dc.lft.to/lastmile_qr_scan"}, "fusion_lat": 0.0, "is_reserved": 0, "lat": 38.951829333333336, "name": "db14b18c9be6f955747c459a81f35ebc", "bike_id": "db14b18c9be6f955747c459a81f35ebc", "is_disabled": 0, "fusion_lon": 0.0, "type": "electric_scooter", "lon": -77.01267733333333}, {"rental_uris": {"android": "https://dc.lft.to/lastmile_qr_scan", "ios": "https://dc.lft.to/lastmile_qr_scan"}, "fusion_lat": 0.0, "is_reserved": 0, "lat": 38.908996, "name": "22c0719607098159d1e34502b3227d7f", "bike_id": "22c0719607098159d1e34502b3227d7f", "is_disabled": 0, "fusion_lon": 0.0, "type": "electric_scooter", "lon": -76.99864083333334}, {"rental_uris": {"android": "https://dc.lft.to/lastmile_qr_scan", "ios": "https://dc.lft.to/lastmile_qr_scan"}, "fusion_lat": 0.0, "is_reserved": 0, "lat": 38.89536, "name": "993bdae4102602e3346a83f8d45ccbfb", "bike_id": "993bdae4102602e3346a83f8d45ccbfb", "is_disabled": 0, "fusion_lon": 0.0, "type": "electric_scooter", "lon": -76.92776916666666}, {"rental_uris": {"android": "https://dc.lft.to/lastmile_qr_scan", "ios": "https://dc.lft.to/lastmile_qr_scan"}, "fusion_lat": 0.0, "is_reserved": 0, "lat": 38.92470816666667, "name": "fdc61d2a7a205f909464767f0d918164", "bike_id": "fdc61d2a7a205f909464767f0d918164", "is_disabled": 0, "fusion_lon": 0.0, "type": "electric_scooter", "lon": -77.03730883333333}, {"rental_uris": {"android": "https://dc.lft.to/lastmile_qr_scan", "ios": "https://dc.lft.to/lastmile_qr_scan"}, "fusion_lat": 0.0, "is_reserved": 0, "lat": 38.94723716666667, "name": "39441d3bda66076468fcab112ea17a97", "bike_id": "39441d3bda66076468fcab112ea17a97", "is_disabled": 0, "fusion_lon": 0.0, "type": "electric_scooter", "lon": -77.03304966666667}, {"rental_uris": {"android": "https://dc.lft.to/lastmile_qr_scan", "ios": "https://dc.lft.to/lastmile_qr_scan"}, "fusion_lat": 0.0, "is_reserved": 0, "lat": 38.886745, "name": "bd1fc21c7d83bf68ea979ace1d3f61f2", "bike_id": "bd1fc21c7d83bf68ea979ace1d3f61f2", "is_disabled": 0, "fusion_lon": 0.0, "type": "electric_scooter", "lon": -77.031647}, {"rental_uris": {"android": "https://dc.lft.to/lastmile_qr_scan", "ios": "https://dc.lft.to/lastmile_qr_scan"}, "fusion_lat": 0.0, "is_reserved": 0, "lat": 38.917821833333335, "name": "87beab3fc03c3c64d4a85924f10ef7ad", "bike_id": "87beab3fc03c3c64d4a85924f10ef7ad", "is_disabled": 0, "fusion_lon": 0.0, "type": "electric_scooter", "lon": -77.0321395}, {"rental_uris": {"android": "https://dc.lft.to/lastmile_qr_scan", "ios": "https://dc.lft.to/lastmile_qr_scan"}, "fusion_lat": 0.0, "is_reserved": 0, "lat": 38.860153833333335, "name": "cb83f5d8491f897fdfef3241e213db86", "bike_id": "cb83f5d8491f897fdfef3241e213db86", "is_disabled": 0, "fusion_lon": 0.0, "type": "electric_scooter", "lon": -76.97002116666667}, {"rental_uris": {"android": "https://dc.lft.to/lastmile_qr_scan", "ios": "https://dc.lft.to/lastmile_qr_scan"}, "fusion_lat": 0.0, "is_reserved": 0, "lat": 38.895432166666666, "name": "c92da65214c9ec6b4825e9d96143d068", "bike_id": "c92da65214c9ec6b4825e9d96143d068", "is_disabled": 0, "fusion_lon": 0.0, "type": "electric_scooter", "lon": -76.983374}, {"rental_uris": {"android": "https://dc.lft.to/lastmile_qr_scan", "ios": "https://dc.lft.to/lastmile_qr_scan"}, "fusion_lat": 0.0, "is_reserved": 0, "lat": 38.91460166666667, "name": "5adf511eb44b4737ea8e3248f08a16cb", "bike_id": "5adf511eb44b4737ea8e3248f08a16cb", "is_disabled": 0, "fusion_lon": 0.0, "type": "electric_scooter", "lon": -77.0418015}, {"rental_uris": {"android": "https://dc.lft.to/lastmile_qr_scan", "ios": "https://dc.lft.to/lastmile_qr_scan"}, "fusion_lat": 0.0, "is_reserved": 0, "lat": 38.903578, "name": "dfc87adb0c91941fe02f4ba242e7d09b", "bike_id": "dfc87adb0c91941fe02f4ba242e7d09b", "is_disabled": 0, "fusion_lon": 0.0, "type": "electric_scooter", "lon": -77.03527633333333}, {"rental_uris": {"android": "https://dc.lft.to/lastmile_qr_scan", "ios": "https://dc.lft.to/lastmile_qr_scan"}, "fusion_lat": 0.0, "is_reserved": 0, "lat": 38.91268616666667, "name": "99d3bfe05998a3f5231da36bdb2dea3e", "bike_id": "99d3bfe05998a3f5231da36bdb2dea3e", "is_disabled": 0, "fusion_lon": 0.0, "type": "electric_scooter", "lon": -77.04555833333333}, {"rental_uris": {"android": "https://dc.lft.to/lastmile_qr_scan", "ios": "https://dc.lft.to/lastmile_qr_scan"}, "fusion_lat": 0.0, "is_reserved": 0, "lat": 38.892250833333335, "name": "53d0b08418905cfa9ae1de81d5db1db6", "bike_id": "53d0b08418905cfa9ae1de81d5db1db6", "is_disabled": 0, "fusion_lon": 0.0, "type": "electric_scooter", "lon": -77.03181816666667}, {"rental_uris": {"android": "https://dc.lft.to/lastmile_qr_scan", "ios": "https://dc.lft.to/lastmile_qr_scan"}, "fusion_lat": 0.0, "is_reserved": 0, "lat": 38.80669733333333, "name": "d1f8c003b0b61cea9dbd50e461021f84", "bike_id": "d1f8c003b0b61cea9dbd50e461021f84", "is_disabled": 0, "fusion_lon": 0.0, "type": "electric_bike", "lon": -77.08760133333334}, {"rental_uris": {"android": "https://dc.lft.to/lastmile_qr_scan", "ios": "https://dc.lft.to/lastmile_qr_scan"}, "fusion_lat": 0.0, "is_reserved": 0, "lat": 38.923672, "name": "548eeb144bfbf98a7fd276d4b332bb7f", "bike_id": "548eeb144bfbf98a7fd276d4b332bb7f", "is_disabled": 0, "fusion_lon": 0.0, "type": "electric_scooter", "lon": -77.050304}, {"rental_uris": {"android": "https://dc.lft.to/lastmile_qr_scan", "ios": "https://dc.lft.to/lastmile_qr_scan"}, "fusion_lat": 0.0, "is_reserved": 0, "lat": 38.900166666666664, "name": "970739dad675331224aca815c0ec296d", "bike_id": "970739dad675331224aca815c0ec296d", "is_disabled": 0, "fusion_lon": 0.0, "type": "electric_scooter", "lon": -77.04330916666666}, {"rental_uris": {"android": "https://dc.lft.to/lastmile_qr_scan", "ios": "https://dc.lft.to/lastmile_qr_scan"}, "fusion_lat": 0.0, "is_reserved": 0, "lat": 38.925241166666666, "name": "f5d6ad43c74afd20bd5a91d3901a3d6b", "bike_id": "f5d6ad43c74afd20bd5a91d3901a3d6b", "is_disabled": 0, "fusion_lon": 0.0, "type": "electric_scooter", "lon": -77.0559115}, {"rental_uris": {"android": "https://dc.lft.to/lastmile_qr_scan", "ios": "https://dc.lft.to/lastmile_qr_scan"}, "fusion_lat": 0.0, "is_reserved": 0, "lat": 38.91341466666667, "name": "1256cd99c19c7becd03e4f116a8686cc", "bike_id": "1256cd99c19c7becd03e4f116a8686cc", "is_disabled": 0, "fusion_lon": 0.0, "type": "electric_scooter", "lon": -77.03210333333334}, {"rental_uris": {"android": "https://dc.lft.to/lastmile_qr_scan", "ios": "https://dc.lft.to/lastmile_qr_scan"}, "fusion_lat": 0.0, "is_reserved": 0, "lat": 38.96025266666667, "name": "331045ddf8ab97f9fa5a6ca5664d09ba", "bike_id": "331045ddf8ab97f9fa5a6ca5664d09ba", "is_disabled": 0, "fusion_lon": 0.0, "type": "electric_scooter", "lon": -77.02426216666667}, {"rental_uris": {"android": "https://dc.lft.to/lastmile_qr_scan", "ios": "https://dc.lft.to/lastmile_qr_scan"}, "fusion_lat": 0.0, "is_reserved": 0, "lat": 38.89854716666667, "name": "6a57946d819be4740283c9e699cdfb5a", "bike_id": "6a57946d819be4740283c9e699cdfb5a", "is_disabled": 0, "fusion_lon": 0.0, "type": "electric_scooter", "lon": -77.0487845}, {"rental_uris": {"android": "https://dc.lft.to/lastmile_qr_scan", "ios": "https://dc.lft.to/lastmile_qr_scan"}, "fusion_lat": 0.0, "is_reserved": 0, "lat": 38.938917833333335, "name": "54e449a8eb0431f93187413059e985ed", "bike_id": "54e449a8eb0431f93187413059e985ed", "is_disabled": 0, "fusion_lon": 0.0, "type": "electric_scooter", "lon": -77.0176725}, {"rental_uris": {"android": "https://dc.lft.to/lastmile_qr_scan", "ios": "https://dc.lft.to/lastmile_qr_scan"}, "fusion_lat": 0.0, "is_reserved": 0, "lat": 38.85605983333333, "name": "0ae2b836d6ae0294f9987ce99c963fb2", "bike_id": "0ae2b836d6ae0294f9987ce99c963fb2", "is_disabled": 0, "fusion_lon": 0.0, "type": "electric_bike", "lon": -76.97455116666667}, {"rental_uris": {"android": "https://dc.lft.to/lastmile_qr_scan", "ios": "https://dc.lft.to/lastmile_qr_scan"}, "fusion_lat": 0.0, "is_reserved": 0, "lat": 38.90724733333333, "name": "ddb2cac5341dee69de2b00e6ed3bd73e", "bike_id": "ddb2cac5341dee69de2b00e6ed3bd73e", "is_disabled": 0, "fusion_lon": 0.0, "type": "electric_scooter", "lon": -77.02321466666666}, {"rental_uris": {"android": "https://dc.lft.to/lastmile_qr_scan", "ios": "https://dc.lft.to/lastmile_qr_scan"}, "fusion_lat": 0.0, "is_reserved": 0, "lat": 38.94314716666667, "name": "5123800df1dc7e82ec23ffca3e873e6d", "bike_id": "5123800df1dc7e82ec23ffca3e873e6d", "is_disabled": 0, "fusion_lon": 0.0, "type": "electric_bike", "lon": -76.99014683333333}, {"rental_uris": {"android": "https://dc.lft.to/lastmile_qr_scan", "ios": "https://dc.lft.to/lastmile_qr_scan"}, "fusion_lat": 0.0, "is_reserved": 0, "lat": 38.877429166666666, "name": "c5e18eb3792a0a76ede091690345e2e1", "bike_id": "c5e18eb3792a0a76ede091690345e2e1", "is_disabled": 0, "fusion_lon": 0.0, "type": "electric_scooter", "lon": -77.00606116666667}, {"rental_uris": {"android": "https://dc.lft.to/lastmile_qr_scan", "ios": "https://dc.lft.to/lastmile_qr_scan"}, "fusion_lat": 0.0, "is_reserved": 0, "lat": 38.92091333333333, "name": "e9a44dc3173cc675a702c99b9018da92", "bike_id": "e9a44dc3173cc675a702c99b9018da92", "is_disabled": 0, "fusion_lon": 0.0, "type": "electric_scooter", "lon": -77.02204583333334}, {"rental_uris": {"android": "https://dc.lft.to/lastmile_qr_scan", "ios": "https://dc.lft.to/lastmile_qr_scan"}, "fusion_lat": 0.0, "is_reserved": 0, "lat": 38.8975325, "name": "9466f05b058d1fa134ae409b4c294e73", "bike_id": "9466f05b058d1fa134ae409b4c294e73", "is_disabled": 0, "fusion_lon": 0.0, "type": "electric_scooter", "lon": -76.976832}, {"rental_uris": {"android": "https://dc.lft.to/lastmile_qr_scan", "ios": "https://dc.lft.to/lastmile_qr_scan"}, "fusion_lat": 0.0, "is_reserved": 0, "lat": 38.90622316666666, "name": "c72ce4049f5b44b5e13d6967673c2126", "bike_id": "c72ce4049f5b44b5e13d6967673c2126", "is_disabled": 0, "fusion_lon": 0.0, "type": "electric_scooter", "lon": -76.9500565}, {"rental_uris": {"android": "https://dc.lft.to/lastmile_qr_scan", "ios": "https://dc.lft.to/lastmile_qr_scan"}, "fusion_lat": 0.0, "is_reserved": 0, "lat": 38.906692166666666, "name": "ca6655835f37d411663781c5d78de12d", "bike_id": "ca6655835f37d411663781c5d78de12d", "is_disabled": 0, "fusion_lon": 0.0, "type": "electric_scooter", "lon": -77.02714483333334}, {"rental_uris": {"android": "https://dc.lft.to/lastmile_qr_scan", "ios": "https://dc.lft.to/lastmile_qr_scan"}, "fusion_lat": 0.0, "is_reserved": 0, "lat": 38.9079515, "name": "ef2599d30de5d340453dc01d91f255ec", "bike_id": "ef2599d30de5d340453dc01d91f255ec", "is_disabled": 0, "fusion_lon": 0.0, "type": "electric_scooter", "lon": -77.06449766666667}, {"rental_uris": {"android": "https://dc.lft.to/lastmile_qr_scan", "ios": "https://dc.lft.to/lastmile_qr_scan"}, "fusion_lat": 0.0, "is_reserved": 0, "lat": 38.9266245, "name": "3ca85a8c2a2b5e4898cc14fbec99ed40", "bike_id": "3ca85a8c2a2b5e4898cc14fbec99ed40", "is_disabled": 0, "fusion_lon": 0.0, "type": "electric_scooter", "lon": -77.02293416666667}, {"rental_uris": {"android": "https://dc.lft.to/lastmile_qr_scan", "ios": "https://dc.lft.to/lastmile_qr_scan"}, "fusion_lat": 0.0, "is_reserved": 0, "lat": 38.897089666666666, "name": "e3830053b83513d0ce800539772ebbd8", "bike_id": "e3830053b83513d0ce800539772ebbd8", "is_disabled": 0, "fusion_lon": 0.0, "type": "electric_scooter", "lon": -77.0079815}, {"rental_uris": {"android": "https://dc.lft.to/lastmile_qr_scan", "ios": "https://dc.lft.to/lastmile_qr_scan"}, "fusion_lat": 0.0, "is_reserved": 0, "lat": 38.89487416666667, "name": "802cb2b305fd46b290e423f7547bb1dd", "bike_id": "802cb2b305fd46b290e423f7547bb1dd", "is_disabled": 0, "fusion_lon": 0.0, "type": "electric_scooter", "lon": -76.980114}, {"rental_uris": {"android": "https://dc.lft.to/lastmile_qr_scan", "ios": "https://dc.lft.to/lastmile_qr_scan"}, "fusion_lat": 0.0, "is_reserved": 0, "lat": 38.9389645, "name": "a93d371afaa4c37e84a87cf3d2b0fae9", "bike_id": "a93d371afaa4c37e84a87cf3d2b0fae9", "is_disabled": 0, "fusion_lon": 0.0, "type": "electric_scooter", "lon": -77.03333883333333}, {"rental_uris": {"android": "https://dc.lft.to/lastmile_qr_scan", "ios": "https://dc.lft.to/lastmile_qr_scan"}, "fusion_lat": 0.0, "is_reserved": 0, "lat": 38.8850975, "name": "9acc1bd1f00021f539bcb2652163bc71", "bike_id": "9acc1bd1f00021f539bcb2652163bc71", "is_disabled": 0, "fusion_lon": 0.0, "type": "electric_scooter", "lon": -77.0111845}, {"rental_uris": {"android": "https://dc.lft.to/lastmile_qr_scan", "ios": "https://dc.lft.to/lastmile_qr_scan"}, "fusion_lat": 0.0, "is_reserved": 0, "lat": 38.93098883333333, "name": "b37045a704c9829b6ce4ab7a540eb4db", "bike_id": "b37045a704c9829b6ce4ab7a540eb4db", "is_disabled": 0, "fusion_lon": 0.0, "type": "electric_scooter", "lon": -77.024813}, {"rental_uris": {"android": "https://dc.lft.to/lastmile_qr_scan", "ios": "https://dc.lft.to/lastmile_qr_scan"}, "fusion_lat": 0.0, "is_reserved": 0, "lat": 38.903965, "name": "c47ba8b0f6cfa2222d8f55d96d4fbeab", "bike_id": "c47ba8b0f6cfa2222d8f55d96d4fbeab", "is_disabled": 0, "fusion_lon": 0.0, "type": "electric_scooter", "lon": -77.06297683333334}, {"rental_uris": {"android": "https://dc.lft.to/lastmile_qr_scan", "ios": "https://dc.lft.to/lastmile_qr_scan"}, "fusion_lat": 0.0, "is_reserved": 0, "lat": 38.92377, "name": "f2eaf643e44d496d20ebd86fc5af9edc", "bike_id": "f2eaf643e44d496d20ebd86fc5af9edc", "is_disabled": 0, "fusion_lon": 0.0, "type": "electric_scooter", "lon": -77.05178333333333}, {"rental_uris": {"android": "https://dc.lft.to/lastmile_qr_scan", "ios": "https://dc.lft.to/lastmile_qr_scan"}, "fusion_lat": 0.0, "is_reserved": 0, "lat": 38.892123, "name": "56612919333bda13167ee6cf58348384", "bike_id": "56612919333bda13167ee6cf58348384", "is_disabled": 0, "fusion_lon": 0.0, "type": "electric_scooter", "lon": -76.99491833333333}, {"rental_uris": {"android": "https://dc.lft.to/lastmile_qr_scan", "ios": "https://dc.lft.to/lastmile_qr_scan"}, "fusion_lat": 0.0, "is_reserved": 0, "lat": 38.831356, "name": "8814dc923df0d089357f8b9167ec9c50", "bike_id": "8814dc923df0d089357f8b9167ec9c50", "is_disabled": 0, "fusion_lon": 0.0, "type": "electric_bike", "lon": -77.113481}, {"rental_uris": {"android": "https://dc.lft.to/lastmile_qr_scan", "ios": "https://dc.lft.to/lastmile_qr_scan"}, "fusion_lat": 0.0, "is_reserved": 0, "lat": 38.94171983333333, "name": "68d36a4f217cc51380e97d09fc3187b8", "bike_id": "68d36a4f217cc51380e97d09fc3187b8", "is_disabled": 0, "fusion_lon": 0.0, "type": "electric_scooter", "lon": -77.02339533333334}, {"rental_uris": {"android": "https://dc.lft.to/lastmile_qr_scan", "ios": "https://dc.lft.to/lastmile_qr_scan"}, "fusion_lat": 0.0, "is_reserved": 0, "lat": 38.908733166666664, "name": "7c99933595b693fe4b6654b9f4bd1f8a", "bike_id": "7c99933595b693fe4b6654b9f4bd1f8a", "is_disabled": 0, "fusion_lon": 0.0, "type": "electric_scooter", "lon": -77.03465416666667}, {"rental_uris": {"android": "https://dc.lft.to/lastmile_qr_scan", "ios": "https://dc.lft.to/lastmile_qr_scan"}, "fusion_lat": 0.0, "is_reserved": 0, "lat": 38.8942215, "name": "143cc1bfd605f6e7376d6da628a33ece", "bike_id": "143cc1bfd605f6e7376d6da628a33ece", "is_disabled": 0, "fusion_lon": 0.0, "type": "electric_scooter", "lon": -76.99773716666667}, {"rental_uris": {"android": "https://dc.lft.to/lastmile_qr_scan", "ios": "https://dc.lft.to/lastmile_qr_scan"}, "fusion_lat": 0.0, "is_reserved": 0, "lat": 38.887603666666664, "name": "5d3be07327bad6d0bd729c97f8216953", "bike_id": "5d3be07327bad6d0bd729c97f8216953", "is_disabled": 0, "fusion_lon": 0.0, "type": "electric_bike", "lon": -77.08929083333334}, {"rental_uris": {"android": "https://dc.lft.to/lastmile_qr_scan", "ios": "https://dc.lft.to/lastmile_qr_scan"}, "fusion_lat": 0.0, "is_reserved": 0, "lat": 38.800531166666666, "name": "96c47aba23d9de05dde06c9b3ef806e0", "bike_id": "96c47aba23d9de05dde06c9b3ef806e0", "is_disabled": 0, "fusion_lon": 0.0, "type": "electric_bike", "lon": -77.12839166666667}, {"rental_uris": {"android": "https://dc.lft.to/lastmile_qr_scan", "ios": "https://dc.lft.to/lastmile_qr_scan"}, "fusion_lat": 0.0, "is_reserved": 0, "lat": 38.931161833333334, "name": "16291d0fad2c795a671a20dc92f067b1", "bike_id": "16291d0fad2c795a671a20dc92f067b1", "is_disabled": 0, "fusion_lon": 0.0, "type": "electric_scooter", "lon": -77.035128}, {"rental_uris": {"android": "https://dc.lft.to/lastmile_qr_scan", "ios": "https://dc.lft.to/lastmile_qr_scan"}, "fusion_lat": 0.0, "is_reserved": 0, "lat": 38.914880333333336, "name": "95f5d3bade7a48d86e3697bd8a9a788b", "bike_id": "95f5d3bade7a48d86e3697bd8a9a788b", "is_disabled": 0, "fusion_lon": 0.0, "type": "electric_scooter", "lon": -77.002196}, {"rental_uris": {"android": "https://dc.lft.to/lastmile_qr_scan", "ios": "https://dc.lft.to/lastmile_qr_scan"}, "fusion_lat": 0.0, "is_reserved": 0, "lat": 38.909112666666665, "name": "4c213c669db4e190ac41df1b83d56685", "bike_id": "4c213c669db4e190ac41df1b83d56685", "is_disabled": 0, "fusion_lon": 0.0, "type": "electric_scooter", "lon": -77.0442205}, {"rental_uris": {"android": "https://dc.lft.to/lastmile_qr_scan", "ios": "https://dc.lft.to/lastmile_qr_scan"}, "fusion_lat": 0.0, "is_reserved": 0, "lat": 38.916417333333335, "name": "830ebb0fd46eaa6198e45e88e5dc44a2", "bike_id": "830ebb0fd46eaa6198e45e88e5dc44a2", "is_disabled": 0, "fusion_lon": 0.0, "type": "electric_scooter", "lon": -77.0210595}, {"rental_uris": {"android": "https://dc.lft.to/lastmile_qr_scan", "ios": "https://dc.lft.to/lastmile_qr_scan"}, "fusion_lat": 0.0, "is_reserved": 0, "lat": 38.900305833333334, "name": "04db5a6929b76873518aba003df5c567", "bike_id": "04db5a6929b76873518aba003df5c567", "is_disabled": 0, "fusion_lon": 0.0, "type": "electric_scooter", "lon": -77.01194}, {"rental_uris": {"android": "https://dc.lft.to/lastmile_qr_scan", "ios": "https://dc.lft.to/lastmile_qr_scan"}, "fusion_lat": 0.0, "is_reserved": 0, "lat": 38.939629833333335, "name": "67ffebeee375cb617d82147a49a75cbb", "bike_id": "67ffebeee375cb617d82147a49a75cbb", "is_disabled": 0, "fusion_lon": 0.0, "type": "electric_scooter", "lon": -77.032872}, {"rental_uris": {"android": "https://dc.lft.to/lastmile_qr_scan", "ios": "https://dc.lft.to/lastmile_qr_scan"}, "fusion_lat": 0.0, "is_reserved": 0, "lat": 38.879977333333336, "name": "1a3b7160916ddf8462bd889a0c553dbc", "bike_id": "1a3b7160916ddf8462bd889a0c553dbc", "is_disabled": 0, "fusion_lon": 0.0, "type": "electric_scooter", "lon": -76.98411483333334}, {"rental_uris": {"android": "https://dc.lft.to/lastmile_qr_scan", "ios": "https://dc.lft.to/lastmile_qr_scan"}, "fusion_lat": 0.0, "is_reserved": 0, "lat": 38.9616985, "name": "f69c753cfa3a48f97d607d15797c082c", "bike_id": "f69c753cfa3a48f97d607d15797c082c", "is_disabled": 0, "fusion_lon": 0.0, "type": "electric_scooter", "lon": -77.027975}, {"rental_uris": {"android": "https://dc.lft.to/lastmile_qr_scan", "ios": "https://dc.lft.to/lastmile_qr_scan"}, "fusion_lat": 0.0, "is_reserved": 0, "lat": 38.904751833333336, "name": "0823c2b4da11568beebbc461ba688d41", "bike_id": "0823c2b4da11568beebbc461ba688d41", "is_disabled": 0, "fusion_lon": 0.0, "type": "electric_scooter", "lon": -77.00732033333334}, {"rental_uris": {"android": "https://dc.lft.to/lastmile_qr_scan", "ios": "https://dc.lft.to/lastmile_qr_scan"}, "fusion_lat": 0.0, "is_reserved": 0, "lat": 38.897646333333334, "name": "728a571ef193a9b1a5eb84e4b3d6119e", "bike_id": "728a571ef193a9b1a5eb84e4b3d6119e", "is_disabled": 0, "fusion_lon": 0.0, "type": "electric_scooter", "lon": -76.98560933333333}, {"rental_uris": {"android": "https://dc.lft.to/lastmile_qr_scan", "ios": "https://dc.lft.to/lastmile_qr_scan"}, "fusion_lat": 0.0, "is_reserved": 0, "lat": 38.9063815, "name": "e308178509bddbedf381ec7c46b7127d", "bike_id": "e308178509bddbedf381ec7c46b7127d", "is_disabled": 0, "fusion_lon": 0.0, "type": "electric_scooter", "lon": -77.04871133333333}, {"rental_uris": {"android": "https://dc.lft.to/lastmile_qr_scan", "ios": "https://dc.lft.to/lastmile_qr_scan"}, "fusion_lat": 0.0, "is_reserved": 0, "lat": 38.899168, "name": "ff036e8499dc51a9cc4a7be4fe4248e0", "bike_id": "ff036e8499dc51a9cc4a7be4fe4248e0", "is_disabled": 0, "fusion_lon": 0.0, "type": "electric_scooter", "lon": -76.97839216666667}, {"rental_uris": {"android": "https://dc.lft.to/lastmile_qr_scan", "ios": "https://dc.lft.to/lastmile_qr_scan"}, "fusion_lat": 0.0, "is_reserved": 0, "lat": 38.9170685, "name": "84be11ed8b28bfb2456ab533488a5bd0", "bike_id": "84be11ed8b28bfb2456ab533488a5bd0", "is_disabled": 0, "fusion_lon": 0.0, "type": "electric_scooter", "lon": -77.01076066666667}, {"rental_uris": {"android": "https://dc.lft.to/lastmile_qr_scan", "ios": "https://dc.lft.to/lastmile_qr_scan"}, "fusion_lat": 0.0, "is_reserved": 0, "lat": 38.95882816666666, "name": "b557fa3edcab15ce03f1e8a89e56f0c6", "bike_id": "b557fa3edcab15ce03f1e8a89e56f0c6", "is_disabled": 0, "fusion_lon": 0.0, "type": "electric_bike", "lon": -76.97051833333333}, {"rental_uris": {"android": "https://dc.lft.to/lastmile_qr_scan", "ios": "https://dc.lft.to/lastmile_qr_scan"}, "fusion_lat": 0.0, "is_reserved": 0, "lat": 38.88317633333333, "name": "0314c312abec88e593bbd077156add8e", "bike_id": "0314c312abec88e593bbd077156add8e", "is_disabled": 0, "fusion_lon": 0.0, "type": "electric_scooter", "lon": -77.00191066666666}, {"rental_uris": {"android": "https://dc.lft.to/lastmile_qr_scan", "ios": "https://dc.lft.to/lastmile_qr_scan"}, "fusion_lat": 0.0, "is_reserved": 0, "lat": 38.891964333333334, "name": "00fd3f73954780403927c0fe74f5a4af", "bike_id": "00fd3f73954780403927c0fe74f5a4af", "is_disabled": 0, "fusion_lon": 0.0, "type": "electric_scooter", "lon": -76.99859833333333}, {"rental_uris": {"android": "https://dc.lft.to/lastmile_qr_scan", "ios": "https://dc.lft.to/lastmile_qr_scan"}, "fusion_lat": 0.0, "is_reserved": 0, "lat": 38.90143583333333, "name": "057fd5eac34bc09c12f2ea0b7c46bb90", "bike_id": "057fd5eac34bc09c12f2ea0b7c46bb90", "is_disabled": 0, "fusion_lon": 0.0, "type": "electric_scooter", "lon": -77.046768}, {"rental_uris": {"android": "https://dc.lft.to/lastmile_qr_scan", "ios": "https://dc.lft.to/lastmile_qr_scan"}, "fusion_lat": 0.0, "is_reserved": 0, "lat": 38.9119875, "name": "87f0cb481b97c0128f320c1367009dfe", "bike_id": "87f0cb481b97c0128f320c1367009dfe", "is_disabled": 0, "fusion_lon": 0.0, "type": "electric_scooter", "lon": -77.038552},