{"data": {"bikes": [{"is_disabled": 0, "fusion_lon": 0.0, "fusion_lat": 0.0, "lat": 38.89472966666666, "type": "electric_scooter", "lon": -76.9772965, "bike_id": "9bd928f6b811390b252404f50f8be1aa", "rental_uris": {"android": "https://dc.lft.to/lastmile_qr_scan", "ios": "https://dc.lft.to/lastmile_qr_scan"}, "name": "9bd928f6b811390b252404f50f8be1aa", "is_reserved": 0}, {"is_disabled": 0, "fusion_lon": 0.0, "fusion_lat": 0.0, "lat": 38.89745216666667, "type": "electric_scooter", "lon": -77.0159755, "bike_id": "d05eaca48574709ce53f02d4eb8d7fd9", "rental_uris": {"android": "https://dc.lft.to/lastmile_qr_scan", "ios": "https://dc.lft.to/lastmile_qr_scan"}, "name": "d05eaca48574709ce53f02d4eb8d7fd9", "is_reserved": 0}, {"is_disabled": 0, "fusion_lon": 0.0, "fusion_lat": 0.0, "lat": 38.90938933333334, "type": "electric_scooter", "lon": -76.99217466666667, "bike_id": "98ffc1cabe2d66c70bddef8edd1bb895", "rental_uris": {"android": "https://dc.lft.to/lastmile_qr_scan", "ios": "https://dc.lft.to/lastmile_qr_scan"}, "name": "98ffc1cabe2d66c70bddef8edd1bb895", "is_reserved": 0}, {"is_disabled": 0, "fusion_lon": 0.0, "fusion_lat": 0.0, "lat": 38.93678366666666, "type": "electric_scooter", "lon": -77.0362465, "bike_id": "b881411ca0f5c3596f0ceca8f917c121", "rental_uris": {"android": "https://dc.lft.to/lastmile_qr_scan", "ios": "https://dc.lft.to/lastmile_qr_scan"}, "name": "b881411ca0f5c3596f0ceca8f917c121", "is_reserved": 0}, {"is_disabled": 0, "fusion_lon": 0.0, "fusion_lat": 0.0, "lat": 38.89975316666667, "type": "electric_scooter", "lon": -77.0162995, "bike_id": "a7ae4b73ea05e0c34b0696a50fca6b94", "rental_uris": {"android": "https://dc.lft.to/lastmile_qr_scan", "ios": "https://dc.lft.to/lastmile_qr_scan"}, "name": "a7ae4b73ea05e0c34b0696a50fca6b94", "is_reserved": 0}, {"is_disabled": 0, "fusion_lon": 0.0, "fusion_lat": 0.0, "lat": 38.90089, "type": "electric_scooter", "lon": -77.03938, "bike_id": "20ad2ca1644ab81f92308f1dd58adc13", "rental_uris": {"android": "https://dc.lft.to/lastmile_qr_scan", "ios": "https://dc.lft.to/lastmile_qr_scan"}, "name": "20ad2ca1644ab81f92308f1dd58adc13", "is_reserved": 0}, {"is_disabled": 0, "fusion_lon": 0.0, "fusion_lat": 0.0, "lat": 38.94446816666667, "type": "electric_scooter", "lon": -77.06037183333333, "bike_id": "4a2d87a10dd95742e2585dc55307f5bc", "rental_uris": {"android": "https://dc.lft.to/lastmile_qr_scan", "ios": "https://dc.lft.to/lastmile_qr_scan"}, "name": "4a2d87a10dd95742e2585dc55307f5bc", "is_reserved": 0}, {"is_disabled": 0, "fusion_lon": 0.0, "fusion_lat": 0.0, "lat": 38.912044333333334, "type": "electric_scooter", "lon": -77.00091866666666, "bike_id": "141cb4ea6d4f290c8a294362ca0b1186", "rental_uris": {"android": "https://dc.lft.to/lastmile_qr_scan", "ios": "https://dc.lft.to/lastmile_qr_scan"}, "name": "141cb4ea6d4f290c8a294362ca0b1186", "is_reserved": 0}, {"is_disabled": 0, "fusion_lon": 0.0, "fusion_lat": 0.0, "lat": 38.911410333333336, "type": "electric_scooter", "lon": -76.98494283333333, "bike_id": "6d54261debb4e184cc48917c807fb8bf", "rental_uris": {"android": "https://dc.lft.to/lastmile_qr_scan", "ios": "https://dc.lft.to/lastmile_qr_scan"}, "name": "6d54261debb4e184cc48917c807fb8bf", "is_reserved": 0}, {"is_disabled": 0, "fusion_lon": 0.0, "fusion_lat": 0.0, "lat": 38.916374833333336, "type": "electric_scooter", "lon": -77.050579, "bike_id": "f24b52d60947a825a2bf129a91dd7bbb", "rental_uris": {"android": "https://dc.lft.to/lastmile_qr_scan", "ios": "https://dc.lft.to/lastmile_qr_scan"}, "name": "f24b52d60947a825a2bf129a91dd7bbb", "is_reserved": 0}, {"is_disabled": 0, "fusion_lon": 0.0, "fusion_lat": 0.0, "lat": 38.9247405, "type": "electric_scooter", "lon": -77.026667, "bike_id": "9ce55469d89f83e87f0739d94a04ac1a", "rental_uris": {"android": "https://dc.lft.to/lastmile_qr_scan", "ios": "https://dc.lft.to/lastmile_qr_scan"}, "name": "9ce55469d89f83e87f0739d94a04ac1a", "is_reserved": 0}, {"is_disabled": 0, "fusion_lon": 0.0, "fusion_lat": 0.0, "lat": 38.93189533333333, "type": "electric_scooter", "lon": -77.0283495, "bike_id": "e7e6ae4e10fdf718df7f065c7e34fb5a", "rental_uris": {"android": "https://dc.lft.to/lastmile_qr_scan", "ios": "https://dc.lft.to/lastmile_qr_scan"}, "name": "e7e6ae4e10fdf718df7f065c7e34fb5a", "is_reserved": 0}, {"is_disabled": 0, "fusion_lon": 0.0, "fusion_lat": 0.0, "lat": 38.905973333333336, "type": "electric_scooter", "lon": -77.023838, "bike_id": "d523a26743ad11ffbbfab48efb56c569", "rental_uris": {"android": "https://dc.lft.to/lastmile_qr_scan", "ios": "https://dc.lft.to/lastmile_qr_scan"}, "name": "d523a26743ad11ffbbfab48efb56c569", "is_reserved": 0}, {"is_disabled": 0, "fusion_lon": 0.0, "fusion_lat": 0.0, "lat": 38.877570666666664, "type": "electric_bike", "lon": -76.979931, "bike_id": "78cbc96fc60169a2aa793d381ab5d6ba", "rental_uris": {"android": "https://dc.lft.to/lastmile_qr_scan", "ios": "https://dc.lft.to/lastmile_qr_scan"}, "name": "78cbc96fc60169a2aa793d381ab5d6ba", "is_reserved": 0}, {"is_disabled": 0, "fusion_lon": 0.0, "fusion_lat": 0.0, "lat": 38.9228605, "type": "electric_scooter", "lon": -77.02971183333334, "bike_id": "f92b0bca58a7930f88f804a071bb7e0b", "rental_uris": {"android": "https://dc.lft.to/lastmile_qr_scan", "ios": "https://dc.lft.to/lastmile_qr_scan"}, "name": "f92b0bca58a7930f88f804a071bb7e0b", "is_reserved": 0}, {"is_disabled": 0, "fusion_lon": 0.0, "fusion_lat": 0.0, "lat": 38.925839, "type": "electric_scooter", "lon": -77.025194, "bike_id": "ccddf70fd2901f93fa96b5557d08a7fd", "rental_uris": {"android": "https://dc.lft.to/lastmile_qr_scan", "ios": "https://dc.lft.to/lastmile_qr_scan"}, "name": "ccddf70fd2901f93fa96b5557d08a7fd", "is_reserved": 0}, {"is_disabled": 0, "fusion_lon": 0.0, "fusion_lat": 0.0, "lat": 38.91449933333333, "type": "electric_scooter", "lon": -76.98440866666667, "bike_id": "930483e13208837638273e07687166e2", "rental_uris": {"android": "https://dc.lft.to/lastmile_qr_scan", "ios": "https://dc.lft.to/lastmile_qr_scan"}, "name": "930483e13208837638273e07687166e2", "is_reserved": 0}, {"is_disabled": 0, "fusion_lon": 0.0, "fusion_lat": 0.0, "lat": 38.925720166666665, "type": "electric_scooter", "lon": -77.0805805, "bike_id": "0b6edfa919f03ad0abfb7313aacb17a1", "rental_uris": {"android": "https://dc.lft.to/lastmile_qr_scan", "ios": "https://dc.lft.to/lastmile_qr_scan"}, "name": "0b6edfa919f03ad0abfb7313aacb17a1", "is_reserved": 0}, {"is_disabled": 0, "fusion_lon": 0.0, "fusion_lat": 0.0, "lat": 38.912093666666664, "type": "electric_scooter", "lon": -77.0384505, "bike_id": "e85e7c0c4a64fccc7da3ba4d9bbdb312", "rental_uris": {"android": "https://dc.lft.to/lastmile_qr_scan", "ios": "https://dc.lft.to/lastmile_qr_scan"}, "name": "e85e7c0c4a64fccc7da3ba4d9bbdb312", "is_reserved": 0}, {"is_disabled": 0, "fusion_lon": 0.0, "fusion_lat": 0.0, "lat": 38.939659166666665, "type": "electric_bike", "lon": -77.3609345, "bike_id": "f915795da4f8538a5d99d92abd5c06f9", "rental_uris": {"android": "https://dc.lft.to/lastmile_qr_scan", "ios": "https://dc.lft.to/lastmile_qr_scan"}, "name": "f915795da4f8538a5d99d92abd5c06f9", "is_reserved": 0}, {"is_disabled": 0, "fusion_lon": 0.0, "fusion_lat": 0.0, "lat": 38.92971933333333, "type": "electric_scooter", "lon": -77.02802266666667, "bike_id": "f320af81653a232dab77e5ddc5775174", "rental_uris": {"android": "https://dc.lft.to/lastmile_qr_scan", "ios": "https://dc.lft.to/lastmile_qr_scan"}, "name": "f320af81653a232dab77e5ddc5775174", "is_reserved": 0}, {"is_disabled": 0, "fusion_lon": 0.0, "fusion_lat": 0.0, "lat": 38.9246785, "type": "electric_scooter", "lon": -77.07864083333334, "bike_id": "3eb4d3faf06800b96645900d0df5bc63", "rental_uris": {"android": "https://dc.lft.to/lastmile_qr_scan", "ios": "https://dc.lft.to/lastmile_qr_scan"}, "name": "3eb4d3faf06800b96645900d0df5bc63", "is_reserved": 0}, {"is_disabled": 0, "fusion_lon": 0.0, "fusion_lat": 0.0, "lat": 38.92651466666667, "type": "electric_scooter", "lon": -77.0371295, "bike_id": "c85bee00070e3fcbf247820a02f61808", "rental_uris": {"android": "https://dc.lft.to/lastmile_qr_scan", "ios": "https://dc.lft.to/lastmile_qr_scan"}, "name": "c85bee00070e3fcbf247820a02f61808", "is_reserved": 0}, {"is_disabled": 0, "fusion_lon": 0.0, "fusion_lat": 0.0, "lat": 38.877166333333335, "type": "electric_scooter", "lon": -77.01754216666667, "bike_id": "f651e813c838c01c8e72dd9193d31b05", "rental_uris": {"android": "https://dc.lft.to/lastmile_qr_scan", "ios": "https://dc.lft.to/lastmile_qr_scan"}, "name": "f651e813c838c01c8e72dd9193d31b05", "is_reserved": 0}, {"is_disabled": 0, "fusion_lon": 0.0, "fusion_lat": 0.0, "lat": 38.948950833333335, "type": "electric_bike", "lon": -76.96373666666666, "bike_id": "ce395184c3c2905a4eca08323c8f4a0b", "rental_uris": {"android": "https://dc.lft.to/lastmile_qr_scan", "ios": "https://dc.lft.to/lastmile_qr_scan"}, "name": "ce395184c3c2905a4eca08323c8f4a0b", "is_reserved": 0}, {"is_disabled": 0, "fusion_lon": 0.0, "fusion_lat": 0.0, "lat": 38.93365683333333, "type": "electric_scooter", "lon": -77.057443, "bike_id": "5949b2142ba49d2d183af5ad94159d41", "rental_uris": {"android": "https://dc.lft.to/lastmile_qr_scan", "ios": "https://dc.lft.to/lastmile_qr_scan"}, "name": "5949b2142ba49d2d183af5ad94159d41", "is_reserved": 0}, {"is_disabled": 0, "fusion_lon": 0.0, "fusion_lat": 0.0, "lat": 38.9341325, "type": "electric_scooter", "lon": -77.01965383333334, "bike_id": "8684bc2c26718364049a42c275ae1011", "rental_uris": {"android": "https://dc.lft.to/lastmile_qr_scan", "ios": "https://dc.lft.to/lastmile_qr_scan"}, "name": "8684bc2c26718364049a42c275ae1011", "is_reserved": 0}, {"is_disabled": 0, "fusion_lon": 0.0, "fusion_lat": 0.0, "lat": 38.92811233333333, "type": "electric_scooter", "lon": -77.02349066666666, "bike_id": "fc49571fd53a3bc6ce991fe49b865fa3", "rental_uris": {"android": "https://dc.lft.to/lastmile_qr_scan", "ios": "https://dc.lft.to/lastmile_qr_scan"}, "name": "fc49571fd53a3bc6ce991fe49b865fa3", "is_reserved": 0}, {"is_disabled": 0, "fusion_lon": 0.0, "fusion_lat": 0.0, "lat": 38.92491066666667, "type": "electric_scooter", "lon": -77.03931683333333, "bike_id": "d44944963ff87627f276e1e2d88c4ed6", "rental_uris": {"android": "https://dc.lft.to/lastmile_qr_scan", "ios": "https://dc.lft.to/lastmile_qr_scan"}, "name": "d44944963ff87627f276e1e2d88c4ed6", "is_reserved": 0}, {"is_disabled": 0, "fusion_lon": 0.0, "fusion_lat": 0.0, "lat": 38.899761166666664, "type": "electric_scooter", "lon": -77.01629566666666, "bike_id": "f0f9ad27b5286db298a6dbefe47cfcf1", "rental_uris": {"android": "https://dc.lft.to/lastmile_qr_scan", "ios": "https://dc.lft.to/lastmile_qr_scan"}, "name": "f0f9ad27b5286db298a6dbefe47cfcf1", "is_reserved": 0}, {"is_disabled": 0, "fusion_lon": 0.0, "fusion_lat": 0.0, "lat": 39.05267933333333, "type": "electric_bike", "lon": -77.04387633333333, "bike_id": "1d1a760f87a1f75f5fb166771760f467", "rental_uris": {"android": "https://dc.lft.to/lastmile_qr_scan", "ios": "https://dc.lft.to/lastmile_qr_scan"}, "name": "1d1a760f87a1f75f5fb166771760f467", "is_reserved": 0}, {"is_disabled": 0, "fusion_lon": 0.0, "fusion_lat": 0.0, "lat": 38.878806, "type": "electric_scooter", "lon": -77.01954183333334, "bike_id": "70648371d5d975d144d16e77bdc8de5e", "rental_uris": {"android": "https://dc.lft.to/lastmile_qr_scan", "ios": "https://dc.lft.to/lastmile_qr_scan"}, "name": "70648371d5d975d144d16e77bdc8de5e", "is_reserved": 0}, {"is_disabled": 0, "fusion_lon": 0.0, "fusion_lat": 0.0, "lat": 38.90952466666667, "type": "electric_scooter", "lon": -77.03944333333334, "bike_id": "5361fc71ce420eb3cd5ebc49dc399fbf", "rental_uris": {"android": "https://dc.lft.to/lastmile_qr_scan", "ios": "https://dc.lft.to/lastmile_qr_scan"}, "name": "5361fc71ce420eb3cd5ebc49dc399fbf", "is_reserved": 0}, {"is_disabled": 0, "fusion_lon": 0.0, "fusion_lat": 0.0, "lat": 38.916993833333336, "type": "electric_bike", "lon": -77.09566883333333, "bike_id": "3a0d10659e0e018af2e8ae76027d4ee9", "rental_uris": {"android": "https://dc.lft.to/lastmile_qr_scan", "ios": "https://dc.lft.to/lastmile_qr_scan"}, "name": "3a0d10659e0e018af2e8ae76027d4ee9", "is_reserved": 0}, {"is_disabled": 0, "fusion_lon": 0.0, "fusion_lat": 0.0, "lat": 38.91679933333333, "type": "electric_scooter", "lon": -77.03148066666667, "bike_id": "c18905602508f4e6d5988982fb6b636b", "rental_uris": {"android": "https://dc.lft.to/lastmile_qr_scan", "ios": "https://dc.lft.to/lastmile_qr_scan"}, "name": "c18905602508f4e6d5988982fb6b636b", "is_reserved": 0}, {"is_disabled": 0, "fusion_lon": 0.0, "fusion_lat": 0.0, "lat": 38.911861333333334, "type": "electric_scooter", "lon": -77.0398015, "bike_id": "8985f45d54fa1b51c014979ac4740049", "rental_uris": {"android": "https://dc.lft.to/lastmile_qr_scan", "ios": "https://dc.lft.to/lastmile_qr_scan"}, "name": "8985f45d54fa1b51c014979ac4740049", "is_reserved": 0}, {"is_disabled": 0, "fusion_lon": 0.0, "fusion_lat": 0.0, "lat": 38.897299, "type": "electric_scooter", "lon": -77.021526, "bike_id": "8cba337a038f77e17816b0f6b301d90e", "rental_uris": {"android": "https://dc.lft.to/lastmile_qr_scan", "ios": "https://dc.lft.to/lastmile_qr_scan"}, "name": "8cba337a038f77e17816b0f6b301d90e", "is_reserved": 0}, {"is_disabled": 0, "fusion_lon": 0.0, "fusion_lat": 0.0, "lat": 38.9141935, "type": "electric_scooter", "lon": -77.03905883333333, "bike_id": "6829a83e5a6b262d005b002d3d0dedff", "rental_uris": {"android": "https://dc.lft.to/lastmile_qr_scan", "ios": "https://dc.lft.to/lastmile_qr_scan"}, "name": "6829a83e5a6b262d005b002d3d0dedff", "is_reserved": 0}, {"is_disabled": 0, "fusion_lon": 0.0, "fusion_lat": 0.0, "lat": 38.93694583333333, "type": "electric_bike", "lon": -77.02986033333333, "bike_id": "e35758813ec9a343ce917edb00c4b410", "rental_uris": {"android": "https://dc.lft.to/lastmile_qr_scan", "ios": "https://dc.lft.to/lastmile_qr_scan"}, "name": "e35758813ec9a343ce917edb00c4b410", "is_reserved": 0}, {"is_disabled": 0, "fusion_lon": 0.0, "fusion_lat": 0.0, "lat": 38.87711133333333, "type": "electric_scooter", "lon": -77.0176265, "bike_id": "05e09a93b1968a362356ce3fec90429b", "rental_uris": {"android": "https://dc.lft.to/lastmile_qr_scan", "ios": "https://dc.lft.to/lastmile_qr_scan"}, "name": "05e09a93b1968a362356ce3fec90429b", "is_reserved": 0}, {"is_disabled": 0, "fusion_lon": 0.0, "fusion_lat": 0.0, "lat": 38.89744316666667, "type": "electric_scooter", "lon": -77.03342083333334, "bike_id": "72461aa692cf88b666d6102e34151822", "rental_uris": {"android": "https://dc.lft.to/lastmile_qr_scan", "ios": "https://dc.lft.to/lastmile_qr_scan"}, "name": "72461aa692cf88b666d6102e34151822", "is_reserved": 0}, {"is_disabled": 0, "fusion_lon": 0.0, "fusion_lat": 0.0, "lat": 38.88439266666666, "type": "electric_scooter", "lon": -76.951959, "bike_id": "25bf74c77ef8b40aa33348a21d4fef8a", "rental_uris": {"android": "https://dc.lft.to/lastmile_qr_scan", "ios": "https://dc.lft.to/lastmile_qr_scan"}, "name": "25bf74c77ef8b40aa33348a21d4fef8a", "is_reserved": 0}, {"is_disabled": 0, "fusion_lon": 0.0, "fusion_lat": 0.0, "lat": 38.912017166666665, "type": "electric_scooter", "lon": -77.00088916666667, "bike_id": "df505c00aaebf289f7c9977bf9c4fad7", "rental_uris": {"android": "https://dc.lft.to/lastmile_qr_scan", "ios": "https://dc.lft.to/lastmile_qr_scan"}, "name": "df505c00aaebf289f7c9977bf9c4fad7", "is_reserved": 0}, {"is_disabled": 0, "fusion_lon": 0.0, "fusion_lat": 0.0, "lat": 38.918172166666665, "type": "electric_scooter", "lon": -77.034614, "bike_id": "f10e8c949e0e0fe7aa15879173e3f010", "rental_uris": {"android": "https://dc.lft.to/lastmile_qr_scan", "ios": "https://dc.lft.to/lastmile_qr_scan"}, "name": "f10e8c949e0e0fe7aa15879173e3f010", "is_reserved": 0}, {"is_disabled": 0, "fusion_lon": 0.0, "fusion_lat": 0.0, "lat": 38.9103715, "type": "electric_scooter", "lon": -77.01494383333333, "bike_id": "25e7f05705b4f558914ec5f8b4db7bc7", "rental_uris": {"android": "https://dc.lft.to/lastmile_qr_scan", "ios": "https://dc.lft.to/lastmile_qr_scan"}, "name": "25e7f05705b4f558914ec5f8b4db7bc7", "is_reserved": 0}, {"is_disabled": 0, "fusion_lon": 0.0, "fusion_lat": 0.0, "lat": 38.913504833333334, "type": "electric_scooter", "lon": -77.03207983333333, "bike_id": "abbcaea13cb60b90dad1a88c72d31e3e", "rental_uris": {"android": "https://dc.lft.to/lastmile_qr_scan", "ios": "https://dc.lft.to/lastmile_qr_scan"}, "name": "abbcaea13cb60b90dad1a88c72d31e3e", "is_reserved": 0}, {"is_disabled": 0, "fusion_lon": 0.0, "fusion_lat": 0.0, "lat": 38.909511, "type": "electric_scooter", "lon": -77.02382783333333, "bike_id": "3032fc2281bdca5f05af589bfc901c2b", "rental_uris": {"android": "https://dc.lft.to/lastmile_qr_scan", "ios": "https://dc.lft.to/lastmile_qr_scan"}, "name": "3032fc2281bdca5f05af589bfc901c2b", "is_reserved": 0}, {"is_disabled": 0, "fusion_lon": 0.0, "fusion_lat": 0.0, "lat": 38.922296, "type": "electric_scooter", "lon": -76.97525866666666, "bike_id": "57a55660d344080fc5343db9d2aa1e82", "rental_uris": {"android": "https://dc.lft.to/lastmile_qr_scan", "ios": "https://dc.lft.to/lastmile_qr_scan"}, "name": "57a55660d344080fc5343db9d2aa1e82", "is_reserved": 0}, {"is_disabled": 0, "fusion_lon": 0.0, "fusion_lat": 0.0, "lat": 38.907035, "type": "electric_scooter", "lon": -76.986897, "bike_id": "f03b947e86aac1f3cc2f589143ec7ce4", "rental_uris": {"android": "https://dc.lft.to/lastmile_qr_scan", "ios": "https://dc.lft.to/lastmile_qr_scan"}, "name": "f03b947e86aac1f3cc2f589143ec7ce4", "is_reserved": 0}, {"is_disabled": 0, "fusion_lon": 0.0, "fusion_lat": 0.0, "lat": 38.925417333333336, "type": "electric_scooter", "lon": -77.076552, "bike_id": "58f1c96864336cb8a505e8b9b0407666", "rental_uris": {"android": "https://dc.lft.to/lastmile_qr_scan", "ios": "https://dc.lft.to/lastmile_qr_scan"}, "name": "58f1c96864336cb8a505e8b9b0407666", "is_reserved": 0}, {"is_disabled": 0, "fusion_lon": 0.0, "fusion_lat": 0.0, "lat": 38.89472383333333, "type": "electric_scooter", "lon": -76.99411216666667, "bike_id": "007d3bab1b4154d915525dcdf57c2a88", "rental_uris": {"android": "https://dc.lft.to/lastmile_qr_scan", "ios": "https://dc.lft.to/lastmile_qr_scan"}, "name": "007d3bab1b4154d915525dcdf57c2a88", "is_reserved": 0}, {"is_disabled": 0, "fusion_lon": 0.0, "fusion_lat": 0.0, "lat": 38.899999333333334, "type": "electric_scooter", "lon": -77.02012916666666, "bike_id": "ef1473a5b2dd860fc6ff1380d545b860", "rental_uris": {"android": "https://dc.lft.to/lastmile_qr_scan", "ios": "https://dc.lft.to/lastmile_qr_scan"}, "name": "ef1473a5b2dd860fc6ff1380d545b860", "is_reserved": 0}, {"is_disabled": 0, "fusion_lon": 0.0, "fusion_lat": 0.0, "lat": 38.89965333333333, "type": "electric_scooter", "lon": -77.04788, "bike_id": "01057925b1888953ba6af82fb9f4f080", "rental_uris": {"android": "https://dc.lft.to/lastmile_qr_scan", "ios": "https://dc.lft.to/lastmile_qr_scan"}, "name": "01057925b1888953ba6af82fb9f4f080", "is_reserved": 0}, {"is_disabled": 0, "fusion_lon": 0.0, "fusion_lat": 0.0, "lat": 38.91035733333333, "type": "electric_scooter", "lon": -77.03369083333334, "bike_id": "553519dcccb28a6f36f37c256ce7b7b6", "rental_uris": {"android": "https://dc.lft.to/lastmile_qr_scan", "ios": "https://dc.lft.to/lastmile_qr_scan"}, "name": "553519dcccb28a6f36f37c256ce7b7b6", "is_reserved": 0}, {"is_disabled": 0, "fusion_lon": 0.0, "fusion_lat": 0.0, "lat": 38.86360633333334, "type": "electric_scooter", "lon": -76.990678, "bike_id": "835ef40ad7b6a683af09ce2478382597", "rental_uris": {"android": "https://dc.lft.to/lastmile_qr_scan", "ios": "https://dc.lft.to/lastmile_qr_scan"}, "name": "835ef40ad7b6a683af09ce2478382597", "is_reserved": 0}, {"is_disabled": 0, "fusion_lon": 0.0, "fusion_lat": 0.0, "lat": 38.8834385, "type": "electric_scooter", "lon": -76.94177266666667, "bike_id": "7ca546ed70c70b00b74690f49f5bf08a", "rental_uris": {"android": "https://dc.lft.to/lastmile_qr_scan", "ios": "https://dc.lft.to/lastmile_qr_scan"}, "name": "7ca546ed70c70b00b74690f49f5bf08a", "is_reserved": 0}, {"is_disabled": 0, "fusion_lon": 0.0, "fusion_lat": 0.0, "lat": 38.89994566666667, "type": "electric_scooter", "lon": -76.92227833333334, "bike_id": "3941a8a6161a8549834eaab7cf3385d9", "rental_uris": {"android": "https://dc.lft.to/lastmile_qr_scan", "ios": "https://dc.lft.to/lastmile_qr_scan"}, "name": "3941a8a6161a8549834eaab7cf3385d9", "is_reserved": 0}, {"is_disabled": 0, "fusion_lon": 0.0, "fusion_lat": 0.0, "lat": 38.91813833333333, "type": "electric_scooter", "lon": -77.0101885, "bike_id": "cbd1252c41665b386c1024b9a0b8c5e0", "rental_uris": {"android": "https://dc.lft.to/lastmile_qr_scan", "ios": "https://dc.lft.to/lastmile_qr_scan"}, "name": "cbd1252c41665b386c1024b9a0b8c5e0", "is_reserved": 0}, {"is_disabled": 0, "fusion_lon": 0.0, "fusion_lat": 0.0, "lat": 38.8520305, "type": "electric_bike", "lon": -77.10132266666666, "bike_id": "3886b244a92b495d2fe6564f54b3de1c", "rental_uris": {"android": "https://dc.lft.to/lastmile_qr_scan", "ios": "https://dc.lft.to/lastmile_qr_scan"}, "name": "3886b244a92b495d2fe6564f54b3de1c", "is_reserved": 0}, {"is_disabled": 0, "fusion_lon": 0.0, "fusion_lat": 0.0, "lat": 38.91055083333333, "type": "electric_scooter", "lon": -77.04352616666667, "bike_id": "8d0c3b058a8d41eb3fe1ff151d776379", "rental_uris": {"android": "https://dc.lft.to/lastmile_qr_scan", "ios": "https://dc.lft.to/lastmile_qr_scan"}, "name": "8d0c3b058a8d41eb3fe1ff151d776379", "is_reserved": 0}, {"is_disabled": 0, "fusion_lon": 0.0, "fusion_lat": 0.0, "lat": 38.9257725, "type": "electric_scooter", "lon": -76.9949225, "bike_id": "909458011483a0313334ea07d5cad482", "rental_uris": {"android": "https://dc.lft.to/lastmile_qr_scan", "ios": "https://dc.lft.to/lastmile_qr_scan"}, "name": "909458011483a0313334ea07d5cad482", "is_reserved": 0}, {"is_disabled": 0, "fusion_lon": 0.0, "fusion_lat": 0.0, "lat": 38.91798333333333, "type": "electric_scooter", "lon": -77.04035033333334, "bike_id": "07db7229f9c757ef44f440144bb8af26", "rental_uris": {"android": "https://dc.lft.to/lastmile_qr_scan", "ios": "https://dc.lft.to/lastmile_qr_scan"}, "name": "07db7229f9c757ef44f440144bb8af26", "is_reserved": 0}, {"is_disabled": 0, "fusion_lon": 0.0, "fusion_lat": 0.0, "lat": 38.902526333333334, "type": "electric_scooter", "lon": -77.01938933333334, "bike_id": "9ac70abe6be4890d5e41753582ff5b02", "rental_uris": {"android": "https://dc.lft.to/lastmile_qr_scan", "ios": "https://dc.lft.to/lastmile_qr_scan"}, "name": "9ac70abe6be4890d5e41753582ff5b02", "is_reserved": 0}, {"is_disabled": 0, "fusion_lon": 0.0, "fusion_lat": 0.0, "lat": 38.88217366666667, "type": "electric_bike", "lon": -77.10757333333333, "bike_id": "81928d4afdcfb62c37d8c84b8ec224d2", "rental_uris": {"android": "https://dc.lft.to/lastmile_qr_scan", "ios": "https://dc.lft.to/lastmile_qr_scan"}, "name": "81928d4afdcfb62c37d8c84b8ec224d2", "is_reserved": 0}, {"is_disabled": 0, "fusion_lon": 0.0, "fusion_lat": 0.0, "lat": 38.89846683333333, "type": "electric_scooter", "lon": -77.02179633333333, "bike_id": "460f570f60d37f2e4aec5a89bee25303", "rental_uris": {"android": "https://dc.lft.to/lastmile_qr_scan", "ios": "https://dc.lft.to/lastmile_qr_scan"}, "name": "460f570f60d37f2e4aec5a89bee25303", "is_reserved": 0}, {"is_disabled": 0, "fusion_lon": 0.0, "fusion_lat": 0.0, "lat": 38.7762105, "type": "electric_bike", "lon": -77.08353883333334, "bike_id": "f075e808899a882e38d9664ae2e47a12", "rental_uris": {"android": "https://dc.lft.to/lastmile_qr_scan", "ios": "https://dc.lft.to/lastmile_qr_scan"}, "name": "f075e808899a882e38d9664ae2e47a12", "is_reserved": 0}, {"is_disabled": 0, "fusion_lon": 0.0, "fusion_lat": 0.0, "lat": 38.897458, "type": "electric_scooter", "lon": -77.0472355, "bike_id": "48ae8d9e5006a2e97c1dfb54caa4dded", "rental_uris": {"android": "https://dc.lft.to/lastmile_qr_scan", "ios": "https://dc.lft.to/lastmile_qr_scan"}, "name": "48ae8d9e5006a2e97c1dfb54caa4dded", "is_reserved": 0}, {"is_disabled": 0, "fusion_lon": 0.0, "fusion_lat": 0.0, "lat": 38.92653583333333, "type": "electric_bike", "lon": -76.997512, "bike_id": "48d12ecd088551d4ea8e77e5ef77588d", "rental_uris": {"android": "https://dc.lft.to/lastmile_qr_scan", "ios": "https://dc.lft.to/lastmile_qr_scan"}, "name": "48d12ecd088551d4ea8e77e5ef77588d", "is_reserved": 0}, {"is_disabled": 0, "fusion_lon": 0.0, "fusion_lat": 0.0, "lat": 38.888561833333334, "type": "electric_bike", "lon": -76.977009, "bike_id": "0e08e1ae9d31e2317f49e53a2051d458", "rental_uris": {"android": "https://dc.lft.to/lastmile_qr_scan", "ios": "https://dc.lft.to/lastmile_qr_scan"}, "name": "0e08e1ae9d31e2317f49e53a2051d458", "is_reserved": 0}, {"is_disabled": 0, "fusion_lon": 0.0, "fusion_lat": 0.0, "lat": 38.8895995, "type": "electric_scooter", "lon": -76.99148683333334, "bike_id": "4c8ecce448b7a9928e29e31fff58f132", "rental_uris": {"android": "https://dc.lft.to/lastmile_qr_scan", "ios": "https://dc.lft.to/lastmile_qr_scan"}, "name": "4c8ecce448b7a9928e29e31fff58f132", "is_reserved": 0}, {"is_disabled": 0, "fusion_lon": 0.0, "fusion_lat": 0.0, "lat": 38.898184666666666, "type": "electric_scooter", "lon": -77.029373, "bike_id": "06dc7537911709f72b7645d9ba7fbecb", "rental_uris": {"android": "https://dc.lft.to/lastmile_qr_scan", "ios": "https://dc.lft.to/lastmile_qr_scan"}, "name": "06dc7537911709f72b7645d9ba7fbecb", "is_reserved": 0}, {"is_disabled": 0, "fusion_lon": 0.0, "fusion_lat": 0.0, "lat": 38.887457166666664, "type": "electric_scooter", "lon": -77.0143125, "bike_id": "4d71bd71d6422dad7e3312346a09b332", "rental_uris": {"android": "https://dc.lft.to/lastmile_qr_scan", "ios": "https://dc.lft.to/lastmile_qr_scan"}, "name": "4d71bd71d6422dad7e3312346a09b332", "is_reserved": 0}, {"is_disabled": 0, "fusion_lon": 0.0, "fusion_lat": 0.0, "lat": 38.917691166666664, "type": "electric_scooter", "lon": -77.03181383333333, "bike_id": "25e868b4d058de8132185e291c6c1c68", "rental_uris": {"android": "https://dc.lft.to/lastmile_qr_scan", "ios": "https://dc.lft.to/lastmile_qr_scan"}, "name": "25e868b4d058de8132185e291c6c1c68", "is_reserved": 0}, {"is_disabled": 0, "fusion_lon": 0.0, "fusion_lat": 0.0, "lat": 38.91532516666667, "type": "electric_scooter", "lon": -77.02188133333334, "bike_id": "b0f0038ffab19ea62cd13b9e04388fba", "rental_uris": {"android": "https://dc.lft.to/lastmile_qr_scan", "ios": "https://dc.lft.to/lastmile_qr_scan"}, "name": "b0f0038ffab19ea62cd13b9e04388fba", "is_reserved": 0}, {"is_disabled": 0, "fusion_lon": 0.0, "fusion_lat": 0.0, "lat": 38.86672433333333, "type": "electric_scooter", "lon": -76.9888595, "bike_id": "ca12c157f593b79505fac26c4ac8a71e", "rental_uris": {"android": "https://dc.lft.to/lastmile_qr_scan", "ios": "https://dc.lft.to/lastmile_qr_scan"}, "name": "ca12c157f593b79505fac26c4ac8a71e", "is_reserved": 0}, {"is_disabled": 0, "fusion_lon": 0.0, "fusion_lat": 0.0, "lat": 38.91037433333333, "type": "electric_scooter", "lon": -77.037969, "bike_id": "482f9d4c54af16cc6f396affb409d5d4", "rental_uris": {"android": "https://dc.lft.to/lastmile_qr_scan", "ios": "https://dc.lft.to/lastmile_qr_scan"}, "name": "482f9d4c54af16cc6f396affb409d5d4", "is_reserved": 0}, {"is_disabled": 0, "fusion_lon": 0.0, "fusion_lat": 0.0, "lat": 39.0545225, "type": "electric_bike", "lon": -77.14325466666666, "bike_id": "62dafa5e39c420ea19913db84af563f5", "rental_uris": {"android": "https://dc.lft.to/lastmile_qr_scan", "ios": "https://dc.lft.to/lastmile_qr_scan"}, "name": "62dafa5e39c420ea19913db84af563f5", "is_reserved": 0}, {"is_disabled": 0, "fusion_lon": 0.0, "fusion_lat": 0.0, "lat": 38.92840266666666, "type": "electric_scooter", "lon": -77.05547733333333, "bike_id": "6b7d9ab15fb69e87b5fadc87502bcfd9", "rental_uris": {"android": "https://dc.lft.to/lastmile_qr_scan", "ios": "https://dc.lft.to/lastmile_qr_scan"}, "name": "6b7d9ab15fb69e87b5fadc87502bcfd9", "is_reserved": 0}, {"is_disabled": 0, "fusion_lon": 0.0, "fusion_lat": 0.0, "lat": 38.86808516666667, "type": "electric_scooter", "lon": -77.0117395, "bike_id": "e9d502f81e72be72023066be51b9065c", "rental_uris": {"android": "https://dc.lft.to/lastmile_qr_scan", "ios": "https://dc.lft.to/lastmile_qr_scan"}, "name": "e9d502f81e72be72023066be51b9065c", "is_reserved": 0}, {"is_disabled": 0, "fusion_lon": 0.0, "fusion_lat": 0.0, "lat": 38.94591066666667, "type": "electric_bike", "lon": -77.34405516666666, "bike_id": "11f01eb583f70589ec44e481a6995e01", "rental_uris": {"android": "https://dc.lft.to/lastmile_qr_scan", "ios": "https://dc.lft.to/lastmile_qr_scan"}, "name": "11f01eb583f70589ec44e481a6995e01", "is_reserved": 0}, {"is_disabled": 0, "fusion_lon": 0.0, "fusion_lat": 0.0, "lat": 38.89388, "type": "electric_scooter", "lon": -76.94994683333333, "bike_id": "b5e33af99f5d9729acfcb62c8296a748", "rental_uris": {"android": "https://dc.lft.to/lastmile_qr_scan", "ios": "https://dc.lft.to/lastmile_qr_scan"}, "name": "b5e33af99f5d9729acfcb62c8296a748", "is_reserved": 0}, {"is_disabled": 0, "fusion_lon": 0.0, "fusion_lat": 0.0, "lat": 38.90834366666667, "type": "electric_scooter", "lon": -76.99700933333334, "bike_id": "8b71450e3866d742d755eaf2eae06195", "rental_uris": {"android": "https://dc.lft.to/lastmile_qr_scan", "ios": "https://dc.lft.to/lastmile_qr_scan"}, "name": "8b71450e3866d742d755eaf2eae06195", "is_reserved": 0}, {"is_disabled": 0, "fusion_lon": 0.0, "fusion_lat": 0.0, "lat": 38.90216916666667, "type": "electric_scooter", "lon": -77.02370966666666, "bike_id": "30a8f29e847d1ee9f0880b9c495ea67e", "rental_uris": {"android": "https://dc.lft.to/lastmile_qr_scan", "ios": "https://dc.lft.to/lastmile_qr_scan"}, "name": "30a8f29e847d1ee9f0880b9c495ea67e", "is_reserved": 0}, {"is_disabled": 0, "fusion_lon": 0.0, "fusion_lat": 0.0, "lat": 38.905811, "type": "electric_scooter", "lon": -77.03359066666667, "bike_id": "fd11b7cd09e5ac17981f25038b030f10", "rental_uris": {"android": "https://dc.lft.to/lastmile_qr_scan", "ios": "https://dc.lft.to/lastmile_qr_scan"}, "name": "fd11b7cd09e5ac17981f25038b030f10", "is_reserved": 0}, {"is_disabled": 0, "fusion_lon": 0.0, "fusion_lat": 0.0, "lat": 38.90355183333333, "type": "electric_scooter", "lon": -77.0627285, "bike_id": "6dbc9c0aea44278906934de17f95ce21", "rental_uris": {"android": "https://dc.lft.to/lastmile_qr_scan", "ios": "https://dc.lft.to/lastmile_qr_scan"}, "name": "6dbc9c0aea44278906934de17f95ce21", "is_reserved": 0}, {"is_disabled": 0, "fusion_lon": 0.0, "fusion_lat": 0.0, "lat": 38.918587, "type": "electric_scooter", "lon": -77.04170966666666, "bike_id": "4173109b3b9e7943dbb1efacd2bfb35f", "rental_uris": {"android": "https://dc.lft.to/lastmile_qr_scan", "ios": "https://dc.lft.to/lastmile_qr_scan"}, "name": "4173109b3b9e7943dbb1efacd2bfb35f", "is_reserved": 0}, {"is_disabled": 0, "fusion_lon": 0.0, "fusion_lat": 0.0, "lat": 38.91820416666667, "type": "electric_scooter", "lon": -77.01211783333333, "bike_id": "4ffa0f1dcebff09257b044a2ba268efc", "rental_uris": {"android": "https://dc.lft.to/lastmile_qr_scan", "ios": "https://dc.lft.to/lastmile_qr_scan"}, "name": "4ffa0f1dcebff09257b044a2ba268efc", "is_reserved": 0}, {"is_disabled": 0, "fusion_lon": 0.0, "fusion_lat": 0.0, "lat": 38.90138066666667, "type": "electric_scooter", "lon": -77.01781066666666, "bike_id": "e787a592789def061b1608ab52720927", "rental_uris": {"android": "https://dc.lft.to/lastmile_qr_scan", "ios": "https://dc.lft.to/lastmile_qr_scan"}, "name": "e787a592789def061b1608ab52720927", "is_reserved": 0}, {"is_disabled": 0, "fusion_lon": 0.0, "fusion_lat": 0.0, "lat": 38.8451495, "type": "electric_bike", "lon": -77.07797016666666, "bike_id": "5017ec9ff739d563ef06c6335752b185", "rental_uris": {"android": "https://dc.lft.to/lastmile_qr_scan", "ios": "https://dc.lft.to/lastmile_qr_scan"}, "name": "5017ec9ff739d563ef06c6335752b185", "is_reserved": 0}, {"is_disabled": 0, "fusion_lon": 0.0, "fusion_lat": 0.0, "lat": 38.9247175, "type": "electric_scooter", "lon": -77.02985983333333, "bike_id": "28350c1cc9ce0b93cfb9048c8dc45a24", "rental_uris": {"android": "https://dc.lft.to/lastmile_qr_scan", "ios": "https://dc.lft.to/lastmile_qr_scan"}, "name": "28350c1cc9ce0b93cfb9048c8dc45a24", "is_reserved": 0}, {"is_disabled": 0, "fusion_lon": 0.0, "fusion_lat": 0.0, "lat": 38.92050283333333, "type": "electric_scooter", "lon": -77.02614283333334, "bike_id": "924d296316a636f7a6618001ccd70e95", "rental_uris": {"android": "https://dc.lft.to/lastmile_qr_scan", "ios": "https://dc.lft.to/lastmile_qr_scan"}, "name": "924d296316a636f7a6618001ccd70e95", "is_reserved": 0}, {"is_disabled": 0, "fusion_lon": 0.0, "fusion_lat": 0.0, "lat": 38.9419275, "type": "electric_scooter", "lon": -77.03329833333333, "bike_id": "3c913f93f9b9ed14a3cb3c47fe30ca0a", "rental_uris": {"android": "https://dc.lft.to/lastmile_qr_scan", "ios": "https://dc.lft.to/lastmile_qr_scan"}, "name": "3c913f93f9b9ed14a3cb3c47fe30ca0a", "is_reserved": 0}, {"is_disabled": 0, "fusion_lon": 0.0, "fusion_lat": 0.0, "lat": 38.908359833333336, "type": "electric_scooter", "lon": -77.048883, "bike_id": "018639ae8e748bdd4edef1cdf6a1cb6c", "rental_uris": {"android": "https://dc.lft.to/lastmile_qr_scan", "ios": "https://dc.lft.to/lastmile_qr_scan"}, "name": "018639ae8e748bdd4edef1cdf6a1cb6c", "is_reserved": 0}, {"is_disabled": 0, "fusion_lon": 0.0, "fusion_lat": 0.0, "lat": 38.912148333333334, "type": "electric_scooter", "lon": -77.0272325, "bike_id": "55efec41c435113424c8d10546bde814", "rental_uris": {"android": "https://dc.lft.to/lastmile_qr_scan", "ios": "https://dc.lft.to/lastmile_qr_scan"}, "name": "55efec41c435113424c8d10546bde814", "is_reserved": 0}, {"is_disabled": 0, "fusion_lon": 0.0, "fusion_lat": 0.0, "lat": 38.887436, "type": "electric_scooter", "lon": -77.02573216666667, "bike_id": "7a282fb79ac84bdae420035e92967f00", "rental_uris": {"android": "https://dc.lft.to/lastmile_qr_scan", "ios": "https://dc.lft.to/lastmile_qr_scan"}, "name": "7a282fb79ac84bdae420035e92967f00", "is_reserved": 0}, {"is_disabled": 0, "fusion_lon": 0.0, "fusion_lat": 0.0, "lat": 38.908551833333334, "type": "electric_scooter", "lon": -76.99796283333333, "bike_id": "fdb1045de80d1ad644e4f1ed0bceccaf", "rental_uris": {"android": "https://dc.lft.to/lastmile_qr_scan", "ios": "https://dc.lft.to/lastmile_qr_scan"}, "name": "fdb1045de80d1ad644e4f1ed0bceccaf", "is_reserved": 0}, {"is_disabled": 0, "fusion_lon": 0.0, "fusion_lat": 0.0, "lat": 38.881137833333334, "type": "electric_scooter", "lon": -77.01654083333334, "bike_id": "9c3b2968b7de720aba3540a270d37451", "rental_uris": {"android": "https://dc.lft.to/lastmile_qr_scan", "ios": "https://dc.lft.to/lastmile_qr_scan"}, "name": "9c3b2968b7de720aba3540a270d37451", "is_reserved": 0}, {"is_disabled": 0, "fusion_lon": 0.0, "fusion_lat": 0.0, "lat": 38.9188275, "type": "electric_scooter", "lon": -77.04171816666667, "bike_id": "41aea24f59d2a4296f0d2dc45a0fd127", "rental_uris": {"android": "https://dc.lft.to/lastmile_qr_scan", "ios": "https://dc.lft.to/lastmile_qr_scan"}, "name": "41aea24f59d2a4296f0d2dc45a0fd127", "is_reserved": 0}, {"is_disabled": 0, "fusion_lon": 0.0, "fusion_lat": 0.0, "lat": 38.85780283333333, "type": "electric_bike", "lon": -76.98763983333333, "bike_id": "9ebcd1a76c618c51a96ee8b4d14cb9b4", "rental_uris": {"android": "https://dc.lft.to/lastmile_qr_scan", "ios": "https://dc.lft.to/lastmile_qr_scan"}, "name": "9ebcd1a76c618c51a96ee8b4d14cb9b4", "is_reserved": 0}, {"is_disabled": 0, "fusion_lon": 0.0, "fusion_lat": 0.0, "lat": 38.89665216666667, "type": "electric_scooter", "lon": -77.05026116666667, "bike_id": "f2e08c3deaaac4aac246dc724b68e714", "rental_uris": {"android": "https://dc.lft.to/lastmile_qr_scan", "ios": "https://dc.lft.to/lastmile_qr_scan"}, "name": "f2e08c3deaaac4aac246dc724b68e714", "is_reserved": 0}, {"is_disabled": 0, "fusion_lon": 0.0, "fusion_lat": 0.0, "lat": 38.91788, "type": "electric_scooter", "lon": -77.03454983333333, "bike_id": "d694964e32791febb2c0c082315eb3f2", "rental_uris": {"android": "https://dc.lft.to/lastmile_qr_scan", "ios": "https://dc.lft.to/lastmile_qr_scan"}, "name": "d694964e32791febb2c0c082315eb3f2", "is_reserved": 0}, {"is_disabled": 0, "fusion_lon": 0.0, "fusion_lat": 0.0, "lat": 38.956123, "type": "electric_scooter", "lon": -77.0328125, "bike_id": "3b0b95813e02abac7cfd61589281cc65", "rental_uris": {"android": "https://dc.lft.to/lastmile_qr_scan", "ios": "https://dc.lft.to/lastmile_qr_scan"}, "name": "3b0b95813e02abac7cfd61589281cc65", "is_reserved": 0}, {"is_disabled": 0, "fusion_lon": 0.0, "fusion_lat": 0.0, "lat": 38.90681816666667, "type": "electric_scooter", "lon": -77.03629916666667, "bike_id": "c060b57715a919162a3def993dd21dc3", "rental_uris": {"android": "https://dc.lft.to/lastmile_qr_scan", "ios": "https://dc.lft.to/lastmile_qr_scan"}, "name": "c060b57715a919162a3def993dd21dc3", "is_reserved": 0}, {"is_disabled": 0, "fusion_lon": 0.0, "fusion_lat": 0.0, "lat": 38.917864, "type": "electric_scooter", "lon": -77.02312116666667, "bike_id": "2098434b4781df97d8d9c22c246c22cb", "rental_uris": {"android": "https://dc.lft.to/lastmile_qr_scan", "ios": "https://dc.lft.to/lastmile_qr_scan"}, "name": "2098434b4781df97d8d9c22c246c22cb", "is_reserved": 0}, {"is_disabled": 0, "fusion_lon": 0.0, "fusion_lat": 0.0, "lat": 38.88001, "type": "electric_bike", "lon": -76.91599266666667, "bike_id": "79ecd07e5affa3df9de8a6a76c669eaa", "rental_uris": {"android": "https://dc.lft.to/lastmile_qr_scan", "ios": "https://dc.lft.to/lastmile_qr_scan"}, "name": "79ecd07e5affa3df9de8a6a76c669eaa", "is_reserved": 0}, {"is_disabled": 0, "fusion_lon": 0.0, "fusion_lat": 0.0, "lat": 38.904265, "type": "electric_scooter", "lon": -77.02603583333334, "bike_id": "d672ceabdccc8823cd53a5c5e1b42485", "rental_uris": {"android": "https://dc.lft.to/lastmile_qr_scan", "ios": "https://dc.lft.to/lastmile_qr_scan"}, "name": "d672ceabdccc8823cd53a5c5e1b42485", "is_reserved": 0}, {"is_disabled": 0, "fusion_lon": 0.0, "fusion_lat": 0.0, "lat": 38.953973166666664, "type": "electric_scooter", "lon": -77.02754733333333, "bike_id": "4af15163247feec16e286ff1cd18438a", "rental_uris": {"android": "https://dc.lft.to/lastmile_qr_scan", "ios": "https://dc.lft.to/lastmile_qr_scan"}, "name": "4af15163247feec16e286ff1cd18438a", "is_reserved": 0}, {"is_disabled": 0, "fusion_lon": 0.0, "fusion_lat": 0.0, "lat": 38.966473666666666, "type": "electric_bike", "lon": -76.9302595, "bike_id": "e7c5552af3226496bc9d3c994970e56f", "rental_uris": {"android": "https://dc.lft.to/lastmile_qr_scan", "ios": "https://dc.lft.to/lastmile_qr_scan"}, "name": "e7c5552af3226496bc9d3c994970e56f", "is_reserved": 0}, {"is_disabled": 0, "fusion_lon": 0.0, "fusion_lat": 0.0, "lat": 38.92723616666667, "type": "electric_scooter", "lon": -77.05347916666666, "bike_id": "ffed96a77be8ee0e9a2e2287486e6b0b", "rental_uris": {"android": "https://dc.lft.to/lastmile_qr_scan", "ios": "https://dc.lft.to/lastmile_qr_scan"}, "name": "ffed96a77be8ee0e9a2e2287486e6b0b", "is_reserved": 0}, {"is_disabled": 0, "fusion_lon": 0.0, "fusion_lat": 0.0, "lat": 38.92791066666667, "type": "electric_scooter", "lon": -77.031128, "bike_id": "8730a865240b3f40c2f5484b40927bdc", "rental_uris": {"android": "https://dc.lft.to/lastmile_qr_scan", "ios": "https://dc.lft.to/lastmile_qr_scan"}, "name": "8730a865240b3f40c2f5484b40927bdc", "is_reserved": 0}, {"is_disabled": 0, "fusion_lon": 0.0, "fusion_lat": 0.0, "lat": 38.902471, "type": "electric_scooter", "lon": -77.01800866666666, "bike_id": "7a9abf8172a4ecd4d8f47268c157cfe9", "rental_uris": {"android": "https://dc.lft.to/lastmile_qr_scan", "ios": "https://dc.lft.to/lastmile_qr_scan"}, "name": "7a9abf8172a4ecd4d8f47268c157cfe9", "is_reserved": 0}, {"is_disabled": 0, "fusion_lon": 0.0, "fusion_lat": 0.0, "lat": 38.935380333333335, "type": "electric_scooter", "lon": -77.03406716666667, "bike_id": "4068855a64648474754b6d6f61cf6e32", "rental_uris": {"android": "https://dc.lft.to/lastmile_qr_scan", "ios": "https://dc.lft.to/lastmile_qr_scan"}, "name": "4068855a64648474754b6d6f61cf6e32", "is_reserved": 0}, {"is_disabled": 0, "fusion_lon": 0.0, "fusion_lat": 0.0, "lat": 38.92659183333333, "type": "electric_scooter", "lon": -77.02282433333333, "bike_id": "1e51b6b793d8f552ea032fb819fa4eaa", "rental_uris": {"android": "https://dc.lft.to/lastmile_qr_scan", "ios": "https://dc.lft.to/lastmile_qr_scan"}, "name": "1e51b6b793d8f552ea032fb819fa4eaa", "is_reserved": 0}, {"is_disabled": 0, "fusion_lon": 0.0, "fusion_lat": 0.0, "lat": 38.8983415, "type": "electric_scooter", "lon": -77.02214716666667, "bike_id": "2d44edffa59ca6db746c4e5bc44714bf", "rental_uris": {"android": "https://dc.lft.to/lastmile_qr_scan", "ios": "https://dc.lft.to/lastmile_qr_scan"}, "name": "2d44edffa59ca6db746c4e5bc44714bf", "is_reserved": 0}, {"is_disabled": 0, "fusion_lon": 0.0, "fusion_lat": 0.0, "lat": 38.90951583333333, "type": "electric_scooter", "lon": -77.02714383333333, "bike_id": "9e5604ffaf323bc551dc48cd9dae4396", "rental_uris": {"android": "https://dc.lft.to/lastmile_qr_scan", "ios": "https://dc.lft.to/lastmile_qr_scan"}, "name": "9e5604ffaf323bc551dc48cd9dae4396", "is_reserved": 0}, {"is_disabled": 0, "fusion_lon": 0.0, "fusion_lat": 0.0, "lat": 38.996679, "type": "electric_bike", "lon": -76.99144916666667, "bike_id": "2f2c26b273faa8e046d57c792a90bfe7", "rental_uris": {"android": "https://dc.lft.to/lastmile_qr_scan", "ios": "https://dc.lft.to/lastmile_qr_scan"}, "name": "2f2c26b273faa8e046d57c792a90bfe7", "is_reserved": 0}, {"is_disabled": 0, "fusion_lon": 0.0, "fusion_lat": 0.0, "lat": 38.90180683333333, "type": "electric_scooter", "lon": -77.04805833333333, "bike_id": "d70a8c45e92872223a1ccd2daaa293cd", "rental_uris": {"android": "https://dc.lft.to/lastmile_qr_scan", "ios": "https://dc.lft.to/lastmile_qr_scan"}, "name": "d70a8c45e92872223a1ccd2daaa293cd", "is_reserved": 0}, {"is_disabled": 0, "fusion_lon": 0.0, "fusion_lat": 0.0, "lat": 38.9168435, "type": "electric_scooter", "lon": -77.029012, "bike_id": "2a4632f0d57532b3b270095ee7a12364", "rental_uris": {"android": "https://dc.lft.to/lastmile_qr_scan", "ios": "https://dc.lft.to/lastmile_qr_scan"}, "name": "2a4632f0d57532b3b270095ee7a12364", "is_reserved": 0}, {"is_disabled": 0, "fusion_lon": 0.0, "fusion_lat": 0.0, "lat": 38.87572633333333, "type": "electric_scooter", "lon": -77.02087433333334, "bike_id": "4e758baadcb9dc4cf52860f340aa52f6", "rental_uris": {"android": "https://dc.lft.to/lastmile_qr_scan", "ios": "https://dc.lft.to/lastmile_qr_scan"}, "name": "4e758baadcb9dc4cf52860f340aa52f6", "is_reserved": 0}, {"is_disabled": 0, "fusion_lon": 0.0, "fusion_lat": 0.0, "lat": 38.9036005, "type": "electric_scooter", "lon": -77.01115783333333, "bike_id": "982f1511f7d97e967b105e333523ea7b", "rental_uris": {"android": "https://dc.lft.to/lastmile_qr_scan", "ios": "https://dc.lft.to/lastmile_qr_scan"}, "name": "982f1511f7d97e967b105e333523ea7b", "is_reserved": 0}, {"is_disabled": 0, "fusion_lon": 0.0, "fusion_lat": 0.0, "lat": 38.91675633333333, "type": "electric_scooter", "lon": -77.015789, "bike_id": "ce2237d584e5b0dcfd0462efeb99b940", "rental_uris": {"android": "https://dc.lft.to/lastmile_qr_scan", "ios": "https://dc.lft.to/lastmile_qr_scan"}, "name": "ce2237d584e5b0dcfd0462efeb99b940", "is_reserved": 0}, {"is_disabled": 0, "fusion_lon": 0.0, "fusion_lat": 0.0, "lat": 38.905913, "type": "electric_scooter", "lon": -77.02380483333333, "bike_id": "7a9b6ff40e1e88076490325dd93728a5", "rental_uris": {"android": "https://dc.lft.to/lastmile_qr_scan", "ios": "https://dc.lft.to/lastmile_qr_scan"}, "name": "7a9b6ff40e1e88076490325dd93728a5", "is_reserved": 0}, {"is_disabled": 0, "fusion_lon": 0.0, "fusion_lat": 0.0, "lat": 38.88124333333333, "type": "electric_scooter", "lon": -76.99600116666667, "bike_id": "7724fa77e1126b1d2ecb37565996c6b4", "rental_uris": {"android": "https://dc.lft.to/lastmile_qr_scan", "ios": "https://dc.lft.to/lastmile_qr_scan"}, "name": "7724fa77e1126b1d2ecb37565996c6b4", "is_reserved": 0}, {"is_disabled": 0, "fusion_lon": 0.0, "fusion_lat": 0.0, "lat": 38.911960666666666, "type": "electric_scooter", "lon": -77.04171833333334, "bike_id": "04bfc371f68b85969fd63f4afa561cbe", "rental_uris": {"android": "https://dc.lft.to/lastmile_qr_scan", "ios": "https://dc.lft.to/lastmile_qr_scan"}, "name": "04bfc371f68b85969fd63f4afa561cbe", "is_reserved": 0}, {"is_disabled": 0, "fusion_lon": 0.0, "fusion_lat": 0.0, "lat": 38.86506583333333, "type": "electric_scooter", "lon": -76.990073, "bike_id": "ec0b79a5f7b265a0942e5277140973c8", "rental_uris": {"android": "https://dc.lft.to/lastmile_qr_scan", "ios": "https://dc.lft.to/lastmile_qr_scan"}, "name": "ec0b79a5f7b265a0942e5277140973c8", "is_reserved": 0}, {"is_disabled": 0, "fusion_lon": 0.0, "fusion_lat": 0.0, "lat": 38.93140966666667, "type": "electric_scooter", "lon": -77.0406195, "bike_id": "3b0e84c3d885f84df8ecbf378fe55a4a", "rental_uris": {"android": "https://dc.lft.to/lastmile_qr_scan", "ios": "https://dc.lft.to/lastmile_qr_scan"}, "name": "3b0e84c3d885f84df8ecbf378fe55a4a", "is_reserved": 0}, {"is_disabled": 0, "fusion_lon": 0.0, "fusion_lat": 0.0, "lat": 38.8653525, "type": "electric_scooter", "lon": -76.98710716666666, "bike_id": "df13b27f20c334f85e6072e9d87d1a08", "rental_uris": {"android": "https://dc.lft.to/lastmile_qr_scan", "ios": "https://dc.lft.to/lastmile_qr_scan"}, "name": "df13b27f20c334f85e6072e9d87d1a08", "is_reserved": 0}, {"is_disabled": 0, "fusion_lon": 0.0, "fusion_lat": 0.0, "lat": 38.893939833333334, "type": "electric_scooter", "lon": -76.94995616666667, "bike_id": "07f57f6b0483571c0e8e0ab2bc6f4cef", "rental_uris": {"android": "https://dc.lft.to/lastmile_qr_scan", "ios": "https://dc.lft.to/lastmile_qr_scan"}, "name": "07f57f6b0483571c0e8e0ab2bc6f4cef", "is_reserved": 0}, {"is_disabled": 0, "fusion_lon": 0.0, "fusion_lat": 0.0, "lat": 38.92063666666667, "type": "electric_scooter", "lon": -77.04699016666666, "bike_id": "5cb5677ca281d930976d631697d0af2e", "rental_uris": {"android": "https://dc.lft.to/lastmile_qr_scan", "ios": "https://dc.lft.to/lastmile_qr_scan"}, "name": "5cb5677ca281d930976d631697d0af2e", "is_reserved": 0}, {"is_disabled": 0, "fusion_lon": 0.0, "fusion_lat": 0.0, "lat": 38.905419, "type": "electric_scooter", "lon": -77.05394833333334, "bike_id": "32cd41f9bab5582a1bf94f6d73995b65", "rental_uris": {"android": "https://dc.lft.to/lastmile_qr_scan", "ios": "https://dc.lft.to/lastmile_qr_scan"}, "name": "32cd41f9bab5582a1bf94f6d73995b65", "is_reserved": 0}, {"is_disabled": 0, "fusion_lon": 0.0, "fusion_lat": 0.0, "lat": 38.911930166666664, "type": "electric_scooter", "lon": -77.0392085, "bike_id": "561a73d5f6866dca9e3ca42f41224359", "rental_uris": {"android": "https://dc.lft.to/lastmile_qr_scan", "ios": "https://dc.lft.to/lastmile_qr_scan"}, "name": "561a73d5f6866dca9e3ca42f41224359", "is_reserved": 0}, {"is_disabled": 0, "fusion_lon": 0.0, "fusion_lat": 0.0, "lat": 38.91060783333333, "type": "electric_scooter", "lon": -77.04168683333333, "bike_id": "8ab65b72c5f0f266f15422913d0343f1", "rental_uris": {"android": "https://dc.lft.to/lastmile_qr_scan", "ios": "https://dc.lft.to/lastmile_qr_scan"}, "name": "8ab65b72c5f0f266f15422913d0343f1", "is_reserved": 0}, {"is_disabled": 0, "fusion_lon": 0.0, "fusion_lat": 0.0, "lat": 38.88583216666667, "type": "electric_scooter", "lon": -77.01225966666667, "bike_id": "387d0bd22827ee1f5e22838fc1d1ae31", "rental_uris": {"android": "https://dc.lft.to/lastmile_qr_scan", "ios": "https://dc.lft.to/lastmile_qr_scan"}, "name": "387d0bd22827ee1f5e22838fc1d1ae31", "is_reserved": 0}, {"is_disabled": 0, "fusion_lon": 0.0, "fusion_lat": 0.0, "lat": 38.89826433333333, "type": "electric_scooter", "lon": -77.03155116666667, "bike_id": "50993ffc40114744b49a0a9c2f86167f", "rental_uris": {"android": "https://dc.lft.to/lastmile_qr_scan", "ios": "https://dc.lft.to/lastmile_qr_scan"}, "name": "50993ffc40114744b49a0a9c2f86167f", "is_reserved": 0}, {"is_disabled": 0, "fusion_lon": 0.0, "fusion_lat": 0.0, "lat": 38.909481666666665, "type": "electric_scooter", "lon": -77.027167, "bike_id": "b1864db65a28aa03eaee58d9d1b5291a", "rental_uris": {"android": "https://dc.lft.to/lastmile_qr_scan", "ios": "https://dc.lft.to/lastmile_qr_scan"}, "name": "b1864db65a28aa03eaee58d9d1b5291a", "is_reserved": 0}, {"is_disabled": 0, "fusion_lon": 0.0, "fusion_lat": 0.0, "lat": 38.88490616666667, "type": "electric_scooter", "lon": -77.020724, "bike_id": "30b3a5c54523749ee2a54f1d551d3060", "rental_uris": {"android": "https://dc.lft.to/lastmile_qr_scan", "ios": "https://dc.lft.to/lastmile_qr_scan"}, "name": "30b3a5c54523749ee2a54f1d551d3060", "is_reserved": 0}, {"is_disabled": 0, "fusion_lon": 0.0, "fusion_lat": 0.0, "lat": 38.89620733333334, "type": "electric_scooter", "lon": -77.026647, "bike_id": "c9c74e942fb5374b3bb420f072dc8d3c", "rental_uris": {"android": "https://dc.lft.to/lastmile_qr_scan", "ios": "https://dc.lft.to/lastmile_qr_scan"}, "name": "c9c74e942fb5374b3bb420f072dc8d3c", "is_reserved": 0}, {"is_disabled": 0, "fusion_lon": 0.0, "fusion_lat": 0.0, "lat": 38.889863, "type": "electric_scooter", "lon": -77.00344233333334, "bike_id": "460ee079bb52752b784cdd8e78be8791", "rental_uris": {"android": "https://dc.lft.to/lastmile_qr_scan", "ios": "https://dc.lft.to/lastmile_qr_scan"}, "name": "460ee079bb52752b784cdd8e78be8791", "is_reserved": 0}, {"is_disabled": 0, "fusion_lon": 0.0, "fusion_lat": 0.0, "lat": 38.86464483333334, "type": "electric_scooter", "lon": -76.9961435, "bike_id": "542ca4281b4874dae5217449b0749f4c", "rental_uris": {"android": "https://dc.lft.to/lastmile_qr_scan", "ios": "https://dc.lft.to/lastmile_qr_scan"}, "name": "542ca4281b4874dae5217449b0749f4c", "is_reserved": 0}, {"is_disabled": 0, "fusion_lon": 0.0, "fusion_lat": 0.0, "lat": 38.90470783333333, "type": "electric_scooter", "lon": -77.00592183333333, "bike_id": "93ff5bde276c06b7c8764ae4b402432d", "rental_uris": {"android": "https://dc.lft.to/lastmile_qr_scan", "ios": "https://dc.lft.to/lastmile_qr_scan"}, "name": "93ff5bde276c06b7c8764ae4b402432d", "is_reserved": 0}, {"is_disabled": 0, "fusion_lon": 0.0, "fusion_lat": 0.0, "lat": 38.918071, "type": "electric_scooter", "lon": -77.035662, "bike_id": "3b34576cb38e44485108e962d6d2c460", "rental_uris": {"android": "https://dc.lft.to/lastmile_qr_scan", "ios": "https://dc.lft.to/lastmile_qr_scan"}, "name": "3b34576cb38e44485108e962d6d2c460", "is_reserved": 0}, {"is_disabled": 0, "fusion_lon": 0.0, "fusion_lat": 0.0, "lat": 38.91118, "type": "electric_scooter", "lon": -77.03866483333333, "bike_id": "c7019d989098b47770799be68df34fae", "rental_uris": {"android": "https://dc.lft.to/lastmile_qr_scan", "ios": "https://dc.lft.to/lastmile_qr_scan"}, "name": "c7019d989098b47770799be68df34fae", "is_reserved": 0}, {"is_disabled": 0, "fusion_lon": 0.0, "fusion_lat": 0.0, "lat": 38.94081333333333, "type": "electric_scooter", "lon": -77.0614165, "bike_id": "0fe9e2586986f87150b10d9c03483ed7", "rental_uris": {"android": "https://dc.lft.to/lastmile_qr_scan", "ios": "https://dc.lft.to/lastmile_qr_scan"}, "name": "0fe9e2586986f87150b10d9c03483ed7", "is_reserved": 0}, {"is_disabled": 0, "fusion_lon": 0.0, "fusion_lat": 0.0, "lat": 38.924913833333335, "type": "electric_scooter", "lon": -77.03933633333334, "bike_id": "1f69252be321d20967489f9c57d0a5c2", "rental_uris": {"android": "https://dc.lft.to/lastmile_qr_scan", "ios": "https://dc.lft.to/lastmile_qr_scan"}, "name": "1f69252be321d20967489f9c57d0a5c2", "is_reserved": 0}, {"is_disabled": 0, "fusion_lon": 0.0, "fusion_lat": 0.0, "lat": 38.90839, "type": "electric_scooter", "lon": -77.0345105, "bike_id": "de01f4be3b3e607a6248c82569706612", "rental_uris": {"android": "https://dc.lft.to/lastmile_qr_scan", "ios": "https://dc.lft.to/lastmile_qr_scan"}, "name": "de01f4be3b3e607a6248c82569706612", "is_reserved": 0}, {"is_disabled": 0, "fusion_lon": 0.0, "fusion_lat": 0.0, "lat": 38.92668283333333, "type": "electric_bike", "lon": -77.00812383333333, "bike_id": "6ba31fb41f89b1413777e368ffeca7e3", "rental_uris": {"android": "https://dc.lft.to/lastmile_qr_scan", "ios": "https://dc.lft.to/lastmile_qr_scan"}, "name": "6ba31fb41f89b1413777e368ffeca7e3", "is_reserved": 0}, {"is_disabled": 0, "fusion_lon": 0.0, "fusion_lat": 0.0, "lat": 38.905975, "type": "electric_scooter", "lon": -77.063741, "bike_id": "0d4884d40e0668f3bdfc17fa5bb52924", "rental_uris": {"android": "https://dc.lft.to/lastmile_qr_scan", "ios": "https://dc.lft.to/lastmile_qr_scan"}, "name": "0d4884d40e0668f3bdfc17fa5bb52924", "is_reserved": 0}, {"is_disabled": 0, "fusion_lon": 0.0, "fusion_lat": 0.0, "lat": 38.9180715, "type": "electric_scooter", "lon": -77.034347, "bike_id": "50dde59b1f9d0916c1a2ac7be8c6ca12", "rental_uris": {"android": "https://dc.lft.to/lastmile_qr_scan", "ios": "https://dc.lft.to/lastmile_qr_scan"}, "name": "50dde59b1f9d0916c1a2ac7be8c6ca12", "is_reserved": 0}, {"is_disabled": 0, "fusion_lon": 0.0, "fusion_lat": 0.0, "lat": 38.90068216666667, "type": "electric_scooter", "lon": -77.04888933333334, "bike_id": "e64f70f0c038ba3516a2921ef9fafd7e", "rental_uris": {"android": "https://dc.lft.to/lastmile_qr_scan", "ios": "https://dc.lft.to/lastmile_qr_scan"}, "name": "e64f70f0c038ba3516a2921ef9fafd7e", "is_reserved": 0}, {"is_disabled": 0, "fusion_lon": 0.0, "fusion_lat": 0.0, "lat": 38.89825416666667, "type": "electric_scooter", "lon": -77.031148, "bike_id": "1e0fb5ea4bb09ce6abe635857f2c2dc4", "rental_uris": {"android": "https://dc.lft.to/lastmile_qr_scan", "ios": "https://dc.lft.to/lastmile_qr_scan"}, "name": "1e0fb5ea4bb09ce6abe635857f2c2dc4", "is_reserved": 0}, {"is_disabled": 0, "fusion_lon": 0.0, "fusion_lat": 0.0, "lat": 38.9452255, "type": "electric_scooter", "lon": -77.029813, "bike_id": "06f269645b523f9c9283afe7c7a872d3", "rental_uris": {"android": "https://dc.lft.to/lastmile_qr_scan", "ios": "https://dc.lft.to/lastmile_qr_scan"}, "name": "06f269645b523f9c9283afe7c7a872d3", "is_reserved": 0}, {"is_disabled": 0, "fusion_lon": 0.0, "fusion_lat": 0.0, "lat": 38.90762516666667, "type": "electric_scooter", "lon": -77.0386645, "bike_id": "b168c388a29d92483bc077eb7cbce821", "rental_uris": {"android": "https://dc.lft.to/lastmile_qr_scan", "ios": "https://dc.lft.to/lastmile_qr_scan"}, "name": "b168c388a29d92483bc077eb7cbce821", "is_reserved": 0}, {"is_disabled": 0, "fusion_lon": 0.0, "fusion_lat": 0.0, "lat": 38.910152, "type": "electric_scooter", "lon": -77.03643866666667, "bike_id": "77d5824bef88b94a540a43b0553c8c3a", "rental_uris": {"android": "https://dc.lft.to/lastmile_qr_scan", "ios": "https://dc.lft.to/lastmile_qr_scan"}, "name": "77d5824bef88b94a540a43b0553c8c3a", "is_reserved": 0}, {"is_disabled": 0, "fusion_lon": 0.0, "fusion_lat": 0.0, "lat": 38.883740333333336, "type": "electric_scooter", "lon": -76.92373766666667, "bike_id": "beef99b7c16322aaf5ba6b7ff6921695", "rental_uris": {"android": "https://dc.lft.to/lastmile_qr_scan", "ios": "https://dc.lft.to/lastmile_qr_scan"}, "name": "beef99b7c16322aaf5ba6b7ff6921695", "is_reserved": 0}, {"is_disabled": 0, "fusion_lon": 0.0, "fusion_lat": 0.0, "lat": 38.924035, "type": "electric_scooter", "lon": -76.99739466666666, "bike_id": "e69d30be0ad30046bcac13d4723acd8f", "rental_uris": {"android": "https://dc.lft.to/lastmile_qr_scan", "ios": "https://dc.lft.to/lastmile_qr_scan"}, "name": "e69d30be0ad30046bcac13d4723acd8f", "is_reserved": 0}, {"is_disabled": 0, "fusion_lon": 0.0, "fusion_lat": 0.0, "lat": 38.902850666666666, "type": "electric_scooter", "lon": -77.03652866666667, "bike_id": "6c3443bf640eab2c7db884bc5af8f86d", "rental_uris": {"android": "https://dc.lft.to/lastmile_qr_scan", "ios": "https://dc.lft.to/lastmile_qr_scan"}, "name": "6c3443bf640eab2c7db884bc5af8f86d", "is_reserved": 0}, {"is_disabled": 0, "fusion_lon": 0.0, "fusion_lat": 0.0, "lat": 38.906827166666666, "type": "electric_scooter", "lon": -77.03115433333333, "bike_id": "bfb1c5fbb490ee6c60c7e5cb4397b29f", "rental_uris": {"android": "https://dc.lft.to/lastmile_qr_scan", "ios": "https://dc.lft.to/lastmile_qr_scan"}, "name": "bfb1c5fbb490ee6c60c7e5cb4397b29f", "is_reserved": 0}, {"is_disabled": 0, "fusion_lon": 0.0, "fusion_lat": 0.0, "lat": 38.902007, "type": "electric_scooter", "lon": -76.98194766666667, "bike_id": "83c73817eecf8f8076ba369ad3d554aa", "rental_uris": {"android": "https://dc.lft.to/lastmile_qr_scan", "ios": "https://dc.lft.to/lastmile_qr_scan"}, "name": "83c73817eecf8f8076ba369ad3d554aa", "is_reserved": 0}, {"is_disabled": 0, "fusion_lon": 0.0, "fusion_lat": 0.0, "lat": 38.95269966666667, "type": "electric_bike", "lon": -77.0698105, "bike_id": "359fcb3863ce88f7870f9eb6b8eebcbe", "rental_uris": {"android": "https://dc.lft.to/lastmile_qr_scan", "ios": "https://dc.lft.to/lastmile_qr_scan"}, "name": "359fcb3863ce88f7870f9eb6b8eebcbe", "is_reserved": 0}, {"is_disabled": 0, "fusion_lon": 0.0, "fusion_lat": 0.0, "lat": 38.924811, "type": "electric_scooter", "lon": -77.02728416666666, "bike_id": "07665c9bbfcdf082f63f9b3c9eb23a1b", "rental_uris": {"android": "https://dc.lft.to/lastmile_qr_scan", "ios": "https://dc.lft.to/lastmile_qr_scan"}, "name": "07665c9bbfcdf082f63f9b3c9eb23a1b", "is_reserved": 0}, {"is_disabled": 0, "fusion_lon": 0.0, "fusion_lat": 0.0, "lat": 38.909528, "type": "electric_scooter", "lon": -77.02381783333334, "bike_id": "c7982cf71140e43e04937b158c6cad3f", "rental_uris": {"android": "https://dc.lft.to/lastmile_qr_scan", "ios": "https://dc.lft.to/lastmile_qr_scan"}, "name": "c7982cf71140e43e04937b158c6cad3f", "is_reserved": 0}, {"is_disabled": 0, "fusion_lon": 0.0, "fusion_lat": 0.0, "lat": 38.953115833333335, "type": "electric_scooter", "lon": -77.03599883333334, "bike_id": "b32b7059d7ebf0e138f0aae61e6c8fd3", "rental_uris": {"android": "https://dc.lft.to/lastmile_qr_scan", "ios": "https://dc.lft.to/lastmile_qr_scan"}, "name": "b32b7059d7ebf0e138f0aae61e6c8fd3", "is_reserved": 0}, {"is_disabled": 0, "fusion_lon": 0.0, "fusion_lat": 0.0, "lat": 38.949803, "type": "electric_scooter", "lon": -77.02703983333333, "bike_id": "3c23f9dfa04aa1030043339799c86198", "rental_uris": {"android": "https://dc.lft.to/lastmile_qr_scan", "ios": "https://dc.lft.to/lastmile_qr_scan"}, "name": "3c23f9dfa04aa1030043339799c86198", "is_reserved": 0}, {"is_disabled": 0, "fusion_lon": 0.0, "fusion_lat": 0.0, "lat": 38.91850633333333, "type": "electric_scooter", "lon": -77.0322095, "bike_id": "ecdde63f368e117b70945fc9cb434d59", "rental_uris": {"android": "https://dc.lft.to/lastmile_qr_scan", "ios": "https://dc.lft.to/lastmile_qr_scan"}, "name": "ecdde63f368e117b70945fc9cb434d59", "is_reserved": 0}, {"is_disabled": 0, "fusion_lon": 0.0, "fusion_lat": 0.0, "lat": 38.8956565, "type": "electric_bike", "lon": -77.12739966666666, "bike_id": "595de0be085f5d84e51607bcba0c91b2", "rental_uris": {"android": "https://dc.lft.to/lastmile_qr_scan", "ios": "https://dc.lft.to/lastmile_qr_scan"}, "name": "595de0be085f5d84e51607bcba0c91b2", "is_reserved": 0}, {"is_disabled": 0, "fusion_lon": 0.0, "fusion_lat": 0.0, "lat": 38.897996666666664, "type": "electric_scooter", "lon": -76.93049283333333, "bike_id": "b27d2fbf11729c304b27f854be924492", "rental_uris": {"android": "https://dc.lft.to/lastmile_qr_scan", "ios": "https://dc.lft.to/lastmile_qr_scan"}, "name": "b27d2fbf11729c304b27f854be924492", "is_reserved": 0}, {"is_disabled": 0, "fusion_lon": 0.0, "fusion_lat": 0.0, "lat": 38.9983915, "type": "electric_bike", "lon": -77.02901516666667, "bike_id": "adfe9a738724061b9522ef2e6eba2473", "rental_uris": {"android": "https://dc.lft.to/lastmile_qr_scan", "ios": "https://dc.lft.to/lastmile_qr_scan"}, "name": "adfe9a738724061b9522ef2e6eba2473", "is_reserved": 0}, {"is_disabled": 0, "fusion_lon": 0.0, "fusion_lat": 0.0, "lat": 38.9575615, "type": "electric_bike", "lon": -77.02058066666666, "bike_id": "1f44a425a256f9d516a3ab8b2beb979d", "rental_uris": {"android": "https://dc.lft.to/lastmile_qr_scan", "ios": "https://dc.lft.to/lastmile_qr_scan"}, "name": "1f44a425a256f9d516a3ab8b2beb979d", "is_reserved": 0}, {"is_disabled": 0, "fusion_lon": 0.0, "fusion_lat": 0.0, "lat": 38.9241445, "type": "electric_scooter", "lon": -77.0354775, "bike_id": "449b04805e7c56ff677b58c17898f82b", "rental_uris": {"android": "https://dc.lft.to/lastmile_qr_scan", "ios": "https://dc.lft.to/lastmile_qr_scan"}, "name": "449b04805e7c56ff677b58c17898f82b", "is_reserved": 0}, {"is_disabled": 0, "fusion_lon": 0.0, "fusion_lat": 0.0, "lat": 38.89938216666667, "type": "electric_scooter", "lon": -77.015236, "bike_id": "3ebc595e32a5f1b00ba8f6991c0d888f", "rental_uris": {"android": "https://dc.lft.to/lastmile_qr_scan", "ios": "https://dc.lft.to/lastmile_qr_scan"}, "name": "3ebc595e32a5f1b00ba8f6991c0d888f", "is_reserved": 0}, {"is_disabled": 0, "fusion_lon": 0.0, "fusion_lat": 0.0, "lat": 38.89241116666667, "type": "electric_scooter", "lon": -77.04660233333334, "bike_id": "a8220114ef2107b39927ab7cf30a314e", "rental_uris": {"android": "https://dc.lft.to/lastmile_qr_scan", "ios": "https://dc.lft.to/lastmile_qr_scan"}, "name": "a8220114ef2107b39927ab7cf30a314e", "is_reserved": 0}, {"is_disabled": 0, "fusion_lon": 0.0, "fusion_lat": 0.0, "lat": 38.83151466666666, "type": "electric_bike", "lon": -76.99695416666667, "bike_id": "6ea35eafb92ce303883f24d418dfd157", "rental_uris": {"android": "https://dc.lft.to/lastmile_qr_scan", "ios": "https://dc.lft.to/lastmile_qr_scan"}, "name": "6ea35eafb92ce303883f24d418dfd157", "is_reserved": 0}, {"is_disabled": 0, "fusion_lon": 0.0, "fusion_lat": 0.0, "lat": 38.906513333333336, "type": "electric_scooter", "lon": -77.027082, "bike_id": "a0dedd5bc6f4c09b27ed9a753aa1c6d2", "rental_uris": {"android": "https://dc.lft.to/lastmile_qr_scan", "ios": "https://dc.lft.to/lastmile_qr_scan"}, "name": "a0dedd5bc6f4c09b27ed9a753aa1c6d2", "is_reserved": 0}, {"is_disabled": 0, "fusion_lon": 0.0, "fusion_lat": 0.0, "lat": 38.907701, "type": "electric_scooter", "lon": -77.03854316666667, "bike_id": "df5e88b27bbb7643da160236c791c9ca", "rental_uris": {"android": "https://dc.lft.to/lastmile_qr_scan", "ios": "https://dc.lft.to/lastmile_qr_scan"}, "name": "df5e88b27bbb7643da160236c791c9ca", "is_reserved": 0}, {"is_disabled": 0, "fusion_lon": 0.0, "fusion_lat": 0.0, "lat": 38.90181533333333, "type": "electric_scooter", "lon": -77.01850566666667, "bike_id": "a1cbe874a62c2d6fddecd0a5fe0a10d8", "rental_uris": {"android": "https://dc.lft.to/lastmile_qr_scan", "ios": "https://dc.lft.to/lastmile_qr_scan"}, "name": "a1cbe874a62c2d6fddecd0a5fe0a10d8", "is_reserved": 0}, {"is_disabled": 0, "fusion_lon": 0.0, "fusion_lat": 0.0, "lat": 38.8983465, "type": "electric_scooter", "lon": -77.031683, "bike_id": "058de8aac6f1949553268be9cc0317da", "rental_uris": {"android": "https://dc.lft.to/lastmile_qr_scan", "ios": "https://dc.lft.to/lastmile_qr_scan"}, "name": "058de8aac6f1949553268be9cc0317da", "is_reserved": 0}, {"is_disabled": 0, "fusion_lon": 0.0, "fusion_lat": 0.0, "lat": 38.921517333333334, "type": "electric_scooter", "lon": -77.03866416666666, "bike_id": "fe91e631bb08fdde5eea320a91e0dd87", "rental_uris": {"android": "https://dc.lft.to/lastmile_qr_scan", "ios": "https://dc.lft.to/lastmile_qr_scan"}, "name": "fe91e631bb08fdde5eea320a91e0dd87", "is_reserved": 0}, {"is_disabled": 0, "fusion_lon": 0.0, "fusion_lat": 0.0, "lat": 38.9475635, "type": "electric_scooter", "lon": -77.02980116666667, "bike_id": "00feb2c841d892774021124bcb0dafba", "rental_uris": {"android": "https://dc.lft.to/lastmile_qr_scan", "ios": "https://dc.lft.to/lastmile_qr_scan"}, "name": "00feb2c841d892774021124bcb0dafba", "is_reserved": 0}, {"is_disabled": 0, "fusion_lon": 0.0, "fusion_lat": 0.0, "lat": 38.93110316666667, "type": "electric_scooter", "lon": -77.0124765, "bike_id": "81f6b58b4edc60924e4ab659afad3dad", "rental_uris": {"android": "https://dc.lft.to/lastmile_qr_scan", "ios": "https://dc.lft.to/lastmile_qr_scan"}, "name": "81f6b58b4edc60924e4ab659afad3dad", "is_reserved": 0}, {"is_disabled": 0, "fusion_lon": 0.0, "fusion_lat": 0.0, "lat": 38.90955266666667, "type": "electric_scooter", "lon": -77.04057866666666, "bike_id": "2fe2ddc680a7c820f82e0bf24214c869", "rental_uris": {"android": "https://dc.lft.to/lastmile_qr_scan", "ios": "https://dc.lft.to/lastmile_qr_scan"}, "name": "2fe2ddc680a7c820f82e0bf24214c869", "is_reserved": 0}, {"is_disabled": 0, "fusion_lon": 0.0, "fusion_lat": 0.0, "lat": 38.86360666666667, "type": "electric_scooter", "lon": -76.99061, "bike_id": "8337436f434a94575c9bddb46fea3f3a", "rental_uris": {"android": "https://dc.lft.to/lastmile_qr_scan", "ios": "https://dc.lft.to/lastmile_qr_scan"}, "name": "8337436f434a94575c9bddb46fea3f3a", "is_reserved": 0}, {"is_disabled": 0, "fusion_lon": 0.0, "fusion_lat": 0.0, "lat": 38.92650666666667, "type": "electric_scooter", "lon": -77.03714816666667, "bike_id": "86e5c089e0264224d55c7baa3245c6c9", "rental_uris": {"android": "https://dc.lft.to/lastmile_qr_scan", "ios": "https://dc.lft.to/lastmile_qr_scan"}, "name": "86e5c089e0264224d55c7baa3245c6c9", "is_reserved": 0}, {"is_disabled": 0, "fusion_lon": 0.0, "fusion_lat": 0.0, "lat": 38.93338816666667, "type": "electric_scooter", "lon": -77.04133633333333, "bike_id": "72291d5a151a3b6e5281ec77ded432e6", "rental_uris": {"android": "https://dc.lft.to/lastmile_qr_scan", "ios": "https://dc.lft.to/lastmile_qr_scan"}, "name": "72291d5a151a3b6e5281ec77ded432e6", "is_reserved": 0}, {"is_disabled": 0, "fusion_lon": 0.0, "fusion_lat": 0.0, "lat": 38.86732933333333, "type": "electric_scooter", "lon": -76.97940983333334, "bike_id": "1bffb0a9e4b7875d9d63fd68a4f13563", "rental_uris": {"android": "https://dc.lft.to/lastmile_qr_scan", "ios": "https://dc.lft.to/lastmile_qr_scan"}, "name": "1bffb0a9e4b7875d9d63fd68a4f13563", "is_reserved": 0}, {"is_disabled": 0, "fusion_lon": 0.0, "fusion_lat": 0.0, "lat": 38.9096715, "type": "electric_scooter", "lon": -77.02177766666667, "bike_id": "908758ef06d4ab80d431c642df77d806", "rental_uris": {"android": "https://dc.lft.to/lastmile_qr_scan", "ios": "https://dc.lft.to/lastmile_qr_scan"}, "name": "908758ef06d4ab80d431c642df77d806", "is_reserved": 0}, {"is_disabled": 0, "fusion_lon": 0.0, "fusion_lat": 0.0, "lat": 38.906861666666664, "type": "electric_bike", "lon": -77.036502, "bike_id": "a0237e85f28ad5b3b2b5559834690426", "rental_uris": {"android": "https://dc.lft.to/lastmile_qr_scan", "ios": "https://dc.lft.to/lastmile_qr_scan"}, "name": "a0237e85f28ad5b3b2b5559834690426", "is_reserved": 0}, {"is_disabled": 0, "fusion_lon": 0.0, "fusion_lat": 0.0, "lat": 38.9231875, "type": "electric_scooter", "lon": -77.04624866666667, "bike_id": "d990e511698e8713539134a25e37b0f5", "rental_uris": {"android": "https://dc.lft.to/lastmile_qr_scan", "ios": "https://dc.lft.to/lastmile_qr_scan"}, "name": "d990e511698e8713539134a25e37b0f5", "is_reserved": 0}, {"is_disabled": 0, "fusion_lon": 0.0, "fusion_lat": 0.0, "lat": 38.934081666666664, "type": "electric_scooter", "lon": -77.02451016666667, "bike_id": "fc995207e0b72cd0c8ff52912f54439f", "rental_uris": {"android": "https://dc.lft.to/lastmile_qr_scan", "ios": "https://dc.lft.to/lastmile_qr_scan"}, "name": "fc995207e0b72cd0c8ff52912f54439f", "is_reserved": 0}, {"is_disabled": 0, "fusion_lon": 0.0, "fusion_lat": 0.0, "lat": 38.9242925, "type": "electric_scooter", "lon": -77.035539, "bike_id": "e1fc129bf917b29631c3f569f6914cbe", "rental_uris": {"android": "https://dc.lft.to/lastmile_qr_scan", "ios": "https://dc.lft.to/lastmile_qr_scan"}, "name": "e1fc129bf917b29631c3f569f6914cbe", "is_reserved": 0}, {"is_disabled": 0, "fusion_lon": 0.0, "fusion_lat": 0.0, "lat": 38.91716366666667, "type": "electric_scooter", "lon": -77.03858483333333, "bike_id": "abc57abec5a0724017d6c7a29c189e1a", "rental_uris": {"android": "https://dc.lft.to/lastmile_qr_scan", "ios": "https://dc.lft.to/lastmile_qr_scan"}, "name": "abc57abec5a0724017d6c7a29c189e1a", "is_reserved": 0}, {"is_disabled": 0, "fusion_lon": 0.0, "fusion_lat": 0.0, "lat": 38.9048955, "type": "electric_scooter", "lon": -77.02941833333334, "bike_id": "d6310dd0070d27e578ea4e13552e2e65", "rental_uris": {"android": "https://dc.lft.to/lastmile_qr_scan", "ios": "https://dc.lft.to/lastmile_qr_scan"}, "name": "d6310dd0070d27e578ea4e13552e2e65", "is_reserved": 0}, {"is_disabled": 0, "fusion_lon": 0.0, "fusion_lat": 0.0, "lat": 38.92149383333334, "type": "electric_scooter", "lon": -77.0296105, "bike_id": "b72477797801aa325589f0555978460e", "rental_uris": {"android": "https://dc.lft.to/lastmile_qr_scan", "ios": "https://dc.lft.to/lastmile_qr_scan"}, "name": "b72477797801aa325589f0555978460e", "is_reserved": 0}, {"is_disabled": 0, "fusion_lon": 0.0, "fusion_lat": 0.0, "lat": 38.902510666666664, "type": "electric_scooter", "lon": -77.01805266666666, "bike_id": "793d7b73b496b889cd426cb41e06e540", "rental_uris": {"android": "https://dc.lft.to/lastmile_qr_scan", "ios": "https://dc.lft.to/lastmile_qr_scan"}, "name": "793d7b73b496b889cd426cb41e06e540", "is_reserved": 0}, {"is_disabled": 0, "fusion_lon": 0.0, "fusion_lat": 0.0, "lat": 38.885316, "type": "electric_scooter", "lon": -76.92717883333333, "bike_id": "e8fb4af84730209d0b273372edbedec0", "rental_uris": {"android": "https://dc.lft.to/lastmile_qr_scan", "ios": "https://dc.lft.to/lastmile_qr_scan"}, "name": "e8fb4af84730209d0b273372edbedec0", "is_reserved": 0}, {"is_disabled": 0, "fusion_lon": 0.0, "fusion_lat": 0.0, "lat": 38.894868333333335, "type": "electric_scooter", "lon": -77.02289533333334, "bike_id": "fa90f58cc7c1f49c42f445e5eb381052", "rental_uris": {"android": "https://dc.lft.to/lastmile_qr_scan", "ios": "https://dc.lft.to/lastmile_qr_scan"}, "name": "fa90f58cc7c1f49c42f445e5eb381052", "is_reserved": 0}, {"is_disabled": 0, "fusion_lon": 0.0, "fusion_lat": 0.0, "lat": 38.876633166666664, "type": "electric_scooter", "lon": -77.00392766666667, "bike_id": "98edfb82970628995cd873361967090e", "rental_uris": {"android": "https://dc.lft.to/lastmile_qr_scan", "ios": "https://dc.lft.to/lastmile_qr_scan"}, "name": "98edfb82970628995cd873361967090e", "is_reserved": 0}, {"is_disabled": 0, "fusion_lon": 0.0, "fusion_lat": 0.0, "lat": 38.916757, "type": "electric_scooter", "lon": -77.02954333333334, "bike_id": "6ba24b7af8dbd7ca31b16185225e0fb1", "rental_uris": {"android": "https://dc.lft.to/lastmile_qr_scan", "ios": "https://dc.lft.to/lastmile_qr_scan"}, "name": "6ba24b7af8dbd7ca31b16185225e0fb1", "is_reserved": 0}, {"is_disabled": 0, "fusion_lon": 0.0, "fusion_lat": 0.0, "lat": 38.92426183333333, "type": "electric_scooter", "lon": -77.04479, "bike_id": "c1f69cefdcd838d484095cbdbd31a493", "rental_uris": {"android": "https://dc.lft.to/lastmile_qr_scan", "ios": "https://dc.lft.to/lastmile_qr_scan"}, "name": "c1f69cefdcd838d484095cbdbd31a493", "is_reserved": 0}, {"is_disabled": 0, "fusion_lon": 0.0, "fusion_lat": 0.0, "lat": 38.901369333333335, "type": "electric_scooter", "lon": -77.02731216666666, "bike_id": "d877d9eb3616424e7ffcf1e48c809ac9", "rental_uris": {"android": "https://dc.lft.to/lastmile_qr_scan", "ios": "https://dc.lft.to/lastmile_qr_scan"}, "name": "d877d9eb3616424e7ffcf1e48c809ac9", "is_reserved": 0}, {"is_disabled": 0, "fusion_lon": 0.0, "fusion_lat": 0.0, "lat": 38.935455, "type": "electric_scooter", "lon": -77.0581305, "bike_id": "f878cbb0636d23dd59d14be2ddd8dd0c", "rental_uris": {"android": "https://dc.lft.to/lastmile_qr_scan", "ios": "https://dc.lft.to/lastmile_qr_scan"}, "name": "f878cbb0636d23dd59d14be2ddd8dd0c", "is_reserved": 0}, {"is_disabled": 0, "fusion_lon": 0.0, "fusion_lat": 0.0, "lat": 38.911775666666664, "type": "electric_scooter", "lon": -77.0270085, "bike_id": "44c085991e5ef634d02e356f65a7cbc4", "rental_uris": {"android": "https://dc.lft.to/lastmile_qr_scan", "ios": "https://dc.lft.to/lastmile_qr_scan"}, "name": "44c085991e5ef634d02e356f65a7cbc4", "is_reserved": 0}, {"is_disabled": 0, "fusion_lon": 0.0, "fusion_lat": 0.0, "lat": 38.94496183333333, "type": "electric_bike", "lon": -76.98663283333333, "bike_id": "999eac1455660ecdb92f5f8d5b481701", "rental_uris": {"android": "https://dc.lft.to/lastmile_qr_scan", "ios": "https://dc.lft.to/lastmile_qr_scan"}, "name": "999eac1455660ecdb92f5f8d5b481701", "is_reserved": 0}, {"is_disabled": 0, "fusion_lon": 0.0, "fusion_lat": 0.0, "lat": 38.91263416666666, "type": "electric_scooter", "lon": -77.04153016666666, "bike_id": "ddea1995112554dfb320c32da9b1793f", "rental_uris": {"android": "https://dc.lft.to/lastmile_qr_scan", "ios": "https://dc.lft.to/lastmile_qr_scan"}, "name": "ddea1995112554dfb320c32da9b1793f", "is_reserved": 0}, {"is_disabled": 0, "fusion_lon": 0.0, "fusion_lat": 0.0, "lat": 38.91927283333333, "type": "electric_scooter", "lon": -77.02511583333333, "bike_id": "4d9e64a0e592f4bc455f79e2d0b1012a", "rental_uris": {"android": "https://dc.lft.to/lastmile_qr_scan", "ios": "https://dc.lft.to/lastmile_qr_scan"}, "name": "4d9e64a0e592f4bc455f79e2d0b1012a", "is_reserved": 0}, {"is_disabled": 0, "fusion_lon": 0.0, "fusion_lat": 0.0, "lat": 38.8957565, "type": "electric_scooter", "lon": -77.0230125, "bike_id": "7f25f6ab8a1a242b9d9997ae1955ad72", "rental_uris": {"android": "https://dc.lft.to/lastmile_qr_scan", "ios": "https://dc.lft.to/lastmile_qr_scan"}, "name": "7f25f6ab8a1a242b9d9997ae1955ad72", "is_reserved": 0}, {"is_disabled": 0, "fusion_lon": 0.0, "fusion_lat": 0.0, "lat": 38.92962266666667, "type": "electric_scooter", "lon": -77.04200916666667, "bike_id": "58fc2ac87a8bb987dc7d896af980658a", "rental_uris": {"android": "https://dc.lft.to/lastmile_qr_scan", "ios": "https://dc.lft.to/lastmile_qr_scan"}, "name": "58fc2ac87a8bb987dc7d896af980658a", "is_reserved": 0}, {"is_disabled": 0, "fusion_lon": 0.0, "fusion_lat": 0.0, "lat": 38.91635733333333, "type": "electric_scooter", "lon": -77.031415, "bike_id": "781fe3da31fbbd3ddb2663b6e680dc95", "rental_uris": {"android": "https://dc.lft.to/lastmile_qr_scan", "ios": "https://dc.lft.to/lastmile_qr_scan"}, "name": "781fe3da31fbbd3ddb2663b6e680dc95", "is_reserved": 0}, {"is_disabled": 0, "fusion_lon": 0.0, "fusion_lat": 0.0, "lat": 38.933347833333336, "type": "electric_bike", "lon": -77.04209383333334, "bike_id": "bbaee04a121f6fcfe114612d2b3a5a86", "rental_uris": {"android": "https://dc.lft.to/lastmile_qr_scan", "ios": "https://dc.lft.to/lastmile_qr_scan"}, "name": "bbaee04a121f6fcfe114612d2b3a5a86", "is_reserved": 0}, {"is_disabled": 0, "fusion_lon": 0.0, "fusion_lat": 0.0, "lat": 38.94618833333333, "type": "electric_scooter", "lon": -77.03624583333334, "bike_id": "7dab792784a6b6e1d71bcd0abb48be48", "rental_uris": {"android": "https://dc.lft.to/lastmile_qr_scan", "ios": "https://dc.lft.to/lastmile_qr_scan"}, "name": "7dab792784a6b6e1d71bcd0abb48be48", "is_reserved": 0}, {"is_disabled": 0, "fusion_lon": 0.0, "fusion_lat": 0.0, "lat": 38.86698583333333, "type": "electric_scooter", "lon": -76.98711533333334, "bike_id": "2808fdadedc7df362591435421a8aea8", "rental_uris": {"android": "https://dc.lft.to/lastmile_qr_scan", "ios": "https://dc.lft.to/lastmile_qr_scan"}, "name": "2808fdadedc7df362591435421a8aea8", "is_reserved": 0}, {"is_disabled": 0, "fusion_lon": 0.0, "fusion_lat": 0.0, "lat": 38.931016166666666, "type": "electric_scooter", "lon": -77.026659, "bike_id": "424d57c5a5e9b12dd904acc90264895f", "rental_uris": {"android": "https://dc.lft.to/lastmile_qr_scan", "ios": "https://dc.lft.to/lastmile_qr_scan"}, "name": "424d57c5a5e9b12dd904acc90264895f", "is_reserved": 0}, {"is_disabled": 0, "fusion_lon": 0.0, "fusion_lat": 0.0, "lat": 38.9038505, "type": "electric_scooter", "lon": -77.03019066666667, "bike_id": "2b98e771ea3caea17fbb8aaced62f5a3", "rental_uris": {"android": "https://dc.lft.to/lastmile_qr_scan", "ios": "https://dc.lft.to/lastmile_qr_scan"}, "name": "2b98e771ea3caea17fbb8aaced62f5a3", "is_reserved": 0}, {"is_disabled": 0, "fusion_lon": 0.0, "fusion_lat": 0.0, "lat": 38.920088, "type": "electric_scooter", "lon": -77.0313695, "bike_id": "621cade05fbc5aafae13b42c1caecf52", "rental_uris": {"android": "https://dc.lft.to/lastmile_qr_scan", "ios": "https://dc.lft.to/lastmile_qr_scan"}, "name": "621cade05fbc5aafae13b42c1caecf52", "is_reserved": 0}, {"is_disabled": 0, "fusion_lon": 0.0, "fusion_lat": 0.0, "lat": 38.869094, "type": "electric_scooter", "lon": -77.01374516666667, "bike_id": "3e0f4b22003e40ec36a9c5f98a483e8e", "rental_uris": {"android": "https://dc.lft.to/lastmile_qr_scan", "ios": "https://dc.lft.to/lastmile_qr_scan"}, "name": "3e0f4b22003e40ec36a9c5f98a483e8e", "is_reserved": 0}, {"is_disabled": 0, "fusion_lon": 0.0, "fusion_lat": 0.0, "lat": 38.93194616666667, "type": "electric_scooter", "lon": -77.02836216666667, "bike_id": "db36a768bcc58ed147503aa77528da49", "rental_uris": {"android": "https://dc.lft.to/lastmile_qr_scan", "ios": "https://dc.lft.to/lastmile_qr_scan"}, "name": "db36a768bcc58ed147503aa77528da49", "is_reserved": 0}, {"is_disabled": 0, "fusion_lon": 0.0, "fusion_lat": 0.0, "lat": 38.941901, "type": "electric_scooter", "lon": -77.0425745, "bike_id": "d738670e7c5e869d21846ef2a2618de3", "rental_uris": {"android": "https://dc.lft.to/lastmile_qr_scan", "ios": "https://dc.lft.to/lastmile_qr_scan"}, "name": "d738670e7c5e869d21846ef2a2618de3", "is_reserved": 0}, {"is_disabled": 0, "fusion_lon": 0.0, "fusion_lat": 0.0, "lat": 38.89846683333333, "type": "electric_scooter", "lon": -76.944947, "bike_id": "8a328dd53b46442793384c609b2bfa10", "rental_uris": {"android": "https://dc.lft.to/lastmile_qr_scan", "ios": "https://dc.lft.to/lastmile_qr_scan"}, "name": "8a328dd53b46442793384c609b2bfa10", "is_reserved": 0}, {"is_disabled": 0, "fusion_lon": 0.0, "fusion_lat": 0.0, "lat": 38.890445666666665, "type": "electric_scooter", "lon": -76.93754333333334, "bike_id": "0e8268f08c58cd2b8008cc4e9af6b77d", "rental_uris": {"android": "https://dc.lft.to/lastmile_qr_scan", "ios": "https://dc.lft.to/lastmile_qr_scan"}, "name": "0e8268f08c58cd2b8008cc4e9af6b77d", "is_reserved": 0}, {"is_disabled": 0, "fusion_lon": 0.0, "fusion_lat": 0.0, "lat": 38.900900666666665, "type": "electric_scooter", "lon": -77.013092, "bike_id": "0b44c49df9ab1236061c43f1c78f4c4a", "rental_uris": {"android": "https://dc.lft.to/lastmile_qr_scan", "ios": "https://dc.lft.to/lastmile_qr_scan"}, "name": "0b44c49df9ab1236061c43f1c78f4c4a", "is_reserved": 0}, {"is_disabled": 0, "fusion_lon": 0.0, "fusion_lat": 0.0, "lat": 38.9312635, "type": "electric_scooter", "lon": -77.02200683333334, "bike_id": "8c5bbae3d83d311bdb330f2c66db52b8", "rental_uris": {"android": "https://dc.lft.to/lastmile_qr_scan", "ios": "https://dc.lft.to/lastmile_qr_scan"}, "name": "8c5bbae3d83d311bdb330f2c66db52b8", "is_reserved": 0}, {"is_disabled": 0, "fusion_lon": 0.0, "fusion_lat": 0.0, "lat": 38.96050283333334, "type": "electric_scooter", "lon": -77.08575466666667, "bike_id": "644ef0af1e8047dd7dc380790c7ad9da", "rental_uris": {"android": "https://dc.lft.to/lastmile_qr_scan", "ios": "https://dc.lft.to/lastmile_qr_scan"}, "name": "644ef0af1e8047dd7dc380790c7ad9da", "is_reserved": 0}, {"is_disabled": 0, "fusion_lon": 0.0, "fusion_lat": 0.0, "lat": 38.893337, "type": "electric_scooter", "lon": -77.02120166666667, "bike_id": "fd1b7e4fbb2a80f2131d2adc6601ec12", "rental_uris": {"android": "https://dc.lft.to/lastmile_qr_scan", "ios": "https://dc.lft.to/lastmile_qr_scan"}, "name": "fd1b7e4fbb2a80f2131d2adc6601ec12", "is_reserved": 0}, {"is_disabled": 0, "fusion_lon": 0.0, "fusion_lat": 0.0, "lat": 38.90602, "type": "electric_scooter", "lon": -77.0162595, "bike_id": "71581e8a5d62977dda451658cbecb6bd", "rental_uris": {"android": "https://dc.lft.to/lastmile_qr_scan", "ios": "https://dc.lft.to/lastmile_qr_scan"}, "name": "71581e8a5d62977dda451658cbecb6bd", "is_reserved": 0}, {"is_disabled": 0, "fusion_lon": 0.0, "fusion_lat": 0.0, "lat": 38.923098333333336, "type": "electric_scooter", "lon": -77.039263, "bike_id": "8bd1515ef4519a5b623d63daa05515f0", "rental_uris": {"android": "https://dc.lft.to/lastmile_qr_scan", "ios": "https://dc.lft.to/lastmile_qr_scan"}, "name": "8bd1515ef4519a5b623d63daa05515f0", "is_reserved": 0}, {"is_disabled": 0, "fusion_lon": 0.0, "fusion_lat": 0.0, "lat": 38.935403666666666, "type": "electric_scooter", "lon": -77.034184, "bike_id": "e03ea918b203eb243b0a414524e5d682", "rental_uris": {"android": "https://dc.lft.to/lastmile_qr_scan", "ios": "https://dc.lft.to/lastmile_qr_scan"}, "name": "e03ea918b203eb243b0a414524e5d682", "is_reserved": 0}, {"is_disabled": 0, "fusion_lon": 0.0, "fusion_lat": 0.0, "lat": 39.023001666666666, "type": "electric_bike", "lon": -77.021039, "bike_id": "a974fe5c34f372fddf1a763d1dfd7f8f", "rental_uris": {"android": "https://dc.lft.to/lastmile_qr_scan", "ios": "https://dc.lft.to/lastmile_qr_scan"}, "name": "a974fe5c34f372fddf1a763d1dfd7f8f", "is_reserved": 0}, {"is_disabled": 0, "fusion_lon": 0.0, "fusion_lat": 0.0, "lat": 38.897625166666664, "type": "electric_scooter", "lon": -77.05158383333334, "bike_id": "c6c4333cc8acd7d956f4609bd1e3732e", "rental_uris": {"android": "https://dc.lft.to/lastmile_qr_scan", "ios": "https://dc.lft.to/lastmile_qr_scan"}, "name": "c6c4333cc8acd7d956f4609bd1e3732e", "is_reserved": 0}, {"is_disabled": 0, "fusion_lon": 0.0, "fusion_lat": 0.0, "lat": 38.931904, "type": "electric_bike", "lon": -77.2293905, "bike_id": "3df6c09b366c3426e72c025d8f9fc263", "rental_uris": {"android": "https://dc.lft.to/lastmile_qr_scan", "ios": "https://dc.lft.to/lastmile_qr_scan"}, "name": "3df6c09b366c3426e72c025d8f9fc263", "is_reserved": 0}, {"is_disabled": 0, "fusion_lon": 0.0, "fusion_lat": 0.0, "lat": 38.9096805, "type": "electric_scooter", "lon": -77.021776, "bike_id": "a02a495e3e377a619a8bcb3369d44f6d", "rental_uris": {"android": "https://dc.lft.to/lastmile_qr_scan", "ios": "https://dc.lft.to/lastmile_qr_scan"}, "name": "a02a495e3e377a619a8bcb3369d44f6d", "is_reserved": 0}, {"is_disabled": 0, "fusion_lon": 0.0, "fusion_lat": 0.0, "lat": 38.9527875, "type": "electric_bike", "lon": -77.06979883333334, "bike_id": "2aea98f9abef8b3da39554b8281d9158", "rental_uris": {"android": "https://dc.lft.to/lastmile_qr_scan", "ios": "https://dc.lft.to/lastmile_qr_scan"}, "name": "2aea98f9abef8b3da39554b8281d9158", "is_reserved": 0}, {"is_disabled": 0, "fusion_lon": 0.0, "fusion_lat": 0.0, "lat": 38.9507535, "type": "electric_scooter", "lon": -77.02871833333333, "bike_id": "b6b9d090fa885df540e158c69f291324", "rental_uris": {"android": "https://dc.lft.to/lastmile_qr_scan", "ios": "https://dc.lft.to/lastmile_qr_scan"}, "name": "b6b9d090fa885df540e158c69f291324", "is_reserved": 0}, {"is_disabled": 0, "fusion_lon": 0.0, "fusion_lat": 0.0, "lat": 38.9141985, "type": "electric_scooter", "lon": -77.03905666666667, "bike_id": "4f95b284edb76a264d171a1b206f7958", "rental_uris": {"android": "https://dc.lft.to/lastmile_qr_scan", "ios": "https://dc.lft.to/lastmile_qr_scan"}, "name": "4f95b284edb76a264d171a1b206f7958", "is_reserved": 0}, {"is_disabled": 0, "fusion_lon": 0.0, "fusion_lat": 0.0, "lat": 38.9925215, "type": "electric_bike", "lon": -77.05000666666666, "bike_id": "7a0e14fbf873c0252d30bf52a8e3cd72", "rental_uris": {"android": "https://dc.lft.to/lastmile_qr_scan", "ios": "https://dc.lft.to/lastmile_qr_scan"}, "name": "7a0e14fbf873c0252d30bf52a8e3cd72", "is_reserved": 0}, {"is_disabled": 0, "fusion_lon": 0.0, "fusion_lat": 0.0, "lat": 38.91750666666667, "type": "electric_scooter", "lon": -77.0249205, "bike_id": "34467745d8ca640375eb339cb4988eb1", "rental_uris": {"android": "https://dc.lft.to/lastmile_qr_scan", "ios": "https://dc.lft.to/lastmile_qr_scan"}, "name": "34467745d8ca640375eb339cb4988eb1", "is_reserved": 0}, {"is_disabled": 0, "fusion_lon": 0.0, "fusion_lat": 0.0, "lat": 38.868602, "type": "electric_bike", "lon": -76.916592, "bike_id": "c5f24c895f51bde9b2b0958d3f020631", "rental_uris": {"android": "https://dc.lft.to/lastmile_qr_scan", "ios": "https://dc.lft.to/lastmile_qr_scan"}, "name": "c5f24c895f51bde9b2b0958d3f020631", "is_reserved": 0}, {"is_disabled": 0, "fusion_lon": 0.0, "fusion_lat": 0.0, "lat": 38.898305, "type": "electric_scooter", "lon": -77.02941416666667, "bike_id": "fa55c7b243b74e28128104206a82b941", "rental_uris": {"android": "https://dc.lft.to/lastmile_qr_scan", "ios": "https://dc.lft.to/lastmile_qr_scan"}, "name": "fa55c7b243b74e28128104206a82b941", "is_reserved": 0}, {"is_disabled": 0, "fusion_lon": 0.0, "fusion_lat": 0.0, "lat": 38.944724, "type": "electric_bike", "lon": -77.0064705, "bike_id": "3d781b3fdbce67f3ccf4e03db6fe992d", "rental_uris": {"android": "https://dc.lft.to/lastmile_qr_scan", "ios": "https://dc.lft.to/lastmile_qr_scan"}, "name": "3d781b3fdbce67f3ccf4e03db6fe992d", "is_reserved": 0}, {"is_disabled": 0, "fusion_lon": 0.0, "fusion_lat": 0.0, "lat": 38.906985666666664, "type": "electric_scooter", "lon": -77.07468466666667, "bike_id": "f81732ca525592f7245dfabec9b3b69f", "rental_uris": {"android": "https://dc.lft.to/lastmile_qr_scan", "ios": "https://dc.lft.to/lastmile_qr_scan"}, "name": "f81732ca525592f7245dfabec9b3b69f", "is_reserved": 0}, {"is_disabled": 0, "fusion_lon": 0.0, "fusion_lat": 0.0, "lat": 38.93425216666667, "type": "electric_scooter", "lon": -77.05838333333334, "bike_id": "52abcc45705e7762240a9ab0a531e333", "rental_uris": {"android": "https://dc.lft.to/lastmile_qr_scan", "ios": "https://dc.lft.to/lastmile_qr_scan"}, "name": "52abcc45705e7762240a9ab0a531e333", "is_reserved": 0}, {"is_disabled": 0, "fusion_lon": 0.0, "fusion_lat": 0.0, "lat": 38.900144833333336, "type": "electric_scooter", "lon": -77.0438675, "bike_id": "499de0c35fc6a1349989f507659c9e9b", "rental_uris": {"android": "https://dc.lft.to/lastmile_qr_scan", "ios": "https://dc.lft.to/lastmile_qr_scan"}, "name": "499de0c35fc6a1349989f507659c9e9b", "is_reserved": 0}, {"is_disabled": 0, "fusion_lon": 0.0, "fusion_lat": 0.0, "lat": 38.928132, "type": "electric_scooter", "lon": -77.023479, "bike_id": "17cabbc8ca9773fd4cacba4102c11c29", "rental_uris": {"android": "https://dc.lft.to/lastmile_qr_scan", "ios": "https://dc.lft.to/lastmile_qr_scan"}, "name": "17cabbc8ca9773fd4cacba4102c11c29", "is_reserved": 0}, {"is_disabled": 0, "fusion_lon": 0.0, "fusion_lat": 0.0, "lat": 38.9281995, "type": "electric_scooter", "lon": -77.022593, "bike_id": "e6f4304093cdca4408d7097c07d9346a", "rental_uris": {"android": "https://dc.lft.to/lastmile_qr_scan", "ios": "https://dc.lft.to/lastmile_qr_scan"}, "name": "e6f4304093cdca4408d7097c07d9346a", "is_reserved": 0}, {"is_disabled": 0, "fusion_lon": 0.0, "fusion_lat": 0.0, "lat": 38.91821233333334, "type": "electric_scooter", "lon": -77.0325185, "bike_id": "ed82c7fe606954b473c2206847bf0b4c", "rental_uris": {"android": "https://dc.lft.to/lastmile_qr_scan", "ios": "https://dc.lft.to/lastmile_qr_scan"}, "name": "ed82c7fe606954b473c2206847bf0b4c", "is_reserved": 0}, {"is_disabled": 0, "fusion_lon": 0.0, "fusion_lat": 0.0, "lat": 38.9456075, "type": "electric_bike", "lon": -77.05109316666666, "bike_id": "fb1c99c4e002013c688160f0d50c1eb3", "rental_uris": {"android": "https://dc.lft.to/lastmile_qr_scan", "ios": "https://dc.lft.to/lastmile_qr_scan"}, "name": "fb1c99c4e002013c688160f0d50c1eb3", "is_reserved": 0}, {"is_disabled": 0, "fusion_lon": 0.0, "fusion_lat": 0.0, "lat": 38.88685983333333, "type": "electric_scooter", "lon": -76.954718, "bike_id": "f56aa97837290c8258107a1bf2e40aae", "rental_uris": {"android": "https://dc.lft.to/lastmile_qr_scan", "ios": "https://dc.lft.to/lastmile_qr_scan"}, "name": "f56aa97837290c8258107a1bf2e40aae", "is_reserved": 0}, {"is_disabled": 0, "fusion_lon": 0.0, "fusion_lat": 0.0, "lat": 38.9052115, "type": "electric_scooter", "lon": -77.05032183333333, "bike_id": "0b15dc1486a2f4eafc4e0f76c4d0872b", "rental_uris": {"android": "https://dc.lft.to/lastmile_qr_scan", "ios": "https://dc.lft.to/lastmile_qr_scan"}, "name": "0b15dc1486a2f4eafc4e0f76c4d0872b", "is_reserved": 0}, {"is_disabled": 0, "fusion_lon": 0.0, "fusion_lat": 0.0, "lat": 38.91212383333333, "type": "electric_scooter", "lon": -77.02725, "bike_id": "cc7a83ad5d43a31520482fbc14622fe0", "rental_uris": {"android": "https://dc.lft.to/lastmile_qr_scan", "ios": "https://dc.lft.to/lastmile_qr_scan"}, "name": "cc7a83ad5d43a31520482fbc14622fe0", "is_reserved": 0}, {"is_disabled": 0, "fusion_lon": 0.0, "fusion_lat": 0.0, "lat": 38.8953255, "type": "electric_scooter", "lon": -77.03206133333333, "bike_id": "bd83a7f2fce574e6b5fd44867b9788ba", "rental_uris": {"android": "https://dc.lft.to/lastmile_qr_scan", "ios": "https://dc.lft.to/lastmile_qr_scan"}, "name": "bd83a7f2fce574e6b5fd44867b9788ba", "is_reserved": 0}, {"is_disabled": 0, "fusion_lon": 0.0, "fusion_lat": 0.0, "lat": 38.921133833333336, "type": "electric_scooter", "lon": -77.04385683333334, "bike_id": "7437c06ae90c763efae02b4d4800eca0", "rental_uris": {"android": "https://dc.lft.to/lastmile_qr_scan", "ios": "https://dc.lft.to/lastmile_qr_scan"}, "name": "7437c06ae90c763efae02b4d4800eca0", "is_reserved": 0}, {"is_disabled": 0, "fusion_lon": 0.0, "fusion_lat": 0.0, "lat": 38.908675, "type": "electric_scooter", "lon": -77.03010516666667, "bike_id": "bfff4ca77837c72aca93af3e68a6dc05", "rental_uris": {"android": "https://dc.lft.to/lastmile_qr_scan", "ios": "https://dc.lft.to/lastmile_qr_scan"}, "name": "bfff4ca77837c72aca93af3e68a6dc05", "is_reserved": 0}, {"is_disabled": 0, "fusion_lon": 0.0, "fusion_lat": 0.0, "lat": 38.92081316666667, "type": "electric_scooter", "lon": -77.03480616666667, "bike_id": "a94f53f1cf464764c1107892de5fb4a6", "rental_uris": {"android": "https://dc.lft.to/lastmile_qr_scan", "ios": "https://dc.lft.to/lastmile_qr_scan"}, "name": "a94f53f1cf464764c1107892de5fb4a6", "is_reserved": 0}, {"is_disabled": 0, "fusion_lon": 0.0, "fusion_lat": 0.0, "lat": 38.897257833333335, "type": "electric_scooter", "lon": -77.04806933333333, "bike_id": "a24ec10924c9b1ced3b16d5e933d15ce", "rental_uris": {"android": "https://dc.lft.to/lastmile_qr_scan", "ios": "https://dc.lft.to/lastmile_qr_scan"}, "name": "a24ec10924c9b1ced3b16d5e933d15ce", "is_reserved": 0}, {"is_disabled": 0, "fusion_lon": 0.0, "fusion_lat": 0.0, "lat": 38.90662183333333, "type": "electric_scooter", "lon": -77.00900116666666, "bike_id": "69696370f434f667c67b0ae77dc37899", "rental_uris": {"android": "https://dc.lft.to/lastmile_qr_scan", "ios": "https://dc.lft.to/lastmile_qr_scan"}, "name": "69696370f434f667c67b0ae77dc37899", "is_reserved": 0}, {"is_disabled": 0, "fusion_lon": 0.0, "fusion_lat": 0.0, "lat": 38.924425666666664, "type": "electric_scooter", "lon": -77.02610233333333, "bike_id": "8400c195bc76866bdfe593658919a331", "rental_uris": {"android": "https://dc.lft.to/lastmile_qr_scan", "ios": "https://dc.lft.to/lastmile_qr_scan"}, "name": "8400c195bc76866bdfe593658919a331", "is_reserved": 0}, {"is_disabled": 0, "fusion_lon": 0.0, "fusion_lat": 0.0, "lat": 38.96732133333333, "type": "electric_scooter", "lon": -77.02763533333334, "bike_id": "25aa1bc28414dfae41aa989a40ef7c73", "rental_uris": {"android": "https://dc.lft.to/lastmile_qr_scan", "ios": "https://dc.lft.to/lastmile_qr_scan"}, "name": "25aa1bc28414dfae41aa989a40ef7c73", "is_reserved": 0}, {"is_disabled": 0, "fusion_lon": 0.0, "fusion_lat": 0.0, "lat": 38.92382666666666, "type": "electric_scooter", "lon": -77.02903016666667, "bike_id": "19996237b616c3aab174e4e49e476844", "rental_uris": {"android": "https://dc.lft.to/lastmile_qr_scan", "ios": "https://dc.lft.to/lastmile_qr_scan"}, "name": "19996237b616c3aab174e4e49e476844", "is_reserved": 0}, {"is_disabled": 0, "fusion_lon": 0.0, "fusion_lat": 0.0, "lat": 38.94921866666667, "type": "electric_bike", "lon": -77.007976, "bike_id": "bad392b9296fd1f9d7c27135ff9d48e5", "rental_uris": {"android": "https://dc.lft.to/lastmile_qr_scan", "ios": "https://dc.lft.to/lastmile_qr_scan"}, "name": "bad392b9296fd1f9d7c27135ff9d48e5", "is_reserved": 0}, {"is_disabled": 0, "fusion_lon": 0.0, "fusion_lat": 0.0, "lat": 38.89938583333333, "type": "electric_scooter", "lon": -77.02948316666667, "bike_id": "3e72a6da04fb3f1c748420e302bbba1c", "rental_uris": {"android": "https://dc.lft.to/lastmile_qr_scan", "ios": "https://dc.lft.to/lastmile_qr_scan"}, "name": "3e72a6da04fb3f1c748420e302bbba1c", "is_reserved": 0}, {"is_disabled": 0, "fusion_lon": 0.0, "fusion_lat": 0.0, "lat": 38.90826933333334, "type": "electric_scooter", "lon": -76.996991, "bike_id": "aa4c998e9e0c5d49aae7a60aac8380e0", "rental_uris": {"android": "https://dc.lft.to/lastmile_qr_scan", "ios": "https://dc.lft.to/lastmile_qr_scan"}, "name": "aa4c998e9e0c5d49aae7a60aac8380e0", "is_reserved": 0}, {"is_disabled": 0, "fusion_lon": 0.0, "fusion_lat": 0.0, "lat": 38.8899505, "type": "electric_scooter", "lon": -77.04889983333334, "bike_id": "4ccbb63e6035e7c83237e17129ad1990", "rental_uris": {"android": "https://dc.lft.to/lastmile_qr_scan", "ios": "https://dc.lft.to/lastmile_qr_scan"}, "name": "4ccbb63e6035e7c83237e17129ad1990", "is_reserved": 0}, {"is_disabled": 0, "fusion_lon": 0.0, "fusion_lat": 0.0, "lat": 38.909517, "type": "electric_scooter", "lon": -77.0271415, "bike_id": "94fd911abedbe758199d0ab61375d387", "rental_uris": {"android": "https://dc.lft.to/lastmile_qr_scan", "ios": "https://dc.lft.to/lastmile_qr_scan"}, "name": "94fd911abedbe758199d0ab61375d387", "is_reserved": 0}, {"is_disabled": 0, "fusion_lon": 0.0, "fusion_lat": 0.0, "lat": 38.90877166666667, "type": "electric_scooter", "lon": -77.03393216666667, "bike_id": "ca6f0f113ba39a2463d765eaad290986", "rental_uris": {"android": "https://dc.lft.to/lastmile_qr_scan", "ios": "https://dc.lft.to/lastmile_qr_scan"}, "name": "ca6f0f113ba39a2463d765eaad290986", "is_reserved": 0}, {"is_disabled": 0, "fusion_lon": 0.0, "fusion_lat": 0.0, "lat": 38.895964166666666, "type": "electric_scooter", "lon": -77.02297633333333, "bike_id": "fc46738c2b8ce8c1e7f988b9c86e4c19", "rental_uris": {"android": "https://dc.lft.to/lastmile_qr_scan", "ios": "https://dc.lft.to/lastmile_qr_scan"}, "name": "fc46738c2b8ce8c1e7f988b9c86e4c19", "is_reserved": 0}, {"is_disabled": 0, "fusion_lon": 0.0, "fusion_lat": 0.0, "lat": 38.916075166666666, "type": "electric_scooter", "lon": -77.04016716666666, "bike_id": "dad89c0b804ac4de0a66c8079c503abb", "rental_uris": {"android": "https://dc.lft.to/lastmile_qr_scan", "ios": "https://dc.lft.to/lastmile_qr_scan"}, "name": "dad89c0b804ac4de0a66c8079c503abb", "is_reserved": 0}, {"is_disabled": 0, "fusion_lon": 0.0, "fusion_lat": 0.0, "lat": 38.97540433333333, "type": "electric_bike", "lon": -76.99534316666667, "bike_id": "53657498de6879fefbcbc8ac49bbda86", "rental_uris": {"android": "https://dc.lft.to/lastmile_qr_scan", "ios": "https://dc.lft.to/lastmile_qr_scan"}, "name": "53657498de6879fefbcbc8ac49bbda86", "is_reserved": 0}, {"is_disabled": 0, "fusion_lon": 0.0, "fusion_lat": 0.0, "lat": 38.933102, "type": "electric_scooter", "lon": -77.03265383333333, "bike_id": "f844a2624584a4232211b6847e31c7cd", "rental_uris": {"android": "https://dc.lft.to/lastmile_qr_scan", "ios": "https://dc.lft.to/lastmile_qr_scan"}, "name": "f844a2624584a4232211b6847e31c7cd", "is_reserved": 0}, {"is_disabled": 0, "fusion_lon": 0.0, "fusion_lat": 0.0, "lat": 38.8983305, "type": "electric_scooter", "lon": -76.946329, "bike_id": "06c046737c84945562ad28dd400c39ba", "rental_uris": {"android": "https://dc.lft.to/lastmile_qr_scan", "ios": "https://dc.lft.to/lastmile_qr_scan"}, "name": "06c046737c84945562ad28dd400c39ba", "is_reserved": 0}, {"is_disabled": 0, "fusion_lon": 0.0, "fusion_lat": 0.0, "lat": 38.90846, "type": "electric_scooter", "lon": -77.009874, "bike_id": "5969b774b4ef9ecd891bb11b4179ea8f", "rental_uris": {"android": "https://dc.lft.to/lastmile_qr_scan", "ios": "https://dc.lft.to/lastmile_qr_scan"}, "name": "5969b774b4ef9ecd891bb11b4179ea8f", "is_reserved": 0}, {"is_disabled": 0, "fusion_lon": 0.0, "fusion_lat": 0.0, "lat": 38.8707425, "type": "electric_bike", "lon": -77.012116, "bike_id": "37d185a9de91410146dbd4646d88a67f", "rental_uris": {"android": "https://dc.lft.to/lastmile_qr_scan", "ios": "https://dc.lft.to/lastmile_qr_scan"}, "name": "37d185a9de91410146dbd4646d88a67f", "is_reserved": 0}, {"is_disabled": 0, "fusion_lon": 0.0, "fusion_lat": 0.0, "lat": 38.923339166666665, "type": "electric_scooter", "lon": -77.043049, "bike_id": "17881f84b3f00f9edc279acc844caaae", "rental_uris": {"android": "https://dc.lft.to/lastmile_qr_scan", "ios": "https://dc.lft.to/lastmile_qr_scan"}, "name": "17881f84b3f00f9edc279acc844caaae", "is_reserved": 0}, {"is_disabled": 0, "fusion_lon": 0.0, "fusion_lat": 0.0, "lat": 38.916902, "type": "electric_scooter", "lon": -77.0298905, "bike_id": "277d98ce8a71867f8ba38046d2779568", "rental_uris": {"android": "https://dc.lft.to/lastmile_qr_scan", "ios": "https://dc.lft.to/lastmile_qr_scan"}, "name": "277d98ce8a71867f8ba38046d2779568", "is_reserved": 0}, {"is_disabled": 0, "fusion_lon": 0.0, "fusion_lat": 0.0, "lat": 38.91591016666667, "type": "electric_bike", "lon": -76.97148816666666, "bike_id": "a022940dfcc19a71ba187995d0bab9c4", "rental_uris": {"android": "https://dc.lft.to/lastmile_qr_scan", "ios": "https://dc.lft.to/lastmile_qr_scan"}, "name": "a022940dfcc19a71ba187995d0bab9c4", "is_reserved": 0}, {"is_disabled": 0, "fusion_lon": 0.0, "fusion_lat": 0.0, "lat": 38.91150666666667, "type": "electric_scooter", "lon": -77.02383466666667, "bike_id": "c205c522b7af2ce4ea20e2c6a765597a", "rental_uris": {"android": "https://dc.lft.to/lastmile_qr_scan", "ios": "https://dc.lft.to/lastmile_qr_scan"}, "name": "c205c522b7af2ce4ea20e2c6a765597a", "is_reserved": 0}, {"is_disabled": 0, "fusion_lon": 0.0, "fusion_lat": 0.0, "lat": 38.935611, "type": "electric_bike", "lon": -77.08184666666666, "bike_id": "c0a43350515dbc45ae3e16baec06f28e", "rental_uris": {"android": "https://dc.lft.to/lastmile_qr_scan", "ios": "https://dc.lft.to/lastmile_qr_scan"}, "name": "c0a43350515dbc45ae3e16baec06f28e", "is_reserved": 0}, {"is_disabled": 0, "fusion_lon": 0.0, "fusion_lat": 0.0, "lat": 38.86906416666667, "type": "electric_bike", "lon": -77.131823, "bike_id": "caa5fe48937dd6162b69f73f3082c0e4", "rental_uris": {"android": "https://dc.lft.to/lastmile_qr_scan", "ios": "https://dc.lft.to/lastmile_qr_scan"}, "name": "caa5fe48937dd6162b69f73f3082c0e4", "is_reserved": 0}, {"is_disabled": 0, "fusion_lon": 0.0, "fusion_lat": 0.0, "lat": 38.91981366666667, "type": "electric_bike", "lon": -76.97307583333334, "bike_id": "8844fee845eb0f2e25b471552a7f2a77", "rental_uris": {"android": "https://dc.lft.to/lastmile_qr_scan", "ios": "https://dc.lft.to/lastmile_qr_scan"}, "name": "8844fee845eb0f2e25b471552a7f2a77", "is_reserved": 0}, {"is_disabled": 0, "fusion_lon": 0.0, "fusion_lat": 0.0, "lat": 38.90504, "type": "electric_scooter", "lon": -77.029474, "bike_id": "ed133a8d7fef9ee3ac0e012e040d5bbb", "rental_uris": {"android": "https://dc.lft.to/lastmile_qr_scan", "ios": "https://dc.lft.to/lastmile_qr_scan"}, "name": "ed133a8d7fef9ee3ac0e012e040d5bbb", "is_reserved": 0}, {"is_disabled": 0, "fusion_lon": 0.0, "fusion_lat": 0.0, "lat": 38.884958833333336, "type": "electric_scooter", "lon": -77.020777, "bike_id": "532a678ab0500e2b9daa047b80bfccc6", "rental_uris": {"android": "https://dc.lft.to/lastmile_qr_scan", "ios": "https://dc.lft.to/lastmile_qr_scan"}, "name": "532a678ab0500e2b9daa047b80bfccc6", "is_reserved": 0}, {"is_disabled": 0, "fusion_lon": 0.0, "fusion_lat": 0.0, "lat": 38.9300085, "type": "electric_scooter", "lon": -77.0220825, "bike_id": "c6edbfa0e77911a45103bfc2486f2e71", "rental_uris": {"android": "https://dc.lft.to/lastmile_qr_scan", "ios": "https://dc.lft.to/lastmile_qr_scan"}, "name": "c6edbfa0e77911a45103bfc2486f2e71", "is_reserved": 0}, {"is_disabled": 0, "fusion_lon": 0.0, "fusion_lat": 0.0, "lat": 38.903341833333336, "type": "electric_bike", "lon": -76.975324, "bike_id": "a9b3641a05081c44989c8619e9ae9c5a", "rental_uris": {"android": "https://dc.lft.to/lastmile_qr_scan", "ios": "https://dc.lft.to/lastmile_qr_scan"}, "name": "a9b3641a05081c44989c8619e9ae9c5a", "is_reserved": 0}, {"is_disabled": 0, "fusion_lon": 0.0, "fusion_lat": 0.0, "lat": 38.91579333333333, "type": "electric_scooter", "lon": -77.02000483333333, "bike_id": "50d8df4fda447677517ea898bf4fef9e", "rental_uris": {"android": "https://dc.lft.to/lastmile_qr_scan", "ios": "https://dc.lft.to/lastmile_qr_scan"}, "name": "50d8df4fda447677517ea898bf4fef9e", "is_reserved": 0}, {"is_disabled": 0, "fusion_lon": 0.0, "fusion_lat": 0.0, "lat": 38.934981, "type": "electric_scooter", "lon": -77.02715983333333, "bike_id": "385dfe82930f4403d1e06fb926252ad4", "rental_uris": {"android": "https://dc.lft.to/lastmile_qr_scan", "ios": "https://dc.lft.to/lastmile_qr_scan"}, "name": "385dfe82930f4403d1e06fb926252ad4", "is_reserved": 0}, {"is_disabled": 0, "fusion_lon": 0.0, "fusion_lat": 0.0, "lat": 38.900667, "type": "electric_scooter", "lon": -77.048872, "bike_id": "17a02fce3fb5fe559e644b13f8e6ede0", "rental_uris": {"android": "https://dc.lft.to/lastmile_qr_scan", "ios": "https://dc.lft.to/lastmile_qr_scan"}, "name": "17a02fce3fb5fe559e644b13f8e6ede0", "is_reserved": 0},