{"data": {"bikes": [{"lat": 38.9170505, "is_disabled": 0, "type": "electric_scooter", "lon": -77.00114566666667, "bike_id": "4e28dc2ccd080159ec5c710b0b649bab", "fusion_lat": 0.0, "name": "4e28dc2ccd080159ec5c710b0b649bab", "is_reserved": 0, "rental_uris": {"android": "https://dc.lft.to/lastmile_qr_scan", "ios": "https://dc.lft.to/lastmile_qr_scan"}, "fusion_lon": 0.0}, {"lat": 38.898364, "is_disabled": 0, "type": "electric_scooter", "lon": -77.02385216666667, "bike_id": "850ce76f4227a6af17b6e387195f348b", "fusion_lat": 0.0, "name": "850ce76f4227a6af17b6e387195f348b", "is_reserved": 0, "rental_uris": {"android": "https://dc.lft.to/lastmile_qr_scan", "ios": "https://dc.lft.to/lastmile_qr_scan"}, "fusion_lon": 0.0}, {"lat": 38.895545, "is_disabled": 0, "type": "electric_scooter", "lon": -76.9307575, "bike_id": "ef8206d999132fea0606f21ccd26644a", "fusion_lat": 0.0, "name": "ef8206d999132fea0606f21ccd26644a", "is_reserved": 0, "rental_uris": {"android": "https://dc.lft.to/lastmile_qr_scan", "ios": "https://dc.lft.to/lastmile_qr_scan"}, "fusion_lon": 0.0}, {"lat": 38.926556833333336, "is_disabled": 0, "type": "electric_scooter", "lon": -77.0242965, "bike_id": "6f4daf75ff764719802a82cc23eb315c", "fusion_lat": 0.0, "name": "6f4daf75ff764719802a82cc23eb315c", "is_reserved": 0, "rental_uris": {"android": "https://dc.lft.to/lastmile_qr_scan", "ios": "https://dc.lft.to/lastmile_qr_scan"}, "fusion_lon": 0.0}, {"lat": 38.93938683333333, "is_disabled": 0, "type": "electric_scooter", "lon": -77.03672566666667, "bike_id": "6b5165c848c63ab7d7f6a2828a781313", "fusion_lat": 0.0, "name": "6b5165c848c63ab7d7f6a2828a781313", "is_reserved": 0, "rental_uris": {"android": "https://dc.lft.to/lastmile_qr_scan", "ios": "https://dc.lft.to/lastmile_qr_scan"}, "fusion_lon": 0.0}, {"lat": 38.9200225, "is_disabled": 0, "type": "electric_scooter", "lon": -77.03875083333334, "bike_id": "1f3bc7f720d3b30340fefcd69def59d9", "fusion_lat": 0.0, "name": "1f3bc7f720d3b30340fefcd69def59d9", "is_reserved": 0, "rental_uris": {"android": "https://dc.lft.to/lastmile_qr_scan", "ios": "https://dc.lft.to/lastmile_qr_scan"}, "fusion_lon": 0.0}, {"lat": 38.93961566666667, "is_disabled": 0, "type": "electric_bike", "lon": -77.36088666666667, "bike_id": "7f70aa22d2e6c9d0b2380ad6ebc59259", "fusion_lat": 0.0, "name": "7f70aa22d2e6c9d0b2380ad6ebc59259", "is_reserved": 0, "rental_uris": {"android": "https://dc.lft.to/lastmile_qr_scan", "ios": "https://dc.lft.to/lastmile_qr_scan"}, "fusion_lon": 0.0}, {"lat": 38.89971633333333, "is_disabled": 0, "type": "electric_scooter", "lon": -77.0569945, "bike_id": "4af7f1d0281012ee925eac701ad1c642", "fusion_lat": 0.0, "name": "4af7f1d0281012ee925eac701ad1c642", "is_reserved": 0, "rental_uris": {"android": "https://dc.lft.to/lastmile_qr_scan", "ios": "https://dc.lft.to/lastmile_qr_scan"}, "fusion_lon": 0.0}, {"lat": 38.927595833333335, "is_disabled": 0, "type": "electric_scooter", "lon": -77.03213416666667, "bike_id": "9246b5c08cd4ef14f05b71f05496e1d9", "fusion_lat": 0.0, "name": "9246b5c08cd4ef14f05b71f05496e1d9", "is_reserved": 0, "rental_uris": {"android": "https://dc.lft.to/lastmile_qr_scan", "ios": "https://dc.lft.to/lastmile_qr_scan"}, "fusion_lon": 0.0}, {"lat": 38.897285833333335, "is_disabled": 0, "type": "electric_scooter", "lon": -77.04689683333334, "bike_id": "0337d6a2714375f084f4607927e88554", "fusion_lat": 0.0, "name": "0337d6a2714375f084f4607927e88554", "is_reserved": 0, "rental_uris": {"android": "https://dc.lft.to/lastmile_qr_scan", "ios": "https://dc.lft.to/lastmile_qr_scan"}, "fusion_lon": 0.0}, {"lat": 38.95283883333333, "is_disabled": 0, "type": "electric_bike", "lon": -76.94599766666667, "bike_id": "0f78ad2d3f6d7c66f12d5746238a0cd9", "fusion_lat": 0.0, "name": "0f78ad2d3f6d7c66f12d5746238a0cd9", "is_reserved": 0, "rental_uris": {"android": "https://dc.lft.to/lastmile_qr_scan", "ios": "https://dc.lft.to/lastmile_qr_scan"}, "fusion_lon": 0.0}, {"lat": 38.876311666666666, "is_disabled": 0, "type": "electric_scooter", "lon": -76.965244, "bike_id": "7280707e84a17715a098f2f805c54260", "fusion_lat": 0.0, "name": "7280707e84a17715a098f2f805c54260", "is_reserved": 0, "rental_uris": {"android": "https://dc.lft.to/lastmile_qr_scan", "ios": "https://dc.lft.to/lastmile_qr_scan"}, "fusion_lon": 0.0}, {"lat": 38.93763383333334, "is_disabled": 0, "type": "electric_scooter", "lon": -77.02375966666666, "bike_id": "1892625f75fb0284d3db5d1d33d6d67c", "fusion_lat": 0.0, "name": "1892625f75fb0284d3db5d1d33d6d67c", "is_reserved": 0, "rental_uris": {"android": "https://dc.lft.to/lastmile_qr_scan", "ios": "https://dc.lft.to/lastmile_qr_scan"}, "fusion_lon": 0.0}, {"lat": 38.9073525, "is_disabled": 0, "type": "electric_scooter", "lon": -77.047872, "bike_id": "27fd3cb19e7ccd06438068401fa542e4", "fusion_lat": 0.0, "name": "27fd3cb19e7ccd06438068401fa542e4", "is_reserved": 0, "rental_uris": {"android": "https://dc.lft.to/lastmile_qr_scan", "ios": "https://dc.lft.to/lastmile_qr_scan"}, "fusion_lon": 0.0}, {"lat": 38.90794983333333, "is_disabled": 0, "type": "electric_scooter", "lon": -77.03478933333334, "bike_id": "b6221081dbee930b9f89c0cc42709786", "fusion_lat": 0.0, "name": "b6221081dbee930b9f89c0cc42709786", "is_reserved": 0, "rental_uris": {"android": "https://dc.lft.to/lastmile_qr_scan", "ios": "https://dc.lft.to/lastmile_qr_scan"}, "fusion_lon": 0.0}, {"lat": 38.902054666666665, "is_disabled": 0, "type": "electric_scooter", "lon": -77.02175983333333, "bike_id": "4a9799a78091b75b6dd50fdc66121bbd", "fusion_lat": 0.0, "name": "4a9799a78091b75b6dd50fdc66121bbd", "is_reserved": 0, "rental_uris": {"android": "https://dc.lft.to/lastmile_qr_scan", "ios": "https://dc.lft.to/lastmile_qr_scan"}, "fusion_lon": 0.0}, {"lat": 38.89622633333333, "is_disabled": 0, "type": "electric_scooter", "lon": -77.044917, "bike_id": "9d9c3e662a1c496e6ce1319939cf3fb6", "fusion_lat": 0.0, "name": "9d9c3e662a1c496e6ce1319939cf3fb6", "is_reserved": 0, "rental_uris": {"android": "https://dc.lft.to/lastmile_qr_scan", "ios": "https://dc.lft.to/lastmile_qr_scan"}, "fusion_lon": 0.0}, {"lat": 38.898608, "is_disabled": 0, "type": "electric_scooter", "lon": -77.02436516666667, "bike_id": "41c831edafd3511f9f3a967a633afb4a", "fusion_lat": 0.0, "name": "41c831edafd3511f9f3a967a633afb4a", "is_reserved": 0, "rental_uris": {"android": "https://dc.lft.to/lastmile_qr_scan", "ios": "https://dc.lft.to/lastmile_qr_scan"}, "fusion_lon": 0.0}, {"lat": 38.842955833333335, "is_disabled": 0, "type": "electric_scooter", "lon": -76.99946733333333, "bike_id": "30d29024f8d4498a6e191ac7caa33e4c", "fusion_lat": 0.0, "name": "30d29024f8d4498a6e191ac7caa33e4c", "is_reserved": 0, "rental_uris": {"android": "https://dc.lft.to/lastmile_qr_scan", "ios": "https://dc.lft.to/lastmile_qr_scan"}, "fusion_lon": 0.0}, {"lat": 38.912171, "is_disabled": 0, "type": "electric_scooter", "lon": -77.03434, "bike_id": "af5efa5d60700df0e2b6758baadab457", "fusion_lat": 0.0, "name": "af5efa5d60700df0e2b6758baadab457", "is_reserved": 0, "rental_uris": {"android": "https://dc.lft.to/lastmile_qr_scan", "ios": "https://dc.lft.to/lastmile_qr_scan"}, "fusion_lon": 0.0}, {"lat": 38.859972166666665, "is_disabled": 0, "type": "electric_scooter", "lon": -76.9854745, "bike_id": "10c4f15599a9a7a1ae99e65bc8f032ab", "fusion_lat": 0.0, "name": "10c4f15599a9a7a1ae99e65bc8f032ab", "is_reserved": 0, "rental_uris": {"android": "https://dc.lft.to/lastmile_qr_scan", "ios": "https://dc.lft.to/lastmile_qr_scan"}, "fusion_lon": 0.0}, {"lat": 38.924267, "is_disabled": 0, "type": "electric_scooter", "lon": -77.05175783333334, "bike_id": "54bf834931777c3e4c252cb5fb04fc8b", "fusion_lat": 0.0, "name": "54bf834931777c3e4c252cb5fb04fc8b", "is_reserved": 0, "rental_uris": {"android": "https://dc.lft.to/lastmile_qr_scan", "ios": "https://dc.lft.to/lastmile_qr_scan"}, "fusion_lon": 0.0}, {"lat": 38.9002455, "is_disabled": 0, "type": "electric_scooter", "lon": -77.00205683333333, "bike_id": "31b4a2e53663444d876fc5d21fc7817d", "fusion_lat": 0.0, "name": "31b4a2e53663444d876fc5d21fc7817d", "is_reserved": 0, "rental_uris": {"android": "https://dc.lft.to/lastmile_qr_scan", "ios": "https://dc.lft.to/lastmile_qr_scan"}, "fusion_lon": 0.0}, {"lat": 38.95070316666666, "is_disabled": 0, "type": "electric_scooter", "lon": -77.06654033333334, "bike_id": "f5ba9e43d4efef0016b26cd7230f5902", "fusion_lat": 0.0, "name": "f5ba9e43d4efef0016b26cd7230f5902", "is_reserved": 0, "rental_uris": {"android": "https://dc.lft.to/lastmile_qr_scan", "ios": "https://dc.lft.to/lastmile_qr_scan"}, "fusion_lon": 0.0}, {"lat": 38.90129916666667, "is_disabled": 0, "type": "electric_scooter", "lon": -77.01812783333334, "bike_id": "5ff0a3916adc3f63c81452d6c516a916", "fusion_lat": 0.0, "name": "5ff0a3916adc3f63c81452d6c516a916", "is_reserved": 0, "rental_uris": {"android": "https://dc.lft.to/lastmile_qr_scan", "ios": "https://dc.lft.to/lastmile_qr_scan"}, "fusion_lon": 0.0}, {"lat": 38.905776333333336, "is_disabled": 0, "type": "electric_scooter", "lon": -77.02210383333333, "bike_id": "f63effadcebe4818927342770b94894e", "fusion_lat": 0.0, "name": "f63effadcebe4818927342770b94894e", "is_reserved": 0, "rental_uris": {"android": "https://dc.lft.to/lastmile_qr_scan", "ios": "https://dc.lft.to/lastmile_qr_scan"}, "fusion_lon": 0.0}, {"lat": 38.94089816666666, "is_disabled": 0, "type": "electric_scooter", "lon": -77.032813, "bike_id": "1a9be0fd2bde262745fee084a493d4cd", "fusion_lat": 0.0, "name": "1a9be0fd2bde262745fee084a493d4cd", "is_reserved": 0, "rental_uris": {"android": "https://dc.lft.to/lastmile_qr_scan", "ios": "https://dc.lft.to/lastmile_qr_scan"}, "fusion_lon": 0.0}, {"lat": 38.932285, "is_disabled": 0, "type": "electric_scooter", "lon": -77.033857, "bike_id": "da74ed03d72d28de9f32e3b54ed219e4", "fusion_lat": 0.0, "name": "da74ed03d72d28de9f32e3b54ed219e4", "is_reserved": 0, "rental_uris": {"android": "https://dc.lft.to/lastmile_qr_scan", "ios": "https://dc.lft.to/lastmile_qr_scan"}, "fusion_lon": 0.0}, {"lat": 38.943095666666665, "is_disabled": 0, "type": "electric_scooter", "lon": -77.06130016666667, "bike_id": "14caeab07af7a9f9d929efdb5c5e9535", "fusion_lat": 0.0, "name": "14caeab07af7a9f9d929efdb5c5e9535", "is_reserved": 0, "rental_uris": {"android": "https://dc.lft.to/lastmile_qr_scan", "ios": "https://dc.lft.to/lastmile_qr_scan"}, "fusion_lon": 0.0}, {"lat": 38.90646183333333, "is_disabled": 0, "type": "electric_scooter", "lon": -77.0141185, "bike_id": "49e1800bb3307964bcce942a037e5dd9", "fusion_lat": 0.0, "name": "49e1800bb3307964bcce942a037e5dd9", "is_reserved": 0, "rental_uris": {"android": "https://dc.lft.to/lastmile_qr_scan", "ios": "https://dc.lft.to/lastmile_qr_scan"}, "fusion_lon": 0.0}, {"lat": 38.9025615, "is_disabled": 0, "type": "electric_scooter", "lon": -77.034255, "bike_id": "ba3ebbd3c4ac6e2c8dc5f8a267d8f396", "fusion_lat": 0.0, "name": "ba3ebbd3c4ac6e2c8dc5f8a267d8f396", "is_reserved": 0, "rental_uris": {"android": "https://dc.lft.to/lastmile_qr_scan", "ios": "https://dc.lft.to/lastmile_qr_scan"}, "fusion_lon": 0.0}, {"lat": 38.915668333333336, "is_disabled": 0, "type": "electric_scooter", "lon": -77.05031216666667, "bike_id": "707c664d08f115932c0612a04d00b1ba", "fusion_lat": 0.0, "name": "707c664d08f115932c0612a04d00b1ba", "is_reserved": 0, "rental_uris": {"android": "https://dc.lft.to/lastmile_qr_scan", "ios": "https://dc.lft.to/lastmile_qr_scan"}, "fusion_lon": 0.0}, {"lat": 38.92100933333333, "is_disabled": 0, "type": "electric_scooter", "lon": -77.046887, "bike_id": "a896a0bb8f33447985c8688c1939aefb", "fusion_lat": 0.0, "name": "a896a0bb8f33447985c8688c1939aefb", "is_reserved": 0, "rental_uris": {"android": "https://dc.lft.to/lastmile_qr_scan", "ios": "https://dc.lft.to/lastmile_qr_scan"}, "fusion_lon": 0.0}, {"lat": 38.92828566666667, "is_disabled": 0, "type": "electric_scooter", "lon": -77.0226265, "bike_id": "de40883fc973fa7e2b9cba30a4c800fc", "fusion_lat": 0.0, "name": "de40883fc973fa7e2b9cba30a4c800fc", "is_reserved": 0, "rental_uris": {"android": "https://dc.lft.to/lastmile_qr_scan", "ios": "https://dc.lft.to/lastmile_qr_scan"}, "fusion_lon": 0.0}, {"lat": 38.90521016666667, "is_disabled": 0, "type": "electric_scooter", "lon": -77.034336, "bike_id": "5d60234ea205e67dab38c369a6597bad", "fusion_lat": 0.0, "name": "5d60234ea205e67dab38c369a6597bad", "is_reserved": 0, "rental_uris": {"android": "https://dc.lft.to/lastmile_qr_scan", "ios": "https://dc.lft.to/lastmile_qr_scan"}, "fusion_lon": 0.0}, {"lat": 38.922436166666664, "is_disabled": 0, "type": "electric_scooter", "lon": -77.019328, "bike_id": "8de1fc613d0d2e1d6bc19aa07c5ff3e0", "fusion_lat": 0.0, "name": "8de1fc613d0d2e1d6bc19aa07c5ff3e0", "is_reserved": 0, "rental_uris": {"android": "https://dc.lft.to/lastmile_qr_scan", "ios": "https://dc.lft.to/lastmile_qr_scan"}, "fusion_lon": 0.0}, {"lat": 38.8724415, "is_disabled": 0, "type": "electric_scooter", "lon": -76.977238, "bike_id": "4735824961c2d3735c79d20a780e57b5", "fusion_lat": 0.0, "name": "4735824961c2d3735c79d20a780e57b5", "is_reserved": 0, "rental_uris": {"android": "https://dc.lft.to/lastmile_qr_scan", "ios": "https://dc.lft.to/lastmile_qr_scan"}, "fusion_lon": 0.0}, {"lat": 38.928334166666666, "is_disabled": 0, "type": "electric_scooter", "lon": -77.05422083333333, "bike_id": "f225b7266ec7a0579128f2a79187c225", "fusion_lat": 0.0, "name": "f225b7266ec7a0579128f2a79187c225", "is_reserved": 0, "rental_uris": {"android": "https://dc.lft.to/lastmile_qr_scan", "ios": "https://dc.lft.to/lastmile_qr_scan"}, "fusion_lon": 0.0}, {"lat": 38.90955566666667, "is_disabled": 0, "type": "electric_scooter", "lon": -77.02682316666667, "bike_id": "9a40af1d8908703b662843fec613a73f", "fusion_lat": 0.0, "name": "9a40af1d8908703b662843fec613a73f", "is_reserved": 0, "rental_uris": {"android": "https://dc.lft.to/lastmile_qr_scan", "ios": "https://dc.lft.to/lastmile_qr_scan"}, "fusion_lon": 0.0}, {"lat": 38.88642866666667, "is_disabled": 0, "type": "electric_scooter", "lon": -76.9547045, "bike_id": "efe382cbd4bd4929984e18b8866341f9", "fusion_lat": 0.0, "name": "efe382cbd4bd4929984e18b8866341f9", "is_reserved": 0, "rental_uris": {"android": "https://dc.lft.to/lastmile_qr_scan", "ios": "https://dc.lft.to/lastmile_qr_scan"}, "fusion_lon": 0.0}, {"lat": 38.92413366666667, "is_disabled": 0, "type": "electric_scooter", "lon": -77.05045816666667, "bike_id": "f04a17665bb2536873b9f0072eec3292", "fusion_lat": 0.0, "name": "f04a17665bb2536873b9f0072eec3292", "is_reserved": 0, "rental_uris": {"android": "https://dc.lft.to/lastmile_qr_scan", "ios": "https://dc.lft.to/lastmile_qr_scan"}, "fusion_lon": 0.0}, {"lat": 38.946351666666665, "is_disabled": 0, "type": "electric_scooter", "lon": -77.02524866666667, "bike_id": "d3b8c826b40a31bddd053bb21d317a35", "fusion_lat": 0.0, "name": "d3b8c826b40a31bddd053bb21d317a35", "is_reserved": 0, "rental_uris": {"android": "https://dc.lft.to/lastmile_qr_scan", "ios": "https://dc.lft.to/lastmile_qr_scan"}, "fusion_lon": 0.0}, {"lat": 38.92147466666667, "is_disabled": 0, "type": "electric_scooter", "lon": -77.0423385, "bike_id": "b5f1bb8853a86865169b32112a1f0351", "fusion_lat": 0.0, "name": "b5f1bb8853a86865169b32112a1f0351", "is_reserved": 0, "rental_uris": {"android": "https://dc.lft.to/lastmile_qr_scan", "ios": "https://dc.lft.to/lastmile_qr_scan"}, "fusion_lon": 0.0}, {"lat": 38.934581, "is_disabled": 0, "type": "electric_scooter", "lon": -77.03695816666666, "bike_id": "dc68f55e23adc02e8a0d1efb49cf833c", "fusion_lat": 0.0, "name": "dc68f55e23adc02e8a0d1efb49cf833c", "is_reserved": 0, "rental_uris": {"android": "https://dc.lft.to/lastmile_qr_scan", "ios": "https://dc.lft.to/lastmile_qr_scan"}, "fusion_lon": 0.0}, {"lat": 38.903903, "is_disabled": 0, "type": "electric_scooter", "lon": -77.04310716666667, "bike_id": "47351af475c39754fa5c7a2a62d2982d", "fusion_lat": 0.0, "name": "47351af475c39754fa5c7a2a62d2982d", "is_reserved": 0, "rental_uris": {"android": "https://dc.lft.to/lastmile_qr_scan", "ios": "https://dc.lft.to/lastmile_qr_scan"}, "fusion_lon": 0.0}, {"lat": 38.936523666666666, "is_disabled": 0, "type": "electric_scooter", "lon": -77.02094583333333, "bike_id": "1b46d1cb0a5c314db80838efae266056", "fusion_lat": 0.0, "name": "1b46d1cb0a5c314db80838efae266056", "is_reserved": 0, "rental_uris": {"android": "https://dc.lft.to/lastmile_qr_scan", "ios": "https://dc.lft.to/lastmile_qr_scan"}, "fusion_lon": 0.0}, {"lat": 38.93474716666667, "is_disabled": 0, "type": "electric_scooter", "lon": -77.02407983333333, "bike_id": "b682399efd1e8eb3edf26de1641d135c", "fusion_lat": 0.0, "name": "b682399efd1e8eb3edf26de1641d135c", "is_reserved": 0, "rental_uris": {"android": "https://dc.lft.to/lastmile_qr_scan", "ios": "https://dc.lft.to/lastmile_qr_scan"}, "fusion_lon": 0.0}, {"lat": 38.920065, "is_disabled": 0, "type": "electric_scooter", "lon": -77.03236983333333, "bike_id": "00ad9ff1877355cc1657b4218ba42fa9", "fusion_lat": 0.0, "name": "00ad9ff1877355cc1657b4218ba42fa9", "is_reserved": 0, "rental_uris": {"android": "https://dc.lft.to/lastmile_qr_scan", "ios": "https://dc.lft.to/lastmile_qr_scan"}, "fusion_lon": 0.0}, {"lat": 38.892445333333335, "is_disabled": 0, "type": "electric_bike", "lon": -76.99488183333334, "bike_id": "86423dcd51d7f09ba1845b3a6e1d4db6", "fusion_lat": 0.0, "name": "86423dcd51d7f09ba1845b3a6e1d4db6", "is_reserved": 0, "rental_uris": {"android": "https://dc.lft.to/lastmile_qr_scan", "ios": "https://dc.lft.to/lastmile_qr_scan"}, "fusion_lon": 0.0}, {"lat": 38.957335666666665, "is_disabled": 0, "type": "electric_scooter", "lon": -77.02403316666667, "bike_id": "8847da0729d8a2eb528c8b3c6f051450", "fusion_lat": 0.0, "name": "8847da0729d8a2eb528c8b3c6f051450", "is_reserved": 0, "rental_uris": {"android": "https://dc.lft.to/lastmile_qr_scan", "ios": "https://dc.lft.to/lastmile_qr_scan"}, "fusion_lon": 0.0}, {"lat": 38.927447, "is_disabled": 0, "type": "electric_scooter", "lon": -77.022667, "bike_id": "3563534486a037cd5f8ca74d84b4b443", "fusion_lat": 0.0, "name": "3563534486a037cd5f8ca74d84b4b443", "is_reserved": 0, "rental_uris": {"android": "https://dc.lft.to/lastmile_qr_scan", "ios": "https://dc.lft.to/lastmile_qr_scan"}, "fusion_lon": 0.0}, {"lat": 38.870899, "is_disabled": 0, "type": "electric_scooter", "lon": -77.0119975, "bike_id": "991343111534d59e8db506ffeb0613ac", "fusion_lat": 0.0, "name": "991343111534d59e8db506ffeb0613ac", "is_reserved": 0, "rental_uris": {"android": "https://dc.lft.to/lastmile_qr_scan", "ios": "https://dc.lft.to/lastmile_qr_scan"}, "fusion_lon": 0.0}, {"lat": 38.8801235, "is_disabled": 0, "type": "electric_bike", "lon": -77.00568883333334, "bike_id": "0bbe5ca4a315a7ce3174c201dab1ca74", "fusion_lat": 0.0, "name": "0bbe5ca4a315a7ce3174c201dab1ca74", "is_reserved": 0, "rental_uris": {"android": "https://dc.lft.to/lastmile_qr_scan", "ios": "https://dc.lft.to/lastmile_qr_scan"}, "fusion_lon": 0.0}, {"lat": 38.931462833333335, "is_disabled": 0, "type": "electric_scooter", "lon": -77.03828983333334, "bike_id": "291b6af5e24d76667d1afcd9be3931b8", "fusion_lat": 0.0, "name": "291b6af5e24d76667d1afcd9be3931b8", "is_reserved": 0, "rental_uris": {"android": "https://dc.lft.to/lastmile_qr_scan", "ios": "https://dc.lft.to/lastmile_qr_scan"}, "fusion_lon": 0.0}, {"lat": 38.9068505, "is_disabled": 0, "type": "electric_scooter", "lon": -77.05795383333333, "bike_id": "91e7607b454792449944c2e9732e4acb", "fusion_lat": 0.0, "name": "91e7607b454792449944c2e9732e4acb", "is_reserved": 0, "rental_uris": {"android": "https://dc.lft.to/lastmile_qr_scan", "ios": "https://dc.lft.to/lastmile_qr_scan"}, "fusion_lon": 0.0}, {"lat": 38.88599416666667, "is_disabled": 0, "type": "electric_scooter", "lon": -77.02165983333333, "bike_id": "806b1069b9edfa001b84372afc734882", "fusion_lat": 0.0, "name": "806b1069b9edfa001b84372afc734882", "is_reserved": 0, "rental_uris": {"android": "https://dc.lft.to/lastmile_qr_scan", "ios": "https://dc.lft.to/lastmile_qr_scan"}, "fusion_lon": 0.0}, {"lat": 38.913949, "is_disabled": 0, "type": "electric_scooter", "lon": -77.01498116666667, "bike_id": "0b3e0c04a2d40e3f173c3b533165fec6", "fusion_lat": 0.0, "name": "0b3e0c04a2d40e3f173c3b533165fec6", "is_reserved": 0, "rental_uris": {"android": "https://dc.lft.to/lastmile_qr_scan", "ios": "https://dc.lft.to/lastmile_qr_scan"}, "fusion_lon": 0.0}, {"lat": 38.9003725, "is_disabled": 0, "type": "electric_scooter", "lon": -77.04065133333333, "bike_id": "7d676559524a6f3d2359f9ab6fa3f2ae", "fusion_lat": 0.0, "name": "7d676559524a6f3d2359f9ab6fa3f2ae", "is_reserved": 0, "rental_uris": {"android": "https://dc.lft.to/lastmile_qr_scan", "ios": "https://dc.lft.to/lastmile_qr_scan"}, "fusion_lon": 0.0}, {"lat": 38.91626883333333, "is_disabled": 0, "type": "electric_scooter", "lon": -77.0486585, "bike_id": "a05434c5aa99b2a028606d73380ca15b", "fusion_lat": 0.0, "name": "a05434c5aa99b2a028606d73380ca15b", "is_reserved": 0, "rental_uris": {"android": "https://dc.lft.to/lastmile_qr_scan", "ios": "https://dc.lft.to/lastmile_qr_scan"}, "fusion_lon": 0.0}, {"lat": 38.860505833333335, "is_disabled": 0, "type": "electric_scooter", "lon": -77.057457, "bike_id": "7b9e97906ae6ba264b87255c1e480af6", "fusion_lat": 0.0, "name": "7b9e97906ae6ba264b87255c1e480af6", "is_reserved": 0, "rental_uris": {"android": "https://dc.lft.to/lastmile_qr_scan", "ios": "https://dc.lft.to/lastmile_qr_scan"}, "fusion_lon": 0.0}, {"lat": 38.918786, "is_disabled": 0, "type": "electric_scooter", "lon": -77.0425685, "bike_id": "b739734e6d7179938e15bd433685f64a", "fusion_lat": 0.0, "name": "b739734e6d7179938e15bd433685f64a", "is_reserved": 0, "rental_uris": {"android": "https://dc.lft.to/lastmile_qr_scan", "ios": "https://dc.lft.to/lastmile_qr_scan"}, "fusion_lon": 0.0}, {"lat": 38.900383, "is_disabled": 0, "type": "electric_scooter", "lon": -77.0334725, "bike_id": "ba83b9ed12a1e91893dfbdd860eeae87", "fusion_lat": 0.0, "name": "ba83b9ed12a1e91893dfbdd860eeae87", "is_reserved": 0, "rental_uris": {"android": "https://dc.lft.to/lastmile_qr_scan", "ios": "https://dc.lft.to/lastmile_qr_scan"}, "fusion_lon": 0.0}, {"lat": 38.916061, "is_disabled": 0, "type": "electric_scooter", "lon": -77.03849883333334, "bike_id": "b8cba015c353a3aad978efb9c1447325", "fusion_lat": 0.0, "name": "b8cba015c353a3aad978efb9c1447325", "is_reserved": 0, "rental_uris": {"android": "https://dc.lft.to/lastmile_qr_scan", "ios": "https://dc.lft.to/lastmile_qr_scan"}, "fusion_lon": 0.0}, {"lat": 38.921502833333335, "is_disabled": 0, "type": "electric_scooter", "lon": -77.03656316666667, "bike_id": "72539f264bf4e0d7f576eef279ccf87e", "fusion_lat": 0.0, "name": "72539f264bf4e0d7f576eef279ccf87e", "is_reserved": 0, "rental_uris": {"android": "https://dc.lft.to/lastmile_qr_scan", "ios": "https://dc.lft.to/lastmile_qr_scan"}, "fusion_lon": 0.0}, {"lat": 38.93855816666667, "is_disabled": 0, "type": "electric_scooter", "lon": -77.02561366666667, "bike_id": "871b13a9d9630dac76921e2872569477", "fusion_lat": 0.0, "name": "871b13a9d9630dac76921e2872569477", "is_reserved": 0, "rental_uris": {"android": "https://dc.lft.to/lastmile_qr_scan", "ios": "https://dc.lft.to/lastmile_qr_scan"}, "fusion_lon": 0.0}, {"lat": 38.97217083333334, "is_disabled": 0, "type": "electric_bike", "lon": -76.99344216666667, "bike_id": "d2be5cbaba9001803f56c798d83927f5", "fusion_lat": 0.0, "name": "d2be5cbaba9001803f56c798d83927f5", "is_reserved": 0, "rental_uris": {"android": "https://dc.lft.to/lastmile_qr_scan", "ios": "https://dc.lft.to/lastmile_qr_scan"}, "fusion_lon": 0.0}, {"lat": 38.9033075, "is_disabled": 0, "type": "electric_scooter", "lon": -77.03794616666667, "bike_id": "71e4af3c2b6d3b8401d22d4f25e98b1a", "fusion_lat": 0.0, "name": "71e4af3c2b6d3b8401d22d4f25e98b1a", "is_reserved": 0, "rental_uris": {"android": "https://dc.lft.to/lastmile_qr_scan", "ios": "https://dc.lft.to/lastmile_qr_scan"}, "fusion_lon": 0.0}, {"lat": 38.895323833333336, "is_disabled": 0, "type": "electric_scooter", "lon": -77.01085016666667, "bike_id": "91fc2467543464d7d950e80197c53737", "fusion_lat": 0.0, "name": "91fc2467543464d7d950e80197c53737", "is_reserved": 0, "rental_uris": {"android": "https://dc.lft.to/lastmile_qr_scan", "ios": "https://dc.lft.to/lastmile_qr_scan"}, "fusion_lon": 0.0}, {"lat": 38.90525783333333, "is_disabled": 0, "type": "electric_scooter", "lon": -77.06059216666667, "bike_id": "546167ce89d79f31834a3716212622af", "fusion_lat": 0.0, "name": "546167ce89d79f31834a3716212622af", "is_reserved": 0, "rental_uris": {"android": "https://dc.lft.to/lastmile_qr_scan", "ios": "https://dc.lft.to/lastmile_qr_scan"}, "fusion_lon": 0.0}, {"lat": 38.91853033333334, "is_disabled": 0, "type": "electric_scooter", "lon": -77.04570833333334, "bike_id": "7cec2c792976776b1696cf42ba60b68c", "fusion_lat": 0.0, "name": "7cec2c792976776b1696cf42ba60b68c", "is_reserved": 0, "rental_uris": {"android": "https://dc.lft.to/lastmile_qr_scan", "ios": "https://dc.lft.to/lastmile_qr_scan"}, "fusion_lon": 0.0}, {"lat": 38.912629, "is_disabled": 0, "type": "electric_scooter", "lon": -77.0062995, "bike_id": "7fc94fbaf004e47c277fac48b8b43494", "fusion_lat": 0.0, "name": "7fc94fbaf004e47c277fac48b8b43494", "is_reserved": 0, "rental_uris": {"android": "https://dc.lft.to/lastmile_qr_scan", "ios": "https://dc.lft.to/lastmile_qr_scan"}, "fusion_lon": 0.0}, {"lat": 38.905276, "is_disabled": 0, "type": "electric_scooter", "lon": -77.04742016666667, "bike_id": "ab0a8fedbafc1628da211af820649a91", "fusion_lat": 0.0, "name": "ab0a8fedbafc1628da211af820649a91", "is_reserved": 0, "rental_uris": {"android": "https://dc.lft.to/lastmile_qr_scan", "ios": "https://dc.lft.to/lastmile_qr_scan"}, "fusion_lon": 0.0}, {"lat": 38.919519666666666, "is_disabled": 0, "type": "electric_scooter", "lon": -76.98079533333333, "bike_id": "98a3de0cb45b002cf45fe56941be5f9c", "fusion_lat": 0.0, "name": "98a3de0cb45b002cf45fe56941be5f9c", "is_reserved": 0, "rental_uris": {"android": "https://dc.lft.to/lastmile_qr_scan", "ios": "https://dc.lft.to/lastmile_qr_scan"}, "fusion_lon": 0.0}, {"lat": 38.9168615, "is_disabled": 0, "type": "electric_scooter", "lon": -77.02945716666666, "bike_id": "ca63a93977b3e0c241ca5c249ea75e53", "fusion_lat": 0.0, "name": "ca63a93977b3e0c241ca5c249ea75e53", "is_reserved": 0, "rental_uris": {"android": "https://dc.lft.to/lastmile_qr_scan", "ios": "https://dc.lft.to/lastmile_qr_scan"}, "fusion_lon": 0.0}, {"lat": 38.899818333333336, "is_disabled": 0, "type": "electric_scooter", "lon": -77.033456, "bike_id": "4dcd7980613f3852bece5cecfc30f882", "fusion_lat": 0.0, "name": "4dcd7980613f3852bece5cecfc30f882", "is_reserved": 0, "rental_uris": {"android": "https://dc.lft.to/lastmile_qr_scan", "ios": "https://dc.lft.to/lastmile_qr_scan"}, "fusion_lon": 0.0}, {"lat": 38.92045783333333, "is_disabled": 0, "type": "electric_scooter", "lon": -77.02367416666667, "bike_id": "119b301626d058b8130ad6b4787734a2", "fusion_lat": 0.0, "name": "119b301626d058b8130ad6b4787734a2", "is_reserved": 0, "rental_uris": {"android": "https://dc.lft.to/lastmile_qr_scan", "ios": "https://dc.lft.to/lastmile_qr_scan"}, "fusion_lon": 0.0}, {"lat": 38.885826333333334, "is_disabled": 0, "type": "electric_scooter", "lon": -77.01221633333333, "bike_id": "f368f55a991bcc2a9f5bbaf06382959d", "fusion_lat": 0.0, "name": "f368f55a991bcc2a9f5bbaf06382959d", "is_reserved": 0, "rental_uris": {"android": "https://dc.lft.to/lastmile_qr_scan", "ios": "https://dc.lft.to/lastmile_qr_scan"}, "fusion_lon": 0.0}, {"lat": 38.930841666666666, "is_disabled": 0, "type": "electric_scooter", "lon": -76.96721966666667, "bike_id": "d31ac08e36e659facf1f48ea20db9f13", "fusion_lat": 0.0, "name": "d31ac08e36e659facf1f48ea20db9f13", "is_reserved": 0, "rental_uris": {"android": "https://dc.lft.to/lastmile_qr_scan", "ios": "https://dc.lft.to/lastmile_qr_scan"}, "fusion_lon": 0.0}, {"lat": 38.91042266666667, "is_disabled": 0, "type": "electric_scooter", "lon": -77.04082966666667, "bike_id": "33caef53e6d48e56ab072cb5e9c670ea", "fusion_lat": 0.0, "name": "33caef53e6d48e56ab072cb5e9c670ea", "is_reserved": 0, "rental_uris": {"android": "https://dc.lft.to/lastmile_qr_scan", "ios": "https://dc.lft.to/lastmile_qr_scan"}, "fusion_lon": 0.0}, {"lat": 38.93612683333333, "is_disabled": 0, "type": "electric_scooter", "lon": -77.03211966666667, "bike_id": "75046c0004f691dd626708beb7aaee21", "fusion_lat": 0.0, "name": "75046c0004f691dd626708beb7aaee21", "is_reserved": 0, "rental_uris": {"android": "https://dc.lft.to/lastmile_qr_scan", "ios": "https://dc.lft.to/lastmile_qr_scan"}, "fusion_lon": 0.0}, {"lat": 38.99812216666667, "is_disabled": 0, "type": "electric_bike", "lon": -76.88369316666666, "bike_id": "2a9f1b27a1a227b1a001f490d89f5210", "fusion_lat": 0.0, "name": "2a9f1b27a1a227b1a001f490d89f5210", "is_reserved": 0, "rental_uris": {"android": "https://dc.lft.to/lastmile_qr_scan", "ios": "https://dc.lft.to/lastmile_qr_scan"}, "fusion_lon": 0.0}, {"lat": 39.024369166666666, "is_disabled": 0, "type": "electric_bike", "lon": -77.131001, "bike_id": "debc0bd568baaab3df98b6c92b327fd9", "fusion_lat": 0.0, "name": "debc0bd568baaab3df98b6c92b327fd9", "is_reserved": 0, "rental_uris": {"android": "https://dc.lft.to/lastmile_qr_scan", "ios": "https://dc.lft.to/lastmile_qr_scan"}, "fusion_lon": 0.0}, {"lat": 39.03041733333333, "is_disabled": 0, "type": "electric_bike", "lon": -77.09479033333334, "bike_id": "7db71b1265ddcdf7cb75e2d8d70ec649", "fusion_lat": 0.0, "name": "7db71b1265ddcdf7cb75e2d8d70ec649", "is_reserved": 0, "rental_uris": {"android": "https://dc.lft.to/lastmile_qr_scan", "ios": "https://dc.lft.to/lastmile_qr_scan"}, "fusion_lon": 0.0}, {"lat": 38.87216216666667, "is_disabled": 0, "type": "electric_scooter", "lon": -77.01765516666667, "bike_id": "75640f49da694441f386857432bec70f", "fusion_lat": 0.0, "name": "75640f49da694441f386857432bec70f", "is_reserved": 0, "rental_uris": {"android": "https://dc.lft.to/lastmile_qr_scan", "ios": "https://dc.lft.to/lastmile_qr_scan"}, "fusion_lon": 0.0}, {"lat": 38.92831183333333, "is_disabled": 0, "type": "electric_scooter", "lon": -77.05418383333334, "bike_id": "bb74c4ab3507fed1bce197b023afbbdb", "fusion_lat": 0.0, "name": "bb74c4ab3507fed1bce197b023afbbdb", "is_reserved": 0, "rental_uris": {"android": "https://dc.lft.to/lastmile_qr_scan", "ios": "https://dc.lft.to/lastmile_qr_scan"}, "fusion_lon": 0.0}, {"lat": 38.9198545, "is_disabled": 0, "type": "electric_scooter", "lon": -77.03973133333334, "bike_id": "42ab9f14733ae92123c72e5954457b7b", "fusion_lat": 0.0, "name": "42ab9f14733ae92123c72e5954457b7b", "is_reserved": 0, "rental_uris": {"android": "https://dc.lft.to/lastmile_qr_scan", "ios": "https://dc.lft.to/lastmile_qr_scan"}, "fusion_lon": 0.0}, {"lat": 38.87643216666667, "is_disabled": 0, "type": "electric_scooter", "lon": -77.00433933333333, "bike_id": "3243da4335434edfdfc0456c76177c8a", "fusion_lat": 0.0, "name": "3243da4335434edfdfc0456c76177c8a", "is_reserved": 0, "rental_uris": {"android": "https://dc.lft.to/lastmile_qr_scan", "ios": "https://dc.lft.to/lastmile_qr_scan"}, "fusion_lon": 0.0}, {"lat": 38.8429265, "is_disabled": 0, "type": "electric_scooter", "lon": -76.99944516666666, "bike_id": "4b180fb7103cd9aff8b1738beb352891", "fusion_lat": 0.0, "name": "4b180fb7103cd9aff8b1738beb352891", "is_reserved": 0, "rental_uris": {"android": "https://dc.lft.to/lastmile_qr_scan", "ios": "https://dc.lft.to/lastmile_qr_scan"}, "fusion_lon": 0.0}, {"lat": 38.91665416666667, "is_disabled": 0, "type": "electric_scooter", "lon": -77.00661233333334, "bike_id": "163a4e6e184d9b83652eac25873f1728", "fusion_lat": 0.0, "name": "163a4e6e184d9b83652eac25873f1728", "is_reserved": 0, "rental_uris": {"android": "https://dc.lft.to/lastmile_qr_scan", "ios": "https://dc.lft.to/lastmile_qr_scan"}, "fusion_lon": 0.0}, {"lat": 38.90914, "is_disabled": 0, "type": "electric_scooter", "lon": -77.0465995, "bike_id": "652eb6b7116898e2d4892183930e25a9", "fusion_lat": 0.0, "name": "652eb6b7116898e2d4892183930e25a9", "is_reserved": 0, "rental_uris": {"android": "https://dc.lft.to/lastmile_qr_scan", "ios": "https://dc.lft.to/lastmile_qr_scan"}, "fusion_lon": 0.0}, {"lat": 38.9253435, "is_disabled": 0, "type": "electric_scooter", "lon": -77.00758216666667, "bike_id": "48c82ddd884558c6593f9ab35c851af3", "fusion_lat": 0.0, "name": "48c82ddd884558c6593f9ab35c851af3", "is_reserved": 0, "rental_uris": {"android": "https://dc.lft.to/lastmile_qr_scan", "ios": "https://dc.lft.to/lastmile_qr_scan"}, "fusion_lon": 0.0}, {"lat": 38.92260483333333, "is_disabled": 0, "type": "electric_scooter", "lon": -77.018691, "bike_id": "e003587083a6becb35fb3d490aac7f1e", "fusion_lat": 0.0, "name": "e003587083a6becb35fb3d490aac7f1e", "is_reserved": 0, "rental_uris": {"android": "https://dc.lft.to/lastmile_qr_scan", "ios": "https://dc.lft.to/lastmile_qr_scan"}, "fusion_lon": 0.0}, {"lat": 38.902846333333336, "is_disabled": 0, "type": "electric_scooter", "lon": -77.01779016666667, "bike_id": "9bc6b2fcc6ba3fe04c91174977a5525d", "fusion_lat": 0.0, "name": "9bc6b2fcc6ba3fe04c91174977a5525d", "is_reserved": 0, "rental_uris": {"android": "https://dc.lft.to/lastmile_qr_scan", "ios": "https://dc.lft.to/lastmile_qr_scan"}, "fusion_lon": 0.0}, {"lat": 38.91178216666667, "is_disabled": 0, "type": "electric_scooter", "lon": -77.0018195, "bike_id": "90683652c963c31ff555b09a96e9a088", "fusion_lat": 0.0, "name": "90683652c963c31ff555b09a96e9a088", "is_reserved": 0, "rental_uris": {"android": "https://dc.lft.to/lastmile_qr_scan", "ios": "https://dc.lft.to/lastmile_qr_scan"}, "fusion_lon": 0.0}, {"lat": 38.91663166666667, "is_disabled": 0, "type": "electric_scooter", "lon": -77.02284983333334, "bike_id": "1373ed8ed8c9bc0ea263c494f5e65a1d", "fusion_lat": 0.0, "name": "1373ed8ed8c9bc0ea263c494f5e65a1d", "is_reserved": 0, "rental_uris": {"android": "https://dc.lft.to/lastmile_qr_scan", "ios": "https://dc.lft.to/lastmile_qr_scan"}, "fusion_lon": 0.0}, {"lat": 38.901673, "is_disabled": 0, "type": "electric_scooter", "lon": -76.980281, "bike_id": "35e87e4d08330e3f4c53ce3312051712", "fusion_lat": 0.0, "name": "35e87e4d08330e3f4c53ce3312051712", "is_reserved": 0, "rental_uris": {"android": "https://dc.lft.to/lastmile_qr_scan", "ios": "https://dc.lft.to/lastmile_qr_scan"}, "fusion_lon": 0.0}, {"lat": 38.92010466666667, "is_disabled": 0, "type": "electric_bike", "lon": -77.03856066666667, "bike_id": "a28edfb375e92c4e5cbf6557d5db0965", "fusion_lat": 0.0, "name": "a28edfb375e92c4e5cbf6557d5db0965", "is_reserved": 0, "rental_uris": {"android": "https://dc.lft.to/lastmile_qr_scan", "ios": "https://dc.lft.to/lastmile_qr_scan"}, "fusion_lon": 0.0}, {"lat": 38.92057366666667, "is_disabled": 0, "type": "electric_scooter", "lon": -77.032979, "bike_id": "a6eaee29ca9f6cbc19bbea43837c5d2e", "fusion_lat": 0.0, "name": "a6eaee29ca9f6cbc19bbea43837c5d2e", "is_reserved": 0, "rental_uris": {"android": "https://dc.lft.to/lastmile_qr_scan", "ios": "https://dc.lft.to/lastmile_qr_scan"}, "fusion_lon": 0.0}, {"lat": 38.920914833333335, "is_disabled": 0, "type": "electric_scooter", "lon": -77.0391375, "bike_id": "d2c288b3652e61df80a4e72c150ee411", "fusion_lat": 0.0, "name": "d2c288b3652e61df80a4e72c150ee411", "is_reserved": 0, "rental_uris": {"android": "https://dc.lft.to/lastmile_qr_scan", "ios": "https://dc.lft.to/lastmile_qr_scan"}, "fusion_lon": 0.0}, {"lat": 38.889264, "is_disabled": 0, "type": "electric_scooter", "lon": -76.97373416666667, "bike_id": "f2bef085925dfbeef0d1603ec074413e", "fusion_lat": 0.0, "name": "f2bef085925dfbeef0d1603ec074413e", "is_reserved": 0, "rental_uris": {"android": "https://dc.lft.to/lastmile_qr_scan", "ios": "https://dc.lft.to/lastmile_qr_scan"}, "fusion_lon": 0.0}, {"lat": 38.906400166666664, "is_disabled": 0, "type": "electric_scooter", "lon": -77.062882, "bike_id": "8bd20db170fc57feb08483c6ff7057e0", "fusion_lat": 0.0, "name": "8bd20db170fc57feb08483c6ff7057e0", "is_reserved": 0, "rental_uris": {"android": "https://dc.lft.to/lastmile_qr_scan", "ios": "https://dc.lft.to/lastmile_qr_scan"}, "fusion_lon": 0.0}, {"lat": 38.9286765, "is_disabled": 0, "type": "electric_scooter", "lon": -77.03247716666667, "bike_id": "70e8f84d332b555269755f52a28fe013", "fusion_lat": 0.0, "name": "70e8f84d332b555269755f52a28fe013", "is_reserved": 0, "rental_uris": {"android": "https://dc.lft.to/lastmile_qr_scan", "ios": "https://dc.lft.to/lastmile_qr_scan"}, "fusion_lon": 0.0}, {"lat": 38.92563216666667, "is_disabled": 0, "type": "electric_scooter", "lon": -77.02838083333333, "bike_id": "d727a3cf961da55674752896fd07b42f", "fusion_lat": 0.0, "name": "d727a3cf961da55674752896fd07b42f", "is_reserved": 0, "rental_uris": {"android": "https://dc.lft.to/lastmile_qr_scan", "ios": "https://dc.lft.to/lastmile_qr_scan"}, "fusion_lon": 0.0}, {"lat": 38.91448833333333, "is_disabled": 0, "type": "electric_scooter", "lon": -77.04586616666667, "bike_id": "6fb294649a9343f0a422ffd713bc4a27", "fusion_lat": 0.0, "name": "6fb294649a9343f0a422ffd713bc4a27", "is_reserved": 0, "rental_uris": {"android": "https://dc.lft.to/lastmile_qr_scan", "ios": "https://dc.lft.to/lastmile_qr_scan"}, "fusion_lon": 0.0}, {"lat": 38.914128, "is_disabled": 0, "type": "electric_scooter", "lon": -77.022305, "bike_id": "63196d71fe1d95cbc31b46e2dd373f38", "fusion_lat": 0.0, "name": "63196d71fe1d95cbc31b46e2dd373f38", "is_reserved": 0, "rental_uris": {"android": "https://dc.lft.to/lastmile_qr_scan", "ios": "https://dc.lft.to/lastmile_qr_scan"}, "fusion_lon": 0.0}, {"lat": 38.90558933333333, "is_disabled": 0, "type": "electric_scooter", "lon": -77.02485133333333, "bike_id": "df6445f9da58ab2066741fb45447efcb", "fusion_lat": 0.0, "name": "df6445f9da58ab2066741fb45447efcb", "is_reserved": 0, "rental_uris": {"android": "https://dc.lft.to/lastmile_qr_scan", "ios": "https://dc.lft.to/lastmile_qr_scan"}, "fusion_lon": 0.0}, {"lat": 38.942017166666666, "is_disabled": 0, "type": "electric_scooter", "lon": -77.0182985, "bike_id": "7c5fff030fc6659f90aa7668e9c91e28", "fusion_lat": 0.0, "name": "7c5fff030fc6659f90aa7668e9c91e28", "is_reserved": 0, "rental_uris": {"android": "https://dc.lft.to/lastmile_qr_scan", "ios": "https://dc.lft.to/lastmile_qr_scan"}, "fusion_lon": 0.0}, {"lat": 38.90980833333333, "is_disabled": 0, "type": "electric_scooter", "lon": -77.0342795, "bike_id": "339d13a9bff84c33265c9aa90bc3ce94", "fusion_lat": 0.0, "name": "339d13a9bff84c33265c9aa90bc3ce94", "is_reserved": 0, "rental_uris": {"android": "https://dc.lft.to/lastmile_qr_scan", "ios": "https://dc.lft.to/lastmile_qr_scan"}, "fusion_lon": 0.0}, {"lat": 38.967044, "is_disabled": 0, "type": "electric_bike", "lon": -77.10221, "bike_id": "4657d05b495917f88094a6579cbea8a5", "fusion_lat": 0.0, "name": "4657d05b495917f88094a6579cbea8a5", "is_reserved": 0, "rental_uris": {"android": "https://dc.lft.to/lastmile_qr_scan", "ios": "https://dc.lft.to/lastmile_qr_scan"}, "fusion_lon": 0.0}, {"lat": 38.86160016666667, "is_disabled": 0, "type": "electric_bike", "lon": -77.1309225, "bike_id": "9f0f813a20fcd7c6e08343486cee423b", "fusion_lat": 0.0, "name": "9f0f813a20fcd7c6e08343486cee423b", "is_reserved": 0, "rental_uris": {"android": "https://dc.lft.to/lastmile_qr_scan", "ios": "https://dc.lft.to/lastmile_qr_scan"}, "fusion_lon": 0.0}, {"lat": 38.8872905, "is_disabled": 0, "type": "electric_scooter", "lon": -77.01386683333334, "bike_id": "23738a3e39897cf218453304d5b8b394", "fusion_lat": 0.0, "name": "23738a3e39897cf218453304d5b8b394", "is_reserved": 0, "rental_uris": {"android": "https://dc.lft.to/lastmile_qr_scan", "ios": "https://dc.lft.to/lastmile_qr_scan"}, "fusion_lon": 0.0}, {"lat": 38.911603666666664, "is_disabled": 0, "type": "electric_bike", "lon": -77.00307333333333, "bike_id": "88a27d9bfeceac22704b7ca440522f06", "fusion_lat": 0.0, "name": "88a27d9bfeceac22704b7ca440522f06", "is_reserved": 0, "rental_uris": {"android": "https://dc.lft.to/lastmile_qr_scan", "ios": "https://dc.lft.to/lastmile_qr_scan"}, "fusion_lon": 0.0}, {"lat": 38.90012616666667, "is_disabled": 0, "type": "electric_scooter", "lon": -76.98803416666667, "bike_id": "97b9f89d3573cb0c509a5a4f123e838d", "fusion_lat": 0.0, "name": "97b9f89d3573cb0c509a5a4f123e838d", "is_reserved": 0, "rental_uris": {"android": "https://dc.lft.to/lastmile_qr_scan", "ios": "https://dc.lft.to/lastmile_qr_scan"}, "fusion_lon": 0.0}, {"lat": 38.87141583333333, "is_disabled": 0, "type": "electric_bike", "lon": -76.93710766666666, "bike_id": "1370e934bf250bc96ab5929ad4ce1d37", "fusion_lat": 0.0, "name": "1370e934bf250bc96ab5929ad4ce1d37", "is_reserved": 0, "rental_uris": {"android": "https://dc.lft.to/lastmile_qr_scan", "ios": "https://dc.lft.to/lastmile_qr_scan"}, "fusion_lon": 0.0}, {"lat": 38.916335833333335, "is_disabled": 0, "type": "electric_scooter", "lon": -77.03278533333334, "bike_id": "ef67af3364e253fd3be40a697b626b41", "fusion_lat": 0.0, "name": "ef67af3364e253fd3be40a697b626b41", "is_reserved": 0, "rental_uris": {"android": "https://dc.lft.to/lastmile_qr_scan", "ios": "https://dc.lft.to/lastmile_qr_scan"}, "fusion_lon": 0.0}, {"lat": 38.884307166666666, "is_disabled": 0, "type": "electric_bike", "lon": -76.95754966666667, "bike_id": "6a4f4b78b600c36efd83dcc7ceecf305", "fusion_lat": 0.0, "name": "6a4f4b78b600c36efd83dcc7ceecf305", "is_reserved": 0, "rental_uris": {"android": "https://dc.lft.to/lastmile_qr_scan", "ios": "https://dc.lft.to/lastmile_qr_scan"}, "fusion_lon": 0.0}, {"lat": 38.9308945, "is_disabled": 0, "type": "electric_scooter", "lon": -77.034661, "bike_id": "2df166155086611345349defb9072eb8", "fusion_lat": 0.0, "name": "2df166155086611345349defb9072eb8", "is_reserved": 0, "rental_uris": {"android": "https://dc.lft.to/lastmile_qr_scan", "ios": "https://dc.lft.to/lastmile_qr_scan"}, "fusion_lon": 0.0}, {"lat": 38.90164733333334, "is_disabled": 0, "type": "electric_scooter", "lon": -76.98061933333334, "bike_id": "059b11fc589426dbb18fbff4c4200424", "fusion_lat": 0.0, "name": "059b11fc589426dbb18fbff4c4200424", "is_reserved": 0, "rental_uris": {"android": "https://dc.lft.to/lastmile_qr_scan", "ios": "https://dc.lft.to/lastmile_qr_scan"}, "fusion_lon": 0.0}, {"lat": 38.93091916666667, "is_disabled": 0, "type": "electric_scooter", "lon": -77.02520266666667, "bike_id": "74e65bade8644b34532e24be26ba2252", "fusion_lat": 0.0, "name": "74e65bade8644b34532e24be26ba2252", "is_reserved": 0, "rental_uris": {"android": "https://dc.lft.to/lastmile_qr_scan", "ios": "https://dc.lft.to/lastmile_qr_scan"}, "fusion_lon": 0.0}, {"lat": 38.87155416666667, "is_disabled": 0, "type": "electric_scooter", "lon": -77.01323916666666, "bike_id": "0e5612a83189ce027075ceffdeb1b808", "fusion_lat": 0.0, "name": "0e5612a83189ce027075ceffdeb1b808", "is_reserved": 0, "rental_uris": {"android": "https://dc.lft.to/lastmile_qr_scan", "ios": "https://dc.lft.to/lastmile_qr_scan"}, "fusion_lon": 0.0}, {"lat": 38.84573366666667, "is_disabled": 0, "type": "electric_bike", "lon": -77.09620616666666, "bike_id": "caea35f5b2845ae940fcced6aed14bf9", "fusion_lat": 0.0, "name": "caea35f5b2845ae940fcced6aed14bf9", "is_reserved": 0, "rental_uris": {"android": "https://dc.lft.to/lastmile_qr_scan", "ios": "https://dc.lft.to/lastmile_qr_scan"}, "fusion_lon": 0.0}, {"lat": 38.836876, "is_disabled": 0, "type": "electric_scooter", "lon": -77.10302616666667, "bike_id": "0b7f301b4e984ca7550d29f7779ef563", "fusion_lat": 0.0, "name": "0b7f301b4e984ca7550d29f7779ef563", "is_reserved": 0, "rental_uris": {"android": "https://dc.lft.to/lastmile_qr_scan", "ios": "https://dc.lft.to/lastmile_qr_scan"}, "fusion_lon": 0.0}, {"lat": 38.920751833333334, "is_disabled": 0, "type": "electric_scooter", "lon": -77.0242555, "bike_id": "b4d40a3ee0c1af09f4fa3fbc5aa904f2", "fusion_lat": 0.0, "name": "b4d40a3ee0c1af09f4fa3fbc5aa904f2", "is_reserved": 0, "rental_uris": {"android": "https://dc.lft.to/lastmile_qr_scan", "ios": "https://dc.lft.to/lastmile_qr_scan"}, "fusion_lon": 0.0}, {"lat": 38.9023065, "is_disabled": 0, "type": "electric_scooter", "lon": -77.053362, "bike_id": "4ff4192aaaec93dc1eb8e421aac7f13b", "fusion_lat": 0.0, "name": "4ff4192aaaec93dc1eb8e421aac7f13b", "is_reserved": 0, "rental_uris": {"android": "https://dc.lft.to/lastmile_qr_scan", "ios": "https://dc.lft.to/lastmile_qr_scan"}, "fusion_lon": 0.0}, {"lat": 38.8670795, "is_disabled": 0, "type": "electric_scooter", "lon": -76.98722933333333, "bike_id": "d799138ce16d9439bea9d2c4ca8c89a5", "fusion_lat": 0.0, "name": "d799138ce16d9439bea9d2c4ca8c89a5", "is_reserved": 0, "rental_uris": {"android": "https://dc.lft.to/lastmile_qr_scan", "ios": "https://dc.lft.to/lastmile_qr_scan"}, "fusion_lon": 0.0}, {"lat": 38.9047225, "is_disabled": 0, "type": "electric_scooter", "lon": -77.00723, "bike_id": "d927f93d59b6ca5e26e68cba9ac82b02", "fusion_lat": 0.0, "name": "d927f93d59b6ca5e26e68cba9ac82b02", "is_reserved": 0, "rental_uris": {"android": "https://dc.lft.to/lastmile_qr_scan", "ios": "https://dc.lft.to/lastmile_qr_scan"}, "fusion_lon": 0.0}, {"lat": 38.928622833333336, "is_disabled": 0, "type": "electric_bike", "lon": -77.036981, "bike_id": "786481d6cf2b91f898fadfde41fbe5c8", "fusion_lat": 0.0, "name": "786481d6cf2b91f898fadfde41fbe5c8", "is_reserved": 0, "rental_uris": {"android": "https://dc.lft.to/lastmile_qr_scan", "ios": "https://dc.lft.to/lastmile_qr_scan"}, "fusion_lon": 0.0}, {"lat": 38.91985116666667, "is_disabled": 0, "type": "electric_scooter", "lon": -76.973028, "bike_id": "e1269fe0d2aab23e66340b2f36916e3f", "fusion_lat": 0.0, "name": "e1269fe0d2aab23e66340b2f36916e3f", "is_reserved": 0, "rental_uris": {"android": "https://dc.lft.to/lastmile_qr_scan", "ios": "https://dc.lft.to/lastmile_qr_scan"}, "fusion_lon": 0.0}, {"lat": 38.91595866666667, "is_disabled": 0, "type": "electric_scooter", "lon": -77.02388, "bike_id": "b84c380efe5ad53558e738d6d9574241", "fusion_lat": 0.0, "name": "b84c380efe5ad53558e738d6d9574241", "is_reserved": 0, "rental_uris": {"android": "https://dc.lft.to/lastmile_qr_scan", "ios": "https://dc.lft.to/lastmile_qr_scan"}, "fusion_lon": 0.0}, {"lat": 38.924220166666665, "is_disabled": 0, "type": "electric_scooter", "lon": -77.051732, "bike_id": "9d55ef0d4721ec74f0c82e28de10b6a4", "fusion_lat": 0.0, "name": "9d55ef0d4721ec74f0c82e28de10b6a4", "is_reserved": 0, "rental_uris": {"android": "https://dc.lft.to/lastmile_qr_scan", "ios": "https://dc.lft.to/lastmile_qr_scan"}, "fusion_lon": 0.0}, {"lat": 38.927383166666665, "is_disabled": 0, "type": "electric_scooter", "lon": -77.03416816666666, "bike_id": "b8cbc992a70a1b5c2fa3734d2614d489", "fusion_lat": 0.0, "name": "b8cbc992a70a1b5c2fa3734d2614d489", "is_reserved": 0, "rental_uris": {"android": "https://dc.lft.to/lastmile_qr_scan", "ios": "https://dc.lft.to/lastmile_qr_scan"}, "fusion_lon": 0.0}, {"lat": 38.90866966666667, "is_disabled": 0, "type": "electric_scooter", "lon": -77.04666233333333, "bike_id": "2ef43dd2daf64cef0c54c77350543da1", "fusion_lat": 0.0, "name": "2ef43dd2daf64cef0c54c77350543da1", "is_reserved": 0, "rental_uris": {"android": "https://dc.lft.to/lastmile_qr_scan", "ios": "https://dc.lft.to/lastmile_qr_scan"}, "fusion_lon": 0.0}, {"lat": 38.965528166666665, "is_disabled": 0, "type": "electric_bike", "lon": -77.02299383333333, "bike_id": "06b47d6ad3b2608b50fb807c756c467a", "fusion_lat": 0.0, "name": "06b47d6ad3b2608b50fb807c756c467a", "is_reserved": 0, "rental_uris": {"android": "https://dc.lft.to/lastmile_qr_scan", "ios": "https://dc.lft.to/lastmile_qr_scan"}, "fusion_lon": 0.0}, {"lat": 38.909751166666666, "is_disabled": 0, "type": "electric_scooter", "lon": -77.03867683333333, "bike_id": "a7e20f70dc601765bb3ab324709c111b", "fusion_lat": 0.0, "name": "a7e20f70dc601765bb3ab324709c111b", "is_reserved": 0, "rental_uris": {"android": "https://dc.lft.to/lastmile_qr_scan", "ios": "https://dc.lft.to/lastmile_qr_scan"}, "fusion_lon": 0.0}, {"lat": 38.88076516666667, "is_disabled": 0, "type": "electric_scooter", "lon": -76.92713083333334, "bike_id": "1ff67a0a83432e17956933a5d38c5ba9", "fusion_lat": 0.0, "name": "1ff67a0a83432e17956933a5d38c5ba9", "is_reserved": 0, "rental_uris": {"android": "https://dc.lft.to/lastmile_qr_scan", "ios": "https://dc.lft.to/lastmile_qr_scan"}, "fusion_lon": 0.0}, {"lat": 38.90240816666667, "is_disabled": 0, "type": "electric_scooter", "lon": -77.00196416666667, "bike_id": "eb5fff0ed2c7524866d6bcb0b3e8c8a1", "fusion_lat": 0.0, "name": "eb5fff0ed2c7524866d6bcb0b3e8c8a1", "is_reserved": 0, "rental_uris": {"android": "https://dc.lft.to/lastmile_qr_scan", "ios": "https://dc.lft.to/lastmile_qr_scan"}, "fusion_lon": 0.0}, {"lat": 38.89852233333333, "is_disabled": 0, "type": "electric_scooter", "lon": -77.0253805, "bike_id": "a9bfb8793fcdb9f3b4fc2d1d9c951a3a", "fusion_lat": 0.0, "name": "a9bfb8793fcdb9f3b4fc2d1d9c951a3a", "is_reserved": 0, "rental_uris": {"android": "https://dc.lft.to/lastmile_qr_scan", "ios": "https://dc.lft.to/lastmile_qr_scan"}, "fusion_lon": 0.0}, {"lat": 38.924975333333336, "is_disabled": 0, "type": "electric_scooter", "lon": -77.0088435, "bike_id": "de83ff24174f2c9ee5178fd0f0015f54", "fusion_lat": 0.0, "name": "de83ff24174f2c9ee5178fd0f0015f54", "is_reserved": 0, "rental_uris": {"android": "https://dc.lft.to/lastmile_qr_scan", "ios": "https://dc.lft.to/lastmile_qr_scan"}, "fusion_lon": 0.0}, {"lat": 38.93096083333333, "is_disabled": 0, "type": "electric_scooter", "lon": -77.024689, "bike_id": "bbf777fce70c93e9107e3188184d5dc6", "fusion_lat": 0.0, "name": "bbf777fce70c93e9107e3188184d5dc6", "is_reserved": 0, "rental_uris": {"android": "https://dc.lft.to/lastmile_qr_scan", "ios": "https://dc.lft.to/lastmile_qr_scan"}, "fusion_lon": 0.0}, {"lat": 38.91665033333334, "is_disabled": 0, "type": "electric_scooter", "lon": -77.0228475, "bike_id": "6802978af1832a2b6b5180d861ee59b1", "fusion_lat": 0.0, "name": "6802978af1832a2b6b5180d861ee59b1", "is_reserved": 0, "rental_uris": {"android": "https://dc.lft.to/lastmile_qr_scan", "ios": "https://dc.lft.to/lastmile_qr_scan"}, "fusion_lon": 0.0}, {"lat": 38.839322833333334, "is_disabled": 0, "type": "electric_bike", "lon": -77.0790035, "bike_id": "ae2c7aa88481f0dbc611693896d19fd5", "fusion_lat": 0.0, "name": "ae2c7aa88481f0dbc611693896d19fd5", "is_reserved": 0, "rental_uris": {"android": "https://dc.lft.to/lastmile_qr_scan", "ios": "https://dc.lft.to/lastmile_qr_scan"}, "fusion_lon": 0.0}, {"lat": 38.879598, "is_disabled": 0, "type": "electric_scooter", "lon": -76.983292, "bike_id": "30f84739f9af438ed41df970e32be9c5", "fusion_lat": 0.0, "name": "30f84739f9af438ed41df970e32be9c5", "is_reserved": 0, "rental_uris": {"android": "https://dc.lft.to/lastmile_qr_scan", "ios": "https://dc.lft.to/lastmile_qr_scan"}, "fusion_lon": 0.0}, {"lat": 38.893792, "is_disabled": 0, "type": "electric_scooter", "lon": -76.9498895, "bike_id": "a5e69d5d444bae51b43e48e86670f03d", "fusion_lat": 0.0, "name": "a5e69d5d444bae51b43e48e86670f03d", "is_reserved": 0, "rental_uris": {"android": "https://dc.lft.to/lastmile_qr_scan", "ios": "https://dc.lft.to/lastmile_qr_scan"}, "fusion_lon": 0.0}, {"lat": 38.899607, "is_disabled": 0, "type": "electric_scooter", "lon": -77.01608616666667, "bike_id": "4c7cf1e492146ee2770474f4f560e163", "fusion_lat": 0.0, "name": "4c7cf1e492146ee2770474f4f560e163", "is_reserved": 0, "rental_uris": {"android": "https://dc.lft.to/lastmile_qr_scan", "ios": "https://dc.lft.to/lastmile_qr_scan"}, "fusion_lon": 0.0}, {"lat": 38.921984, "is_disabled": 0, "type": "electric_scooter", "lon": -76.98368933333333, "bike_id": "53a61ea4189619570aefca525a921267", "fusion_lat": 0.0, "name": "53a61ea4189619570aefca525a921267", "is_reserved": 0, "rental_uris": {"android": "https://dc.lft.to/lastmile_qr_scan", "ios": "https://dc.lft.to/lastmile_qr_scan"}, "fusion_lon": 0.0}, {"lat": 38.927416, "is_disabled": 0, "type": "electric_scooter", "lon": -77.04282033333334, "bike_id": "3267bcc6f2713f22662af7a9436b48c5", "fusion_lat": 0.0, "name": "3267bcc6f2713f22662af7a9436b48c5", "is_reserved": 0, "rental_uris": {"android": "https://dc.lft.to/lastmile_qr_scan", "ios": "https://dc.lft.to/lastmile_qr_scan"}, "fusion_lon": 0.0}, {"lat": 38.9732365, "is_disabled": 0, "type": "electric_bike", "lon": -77.02144883333334, "bike_id": "8380e0259380ba99227e9bc17ef72a7a", "fusion_lat": 0.0, "name": "8380e0259380ba99227e9bc17ef72a7a", "is_reserved": 0, "rental_uris": {"android": "https://dc.lft.to/lastmile_qr_scan", "ios": "https://dc.lft.to/lastmile_qr_scan"}, "fusion_lon": 0.0}, {"lat": 38.8829995, "is_disabled": 0, "type": "electric_bike", "lon": -77.031463, "bike_id": "5d31d9d498afc6c4e07f774e1c9ef10b", "fusion_lat": 0.0, "name": "5d31d9d498afc6c4e07f774e1c9ef10b", "is_reserved": 0, "rental_uris": {"android": "https://dc.lft.to/lastmile_qr_scan", "ios": "https://dc.lft.to/lastmile_qr_scan"}, "fusion_lon": 0.0}, {"lat": 38.9261885, "is_disabled": 0, "type": "electric_scooter", "lon": -77.037831, "bike_id": "97aaac71c3a6fc23539b7d161e4297e0", "fusion_lat": 0.0, "name": "97aaac71c3a6fc23539b7d161e4297e0", "is_reserved": 0, "rental_uris": {"android": "https://dc.lft.to/lastmile_qr_scan", "ios": "https://dc.lft.to/lastmile_qr_scan"}, "fusion_lon": 0.0}, {"lat": 38.88360433333333, "is_disabled": 0, "type": "electric_scooter", "lon": -76.94152, "bike_id": "6e3b531a548c35e96f5645bc33f8d1c4", "fusion_lat": 0.0, "name": "6e3b531a548c35e96f5645bc33f8d1c4", "is_reserved": 0, "rental_uris": {"android": "https://dc.lft.to/lastmile_qr_scan", "ios": "https://dc.lft.to/lastmile_qr_scan"}, "fusion_lon": 0.0}, {"lat": 38.923296, "is_disabled": 0, "type": "electric_scooter", "lon": -77.03662816666667, "bike_id": "e9b0ffc1bfcf0eae2de0425cfd80c2cb", "fusion_lat": 0.0, "name": "e9b0ffc1bfcf0eae2de0425cfd80c2cb", "is_reserved": 0, "rental_uris": {"android": "https://dc.lft.to/lastmile_qr_scan", "ios": "https://dc.lft.to/lastmile_qr_scan"}, "fusion_lon": 0.0}, {"lat": 38.92347916666667, "is_disabled": 0, "type": "electric_scooter", "lon": -77.051168, "bike_id": "db42b1a90d2ed5278d41476618ac40a9", "fusion_lat": 0.0, "name": "db42b1a90d2ed5278d41476618ac40a9", "is_reserved": 0, "rental_uris": {"android": "https://dc.lft.to/lastmile_qr_scan", "ios": "https://dc.lft.to/lastmile_qr_scan"}, "fusion_lon": 0.0}, {"lat": 38.95752, "is_disabled": 0, "type": "electric_scooter", "lon": -77.02068666666666, "bike_id": "02733a0a36591aefadb5bef7c86569b8", "fusion_lat": 0.0, "name": "02733a0a36591aefadb5bef7c86569b8", "is_reserved": 0, "rental_uris": {"android": "https://dc.lft.to/lastmile_qr_scan", "ios": "https://dc.lft.to/lastmile_qr_scan"}, "fusion_lon": 0.0}, {"lat": 38.91680616666667, "is_disabled": 0, "type": "electric_scooter", "lon": -77.0018865, "bike_id": "afc37941c9dd590ed72e8d2f2ef7aa79", "fusion_lat": 0.0, "name": "afc37941c9dd590ed72e8d2f2ef7aa79", "is_reserved": 0, "rental_uris": {"android": "https://dc.lft.to/lastmile_qr_scan", "ios": "https://dc.lft.to/lastmile_qr_scan"}, "fusion_lon": 0.0}, {"lat": 38.95905316666666, "is_disabled": 0, "type": "electric_bike", "lon": -76.924896, "bike_id": "149bfae5e13581bf10dffa32a081eb27", "fusion_lat": 0.0, "name": "149bfae5e13581bf10dffa32a081eb27", "is_reserved": 0, "rental_uris": {"android": "https://dc.lft.to/lastmile_qr_scan", "ios": "https://dc.lft.to/lastmile_qr_scan"}, "fusion_lon": 0.0}, {"lat": 38.897355166666664, "is_disabled": 0, "type": "electric_scooter", "lon": -76.9472465, "bike_id": "3886c759b6b9469419862d014d312953", "fusion_lat": 0.0, "name": "3886c759b6b9469419862d014d312953", "is_reserved": 0, "rental_uris": {"android": "https://dc.lft.to/lastmile_qr_scan", "ios": "https://dc.lft.to/lastmile_qr_scan"}, "fusion_lon": 0.0}, {"lat": 38.89901616666667, "is_disabled": 0, "type": "electric_scooter", "lon": -76.984235, "bike_id": "ddd48f6248ffb4b00024318ea8aaeef6", "fusion_lat": 0.0, "name": "ddd48f6248ffb4b00024318ea8aaeef6", "is_reserved": 0, "rental_uris": {"android": "https://dc.lft.to/lastmile_qr_scan", "ios": "https://dc.lft.to/lastmile_qr_scan"}, "fusion_lon": 0.0}, {"lat": 38.927095, "is_disabled": 0, "type": "electric_scooter", "lon": -77.02408666666666, "bike_id": "2ccc730422185e2b479476f0e6cfcd14", "fusion_lat": 0.0, "name": "2ccc730422185e2b479476f0e6cfcd14", "is_reserved": 0, "rental_uris": {"android": "https://dc.lft.to/lastmile_qr_scan", "ios": "https://dc.lft.to/lastmile_qr_scan"}, "fusion_lon": 0.0}, {"lat": 38.903808833333336, "is_disabled": 0, "type": "electric_scooter", "lon": -77.0580705, "bike_id": "904a09d170812a2254db8bdcde9a8b2f", "fusion_lat": 0.0, "name": "904a09d170812a2254db8bdcde9a8b2f", "is_reserved": 0, "rental_uris": {"android": "https://dc.lft.to/lastmile_qr_scan", "ios": "https://dc.lft.to/lastmile_qr_scan"}, "fusion_lon": 0.0}, {"lat": 38.903142333333335, "is_disabled": 0, "type": "electric_scooter", "lon": -77.05135033333333, "bike_id": "747ac22715a569c3fb612d11dc37b198", "fusion_lat": 0.0, "name": "747ac22715a569c3fb612d11dc37b198", "is_reserved": 0, "rental_uris": {"android": "https://dc.lft.to/lastmile_qr_scan", "ios": "https://dc.lft.to/lastmile_qr_scan"}, "fusion_lon": 0.0}, {"lat": 38.914109833333335, "is_disabled": 0, "type": "electric_scooter", "lon": -77.03520733333333, "bike_id": "5d362841740404d3b17f770ad349d969", "fusion_lat": 0.0, "name": "5d362841740404d3b17f770ad349d969", "is_reserved": 0, "rental_uris": {"android": "https://dc.lft.to/lastmile_qr_scan", "ios": "https://dc.lft.to/lastmile_qr_scan"}, "fusion_lon": 0.0}, {"lat": 38.91747083333333, "is_disabled": 0, "type": "electric_scooter", "lon": -77.03662033333333, "bike_id": "63cf5945db21be45d7b21da1169b546e", "fusion_lat": 0.0, "name": "63cf5945db21be45d7b21da1169b546e", "is_reserved": 0, "rental_uris": {"android": "https://dc.lft.to/lastmile_qr_scan", "ios": "https://dc.lft.to/lastmile_qr_scan"}, "fusion_lon": 0.0}, {"lat": 38.92172166666667, "is_disabled": 0, "type": "electric_scooter", "lon": -77.03808583333333, "bike_id": "7d92379b8d767c73f81962e3084b93ba", "fusion_lat": 0.0, "name": "7d92379b8d767c73f81962e3084b93ba", "is_reserved": 0, "rental_uris": {"android": "https://dc.lft.to/lastmile_qr_scan", "ios": "https://dc.lft.to/lastmile_qr_scan"}, "fusion_lon": 0.0}, {"lat": 38.90591033333333, "is_disabled": 0, "type": "electric_scooter", "lon": -76.98636383333333, "bike_id": "b35c138f64a7f657c7d1485c1796b6bb", "fusion_lat": 0.0, "name": "b35c138f64a7f657c7d1485c1796b6bb", "is_reserved": 0, "rental_uris": {"android": "https://dc.lft.to/lastmile_qr_scan", "ios": "https://dc.lft.to/lastmile_qr_scan"}, "fusion_lon": 0.0}, {"lat": 38.95352366666667, "is_disabled": 0, "type": "electric_bike", "lon": -76.9808685, "bike_id": "69b984d03c986c23422cad01be275a9d", "fusion_lat": 0.0, "name": "69b984d03c986c23422cad01be275a9d", "is_reserved": 0, "rental_uris": {"android": "https://dc.lft.to/lastmile_qr_scan", "ios": "https://dc.lft.to/lastmile_qr_scan"}, "fusion_lon": 0.0}, {"lat": 38.921183, "is_disabled": 0, "type": "electric_scooter", "lon": -77.03652483333333, "bike_id": "6e9ec87ff8d20aa60df0c8215274d821", "fusion_lat": 0.0, "name": "6e9ec87ff8d20aa60df0c8215274d821", "is_reserved": 0, "rental_uris": {"android": "https://dc.lft.to/lastmile_qr_scan", "ios": "https://dc.lft.to/lastmile_qr_scan"}, "fusion_lon": 0.0}, {"lat": 38.915704833333336, "is_disabled": 0, "type": "electric_scooter", "lon": -77.0316065, "bike_id": "47eb66a25917493449097381fee6c5da", "fusion_lat": 0.0, "name": "47eb66a25917493449097381fee6c5da", "is_reserved": 0, "rental_uris": {"android": "https://dc.lft.to/lastmile_qr_scan", "ios": "https://dc.lft.to/lastmile_qr_scan"}, "fusion_lon": 0.0}, {"lat": 38.91677166666667, "is_disabled": 0, "type": "electric_scooter", "lon": -77.02388, "bike_id": "f3c962f9bcc33868e02698b2704a562c", "fusion_lat": 0.0, "name": "f3c962f9bcc33868e02698b2704a562c", "is_reserved": 0, "rental_uris": {"android": "https://dc.lft.to/lastmile_qr_scan", "ios": "https://dc.lft.to/lastmile_qr_scan"}, "fusion_lon": 0.0}, {"lat": 38.89332383333333, "is_disabled": 0, "type": "electric_bike", "lon": -76.9211645, "bike_id": "2462a6dcab5bb2d8d5cba1f543bcd7f3", "fusion_lat": 0.0, "name": "2462a6dcab5bb2d8d5cba1f543bcd7f3", "is_reserved": 0, "rental_uris": {"android": "https://dc.lft.to/lastmile_qr_scan", "ios": "https://dc.lft.to/lastmile_qr_scan"}, "fusion_lon": 0.0}, {"lat": 38.92054516666666, "is_disabled": 0, "type": "electric_scooter", "lon": -77.033926, "bike_id": "0b783f7fb7996c757c857862a2410c26", "fusion_lat": 0.0, "name": "0b783f7fb7996c757c857862a2410c26", "is_reserved": 0, "rental_uris": {"android": "https://dc.lft.to/lastmile_qr_scan", "ios": "https://dc.lft.to/lastmile_qr_scan"}, "fusion_lon": 0.0}, {"lat": 38.905706, "is_disabled": 0, "type": "electric_scooter", "lon": -76.988693, "bike_id": "cf0d8f77acf2b5c87aef58baafc6b5d3", "fusion_lat": 0.0, "name": "cf0d8f77acf2b5c87aef58baafc6b5d3", "is_reserved": 0, "rental_uris": {"android": "https://dc.lft.to/lastmile_qr_scan", "ios": "https://dc.lft.to/lastmile_qr_scan"}, "fusion_lon": 0.0}, {"lat": 38.911758166666665, "is_disabled": 0, "type": "electric_scooter", "lon": -77.03861866666666, "bike_id": "914e3b31857349ea7d7cac546b22a3d5", "fusion_lat": 0.0, "name": "914e3b31857349ea7d7cac546b22a3d5", "is_reserved": 0, "rental_uris": {"android": "https://dc.lft.to/lastmile_qr_scan", "ios": "https://dc.lft.to/lastmile_qr_scan"}, "fusion_lon": 0.0}, {"lat": 38.899103333333336, "is_disabled": 0, "type": "electric_scooter", "lon": -77.021522, "bike_id": "4689f9ea56ef3a26f3128fd3c5231043", "fusion_lat": 0.0, "name": "4689f9ea56ef3a26f3128fd3c5231043", "is_reserved": 0, "rental_uris": {"android": "https://dc.lft.to/lastmile_qr_scan", "ios": "https://dc.lft.to/lastmile_qr_scan"}, "fusion_lon": 0.0}, {"lat": 38.86658583333333, "is_disabled": 0, "type": "electric_scooter", "lon": -76.98883533333333, "bike_id": "9b880a025f204e692ff87636423bd81d", "fusion_lat": 0.0, "name": "9b880a025f204e692ff87636423bd81d", "is_reserved": 0, "rental_uris": {"android": "https://dc.lft.to/lastmile_qr_scan", "ios": "https://dc.lft.to/lastmile_qr_scan"}, "fusion_lon": 0.0}, {"lat": 38.917103166666664, "is_disabled": 0, "type": "electric_scooter", "lon": -77.0385655, "bike_id": "1c446cad17ca240e8ff76f5ffdde2c59", "fusion_lat": 0.0, "name": "1c446cad17ca240e8ff76f5ffdde2c59", "is_reserved": 0, "rental_uris": {"android": "https://dc.lft.to/lastmile_qr_scan", "ios": "https://dc.lft.to/lastmile_qr_scan"}, "fusion_lon": 0.0}, {"lat": 38.9334695, "is_disabled": 0, "type": "electric_scooter", "lon": -77.05866883333333, "bike_id": "6e25878fdebbe4bc9823411022796909", "fusion_lat": 0.0, "name": "6e25878fdebbe4bc9823411022796909", "is_reserved": 0, "rental_uris": {"android": "https://dc.lft.to/lastmile_qr_scan", "ios": "https://dc.lft.to/lastmile_qr_scan"}, "fusion_lon": 0.0}, {"lat": 38.897848333333336, "is_disabled": 0, "type": "electric_scooter", "lon": -77.05151783333334, "bike_id": "f88f2025dc8d082829f568f4bf55d7ef", "fusion_lat": 0.0, "name": "f88f2025dc8d082829f568f4bf55d7ef", "is_reserved": 0, "rental_uris": {"android": "https://dc.lft.to/lastmile_qr_scan", "ios": "https://dc.lft.to/lastmile_qr_scan"}, "fusion_lon": 0.0}, {"lat": 38.922982833333336, "is_disabled": 0, "type": "electric_scooter", "lon": -77.04145266666667, "bike_id": "d0401eaaf040990cd50c825d628418b6", "fusion_lat": 0.0, "name": "d0401eaaf040990cd50c825d628418b6", "is_reserved": 0, "rental_uris": {"android": "https://dc.lft.to/lastmile_qr_scan", "ios": "https://dc.lft.to/lastmile_qr_scan"}, "fusion_lon": 0.0}, {"lat": 38.924341166666665, "is_disabled": 0, "type": "electric_scooter", "lon": -77.042467, "bike_id": "758ff120ec7cbf70624ecace23e759b5", "fusion_lat": 0.0, "name": "758ff120ec7cbf70624ecace23e759b5", "is_reserved": 0, "rental_uris": {"android": "https://dc.lft.to/lastmile_qr_scan", "ios": "https://dc.lft.to/lastmile_qr_scan"}, "fusion_lon": 0.0}, {"lat": 38.9248605, "is_disabled": 0, "type": "electric_scooter", "lon": -77.05214466666666, "bike_id": "4b55e12619a5bcf061b4d048c370162c", "fusion_lat": 0.0, "name": "4b55e12619a5bcf061b4d048c370162c", "is_reserved": 0, "rental_uris": {"android": "https://dc.lft.to/lastmile_qr_scan", "ios": "https://dc.lft.to/lastmile_qr_scan"}, "fusion_lon": 0.0}, {"lat": 38.917099666666665, "is_disabled": 0, "type": "electric_scooter", "lon": -77.032153, "bike_id": "e4131feb487cf0a6ea0e3ce178a75a3a", "fusion_lat": 0.0, "name": "e4131feb487cf0a6ea0e3ce178a75a3a", "is_reserved": 0, "rental_uris": {"android": "https://dc.lft.to/lastmile_qr_scan", "ios": "https://dc.lft.to/lastmile_qr_scan"}, "fusion_lon": 0.0}, {"lat": 38.923164166666666, "is_disabled": 0, "type": "electric_scooter", "lon": -77.0395915, "bike_id": "0d29a1ba7d8c48e1dd9f001970950d8d", "fusion_lat": 0.0, "name": "0d29a1ba7d8c48e1dd9f001970950d8d", "is_reserved": 0, "rental_uris": {"android": "https://dc.lft.to/lastmile_qr_scan", "ios": "https://dc.lft.to/lastmile_qr_scan"}, "fusion_lon": 0.0}, {"lat": 38.90268916666667, "is_disabled": 0, "type": "electric_scooter", "lon": -77.0194115, "bike_id": "65071f5d9c166493e253e9ec2ecf0778", "fusion_lat": 0.0, "name": "65071f5d9c166493e253e9ec2ecf0778", "is_reserved": 0, "rental_uris": {"android": "https://dc.lft.to/lastmile_qr_scan", "ios": "https://dc.lft.to/lastmile_qr_scan"}, "fusion_lon": 0.0}, {"lat": 38.884583166666665, "is_disabled": 0, "type": "electric_scooter", "lon": -77.015442, "bike_id": "98007099fbb022f60c468cf266dbac4c", "fusion_lat": 0.0, "name": "98007099fbb022f60c468cf266dbac4c", "is_reserved": 0, "rental_uris": {"android": "https://dc.lft.to/lastmile_qr_scan", "ios": "https://dc.lft.to/lastmile_qr_scan"}, "fusion_lon": 0.0}, {"lat": 38.92674866666667, "is_disabled": 0, "type": "electric_scooter", "lon": -77.00739566666667, "bike_id": "ca4f31c165d174491f908af7f41c3b0e", "fusion_lat": 0.0, "name": "ca4f31c165d174491f908af7f41c3b0e", "is_reserved": 0, "rental_uris": {"android": "https://dc.lft.to/lastmile_qr_scan", "ios": "https://dc.lft.to/lastmile_qr_scan"}, "fusion_lon": 0.0}, {"lat": 38.9574535, "is_disabled": 0, "type": "electric_bike", "lon": -77.02327616666666, "bike_id": "b8ef02e8dd7655f9650597b7d3f082ba", "fusion_lat": 0.0, "name": "b8ef02e8dd7655f9650597b7d3f082ba", "is_reserved": 0, "rental_uris": {"android": "https://dc.lft.to/lastmile_qr_scan", "ios": "https://dc.lft.to/lastmile_qr_scan"}, "fusion_lon": 0.0}, {"lat": 38.909729, "is_disabled": 0, "type": "electric_scooter", "lon": -77.04054216666667, "bike_id": "33e1d8bcaa003ac43079e80cd1f47976", "fusion_lat": 0.0, "name": "33e1d8bcaa003ac43079e80cd1f47976", "is_reserved": 0, "rental_uris": {"android": "https://dc.lft.to/lastmile_qr_scan", "ios": "https://dc.lft.to/lastmile_qr_scan"}, "fusion_lon": 0.0}, {"lat": 38.924838666666666, "is_disabled": 0, "type": "electric_scooter", "lon": -77.025429, "bike_id": "c28cd8d9bb4c1520ba0d401e92693129", "fusion_lat": 0.0, "name": "c28cd8d9bb4c1520ba0d401e92693129", "is_reserved": 0, "rental_uris": {"android": "https://dc.lft.to/lastmile_qr_scan", "ios": "https://dc.lft.to/lastmile_qr_scan"}, "fusion_lon": 0.0}, {"lat": 38.891408, "is_disabled": 0, "type": "electric_bike", "lon": -77.113033, "bike_id": "1756cf21be786def7f8d87d9c7ce4d00", "fusion_lat": 0.0, "name": "1756cf21be786def7f8d87d9c7ce4d00", "is_reserved": 0, "rental_uris": {"android": "https://dc.lft.to/lastmile_qr_scan", "ios": "https://dc.lft.to/lastmile_qr_scan"}, "fusion_lon": 0.0}, {"lat": 38.9003725, "is_disabled": 0, "type": "electric_scooter", "lon": -77.0053965, "bike_id": "45e78a2ec1e0ff1cdc6c289e81c48175", "fusion_lat": 0.0, "name": "45e78a2ec1e0ff1cdc6c289e81c48175", "is_reserved": 0, "rental_uris": {"android": "https://dc.lft.to/lastmile_qr_scan", "ios": "https://dc.lft.to/lastmile_qr_scan"}, "fusion_lon": 0.0}, {"lat": 38.912486, "is_disabled": 0, "type": "electric_scooter", "lon": -77.00430216666666, "bike_id": "7383353a53d8977f17bc37f1d90c28da", "fusion_lat": 0.0, "name": "7383353a53d8977f17bc37f1d90c28da", "is_reserved": 0, "rental_uris": {"android": "https://dc.lft.to/lastmile_qr_scan", "ios": "https://dc.lft.to/lastmile_qr_scan"}, "fusion_lon": 0.0}, {"lat": 38.91678866666667, "is_disabled": 0, "type": "electric_scooter", "lon": -77.04143266666667, "bike_id": "aef2c9ca734defcf95a3746e3fde3e7e", "fusion_lat": 0.0, "name": "aef2c9ca734defcf95a3746e3fde3e7e", "is_reserved": 0, "rental_uris": {"android": "https://dc.lft.to/lastmile_qr_scan", "ios": "https://dc.lft.to/lastmile_qr_scan"}, "fusion_lon": 0.0}, {"lat": 38.928750666666666, "is_disabled": 0, "type": "electric_scooter", "lon": -77.033407, "bike_id": "5cf96f3f9a6ef91cbae5ebc0c5bba9b9", "fusion_lat": 0.0, "name": "5cf96f3f9a6ef91cbae5ebc0c5bba9b9", "is_reserved": 0, "rental_uris": {"android": "https://dc.lft.to/lastmile_qr_scan", "ios": "https://dc.lft.to/lastmile_qr_scan"}, "fusion_lon": 0.0}, {"lat": 38.8921945, "is_disabled": 0, "type": "electric_bike", "lon": -77.10775433333333, "bike_id": "96cf2f4e950cad7220d5d4f5ba0d0e6f", "fusion_lat": 0.0, "name": "96cf2f4e950cad7220d5d4f5ba0d0e6f", "is_reserved": 0, "rental_uris": {"android": "https://dc.lft.to/lastmile_qr_scan", "ios": "https://dc.lft.to/lastmile_qr_scan"}, "fusion_lon": 0.0}, {"lat": 38.85320333333333, "is_disabled": 0, "type": "electric_scooter", "lon": -76.98024566666666, "bike_id": "1b778aa70e6595cc297cc01a946968f8", "fusion_lat": 0.0, "name": "1b778aa70e6595cc297cc01a946968f8", "is_reserved": 0, "rental_uris": {"android": "https://dc.lft.to/lastmile_qr_scan", "ios": "https://dc.lft.to/lastmile_qr_scan"}, "fusion_lon": 0.0}, {"lat": 38.8723505, "is_disabled": 0, "type": "electric_scooter", "lon": -77.0118995, "bike_id": "61603ffb9b37b9eec43ecfb51c2d25fe", "fusion_lat": 0.0, "name": "61603ffb9b37b9eec43ecfb51c2d25fe", "is_reserved": 0, "rental_uris": {"android": "https://dc.lft.to/lastmile_qr_scan", "ios": "https://dc.lft.to/lastmile_qr_scan"}, "fusion_lon": 0.0}, {"lat": 38.901404666666664, "is_disabled": 0, "type": "electric_scooter", "lon": -77.0034265, "bike_id": "cf7012c10098611399789bfece61b9fa", "fusion_lat": 0.0, "name": "cf7012c10098611399789bfece61b9fa", "is_reserved": 0, "rental_uris": {"android": "https://dc.lft.to/lastmile_qr_scan", "ios": "https://dc.lft.to/lastmile_qr_scan"}, "fusion_lon": 0.0}, {"lat": 38.937401666666666, "is_disabled": 0, "type": "electric_scooter", "lon": -77.0349525, "bike_id": "33403dca80203116dbcdd6d9b16afaa7", "fusion_lat": 0.0, "name": "33403dca80203116dbcdd6d9b16afaa7", "is_reserved": 0, "rental_uris": {"android": "https://dc.lft.to/lastmile_qr_scan", "ios": "https://dc.lft.to/lastmile_qr_scan"}, "fusion_lon": 0.0}, {"lat": 38.874114166666665, "is_disabled": 0, "type": "electric_scooter", "lon": -77.01455733333333, "bike_id": "73a0ef18444d3c881e499aa99fc7d999", "fusion_lat": 0.0, "name": "73a0ef18444d3c881e499aa99fc7d999", "is_reserved": 0, "rental_uris": {"android": "https://dc.lft.to/lastmile_qr_scan", "ios": "https://dc.lft.to/lastmile_qr_scan"}, "fusion_lon": 0.0}, {"lat": 38.907371, "is_disabled": 0, "type": "electric_scooter", "lon": -77.02991533333334, "bike_id": "55db3beff50bfa786852a73d79558b74", "fusion_lat": 0.0, "name": "55db3beff50bfa786852a73d79558b74", "is_reserved": 0, "rental_uris": {"android": "https://dc.lft.to/lastmile_qr_scan", "ios": "https://dc.lft.to/lastmile_qr_scan"}, "fusion_lon": 0.0}, {"lat": 38.881191, "is_disabled": 0, "type": "electric_scooter", "lon": -77.01971016666667, "bike_id": "f18a9788007f758fcc1dde57b3e82e98", "fusion_lat": 0.0, "name": "f18a9788007f758fcc1dde57b3e82e98", "is_reserved": 0, "rental_uris": {"android": "https://dc.lft.to/lastmile_qr_scan", "ios": "https://dc.lft.to/lastmile_qr_scan"}, "fusion_lon": 0.0}, {"lat": 38.909712999999996, "is_disabled": 0, "type": "electric_scooter", "lon": -77.032188, "bike_id": "be8cf3348074ee12cfd75c4648ebba0a", "fusion_lat": 0.0, "name": "be8cf3348074ee12cfd75c4648ebba0a", "is_reserved": 0, "rental_uris": {"android": "https://dc.lft.to/lastmile_qr_scan", "ios": "https://dc.lft.to/lastmile_qr_scan"}, "fusion_lon": 0.0}, {"lat": 38.926192, "is_disabled": 0, "type": "electric_scooter", "lon": -77.04408166666667, "bike_id": "aedb49c41a9a8a7f5c0f6bafe632378c", "fusion_lat": 0.0, "name": "aedb49c41a9a8a7f5c0f6bafe632378c", "is_reserved": 0, "rental_uris": {"android": "https://dc.lft.to/lastmile_qr_scan", "ios": "https://dc.lft.to/lastmile_qr_scan"}, "fusion_lon": 0.0}, {"lat": 38.896069, "is_disabled": 0, "type": "electric_scooter", "lon": -76.956541, "bike_id": "6294ba4092feaacac997e5b43e1ae6b8", "fusion_lat": 0.0, "name": "6294ba4092feaacac997e5b43e1ae6b8", "is_reserved": 0, "rental_uris": {"android": "https://dc.lft.to/lastmile_qr_scan", "ios": "https://dc.lft.to/lastmile_qr_scan"}, "fusion_lon": 0.0}, {"lat": 38.93979183333333, "is_disabled": 0, "type": "electric_scooter", "lon": -77.03266533333333, "bike_id": "5cfbac50a9886be36d16502f5cb2ae62", "fusion_lat": 0.0, "name": "5cfbac50a9886be36d16502f5cb2ae62", "is_reserved": 0, "rental_uris": {"android": "https://dc.lft.to/lastmile_qr_scan", "ios": "https://dc.lft.to/lastmile_qr_scan"}, "fusion_lon": 0.0}, {"lat": 38.88742416666667, "is_disabled": 0, "type": "electric_scooter", "lon": -77.02074883333333, "bike_id": "fbe5f6c1d4edafaaec547fc2db2702fb", "fusion_lat": 0.0, "name": "fbe5f6c1d4edafaaec547fc2db2702fb", "is_reserved": 0, "rental_uris": {"android": "https://dc.lft.to/lastmile_qr_scan", "ios": "https://dc.lft.to/lastmile_qr_scan"}, "fusion_lon": 0.0}, {"lat": 38.93476716666667, "is_disabled": 0, "type": "electric_scooter", "lon": -77.03398916666667, "bike_id": "1d6293026231f2bb8ef4d9dec585e879", "fusion_lat": 0.0, "name": "1d6293026231f2bb8ef4d9dec585e879", "is_reserved": 0, "rental_uris": {"android": "https://dc.lft.to/lastmile_qr_scan", "ios": "https://dc.lft.to/lastmile_qr_scan"}, "fusion_lon": 0.0}, {"lat": 38.9097155, "is_disabled": 0, "type": "electric_scooter", "lon": -77.03866916666666, "bike_id": "8f5149b7b127a6dcf0a757be05300faa", "fusion_lat": 0.0, "name": "8f5149b7b127a6dcf0a757be05300faa", "is_reserved": 0, "rental_uris": {"android": "https://dc.lft.to/lastmile_qr_scan", "ios": "https://dc.lft.to/lastmile_qr_scan"}, "fusion_lon": 0.0}, {"lat": 38.8834115, "is_disabled": 0, "type": "electric_scooter", "lon": -77.03149183333333, "bike_id": "04fdc129c2f0b28e6a7d7e0d7d1f370b", "fusion_lat": 0.0, "name": "04fdc129c2f0b28e6a7d7e0d7d1f370b", "is_reserved": 0, "rental_uris": {"android": "https://dc.lft.to/lastmile_qr_scan", "ios": "https://dc.lft.to/lastmile_qr_scan"}, "fusion_lon": 0.0}, {"lat": 38.923326333333335, "is_disabled": 0, "type": "electric_scooter", "lon": -77.01895233333333, "bike_id": "812204efb1fbc45bc28dd707838369a3", "fusion_lat": 0.0, "name": "812204efb1fbc45bc28dd707838369a3", "is_reserved": 0, "rental_uris": {"android": "https://dc.lft.to/lastmile_qr_scan", "ios": "https://dc.lft.to/lastmile_qr_scan"}, "fusion_lon": 0.0}, {"lat": 38.9003075, "is_disabled": 0, "type": "electric_scooter", "lon": -76.98742216666666, "bike_id": "d6d6da968fac40ec08b44e441f34ac09", "fusion_lat": 0.0, "name": "d6d6da968fac40ec08b44e441f34ac09", "is_reserved": 0, "rental_uris": {"android": "https://dc.lft.to/lastmile_qr_scan", "ios": "https://dc.lft.to/lastmile_qr_scan"}, "fusion_lon": 0.0}, {"lat": 38.91112483333333, "is_disabled": 0, "type": "electric_scooter", "lon": -77.00235466666666, "bike_id": "026625a0296e39ba684bdab9e0cf0903", "fusion_lat": 0.0, "name": "026625a0296e39ba684bdab9e0cf0903", "is_reserved": 0, "rental_uris": {"android": "https://dc.lft.to/lastmile_qr_scan", "ios": "https://dc.lft.to/lastmile_qr_scan"}, "fusion_lon": 0.0}, {"lat": 38.861026, "is_disabled": 0, "type": "electric_scooter", "lon": -76.98355733333334, "bike_id": "c583276f058922d04b90f3036d326817", "fusion_lat": 0.0, "name": "c583276f058922d04b90f3036d326817", "is_reserved": 0, "rental_uris": {"android": "https://dc.lft.to/lastmile_qr_scan", "ios": "https://dc.lft.to/lastmile_qr_scan"}, "fusion_lon": 0.0}, {"lat": 38.9101455, "is_disabled": 0, "type": "electric_scooter", "lon": -76.99389483333333, "bike_id": "7fdd92417d322d01ea72f9ea10cfcad8", "fusion_lat": 0.0, "name": "7fdd92417d322d01ea72f9ea10cfcad8", "is_reserved": 0, "rental_uris": {"android": "https://dc.lft.to/lastmile_qr_scan", "ios": "https://dc.lft.to/lastmile_qr_scan"}, "fusion_lon": 0.0}, {"lat": 38.897373, "is_disabled": 0, "type": "electric_scooter", "lon": -77.05526233333333, "bike_id": "056e7e8977e77e22268ac4345cfc9c1f", "fusion_lat": 0.0, "name": "056e7e8977e77e22268ac4345cfc9c1f", "is_reserved": 0, "rental_uris": {"android": "https://dc.lft.to/lastmile_qr_scan", "ios": "https://dc.lft.to/lastmile_qr_scan"}, "fusion_lon": 0.0}, {"lat": 38.900991833333336, "is_disabled": 0, "type": "electric_scooter", "lon": -77.0500645, "bike_id": "c9e3e4c5878ca656d247b29607d4f1f5", "fusion_lat": 0.0, "name": "c9e3e4c5878ca656d247b29607d4f1f5", "is_reserved": 0, "rental_uris": {"android": "https://dc.lft.to/lastmile_qr_scan", "ios": "https://dc.lft.to/lastmile_qr_scan"}, "fusion_lon": 0.0}, {"lat": 38.9127085, "is_disabled": 0, "type": "electric_scooter", "lon": -77.00283283333333, "bike_id": "a6265ad243d7e7bbf5fd839fdcc0b00c", "fusion_lat": 0.0, "name": "a6265ad243d7e7bbf5fd839fdcc0b00c", "is_reserved": 0, "rental_uris": {"android": "https://dc.lft.to/lastmile_qr_scan", "ios": "https://dc.lft.to/lastmile_qr_scan"}, "fusion_lon": 0.0}, {"lat": 38.9133765, "is_disabled": 0, "type": "electric_scooter", "lon": -77.00227716666667, "bike_id": "00580f3410c492563e072acc52b55dd5", "fusion_lat": 0.0, "name": "00580f3410c492563e072acc52b55dd5", "is_reserved": 0, "rental_uris": {"android": "https://dc.lft.to/lastmile_qr_scan", "ios": "https://dc.lft.to/lastmile_qr_scan"}, "fusion_lon": 0.0}, {"lat": 38.876418666666666, "is_disabled": 0, "type": "electric_scooter", "lon": -77.0042085, "bike_id": "51f8c7e4d63b795b223b4e845f53b0a9", "fusion_lat": 0.0, "name": "51f8c7e4d63b795b223b4e845f53b0a9", "is_reserved": 0, "rental_uris": {"android": "https://dc.lft.to/lastmile_qr_scan", "ios": "https://dc.lft.to/lastmile_qr_scan"}, "fusion_lon": 0.0}, {"lat": 38.93199233333333, "is_disabled": 0, "type": "electric_bike", "lon": -77.0387045, "bike_id": "2f5bd7f5155e48407fb81f53075bef2f", "fusion_lat": 0.0, "name": "2f5bd7f5155e48407fb81f53075bef2f", "is_reserved": 0, "rental_uris": {"android": "https://dc.lft.to/lastmile_qr_scan", "ios": "https://dc.lft.to/lastmile_qr_scan"}, "fusion_lon": 0.0}, {"lat": 38.8661885, "is_disabled": 0, "type": "electric_scooter", "lon": -76.9866425, "bike_id": "c8e756d6f99455d241d0e82d1f768983", "fusion_lat": 0.0, "name": "c8e756d6f99455d241d0e82d1f768983", "is_reserved": 0, "rental_uris": {"android": "https://dc.lft.to/lastmile_qr_scan", "ios": "https://dc.lft.to/lastmile_qr_scan"}, "fusion_lon": 0.0}, {"lat": 38.879977, "is_disabled": 0, "type": "electric_scooter", "lon": -77.00514333333334, "bike_id": "0be4bbee5c4b5e494b1ef0dd4abde6cb", "fusion_lat": 0.0, "name": "0be4bbee5c4b5e494b1ef0dd4abde6cb", "is_reserved": 0, "rental_uris": {"android": "https://dc.lft.to/lastmile_qr_scan", "ios": "https://dc.lft.to/lastmile_qr_scan"}, "fusion_lon": 0.0}, {"lat": 38.84592633333333, "is_disabled": 0, "type": "electric_bike", "lon": -77.0767855, "bike_id": "1f6399a05ddce226764e534a15fabede", "fusion_lat": 0.0, "name": "1f6399a05ddce226764e534a15fabede", "is_reserved": 0, "rental_uris": {"android": "https://dc.lft.to/lastmile_qr_scan", "ios": "https://dc.lft.to/lastmile_qr_scan"}, "fusion_lon": 0.0}, {"lat": 38.9083685, "is_disabled": 0, "type": "electric_scooter", "lon": -77.02952966666666, "bike_id": "2f578f1c47c6904d2842d6606d72a86b", "fusion_lat": 0.0, "name": "2f578f1c47c6904d2842d6606d72a86b", "is_reserved": 0, "rental_uris": {"android": "https://dc.lft.to/lastmile_qr_scan", "ios": "https://dc.lft.to/lastmile_qr_scan"}, "fusion_lon": 0.0}, {"lat": 38.906308333333335, "is_disabled": 0, "type": "electric_scooter", "lon": -77.01363416666666, "bike_id": "cc77b873592dc6768ad1017fe894b9ff", "fusion_lat": 0.0, "name": "cc77b873592dc6768ad1017fe894b9ff", "is_reserved": 0, "rental_uris": {"android": "https://dc.lft.to/lastmile_qr_scan", "ios": "https://dc.lft.to/lastmile_qr_scan"}, "fusion_lon": 0.0}, {"lat": 38.9403765, "is_disabled": 0, "type": "electric_scooter", "lon": -77.02900833333334, "bike_id": "05635ff3a8f27c39baefa2ff11c92fff", "fusion_lat": 0.0, "name": "05635ff3a8f27c39baefa2ff11c92fff", "is_reserved": 0, "rental_uris": {"android": "https://dc.lft.to/lastmile_qr_scan", "ios": "https://dc.lft.to/lastmile_qr_scan"}, "fusion_lon": 0.0}, {"lat": 38.81219766666667, "is_disabled": 0, "type": "electric_bike", "lon": -77.10983883333333, "bike_id": "5b185d5fbfd20af8a4672a75a8b7d4d6", "fusion_lat": 0.0, "name": "5b185d5fbfd20af8a4672a75a8b7d4d6", "is_reserved": 0, "rental_uris": {"android": "https://dc.lft.to/lastmile_qr_scan", "ios": "https://dc.lft.to/lastmile_qr_scan"}, "fusion_lon": 0.0}, {"lat": 38.90762633333333, "is_disabled": 0, "type": "electric_scooter", "lon": -77.0011565, "bike_id": "5d5804bca7fbd26cf76dbd50021656a6", "fusion_lat": 0.0, "name": "5d5804bca7fbd26cf76dbd50021656a6", "is_reserved": 0, "rental_uris": {"android": "https://dc.lft.to/lastmile_qr_scan", "ios": "https://dc.lft.to/lastmile_qr_scan"}, "fusion_lon": 0.0}, {"lat": 38.936313166666665, "is_disabled": 0, "type": "electric_scooter", "lon": -77.0365125, "bike_id": "f523dbd2c26e31daf3f7676b59cfd9d3", "fusion_lat": 0.0, "name": "f523dbd2c26e31daf3f7676b59cfd9d3", "is_reserved": 0, "rental_uris": {"android": "https://dc.lft.to/lastmile_qr_scan", "ios": "https://dc.lft.to/lastmile_qr_scan"}, "fusion_lon": 0.0}, {"lat": 38.9178545, "is_disabled": 0, "type": "electric_scooter", "lon": -77.023148, "bike_id": "d87909aae0c5a3d0f10cb48ed5e9290c", "fusion_lat": 0.0, "name": "d87909aae0c5a3d0f10cb48ed5e9290c", "is_reserved": 0, "rental_uris": {"android": "https://dc.lft.to/lastmile_qr_scan", "ios": "https://dc.lft.to/lastmile_qr_scan"}, "fusion_lon": 0.0}, {"lat": 38.8463205, "is_disabled": 0, "type": "electric_bike", "lon": -77.0693945, "bike_id": "054c603b2233fb7b34f3b7405ef2a101", "fusion_lat": 0.0, "name": "054c603b2233fb7b34f3b7405ef2a101", "is_reserved": 0, "rental_uris": {"android": "https://dc.lft.to/lastmile_qr_scan", "ios": "https://dc.lft.to/lastmile_qr_scan"}, "fusion_lon": 0.0}, {"lat": 38.91850383333333, "is_disabled": 0, "type": "electric_scooter", "lon": -76.965435, "bike_id": "95542de35a37005546767f7d066f0a31", "fusion_lat": 0.0, "name": "95542de35a37005546767f7d066f0a31", "is_reserved": 0, "rental_uris": {"android": "https://dc.lft.to/lastmile_qr_scan", "ios": "https://dc.lft.to/lastmile_qr_scan"}, "fusion_lon": 0.0}, {"lat": 38.923891, "is_disabled": 0, "type": "electric_scooter", "lon": -77.03073516666667, "bike_id": "ab5a1246c85c17dfca88ec03d45a23a5", "fusion_lat": 0.0, "name": "ab5a1246c85c17dfca88ec03d45a23a5", "is_reserved": 0, "rental_uris": {"android": "https://dc.lft.to/lastmile_qr_scan", "ios": "https://dc.lft.to/lastmile_qr_scan"}, "fusion_lon": 0.0}, {"lat": 38.90966383333333, "is_disabled": 0, "type": "electric_scooter", "lon": -77.022759, "bike_id": "80e4e4365c084e502428938174607c75", "fusion_lat": 0.0, "name": "80e4e4365c084e502428938174607c75", "is_reserved": 0, "rental_uris": {"android": "https://dc.lft.to/lastmile_qr_scan", "ios": "https://dc.lft.to/lastmile_qr_scan"}, "fusion_lon": 0.0}, {"lat": 38.916238, "is_disabled": 0, "type": "electric_scooter", "lon": -77.03184333333333, "bike_id": "aa40872e0d3c1ccbf4f1f0e31947cccd", "fusion_lat": 0.0, "name": "aa40872e0d3c1ccbf4f1f0e31947cccd", "is_reserved": 0, "rental_uris": {"android": "https://dc.lft.to/lastmile_qr_scan", "ios": "https://dc.lft.to/lastmile_qr_scan"}, "fusion_lon": 0.0}, {"lat": 38.8950295, "is_disabled": 0, "type": "electric_scooter", "lon": -77.02751433333333, "bike_id": "0805914a2941d7c78cd91c5a17a41f9a", "fusion_lat": 0.0, "name": "0805914a2941d7c78cd91c5a17a41f9a", "is_reserved": 0, "rental_uris": {"android": "https://dc.lft.to/lastmile_qr_scan", "ios": "https://dc.lft.to/lastmile_qr_scan"}, "fusion_lon": 0.0}, {"lat": 38.91701483333333, "is_disabled": 0, "type": "electric_scooter", "lon": -77.03447366666667, "bike_id": "b71c1a4632f87c7e7ee0491cc60dedc3", "fusion_lat": 0.0, "name": "b71c1a4632f87c7e7ee0491cc60dedc3", "is_reserved": 0, "rental_uris": {"android": "https://dc.lft.to/lastmile_qr_scan", "ios": "https://dc.lft.to/lastmile_qr_scan"}, "fusion_lon": 0.0}, {"lat": 38.892751833333335, "is_disabled": 0, "type": "electric_scooter", "lon": -77.0503095, "bike_id": "b2c47f88b6613e3196a5182ec2bb457a", "fusion_lat": 0.0, "name": "b2c47f88b6613e3196a5182ec2bb457a", "is_reserved": 0, "rental_uris": {"android": "https://dc.lft.to/lastmile_qr_scan", "ios": "https://dc.lft.to/lastmile_qr_scan"}, "fusion_lon": 0.0}, {"lat": 38.869971, "is_disabled": 0, "type": "electric_bike", "lon": -76.95980033333333, "bike_id": "c5706202eab830b54d61e769514921a0", "fusion_lat": 0.0, "name": "c5706202eab830b54d61e769514921a0", "is_reserved": 0, "rental_uris": {"android": "https://dc.lft.to/lastmile_qr_scan", "ios": "https://dc.lft.to/lastmile_qr_scan"}, "fusion_lon": 0.0}, {"lat": 38.85895766666667, "is_disabled": 0, "type": "electric_scooter", "lon": -76.99433883333333, "bike_id": "4885994344b672e4d1850879fcfe3b1b", "fusion_lat": 0.0, "name": "4885994344b672e4d1850879fcfe3b1b", "is_reserved": 0, "rental_uris": {"android": "https://dc.lft.to/lastmile_qr_scan", "ios": "https://dc.lft.to/lastmile_qr_scan"}, "fusion_lon": 0.0}, {"lat": 38.899721666666665, "is_disabled": 0, "type": "electric_scooter", "lon": -77.02106766666667, "bike_id": "db386b7530c28a4389112ce518dbfbca", "fusion_lat": 0.0, "name": "db386b7530c28a4389112ce518dbfbca", "is_reserved": 0, "rental_uris": {"android": "https://dc.lft.to/lastmile_qr_scan", "ios": "https://dc.lft.to/lastmile_qr_scan"}, "fusion_lon": 0.0}, {"lat": 38.98503866666667, "is_disabled": 0, "type": "electric_bike", "lon": -76.982156, "bike_id": "663ef3819ff875c7c221a9e56daf3768", "fusion_lat": 0.0, "name": "663ef3819ff875c7c221a9e56daf3768", "is_reserved": 0, "rental_uris": {"android": "https://dc.lft.to/lastmile_qr_scan", "ios": "https://dc.lft.to/lastmile_qr_scan"}, "fusion_lon": 0.0}, {"lat": 38.932351, "is_disabled": 0, "type": "electric_bike", "lon": -76.97422366666666, "bike_id": "d9d2da2a011982dee9e3fcfb08b171e0", "fusion_lat": 0.0, "name": "d9d2da2a011982dee9e3fcfb08b171e0", "is_reserved": 0, "rental_uris": {"android": "https://dc.lft.to/lastmile_qr_scan", "ios": "https://dc.lft.to/lastmile_qr_scan"}, "fusion_lon": 0.0}, {"lat": 38.8226405, "is_disabled": 0, "type": "electric_bike", "lon": -77.058124, "bike_id": "304b8ddd43396f1410a3960adff65aa8", "fusion_lat": 0.0, "name": "304b8ddd43396f1410a3960adff65aa8", "is_reserved": 0, "rental_uris": {"android": "https://dc.lft.to/lastmile_qr_scan", "ios": "https://dc.lft.to/lastmile_qr_scan"}, "fusion_lon": 0.0}, {"lat": 38.881491, "is_disabled": 0, "type": "electric_scooter", "lon": -77.016858, "bike_id": "017e950c4d22131b90d4d702b9e31b34", "fusion_lat": 0.0, "name": "017e950c4d22131b90d4d702b9e31b34", "is_reserved": 0, "rental_uris": {"android": "https://dc.lft.to/lastmile_qr_scan", "ios": "https://dc.lft.to/lastmile_qr_scan"}, "fusion_lon": 0.0}, {"lat": 38.89830333333333, "is_disabled": 0, "type": "electric_scooter", "lon": -77.03183683333333, "bike_id": "f5b2125def9bb52592940a0bf99110c4", "fusion_lat": 0.0, "name": "f5b2125def9bb52592940a0bf99110c4", "is_reserved": 0, "rental_uris": {"android": "https://dc.lft.to/lastmile_qr_scan", "ios": "https://dc.lft.to/lastmile_qr_scan"}, "fusion_lon": 0.0}, {"lat": 38.9023415, "is_disabled": 0, "type": "electric_scooter", "lon": -77.05344283333334, "bike_id": "5315dd5930f351180419bb22823c9ae0", "fusion_lat": 0.0, "name": "5315dd5930f351180419bb22823c9ae0", "is_reserved": 0, "rental_uris": {"android": "https://dc.lft.to/lastmile_qr_scan", "ios": "https://dc.lft.to/lastmile_qr_scan"}, "fusion_lon": 0.0}, {"lat": 38.938803, "is_disabled": 0, "type": "electric_scooter", "lon": -77.03284633333334, "bike_id": "e7b340d4483b726f674253956b927683", "fusion_lat": 0.0, "name": "e7b340d4483b726f674253956b927683", "is_reserved": 0, "rental_uris": {"android": "https://dc.lft.to/lastmile_qr_scan", "ios": "https://dc.lft.to/lastmile_qr_scan"}, "fusion_lon": 0.0}, {"lat": 38.90769, "is_disabled": 0, "type": "electric_scooter", "lon": -77.03646866666666, "bike_id": "ea13ff23a129009aea96f0f541450670", "fusion_lat": 0.0, "name": "ea13ff23a129009aea96f0f541450670", "is_reserved": 0, "rental_uris": {"android": "https://dc.lft.to/lastmile_qr_scan", "ios": "https://dc.lft.to/lastmile_qr_scan"}, "fusion_lon": 0.0}, {"lat": 38.92296116666667, "is_disabled": 0, "type": "electric_scooter", "lon": -77.03655633333334, "bike_id": "295583155d5813520fff05b014562c71", "fusion_lat": 0.0, "name": "295583155d5813520fff05b014562c71", "is_reserved": 0, "rental_uris": {"android": "https://dc.lft.to/lastmile_qr_scan", "ios": "https://dc.lft.to/lastmile_qr_scan"}, "fusion_lon": 0.0}, {"lat": 38.92825916666666, "is_disabled": 0, "type": "electric_scooter", "lon": -77.02186916666666, "bike_id": "f4621f1293d1d5dd59bf2ca6641ba3c4", "fusion_lat": 0.0, "name": "f4621f1293d1d5dd59bf2ca6641ba3c4", "is_reserved": 0, "rental_uris": {"android": "https://dc.lft.to/lastmile_qr_scan", "ios": "https://dc.lft.to/lastmile_qr_scan"}, "fusion_lon": 0.0}, {"lat": 38.9731175, "is_disabled": 0, "type": "electric_scooter", "lon": -77.0270505, "bike_id": "0d2f9415ccd251e75c976abd85bd95bb", "fusion_lat": 0.0, "name": "0d2f9415ccd251e75c976abd85bd95bb", "is_reserved": 0, "rental_uris": {"android": "https://dc.lft.to/lastmile_qr_scan", "ios": "https://dc.lft.to/lastmile_qr_scan"}, "fusion_lon": 0.0}, {"lat": 38.9081975, "is_disabled": 0, "type": "electric_scooter", "lon": -77.0339745, "bike_id": "99518888a282a8a87b897ae346cb6085", "fusion_lat": 0.0, "name": "99518888a282a8a87b897ae346cb6085", "is_reserved": 0, "rental_uris": {"android": "https://dc.lft.to/lastmile_qr_scan", "ios": "https://dc.lft.to/lastmile_qr_scan"}, "fusion_lon": 0.0}, {"lat": 38.93952383333333, "is_disabled": 0, "type": "electric_scooter", "lon": -77.02180866666667, "bike_id": "7b2a6f569c2940fcd3795465916fa4f0", "fusion_lat": 0.0, "name": "7b2a6f569c2940fcd3795465916fa4f0", "is_reserved": 0, "rental_uris": {"android": "https://dc.lft.to/lastmile_qr_scan", "ios": "https://dc.lft.to/lastmile_qr_scan"}, "fusion_lon": 0.0}, {"lat": 38.8984585, "is_disabled": 0, "type": "electric_scooter", "lon": -76.94468416666666, "bike_id": "e6760d059d1abaf026dc971534cce018", "fusion_lat": 0.0, "name": "e6760d059d1abaf026dc971534cce018", "is_reserved": 0, "rental_uris": {"android": "https://dc.lft.to/lastmile_qr_scan", "ios": "https://dc.lft.to/lastmile_qr_scan"}, "fusion_lon": 0.0}, {"lat": 38.86278566666667, "is_disabled": 0, "type": "electric_scooter", "lon": -76.99233566666666, "bike_id": "ba84150b06362634312669306ebc2a35", "fusion_lat": 0.0, "name": "ba84150b06362634312669306ebc2a35", "is_reserved": 0, "rental_uris": {"android": "https://dc.lft.to/lastmile_qr_scan", "ios": "https://dc.lft.to/lastmile_qr_scan"}, "fusion_lon": 0.0}, {"lat": 39.0944385, "is_disabled": 0, "type": "electric_bike", "lon": -77.134646, "bike_id": "999c70bdd6ad08cde1ab848b6dce87df", "fusion_lat": 0.0, "name": "999c70bdd6ad08cde1ab848b6dce87df", "is_reserved": 0, "rental_uris": {"android": "https://dc.lft.to/lastmile_qr_scan", "ios": "https://dc.lft.to/lastmile_qr_scan"}, "fusion_lon": 0.0}, {"lat": 38.92328916666666, "is_disabled": 0, "type": "electric_scooter", "lon": -77.04454566666666, "bike_id": "6263f9d4d46318b62bb36c0108c3051a", "fusion_lat": 0.0, "name": "6263f9d4d46318b62bb36c0108c3051a", "is_reserved": 0, "rental_uris": {"android": "https://dc.lft.to/lastmile_qr_scan", "ios": "https://dc.lft.to/lastmile_qr_scan"}, "fusion_lon": 0.0}, {"lat": 38.919802833333335, "is_disabled": 0, "type": "electric_scooter", "lon": -77.04106133333333, "bike_id": "0b9ccbb83ee3a3ad04b30d31733736d2", "fusion_lat": 0.0, "name": "0b9ccbb83ee3a3ad04b30d31733736d2", "is_reserved": 0, "rental_uris": {"android": "https://dc.lft.to/lastmile_qr_scan", "ios": "https://dc.lft.to/lastmile_qr_scan"}, "fusion_lon": 0.0}, {"lat": 38.92436883333333, "is_disabled": 0, "type": "electric_scooter", "lon": -77.03370066666666, "bike_id": "ea119a35029628095fbce95d7b89f98a", "fusion_lat": 0.0, "name": "ea119a35029628095fbce95d7b89f98a", "is_reserved": 0, "rental_uris": {"android": "https://dc.lft.to/lastmile_qr_scan", "ios": "https://dc.lft.to/lastmile_qr_scan"}, "fusion_lon": 0.0}, {"lat": 38.89516, "is_disabled": 0, "type": "electric_scooter", "lon": -77.043445, "bike_id": "394a72db5ffbbb141563329fbd8997e1", "fusion_lat": 0.0, "name": "394a72db5ffbbb141563329fbd8997e1", "is_reserved": 0, "rental_uris": {"android": "https://dc.lft.to/lastmile_qr_scan", "ios": "https://dc.lft.to/lastmile_qr_scan"}, "fusion_lon": 0.0}, {"lat": 38.906731666666666, "is_disabled": 0, "type": "electric_scooter", "lon": -77.03646533333334, "bike_id": "9b5710e7d66cdddf81e822d928043a2f", "fusion_lat": 0.0, "name": "9b5710e7d66cdddf81e822d928043a2f", "is_reserved": 0, "rental_uris": {"android": "https://dc.lft.to/lastmile_qr_scan", "ios": "https://dc.lft.to/lastmile_qr_scan"}, "fusion_lon": 0.0}, {"lat": 38.94129916666667, "is_disabled": 0, "type": "electric_bike", "lon": -76.99629683333333, "bike_id": "ede206afa12426a12ca9fcefb044e440", "fusion_lat": 0.0, "name": "ede206afa12426a12ca9fcefb044e440", "is_reserved": 0, "rental_uris": {"android": "https://dc.lft.to/lastmile_qr_scan", "ios": "https://dc.lft.to/lastmile_qr_scan"}, "fusion_lon": 0.0}, {"lat": 38.90940966666667, "is_disabled": 0, "type": "electric_scooter", "lon": -77.04676566666667, "bike_id": "54eafe0b6e80f6962a1b5dfa5fb89844", "fusion_lat": 0.0, "name": "54eafe0b6e80f6962a1b5dfa5fb89844", "is_reserved": 0, "rental_uris": {"android": "https://dc.lft.to/lastmile_qr_scan", "ios": "https://dc.lft.to/lastmile_qr_scan"}, "fusion_lon": 0.0}, {"lat": 38.909547, "is_disabled": 0, "type": "electric_scooter", "lon": -77.0342145, "bike_id": "e0947cc04822579b4a80f682b4623aa7", "fusion_lat": 0.0, "name": "e0947cc04822579b4a80f682b4623aa7", "is_reserved": 0, "rental_uris": {"android": "https://dc.lft.to/lastmile_qr_scan", "ios": "https://dc.lft.to/lastmile_qr_scan"}, "fusion_lon": 0.0}, {"lat": 38.879192, "is_disabled": 0, "type": "electric_scooter", "lon": -76.99140583333333, "bike_id": "35267566beb591bf3e61904714aa07fa", "fusion_lat": 0.0, "name": "35267566beb591bf3e61904714aa07fa", "is_reserved": 0, "rental_uris": {"android": "https://dc.lft.to/lastmile_qr_scan", "ios": "https://dc.lft.to/lastmile_qr_scan"}, "fusion_lon": 0.0}, {"lat": 38.91402516666667, "is_disabled": 0, "type": "electric_scooter", "lon": -77.03262433333333, "bike_id": "2d4edb977934a3eeb4b7b52895ccdd8a", "fusion_lat": 0.0, "name": "2d4edb977934a3eeb4b7b52895ccdd8a", "is_reserved": 0, "rental_uris": {"android": "https://dc.lft.to/lastmile_qr_scan", "ios": "https://dc.lft.to/lastmile_qr_scan"}, "fusion_lon": 0.0}, {"lat": 38.9155455, "is_disabled": 0, "type": "electric_scooter", "lon": -77.031494, "bike_id": "3e24f616474b085c6a402c1fd798b375", "fusion_lat": 0.0, "name": "3e24f616474b085c6a402c1fd798b375", "is_reserved": 0, "rental_uris": {"android": "https://dc.lft.to/lastmile_qr_scan", "ios": "https://dc.lft.to/lastmile_qr_scan"}, "fusion_lon": 0.0}, {"lat": 38.961485333333336, "is_disabled": 0, "type": "electric_scooter", "lon": -77.02791966666666, "bike_id": "1591f4c5c4b42d979ef680b5ac373e26", "fusion_lat": 0.0, "name": "1591f4c5c4b42d979ef680b5ac373e26", "is_reserved": 0, "rental_uris": {"android": "https://dc.lft.to/lastmile_qr_scan", "ios": "https://dc.lft.to/lastmile_qr_scan"}, "fusion_lon": 0.0}, {"lat": 38.8804135, "is_disabled": 0, "type": "electric_scooter", "lon": -76.98632133333334, "bike_id": "53f47828419d9bc068b790957878de37", "fusion_lat": 0.0, "name": "53f47828419d9bc068b790957878de37", "is_reserved": 0, "rental_uris": {"android": "https://dc.lft.to/lastmile_qr_scan", "ios": "https://dc.lft.to/lastmile_qr_scan"}, "fusion_lon": 0.0}, {"lat": 38.89685016666667, "is_disabled": 0, "type": "electric_scooter", "lon": -76.93536033333334, "bike_id": "9ee29d633ad4b7994e37af463e79772d", "fusion_lat": 0.0, "name": "9ee29d633ad4b7994e37af463e79772d", "is_reserved": 0, "rental_uris": {"android": "https://dc.lft.to/lastmile_qr_scan", "ios": "https://dc.lft.to/lastmile_qr_scan"}, "fusion_lon": 0.0}, {"lat": 38.95956733333333, "is_disabled": 0, "type": "electric_bike", "lon": -77.100874, "bike_id": "daf12e6d19bed7425f564fc842446186", "fusion_lat": 0.0, "name": "daf12e6d19bed7425f564fc842446186", "is_reserved": 0, "rental_uris": {"android": "https://dc.lft.to/lastmile_qr_scan", "ios": "https://dc.lft.to/lastmile_qr_scan"}, "fusion_lon": 0.0}, {"lat": 38.920677833333336, "is_disabled": 0, "type": "electric_scooter", "lon": -76.9760145, "bike_id": "37d542f39281afd420429207e273e668", "fusion_lat": 0.0, "name": "37d542f39281afd420429207e273e668", "is_reserved": 0, "rental_uris": {"android": "https://dc.lft.to/lastmile_qr_scan", "ios": "https://dc.lft.to/lastmile_qr_scan"}, "fusion_lon": 0.0}, {"lat": 38.884356333333336, "is_disabled": 0, "type": "electric_scooter", "lon": -77.03035916666667, "bike_id": "48f90b065a023ec00173eb6a93c7a3f5", "fusion_lat": 0.0, "name": "48f90b065a023ec00173eb6a93c7a3f5", "is_reserved": 0, "rental_uris": {"android": "https://dc.lft.to/lastmile_qr_scan", "ios": "https://dc.lft.to/lastmile_qr_scan"}, "fusion_lon": 0.0}, {"lat": 38.9206915, "is_disabled": 0, "type": "electric_scooter", "lon": -77.043406, "bike_id": "b8911519bd009040d593b3f9aea5848e", "fusion_lat": 0.0, "name": "b8911519bd009040d593b3f9aea5848e", "is_reserved": 0, "rental_uris": {"android": "https://dc.lft.to/lastmile_qr_scan", "ios": "https://dc.lft.to/lastmile_qr_scan"}, "fusion_lon": 0.0}, {"lat": 38.93139683333333, "is_disabled": 0, "type": "electric_scooter", "lon": -77.0383715, "bike_id": "6a50c392e548a6f13d207c33d0b0d959", "fusion_lat": 0.0, "name": "6a50c392e548a6f13d207c33d0b0d959", "is_reserved": 0, "rental_uris": {"android": "https://dc.lft.to/lastmile_qr_scan", "ios": "https://dc.lft.to/lastmile_qr_scan"}, "fusion_lon": 0.0}, {"lat": 38.90361983333333, "is_disabled": 0, "type": "electric_scooter", "lon": -77.06000716666667, "bike_id": "9c84d95af44a81b5962c1975c289e059", "fusion_lat": 0.0, "name": "9c84d95af44a81b5962c1975c289e059", "is_reserved": 0, "rental_uris": {"android": "https://dc.lft.to/lastmile_qr_scan", "ios": "https://dc.lft.to/lastmile_qr_scan"}, "fusion_lon": 0.0}, {"lat": 38.89845866666667, "is_disabled": 0, "type": "electric_scooter", "lon": -77.01865233333334, "bike_id": "a6567487aa87bf92997d7f4b2afe848b", "fusion_lat": 0.0, "name": "a6567487aa87bf92997d7f4b2afe848b", "is_reserved": 0, "rental_uris": {"android": "https://dc.lft.to/lastmile_qr_scan", "ios": "https://dc.lft.to/lastmile_qr_scan"}, "fusion_lon": 0.0}, {"lat": 38.84260283333333, "is_disabled": 0, "type": "electric_scooter", "lon": -77.002342, "bike_id": "ed47a791e9d3585c5f03f54078456b10", "fusion_lat": 0.0, "name": "ed47a791e9d3585c5f03f54078456b10", "is_reserved": 0, "rental_uris": {"android": "https://dc.lft.to/lastmile_qr_scan", "ios": "https://dc.lft.to/lastmile_qr_scan"}, "fusion_lon": 0.0}, {"lat": 38.919205833333336, "is_disabled": 0, "type": "electric_scooter", "lon": -77.03178966666667, "bike_id": "b7e4b77128e9551d7ac73ecca3055606", "fusion_lat": 0.0, "name": "b7e4b77128e9551d7ac73ecca3055606", "is_reserved": 0, "rental_uris": {"android": "https://dc.lft.to/lastmile_qr_scan", "ios": "https://dc.lft.to/lastmile_qr_scan"}, "fusion_lon": 0.0}, {"lat": 38.903185666666666, "is_disabled": 0, "type": "electric_scooter", "lon": -77.06525533333334, "bike_id": "560e015d2a42da7f49914c2bfeecf37f", "fusion_lat": 0.0, "name": "560e015d2a42da7f49914c2bfeecf37f", "is_reserved": 0, "rental_uris": {"android": "https://dc.lft.to/lastmile_qr_scan", "ios": "https://dc.lft.to/lastmile_qr_scan"}, "fusion_lon": 0.0}, {"lat": 38.905534, "is_disabled": 0, "type": "electric_scooter", "lon": -77.056915, "bike_id": "8b6b7832df789a286a6703ed88ec345d", "fusion_lat": 0.0, "name": "8b6b7832df789a286a6703ed88ec345d", "is_reserved": 0, "rental_uris": {"android": "https://dc.lft.to/lastmile_qr_scan", "ios": "https://dc.lft.to/lastmile_qr_scan"}, "fusion_lon": 0.0}, {"lat": 38.955504833333336, "is_disabled": 0, "type": "electric_bike", "lon": -76.93544616666667, "bike_id": "95a5e3297f3ef78238617b3282d3fef1", "fusion_lat": 0.0, "name": "95a5e3297f3ef78238617b3282d3fef1", "is_reserved": 0, "rental_uris": {"android": "https://dc.lft.to/lastmile_qr_scan", "ios": "https://dc.lft.to/lastmile_qr_scan"}, "fusion_lon": 0.0},