{"data": {"bikes": [{"fusion_lon": 0.0, "bike_id": "f4c516f471c21c63f3eafefc8c1793f0", "name": "f4c516f471c21c63f3eafefc8c1793f0", "type": "electric_scooter", "lon": -77.04654566666666, "rental_uris": {"android": "https://dc.lft.to/lastmile_qr_scan", "ios": "https://dc.lft.to/lastmile_qr_scan"}, "lat": 38.903712166666665, "is_reserved": 0, "is_disabled": 0, "fusion_lat": 0.0}, {"fusion_lon": 0.0, "bike_id": "3423bd79ac110796e886c3e8c346821d", "name": "3423bd79ac110796e886c3e8c346821d", "type": "electric_scooter", "lon": -77.0244475, "rental_uris": {"android": "https://dc.lft.to/lastmile_qr_scan", "ios": "https://dc.lft.to/lastmile_qr_scan"}, "lat": 38.923651166666666, "is_reserved": 0, "is_disabled": 0, "fusion_lat": 0.0}, {"fusion_lon": 0.0, "bike_id": "e45da822b8f1aad77c220a5ab191ab9a", "name": "e45da822b8f1aad77c220a5ab191ab9a", "type": "electric_scooter", "lon": -76.99481616666667, "rental_uris": {"android": "https://dc.lft.to/lastmile_qr_scan", "ios": "https://dc.lft.to/lastmile_qr_scan"}, "lat": 38.862166, "is_reserved": 0, "is_disabled": 0, "fusion_lat": 0.0}, {"fusion_lon": 0.0, "bike_id": "72195eb09916e2f787a7959aae5b57d7", "name": "72195eb09916e2f787a7959aae5b57d7", "type": "electric_scooter", "lon": -77.00841783333334, "rental_uris": {"android": "https://dc.lft.to/lastmile_qr_scan", "ios": "https://dc.lft.to/lastmile_qr_scan"}, "lat": 38.906756, "is_reserved": 0, "is_disabled": 0, "fusion_lat": 0.0}, {"fusion_lon": 0.0, "bike_id": "a040f6422419428eff1e3a4bb981c2bb", "name": "a040f6422419428eff1e3a4bb981c2bb", "type": "electric_bike", "lon": -76.97330366666667, "rental_uris": {"android": "https://dc.lft.to/lastmile_qr_scan", "ios": "https://dc.lft.to/lastmile_qr_scan"}, "lat": 38.850647, "is_reserved": 0, "is_disabled": 0, "fusion_lat": 0.0}, {"fusion_lon": 0.0, "bike_id": "cbe98b89deb80753c6b382a412756202", "name": "cbe98b89deb80753c6b382a412756202", "type": "electric_scooter", "lon": -77.02481933333334, "rental_uris": {"android": "https://dc.lft.to/lastmile_qr_scan", "ios": "https://dc.lft.to/lastmile_qr_scan"}, "lat": 38.916137166666665, "is_reserved": 0, "is_disabled": 0, "fusion_lat": 0.0}, {"fusion_lon": 0.0, "bike_id": "f14552e3dfd344c74fe77edbcba3252d", "name": "f14552e3dfd344c74fe77edbcba3252d", "type": "electric_scooter", "lon": -77.07993033333334, "rental_uris": {"android": "https://dc.lft.to/lastmile_qr_scan", "ios": "https://dc.lft.to/lastmile_qr_scan"}, "lat": 38.92369216666667, "is_reserved": 0, "is_disabled": 0, "fusion_lat": 0.0}, {"fusion_lon": 0.0, "bike_id": "2037cd98b120b22fe666f899f4528216", "name": "2037cd98b120b22fe666f899f4528216", "type": "electric_scooter", "lon": -77.03964066666667, "rental_uris": {"android": "https://dc.lft.to/lastmile_qr_scan", "ios": "https://dc.lft.to/lastmile_qr_scan"}, "lat": 38.906171, "is_reserved": 0, "is_disabled": 0, "fusion_lat": 0.0}, {"fusion_lon": 0.0, "bike_id": "57a18966b0bf6e5e01b52bdc3ca79bc3", "name": "57a18966b0bf6e5e01b52bdc3ca79bc3", "type": "electric_scooter", "lon": -77.0263185, "rental_uris": {"android": "https://dc.lft.to/lastmile_qr_scan", "ios": "https://dc.lft.to/lastmile_qr_scan"}, "lat": 38.932740333333335, "is_reserved": 0, "is_disabled": 0, "fusion_lat": 0.0}, {"fusion_lon": 0.0, "bike_id": "87a7f259fe37ee5ca5d3b88f0529f91b", "name": "87a7f259fe37ee5ca5d3b88f0529f91b", "type": "electric_scooter", "lon": -77.05097266666667, "rental_uris": {"android": "https://dc.lft.to/lastmile_qr_scan", "ios": "https://dc.lft.to/lastmile_qr_scan"}, "lat": 38.92343733333333, "is_reserved": 0, "is_disabled": 0, "fusion_lat": 0.0}, {"fusion_lon": 0.0, "bike_id": "c3d991516f7a042645cf4c947f9e8fd5", "name": "c3d991516f7a042645cf4c947f9e8fd5", "type": "electric_scooter", "lon": -77.03846516666667, "rental_uris": {"android": "https://dc.lft.to/lastmile_qr_scan", "ios": "https://dc.lft.to/lastmile_qr_scan"}, "lat": 38.91008883333333, "is_reserved": 0, "is_disabled": 0, "fusion_lat": 0.0}, {"fusion_lon": 0.0, "bike_id": "ac90ce1059bdaa62b1ea5b05d6241a8a", "name": "ac90ce1059bdaa62b1ea5b05d6241a8a", "type": "electric_bike", "lon": -77.01305766666667, "rental_uris": {"android": "https://dc.lft.to/lastmile_qr_scan", "ios": "https://dc.lft.to/lastmile_qr_scan"}, "lat": 38.881367, "is_reserved": 0, "is_disabled": 0, "fusion_lat": 0.0}, {"fusion_lon": 0.0, "bike_id": "b8e80d1858a854e2b7124edfc632126a", "name": "b8e80d1858a854e2b7124edfc632126a", "type": "electric_scooter", "lon": -77.0401145, "rental_uris": {"android": "https://dc.lft.to/lastmile_qr_scan", "ios": "https://dc.lft.to/lastmile_qr_scan"}, "lat": 38.92198033333333, "is_reserved": 0, "is_disabled": 0, "fusion_lat": 0.0}, {"fusion_lon": 0.0, "bike_id": "b20764b5ec6157e00309bce77ada7d03", "name": "b20764b5ec6157e00309bce77ada7d03", "type": "electric_bike", "lon": -77.112173, "rental_uris": {"android": "https://dc.lft.to/lastmile_qr_scan", "ios": "https://dc.lft.to/lastmile_qr_scan"}, "lat": 38.828711, "is_reserved": 0, "is_disabled": 0, "fusion_lat": 0.0}, {"fusion_lon": 0.0, "bike_id": "610c79ae88fe7805805cda23bfffeb88", "name": "610c79ae88fe7805805cda23bfffeb88", "type": "electric_bike", "lon": -76.87495583333333, "rental_uris": {"android": "https://dc.lft.to/lastmile_qr_scan", "ios": "https://dc.lft.to/lastmile_qr_scan"}, "lat": 38.9909, "is_reserved": 0, "is_disabled": 0, "fusion_lat": 0.0}, {"fusion_lon": 0.0, "bike_id": "ec11d6cb76edc318dbd3772511feb253", "name": "ec11d6cb76edc318dbd3772511feb253", "type": "electric_scooter", "lon": -76.9821455, "rental_uris": {"android": "https://dc.lft.to/lastmile_qr_scan", "ios": "https://dc.lft.to/lastmile_qr_scan"}, "lat": 38.902054666666665, "is_reserved": 0, "is_disabled": 0, "fusion_lat": 0.0}, {"fusion_lon": 0.0, "bike_id": "7ad79c98e2408740be0a29de7b870c7f", "name": "7ad79c98e2408740be0a29de7b870c7f", "type": "electric_scooter", "lon": -76.93160116666667, "rental_uris": {"android": "https://dc.lft.to/lastmile_qr_scan", "ios": "https://dc.lft.to/lastmile_qr_scan"}, "lat": 38.898782, "is_reserved": 0, "is_disabled": 0, "fusion_lat": 0.0}, {"fusion_lon": 0.0, "bike_id": "f29ca5cb529ca442f57a97690d185f9f", "name": "f29ca5cb529ca442f57a97690d185f9f", "type": "electric_scooter", "lon": -77.027352, "rental_uris": {"android": "https://dc.lft.to/lastmile_qr_scan", "ios": "https://dc.lft.to/lastmile_qr_scan"}, "lat": 38.90136783333333, "is_reserved": 0, "is_disabled": 0, "fusion_lat": 0.0}, {"fusion_lon": 0.0, "bike_id": "50938467806c195806f042d1e4eff420", "name": "50938467806c195806f042d1e4eff420", "type": "electric_scooter", "lon": -77.024819, "rental_uris": {"android": "https://dc.lft.to/lastmile_qr_scan", "ios": "https://dc.lft.to/lastmile_qr_scan"}, "lat": 38.903158833333336, "is_reserved": 0, "is_disabled": 0, "fusion_lat": 0.0}, {"fusion_lon": 0.0, "bike_id": "60cfa9a021d58e34f3ff275ac3f16133", "name": "60cfa9a021d58e34f3ff275ac3f16133", "type": "electric_scooter", "lon": -77.0335115, "rental_uris": {"android": "https://dc.lft.to/lastmile_qr_scan", "ios": "https://dc.lft.to/lastmile_qr_scan"}, "lat": 38.91716733333333, "is_reserved": 0, "is_disabled": 0, "fusion_lat": 0.0}, {"fusion_lon": 0.0, "bike_id": "cd29a18c7278ff5e665e2088d2920af6", "name": "cd29a18c7278ff5e665e2088d2920af6", "type": "electric_bike", "lon": -77.07903366666666, "rental_uris": {"android": "https://dc.lft.to/lastmile_qr_scan", "ios": "https://dc.lft.to/lastmile_qr_scan"}, "lat": 38.839404, "is_reserved": 0, "is_disabled": 0, "fusion_lat": 0.0}, {"fusion_lon": 0.0, "bike_id": "4af8ec02eeced5e705109e7a0d7507e7", "name": "4af8ec02eeced5e705109e7a0d7507e7", "type": "electric_scooter", "lon": -77.0339645, "rental_uris": {"android": "https://dc.lft.to/lastmile_qr_scan", "ios": "https://dc.lft.to/lastmile_qr_scan"}, "lat": 38.91963633333334, "is_reserved": 0, "is_disabled": 0, "fusion_lat": 0.0}, {"fusion_lon": 0.0, "bike_id": "79aaf874943fc3a015087ae4492f4c58", "name": "79aaf874943fc3a015087ae4492f4c58", "type": "electric_scooter", "lon": -77.0394115, "rental_uris": {"android": "https://dc.lft.to/lastmile_qr_scan", "ios": "https://dc.lft.to/lastmile_qr_scan"}, "lat": 38.9081375, "is_reserved": 0, "is_disabled": 0, "fusion_lat": 0.0}, {"fusion_lon": 0.0, "bike_id": "1ffe23bcd7d5fa7a53c4ad9c5b3e5710", "name": "1ffe23bcd7d5fa7a53c4ad9c5b3e5710", "type": "electric_scooter", "lon": -77.0088485, "rental_uris": {"android": "https://dc.lft.to/lastmile_qr_scan", "ios": "https://dc.lft.to/lastmile_qr_scan"}, "lat": 38.90558766666667, "is_reserved": 0, "is_disabled": 0, "fusion_lat": 0.0}, {"fusion_lon": 0.0, "bike_id": "d21acdb512e07572e5b7fba46b655a61", "name": "d21acdb512e07572e5b7fba46b655a61", "type": "electric_scooter", "lon": -77.02546683333334, "rental_uris": {"android": "https://dc.lft.to/lastmile_qr_scan", "ios": "https://dc.lft.to/lastmile_qr_scan"}, "lat": 38.90726466666667, "is_reserved": 0, "is_disabled": 0, "fusion_lat": 0.0}, {"fusion_lon": 0.0, "bike_id": "59cda1afef342451ff0212a54ab36d6d", "name": "59cda1afef342451ff0212a54ab36d6d", "type": "electric_bike", "lon": -77.11418216666667, "rental_uris": {"android": "https://dc.lft.to/lastmile_qr_scan", "ios": "https://dc.lft.to/lastmile_qr_scan"}, "lat": 38.842795833333334, "is_reserved": 0, "is_disabled": 0, "fusion_lat": 0.0}, {"fusion_lon": 0.0, "bike_id": "2999509a429865f9037cd3b256d054ed", "name": "2999509a429865f9037cd3b256d054ed", "type": "electric_scooter", "lon": -77.03297516666666, "rental_uris": {"android": "https://dc.lft.to/lastmile_qr_scan", "ios": "https://dc.lft.to/lastmile_qr_scan"}, "lat": 38.92255, "is_reserved": 0, "is_disabled": 0, "fusion_lat": 0.0}, {"fusion_lon": 0.0, "bike_id": "9fd4b437232f84838f90ff41defcb564", "name": "9fd4b437232f84838f90ff41defcb564", "type": "electric_bike", "lon": -76.944716, "rental_uris": {"android": "https://dc.lft.to/lastmile_qr_scan", "ios": "https://dc.lft.to/lastmile_qr_scan"}, "lat": 38.945586, "is_reserved": 0, "is_disabled": 0, "fusion_lat": 0.0}, {"fusion_lon": 0.0, "bike_id": "59eb863f3aa911e97f395d1b0904d49f", "name": "59eb863f3aa911e97f395d1b0904d49f", "type": "electric_scooter", "lon": -77.01015983333333, "rental_uris": {"android": "https://dc.lft.to/lastmile_qr_scan", "ios": "https://dc.lft.to/lastmile_qr_scan"}, "lat": 38.879665833333334, "is_reserved": 0, "is_disabled": 0, "fusion_lat": 0.0}, {"fusion_lon": 0.0, "bike_id": "f37ad5d6dd238d5a2639a938766846ad", "name": "f37ad5d6dd238d5a2639a938766846ad", "type": "electric_bike", "lon": -77.06174916666667, "rental_uris": {"android": "https://dc.lft.to/lastmile_qr_scan", "ios": "https://dc.lft.to/lastmile_qr_scan"}, "lat": 38.812717666666664, "is_reserved": 0, "is_disabled": 0, "fusion_lat": 0.0}, {"fusion_lon": 0.0, "bike_id": "b994085dcfacab1732bb3826ce5a3058", "name": "b994085dcfacab1732bb3826ce5a3058", "type": "electric_scooter", "lon": -77.037739, "rental_uris": {"android": "https://dc.lft.to/lastmile_qr_scan", "ios": "https://dc.lft.to/lastmile_qr_scan"}, "lat": 38.936198, "is_reserved": 0, "is_disabled": 0, "fusion_lat": 0.0}, {"fusion_lon": 0.0, "bike_id": "e8e19178e7f54c626d7612fff543e6b6", "name": "e8e19178e7f54c626d7612fff543e6b6", "type": "electric_scooter", "lon": -77.02203633333333, "rental_uris": {"android": "https://dc.lft.to/lastmile_qr_scan", "ios": "https://dc.lft.to/lastmile_qr_scan"}, "lat": 38.915315666666665, "is_reserved": 0, "is_disabled": 0, "fusion_lat": 0.0}, {"fusion_lon": 0.0, "bike_id": "19364b72ab98e462138b89a118729ebf", "name": "19364b72ab98e462138b89a118729ebf", "type": "electric_scooter", "lon": -76.97182533333333, "rental_uris": {"android": "https://dc.lft.to/lastmile_qr_scan", "ios": "https://dc.lft.to/lastmile_qr_scan"}, "lat": 38.91262066666667, "is_reserved": 0, "is_disabled": 0, "fusion_lat": 0.0}, {"fusion_lon": 0.0, "bike_id": "2ba7fa26622d67c29d6d127c66d42b1b", "name": "2ba7fa26622d67c29d6d127c66d42b1b", "type": "electric_scooter", "lon": -77.040866, "rental_uris": {"android": "https://dc.lft.to/lastmile_qr_scan", "ios": "https://dc.lft.to/lastmile_qr_scan"}, "lat": 38.916974333333336, "is_reserved": 0, "is_disabled": 0, "fusion_lat": 0.0}, {"fusion_lon": 0.0, "bike_id": "ef4fce91f4e356f6a3c4d89aed6c052a", "name": "ef4fce91f4e356f6a3c4d89aed6c052a", "type": "electric_scooter", "lon": -77.020859, "rental_uris": {"android": "https://dc.lft.to/lastmile_qr_scan", "ios": "https://dc.lft.to/lastmile_qr_scan"}, "lat": 38.90967533333333, "is_reserved": 0, "is_disabled": 0, "fusion_lat": 0.0}, {"fusion_lon": 0.0, "bike_id": "f77798e2bc3a22a31378b06feb44a341", "name": "f77798e2bc3a22a31378b06feb44a341", "type": "electric_scooter", "lon": -77.02329066666667, "rental_uris": {"android": "https://dc.lft.to/lastmile_qr_scan", "ios": "https://dc.lft.to/lastmile_qr_scan"}, "lat": 38.92700883333333, "is_reserved": 0, "is_disabled": 0, "fusion_lat": 0.0}, {"fusion_lon": 0.0, "bike_id": "aee5eccea2e89c7faa83c75c20602b9c", "name": "aee5eccea2e89c7faa83c75c20602b9c", "type": "electric_scooter", "lon": -77.02692466666667, "rental_uris": {"android": "https://dc.lft.to/lastmile_qr_scan", "ios": "https://dc.lft.to/lastmile_qr_scan"}, "lat": 38.8983185, "is_reserved": 0, "is_disabled": 0, "fusion_lat": 0.0}, {"fusion_lon": 0.0, "bike_id": "2912e2075bc05d25d3f7de2b90633d4c", "name": "2912e2075bc05d25d3f7de2b90633d4c", "type": "electric_scooter", "lon": -77.02583083333333, "rental_uris": {"android": "https://dc.lft.to/lastmile_qr_scan", "ios": "https://dc.lft.to/lastmile_qr_scan"}, "lat": 38.920331166666664, "is_reserved": 0, "is_disabled": 0, "fusion_lat": 0.0}, {"fusion_lon": 0.0, "bike_id": "c539ccf2c00c8d9881890768e850ce59", "name": "c539ccf2c00c8d9881890768e850ce59", "type": "electric_scooter", "lon": -77.02119166666667, "rental_uris": {"android": "https://dc.lft.to/lastmile_qr_scan", "ios": "https://dc.lft.to/lastmile_qr_scan"}, "lat": 38.917404166666664, "is_reserved": 0, "is_disabled": 0, "fusion_lat": 0.0}, {"fusion_lon": 0.0, "bike_id": "1d70d5508039aedef2bf2110ffff0513", "name": "1d70d5508039aedef2bf2110ffff0513", "type": "electric_scooter", "lon": -77.00563533333333, "rental_uris": {"android": "https://dc.lft.to/lastmile_qr_scan", "ios": "https://dc.lft.to/lastmile_qr_scan"}, "lat": 38.88501633333333, "is_reserved": 0, "is_disabled": 0, "fusion_lat": 0.0}, {"fusion_lon": 0.0, "bike_id": "f278ceeb336289d55f055eab4b9816b8", "name": "f278ceeb336289d55f055eab4b9816b8", "type": "electric_scooter", "lon": -76.986866, "rental_uris": {"android": "https://dc.lft.to/lastmile_qr_scan", "ios": "https://dc.lft.to/lastmile_qr_scan"}, "lat": 38.885305833333334, "is_reserved": 0, "is_disabled": 0, "fusion_lat": 0.0}, {"fusion_lon": 0.0, "bike_id": "db8a0105f65341e99830999b48fcea25", "name": "db8a0105f65341e99830999b48fcea25", "type": "electric_scooter", "lon": -77.02947083333333, "rental_uris": {"android": "https://dc.lft.to/lastmile_qr_scan", "ios": "https://dc.lft.to/lastmile_qr_scan"}, "lat": 38.905041, "is_reserved": 0, "is_disabled": 0, "fusion_lat": 0.0}, {"fusion_lon": 0.0, "bike_id": "798e351db287296f15f565f7e95cb76b", "name": "798e351db287296f15f565f7e95cb76b", "type": "electric_bike", "lon": -76.97200333333333, "rental_uris": {"android": "https://dc.lft.to/lastmile_qr_scan", "ios": "https://dc.lft.to/lastmile_qr_scan"}, "lat": 38.892494666666664, "is_reserved": 0, "is_disabled": 0, "fusion_lat": 0.0}, {"fusion_lon": 0.0, "bike_id": "96c9e8ce5a02749fca403c4492547cc0", "name": "96c9e8ce5a02749fca403c4492547cc0", "type": "electric_scooter", "lon": -77.0440245, "rental_uris": {"android": "https://dc.lft.to/lastmile_qr_scan", "ios": "https://dc.lft.to/lastmile_qr_scan"}, "lat": 38.89396466666667, "is_reserved": 0, "is_disabled": 0, "fusion_lat": 0.0}, {"fusion_lon": 0.0, "bike_id": "d6adb562af0282c86267206c1a012711", "name": "d6adb562af0282c86267206c1a012711", "type": "electric_scooter", "lon": -77.02289333333333, "rental_uris": {"android": "https://dc.lft.to/lastmile_qr_scan", "ios": "https://dc.lft.to/lastmile_qr_scan"}, "lat": 38.901599166666664, "is_reserved": 0, "is_disabled": 0, "fusion_lat": 0.0}, {"fusion_lon": 0.0, "bike_id": "77fb02d494226d072a3424748dbb0b69", "name": "77fb02d494226d072a3424748dbb0b69", "type": "electric_scooter", "lon": -77.01372516666666, "rental_uris": {"android": "https://dc.lft.to/lastmile_qr_scan", "ios": "https://dc.lft.to/lastmile_qr_scan"}, "lat": 38.8922225, "is_reserved": 0, "is_disabled": 0, "fusion_lat": 0.0}, {"fusion_lon": 0.0, "bike_id": "891a47e544fba11b94bc26594fc6198c", "name": "891a47e544fba11b94bc26594fc6198c", "type": "electric_bike", "lon": -77.007993, "rental_uris": {"android": "https://dc.lft.to/lastmile_qr_scan", "ios": "https://dc.lft.to/lastmile_qr_scan"}, "lat": 38.897179333333334, "is_reserved": 0, "is_disabled": 0, "fusion_lat": 0.0}, {"fusion_lon": 0.0, "bike_id": "a9faee6022d48a84aff1c0726d6d62ba", "name": "a9faee6022d48a84aff1c0726d6d62ba", "type": "electric_scooter", "lon": -77.04605383333333, "rental_uris": {"android": "https://dc.lft.to/lastmile_qr_scan", "ios": "https://dc.lft.to/lastmile_qr_scan"}, "lat": 38.900711, "is_reserved": 0, "is_disabled": 0, "fusion_lat": 0.0}, {"fusion_lon": 0.0, "bike_id": "91a38ae1a7249471db14bf76c1bcb9c0", "name": "91a38ae1a7249471db14bf76c1bcb9c0", "type": "electric_scooter", "lon": -77.017767, "rental_uris": {"android": "https://dc.lft.to/lastmile_qr_scan", "ios": "https://dc.lft.to/lastmile_qr_scan"}, "lat": 38.87712916666667, "is_reserved": 0, "is_disabled": 0, "fusion_lat": 0.0}, {"fusion_lon": 0.0, "bike_id": "ac3a29eaaae31f4bc2b6d5f6b50d4c79", "name": "ac3a29eaaae31f4bc2b6d5f6b50d4c79", "type": "electric_scooter", "lon": -77.02634216666667, "rental_uris": {"android": "https://dc.lft.to/lastmile_qr_scan", "ios": "https://dc.lft.to/lastmile_qr_scan"}, "lat": 38.9805505, "is_reserved": 0, "is_disabled": 0, "fusion_lat": 0.0}, {"fusion_lon": 0.0, "bike_id": "5b26cccd92833b48e4cc181b28839390", "name": "5b26cccd92833b48e4cc181b28839390", "type": "electric_bike", "lon": -77.00577, "rental_uris": {"android": "https://dc.lft.to/lastmile_qr_scan", "ios": "https://dc.lft.to/lastmile_qr_scan"}, "lat": 38.90278433333334, "is_reserved": 0, "is_disabled": 0, "fusion_lat": 0.0}, {"fusion_lon": 0.0, "bike_id": "5dadedec447cc5228380c96d1e24a05e", "name": "5dadedec447cc5228380c96d1e24a05e", "type": "electric_scooter", "lon": -76.9968245, "rental_uris": {"android": "https://dc.lft.to/lastmile_qr_scan", "ios": "https://dc.lft.to/lastmile_qr_scan"}, "lat": 38.887006166666666, "is_reserved": 0, "is_disabled": 0, "fusion_lat": 0.0}, {"fusion_lon": 0.0, "bike_id": "0512d7dd40d27f9ea82c9c4e314bb72e", "name": "0512d7dd40d27f9ea82c9c4e314bb72e", "type": "electric_scooter", "lon": -77.00057416666667, "rental_uris": {"android": "https://dc.lft.to/lastmile_qr_scan", "ios": "https://dc.lft.to/lastmile_qr_scan"}, "lat": 38.88899283333333, "is_reserved": 0, "is_disabled": 0, "fusion_lat": 0.0}, {"fusion_lon": 0.0, "bike_id": "d79c32a9ba7c72996b86d4b5bc219c93", "name": "d79c32a9ba7c72996b86d4b5bc219c93", "type": "electric_scooter", "lon": -77.06216866666666, "rental_uris": {"android": "https://dc.lft.to/lastmile_qr_scan", "ios": "https://dc.lft.to/lastmile_qr_scan"}, "lat": 38.90527066666667, "is_reserved": 0, "is_disabled": 0, "fusion_lat": 0.0}, {"fusion_lon": 0.0, "bike_id": "8a25097d38cd108843ca9a9e38d30602", "name": "8a25097d38cd108843ca9a9e38d30602", "type": "electric_scooter", "lon": -77.03107816666666, "rental_uris": {"android": "https://dc.lft.to/lastmile_qr_scan", "ios": "https://dc.lft.to/lastmile_qr_scan"}, "lat": 38.9296885, "is_reserved": 0, "is_disabled": 0, "fusion_lat": 0.0}, {"fusion_lon": 0.0, "bike_id": "6eeca41c387225041a24a16d98579590", "name": "6eeca41c387225041a24a16d98579590", "type": "electric_scooter", "lon": -77.02608116666667, "rental_uris": {"android": "https://dc.lft.to/lastmile_qr_scan", "ios": "https://dc.lft.to/lastmile_qr_scan"}, "lat": 38.924432833333334, "is_reserved": 0, "is_disabled": 0, "fusion_lat": 0.0}, {"fusion_lon": 0.0, "bike_id": "8ea8c228e1e26a539d72a0a167827943", "name": "8ea8c228e1e26a539d72a0a167827943", "type": "electric_scooter", "lon": -76.96521033333333, "rental_uris": {"android": "https://dc.lft.to/lastmile_qr_scan", "ios": "https://dc.lft.to/lastmile_qr_scan"}, "lat": 38.876267666666664, "is_reserved": 0, "is_disabled": 0, "fusion_lat": 0.0}, {"fusion_lon": 0.0, "bike_id": "14d9ca860b05c190c15fbcef431d4e92", "name": "14d9ca860b05c190c15fbcef431d4e92", "type": "electric_scooter", "lon": -77.03216716666667, "rental_uris": {"android": "https://dc.lft.to/lastmile_qr_scan", "ios": "https://dc.lft.to/lastmile_qr_scan"}, "lat": 38.91865683333333, "is_reserved": 0, "is_disabled": 0, "fusion_lat": 0.0}, {"fusion_lon": 0.0, "bike_id": "8c35bfc04c1d463b01e75accc1936930", "name": "8c35bfc04c1d463b01e75accc1936930", "type": "electric_bike", "lon": -76.9456995, "rental_uris": {"android": "https://dc.lft.to/lastmile_qr_scan", "ios": "https://dc.lft.to/lastmile_qr_scan"}, "lat": 38.866248166666665, "is_reserved": 0, "is_disabled": 0, "fusion_lat": 0.0}, {"fusion_lon": 0.0, "bike_id": "f95e98118080ad56fb9cca384286d529", "name": "f95e98118080ad56fb9cca384286d529", "type": "electric_scooter", "lon": -77.06889733333334, "rental_uris": {"android": "https://dc.lft.to/lastmile_qr_scan", "ios": "https://dc.lft.to/lastmile_qr_scan"}, "lat": 38.905118, "is_reserved": 0, "is_disabled": 0, "fusion_lat": 0.0}, {"fusion_lon": 0.0, "bike_id": "9d09431c349fc27b0d584f3a90623383", "name": "9d09431c349fc27b0d584f3a90623383", "type": "electric_scooter", "lon": -77.046988, "rental_uris": {"android": "https://dc.lft.to/lastmile_qr_scan", "ios": "https://dc.lft.to/lastmile_qr_scan"}, "lat": 38.9165945, "is_reserved": 0, "is_disabled": 0, "fusion_lat": 0.0}, {"fusion_lon": 0.0, "bike_id": "4756b622db479affbaaac368fd201ecd", "name": "4756b622db479affbaaac368fd201ecd", "type": "electric_scooter", "lon": -77.05089916666667, "rental_uris": {"android": "https://dc.lft.to/lastmile_qr_scan", "ios": "https://dc.lft.to/lastmile_qr_scan"}, "lat": 38.905141, "is_reserved": 0, "is_disabled": 0, "fusion_lat": 0.0}, {"fusion_lon": 0.0, "bike_id": "80ce9914c5d3e82a6ab2a8f56819b772", "name": "80ce9914c5d3e82a6ab2a8f56819b772", "type": "electric_scooter", "lon": -77.06028033333334, "rental_uris": {"android": "https://dc.lft.to/lastmile_qr_scan", "ios": "https://dc.lft.to/lastmile_qr_scan"}, "lat": 38.939347, "is_reserved": 0, "is_disabled": 0, "fusion_lat": 0.0}, {"fusion_lon": 0.0, "bike_id": "dd70843622f725e7f4a1af37b77c595d", "name": "dd70843622f725e7f4a1af37b77c595d", "type": "electric_scooter", "lon": -77.038998, "rental_uris": {"android": "https://dc.lft.to/lastmile_qr_scan", "ios": "https://dc.lft.to/lastmile_qr_scan"}, "lat": 38.906571166666666, "is_reserved": 0, "is_disabled": 0, "fusion_lat": 0.0}, {"fusion_lon": 0.0, "bike_id": "1cf8145dbfac716a0f8d06aa1e00595a", "name": "1cf8145dbfac716a0f8d06aa1e00595a", "type": "electric_bike", "lon": -77.02104266666667, "rental_uris": {"android": "https://dc.lft.to/lastmile_qr_scan", "ios": "https://dc.lft.to/lastmile_qr_scan"}, "lat": 39.02296333333334, "is_reserved": 0, "is_disabled": 0, "fusion_lat": 0.0}, {"fusion_lon": 0.0, "bike_id": "3703509d288bc28409a89a0ebb285bf5", "name": "3703509d288bc28409a89a0ebb285bf5", "type": "electric_scooter", "lon": -77.00587133333333, "rental_uris": {"android": "https://dc.lft.to/lastmile_qr_scan", "ios": "https://dc.lft.to/lastmile_qr_scan"}, "lat": 38.88525933333333, "is_reserved": 0, "is_disabled": 0, "fusion_lat": 0.0}, {"fusion_lon": 0.0, "bike_id": "e1a27d9a8e700fe074c8ba1e650f2a43", "name": "e1a27d9a8e700fe074c8ba1e650f2a43", "type": "electric_scooter", "lon": -77.03941616666667, "rental_uris": {"android": "https://dc.lft.to/lastmile_qr_scan", "ios": "https://dc.lft.to/lastmile_qr_scan"}, "lat": 38.909575833333335, "is_reserved": 0, "is_disabled": 0, "fusion_lat": 0.0}, {"fusion_lon": 0.0, "bike_id": "fc4dec48aa53677b74bc5e5016298899", "name": "fc4dec48aa53677b74bc5e5016298899", "type": "electric_scooter", "lon": -77.047856, "rental_uris": {"android": "https://dc.lft.to/lastmile_qr_scan", "ios": "https://dc.lft.to/lastmile_qr_scan"}, "lat": 38.9023185, "is_reserved": 0, "is_disabled": 0, "fusion_lat": 0.0}, {"fusion_lon": 0.0, "bike_id": "6e9dd83c9fad440d2c320ca855dd6e6e", "name": "6e9dd83c9fad440d2c320ca855dd6e6e", "type": "electric_scooter", "lon": -77.022299, "rental_uris": {"android": "https://dc.lft.to/lastmile_qr_scan", "ios": "https://dc.lft.to/lastmile_qr_scan"}, "lat": 38.88766733333333, "is_reserved": 0, "is_disabled": 0, "fusion_lat": 0.0}, {"fusion_lon": 0.0, "bike_id": "a0ee9314f6d951c74778e9285c635a4f", "name": "a0ee9314f6d951c74778e9285c635a4f", "type": "electric_scooter", "lon": -77.07435716666667, "rental_uris": {"android": "https://dc.lft.to/lastmile_qr_scan", "ios": "https://dc.lft.to/lastmile_qr_scan"}, "lat": 38.91093033333333, "is_reserved": 0, "is_disabled": 0, "fusion_lat": 0.0}, {"fusion_lon": 0.0, "bike_id": "5508436854b40c07181d31848a00362e", "name": "5508436854b40c07181d31848a00362e", "type": "electric_scooter", "lon": -77.00914283333333, "rental_uris": {"android": "https://dc.lft.to/lastmile_qr_scan", "ios": "https://dc.lft.to/lastmile_qr_scan"}, "lat": 38.959511, "is_reserved": 0, "is_disabled": 0, "fusion_lat": 0.0}, {"fusion_lon": 0.0, "bike_id": "f9175c24ed78fca1ebe0347d17134e2a", "name": "f9175c24ed78fca1ebe0347d17134e2a", "type": "electric_scooter", "lon": -77.02443233333334, "rental_uris": {"android": "https://dc.lft.to/lastmile_qr_scan", "ios": "https://dc.lft.to/lastmile_qr_scan"}, "lat": 38.93753866666667, "is_reserved": 0, "is_disabled": 0, "fusion_lat": 0.0}, {"fusion_lon": 0.0, "bike_id": "1d164ecbbfeaf9b957f346a5c724e213", "name": "1d164ecbbfeaf9b957f346a5c724e213", "type": "electric_bike", "lon": -77.1290195, "rental_uris": {"android": "https://dc.lft.to/lastmile_qr_scan", "ios": "https://dc.lft.to/lastmile_qr_scan"}, "lat": 38.86376083333333, "is_reserved": 0, "is_disabled": 0, "fusion_lat": 0.0}, {"fusion_lon": 0.0, "bike_id": "0cadf15704d6f4d0810f5517b14868a4", "name": "0cadf15704d6f4d0810f5517b14868a4", "type": "electric_scooter", "lon": -76.99956266666666, "rental_uris": {"android": "https://dc.lft.to/lastmile_qr_scan", "ios": "https://dc.lft.to/lastmile_qr_scan"}, "lat": 38.90380433333333, "is_reserved": 0, "is_disabled": 0, "fusion_lat": 0.0}, {"fusion_lon": 0.0, "bike_id": "f8082b811d3d6799eb7f36b587523c75", "name": "f8082b811d3d6799eb7f36b587523c75", "type": "electric_scooter", "lon": -77.046872, "rental_uris": {"android": "https://dc.lft.to/lastmile_qr_scan", "ios": "https://dc.lft.to/lastmile_qr_scan"}, "lat": 38.91585766666667, "is_reserved": 0, "is_disabled": 0, "fusion_lat": 0.0}, {"fusion_lon": 0.0, "bike_id": "065d0bfec0feb8c3eb1395ee528d5e83", "name": "065d0bfec0feb8c3eb1395ee528d5e83", "type": "electric_scooter", "lon": -77.0326075, "rental_uris": {"android": "https://dc.lft.to/lastmile_qr_scan", "ios": "https://dc.lft.to/lastmile_qr_scan"}, "lat": 38.91484, "is_reserved": 0, "is_disabled": 0, "fusion_lat": 0.0}, {"fusion_lon": 0.0, "bike_id": "03d7ef8b1da2f6b13d39604b433b4c78", "name": "03d7ef8b1da2f6b13d39604b433b4c78", "type": "electric_scooter", "lon": -77.04393183333333, "rental_uris": {"android": "https://dc.lft.to/lastmile_qr_scan", "ios": "https://dc.lft.to/lastmile_qr_scan"}, "lat": 38.91108833333333, "is_reserved": 0, "is_disabled": 0, "fusion_lat": 0.0}, {"fusion_lon": 0.0, "bike_id": "358666eac24637f1f0b1ade4dd27caf0", "name": "358666eac24637f1f0b1ade4dd27caf0", "type": "electric_scooter", "lon": -77.024266, "rental_uris": {"android": "https://dc.lft.to/lastmile_qr_scan", "ios": "https://dc.lft.to/lastmile_qr_scan"}, "lat": 38.92756333333333, "is_reserved": 0, "is_disabled": 0, "fusion_lat": 0.0}, {"fusion_lon": 0.0, "bike_id": "c1be36dd84895053925ff0d958feaca2", "name": "c1be36dd84895053925ff0d958feaca2", "type": "electric_scooter", "lon": -77.03168566666666, "rental_uris": {"android": "https://dc.lft.to/lastmile_qr_scan", "ios": "https://dc.lft.to/lastmile_qr_scan"}, "lat": 38.8932525, "is_reserved": 0, "is_disabled": 0, "fusion_lat": 0.0}, {"fusion_lon": 0.0, "bike_id": "91c0c98725d002d480b0ff7197fbea5d", "name": "91c0c98725d002d480b0ff7197fbea5d", "type": "electric_scooter", "lon": -77.02124716666667, "rental_uris": {"android": "https://dc.lft.to/lastmile_qr_scan", "ios": "https://dc.lft.to/lastmile_qr_scan"}, "lat": 38.899462, "is_reserved": 0, "is_disabled": 0, "fusion_lat": 0.0}, {"fusion_lon": 0.0, "bike_id": "d7dfd9ecf5409ce8a33fb481303d7286", "name": "d7dfd9ecf5409ce8a33fb481303d7286", "type": "electric_scooter", "lon": -77.0058435, "rental_uris": {"android": "https://dc.lft.to/lastmile_qr_scan", "ios": "https://dc.lft.to/lastmile_qr_scan"}, "lat": 38.871709333333335, "is_reserved": 0, "is_disabled": 0, "fusion_lat": 0.0}, {"fusion_lon": 0.0, "bike_id": "8e283f904ff8eff58bcc975d851d1b75", "name": "8e283f904ff8eff58bcc975d851d1b75", "type": "electric_scooter", "lon": -77.022036, "rental_uris": {"android": "https://dc.lft.to/lastmile_qr_scan", "ios": "https://dc.lft.to/lastmile_qr_scan"}, "lat": 38.915331, "is_reserved": 0, "is_disabled": 0, "fusion_lat": 0.0}, {"fusion_lon": 0.0, "bike_id": "0063bdca9b06b8e0bdf22fa542ea215e", "name": "0063bdca9b06b8e0bdf22fa542ea215e", "type": "electric_scooter", "lon": -77.02610733333333, "rental_uris": {"android": "https://dc.lft.to/lastmile_qr_scan", "ios": "https://dc.lft.to/lastmile_qr_scan"}, "lat": 38.90045466666667, "is_reserved": 0, "is_disabled": 0, "fusion_lat": 0.0}, {"fusion_lon": 0.0, "bike_id": "2969095a80ac206d8a1a6ba4621c2f08", "name": "2969095a80ac206d8a1a6ba4621c2f08", "type": "electric_bike", "lon": -76.9075555, "rental_uris": {"android": "https://dc.lft.to/lastmile_qr_scan", "ios": "https://dc.lft.to/lastmile_qr_scan"}, "lat": 38.92437116666667, "is_reserved": 0, "is_disabled": 0, "fusion_lat": 0.0}, {"fusion_lon": 0.0, "bike_id": "a0c2fba5ff34b826faf7d8b661ed2a27", "name": "a0c2fba5ff34b826faf7d8b661ed2a27", "type": "electric_scooter", "lon": -77.09215916666666, "rental_uris": {"android": "https://dc.lft.to/lastmile_qr_scan", "ios": "https://dc.lft.to/lastmile_qr_scan"}, "lat": 38.9170385, "is_reserved": 0, "is_disabled": 0, "fusion_lat": 0.0}, {"fusion_lon": 0.0, "bike_id": "b5e13a4cb214e0683358752de884fd98", "name": "b5e13a4cb214e0683358752de884fd98", "type": "electric_scooter", "lon": -77.00447633333333, "rental_uris": {"android": "https://dc.lft.to/lastmile_qr_scan", "ios": "https://dc.lft.to/lastmile_qr_scan"}, "lat": 38.928993166666665, "is_reserved": 0, "is_disabled": 0, "fusion_lat": 0.0}, {"fusion_lon": 0.0, "bike_id": "16f98903d03dbd8a2480c26a76aeb96e", "name": "16f98903d03dbd8a2480c26a76aeb96e", "type": "electric_scooter", "lon": -77.03262616666666, "rental_uris": {"android": "https://dc.lft.to/lastmile_qr_scan", "ios": "https://dc.lft.to/lastmile_qr_scan"}, "lat": 38.9352195, "is_reserved": 0, "is_disabled": 0, "fusion_lat": 0.0}, {"fusion_lon": 0.0, "bike_id": "95173a1a29653a8d5f26d50f313ef65c", "name": "95173a1a29653a8d5f26d50f313ef65c", "type": "electric_scooter", "lon": -77.03637583333334, "rental_uris": {"android": "https://dc.lft.to/lastmile_qr_scan", "ios": "https://dc.lft.to/lastmile_qr_scan"}, "lat": 38.93668733333333, "is_reserved": 0, "is_disabled": 0, "fusion_lat": 0.0}, {"fusion_lon": 0.0, "bike_id": "f876bf6eee102c7670b30cf68640444e", "name": "f876bf6eee102c7670b30cf68640444e", "type": "electric_scooter", "lon": -77.04748716666667, "rental_uris": {"android": "https://dc.lft.to/lastmile_qr_scan", "ios": "https://dc.lft.to/lastmile_qr_scan"}, "lat": 38.90535533333333, "is_reserved": 0, "is_disabled": 0, "fusion_lat": 0.0}, {"fusion_lon": 0.0, "bike_id": "a970e1da0d05d3b0f1139f04c1f1a1dc", "name": "a970e1da0d05d3b0f1139f04c1f1a1dc", "type": "electric_scooter", "lon": -77.0215845, "rental_uris": {"android": "https://dc.lft.to/lastmile_qr_scan", "ios": "https://dc.lft.to/lastmile_qr_scan"}, "lat": 38.9260025, "is_reserved": 0, "is_disabled": 0, "fusion_lat": 0.0}, {"fusion_lon": 0.0, "bike_id": "05345c3adaff5845ca37924a44e8a5c0", "name": "05345c3adaff5845ca37924a44e8a5c0", "type": "electric_bike", "lon": -76.981236, "rental_uris": {"android": "https://dc.lft.to/lastmile_qr_scan", "ios": "https://dc.lft.to/lastmile_qr_scan"}, "lat": 38.8966895, "is_reserved": 0, "is_disabled": 0, "fusion_lat": 0.0}, {"fusion_lon": 0.0, "bike_id": "9d942a2ea36c3e08177d52b7b7e9debc", "name": "9d942a2ea36c3e08177d52b7b7e9debc", "type": "electric_scooter", "lon": -76.99617516666666, "rental_uris": {"android": "https://dc.lft.to/lastmile_qr_scan", "ios": "https://dc.lft.to/lastmile_qr_scan"}, "lat": 38.88614666666667, "is_reserved": 0, "is_disabled": 0, "fusion_lat": 0.0}, {"fusion_lon": 0.0, "bike_id": "b659843f0afcd42bb084fe1664e90811", "name": "b659843f0afcd42bb084fe1664e90811", "type": "electric_scooter", "lon": -77.05233683333333, "rental_uris": {"android": "https://dc.lft.to/lastmile_qr_scan", "ios": "https://dc.lft.to/lastmile_qr_scan"}, "lat": 38.9247025, "is_reserved": 0, "is_disabled": 0, "fusion_lat": 0.0}, {"fusion_lon": 0.0, "bike_id": "81c254aa0e90ed258714f2c7f7b120e1", "name": "81c254aa0e90ed258714f2c7f7b120e1", "type": "electric_bike", "lon": -77.10185516666667, "rental_uris": {"android": "https://dc.lft.to/lastmile_qr_scan", "ios": "https://dc.lft.to/lastmile_qr_scan"}, "lat": 38.918124, "is_reserved": 0, "is_disabled": 0, "fusion_lat": 0.0}, {"fusion_lon": 0.0, "bike_id": "c255ab11fba95d11a62baf8734b003f9", "name": "c255ab11fba95d11a62baf8734b003f9", "type": "electric_scooter", "lon": -77.0326785, "rental_uris": {"android": "https://dc.lft.to/lastmile_qr_scan", "ios": "https://dc.lft.to/lastmile_qr_scan"}, "lat": 38.933283333333335, "is_reserved": 0, "is_disabled": 0, "fusion_lat": 0.0}, {"fusion_lon": 0.0, "bike_id": "566f5f66358e1d69d44c4761682a1370", "name": "566f5f66358e1d69d44c4761682a1370", "type": "electric_bike", "lon": -76.98330983333334, "rental_uris": {"android": "https://dc.lft.to/lastmile_qr_scan", "ios": "https://dc.lft.to/lastmile_qr_scan"}, "lat": 38.966050333333335, "is_reserved": 0, "is_disabled": 0, "fusion_lat": 0.0}, {"fusion_lon": 0.0, "bike_id": "8ac248930e8c1da752f572f52d1ed9cb", "name": "8ac248930e8c1da752f572f52d1ed9cb", "type": "electric_scooter", "lon": -76.93725766666667, "rental_uris": {"android": "https://dc.lft.to/lastmile_qr_scan", "ios": "https://dc.lft.to/lastmile_qr_scan"}, "lat": 38.891029, "is_reserved": 0, "is_disabled": 0, "fusion_lat": 0.0}, {"fusion_lon": 0.0, "bike_id": "407f893040c030fd2713827442cc692c", "name": "407f893040c030fd2713827442cc692c", "type": "electric_scooter", "lon": -77.0640995, "rental_uris": {"android": "https://dc.lft.to/lastmile_qr_scan", "ios": "https://dc.lft.to/lastmile_qr_scan"}, "lat": 38.9432615, "is_reserved": 0, "is_disabled": 0, "fusion_lat": 0.0}, {"fusion_lon": 0.0, "bike_id": "26ae743aca8087cda7d24b097d353564", "name": "26ae743aca8087cda7d24b097d353564", "type": "electric_scooter", "lon": -77.009419, "rental_uris": {"android": "https://dc.lft.to/lastmile_qr_scan", "ios": "https://dc.lft.to/lastmile_qr_scan"}, "lat": 38.876606333333335, "is_reserved": 0, "is_disabled": 0, "fusion_lat": 0.0}, {"fusion_lon": 0.0, "bike_id": "72ca6ed0e570d5c180417e0fd4583c1b", "name": "72ca6ed0e570d5c180417e0fd4583c1b", "type": "electric_bike", "lon": -77.11212983333333, "rental_uris": {"android": "https://dc.lft.to/lastmile_qr_scan", "ios": "https://dc.lft.to/lastmile_qr_scan"}, "lat": 38.81215233333333, "is_reserved": 0, "is_disabled": 0, "fusion_lat": 0.0}, {"fusion_lon": 0.0, "bike_id": "ec944d9cb3f44e029705141a9565a2de", "name": "ec944d9cb3f44e029705141a9565a2de", "type": "electric_scooter", "lon": -76.98377683333334, "rental_uris": {"android": "https://dc.lft.to/lastmile_qr_scan", "ios": "https://dc.lft.to/lastmile_qr_scan"}, "lat": 38.906468333333336, "is_reserved": 0, "is_disabled": 0, "fusion_lat": 0.0}, {"fusion_lon": 0.0, "bike_id": "4cf808103a56d8e49c8075bf966a2110", "name": "4cf808103a56d8e49c8075bf966a2110", "type": "electric_scooter", "lon": -77.02592616666666, "rental_uris": {"android": "https://dc.lft.to/lastmile_qr_scan", "ios": "https://dc.lft.to/lastmile_qr_scan"}, "lat": 38.91277266666667, "is_reserved": 0, "is_disabled": 0, "fusion_lat": 0.0}, {"fusion_lon": 0.0, "bike_id": "8ce23b1c1236b41e8274847ff5e710cd", "name": "8ce23b1c1236b41e8274847ff5e710cd", "type": "electric_scooter", "lon": -77.03386483333334, "rental_uris": {"android": "https://dc.lft.to/lastmile_qr_scan", "ios": "https://dc.lft.to/lastmile_qr_scan"}, "lat": 38.92540266666666, "is_reserved": 0, "is_disabled": 0, "fusion_lat": 0.0}, {"fusion_lon": 0.0, "bike_id": "a6e0a8113d0cb032e220f22923926c19", "name": "a6e0a8113d0cb032e220f22923926c19", "type": "electric_scooter", "lon": -77.021931, "rental_uris": {"android": "https://dc.lft.to/lastmile_qr_scan", "ios": "https://dc.lft.to/lastmile_qr_scan"}, "lat": 38.895279, "is_reserved": 0, "is_disabled": 0, "fusion_lat": 0.0}, {"fusion_lon": 0.0, "bike_id": "526b799bd64486b44c49d2cce1653e2d", "name": "526b799bd64486b44c49d2cce1653e2d", "type": "electric_scooter", "lon": -76.98477833333334, "rental_uris": {"android": "https://dc.lft.to/lastmile_qr_scan", "ios": "https://dc.lft.to/lastmile_qr_scan"}, "lat": 38.928947, "is_reserved": 0, "is_disabled": 0, "fusion_lat": 0.0}, {"fusion_lon": 0.0, "bike_id": "ccb95b73162a6fa282a0e1f631a5ab8b", "name": "ccb95b73162a6fa282a0e1f631a5ab8b", "type": "electric_scooter", "lon": -77.0376785, "rental_uris": {"android": "https://dc.lft.to/lastmile_qr_scan", "ios": "https://dc.lft.to/lastmile_qr_scan"}, "lat": 38.924769833333336, "is_reserved": 0, "is_disabled": 0, "fusion_lat": 0.0}, {"fusion_lon": 0.0, "bike_id": "415609560e26a941fc23f437eb44af6c", "name": "415609560e26a941fc23f437eb44af6c", "type": "electric_bike", "lon": -77.01750966666667, "rental_uris": {"android": "https://dc.lft.to/lastmile_qr_scan", "ios": "https://dc.lft.to/lastmile_qr_scan"}, "lat": 38.8834465, "is_reserved": 0, "is_disabled": 0, "fusion_lat": 0.0}, {"fusion_lon": 0.0, "bike_id": "ede58798e7ffc155eec5898364ff6640", "name": "ede58798e7ffc155eec5898364ff6640", "type": "electric_scooter", "lon": -77.01187483333334, "rental_uris": {"android": "https://dc.lft.to/lastmile_qr_scan", "ios": "https://dc.lft.to/lastmile_qr_scan"}, "lat": 38.871493, "is_reserved": 0, "is_disabled": 0, "fusion_lat": 0.0}, {"fusion_lon": 0.0, "bike_id": "d654d78a6b41bdf05566c1a26d201884", "name": "d654d78a6b41bdf05566c1a26d201884", "type": "electric_scooter", "lon": -76.92952183333334, "rental_uris": {"android": "https://dc.lft.to/lastmile_qr_scan", "ios": "https://dc.lft.to/lastmile_qr_scan"}, "lat": 38.898759166666665, "is_reserved": 0, "is_disabled": 0, "fusion_lat": 0.0}, {"fusion_lon": 0.0, "bike_id": "ee5f6cb67ce094fdc38c871cab506a52", "name": "ee5f6cb67ce094fdc38c871cab506a52", "type": "electric_scooter", "lon": -77.036699, "rental_uris": {"android": "https://dc.lft.to/lastmile_qr_scan", "ios": "https://dc.lft.to/lastmile_qr_scan"}, "lat": 38.902629833333336, "is_reserved": 0, "is_disabled": 0, "fusion_lat": 0.0}, {"fusion_lon": 0.0, "bike_id": "6f864b9535adf36772e79a7a26808e06", "name": "6f864b9535adf36772e79a7a26808e06", "type": "electric_scooter", "lon": -77.038672, "rental_uris": {"android": "https://dc.lft.to/lastmile_qr_scan", "ios": "https://dc.lft.to/lastmile_qr_scan"}, "lat": 38.91981783333333, "is_reserved": 0, "is_disabled": 0, "fusion_lat": 0.0}, {"fusion_lon": 0.0, "bike_id": "f80309ec0afba2ed74049f453f7004ea", "name": "f80309ec0afba2ed74049f453f7004ea", "type": "electric_scooter", "lon": -77.046574, "rental_uris": {"android": "https://dc.lft.to/lastmile_qr_scan", "ios": "https://dc.lft.to/lastmile_qr_scan"}, "lat": 38.903205666666665, "is_reserved": 0, "is_disabled": 0, "fusion_lat": 0.0}, {"fusion_lon": 0.0, "bike_id": "b586bb26b4252181933a784743a4a25c", "name": "b586bb26b4252181933a784743a4a25c", "type": "electric_bike", "lon": -76.99759833333333, "rental_uris": {"android": "https://dc.lft.to/lastmile_qr_scan", "ios": "https://dc.lft.to/lastmile_qr_scan"}, "lat": 39.0059355, "is_reserved": 0, "is_disabled": 0, "fusion_lat": 0.0}, {"fusion_lon": 0.0, "bike_id": "b2be9b98c619571ce1759d7a85e7262d", "name": "b2be9b98c619571ce1759d7a85e7262d", "type": "electric_scooter", "lon": -77.0328555, "rental_uris": {"android": "https://dc.lft.to/lastmile_qr_scan", "ios": "https://dc.lft.to/lastmile_qr_scan"}, "lat": 38.93883783333333, "is_reserved": 0, "is_disabled": 0, "fusion_lat": 0.0}, {"fusion_lon": 0.0, "bike_id": "56a213e1f538af670218a24fdbd54ee7", "name": "56a213e1f538af670218a24fdbd54ee7", "type": "electric_scooter", "lon": -77.03416, "rental_uris": {"android": "https://dc.lft.to/lastmile_qr_scan", "ios": "https://dc.lft.to/lastmile_qr_scan"}, "lat": 38.92944883333333, "is_reserved": 0, "is_disabled": 0, "fusion_lat": 0.0}, {"fusion_lon": 0.0, "bike_id": "f569ff5201fdc3f00d44fc96e5767cfa", "name": "f569ff5201fdc3f00d44fc96e5767cfa", "type": "electric_scooter", "lon": -76.99166816666667, "rental_uris": {"android": "https://dc.lft.to/lastmile_qr_scan", "ios": "https://dc.lft.to/lastmile_qr_scan"}, "lat": 38.8791345, "is_reserved": 0, "is_disabled": 0, "fusion_lat": 0.0}, {"fusion_lon": 0.0, "bike_id": "b339c9d6441793e44d85906d94e7c472", "name": "b339c9d6441793e44d85906d94e7c472", "type": "electric_scooter", "lon": -77.04166, "rental_uris": {"android": "https://dc.lft.to/lastmile_qr_scan", "ios": "https://dc.lft.to/lastmile_qr_scan"}, "lat": 38.9157235, "is_reserved": 0, "is_disabled": 0, "fusion_lat": 0.0}, {"fusion_lon": 0.0, "bike_id": "01d939c3da91b7443fcd1e44fd093025", "name": "01d939c3da91b7443fcd1e44fd093025", "type": "electric_scooter", "lon": -77.02781266666666, "rental_uris": {"android": "https://dc.lft.to/lastmile_qr_scan", "ios": "https://dc.lft.to/lastmile_qr_scan"}, "lat": 38.881586, "is_reserved": 0, "is_disabled": 0, "fusion_lat": 0.0}, {"fusion_lon": 0.0, "bike_id": "9b893491993127aec44ddccb559aa05b", "name": "9b893491993127aec44ddccb559aa05b", "type": "electric_scooter", "lon": -77.02815716666667, "rental_uris": {"android": "https://dc.lft.to/lastmile_qr_scan", "ios": "https://dc.lft.to/lastmile_qr_scan"}, "lat": 38.90618, "is_reserved": 0, "is_disabled": 0, "fusion_lat": 0.0}, {"fusion_lon": 0.0, "bike_id": "8c92f9ff64940743b67eafe6b77ed74e", "name": "8c92f9ff64940743b67eafe6b77ed74e", "type": "electric_scooter", "lon": -77.00799183333334, "rental_uris": {"android": "https://dc.lft.to/lastmile_qr_scan", "ios": "https://dc.lft.to/lastmile_qr_scan"}, "lat": 38.8971575, "is_reserved": 0, "is_disabled": 0, "fusion_lat": 0.0}, {"fusion_lon": 0.0, "bike_id": "5e1d9c87cec63dc1d978c11ceac0b5f3", "name": "5e1d9c87cec63dc1d978c11ceac0b5f3", "type": "electric_bike", "lon": -77.02650533333333, "rental_uris": {"android": "https://dc.lft.to/lastmile_qr_scan", "ios": "https://dc.lft.to/lastmile_qr_scan"}, "lat": 38.98815783333333, "is_reserved": 0, "is_disabled": 0, "fusion_lat": 0.0}, {"fusion_lon": 0.0, "bike_id": "b3bc97175deadba496f08e72d47b7cd6", "name": "b3bc97175deadba496f08e72d47b7cd6", "type": "electric_bike", "lon": -77.13176266666666, "rental_uris": {"android": "https://dc.lft.to/lastmile_qr_scan", "ios": "https://dc.lft.to/lastmile_qr_scan"}, "lat": 38.86905316666667, "is_reserved": 0, "is_disabled": 0, "fusion_lat": 0.0}, {"fusion_lon": 0.0, "bike_id": "f2c921999169e9960a08c4213038915f", "name": "f2c921999169e9960a08c4213038915f", "type": "electric_scooter", "lon": -77.030682, "rental_uris": {"android": "https://dc.lft.to/lastmile_qr_scan", "ios": "https://dc.lft.to/lastmile_qr_scan"}, "lat": 38.88045266666666, "is_reserved": 0, "is_disabled": 0, "fusion_lat": 0.0}, {"fusion_lon": 0.0, "bike_id": "d81ab37633598158bdfe649d50325f80", "name": "d81ab37633598158bdfe649d50325f80", "type": "electric_scooter", "lon": -77.0238015, "rental_uris": {"android": "https://dc.lft.to/lastmile_qr_scan", "ios": "https://dc.lft.to/lastmile_qr_scan"}, "lat": 38.9072695, "is_reserved": 0, "is_disabled": 0, "fusion_lat": 0.0}, {"fusion_lon": 0.0, "bike_id": "b3a8dcb5f8da52386c33b4a78dd0a77b", "name": "b3a8dcb5f8da52386c33b4a78dd0a77b", "type": "electric_scooter", "lon": -77.03203783333333, "rental_uris": {"android": "https://dc.lft.to/lastmile_qr_scan", "ios": "https://dc.lft.to/lastmile_qr_scan"}, "lat": 38.903856833333336, "is_reserved": 0, "is_disabled": 0, "fusion_lat": 0.0}, {"fusion_lon": 0.0, "bike_id": "56dbac043ac91a9e4848629dd18ebe48", "name": "56dbac043ac91a9e4848629dd18ebe48", "type": "electric_scooter", "lon": -76.96532133333334, "rental_uris": {"android": "https://dc.lft.to/lastmile_qr_scan", "ios": "https://dc.lft.to/lastmile_qr_scan"}, "lat": 38.87480133333333, "is_reserved": 0, "is_disabled": 0, "fusion_lat": 0.0}, {"fusion_lon": 0.0, "bike_id": "43a2512d2d288b93d31ae68f3452a354", "name": "43a2512d2d288b93d31ae68f3452a354", "type": "electric_scooter", "lon": -77.03937566666667, "rental_uris": {"android": "https://dc.lft.to/lastmile_qr_scan", "ios": "https://dc.lft.to/lastmile_qr_scan"}, "lat": 38.92493616666667, "is_reserved": 0, "is_disabled": 0, "fusion_lat": 0.0}, {"fusion_lon": 0.0, "bike_id": "6d2dcbc6f5ef45026875f43a7d64e835", "name": "6d2dcbc6f5ef45026875f43a7d64e835", "type": "electric_scooter", "lon": -77.03834816666667, "rental_uris": {"android": "https://dc.lft.to/lastmile_qr_scan", "ios": "https://dc.lft.to/lastmile_qr_scan"}, "lat": 38.9112055, "is_reserved": 0, "is_disabled": 0, "fusion_lat": 0.0}, {"fusion_lon": 0.0, "bike_id": "a36f203e6ee4f415d3d0cc3a38db9f51", "name": "a36f203e6ee4f415d3d0cc3a38db9f51", "type": "electric_scooter", "lon": -77.0454225, "rental_uris": {"android": "https://dc.lft.to/lastmile_qr_scan", "ios": "https://dc.lft.to/lastmile_qr_scan"}, "lat": 38.90380716666667, "is_reserved": 0, "is_disabled": 0, "fusion_lat": 0.0}, {"fusion_lon": 0.0, "bike_id": "6caa95a3e2d24ec3c4ee5f5d76d209be", "name": "6caa95a3e2d24ec3c4ee5f5d76d209be", "type": "electric_scooter", "lon": -77.0579435, "rental_uris": {"android": "https://dc.lft.to/lastmile_qr_scan", "ios": "https://dc.lft.to/lastmile_qr_scan"}, "lat": 38.93476116666667, "is_reserved": 0, "is_disabled": 0, "fusion_lat": 0.0}, {"fusion_lon": 0.0, "bike_id": "05c2a156b362e54bb425fb3e2ac0f32b", "name": "05c2a156b362e54bb425fb3e2ac0f32b", "type": "electric_scooter", "lon": -77.0375545, "rental_uris": {"android": "https://dc.lft.to/lastmile_qr_scan", "ios": "https://dc.lft.to/lastmile_qr_scan"}, "lat": 38.929075166666664, "is_reserved": 0, "is_disabled": 0, "fusion_lat": 0.0}, {"fusion_lon": 0.0, "bike_id": "2ad20567a15992113c46a97d0dffbd25", "name": "2ad20567a15992113c46a97d0dffbd25", "type": "electric_scooter", "lon": -77.017904, "rental_uris": {"android": "https://dc.lft.to/lastmile_qr_scan", "ios": "https://dc.lft.to/lastmile_qr_scan"}, "lat": 38.906406, "is_reserved": 0, "is_disabled": 0, "fusion_lat": 0.0}, {"fusion_lon": 0.0, "bike_id": "4643e3de1c7e629b53f31a8655d9680a", "name": "4643e3de1c7e629b53f31a8655d9680a", "type": "electric_scooter", "lon": -77.03115116666666, "rental_uris": {"android": "https://dc.lft.to/lastmile_qr_scan", "ios": "https://dc.lft.to/lastmile_qr_scan"}, "lat": 38.91913733333333, "is_reserved": 0, "is_disabled": 0, "fusion_lat": 0.0}, {"fusion_lon": 0.0, "bike_id": "d5a69e5a4a226305a3deb357a4f863ec", "name": "d5a69e5a4a226305a3deb357a4f863ec", "type": "electric_scooter", "lon": -76.99374816666666, "rental_uris": {"android": "https://dc.lft.to/lastmile_qr_scan", "ios": "https://dc.lft.to/lastmile_qr_scan"}, "lat": 38.910183, "is_reserved": 0, "is_disabled": 0, "fusion_lat": 0.0}, {"fusion_lon": 0.0, "bike_id": "31c80841e54284b7ca11e9e817d0e297", "name": "31c80841e54284b7ca11e9e817d0e297", "type": "electric_scooter", "lon": -76.948413, "rental_uris": {"android": "https://dc.lft.to/lastmile_qr_scan", "ios": "https://dc.lft.to/lastmile_qr_scan"}, "lat": 38.89484266666667, "is_reserved": 0, "is_disabled": 0, "fusion_lat": 0.0}, {"fusion_lon": 0.0, "bike_id": "1fc339aad31a00074908f758f15c1dea", "name": "1fc339aad31a00074908f758f15c1dea", "type": "electric_scooter", "lon": -77.03616083333333, "rental_uris": {"android": "https://dc.lft.to/lastmile_qr_scan", "ios": "https://dc.lft.to/lastmile_qr_scan"}, "lat": 38.90710266666667, "is_reserved": 0, "is_disabled": 0, "fusion_lat": 0.0}, {"fusion_lon": 0.0, "bike_id": "d5256eeb579a3f863497df63517217bd", "name": "d5256eeb579a3f863497df63517217bd", "type": "electric_scooter", "lon": -76.93746933333334, "rental_uris": {"android": "https://dc.lft.to/lastmile_qr_scan", "ios": "https://dc.lft.to/lastmile_qr_scan"}, "lat": 38.890119, "is_reserved": 0, "is_disabled": 0, "fusion_lat": 0.0}, {"fusion_lon": 0.0, "bike_id": "200520bb31bff302746f6f9e57e2bad7", "name": "200520bb31bff302746f6f9e57e2bad7", "type": "electric_scooter", "lon": -77.08196883333333, "rental_uris": {"android": "https://dc.lft.to/lastmile_qr_scan", "ios": "https://dc.lft.to/lastmile_qr_scan"}, "lat": 38.9356345, "is_reserved": 0, "is_disabled": 0, "fusion_lat": 0.0}, {"fusion_lon": 0.0, "bike_id": "c69fdb4e9b02d67c042a2daf379e0e7c", "name": "c69fdb4e9b02d67c042a2daf379e0e7c", "type": "electric_scooter", "lon": -77.00545383333333, "rental_uris": {"android": "https://dc.lft.to/lastmile_qr_scan", "ios": "https://dc.lft.to/lastmile_qr_scan"}, "lat": 38.87458516666667, "is_reserved": 0, "is_disabled": 0, "fusion_lat": 0.0}, {"fusion_lon": 0.0, "bike_id": "0e2a2b1d2a0f831e74287b48ab711fec", "name": "0e2a2b1d2a0f831e74287b48ab711fec", "type": "electric_scooter", "lon": -77.03393483333333, "rental_uris": {"android": "https://dc.lft.to/lastmile_qr_scan", "ios": "https://dc.lft.to/lastmile_qr_scan"}, "lat": 38.9191345, "is_reserved": 0, "is_disabled": 0, "fusion_lat": 0.0}, {"fusion_lon": 0.0, "bike_id": "a33c1578de5791f7e2d5047fe71e05f7", "name": "a33c1578de5791f7e2d5047fe71e05f7", "type": "electric_scooter", "lon": -77.04155666666666, "rental_uris": {"android": "https://dc.lft.to/lastmile_qr_scan", "ios": "https://dc.lft.to/lastmile_qr_scan"}, "lat": 38.9171835, "is_reserved": 0, "is_disabled": 0, "fusion_lat": 0.0}, {"fusion_lon": 0.0, "bike_id": "72ffc5518fe8cedd8afcd6ac8a11b35b", "name": "72ffc5518fe8cedd8afcd6ac8a11b35b", "type": "electric_scooter", "lon": -77.003103, "rental_uris": {"android": "https://dc.lft.to/lastmile_qr_scan", "ios": "https://dc.lft.to/lastmile_qr_scan"}, "lat": 38.889887, "is_reserved": 0, "is_disabled": 0, "fusion_lat": 0.0}, {"fusion_lon": 0.0, "bike_id": "446cd977f7844bd0866c95a63d6fcc5c", "name": "446cd977f7844bd0866c95a63d6fcc5c", "type": "electric_scooter", "lon": -77.0570235, "rental_uris": {"android": "https://dc.lft.to/lastmile_qr_scan", "ios": "https://dc.lft.to/lastmile_qr_scan"}, "lat": 38.9106165, "is_reserved": 0, "is_disabled": 0, "fusion_lat": 0.0}, {"fusion_lon": 0.0, "bike_id": "ee4ba6c24e8aab3a0641852e694da4da", "name": "ee4ba6c24e8aab3a0641852e694da4da", "type": "electric_scooter", "lon": -77.00190083333334, "rental_uris": {"android": "https://dc.lft.to/lastmile_qr_scan", "ios": "https://dc.lft.to/lastmile_qr_scan"}, "lat": 38.914781166666664, "is_reserved": 0, "is_disabled": 0, "fusion_lat": 0.0}, {"fusion_lon": 0.0, "bike_id": "da7fc6b2c06300cd46d4caf2cc8f22e0", "name": "da7fc6b2c06300cd46d4caf2cc8f22e0", "type": "electric_scooter", "lon": -77.02644266666667, "rental_uris": {"android": "https://dc.lft.to/lastmile_qr_scan", "ios": "https://dc.lft.to/lastmile_qr_scan"}, "lat": 38.90249283333333, "is_reserved": 0, "is_disabled": 0, "fusion_lat": 0.0}, {"fusion_lon": 0.0, "bike_id": "67b3fea1258feda546a2758c020b795a", "name": "67b3fea1258feda546a2758c020b795a", "type": "electric_scooter", "lon": -77.00363666666667, "rental_uris": {"android": "https://dc.lft.to/lastmile_qr_scan", "ios": "https://dc.lft.to/lastmile_qr_scan"}, "lat": 38.877687333333334, "is_reserved": 0, "is_disabled": 0, "fusion_lat": 0.0}, {"fusion_lon": 0.0, "bike_id": "02c61434caa0b60bdc9f569d2f7c64ef", "name": "02c61434caa0b60bdc9f569d2f7c64ef", "type": "electric_scooter", "lon": -77.00754916666666, "rental_uris": {"android": "https://dc.lft.to/lastmile_qr_scan", "ios": "https://dc.lft.to/lastmile_qr_scan"}, "lat": 38.87642833333334, "is_reserved": 0, "is_disabled": 0, "fusion_lat": 0.0}, {"fusion_lon": 0.0, "bike_id": "f9b3dbf292d2da7b7a897e16e618dd4b", "name": "f9b3dbf292d2da7b7a897e16e618dd4b", "type": "electric_scooter", "lon": -77.001006, "rental_uris": {"android": "https://dc.lft.to/lastmile_qr_scan", "ios": "https://dc.lft.to/lastmile_qr_scan"}, "lat": 38.897444, "is_reserved": 0, "is_disabled": 0, "fusion_lat": 0.0}, {"fusion_lon": 0.0, "bike_id": "4f60e52a9828123691346ae4399efb0b", "name": "4f60e52a9828123691346ae4399efb0b", "type": "electric_scooter", "lon": -77.071701, "rental_uris": {"android": "https://dc.lft.to/lastmile_qr_scan", "ios": "https://dc.lft.to/lastmile_qr_scan"}, "lat": 38.90761666666667, "is_reserved": 0, "is_disabled": 0, "fusion_lat": 0.0}, {"fusion_lon": 0.0, "bike_id": "e0c28489fb95d8f280d4feb04e56bd82", "name": "e0c28489fb95d8f280d4feb04e56bd82", "type": "electric_scooter", "lon": -77.0271375, "rental_uris": {"android": "https://dc.lft.to/lastmile_qr_scan", "ios": "https://dc.lft.to/lastmile_qr_scan"}, "lat": 38.9074995, "is_reserved": 0, "is_disabled": 0, "fusion_lat": 0.0}, {"fusion_lon": 0.0, "bike_id": "a7735581687eda62af036d4a57e4bcb8", "name": "a7735581687eda62af036d4a57e4bcb8", "type": "electric_scooter", "lon": -77.01102183333333, "rental_uris": {"android": "https://dc.lft.to/lastmile_qr_scan", "ios": "https://dc.lft.to/lastmile_qr_scan"}, "lat": 38.89492933333333, "is_reserved": 0, "is_disabled": 0, "fusion_lat": 0.0}, {"fusion_lon": 0.0, "bike_id": "478290af96058af38fc9a4e099f19dab", "name": "478290af96058af38fc9a4e099f19dab", "type": "electric_scooter", "lon": -77.025352, "rental_uris": {"android": "https://dc.lft.to/lastmile_qr_scan", "ios": "https://dc.lft.to/lastmile_qr_scan"}, "lat": 38.9008875, "is_reserved": 0, "is_disabled": 0, "fusion_lat": 0.0}, {"fusion_lon": 0.0, "bike_id": "3dd9e37eeee26228a944a3671ce2d183", "name": "3dd9e37eeee26228a944a3671ce2d183", "type": "electric_scooter", "lon": -77.02171616666666, "rental_uris": {"android": "https://dc.lft.to/lastmile_qr_scan", "ios": "https://dc.lft.to/lastmile_qr_scan"}, "lat": 38.94291366666667, "is_reserved": 0, "is_disabled": 0, "fusion_lat": 0.0}, {"fusion_lon": 0.0, "bike_id": "9bc80073324571a44ccd2a0044c2060c", "name": "9bc80073324571a44ccd2a0044c2060c", "type": "electric_scooter", "lon": -77.04615016666666, "rental_uris": {"android": "https://dc.lft.to/lastmile_qr_scan", "ios": "https://dc.lft.to/lastmile_qr_scan"}, "lat": 38.9058845, "is_reserved": 0, "is_disabled": 0, "fusion_lat": 0.0}, {"fusion_lon": 0.0, "bike_id": "0ca98e41511b2ca360f47bf3d289e61a", "name": "0ca98e41511b2ca360f47bf3d289e61a", "type": "electric_bike", "lon": -77.13232016666667, "rental_uris": {"android": "https://dc.lft.to/lastmile_qr_scan", "ios": "https://dc.lft.to/lastmile_qr_scan"}, "lat": 38.869734666666666, "is_reserved": 0, "is_disabled": 0, "fusion_lat": 0.0}, {"fusion_lon": 0.0, "bike_id": "d5ee338ff1cce9f628845a4f776435d2", "name": "d5ee338ff1cce9f628845a4f776435d2", "type": "electric_scooter", "lon": -77.03205333333334, "rental_uris": {"android": "https://dc.lft.to/lastmile_qr_scan", "ios": "https://dc.lft.to/lastmile_qr_scan"}, "lat": 38.919233, "is_reserved": 0, "is_disabled": 0, "fusion_lat": 0.0}, {"fusion_lon": 0.0, "bike_id": "744a0afb15f5c8df646c9e4d20ddd167", "name": "744a0afb15f5c8df646c9e4d20ddd167", "type": "electric_scooter", "lon": -77.02662583333333, "rental_uris": {"android": "https://dc.lft.to/lastmile_qr_scan", "ios": "https://dc.lft.to/lastmile_qr_scan"}, "lat": 38.9309965, "is_reserved": 0, "is_disabled": 0, "fusion_lat": 0.0}, {"fusion_lon": 0.0, "bike_id": "be54bb82f40f702f4553957ca06111bf", "name": "be54bb82f40f702f4553957ca06111bf", "type": "electric_scooter", "lon": -77.046484, "rental_uris": {"android": "https://dc.lft.to/lastmile_qr_scan", "ios": "https://dc.lft.to/lastmile_qr_scan"}, "lat": 38.904291666666666, "is_reserved": 0, "is_disabled": 0, "fusion_lat": 0.0}, {"fusion_lon": 0.0, "bike_id": "6a3ab37cc0833c5f02e6942b5700f6fc", "name": "6a3ab37cc0833c5f02e6942b5700f6fc", "type": "electric_scooter", "lon": -77.00570933333333, "rental_uris": {"android": "https://dc.lft.to/lastmile_qr_scan", "ios": "https://dc.lft.to/lastmile_qr_scan"}, "lat": 38.875088, "is_reserved": 0, "is_disabled": 0, "fusion_lat": 0.0}, {"fusion_lon": 0.0, "bike_id": "dcf44e1984718d6c6d45675f50b55d01", "name": "dcf44e1984718d6c6d45675f50b55d01", "type": "electric_scooter", "lon": -77.01749516666666, "rental_uris": {"android": "https://dc.lft.to/lastmile_qr_scan", "ios": "https://dc.lft.to/lastmile_qr_scan"}, "lat": 38.872791166666666, "is_reserved": 0, "is_disabled": 0, "fusion_lat": 0.0}, {"fusion_lon": 0.0, "bike_id": "cdd9fcead62424b3755ecd932eca4e00", "name": "cdd9fcead62424b3755ecd932eca4e00", "type": "electric_scooter", "lon": -77.031635, "rental_uris": {"android": "https://dc.lft.to/lastmile_qr_scan", "ios": "https://dc.lft.to/lastmile_qr_scan"}, "lat": 38.9012195, "is_reserved": 0, "is_disabled": 0, "fusion_lat": 0.0}, {"fusion_lon": 0.0, "bike_id": "d1b8f88fc2bd17f1cf4e1c9133b1c2e7", "name": "d1b8f88fc2bd17f1cf4e1c9133b1c2e7", "type": "electric_scooter", "lon": -77.04653566666667, "rental_uris": {"android": "https://dc.lft.to/lastmile_qr_scan", "ios": "https://dc.lft.to/lastmile_qr_scan"}, "lat": 38.89235766666667, "is_reserved": 0, "is_disabled": 0, "fusion_lat": 0.0}, {"fusion_lon": 0.0, "bike_id": "a23490868374c4a0841457f3b047985b", "name": "a23490868374c4a0841457f3b047985b", "type": "electric_bike", "lon": -76.9292775, "rental_uris": {"android": "https://dc.lft.to/lastmile_qr_scan", "ios": "https://dc.lft.to/lastmile_qr_scan"}, "lat": 38.90292216666667, "is_reserved": 0, "is_disabled": 0, "fusion_lat": 0.0}, {"fusion_lon": 0.0, "bike_id": "7755d598ac404d4956da566f769f2283", "name": "7755d598ac404d4956da566f769f2283", "type": "electric_bike", "lon": -76.961785, "rental_uris": {"android": "https://dc.lft.to/lastmile_qr_scan", "ios": "https://dc.lft.to/lastmile_qr_scan"}, "lat": 38.91862583333333, "is_reserved": 0, "is_disabled": 0, "fusion_lat": 0.0}, {"fusion_lon": 0.0, "bike_id": "d66cf265152f4d9ddec4810164c5f876", "name": "d66cf265152f4d9ddec4810164c5f876", "type": "electric_scooter", "lon": -76.93388966666667, "rental_uris": {"android": "https://dc.lft.to/lastmile_qr_scan", "ios": "https://dc.lft.to/lastmile_qr_scan"}, "lat": 38.89909633333333, "is_reserved": 0, "is_disabled": 0, "fusion_lat": 0.0}, {"fusion_lon": 0.0, "bike_id": "41cf1dae2b151549aeeb9b626c1608e2", "name": "41cf1dae2b151549aeeb9b626c1608e2", "type": "electric_scooter", "lon": -77.038983, "rental_uris": {"android": "https://dc.lft.to/lastmile_qr_scan", "ios": "https://dc.lft.to/lastmile_qr_scan"}, "lat": 38.922351166666665, "is_reserved": 0, "is_disabled": 0, "fusion_lat": 0.0}, {"fusion_lon": 0.0, "bike_id": "7498447294ad135f901a99fa4da8e27e", "name": "7498447294ad135f901a99fa4da8e27e", "type": "electric_scooter", "lon": -77.02536583333334, "rental_uris": {"android": "https://dc.lft.to/lastmile_qr_scan", "ios": "https://dc.lft.to/lastmile_qr_scan"}, "lat": 38.920843166666664, "is_reserved": 0, "is_disabled": 0, "fusion_lat": 0.0}, {"fusion_lon": 0.0, "bike_id": "81add7144ca4dfd41844aa69183cc483", "name": "81add7144ca4dfd41844aa69183cc483", "type": "electric_scooter", "lon": -77.01579483333333, "rental_uris": {"android": "https://dc.lft.to/lastmile_qr_scan", "ios": "https://dc.lft.to/lastmile_qr_scan"}, "lat": 38.876340666666664, "is_reserved": 0, "is_disabled": 0, "fusion_lat": 0.0}, {"fusion_lon": 0.0, "bike_id": "796a302a17516d714b3a3b11ea447426", "name": "796a302a17516d714b3a3b11ea447426", "type": "electric_scooter", "lon": -77.02488466666667, "rental_uris": {"android": "https://dc.lft.to/lastmile_qr_scan", "ios": "https://dc.lft.to/lastmile_qr_scan"}, "lat": 38.927380166666666, "is_reserved": 0, "is_disabled": 0, "fusion_lat": 0.0}, {"fusion_lon": 0.0, "bike_id": "db3a8108ab9856a2397824e7e7f0827a", "name": "db3a8108ab9856a2397824e7e7f0827a", "type": "electric_scooter", "lon": -77.0259645, "rental_uris": {"android": "https://dc.lft.to/lastmile_qr_scan", "ios": "https://dc.lft.to/lastmile_qr_scan"}, "lat": 38.97584766666667, "is_reserved": 0, "is_disabled": 0, "fusion_lat": 0.0}, {"fusion_lon": 0.0, "bike_id": "9a52da6a7dc5c7a2e605327bce733343", "name": "9a52da6a7dc5c7a2e605327bce733343", "type": "electric_scooter", "lon": -77.033554, "rental_uris": {"android": "https://dc.lft.to/lastmile_qr_scan", "ios": "https://dc.lft.to/lastmile_qr_scan"}, "lat": 38.924446333333336, "is_reserved": 0, "is_disabled": 0, "fusion_lat": 0.0}, {"fusion_lon": 0.0, "bike_id": "10204899aca9634b3a7faa8adf2da420", "name": "10204899aca9634b3a7faa8adf2da420", "type": "electric_scooter", "lon": -76.98072983333333, "rental_uris": {"android": "https://dc.lft.to/lastmile_qr_scan", "ios": "https://dc.lft.to/lastmile_qr_scan"}, "lat": 38.90170216666667, "is_reserved": 0, "is_disabled": 0, "fusion_lat": 0.0}, {"fusion_lon": 0.0, "bike_id": "4fadf978616b7b714dcf731cd6587867", "name": "4fadf978616b7b714dcf731cd6587867", "type": "electric_scooter", "lon": -77.04246933333333, "rental_uris": {"android": "https://dc.lft.to/lastmile_qr_scan", "ios": "https://dc.lft.to/lastmile_qr_scan"}, "lat": 38.9012825, "is_reserved": 0, "is_disabled": 0, "fusion_lat": 0.0}, {"fusion_lon": 0.0, "bike_id": "0dc55a4825d7de632ee0621dee6ecc06", "name": "0dc55a4825d7de632ee0621dee6ecc06", "type": "electric_scooter", "lon": -77.04254566666667, "rental_uris": {"android": "https://dc.lft.to/lastmile_qr_scan", "ios": "https://dc.lft.to/lastmile_qr_scan"}, "lat": 38.91113083333333, "is_reserved": 0, "is_disabled": 0, "fusion_lat": 0.0}, {"fusion_lon": 0.0, "bike_id": "dca96a8b97e26604eef48b0f8bf7fa6f", "name": "dca96a8b97e26604eef48b0f8bf7fa6f", "type": "electric_scooter", "lon": -77.03207633333334, "rental_uris": {"android": "https://dc.lft.to/lastmile_qr_scan", "ios": "https://dc.lft.to/lastmile_qr_scan"}, "lat": 38.9137645, "is_reserved": 0, "is_disabled": 0, "fusion_lat": 0.0}, {"fusion_lon": 0.0, "bike_id": "48b0e486df31b4fba275df2dad4ffc03", "name": "48b0e486df31b4fba275df2dad4ffc03", "type": "electric_scooter", "lon": -77.04133216666666, "rental_uris": {"android": "https://dc.lft.to/lastmile_qr_scan", "ios": "https://dc.lft.to/lastmile_qr_scan"}, "lat": 38.906289666666666, "is_reserved": 0, "is_disabled": 0, "fusion_lat": 0.0}, {"fusion_lon": 0.0, "bike_id": "3b8a000e0ffe9a50671b08f9ee023182", "name": "3b8a000e0ffe9a50671b08f9ee023182", "type": "electric_scooter", "lon": -77.02273766666667, "rental_uris": {"android": "https://dc.lft.to/lastmile_qr_scan", "ios": "https://dc.lft.to/lastmile_qr_scan"}, "lat": 38.887388333333334, "is_reserved": 0, "is_disabled": 0, "fusion_lat": 0.0}, {"fusion_lon": 0.0, "bike_id": "3ae94465aac42072d482b0046eed7749", "name": "3ae94465aac42072d482b0046eed7749", "type": "electric_scooter", "lon": -76.9985595, "rental_uris": {"android": "https://dc.lft.to/lastmile_qr_scan", "ios": "https://dc.lft.to/lastmile_qr_scan"}, "lat": 38.90894983333333, "is_reserved": 0, "is_disabled": 0, "fusion_lat": 0.0}, {"fusion_lon": 0.0, "bike_id": "f9cb8c3068d122a4da960a3d8bf690ba", "name": "f9cb8c3068d122a4da960a3d8bf690ba", "type": "electric_bike", "lon": -77.35311283333333, "rental_uris": {"android": "https://dc.lft.to/lastmile_qr_scan", "ios": "https://dc.lft.to/lastmile_qr_scan"}, "lat": 38.95002383333333, "is_reserved": 0, "is_disabled": 0, "fusion_lat": 0.0}, {"fusion_lon": 0.0, "bike_id": "bbdfff0888ac6aa16ebd88a93294736a", "name": "bbdfff0888ac6aa16ebd88a93294736a", "type": "electric_scooter", "lon": -77.06346783333333, "rental_uris": {"android": "https://dc.lft.to/lastmile_qr_scan", "ios": "https://dc.lft.to/lastmile_qr_scan"}, "lat": 38.91342733333333, "is_reserved": 0, "is_disabled": 0, "fusion_lat": 0.0}, {"fusion_lon": 0.0, "bike_id": "219ea9aaf560e6eace146cacdb66f0f0", "name": "219ea9aaf560e6eace146cacdb66f0f0", "type": "electric_scooter", "lon": -77.03181533333333, "rental_uris": {"android": "https://dc.lft.to/lastmile_qr_scan", "ios": "https://dc.lft.to/lastmile_qr_scan"}, "lat": 38.91931733333333, "is_reserved": 0, "is_disabled": 0, "fusion_lat": 0.0}, {"fusion_lon": 0.0, "bike_id": "b60e4cdd8f3bed0b02c4bed183b178c7", "name": "b60e4cdd8f3bed0b02c4bed183b178c7", "type": "electric_scooter", "lon": -77.04000266666667, "rental_uris": {"android": "https://dc.lft.to/lastmile_qr_scan", "ios": "https://dc.lft.to/lastmile_qr_scan"}, "lat": 38.91412066666667, "is_reserved": 0, "is_disabled": 0, "fusion_lat": 0.0}, {"fusion_lon": 0.0, "bike_id": "418f67cb9ab22dd9c58f18877a627184", "name": "418f67cb9ab22dd9c58f18877a627184", "type": "electric_scooter", "lon": -77.048292, "rental_uris": {"android": "https://dc.lft.to/lastmile_qr_scan", "ios": "https://dc.lft.to/lastmile_qr_scan"}, "lat": 38.89836116666667, "is_reserved": 0, "is_disabled": 0, "fusion_lat": 0.0}, {"fusion_lon": 0.0, "bike_id": "206327d9fe6a34dd99c23ad7c59bf4ec", "name": "206327d9fe6a34dd99c23ad7c59bf4ec", "type": "electric_scooter", "lon": -77.04489883333333, "rental_uris": {"android": "https://dc.lft.to/lastmile_qr_scan", "ios": "https://dc.lft.to/lastmile_qr_scan"}, "lat": 38.9067785, "is_reserved": 0, "is_disabled": 0, "fusion_lat": 0.0}, {"fusion_lon": 0.0, "bike_id": "9e9962d5ee736cdb72da844ae484ebda", "name": "9e9962d5ee736cdb72da844ae484ebda", "type": "electric_scooter", "lon": -77.02488416666667, "rental_uris": {"android": "https://dc.lft.to/lastmile_qr_scan", "ios": "https://dc.lft.to/lastmile_qr_scan"}, "lat": 38.939076, "is_reserved": 0, "is_disabled": 0, "fusion_lat": 0.0}, {"fusion_lon": 0.0, "bike_id": "625a31da16059b20f98eebaeb5f9eb0d", "name": "625a31da16059b20f98eebaeb5f9eb0d", "type": "electric_scooter", "lon": -76.94654333333334, "rental_uris": {"android": "https://dc.lft.to/lastmile_qr_scan", "ios": "https://dc.lft.to/lastmile_qr_scan"}, "lat": 38.89824133333333, "is_reserved": 0, "is_disabled": 0, "fusion_lat": 0.0}, {"fusion_lon": 0.0, "bike_id": "3b4c60a7a04f4f6bed29abbe80c9fa25", "name": "3b4c60a7a04f4f6bed29abbe80c9fa25", "type": "electric_scooter", "lon": -77.038716, "rental_uris": {"android": "https://dc.lft.to/lastmile_qr_scan", "ios": "https://dc.lft.to/lastmile_qr_scan"}, "lat": 38.9066105, "is_reserved": 0, "is_disabled": 0, "fusion_lat": 0.0}, {"fusion_lon": 0.0, "bike_id": "3a0ddb79dd9421e68a36702d86dd79cd", "name": "3a0ddb79dd9421e68a36702d86dd79cd", "type": "electric_scooter", "lon": -77.002158, "rental_uris": {"android": "https://dc.lft.to/lastmile_qr_scan", "ios": "https://dc.lft.to/lastmile_qr_scan"}, "lat": 38.89090483333333, "is_reserved": 0, "is_disabled": 0, "fusion_lat": 0.0}, {"fusion_lon": 0.0, "bike_id": "7bc718484826e10954898023006bcde2", "name": "7bc718484826e10954898023006bcde2", "type": "electric_bike", "lon": -77.1226885, "rental_uris": {"android": "https://dc.lft.to/lastmile_qr_scan", "ios": "https://dc.lft.to/lastmile_qr_scan"}, "lat": 38.897334, "is_reserved": 0, "is_disabled": 0, "fusion_lat": 0.0}, {"fusion_lon": 0.0, "bike_id": "fced3af9c75e44baf3235fde3610b7eb", "name": "fced3af9c75e44baf3235fde3610b7eb", "type": "electric_scooter", "lon": -77.02389833333334, "rental_uris": {"android": "https://dc.lft.to/lastmile_qr_scan", "ios": "https://dc.lft.to/lastmile_qr_scan"}, "lat": 38.9150755, "is_reserved": 0, "is_disabled": 0, "fusion_lat": 0.0}, {"fusion_lon": 0.0, "bike_id": "b1f6f6ea7b66fa0d4301ea5172627289", "name": "b1f6f6ea7b66fa0d4301ea5172627289", "type": "electric_bike", "lon": -76.91657116666667, "rental_uris": {"android": "https://dc.lft.to/lastmile_qr_scan", "ios": "https://dc.lft.to/lastmile_qr_scan"}, "lat": 38.86858733333333, "is_reserved": 0, "is_disabled": 0, "fusion_lat": 0.0}, {"fusion_lon": 0.0, "bike_id": "c835aca7179e02cba087769145c43d29", "name": "c835aca7179e02cba087769145c43d29", "type": "electric_scooter", "lon": -77.04024466666667, "rental_uris": {"android": "https://dc.lft.to/lastmile_qr_scan", "ios": "https://dc.lft.to/lastmile_qr_scan"}, "lat": 38.913124333333336, "is_reserved": 0, "is_disabled": 0, "fusion_lat": 0.0}, {"fusion_lon": 0.0, "bike_id": "5026a784164e2e22d1ecc51a219ef0d1", "name": "5026a784164e2e22d1ecc51a219ef0d1", "type": "electric_scooter", "lon": -77.03278833333333, "rental_uris": {"android": "https://dc.lft.to/lastmile_qr_scan", "ios": "https://dc.lft.to/lastmile_qr_scan"}, "lat": 38.897265166666664, "is_reserved": 0, "is_disabled": 0, "fusion_lat": 0.0}, {"fusion_lon": 0.0, "bike_id": "49b0654c99faca611d950f15b13ad758", "name": "49b0654c99faca611d950f15b13ad758", "type": "electric_scooter", "lon": -77.02584983333334, "rental_uris": {"android": "https://dc.lft.to/lastmile_qr_scan", "ios": "https://dc.lft.to/lastmile_qr_scan"}, "lat": 38.895290833333334, "is_reserved": 0, "is_disabled": 0, "fusion_lat": 0.0}, {"fusion_lon": 0.0, "bike_id": "04d3c2f63edbcc6bedc17b86224c0b76", "name": "04d3c2f63edbcc6bedc17b86224c0b76", "type": "electric_scooter", "lon": -77.04194383333333, "rental_uris": {"android": "https://dc.lft.to/lastmile_qr_scan", "ios": "https://dc.lft.to/lastmile_qr_scan"}, "lat": 38.9233615, "is_reserved": 0, "is_disabled": 0, "fusion_lat": 0.0}, {"fusion_lon": 0.0, "bike_id": "1f64a2d2212aaed794b0b9a2a087faaf", "name": "1f64a2d2212aaed794b0b9a2a087faaf", "type": "electric_scooter", "lon": -77.0712075, "rental_uris": {"android": "https://dc.lft.to/lastmile_qr_scan", "ios": "https://dc.lft.to/lastmile_qr_scan"}, "lat": 38.91981216666667, "is_reserved": 0, "is_disabled": 0, "fusion_lat": 0.0}, {"fusion_lon": 0.0, "bike_id": "d469849d7a6960d3a21ff41077b6afbe", "name": "d469849d7a6960d3a21ff41077b6afbe", "type": "electric_scooter", "lon": -77.048776, "rental_uris": {"android": "https://dc.lft.to/lastmile_qr_scan", "ios": "https://dc.lft.to/lastmile_qr_scan"}, "lat": 38.9035495, "is_reserved": 0, "is_disabled": 0, "fusion_lat": 0.0}, {"fusion_lon": 0.0, "bike_id": "d036e5ef99ee76b9898c61da9a26ab53", "name": "d036e5ef99ee76b9898c61da9a26ab53", "type": "electric_scooter", "lon": -76.94995766666666, "rental_uris": {"android": "https://dc.lft.to/lastmile_qr_scan", "ios": "https://dc.lft.to/lastmile_qr_scan"}, "lat": 38.893898166666666, "is_reserved": 0, "is_disabled": 0, "fusion_lat": 0.0}, {"fusion_lon": 0.0, "bike_id": "6192b33877e5b74cc62393d00cb77e00", "name": "6192b33877e5b74cc62393d00cb77e00", "type": "electric_scooter", "lon": -76.94250216666667, "rental_uris": {"android": "https://dc.lft.to/lastmile_qr_scan", "ios": "https://dc.lft.to/lastmile_qr_scan"}, "lat": 38.89677616666667, "is_reserved": 0, "is_disabled": 0, "fusion_lat": 0.0}, {"fusion_lon": 0.0, "bike_id": "809d5ff9c3edca6f5352d67c3b7aa5d0", "name": "809d5ff9c3edca6f5352d67c3b7aa5d0", "type": "electric_scooter", "lon": -77.04559133333333, "rental_uris": {"android": "https://dc.lft.to/lastmile_qr_scan", "ios": "https://dc.lft.to/lastmile_qr_scan"}, "lat": 38.92071266666667, "is_reserved": 0, "is_disabled": 0, "fusion_lat": 0.0}, {"fusion_lon": 0.0, "bike_id": "1b3463188a97b069b869dc1e521025f3", "name": "1b3463188a97b069b869dc1e521025f3", "type": "electric_scooter", "lon": -76.97554716666667, "rental_uris": {"android": "https://dc.lft.to/lastmile_qr_scan", "ios": "https://dc.lft.to/lastmile_qr_scan"}, "lat": 38.90257866666666, "is_reserved": 0, "is_disabled": 0, "fusion_lat": 0.0}, {"fusion_lon": 0.0, "bike_id": "e4d7f48930faf91568396272ccfda9bd", "name": "e4d7f48930faf91568396272ccfda9bd", "type": "electric_scooter", "lon": -77.01574783333334, "rental_uris": {"android": "https://dc.lft.to/lastmile_qr_scan", "ios": "https://dc.lft.to/lastmile_qr_scan"}, "lat": 38.8726295, "is_reserved": 0, "is_disabled": 0, "fusion_lat": 0.0}, {"fusion_lon": 0.0, "bike_id": "29af4143f74171afba007f4e7469fb0e", "name": "29af4143f74171afba007f4e7469fb0e", "type": "electric_scooter", "lon": -77.05282883333334, "rental_uris": {"android": "https://dc.lft.to/lastmile_qr_scan", "ios": "https://dc.lft.to/lastmile_qr_scan"}, "lat": 38.925591833333336, "is_reserved": 0, "is_disabled": 0, "fusion_lat": 0.0}, {"fusion_lon": 0.0, "bike_id": "83aa5045feb53a7be45d83ae47605b68", "name": "83aa5045feb53a7be45d83ae47605b68", "type": "electric_scooter", "lon": -77.04160683333333, "rental_uris": {"android": "https://dc.lft.to/lastmile_qr_scan", "ios": "https://dc.lft.to/lastmile_qr_scan"}, "lat": 38.9071845, "is_reserved": 0, "is_disabled": 0, "fusion_lat": 0.0}, {"fusion_lon": 0.0, "bike_id": "eef5016190bb98eb44aa3afca9a366d4", "name": "eef5016190bb98eb44aa3afca9a366d4", "type": "electric_scooter", "lon": -76.99905833333334, "rental_uris": {"android": "https://dc.lft.to/lastmile_qr_scan", "ios": "https://dc.lft.to/lastmile_qr_scan"}, "lat": 38.92459, "is_reserved": 0, "is_disabled": 0, "fusion_lat": 0.0}, {"fusion_lon": 0.0, "bike_id": "56b8235a4b9fe4a8dece8ef9add4f5d1", "name": "56b8235a4b9fe4a8dece8ef9add4f5d1", "type": "electric_scooter", "lon": -77.02449416666667, "rental_uris": {"android": "https://dc.lft.to/lastmile_qr_scan", "ios": "https://dc.lft.to/lastmile_qr_scan"}, "lat": 38.9367035, "is_reserved": 0, "is_disabled": 0, "fusion_lat": 0.0}, {"fusion_lon": 0.0, "bike_id": "3d2c8502fc16d857dc0ac4d54fde6de8", "name": "3d2c8502fc16d857dc0ac4d54fde6de8", "type": "electric_bike", "lon": -77.039873, "rental_uris": {"android": "https://dc.lft.to/lastmile_qr_scan", "ios": "https://dc.lft.to/lastmile_qr_scan"}, "lat": 38.80299433333333, "is_reserved": 0, "is_disabled": 0, "fusion_lat": 0.0}, {"fusion_lon": 0.0, "bike_id": "9b4c6f99224aa993d09d345672a3b241", "name": "9b4c6f99224aa993d09d345672a3b241", "type": "electric_scooter", "lon": -77.039091, "rental_uris": {"android": "https://dc.lft.to/lastmile_qr_scan", "ios": "https://dc.lft.to/lastmile_qr_scan"}, "lat": 38.91265333333333, "is_reserved": 0, "is_disabled": 0, "fusion_lat": 0.0}, {"fusion_lon": 0.0, "bike_id": "be215bbe403220a7e40ab162caa50846", "name": "be215bbe403220a7e40ab162caa50846", "type": "electric_scooter", "lon": -76.98612416666667, "rental_uris": {"android": "https://dc.lft.to/lastmile_qr_scan", "ios": "https://dc.lft.to/lastmile_qr_scan"}, "lat": 38.854596666666666, "is_reserved": 0, "is_disabled": 0, "fusion_lat": 0.0}, {"fusion_lon": 0.0, "bike_id": "2bd95a895aba2a1cadd1bf1b0199af9a", "name": "2bd95a895aba2a1cadd1bf1b0199af9a", "type": "electric_scooter", "lon": -77.007148, "rental_uris": {"android": "https://dc.lft.to/lastmile_qr_scan", "ios": "https://dc.lft.to/lastmile_qr_scan"}, "lat": 38.88490816666667, "is_reserved": 0, "is_disabled": 0, "fusion_lat": 0.0}, {"fusion_lon": 0.0, "bike_id": "bd6d6c34a3a85eba997047e4ebf13e0d", "name": "bd6d6c34a3a85eba997047e4ebf13e0d", "type": "electric_scooter", "lon": -77.04878283333333, "rental_uris": {"android": "https://dc.lft.to/lastmile_qr_scan", "ios": "https://dc.lft.to/lastmile_qr_scan"}, "lat": 38.903635, "is_reserved": 0, "is_disabled": 0, "fusion_lat": 0.0}, {"fusion_lon": 0.0, "bike_id": "dec6d5ff3a2462cc101530bdd36ccd52", "name": "dec6d5ff3a2462cc101530bdd36ccd52", "type": "electric_scooter", "lon": -77.03190383333333, "rental_uris": {"android": "https://dc.lft.to/lastmile_qr_scan", "ios": "https://dc.lft.to/lastmile_qr_scan"}, "lat": 38.899931, "is_reserved": 0, "is_disabled": 0, "fusion_lat": 0.0}, {"fusion_lon": 0.0, "bike_id": "56eb64b659bd9eab01e24d7457f6df40", "name": "56eb64b659bd9eab01e24d7457f6df40", "type": "electric_bike", "lon": -77.360946, "rental_uris": {"android": "https://dc.lft.to/lastmile_qr_scan", "ios": "https://dc.lft.to/lastmile_qr_scan"}, "lat": 38.93957616666667, "is_reserved": 0, "is_disabled": 0, "fusion_lat": 0.0}, {"fusion_lon": 0.0, "bike_id": "556ad580ccb7927c072f0a5d9c26257a", "name": "556ad580ccb7927c072f0a5d9c26257a", "type": "electric_scooter", "lon": -77.04211083333334, "rental_uris": {"android": "https://dc.lft.to/lastmile_qr_scan", "ios": "https://dc.lft.to/lastmile_qr_scan"}, "lat": 38.92318183333333, "is_reserved": 0, "is_disabled": 0, "fusion_lat": 0.0}, {"fusion_lon": 0.0, "bike_id": "5491dfc0bcbe966679e0e4acda0f2bc7", "name": "5491dfc0bcbe966679e0e4acda0f2bc7", "type": "electric_scooter", "lon": -76.99964666666666, "rental_uris": {"android": "https://dc.lft.to/lastmile_qr_scan", "ios": "https://dc.lft.to/lastmile_qr_scan"}, "lat": 38.893217666666665, "is_reserved": 0, "is_disabled": 0, "fusion_lat": 0.0}, {"fusion_lon": 0.0, "bike_id": "24ead7b6e2eac53cb59a7251e772dc4d", "name": "24ead7b6e2eac53cb59a7251e772dc4d", "type": "electric_scooter", "lon": -77.03337466666666, "rental_uris": {"android": "https://dc.lft.to/lastmile_qr_scan", "ios": "https://dc.lft.to/lastmile_qr_scan"}, "lat": 38.900116, "is_reserved": 0, "is_disabled": 0, "fusion_lat": 0.0}, {"fusion_lon": 0.0, "bike_id": "86d8af5c45fe34d16393131addf9ece7", "name": "86d8af5c45fe34d16393131addf9ece7", "type": "electric_scooter", "lon": -77.01695416666666, "rental_uris": {"android": "https://dc.lft.to/lastmile_qr_scan", "ios": "https://dc.lft.to/lastmile_qr_scan"}, "lat": 38.97496783333333, "is_reserved": 0, "is_disabled": 0, "fusion_lat": 0.0}, {"fusion_lon": 0.0, "bike_id": "99255a74c6cd9fc2ee5c04c145ea21de", "name": "99255a74c6cd9fc2ee5c04c145ea21de", "type": "electric_scooter", "lon": -77.02221266666666, "rental_uris": {"android": "https://dc.lft.to/lastmile_qr_scan", "ios": "https://dc.lft.to/lastmile_qr_scan"}, "lat": 38.892198, "is_reserved": 0, "is_disabled": 0, "fusion_lat": 0.0}, {"fusion_lon": 0.0, "bike_id": "fea4f0af4a3108aa9a4737e8cc702620", "name": "fea4f0af4a3108aa9a4737e8cc702620", "type": "electric_scooter", "lon": -77.02170233333334, "rental_uris": {"android": "https://dc.lft.to/lastmile_qr_scan", "ios": "https://dc.lft.to/lastmile_qr_scan"}, "lat": 38.94293716666667, "is_reserved": 0, "is_disabled": 0, "fusion_lat": 0.0}, {"fusion_lon": 0.0, "bike_id": "aac6dca6cc25679a3368dfa93f0ab9f9", "name": "aac6dca6cc25679a3368dfa93f0ab9f9", "type": "electric_scooter", "lon": -77.03049133333333, "rental_uris": {"android": "https://dc.lft.to/lastmile_qr_scan", "ios": "https://dc.lft.to/lastmile_qr_scan"}, "lat": 38.9397855, "is_reserved": 0, "is_disabled": 0, "fusion_lat": 0.0}, {"fusion_lon": 0.0, "bike_id": "73ac4db3d7674c4e49a608df6437d4f6", "name": "73ac4db3d7674c4e49a608df6437d4f6", "type": "electric_scooter", "lon": -77.03789883333333, "rental_uris": {"android": "https://dc.lft.to/lastmile_qr_scan", "ios": "https://dc.lft.to/lastmile_qr_scan"}, "lat": 38.9262595, "is_reserved": 0, "is_disabled": 0, "fusion_lat": 0.0}, {"fusion_lon": 0.0, "bike_id": "f2ef6409e365e363981ff24e2442140a", "name": "f2ef6409e365e363981ff24e2442140a", "type": "electric_scooter", "lon": -77.047628, "rental_uris": {"android": "https://dc.lft.to/lastmile_qr_scan", "ios": "https://dc.lft.to/lastmile_qr_scan"}, "lat": 38.909584333333335, "is_reserved": 0, "is_disabled": 0, "fusion_lat": 0.0}, {"fusion_lon": 0.0, "bike_id": "eb5c617da3a5f5605ec295beba84e0ff", "name": "eb5c617da3a5f5605ec295beba84e0ff", "type": "electric_scooter", "lon": -77.02285916666666, "rental_uris": {"android": "https://dc.lft.to/lastmile_qr_scan", "ios": "https://dc.lft.to/lastmile_qr_scan"}, "lat": 38.91662566666667, "is_reserved": 0, "is_disabled": 0, "fusion_lat": 0.0}, {"fusion_lon": 0.0, "bike_id": "892a424f253791ef702310929e5f02b1", "name": "892a424f253791ef702310929e5f02b1", "type": "electric_scooter", "lon": -77.01406116666666, "rental_uris": {"android": "https://dc.lft.to/lastmile_qr_scan", "ios": "https://dc.lft.to/lastmile_qr_scan"}, "lat": 38.879084, "is_reserved": 0, "is_disabled": 0, "fusion_lat": 0.0}, {"fusion_lon": 0.0, "bike_id": "1c851a2e3f73645b8ada2e5b1338f3ab", "name": "1c851a2e3f73645b8ada2e5b1338f3ab", "type": "electric_scooter", "lon": -77.03171183333333, "rental_uris": {"android": "https://dc.lft.to/lastmile_qr_scan", "ios": "https://dc.lft.to/lastmile_qr_scan"}, "lat": 38.9271065, "is_reserved": 0, "is_disabled": 0, "fusion_lat": 0.0}, {"fusion_lon": 0.0, "bike_id": "ab887896aa759b2d62acde04c75f5d06", "name": "ab887896aa759b2d62acde04c75f5d06", "type": "electric_scooter", "lon": -77.02116383333333, "rental_uris": {"android": "https://dc.lft.to/lastmile_qr_scan", "ios": "https://dc.lft.to/lastmile_qr_scan"}, "lat": 38.91738016666667, "is_reserved": 0, "is_disabled": 0, "fusion_lat": 0.0}, {"fusion_lon": 0.0, "bike_id": "afa8e40e25704ef714c83959760cf267", "name": "afa8e40e25704ef714c83959760cf267", "type": "electric_bike", "lon": -76.97995566666667, "rental_uris": {"android": "https://dc.lft.to/lastmile_qr_scan", "ios": "https://dc.lft.to/lastmile_qr_scan"}, "lat": 38.877557, "is_reserved": 0, "is_disabled": 0, "fusion_lat": 0.0}, {"fusion_lon": 0.0, "bike_id": "0d824b642e5f35435dfa861c9312ede6", "name": "0d824b642e5f35435dfa861c9312ede6", "type": "electric_scooter", "lon": -77.03605833333333, "rental_uris": {"android": "https://dc.lft.to/lastmile_qr_scan", "ios": "https://dc.lft.to/lastmile_qr_scan"}, "lat": 38.928526833333336, "is_reserved": 0, "is_disabled": 0, "fusion_lat": 0.0}, {"fusion_lon": 0.0, "bike_id": "b31be6b5ef3de9270dd05880b02d6e25", "name": "b31be6b5ef3de9270dd05880b02d6e25", "type": "electric_scooter", "lon": -76.985884, "rental_uris": {"android": "https://dc.lft.to/lastmile_qr_scan", "ios": "https://dc.lft.to/lastmile_qr_scan"}, "lat": 38.884012166666665, "is_reserved": 0, "is_disabled": 0, "fusion_lat": 0.0}, {"fusion_lon": 0.0, "bike_id": "9a209a081540e93ffa1cfef4b65a497f", "name": "9a209a081540e93ffa1cfef4b65a497f", "type": "electric_scooter", "lon": -77.02273, "rental_uris": {"android": "https://dc.lft.to/lastmile_qr_scan", "ios": "https://dc.lft.to/lastmile_qr_scan"}, "lat": 38.878331, "is_reserved": 0, "is_disabled": 0, "fusion_lat": 0.0}, {"fusion_lon": 0.0, "bike_id": "74cefc5a8d5b54d775af3c2e506599a4", "name": "74cefc5a8d5b54d775af3c2e506599a4", "type": "electric_scooter", "lon": -77.011836, "rental_uris": {"android": "https://dc.lft.to/lastmile_qr_scan", "ios": "https://dc.lft.to/lastmile_qr_scan"}, "lat": 38.89737483333333, "is_reserved": 0, "is_disabled": 0, "fusion_lat": 0.0}, {"fusion_lon": 0.0, "bike_id": "206c80c06ca24d24002b367c773c125d", "name": "206c80c06ca24d24002b367c773c125d", "type": "electric_scooter", "lon": -77.03152466666667, "rental_uris": {"android": "https://dc.lft.to/lastmile_qr_scan", "ios": "https://dc.lft.to/lastmile_qr_scan"}, "lat": 38.927898166666665, "is_reserved": 0, "is_disabled": 0, "fusion_lat": 0.0}, {"fusion_lon": 0.0, "bike_id": "60e5b2422ce8a4ff620627ea2035f72d", "name": "60e5b2422ce8a4ff620627ea2035f72d", "type": "electric_scooter", "lon": -77.00334833333334, "rental_uris": {"android": "https://dc.lft.to/lastmile_qr_scan", "ios": "https://dc.lft.to/lastmile_qr_scan"}, "lat": 38.907041, "is_reserved": 0, "is_disabled": 0, "fusion_lat": 0.0}, {"fusion_lon": 0.0, "bike_id": "0c9eb02aacb3a6a08c89cb6c0ff640b5", "name": "0c9eb02aacb3a6a08c89cb6c0ff640b5", "type": "electric_bike", "lon": -77.0490185, "rental_uris": {"android": "https://dc.lft.to/lastmile_qr_scan", "ios": "https://dc.lft.to/lastmile_qr_scan"}, "lat": 38.874948833333335, "is_reserved": 0, "is_disabled": 0, "fusion_lat": 0.0}, {"fusion_lon": 0.0, "bike_id": "3e0f84b2ed51f76d6709b21f40f0a439", "name": "3e0f84b2ed51f76d6709b21f40f0a439", "type": "electric_scooter", "lon": -77.01797866666666, "rental_uris": {"android": "https://dc.lft.to/lastmile_qr_scan", "ios": "https://dc.lft.to/lastmile_qr_scan"}, "lat": 38.94113083333333, "is_reserved": 0, "is_disabled": 0, "fusion_lat": 0.0}, {"fusion_lon": 0.0, "bike_id": "67619a3cf4f92c61ac391d174aa27e63", "name": "67619a3cf4f92c61ac391d174aa27e63", "type": "electric_scooter", "lon": -77.0091615, "rental_uris": {"android": "https://dc.lft.to/lastmile_qr_scan", "ios": "https://dc.lft.to/lastmile_qr_scan"}, "lat": 38.898876333333334, "is_reserved": 0, "is_disabled": 0, "fusion_lat": 0.0}, {"fusion_lon": 0.0, "bike_id": "82e4761f7d7f6bf2c4d652ed4e6f42b1", "name": "82e4761f7d7f6bf2c4d652ed4e6f42b1", "type": "electric_scooter", "lon": -77.02936516666666, "rental_uris": {"android": "https://dc.lft.to/lastmile_qr_scan", "ios": "https://dc.lft.to/lastmile_qr_scan"}, "lat": 38.9141595, "is_reserved": 0, "is_disabled": 0, "fusion_lat": 0.0}, {"fusion_lon": 0.0, "bike_id": "5dcd7a0e45698264dd55a1e691cea3fe", "name": "5dcd7a0e45698264dd55a1e691cea3fe", "type": "electric_scooter", "lon": -77.00919066666667, "rental_uris": {"android": "https://dc.lft.to/lastmile_qr_scan", "ios": "https://dc.lft.to/lastmile_qr_scan"}, "lat": 38.895506833333336, "is_reserved": 0, "is_disabled": 0, "fusion_lat": 0.0}, {"fusion_lon": 0.0, "bike_id": "40f25f32467b759e44fd2203ecc8a152", "name": "40f25f32467b759e44fd2203ecc8a152", "type": "electric_scooter", "lon": -77.03055883333333, "rental_uris": {"android": "https://dc.lft.to/lastmile_qr_scan", "ios": "https://dc.lft.to/lastmile_qr_scan"}, "lat": 38.884117333333336, "is_reserved": 0, "is_disabled": 0, "fusion_lat": 0.0}, {"fusion_lon": 0.0, "bike_id": "b3bd4342e5cd194c1f50e03877fa281d", "name": "b3bd4342e5cd194c1f50e03877fa281d", "type": "electric_scooter", "lon": -77.05922, "rental_uris": {"android": "https://dc.lft.to/lastmile_qr_scan", "ios": "https://dc.lft.to/lastmile_qr_scan"}, "lat": 38.90998333333334, "is_reserved": 0, "is_disabled": 0, "fusion_lat": 0.0}, {"fusion_lon": 0.0, "bike_id": "0e4a08aab149e8bcc7b957a4b958beac", "name": "0e4a08aab149e8bcc7b957a4b958beac", "type": "electric_scooter", "lon": -77.040211, "rental_uris": {"android": "https://dc.lft.to/lastmile_qr_scan", "ios": "https://dc.lft.to/lastmile_qr_scan"}, "lat": 38.91297183333333, "is_reserved": 0, "is_disabled": 0, "fusion_lat": 0.0}, {"fusion_lon": 0.0, "bike_id": "36651eb9925f4f50932621593b07e43d", "name": "36651eb9925f4f50932621593b07e43d", "type": "electric_scooter", "lon": -77.02803916666667, "rental_uris": {"android": "https://dc.lft.to/lastmile_qr_scan", "ios": "https://dc.lft.to/lastmile_qr_scan"}, "lat": 38.950947666666664, "is_reserved": 0, "is_disabled": 0, "fusion_lat": 0.0}, {"fusion_lon": 0.0, "bike_id": "c65c0635d454f6ada27ede84a1c775e9", "name": "c65c0635d454f6ada27ede84a1c775e9", "type": "electric_bike", "lon": -76.8749605, "rental_uris": {"android": "https://dc.lft.to/lastmile_qr_scan", "ios": "https://dc.lft.to/lastmile_qr_scan"}, "lat": 38.9909035, "is_reserved": 0, "is_disabled": 0, "fusion_lat": 0.0}, {"fusion_lon": 0.0, "bike_id": "34926de68397d8ac8ef4f45cfda3a31b", "name": "34926de68397d8ac8ef4f45cfda3a31b", "type": "electric_bike", "lon": -77.10030883333333, "rental_uris": {"android": "https://dc.lft.to/lastmile_qr_scan", "ios": "https://dc.lft.to/lastmile_qr_scan"}, "lat": 38.9906255, "is_reserved": 0, "is_disabled": 0, "fusion_lat": 0.0}, {"fusion_lon": 0.0, "bike_id": "6128065a31b9403285e5dee9e1aa139b", "name": "6128065a31b9403285e5dee9e1aa139b", "type": "electric_scooter", "lon": -77.0323485, "rental_uris": {"android": "https://dc.lft.to/lastmile_qr_scan", "ios": "https://dc.lft.to/lastmile_qr_scan"}, "lat": 38.905222, "is_reserved": 0, "is_disabled": 0, "fusion_lat": 0.0}, {"fusion_lon": 0.0, "bike_id": "532497bd6bf14e464831f8c3e332d019", "name": "532497bd6bf14e464831f8c3e332d019", "type": "electric_bike", "lon": -77.00079, "rental_uris": {"android": "https://dc.lft.to/lastmile_qr_scan", "ios": "https://dc.lft.to/lastmile_qr_scan"}, "lat": 38.8761165, "is_reserved": 0, "is_disabled": 0, "fusion_lat": 0.0}, {"fusion_lon": 0.0, "bike_id": "722561d76054b1d54baff8c5eb399904", "name": "722561d76054b1d54baff8c5eb399904", "type": "electric_scooter", "lon": -77.0010655, "rental_uris": {"android": "https://dc.lft.to/lastmile_qr_scan", "ios": "https://dc.lft.to/lastmile_qr_scan"}, "lat": 38.91714316666667, "is_reserved": 0, "is_disabled": 0, "fusion_lat": 0.0}, {"fusion_lon": 0.0, "bike_id": "43bc9f6cd9006167f56dfd609444a9b6", "name": "43bc9f6cd9006167f56dfd609444a9b6", "type": "electric_scooter", "lon": -77.052748, "rental_uris": {"android": "https://dc.lft.to/lastmile_qr_scan", "ios": "https://dc.lft.to/lastmile_qr_scan"}, "lat": 38.92244783333334, "is_reserved": 0, "is_disabled": 0, "fusion_lat": 0.0}, {"fusion_lon": 0.0, "bike_id": "91a3138ae97990b1e16ff5e2e1f7d760", "name": "91a3138ae97990b1e16ff5e2e1f7d760", "type": "electric_scooter", "lon": -76.98729683333333, "rental_uris": {"android": "https://dc.lft.to/lastmile_qr_scan", "ios": "https://dc.lft.to/lastmile_qr_scan"}, "lat": 38.86710516666667, "is_reserved": 0, "is_disabled": 0, "fusion_lat": 0.0}, {"fusion_lon": 0.0, "bike_id": "89584c3eb505a518c16cd9b6d5dc7231", "name": "89584c3eb505a518c16cd9b6d5dc7231", "type": "electric_scooter", "lon": -77.02328866666667, "rental_uris": {"android": "https://dc.lft.to/lastmile_qr_scan", "ios": "https://dc.lft.to/lastmile_qr_scan"}, "lat": 38.92405883333333, "is_reserved": 0, "is_disabled": 0, "fusion_lat": 0.0}, {"fusion_lon": 0.0, "bike_id": "bfff23359bf8d0624e807db35a51634e", "name": "bfff23359bf8d0624e807db35a51634e", "type": "electric_scooter", "lon": -77.02904216666667, "rental_uris": {"android": "https://dc.lft.to/lastmile_qr_scan", "ios": "https://dc.lft.to/lastmile_qr_scan"}, "lat": 38.904454333333334, "is_reserved": 0, "is_disabled": 0, "fusion_lat": 0.0}, {"fusion_lon": 0.0, "bike_id": "e2a065d1094bc0f21b7b24f2a56222f7", "name": "e2a065d1094bc0f21b7b24f2a56222f7", "type": "electric_scooter", "lon": -77.02416416666667, "rental_uris": {"android": "https://dc.lft.to/lastmile_qr_scan", "ios": "https://dc.lft.to/lastmile_qr_scan"}, "lat": 38.957460833333336, "is_reserved": 0, "is_disabled": 0, "fusion_lat": 0.0}, {"fusion_lon": 0.0, "bike_id": "c3a56a9814999d766abebbc61a2814b1", "name": "c3a56a9814999d766abebbc61a2814b1", "type": "electric_scooter", "lon": -77.03636616666667, "rental_uris": {"android": "https://dc.lft.to/lastmile_qr_scan", "ios": "https://dc.lft.to/lastmile_qr_scan"}, "lat": 38.9281645, "is_reserved": 0, "is_disabled": 0, "fusion_lat": 0.0}, {"fusion_lon": 0.0, "bike_id": "cd37347de16bb6abb73278291b83f8c0", "name": "cd37347de16bb6abb73278291b83f8c0", "type": "electric_bike", "lon": -77.00604416666667, "rental_uris": {"android": "https://dc.lft.to/lastmile_qr_scan", "ios": "https://dc.lft.to/lastmile_qr_scan"}, "lat": 38.89796166666667, "is_reserved": 0, "is_disabled": 0, "fusion_lat": 0.0}, {"fusion_lon": 0.0, "bike_id": "cd03b15fa75b80c6b0373b7ac17412ae", "name": "cd03b15fa75b80c6b0373b7ac17412ae", "type": "electric_scooter", "lon": -76.94158466666667, "rental_uris": {"android": "https://dc.lft.to/lastmile_qr_scan", "ios": "https://dc.lft.to/lastmile_qr_scan"}, "lat": 38.88363, "is_reserved": 0, "is_disabled": 0, "fusion_lat": 0.0}, {"fusion_lon": 0.0, "bike_id": "b29ed074ff2119c566ac1626fb1c6871", "name": "b29ed074ff2119c566ac1626fb1c6871", "type": "electric_scooter", "lon": -77.02482366666666, "rental_uris": {"android": "https://dc.lft.to/lastmile_qr_scan", "ios": "https://dc.lft.to/lastmile_qr_scan"}, "lat": 38.8801135, "is_reserved": 0, "is_disabled": 0, "fusion_lat": 0.0}, {"fusion_lon": 0.0, "bike_id": "e2311809f5abb995bbe0e46dba57e507", "name": "e2311809f5abb995bbe0e46dba57e507", "type": "electric_scooter", "lon": -77.03448883333333, "rental_uris": {"android": "https://dc.lft.to/lastmile_qr_scan", "ios": "https://dc.lft.to/lastmile_qr_scan"}, "lat": 38.9149055, "is_reserved": 0, "is_disabled": 0, "fusion_lat": 0.0}, {"fusion_lon": 0.0, "bike_id": "7d6ff3521def562572ad9fef6ddbeffa", "name": "7d6ff3521def562572ad9fef6ddbeffa", "type": "electric_scooter", "lon": -77.00713366666666, "rental_uris": {"android": "https://dc.lft.to/lastmile_qr_scan", "ios": "https://dc.lft.to/lastmile_qr_scan"}, "lat": 38.876800333333335, "is_reserved": 0, "is_disabled": 0, "fusion_lat": 0.0}, {"fusion_lon": 0.0, "bike_id": "48e85d1d1498d1d5ea69ada229ae5adc", "name": "48e85d1d1498d1d5ea69ada229ae5adc", "type": "electric_scooter", "lon": -76.97274383333334, "rental_uris": {"android": "https://dc.lft.to/lastmile_qr_scan", "ios": "https://dc.lft.to/lastmile_qr_scan"}, "lat": 38.930872, "is_reserved": 0, "is_disabled": 0, "fusion_lat": 0.0}, {"fusion_lon": 0.0, "bike_id": "1802d8accb22d9778e6e2a3b09b60738", "name": "1802d8accb22d9778e6e2a3b09b60738", "type": "electric_scooter", "lon": -77.041593, "rental_uris": {"android": "https://dc.lft.to/lastmile_qr_scan", "ios": "https://dc.lft.to/lastmile_qr_scan"}, "lat": 38.89885, "is_reserved": 0, "is_disabled": 0, "fusion_lat": 0.0}, {"fusion_lon": 0.0, "bike_id": "d1db2215cb5bf08e8462e6c3ac86c229", "name": "d1db2215cb5bf08e8462e6c3ac86c229", "type": "electric_scooter", "lon": -77.054185, "rental_uris": {"android": "https://dc.lft.to/lastmile_qr_scan", "ios": "https://dc.lft.to/lastmile_qr_scan"}, "lat": 38.92828216666667, "is_reserved": 0, "is_disabled": 0, "fusion_lat": 0.0}, {"fusion_lon": 0.0, "bike_id": "a6f53bc675f31c170b28de4b0a6eed36", "name": "a6f53bc675f31c170b28de4b0a6eed36", "type": "electric_scooter", "lon": -77.02284033333333, "rental_uris": {"android": "https://dc.lft.to/lastmile_qr_scan", "ios": "https://dc.lft.to/lastmile_qr_scan"}, "lat": 38.917146833333334, "is_reserved": 0, "is_disabled": 0, "fusion_lat": 0.0}, {"fusion_lon": 0.0, "bike_id": "e6f83217da3e7f072e6832bbfbca9346", "name": "e6f83217da3e7f072e6832bbfbca9346", "type": "electric_scooter", "lon": -77.04899666666667, "rental_uris": {"android": "https://dc.lft.to/lastmile_qr_scan", "ios": "https://dc.lft.to/lastmile_qr_scan"}, "lat": 38.89230383333334, "is_reserved": 0, "is_disabled": 0, "fusion_lat": 0.0}, {"fusion_lon": 0.0, "bike_id": "a8d78f620707dece2cc31b180c98adb2", "name": "a8d78f620707dece2cc31b180c98adb2", "type": "electric_scooter", "lon": -77.04090366666667, "rental_uris": {"android": "https://dc.lft.to/lastmile_qr_scan", "ios": "https://dc.lft.to/lastmile_qr_scan"}, "lat": 38.90778266666667, "is_reserved": 0, "is_disabled": 0, "fusion_lat": 0.0}, {"fusion_lon": 0.0, "bike_id": "871e666ebf9e13869c79308fdc43b108", "name": "871e666ebf9e13869c79308fdc43b108", "type": "electric_scooter", "lon": -77.04604783333333, "rental_uris": {"android": "https://dc.lft.to/lastmile_qr_scan", "ios": "https://dc.lft.to/lastmile_qr_scan"}, "lat": 38.916981666666665, "is_reserved": 0, "is_disabled": 0, "fusion_lat": 0.0}, {"fusion_lon": 0.0, "bike_id": "5765337f8084373baf8d2a561b0fe170", "name": "5765337f8084373baf8d2a561b0fe170", "type": "electric_scooter", "lon": -77.03367183333333, "rental_uris": {"android": "https://dc.lft.to/lastmile_qr_scan", "ios": "https://dc.lft.to/lastmile_qr_scan"}, "lat": 38.90021566666667, "is_reserved": 0, "is_disabled": 0, "fusion_lat": 0.0}, {"fusion_lon": 0.0, "bike_id": "3204d989376a23155da032fdd87ee7b7", "name": "3204d989376a23155da032fdd87ee7b7", "type": "electric_scooter", "lon": -77.07226616666667, "rental_uris": {"android": "https://dc.lft.to/lastmile_qr_scan", "ios": "https://dc.lft.to/lastmile_qr_scan"}, "lat": 38.934605833333336, "is_reserved": 0, "is_disabled": 0, "fusion_lat": 0.0}, {"fusion_lon": 0.0, "bike_id": "8092daf351d86135794a347d514b8eef", "name": "8092daf351d86135794a347d514b8eef", "type": "electric_bike", "lon": -76.965603, "rental_uris": {"android": "https://dc.lft.to/lastmile_qr_scan", "ios": "https://dc.lft.to/lastmile_qr_scan"}, "lat": 38.9508675, "is_reserved": 0, "is_disabled": 0, "fusion_lat": 0.0}, {"fusion_lon": 0.0, "bike_id": "c334d36a352cf53c578f2664a45e7b7c", "name": "c334d36a352cf53c578f2664a45e7b7c", "type": "electric_scooter", "lon": -77.04112016666667, "rental_uris": {"android": "https://dc.lft.to/lastmile_qr_scan", "ios": "https://dc.lft.to/lastmile_qr_scan"}, "lat": 38.916959, "is_reserved": 0, "is_disabled": 0, "fusion_lat": 0.0}, {"fusion_lon": 0.0, "bike_id": "f812f827572c0a46c363aa2e79379382", "name": "f812f827572c0a46c363aa2e79379382", "type": "electric_scooter", "lon": -77.01999883333333, "rental_uris": {"android": "https://dc.lft.to/lastmile_qr_scan", "ios": "https://dc.lft.to/lastmile_qr_scan"}, "lat": 38.966282, "is_reserved": 0, "is_disabled": 0, "fusion_lat": 0.0}, {"fusion_lon": 0.0, "bike_id": "9fd0398f5962601adde74d8d468291d9", "name": "9fd0398f5962601adde74d8d468291d9", "type": "electric_scooter", "lon": -77.04649916666666, "rental_uris": {"android": "https://dc.lft.to/lastmile_qr_scan", "ios": "https://dc.lft.to/lastmile_qr_scan"}, "lat": 38.9157545, "is_reserved": 0, "is_disabled": 0, "fusion_lat": 0.0}, {"fusion_lon": 0.0, "bike_id": "4d153c3f86982c07029d48e2b5cf4265", "name": "4d153c3f86982c07029d48e2b5cf4265", "type": "electric_scooter", "lon": -77.045766, "rental_uris": {"android": "https://dc.lft.to/lastmile_qr_scan", "ios": "https://dc.lft.to/lastmile_qr_scan"}, "lat": 38.924129666666666, "is_reserved": 0, "is_disabled": 0, "fusion_lat": 0.0}, {"fusion_lon": 0.0, "bike_id": "bac4cdce933991d61733aea697484801", "name": "bac4cdce933991d61733aea697484801", "type": "electric_scooter", "lon": -77.02794333333334, "rental_uris": {"android": "https://dc.lft.to/lastmile_qr_scan", "ios": "https://dc.lft.to/lastmile_qr_scan"}, "lat": 38.916768833333336, "is_reserved": 0, "is_disabled": 0, "fusion_lat": 0.0}, {"fusion_lon": 0.0, "bike_id": "eb4b5f5b0f8030be7009b3677cdcfa0a", "name": "eb4b5f5b0f8030be7009b3677cdcfa0a", "type": "electric_bike", "lon": -77.0447785, "rental_uris": {"android": "https://dc.lft.to/lastmile_qr_scan", "ios": "https://dc.lft.to/lastmile_qr_scan"}, "lat": 38.9040305, "is_reserved": 0, "is_disabled": 0, "fusion_lat": 0.0}, {"fusion_lon": 0.0, "bike_id": "61ddf17dcc5c7a46d9118886316a5b6a", "name": "61ddf17dcc5c7a46d9118886316a5b6a", "type": "electric_scooter", "lon": -77.011092, "rental_uris": {"android": "https://dc.lft.to/lastmile_qr_scan", "ios": "https://dc.lft.to/lastmile_qr_scan"}, "lat": 38.9096875, "is_reserved": 0, "is_disabled": 0, "fusion_lat": 0.0}, {"fusion_lon": 0.0, "bike_id": "10d347dbb7adc40c47a34bb471755b4c", "name": "10d347dbb7adc40c47a34bb471755b4c", "type": "electric_bike", "lon": -77.01078116666666, "rental_uris": {"android": "https://dc.lft.to/lastmile_qr_scan", "ios": "https://dc.lft.to/lastmile_qr_scan"}, "lat": 38.962857666666665, "is_reserved": 0, "is_disabled": 0, "fusion_lat": 0.0}, {"fusion_lon": 0.0, "bike_id": "78444f2ec7fd890c61b759b0d624da82", "name": "78444f2ec7fd890c61b759b0d624da82", "type": "electric_scooter", "lon": -77.01443233333333, "rental_uris": {"android": "https://dc.lft.to/lastmile_qr_scan", "ios": "https://dc.lft.to/lastmile_qr_scan"}, "lat": 38.91312933333333, "is_reserved": 0, "is_disabled": 0, "fusion_lat": 0.0}, {"fusion_lon": 0.0, "bike_id": "23155e9be31e18282cba2ae0a3c9b6ac", "name": "23155e9be31e18282cba2ae0a3c9b6ac", "type": "electric_scooter", "lon": -77.02373133333333, "rental_uris": {"android": "https://dc.lft.to/lastmile_qr_scan", "ios": "https://dc.lft.to/lastmile_qr_scan"}, "lat": 38.90197416666667, "is_reserved": 0, "is_disabled": 0, "fusion_lat": 0.0}, {"fusion_lon": 0.0, "bike_id": "2ae3eb39476b02228f566b3220e9acee", "name": "2ae3eb39476b02228f566b3220e9acee", "type": "electric_scooter", "lon": -77.05009066666666, "rental_uris": {"android": "https://dc.lft.to/lastmile_qr_scan", "ios": "https://dc.lft.to/lastmile_qr_scan"}, "lat": 38.905303833333335, "is_reserved": 0, "is_disabled": 0, "fusion_lat": 0.0}, {"fusion_lon": 0.0, "bike_id": "5e4965a680432f8b6d411bde47ef00ed", "name": "5e4965a680432f8b6d411bde47ef00ed", "type": "electric_scooter", "lon": -77.032565, "rental_uris": {"android": "https://dc.lft.to/lastmile_qr_scan", "ios": "https://dc.lft.to/lastmile_qr_scan"}, "lat": 38.93261616666667, "is_reserved": 0, "is_disabled": 0, "fusion_lat": 0.0}, {"fusion_lon": 0.0, "bike_id": "eee4bb21d18df8db6c239f1892573cd9", "name": "eee4bb21d18df8db6c239f1892573cd9", "type": "electric_scooter", "lon": -77.03185766666667, "rental_uris": {"android": "https://dc.lft.to/lastmile_qr_scan", "ios": "https://dc.lft.to/lastmile_qr_scan"}, "lat": 38.90790366666667, "is_reserved": 0, "is_disabled": 0, "fusion_lat": 0.0}, {"fusion_lon": 0.0, "bike_id": "75667414f8e52d60257f576f88473fa1", "name": "75667414f8e52d60257f576f88473fa1", "type": "electric_scooter", "lon": -77.04174783333333, "rental_uris": {"android": "https://dc.lft.to/lastmile_qr_scan", "ios": "https://dc.lft.to/lastmile_qr_scan"}, "lat": 38.92004466666667, "is_reserved": 0, "is_disabled": 0, "fusion_lat": 0.0}, {"fusion_lon": 0.0, "bike_id": "22a731bdc36f0a9ee48d9c43b78b7be4", "name": "22a731bdc36f0a9ee48d9c43b78b7be4", "type": "electric_scooter", "lon": -77.03429, "rental_uris": {"android": "https://dc.lft.to/lastmile_qr_scan", "ios": "https://dc.lft.to/lastmile_qr_scan"},