{"data": {"bikes": [{"is_reserved": 0, "type": "electric_scooter", "fusion_lat": 0.0, "is_disabled": 0, "rental_uris": {"ios": "https://dc.lft.to/lastmile_qr_scan", "android": "https://dc.lft.to/lastmile_qr_scan"}, "bike_id": "48005b3b588b46f2c774d082e2e70479", "lat": 38.899416, "name": "48005b3b588b46f2c774d082e2e70479", "lon": -77.014507, "fusion_lon": 0.0}, {"is_reserved": 0, "type": "electric_scooter", "fusion_lat": 0.0, "is_disabled": 0, "rental_uris": {"ios": "https://dc.lft.to/lastmile_qr_scan", "android": "https://dc.lft.to/lastmile_qr_scan"}, "bike_id": "521a2b880be93d370c9bb97b26c7af0a", "lat": 38.919775666666666, "name": "521a2b880be93d370c9bb97b26c7af0a", "lon": -77.02360116666667, "fusion_lon": 0.0}, {"is_reserved": 0, "type": "electric_scooter", "fusion_lat": 0.0, "is_disabled": 0, "rental_uris": {"ios": "https://dc.lft.to/lastmile_qr_scan", "android": "https://dc.lft.to/lastmile_qr_scan"}, "bike_id": "074f957c2a75b7c9c7fb63d1e58f0852", "lat": 38.92655633333333, "name": "074f957c2a75b7c9c7fb63d1e58f0852", "lon": -77.02436183333333, "fusion_lon": 0.0}, {"is_reserved": 0, "type": "electric_scooter", "fusion_lat": 0.0, "is_disabled": 0, "rental_uris": {"ios": "https://dc.lft.to/lastmile_qr_scan", "android": "https://dc.lft.to/lastmile_qr_scan"}, "bike_id": "dbac3604c73fb2786d2827eaf8e4a1ee", "lat": 38.916197333333336, "name": "dbac3604c73fb2786d2827eaf8e4a1ee", "lon": -77.02958, "fusion_lon": 0.0}, {"is_reserved": 0, "type": "electric_scooter", "fusion_lat": 0.0, "is_disabled": 0, "rental_uris": {"ios": "https://dc.lft.to/lastmile_qr_scan", "android": "https://dc.lft.to/lastmile_qr_scan"}, "bike_id": "b4d191ac3c60107d4ce08ab433b52d7f", "lat": 38.9132915, "name": "b4d191ac3c60107d4ce08ab433b52d7f", "lon": -77.0304075, "fusion_lon": 0.0}, {"is_reserved": 0, "type": "electric_scooter", "fusion_lat": 0.0, "is_disabled": 0, "rental_uris": {"ios": "https://dc.lft.to/lastmile_qr_scan", "android": "https://dc.lft.to/lastmile_qr_scan"}, "bike_id": "1a263ea52fa9fedf1046525426a38b06", "lat": 38.920753833333336, "name": "1a263ea52fa9fedf1046525426a38b06", "lon": -77.024051, "fusion_lon": 0.0}, {"is_reserved": 0, "type": "electric_scooter", "fusion_lat": 0.0, "is_disabled": 0, "rental_uris": {"ios": "https://dc.lft.to/lastmile_qr_scan", "android": "https://dc.lft.to/lastmile_qr_scan"}, "bike_id": "6edba9511fd4c159863de081b37dba81", "lat": 38.92888583333333, "name": "6edba9511fd4c159863de081b37dba81", "lon": -77.0322755, "fusion_lon": 0.0}, {"is_reserved": 0, "type": "electric_scooter", "fusion_lat": 0.0, "is_disabled": 0, "rental_uris": {"ios": "https://dc.lft.to/lastmile_qr_scan", "android": "https://dc.lft.to/lastmile_qr_scan"}, "bike_id": "c12e40f7f0f7d0086b061bceb6797e45", "lat": 38.920705, "name": "c12e40f7f0f7d0086b061bceb6797e45", "lon": -77.024139, "fusion_lon": 0.0}, {"is_reserved": 0, "type": "electric_scooter", "fusion_lat": 0.0, "is_disabled": 0, "rental_uris": {"ios": "https://dc.lft.to/lastmile_qr_scan", "android": "https://dc.lft.to/lastmile_qr_scan"}, "bike_id": "b97abcd81dea376fb0488b1c940ddff1", "lat": 38.9297055, "name": "b97abcd81dea376fb0488b1c940ddff1", "lon": -77.02791216666667, "fusion_lon": 0.0}, {"is_reserved": 0, "type": "electric_scooter", "fusion_lat": 0.0, "is_disabled": 0, "rental_uris": {"ios": "https://dc.lft.to/lastmile_qr_scan", "android": "https://dc.lft.to/lastmile_qr_scan"}, "bike_id": "f54154817cf6287d4911b146e7fc461e", "lat": 38.920586, "name": "f54154817cf6287d4911b146e7fc461e", "lon": -77.02520733333333, "fusion_lon": 0.0}, {"is_reserved": 0, "type": "electric_scooter", "fusion_lat": 0.0, "is_disabled": 0, "rental_uris": {"ios": "https://dc.lft.to/lastmile_qr_scan", "android": "https://dc.lft.to/lastmile_qr_scan"}, "bike_id": "7f697f0a8022bafbfd395a7d712b6448", "lat": 38.92383816666667, "name": "7f697f0a8022bafbfd395a7d712b6448", "lon": -77.03086133333333, "fusion_lon": 0.0}, {"is_reserved": 0, "type": "electric_scooter", "fusion_lat": 0.0, "is_disabled": 0, "rental_uris": {"ios": "https://dc.lft.to/lastmile_qr_scan", "android": "https://dc.lft.to/lastmile_qr_scan"}, "bike_id": "906a13972fd8fcf6cd09e20cc32cc4a9", "lat": 38.89656033333333, "name": "906a13972fd8fcf6cd09e20cc32cc4a9", "lon": -77.04331516666667, "fusion_lon": 0.0}, {"is_reserved": 0, "type": "electric_scooter", "fusion_lat": 0.0, "is_disabled": 0, "rental_uris": {"ios": "https://dc.lft.to/lastmile_qr_scan", "android": "https://dc.lft.to/lastmile_qr_scan"}, "bike_id": "6997a42f5aa71f7e9abfd9f3c18707c3", "lat": 38.92941066666667, "name": "6997a42f5aa71f7e9abfd9f3c18707c3", "lon": -77.03282566666667, "fusion_lon": 0.0}, {"is_reserved": 0, "type": "electric_scooter", "fusion_lat": 0.0, "is_disabled": 0, "rental_uris": {"ios": "https://dc.lft.to/lastmile_qr_scan", "android": "https://dc.lft.to/lastmile_qr_scan"}, "bike_id": "b04d0c3b45773af169f35f954433c5f8", "lat": 38.9173, "name": "b04d0c3b45773af169f35f954433c5f8", "lon": -77.04593033333333, "fusion_lon": 0.0}, {"is_reserved": 0, "type": "electric_bike", "fusion_lat": 0.0, "is_disabled": 0, "rental_uris": {"ios": "https://dc.lft.to/lastmile_qr_scan", "android": "https://dc.lft.to/lastmile_qr_scan"}, "bike_id": "9b2ba6f065bd77e3a1c0e136574924fa", "lat": 38.88027866666667, "name": "9b2ba6f065bd77e3a1c0e136574924fa", "lon": -76.98623833333333, "fusion_lon": 0.0}, {"is_reserved": 0, "type": "electric_scooter", "fusion_lat": 0.0, "is_disabled": 0, "rental_uris": {"ios": "https://dc.lft.to/lastmile_qr_scan", "android": "https://dc.lft.to/lastmile_qr_scan"}, "bike_id": "109c6975802b4ede05227f39cb59b492", "lat": 38.91463666666667, "name": "109c6975802b4ede05227f39cb59b492", "lon": -77.00208433333333, "fusion_lon": 0.0}, {"is_reserved": 0, "type": "electric_scooter", "fusion_lat": 0.0, "is_disabled": 0, "rental_uris": {"ios": "https://dc.lft.to/lastmile_qr_scan", "android": "https://dc.lft.to/lastmile_qr_scan"}, "bike_id": "66d405057d363a90c622be2a5ceca900", "lat": 38.916945166666665, "name": "66d405057d363a90c622be2a5ceca900", "lon": -77.05303016666667, "fusion_lon": 0.0}, {"is_reserved": 0, "type": "electric_scooter", "fusion_lat": 0.0, "is_disabled": 0, "rental_uris": {"ios": "https://dc.lft.to/lastmile_qr_scan", "android": "https://dc.lft.to/lastmile_qr_scan"}, "bike_id": "713d6094af6072809105a1340298fa5f", "lat": 38.91955983333333, "name": "713d6094af6072809105a1340298fa5f", "lon": -77.02373366666667, "fusion_lon": 0.0}, {"is_reserved": 0, "type": "electric_scooter", "fusion_lat": 0.0, "is_disabled": 0, "rental_uris": {"ios": "https://dc.lft.to/lastmile_qr_scan", "android": "https://dc.lft.to/lastmile_qr_scan"}, "bike_id": "c78c582716d37153fed41a1ab8c7c948", "lat": 38.917324666666666, "name": "c78c582716d37153fed41a1ab8c7c948", "lon": -77.06843733333334, "fusion_lon": 0.0}, {"is_reserved": 0, "type": "electric_bike", "fusion_lat": 0.0, "is_disabled": 0, "rental_uris": {"ios": "https://dc.lft.to/lastmile_qr_scan", "android": "https://dc.lft.to/lastmile_qr_scan"}, "bike_id": "b1d69ae7e0e874660cc500acf8104ffa", "lat": 38.82206866666667, "name": "b1d69ae7e0e874660cc500acf8104ffa", "lon": -76.97699266666666, "fusion_lon": 0.0}, {"is_reserved": 0, "type": "electric_bike", "fusion_lat": 0.0, "is_disabled": 0, "rental_uris": {"ios": "https://dc.lft.to/lastmile_qr_scan", "android": "https://dc.lft.to/lastmile_qr_scan"}, "bike_id": "b835eacc3cc5ccd6d69f75867b68e490", "lat": 38.9501745, "name": "b835eacc3cc5ccd6d69f75867b68e490", "lon": -77.01430966666666, "fusion_lon": 0.0}, {"is_reserved": 0, "type": "electric_bike", "fusion_lat": 0.0, "is_disabled": 0, "rental_uris": {"ios": "https://dc.lft.to/lastmile_qr_scan", "android": "https://dc.lft.to/lastmile_qr_scan"}, "bike_id": "4e9bde0f33d403b3c9c96343457b94ac", "lat": 38.93385583333333, "name": "4e9bde0f33d403b3c9c96343457b94ac", "lon": -77.0239045, "fusion_lon": 0.0}, {"is_reserved": 0, "type": "electric_scooter", "fusion_lat": 0.0, "is_disabled": 0, "rental_uris": {"ios": "https://dc.lft.to/lastmile_qr_scan", "android": "https://dc.lft.to/lastmile_qr_scan"}, "bike_id": "02f1e948f38329776fd211e3a6e9c82a", "lat": 38.91713216666667, "name": "02f1e948f38329776fd211e3a6e9c82a", "lon": -77.03892583333334, "fusion_lon": 0.0}, {"is_reserved": 0, "type": "electric_scooter", "fusion_lat": 0.0, "is_disabled": 0, "rental_uris": {"ios": "https://dc.lft.to/lastmile_qr_scan", "android": "https://dc.lft.to/lastmile_qr_scan"}, "bike_id": "295fa6f8a08c728c0c16e1de8d28fdf7", "lat": 38.967974, "name": "295fa6f8a08c728c0c16e1de8d28fdf7", "lon": -77.02564016666666, "fusion_lon": 0.0}, {"is_reserved": 0, "type": "electric_scooter", "fusion_lat": 0.0, "is_disabled": 0, "rental_uris": {"ios": "https://dc.lft.to/lastmile_qr_scan", "android": "https://dc.lft.to/lastmile_qr_scan"}, "bike_id": "a7346bb4daf9bc00deb281b1c7ea48ec", "lat": 38.9048565, "name": "a7346bb4daf9bc00deb281b1c7ea48ec", "lon": -76.94964666666667, "fusion_lon": 0.0}, {"is_reserved": 0, "type": "electric_scooter", "fusion_lat": 0.0, "is_disabled": 0, "rental_uris": {"ios": "https://dc.lft.to/lastmile_qr_scan", "android": "https://dc.lft.to/lastmile_qr_scan"}, "bike_id": "ee02d7a8ceda6f7d23364f39a6f81266", "lat": 38.9245855, "name": "ee02d7a8ceda6f7d23364f39a6f81266", "lon": -77.05217633333334, "fusion_lon": 0.0}, {"is_reserved": 0, "type": "electric_scooter", "fusion_lat": 0.0, "is_disabled": 0, "rental_uris": {"ios": "https://dc.lft.to/lastmile_qr_scan", "android": "https://dc.lft.to/lastmile_qr_scan"}, "bike_id": "96616972d28d5a9e58e76de0b5c55a74", "lat": 38.902787333333336, "name": "96616972d28d5a9e58e76de0b5c55a74", "lon": -77.0489055, "fusion_lon": 0.0}, {"is_reserved": 0, "type": "electric_scooter", "fusion_lat": 0.0, "is_disabled": 0, "rental_uris": {"ios": "https://dc.lft.to/lastmile_qr_scan", "android": "https://dc.lft.to/lastmile_qr_scan"}, "bike_id": "8dc8277139b00149bc30966832cacd3b", "lat": 38.911117, "name": "8dc8277139b00149bc30966832cacd3b", "lon": -77.0208515, "fusion_lon": 0.0}, {"is_reserved": 0, "type": "electric_scooter", "fusion_lat": 0.0, "is_disabled": 0, "rental_uris": {"ios": "https://dc.lft.to/lastmile_qr_scan", "android": "https://dc.lft.to/lastmile_qr_scan"}, "bike_id": "3ce249c716accd891bde2d41a8c16a59", "lat": 38.9275785, "name": "3ce249c716accd891bde2d41a8c16a59", "lon": -77.03273383333334, "fusion_lon": 0.0}, {"is_reserved": 0, "type": "electric_scooter", "fusion_lat": 0.0, "is_disabled": 0, "rental_uris": {"ios": "https://dc.lft.to/lastmile_qr_scan", "android": "https://dc.lft.to/lastmile_qr_scan"}, "bike_id": "dcb7b5dfe5ff63f8358ee2896a7d9d2c", "lat": 38.9071265, "name": "dcb7b5dfe5ff63f8358ee2896a7d9d2c", "lon": -77.00375866666667, "fusion_lon": 0.0}, {"is_reserved": 0, "type": "electric_scooter", "fusion_lat": 0.0, "is_disabled": 0, "rental_uris": {"ios": "https://dc.lft.to/lastmile_qr_scan", "android": "https://dc.lft.to/lastmile_qr_scan"}, "bike_id": "a6d0edaff8d6ebdc15e969e9e19e6b90", "lat": 38.903046333333336, "name": "a6d0edaff8d6ebdc15e969e9e19e6b90", "lon": -77.0280985, "fusion_lon": 0.0}, {"is_reserved": 0, "type": "electric_bike", "fusion_lat": 0.0, "is_disabled": 0, "rental_uris": {"ios": "https://dc.lft.to/lastmile_qr_scan", "android": "https://dc.lft.to/lastmile_qr_scan"}, "bike_id": "763ef32d660284f2df1ed4d55fde92a2", "lat": 38.90385933333334, "name": "763ef32d660284f2df1ed4d55fde92a2", "lon": -76.93761233333333, "fusion_lon": 0.0}, {"is_reserved": 0, "type": "electric_scooter", "fusion_lat": 0.0, "is_disabled": 0, "rental_uris": {"ios": "https://dc.lft.to/lastmile_qr_scan", "android": "https://dc.lft.to/lastmile_qr_scan"}, "bike_id": "9bbb6f0fc330782127bf6d7ea039d5b1", "lat": 38.9003, "name": "9bbb6f0fc330782127bf6d7ea039d5b1", "lon": -77.01187416666667, "fusion_lon": 0.0}, {"is_reserved": 0, "type": "electric_scooter", "fusion_lat": 0.0, "is_disabled": 0, "rental_uris": {"ios": "https://dc.lft.to/lastmile_qr_scan", "android": "https://dc.lft.to/lastmile_qr_scan"}, "bike_id": "943da8a493df9b20d72af77b7978880b", "lat": 38.923689, "name": "943da8a493df9b20d72af77b7978880b", "lon": -77.07299666666667, "fusion_lon": 0.0}, {"is_reserved": 0, "type": "electric_scooter", "fusion_lat": 0.0, "is_disabled": 0, "rental_uris": {"ios": "https://dc.lft.to/lastmile_qr_scan", "android": "https://dc.lft.to/lastmile_qr_scan"}, "bike_id": "823a39a405beddeb575d1c6599304d36", "lat": 38.935416833333335, "name": "823a39a405beddeb575d1c6599304d36", "lon": -77.05748066666666, "fusion_lon": 0.0}, {"is_reserved": 0, "type": "electric_scooter", "fusion_lat": 0.0, "is_disabled": 0, "rental_uris": {"ios": "https://dc.lft.to/lastmile_qr_scan", "android": "https://dc.lft.to/lastmile_qr_scan"}, "bike_id": "18873b95d66f6c88fa229f42478dae20", "lat": 38.91550616666667, "name": "18873b95d66f6c88fa229f42478dae20", "lon": -77.04126416666666, "fusion_lon": 0.0}, {"is_reserved": 0, "type": "electric_scooter", "fusion_lat": 0.0, "is_disabled": 0, "rental_uris": {"ios": "https://dc.lft.to/lastmile_qr_scan", "android": "https://dc.lft.to/lastmile_qr_scan"}, "bike_id": "2fd3db03ed2afe266a8fb86b862fb50b", "lat": 38.88696216666666, "name": "2fd3db03ed2afe266a8fb86b862fb50b", "lon": -77.00060016666667, "fusion_lon": 0.0}, {"is_reserved": 0, "type": "electric_bike", "fusion_lat": 0.0, "is_disabled": 0, "rental_uris": {"ios": "https://dc.lft.to/lastmile_qr_scan", "android": "https://dc.lft.to/lastmile_qr_scan"}, "bike_id": "e7f9d5b311e23c6644ceb27540f0611f", "lat": 38.96773533333333, "name": "e7f9d5b311e23c6644ceb27540f0611f", "lon": -76.99645866666667, "fusion_lon": 0.0}, {"is_reserved": 0, "type": "electric_scooter", "fusion_lat": 0.0, "is_disabled": 0, "rental_uris": {"ios": "https://dc.lft.to/lastmile_qr_scan", "android": "https://dc.lft.to/lastmile_qr_scan"}, "bike_id": "cc158e1975b23e4d1f365d2f46888d26", "lat": 38.87923383333333, "name": "cc158e1975b23e4d1f365d2f46888d26", "lon": -77.01337733333334, "fusion_lon": 0.0}, {"is_reserved": 0, "type": "electric_scooter", "fusion_lat": 0.0, "is_disabled": 0, "rental_uris": {"ios": "https://dc.lft.to/lastmile_qr_scan", "android": "https://dc.lft.to/lastmile_qr_scan"}, "bike_id": "c1c2c3a5b2b7fa4b03e73387ea054615", "lat": 38.915749166666664, "name": "c1c2c3a5b2b7fa4b03e73387ea054615", "lon": -77.02008783333333, "fusion_lon": 0.0}, {"is_reserved": 0, "type": "electric_scooter", "fusion_lat": 0.0, "is_disabled": 0, "rental_uris": {"ios": "https://dc.lft.to/lastmile_qr_scan", "android": "https://dc.lft.to/lastmile_qr_scan"}, "bike_id": "d25d0d330d95f5d9a635b48ff084c2ee", "lat": 38.904501833333335, "name": "d25d0d330d95f5d9a635b48ff084c2ee", "lon": -77.01685633333334, "fusion_lon": 0.0}, {"is_reserved": 0, "type": "electric_scooter", "fusion_lat": 0.0, "is_disabled": 0, "rental_uris": {"ios": "https://dc.lft.to/lastmile_qr_scan", "android": "https://dc.lft.to/lastmile_qr_scan"}, "bike_id": "dc12736987c683be0e7ca7d0c5d607b4", "lat": 38.9026345, "name": "dc12736987c683be0e7ca7d0c5d607b4", "lon": -77.016752, "fusion_lon": 0.0}, {"is_reserved": 0, "type": "electric_scooter", "fusion_lat": 0.0, "is_disabled": 0, "rental_uris": {"ios": "https://dc.lft.to/lastmile_qr_scan", "android": "https://dc.lft.to/lastmile_qr_scan"}, "bike_id": "1e76b633328a416e0625a4587f7f8c42", "lat": 38.937815, "name": "1e76b633328a416e0625a4587f7f8c42", "lon": -76.99373, "fusion_lon": 0.0}, {"is_reserved": 0, "type": "electric_scooter", "fusion_lat": 0.0, "is_disabled": 0, "rental_uris": {"ios": "https://dc.lft.to/lastmile_qr_scan", "android": "https://dc.lft.to/lastmile_qr_scan"}, "bike_id": "a4b783260edc59bc9cd9ab9545b265a2", "lat": 38.896657166666664, "name": "a4b783260edc59bc9cd9ab9545b265a2", "lon": -77.01192316666666, "fusion_lon": 0.0}, {"is_reserved": 0, "type": "electric_scooter", "fusion_lat": 0.0, "is_disabled": 0, "rental_uris": {"ios": "https://dc.lft.to/lastmile_qr_scan", "android": "https://dc.lft.to/lastmile_qr_scan"}, "bike_id": "fdd804db8c2ef80f2103db892f36df1d", "lat": 38.91193583333333, "name": "fdd804db8c2ef80f2103db892f36df1d", "lon": -77.00212133333333, "fusion_lon": 0.0}, {"is_reserved": 0, "type": "electric_scooter", "fusion_lat": 0.0, "is_disabled": 0, "rental_uris": {"ios": "https://dc.lft.to/lastmile_qr_scan", "android": "https://dc.lft.to/lastmile_qr_scan"}, "bike_id": "7d3b300196147668c36b2002dca72474", "lat": 38.88261933333333, "name": "7d3b300196147668c36b2002dca72474", "lon": -76.99524383333333, "fusion_lon": 0.0}, {"is_reserved": 0, "type": "electric_scooter", "fusion_lat": 0.0, "is_disabled": 0, "rental_uris": {"ios": "https://dc.lft.to/lastmile_qr_scan", "android": "https://dc.lft.to/lastmile_qr_scan"}, "bike_id": "142e9dcbdfb0fbb421ccbbe50344fc90", "lat": 38.90333283333333, "name": "142e9dcbdfb0fbb421ccbbe50344fc90", "lon": -76.975904, "fusion_lon": 0.0}, {"is_reserved": 0, "type": "electric_scooter", "fusion_lat": 0.0, "is_disabled": 0, "rental_uris": {"ios": "https://dc.lft.to/lastmile_qr_scan", "android": "https://dc.lft.to/lastmile_qr_scan"}, "bike_id": "3f02b62ff08af03b3835af575baa1158", "lat": 38.9238165, "name": "3f02b62ff08af03b3835af575baa1158", "lon": -77.05180916666667, "fusion_lon": 0.0}, {"is_reserved": 0, "type": "electric_scooter", "fusion_lat": 0.0, "is_disabled": 0, "rental_uris": {"ios": "https://dc.lft.to/lastmile_qr_scan", "android": "https://dc.lft.to/lastmile_qr_scan"}, "bike_id": "b720039c1e616f6ccbe7e1e80fa18b9c", "lat": 38.909578, "name": "b720039c1e616f6ccbe7e1e80fa18b9c", "lon": -77.02378483333334, "fusion_lon": 0.0}, {"is_reserved": 0, "type": "electric_scooter", "fusion_lat": 0.0, "is_disabled": 0, "rental_uris": {"ios": "https://dc.lft.to/lastmile_qr_scan", "android": "https://dc.lft.to/lastmile_qr_scan"}, "bike_id": "f1bdb2527a823af09fceb2c61f9c3778", "lat": 38.924083833333334, "name": "f1bdb2527a823af09fceb2c61f9c3778", "lon": -77.02977816666667, "fusion_lon": 0.0}, {"is_reserved": 0, "type": "electric_scooter", "fusion_lat": 0.0, "is_disabled": 0, "rental_uris": {"ios": "https://dc.lft.to/lastmile_qr_scan", "android": "https://dc.lft.to/lastmile_qr_scan"}, "bike_id": "19c66eda407fd4a237baf602c2c16ce8", "lat": 38.920690666666665, "name": "19c66eda407fd4a237baf602c2c16ce8", "lon": -77.0281995, "fusion_lon": 0.0}, {"is_reserved": 0, "type": "electric_scooter", "fusion_lat": 0.0, "is_disabled": 0, "rental_uris": {"ios": "https://dc.lft.to/lastmile_qr_scan", "android": "https://dc.lft.to/lastmile_qr_scan"}, "bike_id": "17defa4db0c6f8acbf1e09591b38327f", "lat": 38.897713333333336, "name": "17defa4db0c6f8acbf1e09591b38327f", "lon": -77.05020133333333, "fusion_lon": 0.0}, {"is_reserved": 0, "type": "electric_scooter", "fusion_lat": 0.0, "is_disabled": 0, "rental_uris": {"ios": "https://dc.lft.to/lastmile_qr_scan", "android": "https://dc.lft.to/lastmile_qr_scan"}, "bike_id": "79c822ee809793a8830b52b6ba8559d0", "lat": 38.91567833333333, "name": "79c822ee809793a8830b52b6ba8559d0", "lon": -77.0367475, "fusion_lon": 0.0}, {"is_reserved": 0, "type": "electric_scooter", "fusion_lat": 0.0, "is_disabled": 0, "rental_uris": {"ios": "https://dc.lft.to/lastmile_qr_scan", "android": "https://dc.lft.to/lastmile_qr_scan"}, "bike_id": "5598a9272fff5f5d6f6760c3577080b2", "lat": 38.9486115, "name": "5598a9272fff5f5d6f6760c3577080b2", "lon": -77.07884166666666, "fusion_lon": 0.0}, {"is_reserved": 0, "type": "electric_bike", "fusion_lat": 0.0, "is_disabled": 0, "rental_uris": {"ios": "https://dc.lft.to/lastmile_qr_scan", "android": "https://dc.lft.to/lastmile_qr_scan"}, "bike_id": "746cf2d8b51e2dce9737f06f08d94ef9", "lat": 38.968866166666665, "name": "746cf2d8b51e2dce9737f06f08d94ef9", "lon": -76.955625, "fusion_lon": 0.0}, {"is_reserved": 0, "type": "electric_scooter", "fusion_lat": 0.0, "is_disabled": 0, "rental_uris": {"ios": "https://dc.lft.to/lastmile_qr_scan", "android": "https://dc.lft.to/lastmile_qr_scan"}, "bike_id": "75bc8fc3954f785ba93c89eebd4b485b", "lat": 38.916522666666665, "name": "75bc8fc3954f785ba93c89eebd4b485b", "lon": -77.04173616666667, "fusion_lon": 0.0}, {"is_reserved": 0, "type": "electric_scooter", "fusion_lat": 0.0, "is_disabled": 0, "rental_uris": {"ios": "https://dc.lft.to/lastmile_qr_scan", "android": "https://dc.lft.to/lastmile_qr_scan"}, "bike_id": "83dd6d15720f49c3b7b7b87b4ab0be56", "lat": 38.922630166666664, "name": "83dd6d15720f49c3b7b7b87b4ab0be56", "lon": -76.99780266666667, "fusion_lon": 0.0}, {"is_reserved": 0, "type": "electric_scooter", "fusion_lat": 0.0, "is_disabled": 0, "rental_uris": {"ios": "https://dc.lft.to/lastmile_qr_scan", "android": "https://dc.lft.to/lastmile_qr_scan"}, "bike_id": "1e6902f753afe9b29be6f149c56c68a2", "lat": 38.89699483333333, "name": "1e6902f753afe9b29be6f149c56c68a2", "lon": -77.04336983333333, "fusion_lon": 0.0}, {"is_reserved": 0, "type": "electric_scooter", "fusion_lat": 0.0, "is_disabled": 0, "rental_uris": {"ios": "https://dc.lft.to/lastmile_qr_scan", "android": "https://dc.lft.to/lastmile_qr_scan"}, "bike_id": "7811a4e258e32224b30c009e0610ddee", "lat": 38.934394, "name": "7811a4e258e32224b30c009e0610ddee", "lon": -77.03279716666667, "fusion_lon": 0.0}, {"is_reserved": 0, "type": "electric_scooter", "fusion_lat": 0.0, "is_disabled": 0, "rental_uris": {"ios": "https://dc.lft.to/lastmile_qr_scan", "android": "https://dc.lft.to/lastmile_qr_scan"}, "bike_id": "704d877f255cc42dd785d9080165e05d", "lat": 38.880086166666665, "name": "704d877f255cc42dd785d9080165e05d", "lon": -76.99747583333334, "fusion_lon": 0.0}, {"is_reserved": 0, "type": "electric_scooter", "fusion_lat": 0.0, "is_disabled": 0, "rental_uris": {"ios": "https://dc.lft.to/lastmile_qr_scan", "android": "https://dc.lft.to/lastmile_qr_scan"}, "bike_id": "5ef7f96010899c0626cdeb23eb84d01f", "lat": 38.89882516666667, "name": "5ef7f96010899c0626cdeb23eb84d01f", "lon": -76.9317655, "fusion_lon": 0.0}, {"is_reserved": 0, "type": "electric_scooter", "fusion_lat": 0.0, "is_disabled": 0, "rental_uris": {"ios": "https://dc.lft.to/lastmile_qr_scan", "android": "https://dc.lft.to/lastmile_qr_scan"}, "bike_id": "126bfe2935880867046ae0647c835703", "lat": 38.913274333333334, "name": "126bfe2935880867046ae0647c835703", "lon": -77.03033683333334, "fusion_lon": 0.0}, {"is_reserved": 0, "type": "electric_bike", "fusion_lat": 0.0, "is_disabled": 0, "rental_uris": {"ios": "https://dc.lft.to/lastmile_qr_scan", "android": "https://dc.lft.to/lastmile_qr_scan"}, "bike_id": "fd12dfd21325adc05a3e37fcf752b3eb", "lat": 38.897242166666665, "name": "fd12dfd21325adc05a3e37fcf752b3eb", "lon": -76.97236483333333, "fusion_lon": 0.0}, {"is_reserved": 0, "type": "electric_scooter", "fusion_lat": 0.0, "is_disabled": 0, "rental_uris": {"ios": "https://dc.lft.to/lastmile_qr_scan", "android": "https://dc.lft.to/lastmile_qr_scan"}, "bike_id": "9b8f8fbd37a6399b42d571c4f1fb2bb2", "lat": 38.97239666666667, "name": "9b8f8fbd37a6399b42d571c4f1fb2bb2", "lon": -77.02716, "fusion_lon": 0.0}, {"is_reserved": 0, "type": "electric_scooter", "fusion_lat": 0.0, "is_disabled": 0, "rental_uris": {"ios": "https://dc.lft.to/lastmile_qr_scan", "android": "https://dc.lft.to/lastmile_qr_scan"}, "bike_id": "689b87296f6b84d4ced25f0c7a2ba9bb", "lat": 38.900752833333335, "name": "689b87296f6b84d4ced25f0c7a2ba9bb", "lon": -77.02995266666667, "fusion_lon": 0.0}, {"is_reserved": 0, "type": "electric_scooter", "fusion_lat": 0.0, "is_disabled": 0, "rental_uris": {"ios": "https://dc.lft.to/lastmile_qr_scan", "android": "https://dc.lft.to/lastmile_qr_scan"}, "bike_id": "d7bcab98574717087af731a2d5c6c4f4", "lat": 38.9159535, "name": "d7bcab98574717087af731a2d5c6c4f4", "lon": -77.032027, "fusion_lon": 0.0}, {"is_reserved": 0, "type": "electric_scooter", "fusion_lat": 0.0, "is_disabled": 0, "rental_uris": {"ios": "https://dc.lft.to/lastmile_qr_scan", "android": "https://dc.lft.to/lastmile_qr_scan"}, "bike_id": "27b16510eca8d8d9358ce6d842c2659b", "lat": 38.930957166666666, "name": "27b16510eca8d8d9358ce6d842c2659b", "lon": -77.0343915, "fusion_lon": 0.0}, {"is_reserved": 0, "type": "electric_scooter", "fusion_lat": 0.0, "is_disabled": 0, "rental_uris": {"ios": "https://dc.lft.to/lastmile_qr_scan", "android": "https://dc.lft.to/lastmile_qr_scan"}, "bike_id": "3a3e248bb400053465c5b89e01b79bb9", "lat": 38.921686666666666, "name": "3a3e248bb400053465c5b89e01b79bb9", "lon": -77.04023433333333, "fusion_lon": 0.0}, {"is_reserved": 0, "type": "electric_bike", "fusion_lat": 0.0, "is_disabled": 0, "rental_uris": {"ios": "https://dc.lft.to/lastmile_qr_scan", "android": "https://dc.lft.to/lastmile_qr_scan"}, "bike_id": "c32a22ff9356dc361a6e3d584830113d", "lat": 38.982798833333334, "name": "c32a22ff9356dc361a6e3d584830113d", "lon": -76.97638466666666, "fusion_lon": 0.0}, {"is_reserved": 0, "type": "electric_scooter", "fusion_lat": 0.0, "is_disabled": 0, "rental_uris": {"ios": "https://dc.lft.to/lastmile_qr_scan", "android": "https://dc.lft.to/lastmile_qr_scan"}, "bike_id": "1ba0564890ffdd470112d850a8d0749f", "lat": 38.9024795, "name": "1ba0564890ffdd470112d850a8d0749f", "lon": -77.02002166666666, "fusion_lon": 0.0}, {"is_reserved": 0, "type": "electric_scooter", "fusion_lat": 0.0, "is_disabled": 0, "rental_uris": {"ios": "https://dc.lft.to/lastmile_qr_scan", "android": "https://dc.lft.to/lastmile_qr_scan"}, "bike_id": "589168d782cb6986c8b61f19808eb910", "lat": 38.919394, "name": "589168d782cb6986c8b61f19808eb910", "lon": -77.03186566666666, "fusion_lon": 0.0}, {"is_reserved": 0, "type": "electric_scooter", "fusion_lat": 0.0, "is_disabled": 0, "rental_uris": {"ios": "https://dc.lft.to/lastmile_qr_scan", "android": "https://dc.lft.to/lastmile_qr_scan"}, "bike_id": "06098d34e3f103c37b8a2bdf72c3eef8", "lat": 38.904705666666665, "name": "06098d34e3f103c37b8a2bdf72c3eef8", "lon": -77.03571466666666, "fusion_lon": 0.0}, {"is_reserved": 0, "type": "electric_scooter", "fusion_lat": 0.0, "is_disabled": 0, "rental_uris": {"ios": "https://dc.lft.to/lastmile_qr_scan", "android": "https://dc.lft.to/lastmile_qr_scan"}, "bike_id": "411172565366326e664e9d5048446696", "lat": 38.936123333333335, "name": "411172565366326e664e9d5048446696", "lon": -77.05587083333333, "fusion_lon": 0.0}, {"is_reserved": 0, "type": "electric_scooter", "fusion_lat": 0.0, "is_disabled": 0, "rental_uris": {"ios": "https://dc.lft.to/lastmile_qr_scan", "android": "https://dc.lft.to/lastmile_qr_scan"}, "bike_id": "95f57e538d1a339fd5e5e2dc1221de93", "lat": 38.918305, "name": "95f57e538d1a339fd5e5e2dc1221de93", "lon": -77.02714716666667, "fusion_lon": 0.0}, {"is_reserved": 0, "type": "electric_scooter", "fusion_lat": 0.0, "is_disabled": 0, "rental_uris": {"ios": "https://dc.lft.to/lastmile_qr_scan", "android": "https://dc.lft.to/lastmile_qr_scan"}, "bike_id": "43615a6693d95250ac74845b42454a1d", "lat": 38.921475, "name": "43615a6693d95250ac74845b42454a1d", "lon": -77.03516666666667, "fusion_lon": 0.0}, {"is_reserved": 0, "type": "electric_scooter", "fusion_lat": 0.0, "is_disabled": 0, "rental_uris": {"ios": "https://dc.lft.to/lastmile_qr_scan", "android": "https://dc.lft.to/lastmile_qr_scan"}, "bike_id": "4435e659da0354a3dc274bd76b9cae2f", "lat": 38.923483166666664, "name": "4435e659da0354a3dc274bd76b9cae2f", "lon": -77.07310816666667, "fusion_lon": 0.0}, {"is_reserved": 0, "type": "electric_scooter", "fusion_lat": 0.0, "is_disabled": 0, "rental_uris": {"ios": "https://dc.lft.to/lastmile_qr_scan", "android": "https://dc.lft.to/lastmile_qr_scan"}, "bike_id": "d7acf07fce17c5797980b8a51c00a666", "lat": 38.89741516666667, "name": "d7acf07fce17c5797980b8a51c00a666", "lon": -77.02814316666667, "fusion_lon": 0.0}, {"is_reserved": 0, "type": "electric_bike", "fusion_lat": 0.0, "is_disabled": 0, "rental_uris": {"ios": "https://dc.lft.to/lastmile_qr_scan", "android": "https://dc.lft.to/lastmile_qr_scan"}, "bike_id": "688feb4313f38e28f833898d1d1a31d3", "lat": 38.877318, "name": "688feb4313f38e28f833898d1d1a31d3", "lon": -77.11847583333333, "fusion_lon": 0.0}, {"is_reserved": 0, "type": "electric_scooter", "fusion_lat": 0.0, "is_disabled": 0, "rental_uris": {"ios": "https://dc.lft.to/lastmile_qr_scan", "android": "https://dc.lft.to/lastmile_qr_scan"}, "bike_id": "46441866a073b940e5c30c5c6de19941", "lat": 38.90114283333333, "name": "46441866a073b940e5c30c5c6de19941", "lon": -77.03448183333333, "fusion_lon": 0.0}, {"is_reserved": 0, "type": "electric_scooter", "fusion_lat": 0.0, "is_disabled": 0, "rental_uris": {"ios": "https://dc.lft.to/lastmile_qr_scan", "android": "https://dc.lft.to/lastmile_qr_scan"}, "bike_id": "32132687e184a21be44ae19b2aee9ff7", "lat": 38.88037466666667, "name": "32132687e184a21be44ae19b2aee9ff7", "lon": -76.92719383333333, "fusion_lon": 0.0}, {"is_reserved": 0, "type": "electric_scooter", "fusion_lat": 0.0, "is_disabled": 0, "rental_uris": {"ios": "https://dc.lft.to/lastmile_qr_scan", "android": "https://dc.lft.to/lastmile_qr_scan"}, "bike_id": "579ce4ef8782f1a37c8ba129f983aecf", "lat": 38.941724666666666, "name": "579ce4ef8782f1a37c8ba129f983aecf", "lon": -77.02536833333333, "fusion_lon": 0.0}, {"is_reserved": 0, "type": "electric_scooter", "fusion_lat": 0.0, "is_disabled": 0, "rental_uris": {"ios": "https://dc.lft.to/lastmile_qr_scan", "android": "https://dc.lft.to/lastmile_qr_scan"}, "bike_id": "3d6313b101222101448cca1f0c9a5a3b", "lat": 38.9068655, "name": "3d6313b101222101448cca1f0c9a5a3b", "lon": -77.02717166666666, "fusion_lon": 0.0}, {"is_reserved": 0, "type": "electric_scooter", "fusion_lat": 0.0, "is_disabled": 0, "rental_uris": {"ios": "https://dc.lft.to/lastmile_qr_scan", "android": "https://dc.lft.to/lastmile_qr_scan"}, "bike_id": "b1ba8b9f23fcd0a2e37384434775308e", "lat": 38.902627, "name": "b1ba8b9f23fcd0a2e37384434775308e", "lon": -77.0279855, "fusion_lon": 0.0}, {"is_reserved": 0, "type": "electric_scooter", "fusion_lat": 0.0, "is_disabled": 0, "rental_uris": {"ios": "https://dc.lft.to/lastmile_qr_scan", "android": "https://dc.lft.to/lastmile_qr_scan"}, "bike_id": "817b563709879ed1292b24dda06f2a2f", "lat": 38.9096635, "name": "817b563709879ed1292b24dda06f2a2f", "lon": -77.04844566666667, "fusion_lon": 0.0}, {"is_reserved": 0, "type": "electric_scooter", "fusion_lat": 0.0, "is_disabled": 0, "rental_uris": {"ios": "https://dc.lft.to/lastmile_qr_scan", "android": "https://dc.lft.to/lastmile_qr_scan"}, "bike_id": "d368e84ab271f5a7f1298826ef90347e", "lat": 38.916027666666665, "name": "d368e84ab271f5a7f1298826ef90347e", "lon": -77.04629083333333, "fusion_lon": 0.0}, {"is_reserved": 0, "type": "electric_scooter", "fusion_lat": 0.0, "is_disabled": 0, "rental_uris": {"ios": "https://dc.lft.to/lastmile_qr_scan", "android": "https://dc.lft.to/lastmile_qr_scan"}, "bike_id": "0031277f88d5a480da22e49ed45b4180", "lat": 38.91478383333333, "name": "0031277f88d5a480da22e49ed45b4180", "lon": -77.014483, "fusion_lon": 0.0}, {"is_reserved": 0, "type": "electric_bike", "fusion_lat": 0.0, "is_disabled": 0, "rental_uris": {"ios": "https://dc.lft.to/lastmile_qr_scan", "android": "https://dc.lft.to/lastmile_qr_scan"}, "bike_id": "d2d0dd3bacde5ca823c37dd77c214152", "lat": 38.829294833333336, "name": "d2d0dd3bacde5ca823c37dd77c214152", "lon": -77.06882066666667, "fusion_lon": 0.0}, {"is_reserved": 0, "type": "electric_scooter", "fusion_lat": 0.0, "is_disabled": 0, "rental_uris": {"ios": "https://dc.lft.to/lastmile_qr_scan", "android": "https://dc.lft.to/lastmile_qr_scan"}, "bike_id": "8bcab1c3de26a5ce8de0ed52834bd745", "lat": 38.899086, "name": "8bcab1c3de26a5ce8de0ed52834bd745", "lon": -76.93389016666667, "fusion_lon": 0.0}, {"is_reserved": 0, "type": "electric_scooter", "fusion_lat": 0.0, "is_disabled": 0, "rental_uris": {"ios": "https://dc.lft.to/lastmile_qr_scan", "android": "https://dc.lft.to/lastmile_qr_scan"}, "bike_id": "84270ae6d9916894a5991f3e8c94545d", "lat": 38.92386116666667, "name": "84270ae6d9916894a5991f3e8c94545d", "lon": -77.02615533333334, "fusion_lon": 0.0}, {"is_reserved": 0, "type": "electric_scooter", "fusion_lat": 0.0, "is_disabled": 0, "rental_uris": {"ios": "https://dc.lft.to/lastmile_qr_scan", "android": "https://dc.lft.to/lastmile_qr_scan"}, "bike_id": "016db07693ebf0487e07514acb7c34c1", "lat": 38.935318333333335, "name": "016db07693ebf0487e07514acb7c34c1", "lon": -77.0235255, "fusion_lon": 0.0}, {"is_reserved": 0, "type": "electric_bike", "fusion_lat": 0.0, "is_disabled": 0, "rental_uris": {"ios": "https://dc.lft.to/lastmile_qr_scan", "android": "https://dc.lft.to/lastmile_qr_scan"}, "bike_id": "fc90eca10cb7b397fbe2152ec067f37f", "lat": 38.924362333333335, "name": "fc90eca10cb7b397fbe2152ec067f37f", "lon": -77.02496233333333, "fusion_lon": 0.0}, {"is_reserved": 0, "type": "electric_scooter", "fusion_lat": 0.0, "is_disabled": 0, "rental_uris": {"ios": "https://dc.lft.to/lastmile_qr_scan", "android": "https://dc.lft.to/lastmile_qr_scan"}, "bike_id": "daca193305a23dc58ced8e4754ece39e", "lat": 38.929571, "name": "daca193305a23dc58ced8e4754ece39e", "lon": -77.03175883333333, "fusion_lon": 0.0}, {"is_reserved": 0, "type": "electric_scooter", "fusion_lat": 0.0, "is_disabled": 0, "rental_uris": {"ios": "https://dc.lft.to/lastmile_qr_scan", "android": "https://dc.lft.to/lastmile_qr_scan"}, "bike_id": "7d060465e22622002bb30562946e7c4f", "lat": 38.901054, "name": "7d060465e22622002bb30562946e7c4f", "lon": -77.03430433333334, "fusion_lon": 0.0}, {"is_reserved": 0, "type": "electric_scooter", "fusion_lat": 0.0, "is_disabled": 0, "rental_uris": {"ios": "https://dc.lft.to/lastmile_qr_scan", "android": "https://dc.lft.to/lastmile_qr_scan"}, "bike_id": "f7db8e0ca7a677ec24afc9a02945d81b", "lat": 38.9332535, "name": "f7db8e0ca7a677ec24afc9a02945d81b", "lon": -77.0239885, "fusion_lon": 0.0}, {"is_reserved": 0, "type": "electric_scooter", "fusion_lat": 0.0, "is_disabled": 0, "rental_uris": {"ios": "https://dc.lft.to/lastmile_qr_scan", "android": "https://dc.lft.to/lastmile_qr_scan"}, "bike_id": "477321c078ec778f8a7a336c233e346f", "lat": 38.9449375, "name": "477321c078ec778f8a7a336c233e346f", "lon": -77.00741666666667, "fusion_lon": 0.0}, {"is_reserved": 0, "type": "electric_scooter", "fusion_lat": 0.0, "is_disabled": 0, "rental_uris": {"ios": "https://dc.lft.to/lastmile_qr_scan", "android": "https://dc.lft.to/lastmile_qr_scan"}, "bike_id": "845b941237ce5ed3415a135ba4b5dbbd", "lat": 38.90173466666667, "name": "845b941237ce5ed3415a135ba4b5dbbd", "lon": -76.92941883333333, "fusion_lon": 0.0}, {"is_reserved": 0, "type": "electric_scooter", "fusion_lat": 0.0, "is_disabled": 0, "rental_uris": {"ios": "https://dc.lft.to/lastmile_qr_scan", "android": "https://dc.lft.to/lastmile_qr_scan"}, "bike_id": "b74f11acca1a97e7b33a2846213b23cf", "lat": 38.90268966666667, "name": "b74f11acca1a97e7b33a2846213b23cf", "lon": -77.0391605, "fusion_lon": 0.0}, {"is_reserved": 0, "type": "electric_scooter", "fusion_lat": 0.0, "is_disabled": 0, "rental_uris": {"ios": "https://dc.lft.to/lastmile_qr_scan", "android": "https://dc.lft.to/lastmile_qr_scan"}, "bike_id": "cee55bd002c8c808d3179f92e4d42ba5", "lat": 38.92196916666666, "name": "cee55bd002c8c808d3179f92e4d42ba5", "lon": -77.01853416666667, "fusion_lon": 0.0}, {"is_reserved": 0, "type": "electric_scooter", "fusion_lat": 0.0, "is_disabled": 0, "rental_uris": {"ios": "https://dc.lft.to/lastmile_qr_scan", "android": "https://dc.lft.to/lastmile_qr_scan"}, "bike_id": "2290d97386203888c1c57bde33a666ef", "lat": 38.892233833333336, "name": "2290d97386203888c1c57bde33a666ef", "lon": -77.046408, "fusion_lon": 0.0}, {"is_reserved": 0, "type": "electric_scooter", "fusion_lat": 0.0, "is_disabled": 0, "rental_uris": {"ios": "https://dc.lft.to/lastmile_qr_scan", "android": "https://dc.lft.to/lastmile_qr_scan"}, "bike_id": "01731e65b45b84a3a7715654cdbbe8f2", "lat": 38.96618483333334, "name": "01731e65b45b84a3a7715654cdbbe8f2", "lon": -77.02004883333333, "fusion_lon": 0.0}, {"is_reserved": 0, "type": "electric_scooter", "fusion_lat": 0.0, "is_disabled": 0, "rental_uris": {"ios": "https://dc.lft.to/lastmile_qr_scan", "android": "https://dc.lft.to/lastmile_qr_scan"}, "bike_id": "6c689a8750cff5d5b89cd29fcb14e329", "lat": 38.9174195, "name": "6c689a8750cff5d5b89cd29fcb14e329", "lon": -77.036096, "fusion_lon": 0.0}, {"is_reserved": 0, "type": "electric_bike", "fusion_lat": 0.0, "is_disabled": 0, "rental_uris": {"ios": "https://dc.lft.to/lastmile_qr_scan", "android": "https://dc.lft.to/lastmile_qr_scan"}, "bike_id": "da4000a6809d707ab6c75e096bc64edc", "lat": 38.90693666666667, "name": "da4000a6809d707ab6c75e096bc64edc", "lon": -76.95255116666667, "fusion_lon": 0.0}, {"is_reserved": 0, "type": "electric_scooter", "fusion_lat": 0.0, "is_disabled": 0, "rental_uris": {"ios": "https://dc.lft.to/lastmile_qr_scan", "android": "https://dc.lft.to/lastmile_qr_scan"}, "bike_id": "c4c5c40e4691fd34fe458cf00cb0d07a", "lat": 38.912499333333336, "name": "c4c5c40e4691fd34fe458cf00cb0d07a", "lon": -76.986731, "fusion_lon": 0.0}, {"is_reserved": 0, "type": "electric_scooter", "fusion_lat": 0.0, "is_disabled": 0, "rental_uris": {"ios": "https://dc.lft.to/lastmile_qr_scan", "android": "https://dc.lft.to/lastmile_qr_scan"}, "bike_id": "b7a35e9681905cf0cf7cabc8f4712ad6", "lat": 38.89772883333333, "name": "b7a35e9681905cf0cf7cabc8f4712ad6", "lon": -77.04784566666666, "fusion_lon": 0.0}, {"is_reserved": 0, "type": "electric_scooter", "fusion_lat": 0.0, "is_disabled": 0, "rental_uris": {"ios": "https://dc.lft.to/lastmile_qr_scan", "android": "https://dc.lft.to/lastmile_qr_scan"}, "bike_id": "2540563a718648ada807819e40d4227d", "lat": 38.910687333333335, "name": "2540563a718648ada807819e40d4227d", "lon": -77.0162175, "fusion_lon": 0.0}, {"is_reserved": 0, "type": "electric_bike", "fusion_lat": 0.0, "is_disabled": 0, "rental_uris": {"ios": "https://dc.lft.to/lastmile_qr_scan", "android": "https://dc.lft.to/lastmile_qr_scan"}, "bike_id": "43b18d16cec5df1ad8f7e07421d1125b", "lat": 38.86550833333333, "name": "43b18d16cec5df1ad8f7e07421d1125b", "lon": -76.94150133333333, "fusion_lon": 0.0}, {"is_reserved": 0, "type": "electric_scooter", "fusion_lat": 0.0, "is_disabled": 0, "rental_uris": {"ios": "https://dc.lft.to/lastmile_qr_scan", "android": "https://dc.lft.to/lastmile_qr_scan"}, "bike_id": "cb967aaa34cc3717d7e10efd86f36744", "lat": 38.92176466666667, "name": "cb967aaa34cc3717d7e10efd86f36744", "lon": -77.04596566666666, "fusion_lon": 0.0}, {"is_reserved": 0, "type": "electric_scooter", "fusion_lat": 0.0, "is_disabled": 0, "rental_uris": {"ios": "https://dc.lft.to/lastmile_qr_scan", "android": "https://dc.lft.to/lastmile_qr_scan"}, "bike_id": "82a9632a5075c14fd15f84d93022e453", "lat": 38.9317735, "name": "82a9632a5075c14fd15f84d93022e453", "lon": -77.03158183333333, "fusion_lon": 0.0}, {"is_reserved": 0, "type": "electric_scooter", "fusion_lat": 0.0, "is_disabled": 0, "rental_uris": {"ios": "https://dc.lft.to/lastmile_qr_scan", "android": "https://dc.lft.to/lastmile_qr_scan"}, "bike_id": "22595e7c93817390815a4e550092d851", "lat": 38.90143583333333, "name": "22595e7c93817390815a4e550092d851", "lon": -76.9316145, "fusion_lon": 0.0}, {"is_reserved": 0, "type": "electric_bike", "fusion_lat": 0.0, "is_disabled": 0, "rental_uris": {"ios": "https://dc.lft.to/lastmile_qr_scan", "android": "https://dc.lft.to/lastmile_qr_scan"}, "bike_id": "7e756a3023a8eedf79cb85fb02eb6de3", "lat": 38.81327366666667, "name": "7e756a3023a8eedf79cb85fb02eb6de3", "lon": -77.0508265, "fusion_lon": 0.0}, {"is_reserved": 0, "type": "electric_scooter", "fusion_lat": 0.0, "is_disabled": 0, "rental_uris": {"ios": "https://dc.lft.to/lastmile_qr_scan", "android": "https://dc.lft.to/lastmile_qr_scan"}, "bike_id": "f36326ccd8ede3e177230f2317b559a8", "lat": 38.92175783333333, "name": "f36326ccd8ede3e177230f2317b559a8", "lon": -77.03833166666666, "fusion_lon": 0.0}, {"is_reserved": 0, "type": "electric_scooter", "fusion_lat": 0.0, "is_disabled": 0, "rental_uris": {"ios": "https://dc.lft.to/lastmile_qr_scan", "android": "https://dc.lft.to/lastmile_qr_scan"}, "bike_id": "9013c12e1546f06a75386626fe62360a", "lat": 38.90095916666667, "name": "9013c12e1546f06a75386626fe62360a", "lon": -77.01801533333334, "fusion_lon": 0.0}, {"is_reserved": 0, "type": "electric_scooter", "fusion_lat": 0.0, "is_disabled": 0, "rental_uris": {"ios": "https://dc.lft.to/lastmile_qr_scan", "android": "https://dc.lft.to/lastmile_qr_scan"}, "bike_id": "d74acafb6851b4c4ce58f40b8f77f698", "lat": 38.9018255, "name": "d74acafb6851b4c4ce58f40b8f77f698", "lon": -76.976715, "fusion_lon": 0.0}, {"is_reserved": 0, "type": "electric_scooter", "fusion_lat": 0.0, "is_disabled": 0, "rental_uris": {"ios": "https://dc.lft.to/lastmile_qr_scan", "android": "https://dc.lft.to/lastmile_qr_scan"}, "bike_id": "3a0db70480b25480c3dcd17f05e21f90", "lat": 38.92422966666667, "name": "3a0db70480b25480c3dcd17f05e21f90", "lon": -77.05754083333333, "fusion_lon": 0.0}, {"is_reserved": 0, "type": "electric_scooter", "fusion_lat": 0.0, "is_disabled": 0, "rental_uris": {"ios": "https://dc.lft.to/lastmile_qr_scan", "android": "https://dc.lft.to/lastmile_qr_scan"}, "bike_id": "781405b691ba801224417a2b4aa82aa5", "lat": 38.926105, "name": "781405b691ba801224417a2b4aa82aa5", "lon": -77.02422733333333, "fusion_lon": 0.0}, {"is_reserved": 0, "type": "electric_scooter", "fusion_lat": 0.0, "is_disabled": 0, "rental_uris": {"ios": "https://dc.lft.to/lastmile_qr_scan", "android": "https://dc.lft.to/lastmile_qr_scan"}, "bike_id": "36b7e81cc3b8e441de039838a7ca3fa2", "lat": 38.887108166666664, "name": "36b7e81cc3b8e441de039838a7ca3fa2", "lon": -76.98385366666666, "fusion_lon": 0.0}, {"is_reserved": 0, "type": "electric_scooter", "fusion_lat": 0.0, "is_disabled": 0, "rental_uris": {"ios": "https://dc.lft.to/lastmile_qr_scan", "android": "https://dc.lft.to/lastmile_qr_scan"}, "bike_id": "ddd70e47308d295e22fa8739a9fc84f1", "lat": 38.87692283333333, "name": "ddd70e47308d295e22fa8739a9fc84f1", "lon": -76.99630866666666, "fusion_lon": 0.0}, {"is_reserved": 0, "type": "electric_scooter", "fusion_lat": 0.0, "is_disabled": 0, "rental_uris": {"ios": "https://dc.lft.to/lastmile_qr_scan", "android": "https://dc.lft.to/lastmile_qr_scan"}, "bike_id": "07aa67e038d9c051fe352e30674cb981", "lat": 38.91674616666667, "name": "07aa67e038d9c051fe352e30674cb981", "lon": -77.01586383333333, "fusion_lon": 0.0}, {"is_reserved": 0, "type": "electric_scooter", "fusion_lat": 0.0, "is_disabled": 0, "rental_uris": {"ios": "https://dc.lft.to/lastmile_qr_scan", "android": "https://dc.lft.to/lastmile_qr_scan"}, "bike_id": "b1de5731c6bc005f7e9e9c854da60f48", "lat": 38.890597666666665, "name": "b1de5731c6bc005f7e9e9c854da60f48", "lon": -76.99202133333333, "fusion_lon": 0.0}, {"is_reserved": 0, "type": "electric_scooter", "fusion_lat": 0.0, "is_disabled": 0, "rental_uris": {"ios": "https://dc.lft.to/lastmile_qr_scan", "android": "https://dc.lft.to/lastmile_qr_scan"}, "bike_id": "b85eeec0165517d29313885e67b82cf4", "lat": 38.91562066666667, "name": "b85eeec0165517d29313885e67b82cf4", "lon": -77.03672116666667, "fusion_lon": 0.0}, {"is_reserved": 0, "type": "electric_scooter", "fusion_lat": 0.0, "is_disabled": 0, "rental_uris": {"ios": "https://dc.lft.to/lastmile_qr_scan", "android": "https://dc.lft.to/lastmile_qr_scan"}, "bike_id": "655dd64c2a68e3df61f81e6c18b6020c", "lat": 38.93663166666666, "name": "655dd64c2a68e3df61f81e6c18b6020c", "lon": -77.0661085, "fusion_lon": 0.0}, {"is_reserved": 0, "type": "electric_scooter", "fusion_lat": 0.0, "is_disabled": 0, "rental_uris": {"ios": "https://dc.lft.to/lastmile_qr_scan", "android": "https://dc.lft.to/lastmile_qr_scan"}, "bike_id": "7d1e141a335cbba1cc010b7f22a57ee8", "lat": 38.92655216666667, "name": "7d1e141a335cbba1cc010b7f22a57ee8", "lon": -77.02435466666667, "fusion_lon": 0.0}, {"is_reserved": 0, "type": "electric_scooter", "fusion_lat": 0.0, "is_disabled": 0, "rental_uris": {"ios": "https://dc.lft.to/lastmile_qr_scan", "android": "https://dc.lft.to/lastmile_qr_scan"}, "bike_id": "a3a03d03bc6c8a8c1a196717bfccb383", "lat": 38.90038966666667, "name": "a3a03d03bc6c8a8c1a196717bfccb383", "lon": -76.998537, "fusion_lon": 0.0}, {"is_reserved": 0, "type": "electric_scooter", "fusion_lat": 0.0, "is_disabled": 0, "rental_uris": {"ios": "https://dc.lft.to/lastmile_qr_scan", "android": "https://dc.lft.to/lastmile_qr_scan"}, "bike_id": "ed529d701c3e8fa174062ad6c97dc1e2", "lat": 38.902410833333334, "name": "ed529d701c3e8fa174062ad6c97dc1e2", "lon": -77.02728633333334, "fusion_lon": 0.0}, {"is_reserved": 0, "type": "electric_bike", "fusion_lat": 0.0, "is_disabled": 0, "rental_uris": {"ios": "https://dc.lft.to/lastmile_qr_scan", "android": "https://dc.lft.to/lastmile_qr_scan"}, "bike_id": "067f188e96a5b1961bf19fae39473d5f", "lat": 38.925333333333334, "name": "067f188e96a5b1961bf19fae39473d5f", "lon": -77.07332366666667, "fusion_lon": 0.0}, {"is_reserved": 0, "type": "electric_scooter", "fusion_lat": 0.0, "is_disabled": 0, "rental_uris": {"ios": "https://dc.lft.to/lastmile_qr_scan", "android": "https://dc.lft.to/lastmile_qr_scan"}, "bike_id": "a0911ccb816d79f5c7f93da9dfe5372d", "lat": 38.920133166666666, "name": "a0911ccb816d79f5c7f93da9dfe5372d", "lon": -76.99573833333334, "fusion_lon": 0.0}, {"is_reserved": 0, "type": "electric_bike", "fusion_lat": 0.0, "is_disabled": 0, "rental_uris": {"ios": "https://dc.lft.to/lastmile_qr_scan", "android": "https://dc.lft.to/lastmile_qr_scan"}, "bike_id": "ab6d2648cf55051ff046478ec984288a", "lat": 38.95627616666667, "name": "ab6d2648cf55051ff046478ec984288a", "lon": -76.93872866666666, "fusion_lon": 0.0}, {"is_reserved": 0, "type": "electric_scooter", "fusion_lat": 0.0, "is_disabled": 0, "rental_uris": {"ios": "https://dc.lft.to/lastmile_qr_scan", "android": "https://dc.lft.to/lastmile_qr_scan"}, "bike_id": "b61cf15d513d3fb448fa521bed46278d", "lat": 38.90873916666666, "name": "b61cf15d513d3fb448fa521bed46278d", "lon": -77.044797, "fusion_lon": 0.0}, {"is_reserved": 0, "type": "electric_scooter", "fusion_lat": 0.0, "is_disabled": 0, "rental_uris": {"ios": "https://dc.lft.to/lastmile_qr_scan", "android": "https://dc.lft.to/lastmile_qr_scan"}, "bike_id": "d319f9c0f70a8d437745de25723ba586", "lat": 38.906587, "name": "d319f9c0f70a8d437745de25723ba586", "lon": -77.00902266666667, "fusion_lon": 0.0}, {"is_reserved": 0, "type": "electric_bike", "fusion_lat": 0.0, "is_disabled": 0, "rental_uris": {"ios": "https://dc.lft.to/lastmile_qr_scan", "android": "https://dc.lft.to/lastmile_qr_scan"}, "bike_id": "09e0db5d2d19653724cb8a5d8f4a4d11", "lat": 38.858017833333335, "name": "09e0db5d2d19653724cb8a5d8f4a4d11", "lon": -76.98755783333333, "fusion_lon": 0.0}, {"is_reserved": 0, "type": "electric_bike", "fusion_lat": 0.0, "is_disabled": 0, "rental_uris": {"ios": "https://dc.lft.to/lastmile_qr_scan", "android": "https://dc.lft.to/lastmile_qr_scan"}, "bike_id": "5ba7df01f03613123925e632d776e77e", "lat": 39.026220333333335, "name": "5ba7df01f03613123925e632d776e77e", "lon": -77.03881216666667, "fusion_lon": 0.0}, {"is_reserved": 0, "type": "electric_scooter", "fusion_lat": 0.0, "is_disabled": 0, "rental_uris": {"ios": "https://dc.lft.to/lastmile_qr_scan", "android": "https://dc.lft.to/lastmile_qr_scan"}, "bike_id": "0d4b53d66cd27b48eaef63b3b861b890", "lat": 38.92710116666667, "name": "0d4b53d66cd27b48eaef63b3b861b890", "lon": -77.05999133333333, "fusion_lon": 0.0}, {"is_reserved": 0, "type": "electric_scooter", "fusion_lat": 0.0, "is_disabled": 0, "rental_uris": {"ios": "https://dc.lft.to/lastmile_qr_scan", "android": "https://dc.lft.to/lastmile_qr_scan"}, "bike_id": "3d8ab077cfb5749087f70db5fd13a2f2", "lat": 38.890362, "name": "3d8ab077cfb5749087f70db5fd13a2f2", "lon": -76.98843716666667, "fusion_lon": 0.0}, {"is_reserved": 0, "type": "electric_scooter", "fusion_lat": 0.0, "is_disabled": 0, "rental_uris": {"ios": "https://dc.lft.to/lastmile_qr_scan", "android": "https://dc.lft.to/lastmile_qr_scan"}, "bike_id": "6aabe6fbc9315eb498b0afb1d23b030a", "lat": 38.938796833333335, "name": "6aabe6fbc9315eb498b0afb1d23b030a", "lon": -77.02834116666666, "fusion_lon": 0.0}, {"is_reserved": 0, "type": "electric_bike", "fusion_lat": 0.0, "is_disabled": 0, "rental_uris": {"ios": "https://dc.lft.to/lastmile_qr_scan", "android": "https://dc.lft.to/lastmile_qr_scan"}, "bike_id": "22c9b5ec0fae5299873f3d0b088c322d", "lat": 38.8133005, "name": "22c9b5ec0fae5299873f3d0b088c322d", "lon": -77.0508905, "fusion_lon": 0.0}, {"is_reserved": 0, "type": "electric_scooter", "fusion_lat": 0.0, "is_disabled": 0, "rental_uris": {"ios": "https://dc.lft.to/lastmile_qr_scan", "android": "https://dc.lft.to/lastmile_qr_scan"}, "bike_id": "c43f6e2e31ba3e60156dce7d58896936", "lat": 38.89532533333333, "name": "c43f6e2e31ba3e60156dce7d58896936", "lon": -76.9489065, "fusion_lon": 0.0}, {"is_reserved": 0, "type": "electric_scooter", "fusion_lat": 0.0, "is_disabled": 0, "rental_uris": {"ios": "https://dc.lft.to/lastmile_qr_scan", "android": "https://dc.lft.to/lastmile_qr_scan"}, "bike_id": "baf02be2878597a0d99297d0dbb2033c", "lat": 38.8772985, "name": "baf02be2878597a0d99297d0dbb2033c", "lon": -77.0061545, "fusion_lon": 0.0}, {"is_reserved": 0, "type": "electric_scooter", "fusion_lat": 0.0, "is_disabled": 0, "rental_uris": {"ios": "https://dc.lft.to/lastmile_qr_scan", "android": "https://dc.lft.to/lastmile_qr_scan"}, "bike_id": "04bf7a069af226f7f33c775c76caf762", "lat": 38.931922166666666, "name": "04bf7a069af226f7f33c775c76caf762", "lon": -77.03263283333334, "fusion_lon": 0.0}, {"is_reserved": 0, "type": "electric_scooter", "fusion_lat": 0.0, "is_disabled": 0, "rental_uris": {"ios": "https://dc.lft.to/lastmile_qr_scan", "android": "https://dc.lft.to/lastmile_qr_scan"}, "bike_id": "c83d2eb9378e41b47c7b77aaa50bd3b0", "lat": 38.922937166666664, "name": "c83d2eb9378e41b47c7b77aaa50bd3b0", "lon": -77.02073316666667, "fusion_lon": 0.0}, {"is_reserved": 0, "type": "electric_bike", "fusion_lat": 0.0, "is_disabled": 0, "rental_uris": {"ios": "https://dc.lft.to/lastmile_qr_scan", "android": "https://dc.lft.to/lastmile_qr_scan"}, "bike_id": "a47446670b0c74ab7af6c1945e4675be", "lat": 38.961246, "name": "a47446670b0c74ab7af6c1945e4675be", "lon": -77.03273866666666, "fusion_lon": 0.0}, {"is_reserved": 0, "type": "electric_scooter", "fusion_lat": 0.0, "is_disabled": 0, "rental_uris": {"ios": "https://dc.lft.to/lastmile_qr_scan", "android": "https://dc.lft.to/lastmile_qr_scan"}, "bike_id": "e93efbae266ec57c648e34efdaee4e66", "lat": 38.91338733333333, "name": "e93efbae266ec57c648e34efdaee4e66", "lon": -77.0106365, "fusion_lon": 0.0}, {"is_reserved": 0, "type": "electric_scooter", "fusion_lat": 0.0, "is_disabled": 0, "rental_uris": {"ios": "https://dc.lft.to/lastmile_qr_scan", "android": "https://dc.lft.to/lastmile_qr_scan"}, "bike_id": "0c68cc0c6517f219a1b9763e7eab6092", "lat": 38.91567166666667, "name": "0c68cc0c6517f219a1b9763e7eab6092", "lon": -77.03176383333333, "fusion_lon": 0.0}, {"is_reserved": 0, "type": "electric_scooter", "fusion_lat": 0.0, "is_disabled": 0, "rental_uris": {"ios": "https://dc.lft.to/lastmile_qr_scan", "android": "https://dc.lft.to/lastmile_qr_scan"}, "bike_id": "70608cdac4064ec11ec26191095c902f", "lat": 38.9468225, "name": "70608cdac4064ec11ec26191095c902f", "lon": -77.03283833333333, "fusion_lon": 0.0}, {"is_reserved": 0, "type": "electric_scooter", "fusion_lat": 0.0, "is_disabled": 0, "rental_uris": {"ios": "https://dc.lft.to/lastmile_qr_scan", "android": "https://dc.lft.to/lastmile_qr_scan"}, "bike_id": "da1804e5107e699a97203d147c9fc2d4", "lat": 38.93903516666666, "name": "da1804e5107e699a97203d147c9fc2d4", "lon": -77.03286333333334, "fusion_lon": 0.0}, {"is_reserved": 0, "type": "electric_scooter", "fusion_lat": 0.0, "is_disabled": 0, "rental_uris": {"ios": "https://dc.lft.to/lastmile_qr_scan", "android": "https://dc.lft.to/lastmile_qr_scan"}, "bike_id": "a493b649bad74e16822336407c039fed", "lat": 38.8766065, "name": "a493b649bad74e16822336407c039fed", "lon": -77.01576916666667, "fusion_lon": 0.0}, {"is_reserved": 0, "type": "electric_scooter", "fusion_lat": 0.0, "is_disabled": 0, "rental_uris": {"ios": "https://dc.lft.to/lastmile_qr_scan", "android": "https://dc.lft.to/lastmile_qr_scan"}, "bike_id": "7ffda107d7d9997a075c6dcbb6f355ce", "lat": 38.9301325, "name": "7ffda107d7d9997a075c6dcbb6f355ce", "lon": -77.04048283333333, "fusion_lon": 0.0}, {"is_reserved": 0, "type": "electric_scooter", "fusion_lat": 0.0, "is_disabled": 0, "rental_uris": {"ios": "https://dc.lft.to/lastmile_qr_scan", "android": "https://dc.lft.to/lastmile_qr_scan"}, "bike_id": "1d98a5b10c23ee987e28d8dad58b8d03", "lat": 38.93786633333333, "name": "1d98a5b10c23ee987e28d8dad58b8d03", "lon": -77.0326215, "fusion_lon": 0.0}, {"is_reserved": 0, "type": "electric_bike", "fusion_lat": 0.0, "is_disabled": 0, "rental_uris": {"ios": "https://dc.lft.to/lastmile_qr_scan", "android": "https://dc.lft.to/lastmile_qr_scan"}, "bike_id": "68e0339c1143d99eb7a8ee753af5d731", "lat": 38.99496116666667, "name": "68e0339c1143d99eb7a8ee753af5d731", "lon": -77.0013615, "fusion_lon": 0.0}, {"is_reserved": 0, "type": "electric_bike", "fusion_lat": 0.0, "is_disabled": 0, "rental_uris": {"ios": "https://dc.lft.to/lastmile_qr_scan", "android": "https://dc.lft.to/lastmile_qr_scan"}, "bike_id": "50929eaee38fe15ecab96b81442d2f48", "lat": 38.9473405, "name": "50929eaee38fe15ecab96b81442d2f48", "lon": -76.99581766666667, "fusion_lon": 0.0}, {"is_reserved": 0, "type": "electric_scooter", "fusion_lat": 0.0, "is_disabled": 0, "rental_uris": {"ios": "https://dc.lft.to/lastmile_qr_scan", "android": "https://dc.lft.to/lastmile_qr_scan"}, "bike_id": "da3e1bd01ae30987815fffc67bb0d157", "lat": 38.89838616666667, "name": "da3e1bd01ae30987815fffc67bb0d157", "lon": -77.05016216666667, "fusion_lon": 0.0}, {"is_reserved": 0, "type": "electric_scooter", "fusion_lat": 0.0, "is_disabled": 0, "rental_uris": {"ios": "https://dc.lft.to/lastmile_qr_scan", "android": "https://dc.lft.to/lastmile_qr_scan"}, "bike_id": "9e87223e3687ed2c9907962f2bf669c1", "lat": 38.919167, "name": "9e87223e3687ed2c9907962f2bf669c1", "lon": -77.04812216666667, "fusion_lon": 0.0}, {"is_reserved": 0, "type": "electric_scooter", "fusion_lat": 0.0, "is_disabled": 0, "rental_uris": {"ios": "https://dc.lft.to/lastmile_qr_scan", "android": "https://dc.lft.to/lastmile_qr_scan"}, "bike_id": "64d2e5780aa202a54960135ddec7dac6", "lat": 38.88361866666666, "name": "64d2e5780aa202a54960135ddec7dac6", "lon": -76.92792416666667, "fusion_lon": 0.0}, {"is_reserved": 0, "type": "electric_scooter", "fusion_lat": 0.0, "is_disabled": 0, "rental_uris": {"ios": "https://dc.lft.to/lastmile_qr_scan", "android": "https://dc.lft.to/lastmile_qr_scan"}, "bike_id": "dd2d52fc7e6d531b4f18d79099322303", "lat": 38.91649916666667, "name": "dd2d52fc7e6d531b4f18d79099322303", "lon": -77.02177816666666, "fusion_lon": 0.0}, {"is_reserved": 0, "type": "electric_scooter", "fusion_lat": 0.0, "is_disabled": 0, "rental_uris": {"ios": "https://dc.lft.to/lastmile_qr_scan", "android": "https://dc.lft.to/lastmile_qr_scan"}, "bike_id": "e5302aa56d607979428b0804e2070020", "lat": 38.90190833333333, "name": "e5302aa56d607979428b0804e2070020", "lon": -76.934652, "fusion_lon": 0.0}, {"is_reserved": 0, "type": "electric_scooter", "fusion_lat": 0.0, "is_disabled": 0, "rental_uris": {"ios": "https://dc.lft.to/lastmile_qr_scan", "android": "https://dc.lft.to/lastmile_qr_scan"}, "bike_id": "2507d75efea48015f71cfe3c6708b0d8", "lat": 38.9318665, "name": "2507d75efea48015f71cfe3c6708b0d8", "lon": -77.01962916666666, "fusion_lon": 0.0}, {"is_reserved": 0, "type": "electric_scooter", "fusion_lat": 0.0, "is_disabled": 0, "rental_uris": {"ios": "https://dc.lft.to/lastmile_qr_scan", "android": "https://dc.lft.to/lastmile_qr_scan"}, "bike_id": "001b6051d1cbb2ae662a7565c308342c", "lat": 38.930753333333335, "name": "001b6051d1cbb2ae662a7565c308342c", "lon": -77.07762216666667, "fusion_lon": 0.0}, {"is_reserved": 0, "type": "electric_scooter", "fusion_lat": 0.0, "is_disabled": 0, "rental_uris": {"ios": "https://dc.lft.to/lastmile_qr_scan", "android": "https://dc.lft.to/lastmile_qr_scan"}, "bike_id": "36bb8579bfd3a158b781c63a41b24822", "lat": 38.924791, "name": "36bb8579bfd3a158b781c63a41b24822", "lon": -77.02634583333334, "fusion_lon": 0.0}, {"is_reserved": 0, "type": "electric_scooter", "fusion_lat": 0.0, "is_disabled": 0, "rental_uris": {"ios": "https://dc.lft.to/lastmile_qr_scan", "android": "https://dc.lft.to/lastmile_qr_scan"}, "bike_id": "30736b09fd8663b54c58a45cdfaa752c", "lat": 38.90400366666667, "name": "30736b09fd8663b54c58a45cdfaa752c", "lon": -77.03537666666666, "fusion_lon": 0.0}, {"is_reserved": 0, "type": "electric_bike", "fusion_lat": 0.0, "is_disabled": 0, "rental_uris": {"ios": "https://dc.lft.to/lastmile_qr_scan", "android": "https://dc.lft.to/lastmile_qr_scan"}, "bike_id": "f2ebe97f554966249b01379ae69f6ad8", "lat": 38.84474566666667, "name": "f2ebe97f554966249b01379ae69f6ad8", "lon": -76.99595083333334, "fusion_lon": 0.0}, {"is_reserved": 0, "type": "electric_scooter", "fusion_lat": 0.0, "is_disabled": 0, "rental_uris": {"ios": "https://dc.lft.to/lastmile_qr_scan", "android": "https://dc.lft.to/lastmile_qr_scan"}, "bike_id": "11d3d79b4e1f802cbcb6c95f97533a0f", "lat": 38.9309975, "name": "11d3d79b4e1f802cbcb6c95f97533a0f", "lon": -77.02475266666667, "fusion_lon": 0.0}, {"is_reserved": 0, "type": "electric_bike", "fusion_lat": 0.0, "is_disabled": 0, "rental_uris": {"ios": "https://dc.lft.to/lastmile_qr_scan", "android": "https://dc.lft.to/lastmile_qr_scan"}, "bike_id": "68c2c03a7b355b3db104fbeaaf448296", "lat": 38.87164033333333, "name": "68c2c03a7b355b3db104fbeaaf448296", "lon": -77.0881445, "fusion_lon": 0.0}, {"is_reserved": 0, "type": "electric_scooter", "fusion_lat": 0.0, "is_disabled": 0, "rental_uris": {"ios": "https://dc.lft.to/lastmile_qr_scan", "android": "https://dc.lft.to/lastmile_qr_scan"}, "bike_id": "2cfe463ebfe3e373ab3bed850ec242b6", "lat": 38.881728333333335, "name": "2cfe463ebfe3e373ab3bed850ec242b6", "lon": -76.92539666666667, "fusion_lon": 0.0}, {"is_reserved": 0, "type": "electric_bike", "fusion_lat": 0.0, "is_disabled": 0, "rental_uris": {"ios": "https://dc.lft.to/lastmile_qr_scan", "android": "https://dc.lft.to/lastmile_qr_scan"}, "bike_id": "aaf983bbcc265b115632a8cd2152b0dd", "lat": 38.91122133333333, "name": "aaf983bbcc265b115632a8cd2152b0dd", "lon": -77.065812, "fusion_lon": 0.0}, {"is_reserved": 0, "type": "electric_scooter", "fusion_lat": 0.0, "is_disabled": 0, "rental_uris": {"ios": "https://dc.lft.to/lastmile_qr_scan", "android": "https://dc.lft.to/lastmile_qr_scan"}, "bike_id": "d621b444fd0ea21d37692d0659119e81", "lat": 38.921183166666665, "name": "d621b444fd0ea21d37692d0659119e81", "lon": -77.04575483333333, "fusion_lon": 0.0}, {"is_reserved": 0, "type": "electric_scooter", "fusion_lat": 0.0, "is_disabled": 0, "rental_uris": {"ios": "https://dc.lft.to/lastmile_qr_scan", "android": "https://dc.lft.to/lastmile_qr_scan"}, "bike_id": "530a74f31b8495b7613052f7e39cada0", "lat": 38.87695433333333, "name": "530a74f31b8495b7613052f7e39cada0", "lon": -76.9962355, "fusion_lon": 0.0}, {"is_reserved": 0, "type": "electric_scooter", "fusion_lat": 0.0, "is_disabled": 0, "rental_uris": {"ios": "https://dc.lft.to/lastmile_qr_scan", "android": "https://dc.lft.to/lastmile_qr_scan"}, "bike_id": "bc5ba977b3a88bee279d5c7e54882a0f", "lat": 38.9054225, "name": "bc5ba977b3a88bee279d5c7e54882a0f", "lon": -77.05699833333334, "fusion_lon": 0.0}, {"is_reserved": 0, "type": "electric_scooter", "fusion_lat": 0.0, "is_disabled": 0, "rental_uris": {"ios": "https://dc.lft.to/lastmile_qr_scan", "android": "https://dc.lft.to/lastmile_qr_scan"}, "bike_id": "fa341d569459bd184c4aaeb7a6b92502", "lat": 38.91821383333333, "name": "fa341d569459bd184c4aaeb7a6b92502", "lon": -77.0232255, "fusion_lon": 0.0}, {"is_reserved": 0, "type": "electric_scooter", "fusion_lat": 0.0, "is_disabled": 0, "rental_uris": {"ios": "https://dc.lft.to/lastmile_qr_scan", "android": "https://dc.lft.to/lastmile_qr_scan"}, "bike_id": "8bf5848eb0dadcb9b1d6daf0380d067b", "lat": 38.938714166666664, "name": "8bf5848eb0dadcb9b1d6daf0380d067b", "lon": -77.02959183333333, "fusion_lon": 0.0}, {"is_reserved": 0, "type": "electric_scooter", "fusion_lat": 0.0, "is_disabled": 0, "rental_uris": {"ios": "https://dc.lft.to/lastmile_qr_scan", "android": "https://dc.lft.to/lastmile_qr_scan"}, "bike_id": "566acf17c1088527284001b9078a1e58", "lat": 38.9403365, "name": "566acf17c1088527284001b9078a1e58", "lon": -77.083938, "fusion_lon": 0.0}, {"is_reserved": 0, "type": "electric_scooter", "fusion_lat": 0.0, "is_disabled": 0, "rental_uris": {"ios": "https://dc.lft.to/lastmile_qr_scan", "android": "https://dc.lft.to/lastmile_qr_scan"}, "bike_id": "5cf50feea30fb9baed67017d0bc07cd9", "lat": 38.92787516666667, "name": "5cf50feea30fb9baed67017d0bc07cd9", "lon": -77.0362455, "fusion_lon": 0.0}, {"is_reserved": 0, "type": "electric_scooter", "fusion_lat": 0.0, "is_disabled": 0, "rental_uris": {"ios": "https://dc.lft.to/lastmile_qr_scan", "android": "https://dc.lft.to/lastmile_qr_scan"}, "bike_id": "e850f5c77d50a85e780c42f69610067a", "lat": 38.9042185, "name": "e850f5c77d50a85e780c42f69610067a", "lon": -77.051405, "fusion_lon": 0.0}, {"is_reserved": 0, "type": "electric_bike", "fusion_lat": 0.0, "is_disabled": 0, "rental_uris": {"ios": "https://dc.lft.to/lastmile_qr_scan", "android": "https://dc.lft.to/lastmile_qr_scan"}, "bike_id": "1d37cafb9a5af80a3e661472051d16d0", "lat": 38.85784533333333, "name": "1d37cafb9a5af80a3e661472051d16d0", "lon": -76.987637, "fusion_lon": 0.0}, {"is_reserved": 0, "type": "electric_scooter", "fusion_lat": 0.0, "is_disabled": 0, "rental_uris": {"ios": "https://dc.lft.to/lastmile_qr_scan", "android": "https://dc.lft.to/lastmile_qr_scan"}, "bike_id": "8e9a8062b70c27763d4192d2a6de5037", "lat": 38.882305, "name": "8e9a8062b70c27763d4192d2a6de5037", "lon": -76.99096066666667, "fusion_lon": 0.0}, {"is_reserved": 0, "type": "electric_scooter", "fusion_lat": 0.0, "is_disabled": 0, "rental_uris": {"ios": "https://dc.lft.to/lastmile_qr_scan", "android": "https://dc.lft.to/lastmile_qr_scan"}, "bike_id": "dd0fde494590abf964cf3a5a6cdb2fa1", "lat": 38.83379433333333, "name": "dd0fde494590abf964cf3a5a6cdb2fa1", "lon": -77.00303883333333, "fusion_lon": 0.0}, {"is_reserved": 0, "type": "electric_scooter", "fusion_lat": 0.0, "is_disabled": 0, "rental_uris": {"ios": "https://dc.lft.to/lastmile_qr_scan", "android": "https://dc.lft.to/lastmile_qr_scan"}, "bike_id": "6dcedbaa647bd0d5827579ca696ead29", "lat": 38.895340166666664, "name": "6dcedbaa647bd0d5827579ca696ead29", "lon": -77.02655783333333, "fusion_lon": 0.0}, {"is_reserved": 0, "type": "electric_scooter", "fusion_lat": 0.0, "is_disabled": 0, "rental_uris": {"ios": "https://dc.lft.to/lastmile_qr_scan", "android": "https://dc.lft.to/lastmile_qr_scan"}, "bike_id": "dcf2a07234c192104732a2cb964f04cc", "lat": 38.93314016666667, "name": "dcf2a07234c192104732a2cb964f04cc", "lon": -77.03258316666667, "fusion_lon": 0.0}, {"is_reserved": 0, "type": "electric_bike", "fusion_lat": 0.0, "is_disabled": 0, "rental_uris": {"ios": "https://dc.lft.to/lastmile_qr_scan", "android": "https://dc.lft.to/lastmile_qr_scan"}, "bike_id": "5170a3c4bbe2ab7206d4c56065aafb50", "lat": 38.936333833333336, "name": "5170a3c4bbe2ab7206d4c56065aafb50", "lon": -77.06354783333333, "fusion_lon": 0.0}, {"is_reserved": 0, "type": "electric_scooter", "fusion_lat": 0.0, "is_disabled": 0, "rental_uris": {"ios": "https://dc.lft.to/lastmile_qr_scan", "android": "https://dc.lft.to/lastmile_qr_scan"}, "bike_id": "5b069fc064b7c9134fcb67ef074509eb", "lat": 38.931258, "name": "5b069fc064b7c9134fcb67ef074509eb", "lon": -77.02181733333333, "fusion_lon": 0.0}, {"is_reserved": 0, "type": "electric_scooter", "fusion_lat": 0.0, "is_disabled": 0, "rental_uris": {"ios": "https://dc.lft.to/lastmile_qr_scan", "android": "https://dc.lft.to/lastmile_qr_scan"}, "bike_id": "a362a68cd5748596789612a8e76a1d00", "lat": 38.895964666666664, "name": "a362a68cd5748596789612a8e76a1d00", "lon": -77.027524, "fusion_lon": 0.0}, {"is_reserved": 0, "type": "electric_scooter", "fusion_lat": 0.0, "is_disabled": 0, "rental_uris": {"ios": "https://dc.lft.to/lastmile_qr_scan", "android": "https://dc.lft.to/lastmile_qr_scan"}, "bike_id": "c5935297de42d320fd23e07a92eb7f38", "lat": 38.9040965, "name": "c5935297de42d320fd23e07a92eb7f38", "lon": -77.02415916666666, "fusion_lon": 0.0}, {"is_reserved": 0, "type": "electric_bike", "fusion_lat": 0.0, "is_disabled": 0, "rental_uris": {"ios": "https://dc.lft.to/lastmile_qr_scan", "android": "https://dc.lft.to/lastmile_qr_scan"}, "bike_id": "8e81a405c0f8db142539d163487cf485", "lat": 38.83605633333333, "name": "8e81a405c0f8db142539d163487cf485", "lon": -77.0037885, "fusion_lon": 0.0}, {"is_reserved": 0, "type": "electric_scooter", "fusion_lat": 0.0, "is_disabled": 0, "rental_uris": {"ios": "https://dc.lft.to/lastmile_qr_scan", "android": "https://dc.lft.to/lastmile_qr_scan"}, "bike_id": "9fcd67949f6e75a359cdfd9b2b86e3e2", "lat": 38.92134033333333, "name": "9fcd67949f6e75a359cdfd9b2b86e3e2", "lon": -77.00402783333334, "fusion_lon": 0.0}, {"is_reserved": 0, "type": "electric_bike", "fusion_lat": 0.0, "is_disabled": 0, "rental_uris": {"ios": "https://dc.lft.to/lastmile_qr_scan", "android": "https://dc.lft.to/lastmile_qr_scan"}, "bike_id": "d04974f1e921e0ef8ab684f0ad3daf2e", "lat": 38.90685833333333, "name": "d04974f1e921e0ef8ab684f0ad3daf2e", "lon": -77.0101905, "fusion_lon": 0.0}, {"is_reserved": 0, "type": "electric_bike", "fusion_lat": 0.0, "is_disabled": 0, "rental_uris": {"ios": "https://dc.lft.to/lastmile_qr_scan", "android": "https://dc.lft.to/lastmile_qr_scan"}, "bike_id": "7d869310f9b40bc1eee16a2c1ad2c8df", "lat": 38.82430266666667, "name": "7d869310f9b40bc1eee16a2c1ad2c8df", "lon": -77.12041766666667, "fusion_lon": 0.0}, {"is_reserved": 0, "type": "electric_scooter", "fusion_lat": 0.0, "is_disabled": 0, "rental_uris": {"ios": "https://dc.lft.to/lastmile_qr_scan", "android": "https://dc.lft.to/lastmile_qr_scan"}, "bike_id": "4abb4a76ed25c37c39113405270f5bab", "lat": 38.885824666666664, "name": "4abb4a76ed25c37c39113405270f5bab", "lon": -77.012272, "fusion_lon": 0.0}, {"is_reserved": 0, "type": "electric_scooter", "fusion_lat": 0.0, "is_disabled": 0, "rental_uris": {"ios": "https://dc.lft.to/lastmile_qr_scan", "android": "https://dc.lft.to/lastmile_qr_scan"}, "bike_id": "190813125e9747e57e80da34f4fb8639", "lat": 38.900637833333334, "name": "190813125e9747e57e80da34f4fb8639", "lon": -77.01338233333334, "fusion_lon": 0.0}, {"is_reserved": 0, "type": "electric_scooter", "fusion_lat": 0.0, "is_disabled": 0, "rental_uris": {"ios": "https://dc.lft.to/lastmile_qr_scan", "android": "https://dc.lft.to/lastmile_qr_scan"}, "bike_id": "3cab48ab679efa26643d9b3485216dc7", "lat": 38.9103995, "name": "3cab48ab679efa26643d9b3485216dc7", "lon": -77.0102815, "fusion_lon": 0.0}, {"is_reserved": 0, "type": "electric_scooter", "fusion_lat": 0.0, "is_disabled": 0, "rental_uris": {"ios": "https://dc.lft.to/lastmile_qr_scan", "android": "https://dc.lft.to/lastmile_qr_scan"}, "bike_id": "2ced7fc41f777856629a2ba212aab098", "lat": 38.929048333333334, "name": "2ced7fc41f777856629a2ba212aab098", "lon": -77.023522, "fusion_lon": 0.0}, {"is_reserved": 0, "type": "electric_scooter", "fusion_lat": 0.0, "is_disabled": 0, "rental_uris": {"ios": "https://dc.lft.to/lastmile_qr_scan", "android": "https://dc.lft.to/lastmile_qr_scan"}, "bike_id": "ac606110d57f285e0187ad77f52d901b", "lat": 38.91257916666667, "name": "ac606110d57f285e0187ad77f52d901b", "lon": -77.03406583333333, "fusion_lon": 0.0}, {"is_reserved": 0, "type": "electric_scooter", "fusion_lat": 0.0, "is_disabled": 0, "rental_uris": {"ios": "https://dc.lft.to/lastmile_qr_scan", "android": "https://dc.lft.to/lastmile_qr_scan"}, "bike_id": "a41f390c0b81f905716d6829176753ca", "lat": 38.91157966666667, "name": "a41f390c0b81f905716d6829176753ca", "lon": -77.04484, "fusion_lon": 0.0}, {"is_reserved": 0, "type": "electric_bike", "fusion_lat": 0.0, "is_disabled": 0, "rental_uris": {"ios": "https://dc.lft.to/lastmile_qr_scan", "android": "https://dc.lft.to/lastmile_qr_scan"}, "bike_id": "5bd8a0666ace3818c2f8379980ba2c02", "lat": 38.865584166666665, "name": "5bd8a0666ace3818c2f8379980ba2c02", "lon": -76.97481816666667, "fusion_lon": 0.0}, {"is_reserved": 0, "type": "electric_bike", "fusion_lat": 0.0, "is_disabled": 0, "rental_uris": {"ios": "https://dc.lft.to/lastmile_qr_scan", "android": "https://dc.lft.to/lastmile_qr_scan"}, "bike_id": "ed48e416ac50474d371a08baefc6746c", "lat": 38.93037066666667, "name": "ed48e416ac50474d371a08baefc6746c", "lon": -77.05568766666667, "fusion_lon": 0.0}, {"is_reserved": 0, "type": "electric_scooter", "fusion_lat": 0.0, "is_disabled": 0, "rental_uris": {"ios": "https://dc.lft.to/lastmile_qr_scan", "android": "https://dc.lft.to/lastmile_qr_scan"}, "bike_id": "366319f5cebcd790e872047e652f1ccd", "lat": 38.900250666666665, "name": "366319f5cebcd790e872047e652f1ccd", "lon": -77.0038695, "fusion_lon": 0.0}, {"is_reserved": 0, "type": "electric_scooter", "fusion_lat": 0.0, "is_disabled": 0, "rental_uris": {"ios": "https://dc.lft.to/lastmile_qr_scan", "android": "https://dc.lft.to/lastmile_qr_scan"}, "bike_id": "c4c4aed567fddc2eb352f83576ec6e29", "lat": 38.9483245, "name": "c4c4aed567fddc2eb352f83576ec6e29", "lon": -77.02703866666667, "fusion_lon": 0.0}, {"is_reserved": 0, "type": "electric_scooter", "fusion_lat": 0.0, "is_disabled": 0, "rental_uris": {"ios": "https://dc.lft.to/lastmile_qr_scan", "android": "https://dc.lft.to/lastmile_qr_scan"}, "bike_id": "de33dadb4bd9e94c6822af8b5ce0415f", "lat": 38.88237383333333, "name": "de33dadb4bd9e94c6822af8b5ce0415f", "lon": -77.00634033333333, "fusion_lon": 0.0}, {"is_reserved": 0, "type": "electric_scooter", "fusion_lat": 0.0, "is_disabled": 0, "rental_uris": {"ios": "https://dc.lft.to/lastmile_qr_scan", "android": "https://dc.lft.to/lastmile_qr_scan"}, "bike_id": "e4981ff7806efeac88102996addbbcb8", "lat": 38.8919375, "name": "e4981ff7806efeac88102996addbbcb8", "lon": -77.022216, "fusion_lon": 0.0}, {"is_reserved": 0, "type": "electric_scooter", "fusion_lat": 0.0, "is_disabled": 0, "rental_uris": {"ios": "https://dc.lft.to/lastmile_qr_scan", "android": "https://dc.lft.to/lastmile_qr_scan"}, "bike_id": "15b7347230bd93b2e4652036ea8b14ef", "lat": 38.89913933333333, "name": "15b7347230bd93b2e4652036ea8b14ef", "lon": -76.978336, "fusion_lon": 0.0}, {"is_reserved": 0, "type": "electric_scooter", "fusion_lat": 0.0, "is_disabled": 0, "rental_uris": {"ios": "https://dc.lft.to/lastmile_qr_scan", "android": "https://dc.lft.to/lastmile_qr_scan"}, "bike_id": "4447a2b657742aa13b3f6e5dfe05a444", "lat": 38.90111666666667, "name": "4447a2b657742aa13b3f6e5dfe05a444", "lon": -77.01620283333334, "fusion_lon": 0.0}, {"is_reserved": 0, "type": "electric_scooter", "fusion_lat": 0.0, "is_disabled": 0, "rental_uris": {"ios": "https://dc.lft.to/lastmile_qr_scan", "android": "https://dc.lft.to/lastmile_qr_scan"}, "bike_id": "58fdddfd5bf93aaafe0e3f32837994f2", "lat": 38.916412333333334, "name": "58fdddfd5bf93aaafe0e3f32837994f2", "lon": -77.0482585, "fusion_lon": 0.0}, {"is_reserved": 0, "type": "electric_bike", "fusion_lat": 0.0, "is_disabled": 0, "rental_uris": {"ios": "https://dc.lft.to/lastmile_qr_scan", "android": "https://dc.lft.to/lastmile_qr_scan"}, "bike_id": "f35655ac99f17c4d47dae735a03c518f", "lat": 38.97441383333334, "name": "f35655ac99f17c4d47dae735a03c518f", "lon": -77.09616466666667, "fusion_lon": 0.0}, {"is_reserved": 0, "type": "electric_scooter", "fusion_lat": 0.0, "is_disabled": 0, "rental_uris": {"ios": "https://dc.lft.to/lastmile_qr_scan", "android": "https://dc.lft.to/lastmile_qr_scan"}, "bike_id": "2b6da6709b4d206fe6f69c6605a50557", "lat": 38.95555483333333, "name": "2b6da6709b4d206fe6f69c6605a50557", "lon": -77.03327083333333, "fusion_lon": 0.0}, {"is_reserved": 0, "type": "electric_scooter", "fusion_lat": 0.0, "is_disabled": 0, "rental_uris": {"ios": "https://dc.lft.to/lastmile_qr_scan", "android": "https://dc.lft.to/lastmile_qr_scan"}, "bike_id": "62c7426c9caaabb6e2cdcb0b4fa93c10", "lat": 38.92066633333334, "name": "62c7426c9caaabb6e2cdcb0b4fa93c10", "lon": -77.031948, "fusion_lon": 0.0}, {"is_reserved": 0, "type": "electric_scooter", "fusion_lat": 0.0, "is_disabled": 0, "rental_uris": {"ios": "https://dc.lft.to/lastmile_qr_scan", "android": "https://dc.lft.to/lastmile_qr_scan"}, "bike_id": "13640095c705260651da180c132d78eb", "lat": 38.923603, "name": "13640095c705260651da180c132d78eb", "lon": -77.05134016666666, "fusion_lon": 0.0}, {"is_reserved": 0, "type": "electric_scooter", "fusion_lat": 0.0, "is_disabled": 0, "rental_uris": {"ios": "https://dc.lft.to/lastmile_qr_scan", "android": "https://dc.lft.to/lastmile_qr_scan"}, "bike_id": "1e053b495e6ffc6b638ce3c33db6ce61", "lat": 38.91016, "name": "1e053b495e6ffc6b638ce3c33db6ce61", "lon": -77.01992216666666, "fusion_lon": 0.0}, {"is_reserved": 0, "type": "electric_scooter", "fusion_lat": 0.0, "is_disabled": 0, "rental_uris": {"ios": "https://dc.lft.to/lastmile_qr_scan", "android": "https://dc.lft.to/lastmile_qr_scan"}, "bike_id": "12b44950d8ff9c93940cb7eafa05d8f2", "lat": 38.8972795, "name": "12b44950d8ff9c93940cb7eafa05d8f2", "lon": -77.046061, "fusion_lon": 0.0}, {"is_reserved": 0, "type": "electric_scooter", "fusion_lat": 0.0, "is_disabled": 0, "rental_uris": {"ios": "https://dc.lft.to/lastmile_qr_scan", "android": "https://dc.lft.to/lastmile_qr_scan"}, "bike_id": "25a1ab4089cb2771d396e2cde0812b30", "lat": 38.855518000000004, "name": "25a1ab4089cb2771d396e2cde0812b30", "lon": -76.98657466666667, "fusion_lon": 0.0}, {"is_reserved": 0, "type": "electric_scooter", "fusion_lat": 0.0, "is_disabled": 0, "rental_uris": {"ios": "https://dc.lft.to/lastmile_qr_scan", "android": "https://dc.lft.to/lastmile_qr_scan"}, "bike_id": "72c4daf611f852101fef8bcf704d6410", "lat": 38.89951716666667, "name": "72c4daf611f852101fef8bcf704d6410", "lon": -77.025657, "fusion_lon": 0.0}, {"is_reserved": 0, "type": "electric_scooter", "fusion_lat": 0.0, "is_disabled": 0, "rental_uris": {"ios": "https://dc.lft.to/lastmile_qr_scan", "android": "https://dc.lft.to/lastmile_qr_scan"}, "bike_id": "b964d9d548b2e29806072508cdbf3ab4", "lat": 38.89531083333333, "name": "b964d9d548b2e29806072508cdbf3ab4", "lon": -76.9489375, "fusion_lon": 0.0}, {"is_reserved": 0, "type": "electric_scooter", "fusion_lat": 0.0, "is_disabled": 0, "rental_uris": {"ios": "https://dc.lft.to/lastmile_qr_scan", "android": "https://dc.lft.to/lastmile_qr_scan"}, "bike_id": "dbaa78410e2d667e750192cbbcd8c37b", "lat": 38.92028466666667, "name": "dbaa78410e2d667e750192cbbcd8c37b", "lon": -77.025103, "fusion_lon": 0.0}, {"is_reserved": 0, "type": "electric_scooter", "fusion_lat": 0.0, "is_disabled": 0, "rental_uris": {"ios": "https://dc.lft.to/lastmile_qr_scan", "android": "https://dc.lft.to/lastmile_qr_scan"}, "bike_id": "731c21d9e466aa1437b861e65d1f4421", "lat": 38.914872, "name": "731c21d9e466aa1437b861e65d1f4421", "lon": -77.049453, "fusion_lon": 0.0}, {"is_reserved": 0, "type": "electric_scooter", "fusion_lat": 0.0, "is_disabled": 0, "rental_uris": {"ios": "https://dc.lft.to/lastmile_qr_scan", "android": "https://dc.lft.to/lastmile_qr_scan"}, "bike_id": "161b703759dc2fe5ce4afba9800beb6e", "lat": 38.91921833333333, "name": "161b703759dc2fe5ce4afba9800beb6e", "lon": -77.0342495, "fusion_lon": 0.0}, {"is_reserved": 0, "type": "electric_scooter", "fusion_lat": 0.0, "is_disabled": 0, "rental_uris": {"ios": "https://dc.lft.to/lastmile_qr_scan", "android": "https://dc.lft.to/lastmile_qr_scan"}, "bike_id": "d988934524cb1567d44195ab335dd033", "lat": 38.91823816666667, "name": "d988934524cb1567d44195ab335dd033", "lon": -77.01211866666667, "fusion_lon": 0.0}, {"is_reserved": 0, "type": "electric_scooter", "fusion_lat": 0.0, "is_disabled": 0, "rental_uris": {"ios": "https://dc.lft.to/lastmile_qr_scan", "android": "https://dc.lft.to/lastmile_qr_scan"}, "bike_id": "0e8705dc83874449b18ddcddc8843202", "lat": 38.93956083333333, "name": "0e8705dc83874449b18ddcddc8843202", "lon": -77.07235083333333, "fusion_lon": 0.0}, {"is_reserved": 0, "type": "electric_scooter", "fusion_lat": 0.0, "is_disabled": 0, "rental_uris": {"ios": "https://dc.lft.to/lastmile_qr_scan", "android": "https://dc.lft.to/lastmile_qr_scan"}, "bike_id": "98d2aa1c9dd99f9225b549f6e547c226", "lat": 38.9022055, "name": "98d2aa1c9dd99f9225b549f6e547c226", "lon": -77.04815033333334, "fusion_lon": 0.0}, {"is_reserved": 0, "type": "electric_bike", "fusion_lat": 0.0, "is_disabled": 0, "rental_uris": {"ios": "https://dc.lft.to/lastmile_qr_scan", "android": "https://dc.lft.to/lastmile_qr_scan"}, "bike_id": "09527145aecd36fedb1520dc3cfd01d7", "lat": 38.855951166666664, "name": "09527145aecd36fedb1520dc3cfd01d7", "lon": -76.97279366666666, "fusion_lon": 0.0}, {"is_reserved": 0, "type": "electric_bike", "fusion_lat": 0.0, "is_disabled": 0, "rental_uris": {"ios": "https://dc.lft.to/lastmile_qr_scan", "android": "https://dc.lft.to/lastmile_qr_scan"}, "bike_id": "388bb78d916e120a876a1b8fa17a5853", "lat": 38.804049, "name": "388bb78d916e120a876a1b8fa17a5853", "lon": -77.11330616666666, "fusion_lon": 0.0}, {"is_reserved": 0, "type": "electric_scooter", "fusion_lat": 0.0, "is_disabled": 0, "rental_uris": {"ios": "https://dc.lft.to/lastmile_qr_scan", "android": "https://dc.lft.to/lastmile_qr_scan"}, "bike_id": "7baaa69467de6c52d32d2ab55ebab0d8", "lat": 38.909008666666665, "name": "7baaa69467de6c52d32d2ab55ebab0d8", "lon": -76.99117183333334, "fusion_lon": 0.0}, {"is_reserved": 0, "type": "electric_scooter", "fusion_lat": 0.0, "is_disabled": 0, "rental_uris": {"ios": "https://dc.lft.to/lastmile_qr_scan", "android": "https://dc.lft.to/lastmile_qr_scan"}, "bike_id": "25c4699bd74093a8aaab7ca102e256e8", "lat": 38.8747375, "name": "25c4699bd74093a8aaab7ca102e256e8", "lon": -76.991703, "fusion_lon": 0.0}, {"is_reserved": 0, "type": "electric_scooter", "fusion_lat": 0.0, "is_disabled": 0, "rental_uris": {"ios": "https://dc.lft.to/lastmile_qr_scan", "android": "https://dc.lft.to/lastmile_qr_scan"}, "bike_id": "c1a905f4cb4bdaddc34285d8d678f0f2", "lat": 38.917662, "name": "c1a905f4cb4bdaddc34285d8d678f0f2", "lon": -77.02307133333333, "fusion_lon": 0.0}, {"is_reserved": 0, "type": "electric_scooter", "fusion_lat": 0.0, "is_disabled": 0, "rental_uris": {"ios": "https://dc.lft.to/lastmile_qr_scan", "android": "https://dc.lft.to/lastmile_qr_scan"}, "bike_id": "e535cf118926485d529ba2fe749e48b9", "lat": 38.9326235, "name": "e535cf118926485d529ba2fe749e48b9", "lon": -77.02097083333334, "fusion_lon": 0.0}, {"is_reserved": 0, "type": "electric_scooter", "fusion_lat": 0.0, "is_disabled": 0, "rental_uris": {"ios": "https://dc.lft.to/lastmile_qr_scan", "android": "https://dc.lft.to/lastmile_qr_scan"}, "bike_id": "3c51d88a736895de72d0b968e3134ce9", "lat": 38.92593983333333, "name": "3c51d88a736895de72d0b968e3134ce9", "lon": -77.0238865, "fusion_lon": 0.0}, {"is_reserved": 0, "type": "electric_bike", "fusion_lat": 0.0, "is_disabled": 0, "rental_uris": {"ios": "https://dc.lft.to/lastmile_qr_scan", "android": "https://dc.lft.to/lastmile_qr_scan"}, "bike_id": "8ef5ad6a4eb2b2e787b0fc8147a7fe29", "lat": 38.87996316666667, "name": "8ef5ad6a4eb2b2e787b0fc8147a7fe29", "lon": -76.985384, "fusion_lon": 0.0}, {"is_reserved": 0, "type": "electric_scooter", "fusion_lat": 0.0, "is_disabled": 0, "rental_uris": {"ios": "https://dc.lft.to/lastmile_qr_scan", "android": "https://dc.lft.to/lastmile_qr_scan"}, "bike_id": "ceeb178a7ea4af3278464ccd54ac8ad3", "lat": 38.90570016666667, "name": "ceeb178a7ea4af3278464ccd54ac8ad3", "lon": -76.97627383333334, "fusion_lon": 0.0}, {"is_reserved": 0, "type": "electric_scooter", "fusion_lat": 0.0, "is_disabled": 0, "rental_uris": {"ios": "https://dc.lft.to/lastmile_qr_scan", "android": "https://dc.lft.to/lastmile_qr_scan"}, "bike_id": "64aede4945e40ba9049ef233e5062cad", "lat": 38.874529333333335, "name": "64aede4945e40ba9049ef233e5062cad", "lon": -77.0048025, "fusion_lon": 0.0}, {"is_reserved": 0, "type": "electric_scooter", "fusion_lat": 0.0, "is_disabled": 0, "rental_uris": {"ios": "https://dc.lft.to/lastmile_qr_scan", "android": "https://dc.lft.to/lastmile_qr_scan"}, "bike_id": "0ce5ddedffe2ac899ea5554469def368", "lat": 38.90719033333333, "name": "0ce5ddedffe2ac899ea5554469def368", "lon": -77.02888733333333, "fusion_lon": 0.0}, {"is_reserved": 0, "type": "electric_scooter", "fusion_lat": 0.0, "is_disabled": 0, "rental_uris": {"ios": "https://dc.lft.to/lastmile_qr_scan", "android": "https://dc.lft.to/lastmile_qr_scan"}, "bike_id": "04c6f1436d0dcd3f4ea169816f342235", "lat": 38.92169916666667, "name": "04c6f1436d0dcd3f4ea169816f342235", "lon": -77.0402525, "fusion_lon": 0.0}, {"is_reserved": 0, "type": "electric_scooter", "fusion_lat": 0.0, "is_disabled": 0, "rental_uris": {"ios": "https://dc.lft.to/lastmile_qr_scan", "android": "https://dc.lft.to/lastmile_qr_scan"}, "bike_id": "18000a6785b67b9503579054ffe63229", "lat": 38.9234025, "name": "18000a6785b67b9503579054ffe63229", "lon": -77.0579035, "fusion_lon": 0.0}, {"is_reserved": 0, "type": "electric_bike", "fusion_lat": 0.0, "is_disabled": 0, "rental_uris": {"ios": "https://dc.lft.to/lastmile_qr_scan", "android": "https://dc.lft.to/lastmile_qr_scan"}, "bike_id": "d53cb29ebb3bc0cd76a32d16ab2da219", "lat": 38.831572, "name": "d53cb29ebb3bc0cd76a32d16ab2da219", "lon": -76.99590216666667, "fusion_lon": 0.0}, {"is_reserved": 0, "type": "electric_scooter", "fusion_lat": 0.0, "is_disabled": 0, "rental_uris": {"ios": "https://dc.lft.to/lastmile_qr_scan", "android": "https://dc.lft.to/lastmile_qr_scan"}, "bike_id": "388215155f302feef868f033fd661174", "lat": 38.90909283333333, "name": "388215155f302feef868f033fd661174", "lon": -77.0351255, "fusion_lon": 0.0}, {"is_reserved": 0, "type": "electric_scooter", "fusion_lat": 0.0, "is_disabled": 0, "rental_uris": {"ios": "https://dc.lft.to/lastmile_qr_scan", "android": "https://dc.lft.to/lastmile_qr_scan"}, "bike_id": "c01516285c9f335a5d0ec5adf837ba80", "lat": 38.935045833333334, "name": "c01516285c9f335a5d0ec5adf837ba80", "lon": -77.0568655, "fusion_lon": 0.0}, {"is_reserved": 0, "type": "electric_scooter", "fusion_lat": 0.0, "is_disabled": 0, "rental_uris": {"ios": "https://dc.lft.to/lastmile_qr_scan", "android": "https://dc.lft.to/lastmile_qr_scan"}, "bike_id": "b4e2f5e0be01b3ec8bfd273c78c8ba03", "lat": 38.91732483333333, "name": "b4e2f5e0be01b3ec8bfd273c78c8ba03", "lon": -77.01767766666667, "fusion_lon": 0.0}, {"is_reserved": 0, "type": "electric_scooter", "fusion_lat": 0.0, "is_disabled": 0, "rental_uris": {"ios": "https://dc.lft.to/lastmile_qr_scan", "android": "https://dc.lft.to/lastmile_qr_scan"}, "bike_id": "9379b7632f98d88dcf075a68b58942ce", "lat": 38.876374166666665, "name": "9379b7632f98d88dcf075a68b58942ce", "lon": -76.99294316666666, "fusion_lon": 0.0}, {"is_reserved": 0, "type": "electric_scooter", "fusion_lat": 0.0, "is_disabled": 0, "rental_uris": {"ios": "https://dc.lft.to/lastmile_qr_scan", "android": "https://dc.lft.to/lastmile_qr_scan"}, "bike_id": "32409aaf67b71e4bae6690d357c0425d", "lat": 38.902216, "name": "32409aaf67b71e4bae6690d357c0425d", "lon": -77.01379566666667, "fusion_lon": 0.0}, {"is_reserved": 0, "type": "electric_scooter", "fusion_lat": 0.0, "is_disabled": 0, "rental_uris": {"ios": "https://dc.lft.to/lastmile_qr_scan", "android": "https://dc.lft.to/lastmile_qr_scan"}, "bike_id": "64f2e23b01a092b43169f856f82204de", "lat": 38.91741666666667, "name": "64f2e23b01a092b43169f856f82204de", "lon": -77.02279033333333, "fusion_lon": 0.0}, {"is_reserved": 0, "type": "electric_scooter", "fusion_lat": 0.0, "is_disabled": 0, "rental_uris": {"ios": "https://dc.lft.to/lastmile_qr_scan", "android": "https://dc.lft.to/lastmile_qr_scan"}, "bike_id": "03b840c38cc385ca366e83bce0a358b0", "lat": 38.927896833333335, "name": "03b840c38cc385ca366e83bce0a358b0", "lon": -76.9762995, "fusion_lon": 0.0}, {"is_reserved": 0, "type": "electric_scooter", "fusion_lat": 0.0, "is_disabled": 0, "rental_uris": {"ios": "https://dc.lft.to/lastmile_qr_scan", "android": "https://dc.lft.to/lastmile_qr_scan"}, "bike_id": "e9b1ada73f457f9ec2f7514a70d515c9", "lat": 38.92539516666667, "name": "e9b1ada73f457f9ec2f7514a70d515c9", "lon": -77.03329666666667, "fusion_lon": 0.0}, {"is_reserved": 0, "type": "electric_scooter", "fusion_lat": 0.0, "is_disabled": 0, "rental_uris": {"ios": "https://dc.lft.to/lastmile_qr_scan", "android": "https://dc.lft.to/lastmile_qr_scan"}, "bike_id": "ec35b715f77c7fd669bde9fd64e5089d", "lat": 38.90600666666667, "name": "ec35b715f77c7fd669bde9fd64e5089d", "lon": -77.05653333333333, "fusion_lon": 0.0}, {"is_reserved": 0, "type": "electric_scooter", "fusion_lat": 0.0, "is_disabled": 0, "rental_uris": {"ios": "https://dc.lft.to/lastmile_qr_scan", "android": "https://dc.lft.to/lastmile_qr_scan"}, "bike_id": "f09bca98078cb7e74500e2188c3d64fd", "lat": 38.92338566666667, "name": "f09bca98078cb7e74500e2188c3d64fd", "lon": -77.03611783333334, "fusion_lon": 0.0}, {"is_reserved": 0, "type": "electric_scooter", "fusion_lat": 0.0, "is_disabled": 0, "rental_uris": {"ios": "https://dc.lft.to/lastmile_qr_scan", "android": "https://dc.lft.to/lastmile_qr_scan"}, "bike_id": "6214c838f0c90208b7abd6b1de5da9f6", "lat": 38.9170845, "name": "6214c838f0c90208b7abd6b1de5da9f6", "lon": -77.00888466666666, "fusion_lon": 0.0}, {"is_reserved": 0, "type": "electric_scooter", "fusion_lat": 0.0, "is_disabled": 0, "rental_uris": {"ios": "https://dc.lft.to/lastmile_qr_scan", "android": "https://dc.lft.to/lastmile_qr_scan"}, "bike_id": "7cc8ca2fef2877959812d7cda65cb5b5", "lat": 38.95266933333333, "name": "7cc8ca2fef2877959812d7cda65cb5b5", "lon": -76.99895283333333, "fusion_lon": 0.0}, {"is_reserved": 0, "type": "electric_scooter", "fusion_lat": 0.0, "is_disabled": 0, "rental_uris": {"ios": "https://dc.lft.to/lastmile_qr_scan", "android": "https://dc.lft.to/lastmile_qr_scan"}, "bike_id": "2c31d0d3cc06f2f9f9e5e88500707e64", "lat": 38.92014733333333, "name": "2c31d0d3cc06f2f9f9e5e88500707e64", "lon": -77.03180683333333, "fusion_lon": 0.0}, {"is_reserved": 0, "type": "electric_scooter", "fusion_lat": 0.0, "is_disabled": 0, "rental_uris": {"ios": "https://dc.lft.to/lastmile_qr_scan", "android": "https://dc.lft.to/lastmile_qr_scan"}, "bike_id": "9e3964cfe757c6ca9b98d2eefb1e3190", "lat": 38.90873633333333, "name": "9e3964cfe757c6ca9b98d2eefb1e3190", "lon": -77.04409, "fusion_lon": 0.0}, {"is_reserved": 0, "type": "electric_scooter", "fusion_lat": 0.0, "is_disabled": 0, "rental_uris": {"ios": "https://dc.lft.to/lastmile_qr_scan", "android": "https://dc.lft.to/lastmile_qr_scan"}, "bike_id": "8412cf5ea974cec688ea137cf993b86a", "lat": 38.92124866666666, "name": "8412cf5ea974cec688ea137cf993b86a", "lon": -77.01809166666666, "fusion_lon": 0.0}, {"is_reserved": 0, "type": "electric_scooter", "fusion_lat": 0.0, "is_disabled": 0, "rental_uris": {"ios": "https://dc.lft.to/lastmile_qr_scan", "android": "https://dc.lft.to/lastmile_qr_scan"}, "bike_id": "9e693b44df48858224f7d57f97806f38", "lat": 38.896569666666664, "name": "9e693b44df48858224f7d57f97806f38", "lon": -77.04326833333333, "fusion_lon": 0.0}, {"is_reserved": 0, "type": "electric_scooter", "fusion_lat": 0.0, "is_disabled": 0, "rental_uris": {"ios": "https://dc.lft.to/lastmile_qr_scan", "android": "https://dc.lft.to/lastmile_qr_scan"}, "bike_id": "b0bdb71ca4abc58a9705a6ad8fea4680", "lat": 38.9197235, "name": "b0bdb71ca4abc58a9705a6ad8fea4680", "lon": -77.0407835, "fusion_lon": 0.0}, {"is_reserved": 0, "type": "electric_scooter", "fusion_lat": 0.0, "is_disabled": 0, "rental_uris": {"ios": "https://dc.lft.to/lastmile_qr_scan", "android": "https://dc.lft.to/lastmile_qr_scan"}, "bike_id": "c78b634a12b1188e137aeb1f0fec92c5", "lat": 38.910441166666665, "name": "c78b634a12b1188e137aeb1f0fec92c5", "lon": -76.99817516666667, "fusion_lon": 0.0}, {"is_reserved": 0, "type": "electric_scooter", "fusion_lat": 0.0, "is_disabled": 0, "rental_uris": {"ios": "https://dc.lft.to/lastmile_qr_scan", "android": "https://dc.lft.to/lastmile_qr_scan"}, "bike_id": "36ce998d4b5b8aa29d07dafb5fbca8ee", "lat": 38.898479333333334, "name": "36ce998d4b5b8aa29d07dafb5fbca8ee", "lon": -77.0229505, "fusion_lon": 0.0}, {"is_reserved": 0, "type": "electric_scooter", "fusion_lat": 0.0, "is_disabled": 0, "rental_uris": {"ios": "https://dc.lft.to/lastmile_qr_scan", "android": "https://dc.lft.to/lastmile_qr_scan"}, "bike_id": "7ae57941da5f00f5c9d5fa8d7a12ebde", "lat": 38.9211195, "name": "7ae57941da5f00f5c9d5fa8d7a12ebde", "lon": -77.01766133333334, "fusion_lon": 0.0}, {"is_reserved": 0, "type": "electric_scooter", "fusion_lat": 0.0, "is_disabled": 0, "rental_uris": {"ios": "https://dc.lft.to/lastmile_qr_scan", "android": "https://dc.lft.to/lastmile_qr_scan"}, "bike_id": "7936657377145afe744ab9af731ea20b", "lat": 38.9147825, "name": "7936657377145afe744ab9af731ea20b", "lon": -77.0218205, "fusion_lon": 0.0}, {"is_reserved": 0, "type": "electric_scooter", "fusion_lat": 0.0, "is_disabled": 0, "rental_uris": {"ios": "https://dc.lft.to/lastmile_qr_scan", "android": "https://dc.lft.to/lastmile_qr_scan"}, "bike_id": "b0d1211d81e91597ad9940d4f9e83a42", "lat": 38.92750016666667, "name": "b0d1211d81e91597ad9940d4f9e83a42", "lon": -77.021509, "fusion_lon": 0.0}, {"is_reserved": 0, "type": "electric_scooter", "fusion_lat": 0.0, "is_disabled": 0, "rental_uris": {"ios": "https://dc.lft.to/lastmile_qr_scan", "android": "https://dc.lft.to/lastmile_qr_scan"}, "bike_id": "56ed73eb5e52592d055ddee0ba5e988d", "lat": 38.90957316666667, "name": "56ed73eb5e52592d055ddee0ba5e988d", "lon": -77.02278516666667, "fusion_lon": 0.0}, {"is_reserved": 0, "type": "electric_bike", "fusion_lat": 0.0, "is_disabled": 0, "rental_uris": {"ios": "https://dc.lft.to/lastmile_qr_scan", "android": "https://dc.lft.to/lastmile_qr_scan"}, "bike_id": "6fe6be82b64cdb90a8890a68ca54d59b", "lat": 38.835903, "name": "6fe6be82b64cdb90a8890a68ca54d59b", "lon": -76.99019966666667, "fusion_lon": 0.0}, {"is_reserved": 0, "type": "electric_scooter", "fusion_lat": 0.0, "is_disabled": 0, "rental_uris": {"ios": "https://dc.lft.to/lastmile_qr_scan", "android": "https://dc.lft.to/lastmile_qr_scan"}, "bike_id": "a2a0160c98e9a75cb61764713c3e12b7", "lat": 38.92245166666667, "name": "a2a0160c98e9a75cb61764713c3e12b7", "lon": -77.0366325, "fusion_lon": 0.0}, {"is_reserved": 0, "type": "electric_scooter", "fusion_lat": 0.0, "is_disabled": 0, "rental_uris": {"ios": "https://dc.lft.to/lastmile_qr_scan", "android": "https://dc.lft.to/lastmile_qr_scan"}, "bike_id": "74318cd484680b81cf9542a99daad13c", "lat": 38.905194333333334, "name": "74318cd484680b81cf9542a99daad13c", "lon": -77.0292445, "fusion_lon": 0.0}, {"is_reserved": 0, "type": "electric_scooter", "fusion_lat": 0.0, "is_disabled": 0, "rental_uris": {"ios": "https://dc.lft.to/lastmile_qr_scan", "android": "https://dc.lft.to/lastmile_qr_scan"}, "bike_id": "299a5e05961fb5e67b0e4ef8173d8bac", "lat": 38.91541433333333, "name": "299a5e05961fb5e67b0e4ef8173d8bac", "lon": -77.02971533333333, "fusion_lon": 0.0}, {"is_reserved": 0, "type": "electric_scooter", "fusion_lat": 0.0, "is_disabled": 0, "rental_uris": {"ios": "https://dc.lft.to/lastmile_qr_scan", "android": "https://dc.lft.to/lastmile_qr_scan"}, "bike_id": "93ed48302ff8db3d6d45d6a70b9e5864", "lat": 38.9051065, "name": "93ed48302ff8db3d6d45d6a70b9e5864", "lon": -77.04333483333333, "fusion_lon": 0.0}, {"is_reserved": 0, "type": "electric_scooter", "fusion_lat": 0.0, "is_disabled": 0, "rental_uris": {"ios": "https://dc.lft.to/lastmile_qr_scan", "android": "https://dc.lft.to/lastmile_qr_scan"}, "bike_id": "8a26d4aca734e6c4e043ebfeaf869830", "lat": 38.87376233333333, "name": "8a26d4aca734e6c4e043ebfeaf869830", "lon": -77.001265, "fusion_lon": 0.0}, {"is_reserved": 0, "type": "electric_scooter", "fusion_lat": 0.0, "is_disabled": 0, "rental_uris": {"ios": "https://dc.lft.to/lastmile_qr_scan", "android": "https://dc.lft.to/lastmile_qr_scan"}, "bike_id": "ac4136a4e33a0c9af9f1c519a7373de6", "lat": 38.9336755, "name": "ac4136a4e33a0c9af9f1c519a7373de6", "lon": -77.07242583333333, "fusion_lon": 0.0}, {"is_reserved": 0, "type": "electric_scooter", "fusion_lat": 0.0, "is_disabled": 0, "rental_uris": {"ios": "https://dc.lft.to/lastmile_qr_scan", "android": "https://dc.lft.to/lastmile_qr_scan"}, "bike_id": "168529653b7574ef1a571e4461a4f2f5", "lat": 38.9446415, "name": "168529653b7574ef1a571e4461a4f2f5", "lon": -77.00657583333333, "fusion_lon": 0.0}, {"is_reserved": 0, "type": "electric_scooter", "fusion_lat": 0.0, "is_disabled": 0, "rental_uris": {"ios": "https://dc.lft.to/lastmile_qr_scan", "android": "https://dc.lft.to/lastmile_qr_scan"}, "bike_id": "e97d7e34a12b7a6fe58172d807e05909", "lat": 38.920492, "name": "e97d7e34a12b7a6fe58172d807e05909", "lon": -77.03393283333334, "fusion_lon": 0.0}, {"is_reserved": 0, "type": "electric_scooter", "fusion_lat": 0.0, "is_disabled": 0, "rental_uris": {"ios": "https://dc.lft.to/lastmile_qr_scan", "android": "https://dc.lft.to/lastmile_qr_scan"}, "bike_id": "5b36b33b4c4101a15356083a1f2293cf", "lat": 38.91213616666667, "name": "5b36b33b4c4101a15356083a1f2293cf", "lon": -77.006605, "fusion_lon": 0.0}, {"is_reserved": 0, "type": "electric_scooter", "fusion_lat": 0.0, "is_disabled": 0, "rental_uris": {"ios": "https://dc.lft.to/lastmile_qr_scan", "android": "https://dc.lft.to/lastmile_qr_scan"}, "bike_id": "905d747227ceda1a2bed2867a8bedfd9", "lat": 38.902660166666664, "name": "905d747227ceda1a2bed2867a8bedfd9", "lon": -76.98982233333334, "fusion_lon": 0.0}, {"is_reserved": 0, "type": "electric_scooter", "fusion_lat": 0.0, "is_disabled": 0, "rental_uris": {"ios": "https://dc.lft.to/lastmile_qr_scan", "android": "https://dc.lft.to/lastmile_qr_scan"}, "bike_id": "d3fe7f922c0500da35d03aa64a4d54ba", "lat": 38.90784566666667, "name": "d3fe7f922c0500da35d03aa64a4d54ba", "lon": -77.07257166666666, "fusion_lon": 0.0}, {"is_reserved": 0, "type": "electric_scooter", "fusion_lat": 0.0, "is_disabled": 0, "rental_uris": {"ios": "https://dc.lft.to/lastmile_qr_scan", "android": "https://dc.lft.to/lastmile_qr_scan"}, "bike_id": "eb5a5823e3e03ee3b463be65556fe0db", "lat": 38.85719733333333, "name": "eb5a5823e3e03ee3b463be65556fe0db", "lon": -76.98095783333333, "fusion_lon": 0.0}, {"is_reserved": 0, "type": "electric_scooter", "fusion_lat": 0.0, "is_disabled": 0, "rental_uris": {"ios": "https://dc.lft.to/lastmile_qr_scan", "android": "https://dc.lft.to/lastmile_qr_scan"}, "bike_id": "03077d485910ca5a4205524dfe20dc0c", "lat": 38.935578166666666, "name": "03077d485910ca5a4205524dfe20dc0c", "lon": -77.07341116666667, "fusion_lon": 0.0}, {"is_reserved": 0, "type": "electric_bike", "fusion_lat": 0.0, "is_disabled": 0, "rental_uris": {"ios": "https://dc.lft.to/lastmile_qr_scan", "android": "https://dc.lft.to/lastmile_qr_scan"}, "bike_id": "ece69e3dcb3960c2904fc5b2212c4efe", "lat": 38.92799516666667, "name": "ece69e3dcb3960c2904fc5b2212c4efe", "lon": -77.229448, "fusion_lon": 0.0}, {"is_reserved": 0, "type": "electric_scooter", "fusion_lat": 0.0, "is_disabled": 0, "rental_uris": {"ios": "https://dc.lft.to/lastmile_qr_scan", "android": "https://dc.lft.to/lastmile_qr_scan"}, "bike_id": "15b745fa785bbb364f81faf5be96a366", "lat": 38.927558, "name": "15b745fa785bbb364f81faf5be96a366", "lon": -77.03270383333333, "fusion_lon": 0.0}, {"is_reserved": 0, "type": "electric_bike", "fusion_lat": 0.0, "is_disabled": 0, "rental_uris": {"ios": "https://dc.lft.to/lastmile_qr_scan", "android": "https://dc.lft.to/lastmile_qr_scan"}, "bike_id": "c1ac90c9ada95166209d54050f9a41df", "lat": 38.83414716666667, "name": "c1ac90c9ada95166209d54050f9a41df", "lon": -77.050182, "fusion_lon": 0.0}, {"is_reserved": 0, "type": "electric_scooter", "fusion_lat": 0.0, "is_disabled": 0, "rental_uris": {"ios": "https://dc.lft.to/lastmile_qr_scan", "android": "https://dc.lft.to/lastmile_qr_scan"}, "bike_id": "3382681c34150d2b50a0c38b1fee7a2b", "lat": 38.88537733333333, "name": "3382681c34150d2b50a0c38b1fee7a2b", "lon": -76.985414, "fusion_lon": 0.0}, {"is_reserved": 0, "type": "electric_scooter", "fusion_lat": 0.0, "is_disabled": 0, "rental_uris": {"ios": "https://dc.lft.to/lastmile_qr_scan", "android": "https://dc.lft.to/lastmile_qr_scan"}, "bike_id": "eb6cbbb22012a671b5d83b4611f84d73", "lat": 38.947261166666664, "name": "eb6cbbb22012a671b5d83b4611f84d73", "lon": -77.02669583333333, "fusion_lon": 0.0}, {"is_reserved": 0, "type": "electric_scooter", "fusion_lat": 0.0, "is_disabled": 0, "rental_uris": {"ios": "https://dc.lft.to/lastmile_qr_scan", "android": "https://dc.lft.to/lastmile_qr_scan"}, "bike_id": "d4d29cc3bbd37a172bddf1b1c707b791", "lat": 38.91693183333334, "name": "d4d29cc3bbd37a172bddf1b1c707b791", "lon": -77.05301183333333, "fusion_lon": 0.0}, {"is_reserved": 0, "type": "electric_scooter", "fusion_lat": 0.0, "is_disabled": 0, "rental_uris": {"ios": "https://dc.lft.to/lastmile_qr_scan", "android": "https://dc.lft.to/lastmile_qr_scan"}, "bike_id": "939629d33007f49ec2c5260cf3bb98ba", "lat": 38.91770983333333, "name": "939629d33007f49ec2c5260cf3bb98ba", "lon": -77.0149965, "fusion_lon": 0.0}, {"is_reserved": 0, "type": "electric_scooter", "fusion_lat": 0.0, "is_disabled": 0, "rental_uris": {"ios": "https://dc.lft.to/lastmile_qr_scan", "android": "https://dc.lft.to/lastmile_qr_scan"}, "bike_id": "f369a05fb4d31f1c6a35a429a85e93d6", "lat": 38.921758, "name": "f369a05fb4d31f1c6a35a429a85e93d6", "lon": -77.02119133333333, "fusion_lon": 0.0}, {"is_reserved": 0, "type": "electric_scooter", "fusion_lat": 0.0, "is_disabled": 0, "rental_uris": {"ios": "https://dc.lft.to/lastmile_qr_scan", "android": "https://dc.lft.to/lastmile_qr_scan"}, "bike_id": "fccac5646b95f816c6150ccb0043939c", "lat": 38.90026316666667, "name": "fccac5646b95f816c6150ccb0043939c", "lon": -77.04341416666666, "fusion_lon": 0.0}, {"is_reserved": 0, "type": "electric_scooter", "fusion_lat": 0.0, "is_disabled": 0, "rental_uris": {"ios": "https://dc.lft.to/lastmile_qr_scan", "android": "https://dc.lft.to/lastmile_qr_scan"}, "bike_id": "ae240302c0ba6e9733fbbc20f2bae6da", "lat": 38.89879666666667, "name": "ae240302c0ba6e9733fbbc20f2bae6da", "lon": -76.9317995, "fusion_lon": 0.0}, {"is_reserved": 0, "type": "electric_scooter", "fusion_lat": 0.0, "is_disabled": 0, "rental_uris": {"ios": "https://dc.lft.to/lastmile_qr_scan", "android": "https://dc.lft.to/lastmile_qr_scan"}, "bike_id": "fd93e5208c40c605ff2d17ce28340d49", "lat": 38.910213666666664, "name": "fd93e5208c40c605ff2d17ce28340d49", "lon": -77.0199475, "fusion_lon": 0.0}, {"is_reserved": 0, "type": "electric_scooter", "fusion_lat": 0.0, "is_disabled": 0, "rental_uris": {"ios": "https://dc.lft.to/lastmile_qr_scan", "android": "https://dc.lft.to/lastmile_qr_scan"}, "bike_id": "4f82cb2377df9692f9108841f8d0630a", "lat": 38.9031585, "name": "4f82cb2377df9692f9108841f8d0630a", "lon": -76.99129616666667, "fusion_lon": 0.0}, {"is_reserved": 0, "type": "electric_scooter", "fusion_lat": 0.0, "is_disabled": 0, "rental_uris": {"ios": "https://dc.lft.to/lastmile_qr_scan", "android": "https://dc.lft.to/lastmile_qr_scan"}, "bike_id": "ae4c5287324953859d3b4058d42ea46d", "lat": 38.964253166666666, "name": "ae4c5287324953859d3b4058d42ea46d", "lon": -77.07427733333333, "fusion_lon": 0.0}, {"is_reserved": 0, "type": "electric_scooter", "fusion_lat": 0.0, "is_disabled": 0, "rental_uris": {"ios": "https://dc.lft.to/lastmile_qr_scan", "android": "https://dc.lft.to/lastmile_qr_scan"}, "bike_id": "ea54e467da928ac29af8d5ba53150919", "lat": 38.928934, "name": "ea54e467da928ac29af8d5ba53150919", "lon": -77.03190883333333, "fusion_lon": 0.0}, {"is_reserved": 0, "type": "electric_scooter", "fusion_lat": 0.0, "is_disabled": 0, "rental_uris": {"ios": "https://dc.lft.to/lastmile_qr_scan", "android": "https://dc.lft.to/lastmile_qr_scan"}, "bike_id": "e95cb06affeb522963d7afa22acf6d58", "lat": 38.90206366666666, "name": "e95cb06affeb522963d7afa22acf6d58", "lon": -77.0219485, "fusion_lon": 0.0}, {"is_reserved": 0, "type": "electric_scooter", "fusion_lat": 0.0, "is_disabled": 0, "rental_uris": {"ios": "https://dc.lft.to/lastmile_qr_scan", "android": "https://dc.lft.to/lastmile_qr_scan"}, "bike_id": "295dd625a57098a7f6b40f0bb25c627f", "lat": 38.911043166666666, "name": "295dd625a57098a7f6b40f0bb25c627f", "lon": -77.00215733333333, "fusion_lon": 0.0}, {"is_reserved": 0, "type": "electric_scooter", "fusion_lat": 0.0, "is_disabled": 0, "rental_uris": {"ios": "https://dc.lft.to/lastmile_qr_scan", "android": "https://dc.lft.to/lastmile_qr_scan"}, "bike_id": "bf6ac2a8badcefbb04b342f3f588a0f0", "lat": 38.917032, "name": "bf6ac2a8badcefbb04b342f3f588a0f0", "lon": -77.04173766666666, "fusion_lon": 0.0},