{"data": {"bikes": [{"type": "electric_scooter", "fusion_lon": 0.0, "bike_id": "26a57e1448995a259ed8aa1548527702", "is_disabled": 0, "lat": 38.902349666666666, "rental_uris": {"ios": "https://dc.lft.to/lastmile_qr_scan", "android": "https://dc.lft.to/lastmile_qr_scan"}, "is_reserved": 0, "lon": -77.01925216666666, "fusion_lat": 0.0, "name": "26a57e1448995a259ed8aa1548527702"}, {"type": "electric_scooter", "fusion_lon": 0.0, "bike_id": "0cda9c4c9bebce53b7af17e56e461b7e", "is_disabled": 0, "lat": 38.91845266666667, "rental_uris": {"ios": "https://dc.lft.to/lastmile_qr_scan", "android": "https://dc.lft.to/lastmile_qr_scan"}, "is_reserved": 0, "lon": -77.08996883333333, "fusion_lat": 0.0, "name": "0cda9c4c9bebce53b7af17e56e461b7e"}, {"type": "electric_scooter", "fusion_lon": 0.0, "bike_id": "010375e950bb06c67f73631b69ec8ab5", "is_disabled": 0, "lat": 38.887169666666665, "rental_uris": {"ios": "https://dc.lft.to/lastmile_qr_scan", "android": "https://dc.lft.to/lastmile_qr_scan"}, "is_reserved": 0, "lon": -77.02207366666667, "fusion_lat": 0.0, "name": "010375e950bb06c67f73631b69ec8ab5"}, {"type": "electric_scooter", "fusion_lon": 0.0, "bike_id": "4176f8ac68cdf6a633e4673d6fd19de1", "is_disabled": 0, "lat": 38.903164333333336, "rental_uris": {"ios": "https://dc.lft.to/lastmile_qr_scan", "android": "https://dc.lft.to/lastmile_qr_scan"}, "is_reserved": 0, "lon": -77.02447666666667, "fusion_lat": 0.0, "name": "4176f8ac68cdf6a633e4673d6fd19de1"}, {"type": "electric_scooter", "fusion_lon": 0.0, "bike_id": "1cd7d31a1439a88212012cfe7c6d26d6", "is_disabled": 0, "lat": 38.92515266666667, "rental_uris": {"ios": "https://dc.lft.to/lastmile_qr_scan", "android": "https://dc.lft.to/lastmile_qr_scan"}, "is_reserved": 0, "lon": -77.02257933333334, "fusion_lat": 0.0, "name": "1cd7d31a1439a88212012cfe7c6d26d6"}, {"type": "electric_bike", "fusion_lon": 0.0, "bike_id": "5ed366d9a5ddece8f8da2da48f2a5bc4", "is_disabled": 0, "lat": 38.81981233333333, "rental_uris": {"ios": "https://dc.lft.to/lastmile_qr_scan", "android": "https://dc.lft.to/lastmile_qr_scan"}, "is_reserved": 0, "lon": -76.99814916666666, "fusion_lat": 0.0, "name": "5ed366d9a5ddece8f8da2da48f2a5bc4"}, {"type": "electric_scooter", "fusion_lon": 0.0, "bike_id": "16fc0cea6be000843b0e254032661a0f", "is_disabled": 0, "lat": 38.91778033333333, "rental_uris": {"ios": "https://dc.lft.to/lastmile_qr_scan", "android": "https://dc.lft.to/lastmile_qr_scan"}, "is_reserved": 0, "lon": -77.02307983333333, "fusion_lat": 0.0, "name": "16fc0cea6be000843b0e254032661a0f"}, {"type": "electric_scooter", "fusion_lon": 0.0, "bike_id": "8a2ad5343519e9f7be3b556c02e10ac2", "is_disabled": 0, "lat": 38.89224266666667, "rental_uris": {"ios": "https://dc.lft.to/lastmile_qr_scan", "android": "https://dc.lft.to/lastmile_qr_scan"}, "is_reserved": 0, "lon": -77.04509133333333, "fusion_lat": 0.0, "name": "8a2ad5343519e9f7be3b556c02e10ac2"}, {"type": "electric_scooter", "fusion_lon": 0.0, "bike_id": "2d6cfdaec4b1aab300c3674aa91551a7", "is_disabled": 0, "lat": 38.916839333333336, "rental_uris": {"ios": "https://dc.lft.to/lastmile_qr_scan", "android": "https://dc.lft.to/lastmile_qr_scan"}, "is_reserved": 0, "lon": -77.029496, "fusion_lat": 0.0, "name": "2d6cfdaec4b1aab300c3674aa91551a7"}, {"type": "electric_scooter", "fusion_lon": 0.0, "bike_id": "ed262145e60b9aeee7cc89688990573e", "is_disabled": 0, "lat": 38.87174783333333, "rental_uris": {"ios": "https://dc.lft.to/lastmile_qr_scan", "android": "https://dc.lft.to/lastmile_qr_scan"}, "is_reserved": 0, "lon": -77.00576116666667, "fusion_lat": 0.0, "name": "ed262145e60b9aeee7cc89688990573e"}, {"type": "electric_scooter", "fusion_lon": 0.0, "bike_id": "731331b0f07d42dac59e26c9fe58db12", "is_disabled": 0, "lat": 38.89238066666667, "rental_uris": {"ios": "https://dc.lft.to/lastmile_qr_scan", "android": "https://dc.lft.to/lastmile_qr_scan"}, "is_reserved": 0, "lon": -77.04672483333333, "fusion_lat": 0.0, "name": "731331b0f07d42dac59e26c9fe58db12"}, {"type": "electric_scooter", "fusion_lon": 0.0, "bike_id": "7614952d6b6d9a4718efdf9f4e245674", "is_disabled": 0, "lat": 38.912008, "rental_uris": {"ios": "https://dc.lft.to/lastmile_qr_scan", "android": "https://dc.lft.to/lastmile_qr_scan"}, "is_reserved": 0, "lon": -76.98768666666666, "fusion_lat": 0.0, "name": "7614952d6b6d9a4718efdf9f4e245674"}, {"type": "electric_scooter", "fusion_lon": 0.0, "bike_id": "a609f9b658aa1347f6a9968f9e32ea80", "is_disabled": 0, "lat": 38.9064575, "rental_uris": {"ios": "https://dc.lft.to/lastmile_qr_scan", "android": "https://dc.lft.to/lastmile_qr_scan"}, "is_reserved": 0, "lon": -76.983762, "fusion_lat": 0.0, "name": "a609f9b658aa1347f6a9968f9e32ea80"}, {"type": "electric_scooter", "fusion_lon": 0.0, "bike_id": "e541fb3e6ca8f7dfc55346d4afba9bbe", "is_disabled": 0, "lat": 38.928744, "rental_uris": {"ios": "https://dc.lft.to/lastmile_qr_scan", "android": "https://dc.lft.to/lastmile_qr_scan"}, "is_reserved": 0, "lon": -77.03107116666666, "fusion_lat": 0.0, "name": "e541fb3e6ca8f7dfc55346d4afba9bbe"}, {"type": "electric_scooter", "fusion_lon": 0.0, "bike_id": "b3832eeb947192deec0d70c336c16dd0", "is_disabled": 0, "lat": 38.89221366666666, "rental_uris": {"ios": "https://dc.lft.to/lastmile_qr_scan", "android": "https://dc.lft.to/lastmile_qr_scan"}, "is_reserved": 0, "lon": -77.03342183333334, "fusion_lat": 0.0, "name": "b3832eeb947192deec0d70c336c16dd0"}, {"type": "electric_scooter", "fusion_lon": 0.0, "bike_id": "beef04fdbfff2fbae5ba5b455f710d7e", "is_disabled": 0, "lat": 38.89591166666666, "rental_uris": {"ios": "https://dc.lft.to/lastmile_qr_scan", "android": "https://dc.lft.to/lastmile_qr_scan"}, "is_reserved": 0, "lon": -77.0475075, "fusion_lat": 0.0, "name": "beef04fdbfff2fbae5ba5b455f710d7e"}, {"type": "electric_scooter", "fusion_lon": 0.0, "bike_id": "1b29a8c1a1ff46aa695431f9ccb9710a", "is_disabled": 0, "lat": 38.891728666666666, "rental_uris": {"ios": "https://dc.lft.to/lastmile_qr_scan", "android": "https://dc.lft.to/lastmile_qr_scan"}, "is_reserved": 0, "lon": -76.926611, "fusion_lat": 0.0, "name": "1b29a8c1a1ff46aa695431f9ccb9710a"}, {"type": "electric_scooter", "fusion_lon": 0.0, "bike_id": "8e82d2f3bcad16b66d2eece50e78fbc8", "is_disabled": 0, "lat": 38.9103925, "rental_uris": {"ios": "https://dc.lft.to/lastmile_qr_scan", "android": "https://dc.lft.to/lastmile_qr_scan"}, "is_reserved": 0, "lon": -77.03406133333333, "fusion_lat": 0.0, "name": "8e82d2f3bcad16b66d2eece50e78fbc8"}, {"type": "electric_scooter", "fusion_lon": 0.0, "bike_id": "8e1b52a86e50b98cc6194a0f69a71341", "is_disabled": 0, "lat": 38.9205875, "rental_uris": {"ios": "https://dc.lft.to/lastmile_qr_scan", "android": "https://dc.lft.to/lastmile_qr_scan"}, "is_reserved": 0, "lon": -77.04181283333334, "fusion_lat": 0.0, "name": "8e1b52a86e50b98cc6194a0f69a71341"}, {"type": "electric_scooter", "fusion_lon": 0.0, "bike_id": "5f62434d3a6fe0bd995a0a9413676753", "is_disabled": 0, "lat": 38.90052383333333, "rental_uris": {"ios": "https://dc.lft.to/lastmile_qr_scan", "android": "https://dc.lft.to/lastmile_qr_scan"}, "is_reserved": 0, "lon": -77.01783466666667, "fusion_lat": 0.0, "name": "5f62434d3a6fe0bd995a0a9413676753"}, {"type": "electric_scooter", "fusion_lon": 0.0, "bike_id": "8688d72dafa12f19539cacfa330c0c16", "is_disabled": 0, "lat": 38.92071383333333, "rental_uris": {"ios": "https://dc.lft.to/lastmile_qr_scan", "android": "https://dc.lft.to/lastmile_qr_scan"}, "is_reserved": 0, "lon": -77.025012, "fusion_lat": 0.0, "name": "8688d72dafa12f19539cacfa330c0c16"}, {"type": "electric_scooter", "fusion_lon": 0.0, "bike_id": "077ece26be1a504914f0935b429afa17", "is_disabled": 0, "lat": 38.8948275, "rental_uris": {"ios": "https://dc.lft.to/lastmile_qr_scan", "android": "https://dc.lft.to/lastmile_qr_scan"}, "is_reserved": 0, "lon": -77.00072216666666, "fusion_lat": 0.0, "name": "077ece26be1a504914f0935b429afa17"}, {"type": "electric_scooter", "fusion_lon": 0.0, "bike_id": "d94f60ef030a9fa37b2be5fc03dd8399", "is_disabled": 0, "lat": 38.923332333333335, "rental_uris": {"ios": "https://dc.lft.to/lastmile_qr_scan", "android": "https://dc.lft.to/lastmile_qr_scan"}, "is_reserved": 0, "lon": -77.04150166666666, "fusion_lat": 0.0, "name": "d94f60ef030a9fa37b2be5fc03dd8399"}, {"type": "electric_bike", "fusion_lon": 0.0, "bike_id": "29d3af63f9103df4dbda8bfa8fdf0f3a", "is_disabled": 0, "lat": 38.84192, "rental_uris": {"ios": "https://dc.lft.to/lastmile_qr_scan", "android": "https://dc.lft.to/lastmile_qr_scan"}, "is_reserved": 0, "lon": -77.1135365, "fusion_lat": 0.0, "name": "29d3af63f9103df4dbda8bfa8fdf0f3a"}, {"type": "electric_scooter", "fusion_lon": 0.0, "bike_id": "2bfc43f22804d2431a494a8012327d93", "is_disabled": 0, "lat": 38.852692833333336, "rental_uris": {"ios": "https://dc.lft.to/lastmile_qr_scan", "android": "https://dc.lft.to/lastmile_qr_scan"}, "is_reserved": 0, "lon": -76.96992783333333, "fusion_lat": 0.0, "name": "2bfc43f22804d2431a494a8012327d93"}, {"type": "electric_scooter", "fusion_lon": 0.0, "bike_id": "c98f4db577769ed390308c1536ba5998", "is_disabled": 0, "lat": 38.90978533333333, "rental_uris": {"ios": "https://dc.lft.to/lastmile_qr_scan", "android": "https://dc.lft.to/lastmile_qr_scan"}, "is_reserved": 0, "lon": -77.02195116666667, "fusion_lat": 0.0, "name": "c98f4db577769ed390308c1536ba5998"}, {"type": "electric_scooter", "fusion_lon": 0.0, "bike_id": "47f98c3ca2b438c975b172b27b436240", "is_disabled": 0, "lat": 38.871554, "rental_uris": {"ios": "https://dc.lft.to/lastmile_qr_scan", "android": "https://dc.lft.to/lastmile_qr_scan"}, "is_reserved": 0, "lon": -77.00676883333334, "fusion_lat": 0.0, "name": "47f98c3ca2b438c975b172b27b436240"}, {"type": "electric_scooter", "fusion_lon": 0.0, "bike_id": "7eecd022c9fd033ced72c1980a27c541", "is_disabled": 0, "lat": 38.91942983333333, "rental_uris": {"ios": "https://dc.lft.to/lastmile_qr_scan", "android": "https://dc.lft.to/lastmile_qr_scan"}, "is_reserved": 0, "lon": -77.03182083333333, "fusion_lat": 0.0, "name": "7eecd022c9fd033ced72c1980a27c541"}, {"type": "electric_bike", "fusion_lon": 0.0, "bike_id": "6cd9acd72e3fa3303ccb18ef93bca3f9", "is_disabled": 0, "lat": 39.034299833333336, "rental_uris": {"ios": "https://dc.lft.to/lastmile_qr_scan", "android": "https://dc.lft.to/lastmile_qr_scan"}, "is_reserved": 0, "lon": -77.0429845, "fusion_lat": 0.0, "name": "6cd9acd72e3fa3303ccb18ef93bca3f9"}, {"type": "electric_scooter", "fusion_lon": 0.0, "bike_id": "d2efc24299e0f31d97647d30610bd8cd", "is_disabled": 0, "lat": 38.9128575, "rental_uris": {"ios": "https://dc.lft.to/lastmile_qr_scan", "android": "https://dc.lft.to/lastmile_qr_scan"}, "is_reserved": 0, "lon": -77.04511033333333, "fusion_lat": 0.0, "name": "d2efc24299e0f31d97647d30610bd8cd"}, {"type": "electric_scooter", "fusion_lon": 0.0, "bike_id": "f69acde0f901ee3d9ddff1331af74841", "is_disabled": 0, "lat": 38.9054275, "rental_uris": {"ios": "https://dc.lft.to/lastmile_qr_scan", "android": "https://dc.lft.to/lastmile_qr_scan"}, "is_reserved": 0, "lon": -77.04951616666666, "fusion_lat": 0.0, "name": "f69acde0f901ee3d9ddff1331af74841"}, {"type": "electric_scooter", "fusion_lon": 0.0, "bike_id": "84d58caabc73e0cf059cf4810b83135b", "is_disabled": 0, "lat": 38.916139666666666, "rental_uris": {"ios": "https://dc.lft.to/lastmile_qr_scan", "android": "https://dc.lft.to/lastmile_qr_scan"}, "is_reserved": 0, "lon": -77.0488795, "fusion_lat": 0.0, "name": "84d58caabc73e0cf059cf4810b83135b"}, {"type": "electric_scooter", "fusion_lon": 0.0, "bike_id": "a5ded5767c8b15eb205bb08712f3a1c4", "is_disabled": 0, "lat": 38.92653716666667, "rental_uris": {"ios": "https://dc.lft.to/lastmile_qr_scan", "android": "https://dc.lft.to/lastmile_qr_scan"}, "is_reserved": 0, "lon": -77.02435783333334, "fusion_lat": 0.0, "name": "a5ded5767c8b15eb205bb08712f3a1c4"}, {"type": "electric_bike", "fusion_lon": 0.0, "bike_id": "971883ee1f85dea1e1d631dbe8cc984b", "is_disabled": 0, "lat": 38.90034883333333, "rental_uris": {"ios": "https://dc.lft.to/lastmile_qr_scan", "android": "https://dc.lft.to/lastmile_qr_scan"}, "is_reserved": 0, "lon": -76.9722295, "fusion_lat": 0.0, "name": "971883ee1f85dea1e1d631dbe8cc984b"}, {"type": "electric_scooter", "fusion_lon": 0.0, "bike_id": "67409274059ffbc2df22192347d9ac4d", "is_disabled": 0, "lat": 38.9224535, "rental_uris": {"ios": "https://dc.lft.to/lastmile_qr_scan", "android": "https://dc.lft.to/lastmile_qr_scan"}, "is_reserved": 0, "lon": -77.01957216666666, "fusion_lat": 0.0, "name": "67409274059ffbc2df22192347d9ac4d"}, {"type": "electric_scooter", "fusion_lon": 0.0, "bike_id": "699e1614e22cb05b6c9d9789d8038741", "is_disabled": 0, "lat": 38.90408633333333, "rental_uris": {"ios": "https://dc.lft.to/lastmile_qr_scan", "android": "https://dc.lft.to/lastmile_qr_scan"}, "is_reserved": 0, "lon": -77.067638, "fusion_lat": 0.0, "name": "699e1614e22cb05b6c9d9789d8038741"}, {"type": "electric_scooter", "fusion_lon": 0.0, "bike_id": "910687a996c0dfda9895429dc3e22c4e", "is_disabled": 0, "lat": 38.957579333333335, "rental_uris": {"ios": "https://dc.lft.to/lastmile_qr_scan", "android": "https://dc.lft.to/lastmile_qr_scan"}, "is_reserved": 0, "lon": -77.01493766666667, "fusion_lat": 0.0, "name": "910687a996c0dfda9895429dc3e22c4e"}, {"type": "electric_scooter", "fusion_lon": 0.0, "bike_id": "71c8b646724fb2954ccb0259bbf05b20", "is_disabled": 0, "lat": 38.876697, "rental_uris": {"ios": "https://dc.lft.to/lastmile_qr_scan", "android": "https://dc.lft.to/lastmile_qr_scan"}, "is_reserved": 0, "lon": -76.93123733333333, "fusion_lat": 0.0, "name": "71c8b646724fb2954ccb0259bbf05b20"}, {"type": "electric_scooter", "fusion_lon": 0.0, "bike_id": "5ea0a4509367091febf8ef343c541ae1", "is_disabled": 0, "lat": 38.901494, "rental_uris": {"ios": "https://dc.lft.to/lastmile_qr_scan", "android": "https://dc.lft.to/lastmile_qr_scan"}, "is_reserved": 0, "lon": -77.05918316666667, "fusion_lat": 0.0, "name": "5ea0a4509367091febf8ef343c541ae1"}, {"type": "electric_scooter", "fusion_lon": 0.0, "bike_id": "7ca3622c1b4034f85df2d6cd5e8a53e1", "is_disabled": 0, "lat": 38.9244175, "rental_uris": {"ios": "https://dc.lft.to/lastmile_qr_scan", "android": "https://dc.lft.to/lastmile_qr_scan"}, "is_reserved": 0, "lon": -77.03899566666666, "fusion_lat": 0.0, "name": "7ca3622c1b4034f85df2d6cd5e8a53e1"}, {"type": "electric_scooter", "fusion_lon": 0.0, "bike_id": "f5e42d7465f3df98d4b23d87facb06ea", "is_disabled": 0, "lat": 38.94250683333333, "rental_uris": {"ios": "https://dc.lft.to/lastmile_qr_scan", "android": "https://dc.lft.to/lastmile_qr_scan"}, "is_reserved": 0, "lon": -77.05910633333333, "fusion_lat": 0.0, "name": "f5e42d7465f3df98d4b23d87facb06ea"}, {"type": "electric_bike", "fusion_lon": 0.0, "bike_id": "f4ddd984bd338f0ea4e53d92c9f928b4", "is_disabled": 0, "lat": 38.94338533333333, "rental_uris": {"ios": "https://dc.lft.to/lastmile_qr_scan", "android": "https://dc.lft.to/lastmile_qr_scan"}, "is_reserved": 0, "lon": -77.06059866666666, "fusion_lat": 0.0, "name": "f4ddd984bd338f0ea4e53d92c9f928b4"}, {"type": "electric_scooter", "fusion_lon": 0.0, "bike_id": "c1eca27e88a6380f0dfecc950e78a4a8", "is_disabled": 0, "lat": 38.94974883333333, "rental_uris": {"ios": "https://dc.lft.to/lastmile_qr_scan", "android": "https://dc.lft.to/lastmile_qr_scan"}, "is_reserved": 0, "lon": -77.02446333333333, "fusion_lat": 0.0, "name": "c1eca27e88a6380f0dfecc950e78a4a8"}, {"type": "electric_scooter", "fusion_lon": 0.0, "bike_id": "fc31a261ca6a47cafb5286d28f3e6c80", "is_disabled": 0, "lat": 38.93525866666667, "rental_uris": {"ios": "https://dc.lft.to/lastmile_qr_scan", "android": "https://dc.lft.to/lastmile_qr_scan"}, "is_reserved": 0, "lon": -77.05407066666666, "fusion_lat": 0.0, "name": "fc31a261ca6a47cafb5286d28f3e6c80"}, {"type": "electric_scooter", "fusion_lon": 0.0, "bike_id": "aae6113bd50488325e4123dca451e5ee", "is_disabled": 0, "lat": 38.879275666666665, "rental_uris": {"ios": "https://dc.lft.to/lastmile_qr_scan", "android": "https://dc.lft.to/lastmile_qr_scan"}, "is_reserved": 0, "lon": -76.9988445, "fusion_lat": 0.0, "name": "aae6113bd50488325e4123dca451e5ee"}, {"type": "electric_scooter", "fusion_lon": 0.0, "bike_id": "c98a006a2d88236d092b2e77e4c1cad6", "is_disabled": 0, "lat": 38.901767166666666, "rental_uris": {"ios": "https://dc.lft.to/lastmile_qr_scan", "android": "https://dc.lft.to/lastmile_qr_scan"}, "is_reserved": 0, "lon": -77.02475383333334, "fusion_lat": 0.0, "name": "c98a006a2d88236d092b2e77e4c1cad6"}, {"type": "electric_scooter", "fusion_lon": 0.0, "bike_id": "3e131ca470441103ffa90118804d2438", "is_disabled": 0, "lat": 38.905122166666665, "rental_uris": {"ios": "https://dc.lft.to/lastmile_qr_scan", "android": "https://dc.lft.to/lastmile_qr_scan"}, "is_reserved": 0, "lon": -77.050742, "fusion_lat": 0.0, "name": "3e131ca470441103ffa90118804d2438"}, {"type": "electric_scooter", "fusion_lon": 0.0, "bike_id": "74fb1b3bf8e51b3e227002e9ac5c9f0e", "is_disabled": 0, "lat": 38.9217185, "rental_uris": {"ios": "https://dc.lft.to/lastmile_qr_scan", "android": "https://dc.lft.to/lastmile_qr_scan"}, "is_reserved": 0, "lon": -77.01912183333333, "fusion_lat": 0.0, "name": "74fb1b3bf8e51b3e227002e9ac5c9f0e"}, {"type": "electric_scooter", "fusion_lon": 0.0, "bike_id": "d99962213c903c0f8ab8d517e05b50d9", "is_disabled": 0, "lat": 38.892332, "rental_uris": {"ios": "https://dc.lft.to/lastmile_qr_scan", "android": "https://dc.lft.to/lastmile_qr_scan"}, "is_reserved": 0, "lon": -77.03122333333333, "fusion_lat": 0.0, "name": "d99962213c903c0f8ab8d517e05b50d9"}, {"type": "electric_bike", "fusion_lon": 0.0, "bike_id": "801c833ec7b14a7abef4286b959dedc3", "is_disabled": 0, "lat": 38.94471466666667, "rental_uris": {"ios": "https://dc.lft.to/lastmile_qr_scan", "android": "https://dc.lft.to/lastmile_qr_scan"}, "is_reserved": 0, "lon": -76.98688333333334, "fusion_lat": 0.0, "name": "801c833ec7b14a7abef4286b959dedc3"}, {"type": "electric_scooter", "fusion_lon": 0.0, "bike_id": "cbb8d7b6623dd3e913244f67c9b4b98a", "is_disabled": 0, "lat": 38.9071375, "rental_uris": {"ios": "https://dc.lft.to/lastmile_qr_scan", "android": "https://dc.lft.to/lastmile_qr_scan"}, "is_reserved": 0, "lon": -77.0217895, "fusion_lat": 0.0, "name": "cbb8d7b6623dd3e913244f67c9b4b98a"}, {"type": "electric_scooter", "fusion_lon": 0.0, "bike_id": "b014edae905d328d4243930adcc519b7", "is_disabled": 0, "lat": 38.907172333333335, "rental_uris": {"ios": "https://dc.lft.to/lastmile_qr_scan", "android": "https://dc.lft.to/lastmile_qr_scan"}, "is_reserved": 0, "lon": -77.049541, "fusion_lat": 0.0, "name": "b014edae905d328d4243930adcc519b7"}, {"type": "electric_scooter", "fusion_lon": 0.0, "bike_id": "686b50a00d20e49eb59025cf771891a2", "is_disabled": 0, "lat": 38.9061445, "rental_uris": {"ios": "https://dc.lft.to/lastmile_qr_scan", "android": "https://dc.lft.to/lastmile_qr_scan"}, "is_reserved": 0, "lon": -77.04358133333334, "fusion_lat": 0.0, "name": "686b50a00d20e49eb59025cf771891a2"}, {"type": "electric_scooter", "fusion_lon": 0.0, "bike_id": "caf490681fb19aadd4a7b6966fa23b0c", "is_disabled": 0, "lat": 38.91497, "rental_uris": {"ios": "https://dc.lft.to/lastmile_qr_scan", "android": "https://dc.lft.to/lastmile_qr_scan"}, "is_reserved": 0, "lon": -77.01221783333334, "fusion_lat": 0.0, "name": "caf490681fb19aadd4a7b6966fa23b0c"}, {"type": "electric_scooter", "fusion_lon": 0.0, "bike_id": "7193bc14fd2e078dff11b4b379ecc99e", "is_disabled": 0, "lat": 38.92759783333333, "rental_uris": {"ios": "https://dc.lft.to/lastmile_qr_scan", "android": "https://dc.lft.to/lastmile_qr_scan"}, "is_reserved": 0, "lon": -77.02322633333333, "fusion_lat": 0.0, "name": "7193bc14fd2e078dff11b4b379ecc99e"}, {"type": "electric_scooter", "fusion_lon": 0.0, "bike_id": "1bb0b18ecaca06e502afdad045ca938c", "is_disabled": 0, "lat": 38.905097833333336, "rental_uris": {"ios": "https://dc.lft.to/lastmile_qr_scan", "android": "https://dc.lft.to/lastmile_qr_scan"}, "is_reserved": 0, "lon": -77.03491, "fusion_lat": 0.0, "name": "1bb0b18ecaca06e502afdad045ca938c"}, {"type": "electric_scooter", "fusion_lon": 0.0, "bike_id": "53789eb473168ca4e3ef4f8e722d9833", "is_disabled": 0, "lat": 38.9140275, "rental_uris": {"ios": "https://dc.lft.to/lastmile_qr_scan", "android": "https://dc.lft.to/lastmile_qr_scan"}, "is_reserved": 0, "lon": -77.03222983333333, "fusion_lat": 0.0, "name": "53789eb473168ca4e3ef4f8e722d9833"}, {"type": "electric_scooter", "fusion_lon": 0.0, "bike_id": "84bb18eff66bb7fdb99866da01c38365", "is_disabled": 0, "lat": 38.9239105, "rental_uris": {"ios": "https://dc.lft.to/lastmile_qr_scan", "android": "https://dc.lft.to/lastmile_qr_scan"}, "is_reserved": 0, "lon": -77.0269685, "fusion_lat": 0.0, "name": "84bb18eff66bb7fdb99866da01c38365"}, {"type": "electric_scooter", "fusion_lon": 0.0, "bike_id": "e7d1b5362010365a66dabc8589e6dc70", "is_disabled": 0, "lat": 38.919546833333335, "rental_uris": {"ios": "https://dc.lft.to/lastmile_qr_scan", "android": "https://dc.lft.to/lastmile_qr_scan"}, "is_reserved": 0, "lon": -77.01882316666666, "fusion_lat": 0.0, "name": "e7d1b5362010365a66dabc8589e6dc70"}, {"type": "electric_scooter", "fusion_lon": 0.0, "bike_id": "252b309d1339c3b78088eafa9e8f1d83", "is_disabled": 0, "lat": 38.932317, "rental_uris": {"ios": "https://dc.lft.to/lastmile_qr_scan", "android": "https://dc.lft.to/lastmile_qr_scan"}, "is_reserved": 0, "lon": -77.02386233333333, "fusion_lat": 0.0, "name": "252b309d1339c3b78088eafa9e8f1d83"}, {"type": "electric_bike", "fusion_lon": 0.0, "bike_id": "ffba014983fd45370b5e97f7ea94ba59", "is_disabled": 0, "lat": 38.86203783333333, "rental_uris": {"ios": "https://dc.lft.to/lastmile_qr_scan", "android": "https://dc.lft.to/lastmile_qr_scan"}, "is_reserved": 0, "lon": -76.99539266666666, "fusion_lat": 0.0, "name": "ffba014983fd45370b5e97f7ea94ba59"}, {"type": "electric_scooter", "fusion_lon": 0.0, "bike_id": "2c7cc1b7813f4a1b52722382a92b8d01", "is_disabled": 0, "lat": 38.913486166666665, "rental_uris": {"ios": "https://dc.lft.to/lastmile_qr_scan", "android": "https://dc.lft.to/lastmile_qr_scan"}, "is_reserved": 0, "lon": -77.031958, "fusion_lat": 0.0, "name": "2c7cc1b7813f4a1b52722382a92b8d01"}, {"type": "electric_scooter", "fusion_lon": 0.0, "bike_id": "7cf04fc42564387a4df981743b0eadc7", "is_disabled": 0, "lat": 38.90876683333333, "rental_uris": {"ios": "https://dc.lft.to/lastmile_qr_scan", "android": "https://dc.lft.to/lastmile_qr_scan"}, "is_reserved": 0, "lon": -76.99813183333333, "fusion_lat": 0.0, "name": "7cf04fc42564387a4df981743b0eadc7"}, {"type": "electric_scooter", "fusion_lon": 0.0, "bike_id": "77e23972a9601935a8185d3a1b52f9e9", "is_disabled": 0, "lat": 38.8766505, "rental_uris": {"ios": "https://dc.lft.to/lastmile_qr_scan", "android": "https://dc.lft.to/lastmile_qr_scan"}, "is_reserved": 0, "lon": -77.0006465, "fusion_lat": 0.0, "name": "77e23972a9601935a8185d3a1b52f9e9"}, {"type": "electric_scooter", "fusion_lon": 0.0, "bike_id": "a343c4ea90ecddf6b1c5b094318bbb3c", "is_disabled": 0, "lat": 38.915688, "rental_uris": {"ios": "https://dc.lft.to/lastmile_qr_scan", "android": "https://dc.lft.to/lastmile_qr_scan"}, "is_reserved": 0, "lon": -77.04171083333334, "fusion_lat": 0.0, "name": "a343c4ea90ecddf6b1c5b094318bbb3c"}, {"type": "electric_scooter", "fusion_lon": 0.0, "bike_id": "00adecc9ab736411785bb5230194b85e", "is_disabled": 0, "lat": 38.906418, "rental_uris": {"ios": "https://dc.lft.to/lastmile_qr_scan", "android": "https://dc.lft.to/lastmile_qr_scan"}, "is_reserved": 0, "lon": -77.017653, "fusion_lat": 0.0, "name": "00adecc9ab736411785bb5230194b85e"}, {"type": "electric_scooter", "fusion_lon": 0.0, "bike_id": "1e0b6442a90addeb2790d76388c714e8", "is_disabled": 0, "lat": 38.893296666666664, "rental_uris": {"ios": "https://dc.lft.to/lastmile_qr_scan", "android": "https://dc.lft.to/lastmile_qr_scan"}, "is_reserved": 0, "lon": -77.03173483333333, "fusion_lat": 0.0, "name": "1e0b6442a90addeb2790d76388c714e8"}, {"type": "electric_scooter", "fusion_lon": 0.0, "bike_id": "fc6a394bbe2157dba4da7c9cf32a929a", "is_disabled": 0, "lat": 38.91960816666667, "rental_uris": {"ios": "https://dc.lft.to/lastmile_qr_scan", "android": "https://dc.lft.to/lastmile_qr_scan"}, "is_reserved": 0, "lon": -77.048524, "fusion_lat": 0.0, "name": "fc6a394bbe2157dba4da7c9cf32a929a"}, {"type": "electric_scooter", "fusion_lon": 0.0, "bike_id": "bc1d9a681f854f89772776857a1647a8", "is_disabled": 0, "lat": 38.89269216666667, "rental_uris": {"ios": "https://dc.lft.to/lastmile_qr_scan", "android": "https://dc.lft.to/lastmile_qr_scan"}, "is_reserved": 0, "lon": -77.04202733333334, "fusion_lat": 0.0, "name": "bc1d9a681f854f89772776857a1647a8"}, {"type": "electric_scooter", "fusion_lon": 0.0, "bike_id": "0a6e3facf961afe551a61ccd33c69941", "is_disabled": 0, "lat": 38.8997985, "rental_uris": {"ios": "https://dc.lft.to/lastmile_qr_scan", "android": "https://dc.lft.to/lastmile_qr_scan"}, "is_reserved": 0, "lon": -77.03077566666667, "fusion_lat": 0.0, "name": "0a6e3facf961afe551a61ccd33c69941"}, {"type": "electric_scooter", "fusion_lon": 0.0, "bike_id": "3ab5760fb2503b1dc67a6336683a2f64", "is_disabled": 0, "lat": 38.93852166666667, "rental_uris": {"ios": "https://dc.lft.to/lastmile_qr_scan", "android": "https://dc.lft.to/lastmile_qr_scan"}, "is_reserved": 0, "lon": -77.0338975, "fusion_lat": 0.0, "name": "3ab5760fb2503b1dc67a6336683a2f64"}, {"type": "electric_scooter", "fusion_lon": 0.0, "bike_id": "d8b29b73e4549643296fd441c664992c", "is_disabled": 0, "lat": 38.897656, "rental_uris": {"ios": "https://dc.lft.to/lastmile_qr_scan", "android": "https://dc.lft.to/lastmile_qr_scan"}, "is_reserved": 0, "lon": -76.92585716666666, "fusion_lat": 0.0, "name": "d8b29b73e4549643296fd441c664992c"}, {"type": "electric_scooter", "fusion_lon": 0.0, "bike_id": "873b7eccd3e59ddaffe0cf6008d155ad", "is_disabled": 0, "lat": 38.894083333333334, "rental_uris": {"ios": "https://dc.lft.to/lastmile_qr_scan", "android": "https://dc.lft.to/lastmile_qr_scan"}, "is_reserved": 0, "lon": -77.02206983333333, "fusion_lat": 0.0, "name": "873b7eccd3e59ddaffe0cf6008d155ad"}, {"type": "electric_scooter", "fusion_lon": 0.0, "bike_id": "454c32161f510865ee8bffd294b0aff3", "is_disabled": 0, "lat": 38.95274, "rental_uris": {"ios": "https://dc.lft.to/lastmile_qr_scan", "android": "https://dc.lft.to/lastmile_qr_scan"}, "is_reserved": 0, "lon": -77.0364515, "fusion_lat": 0.0, "name": "454c32161f510865ee8bffd294b0aff3"}, {"type": "electric_scooter", "fusion_lon": 0.0, "bike_id": "dbcc2668194feee5e1e9e98f06f86254", "is_disabled": 0, "lat": 38.921700666666666, "rental_uris": {"ios": "https://dc.lft.to/lastmile_qr_scan", "android": "https://dc.lft.to/lastmile_qr_scan"}, "is_reserved": 0, "lon": -77.04128716666666, "fusion_lat": 0.0, "name": "dbcc2668194feee5e1e9e98f06f86254"}, {"type": "electric_scooter", "fusion_lon": 0.0, "bike_id": "c839e814491aba7f24cc0de22f9b6c22", "is_disabled": 0, "lat": 38.892299, "rental_uris": {"ios": "https://dc.lft.to/lastmile_qr_scan", "android": "https://dc.lft.to/lastmile_qr_scan"}, "is_reserved": 0, "lon": -77.03121566666667, "fusion_lat": 0.0, "name": "c839e814491aba7f24cc0de22f9b6c22"}, {"type": "electric_scooter", "fusion_lon": 0.0, "bike_id": "7cd0fccfd964eb107fe2e9a343f0d370", "is_disabled": 0, "lat": 38.916491666666666, "rental_uris": {"ios": "https://dc.lft.to/lastmile_qr_scan", "android": "https://dc.lft.to/lastmile_qr_scan"}, "is_reserved": 0, "lon": -77.03203766666667, "fusion_lat": 0.0, "name": "7cd0fccfd964eb107fe2e9a343f0d370"}, {"type": "electric_scooter", "fusion_lon": 0.0, "bike_id": "cf30c4cbf90a27b1de405ce2e32f4d0f", "is_disabled": 0, "lat": 38.90034083333333, "rental_uris": {"ios": "https://dc.lft.to/lastmile_qr_scan", "android": "https://dc.lft.to/lastmile_qr_scan"}, "is_reserved": 0, "lon": -76.99648566666667, "fusion_lat": 0.0, "name": "cf30c4cbf90a27b1de405ce2e32f4d0f"}, {"type": "electric_scooter", "fusion_lon": 0.0, "bike_id": "57ee97bdeba92e9061250dfe01dc52d2", "is_disabled": 0, "lat": 38.90749233333333, "rental_uris": {"ios": "https://dc.lft.to/lastmile_qr_scan", "android": "https://dc.lft.to/lastmile_qr_scan"}, "is_reserved": 0, "lon": -77.00288516666667, "fusion_lat": 0.0, "name": "57ee97bdeba92e9061250dfe01dc52d2"}, {"type": "electric_scooter", "fusion_lon": 0.0, "bike_id": "fc0ebe0967a566b7ad426b09223879fc", "is_disabled": 0, "lat": 38.907338333333335, "rental_uris": {"ios": "https://dc.lft.to/lastmile_qr_scan", "android": "https://dc.lft.to/lastmile_qr_scan"}, "is_reserved": 0, "lon": -76.97979833333333, "fusion_lat": 0.0, "name": "fc0ebe0967a566b7ad426b09223879fc"}, {"type": "electric_scooter", "fusion_lon": 0.0, "bike_id": "674487946ea69ce1e26308506733a590", "is_disabled": 0, "lat": 38.907357, "rental_uris": {"ios": "https://dc.lft.to/lastmile_qr_scan", "android": "https://dc.lft.to/lastmile_qr_scan"}, "is_reserved": 0, "lon": -77.03441516666666, "fusion_lat": 0.0, "name": "674487946ea69ce1e26308506733a590"}, {"type": "electric_scooter", "fusion_lon": 0.0, "bike_id": "7e6b43e2eb7a51eeca5a46b63cc64411", "is_disabled": 0, "lat": 38.92066616666666, "rental_uris": {"ios": "https://dc.lft.to/lastmile_qr_scan", "android": "https://dc.lft.to/lastmile_qr_scan"}, "is_reserved": 0, "lon": -77.023027, "fusion_lat": 0.0, "name": "7e6b43e2eb7a51eeca5a46b63cc64411"}, {"type": "electric_bike", "fusion_lon": 0.0, "bike_id": "740da229209b9d595f53dc0aae32003b", "is_disabled": 0, "lat": 38.92002383333333, "rental_uris": {"ios": "https://dc.lft.to/lastmile_qr_scan", "android": "https://dc.lft.to/lastmile_qr_scan"}, "is_reserved": 0, "lon": -76.9581835, "fusion_lat": 0.0, "name": "740da229209b9d595f53dc0aae32003b"}, {"type": "electric_scooter", "fusion_lon": 0.0, "bike_id": "d4bf58e966fa38a1d60901677d86b33a", "is_disabled": 0, "lat": 38.87470966666667, "rental_uris": {"ios": "https://dc.lft.to/lastmile_qr_scan", "android": "https://dc.lft.to/lastmile_qr_scan"}, "is_reserved": 0, "lon": -77.00555433333334, "fusion_lat": 0.0, "name": "d4bf58e966fa38a1d60901677d86b33a"}, {"type": "electric_scooter", "fusion_lon": 0.0, "bike_id": "88f387948b665d1fefd0df186cdb26b8", "is_disabled": 0, "lat": 38.914149, "rental_uris": {"ios": "https://dc.lft.to/lastmile_qr_scan", "android": "https://dc.lft.to/lastmile_qr_scan"}, "is_reserved": 0, "lon": -77.0390665, "fusion_lat": 0.0, "name": "88f387948b665d1fefd0df186cdb26b8"}, {"type": "electric_scooter", "fusion_lon": 0.0, "bike_id": "2febf88825c8db97835e9af98c815324", "is_disabled": 0, "lat": 38.92495233333333, "rental_uris": {"ios": "https://dc.lft.to/lastmile_qr_scan", "android": "https://dc.lft.to/lastmile_qr_scan"}, "is_reserved": 0, "lon": -77.02405316666666, "fusion_lat": 0.0, "name": "2febf88825c8db97835e9af98c815324"}, {"type": "electric_scooter", "fusion_lon": 0.0, "bike_id": "08ba85822fb9df4a6ffcda93bd5c2307", "is_disabled": 0, "lat": 38.90409966666667, "rental_uris": {"ios": "https://dc.lft.to/lastmile_qr_scan", "android": "https://dc.lft.to/lastmile_qr_scan"}, "is_reserved": 0, "lon": -76.97333316666666, "fusion_lat": 0.0, "name": "08ba85822fb9df4a6ffcda93bd5c2307"}, {"type": "electric_scooter", "fusion_lon": 0.0, "bike_id": "41dd16b1727d2b88ca41a6a0d430afa7", "is_disabled": 0, "lat": 38.92135233333333, "rental_uris": {"ios": "https://dc.lft.to/lastmile_qr_scan", "android": "https://dc.lft.to/lastmile_qr_scan"}, "is_reserved": 0, "lon": -77.01842133333334, "fusion_lat": 0.0, "name": "41dd16b1727d2b88ca41a6a0d430afa7"}, {"type": "electric_bike", "fusion_lon": 0.0, "bike_id": "74651c5141e2528e05c0442242df7a15", "is_disabled": 0, "lat": 38.946351166666666, "rental_uris": {"ios": "https://dc.lft.to/lastmile_qr_scan", "android": "https://dc.lft.to/lastmile_qr_scan"}, "is_reserved": 0, "lon": -76.99313266666667, "fusion_lat": 0.0, "name": "74651c5141e2528e05c0442242df7a15"}, {"type": "electric_scooter", "fusion_lon": 0.0, "bike_id": "2b5fe8e65ed3c637b7bf469a9def0012", "is_disabled": 0, "lat": 38.9270675, "rental_uris": {"ios": "https://dc.lft.to/lastmile_qr_scan", "android": "https://dc.lft.to/lastmile_qr_scan"}, "is_reserved": 0, "lon": -77.02101433333333, "fusion_lat": 0.0, "name": "2b5fe8e65ed3c637b7bf469a9def0012"}, {"type": "electric_scooter", "fusion_lon": 0.0, "bike_id": "da27272e0125e534d3d295526f6c9a14", "is_disabled": 0, "lat": 38.892703, "rental_uris": {"ios": "https://dc.lft.to/lastmile_qr_scan", "android": "https://dc.lft.to/lastmile_qr_scan"}, "is_reserved": 0, "lon": -77.00346216666667, "fusion_lat": 0.0, "name": "da27272e0125e534d3d295526f6c9a14"}, {"type": "electric_scooter", "fusion_lon": 0.0, "bike_id": "229c2c5af35b6a2f0fc7663472f811fc", "is_disabled": 0, "lat": 38.878665166666664, "rental_uris": {"ios": "https://dc.lft.to/lastmile_qr_scan", "android": "https://dc.lft.to/lastmile_qr_scan"}, "is_reserved": 0, "lon": -76.98930983333334, "fusion_lat": 0.0, "name": "229c2c5af35b6a2f0fc7663472f811fc"}, {"type": "electric_scooter", "fusion_lon": 0.0, "bike_id": "b303320dc2f4960a5d2e01b8bad0aa1e", "is_disabled": 0, "lat": 38.9266315, "rental_uris": {"ios": "https://dc.lft.to/lastmile_qr_scan", "android": "https://dc.lft.to/lastmile_qr_scan"}, "is_reserved": 0, "lon": -77.03709383333333, "fusion_lat": 0.0, "name": "b303320dc2f4960a5d2e01b8bad0aa1e"}, {"type": "electric_scooter", "fusion_lon": 0.0, "bike_id": "0f493037452cafc0284e95e9cfd97f3b", "is_disabled": 0, "lat": 38.90675366666667, "rental_uris": {"ios": "https://dc.lft.to/lastmile_qr_scan", "android": "https://dc.lft.to/lastmile_qr_scan"}, "is_reserved": 0, "lon": -77.0219705, "fusion_lat": 0.0, "name": "0f493037452cafc0284e95e9cfd97f3b"}, {"type": "electric_scooter", "fusion_lon": 0.0, "bike_id": "0c0400bea2408dd5b755180f86a7101e", "is_disabled": 0, "lat": 38.89557533333333, "rental_uris": {"ios": "https://dc.lft.to/lastmile_qr_scan", "android": "https://dc.lft.to/lastmile_qr_scan"}, "is_reserved": 0, "lon": -77.04675433333334, "fusion_lat": 0.0, "name": "0c0400bea2408dd5b755180f86a7101e"}, {"type": "electric_scooter", "fusion_lon": 0.0, "bike_id": "94abe423bd32fac2d1ee6e7c58fa4967", "is_disabled": 0, "lat": 38.899538166666666, "rental_uris": {"ios": "https://dc.lft.to/lastmile_qr_scan", "android": "https://dc.lft.to/lastmile_qr_scan"}, "is_reserved": 0, "lon": -77.04494116666666, "fusion_lat": 0.0, "name": "94abe423bd32fac2d1ee6e7c58fa4967"}, {"type": "electric_scooter", "fusion_lon": 0.0, "bike_id": "1cb01df4ea736b2e2c7c67fce4930bfe", "is_disabled": 0, "lat": 38.899116666666664, "rental_uris": {"ios": "https://dc.lft.to/lastmile_qr_scan", "android": "https://dc.lft.to/lastmile_qr_scan"}, "is_reserved": 0, "lon": -77.027998, "fusion_lat": 0.0, "name": "1cb01df4ea736b2e2c7c67fce4930bfe"}, {"type": "electric_scooter", "fusion_lon": 0.0, "bike_id": "d5059e7aac10322fec07b36e8e371698", "is_disabled": 0, "lat": 38.92403733333333, "rental_uris": {"ios": "https://dc.lft.to/lastmile_qr_scan", "android": "https://dc.lft.to/lastmile_qr_scan"}, "is_reserved": 0, "lon": -77.02747416666666, "fusion_lat": 0.0, "name": "d5059e7aac10322fec07b36e8e371698"}, {"type": "electric_bike", "fusion_lon": 0.0, "bike_id": "0a75bc9b0ca3f7870a9558ba9f0a3e8a", "is_disabled": 0, "lat": 38.89018083333333, "rental_uris": {"ios": "https://dc.lft.to/lastmile_qr_scan", "android": "https://dc.lft.to/lastmile_qr_scan"}, "is_reserved": 0, "lon": -76.94166266666667, "fusion_lat": 0.0, "name": "0a75bc9b0ca3f7870a9558ba9f0a3e8a"}, {"type": "electric_scooter", "fusion_lon": 0.0, "bike_id": "aa76cad47e57ddb94c1c5e8616ea375e", "is_disabled": 0, "lat": 38.92049083333333, "rental_uris": {"ios": "https://dc.lft.to/lastmile_qr_scan", "android": "https://dc.lft.to/lastmile_qr_scan"}, "is_reserved": 0, "lon": -77.04186733333333, "fusion_lat": 0.0, "name": "aa76cad47e57ddb94c1c5e8616ea375e"}, {"type": "electric_scooter", "fusion_lon": 0.0, "bike_id": "25fc9d0baf05193c3efe75bdbc44027c", "is_disabled": 0, "lat": 38.863595, "rental_uris": {"ios": "https://dc.lft.to/lastmile_qr_scan", "android": "https://dc.lft.to/lastmile_qr_scan"}, "is_reserved": 0, "lon": -76.99042666666666, "fusion_lat": 0.0, "name": "25fc9d0baf05193c3efe75bdbc44027c"}, {"type": "electric_scooter", "fusion_lon": 0.0, "bike_id": "37bb20f5e197a5834584ec22b36f311a", "is_disabled": 0, "lat": 38.89524816666667, "rental_uris": {"ios": "https://dc.lft.to/lastmile_qr_scan", "android": "https://dc.lft.to/lastmile_qr_scan"}, "is_reserved": 0, "lon": -77.04336033333334, "fusion_lat": 0.0, "name": "37bb20f5e197a5834584ec22b36f311a"}, {"type": "electric_scooter", "fusion_lon": 0.0, "bike_id": "87f095e0f2e23bc984175198b33fb3e0", "is_disabled": 0, "lat": 38.9105485, "rental_uris": {"ios": "https://dc.lft.to/lastmile_qr_scan", "android": "https://dc.lft.to/lastmile_qr_scan"}, "is_reserved": 0, "lon": -77.04350733333334, "fusion_lat": 0.0, "name": "87f095e0f2e23bc984175198b33fb3e0"}, {"type": "electric_scooter", "fusion_lon": 0.0, "bike_id": "cb2e9ae4cddd079ecba1fb8aee8d5f35", "is_disabled": 0, "lat": 38.907714, "rental_uris": {"ios": "https://dc.lft.to/lastmile_qr_scan", "android": "https://dc.lft.to/lastmile_qr_scan"}, "is_reserved": 0, "lon": -77.0033995, "fusion_lat": 0.0, "name": "cb2e9ae4cddd079ecba1fb8aee8d5f35"}, {"type": "electric_scooter", "fusion_lon": 0.0, "bike_id": "bce81147e54ee94564232f74f2acdea4", "is_disabled": 0, "lat": 38.911182833333335, "rental_uris": {"ios": "https://dc.lft.to/lastmile_qr_scan", "android": "https://dc.lft.to/lastmile_qr_scan"}, "is_reserved": 0, "lon": -77.043472, "fusion_lat": 0.0, "name": "bce81147e54ee94564232f74f2acdea4"}, {"type": "electric_scooter", "fusion_lon": 0.0, "bike_id": "5fb3e8fb41b4d667df45eceba40bfede", "is_disabled": 0, "lat": 38.92753283333333, "rental_uris": {"ios": "https://dc.lft.to/lastmile_qr_scan", "android": "https://dc.lft.to/lastmile_qr_scan"}, "is_reserved": 0, "lon": -77.0327, "fusion_lat": 0.0, "name": "5fb3e8fb41b4d667df45eceba40bfede"}, {"type": "electric_scooter", "fusion_lon": 0.0, "bike_id": "80e4bcec161951d5454b7855c1ecced2", "is_disabled": 0, "lat": 38.8853345, "rental_uris": {"ios": "https://dc.lft.to/lastmile_qr_scan", "android": "https://dc.lft.to/lastmile_qr_scan"}, "is_reserved": 0, "lon": -77.00588466666666, "fusion_lat": 0.0, "name": "80e4bcec161951d5454b7855c1ecced2"}, {"type": "electric_scooter", "fusion_lon": 0.0, "bike_id": "edfba6ab73bfc8e1ae8544643e72c8ae", "is_disabled": 0, "lat": 38.89222183333333, "rental_uris": {"ios": "https://dc.lft.to/lastmile_qr_scan", "android": "https://dc.lft.to/lastmile_qr_scan"}, "is_reserved": 0, "lon": -77.04861033333333, "fusion_lat": 0.0, "name": "edfba6ab73bfc8e1ae8544643e72c8ae"}, {"type": "electric_scooter", "fusion_lon": 0.0, "bike_id": "42ce2a1598c2a7fd70c09bf3a861ee0f", "is_disabled": 0, "lat": 38.941918333333334, "rental_uris": {"ios": "https://dc.lft.to/lastmile_qr_scan", "android": "https://dc.lft.to/lastmile_qr_scan"}, "is_reserved": 0, "lon": -77.03326016666666, "fusion_lat": 0.0, "name": "42ce2a1598c2a7fd70c09bf3a861ee0f"}, {"type": "electric_scooter", "fusion_lon": 0.0, "bike_id": "fbdeb299dd2fb6229587824cc083e408", "is_disabled": 0, "lat": 38.89520866666667, "rental_uris": {"ios": "https://dc.lft.to/lastmile_qr_scan", "android": "https://dc.lft.to/lastmile_qr_scan"}, "is_reserved": 0, "lon": -77.0393175, "fusion_lat": 0.0, "name": "fbdeb299dd2fb6229587824cc083e408"}, {"type": "electric_scooter", "fusion_lon": 0.0, "bike_id": "2e628be74f4771bec1fecdf4714c40a2", "is_disabled": 0, "lat": 38.90038533333333, "rental_uris": {"ios": "https://dc.lft.to/lastmile_qr_scan", "android": "https://dc.lft.to/lastmile_qr_scan"}, "is_reserved": 0, "lon": -77.03713733333333, "fusion_lat": 0.0, "name": "2e628be74f4771bec1fecdf4714c40a2"}, {"type": "electric_scooter", "fusion_lon": 0.0, "bike_id": "23aba0e1d63f60b95d6057ba54c543bf", "is_disabled": 0, "lat": 38.89343433333333, "rental_uris": {"ios": "https://dc.lft.to/lastmile_qr_scan", "android": "https://dc.lft.to/lastmile_qr_scan"}, "is_reserved": 0, "lon": -76.9915745, "fusion_lat": 0.0, "name": "23aba0e1d63f60b95d6057ba54c543bf"}, {"type": "electric_scooter", "fusion_lon": 0.0, "bike_id": "5f07a56f1d64019517b1eb469eb136f5", "is_disabled": 0, "lat": 38.984342166666664, "rental_uris": {"ios": "https://dc.lft.to/lastmile_qr_scan", "android": "https://dc.lft.to/lastmile_qr_scan"}, "is_reserved": 0, "lon": -77.02673466666667, "fusion_lat": 0.0, "name": "5f07a56f1d64019517b1eb469eb136f5"}, {"type": "electric_scooter", "fusion_lon": 0.0, "bike_id": "5de8126f0e4f6b853abfa485c5341a5a", "is_disabled": 0, "lat": 38.90281566666667, "rental_uris": {"ios": "https://dc.lft.to/lastmile_qr_scan", "android": "https://dc.lft.to/lastmile_qr_scan"}, "is_reserved": 0, "lon": -77.03486116666667, "fusion_lat": 0.0, "name": "5de8126f0e4f6b853abfa485c5341a5a"}, {"type": "electric_scooter", "fusion_lon": 0.0, "bike_id": "4e7a4fda4062a7ced960ce690191bf69", "is_disabled": 0, "lat": 38.909762666666666, "rental_uris": {"ios": "https://dc.lft.to/lastmile_qr_scan", "android": "https://dc.lft.to/lastmile_qr_scan"}, "is_reserved": 0, "lon": -77.03856516666667, "fusion_lat": 0.0, "name": "4e7a4fda4062a7ced960ce690191bf69"}, {"type": "electric_scooter", "fusion_lon": 0.0, "bike_id": "12dbe85caacd60bc299a4dae6b983cd4", "is_disabled": 0, "lat": 38.937466, "rental_uris": {"ios": "https://dc.lft.to/lastmile_qr_scan", "android": "https://dc.lft.to/lastmile_qr_scan"}, "is_reserved": 0, "lon": -77.0687095, "fusion_lat": 0.0, "name": "12dbe85caacd60bc299a4dae6b983cd4"}, {"type": "electric_scooter", "fusion_lon": 0.0, "bike_id": "fc1f007a3c44842cde1d44519c3f5a3f", "is_disabled": 0, "lat": 38.941947, "rental_uris": {"ios": "https://dc.lft.to/lastmile_qr_scan", "android": "https://dc.lft.to/lastmile_qr_scan"}, "is_reserved": 0, "lon": -77.03839883333333, "fusion_lat": 0.0, "name": "fc1f007a3c44842cde1d44519c3f5a3f"}, {"type": "electric_scooter", "fusion_lon": 0.0, "bike_id": "2d632f36e6bcc8d6c92a8d7454b996e4", "is_disabled": 0, "lat": 38.9069635, "rental_uris": {"ios": "https://dc.lft.to/lastmile_qr_scan", "android": "https://dc.lft.to/lastmile_qr_scan"}, "is_reserved": 0, "lon": -76.9850725, "fusion_lat": 0.0, "name": "2d632f36e6bcc8d6c92a8d7454b996e4"}, {"type": "electric_scooter", "fusion_lon": 0.0, "bike_id": "d3700f38b606b4b70c202dc516219976", "is_disabled": 0, "lat": 38.91191383333334, "rental_uris": {"ios": "https://dc.lft.to/lastmile_qr_scan", "android": "https://dc.lft.to/lastmile_qr_scan"}, "is_reserved": 0, "lon": -77.03798933333333, "fusion_lat": 0.0, "name": "d3700f38b606b4b70c202dc516219976"}, {"type": "electric_scooter", "fusion_lon": 0.0, "bike_id": "683b48033a44bcd22687501e26727d95", "is_disabled": 0, "lat": 38.9354155, "rental_uris": {"ios": "https://dc.lft.to/lastmile_qr_scan", "android": "https://dc.lft.to/lastmile_qr_scan"}, "is_reserved": 0, "lon": -77.03422366666666, "fusion_lat": 0.0, "name": "683b48033a44bcd22687501e26727d95"}, {"type": "electric_scooter", "fusion_lon": 0.0, "bike_id": "204356cca3feb8cefca72626580d3035", "is_disabled": 0, "lat": 38.887454166666664, "rental_uris": {"ios": "https://dc.lft.to/lastmile_qr_scan", "android": "https://dc.lft.to/lastmile_qr_scan"}, "is_reserved": 0, "lon": -77.02576383333333, "fusion_lat": 0.0, "name": "204356cca3feb8cefca72626580d3035"}, {"type": "electric_scooter", "fusion_lon": 0.0, "bike_id": "c493742bac0811f118940e0673a27a92", "is_disabled": 0, "lat": 38.898408833333335, "rental_uris": {"ios": "https://dc.lft.to/lastmile_qr_scan", "android": "https://dc.lft.to/lastmile_qr_scan"}, "is_reserved": 0, "lon": -77.007387, "fusion_lat": 0.0, "name": "c493742bac0811f118940e0673a27a92"}, {"type": "electric_scooter", "fusion_lon": 0.0, "bike_id": "4a6b43fa65d701edc2fcf63c8a10cb5c", "is_disabled": 0, "lat": 38.89046183333333, "rental_uris": {"ios": "https://dc.lft.to/lastmile_qr_scan", "android": "https://dc.lft.to/lastmile_qr_scan"}, "is_reserved": 0, "lon": -76.937547, "fusion_lat": 0.0, "name": "4a6b43fa65d701edc2fcf63c8a10cb5c"}, {"type": "electric_scooter", "fusion_lon": 0.0, "bike_id": "64c35942f70ca6325be984c985f7fe1e", "is_disabled": 0, "lat": 38.92810633333333, "rental_uris": {"ios": "https://dc.lft.to/lastmile_qr_scan", "android": "https://dc.lft.to/lastmile_qr_scan"}, "is_reserved": 0, "lon": -77.04332766666667, "fusion_lat": 0.0, "name": "64c35942f70ca6325be984c985f7fe1e"}, {"type": "electric_scooter", "fusion_lon": 0.0, "bike_id": "493404747ce7cf8234f8662f30d852b9", "is_disabled": 0, "lat": 38.8818105, "rental_uris": {"ios": "https://dc.lft.to/lastmile_qr_scan", "android": "https://dc.lft.to/lastmile_qr_scan"}, "is_reserved": 0, "lon": -76.992567, "fusion_lat": 0.0, "name": "493404747ce7cf8234f8662f30d852b9"}, {"type": "electric_scooter", "fusion_lon": 0.0, "bike_id": "1113f481ca88849474beb4b1fe42abf8", "is_disabled": 0, "lat": 38.91561983333333, "rental_uris": {"ios": "https://dc.lft.to/lastmile_qr_scan", "android": "https://dc.lft.to/lastmile_qr_scan"}, "is_reserved": 0, "lon": -77.03224116666667, "fusion_lat": 0.0, "name": "1113f481ca88849474beb4b1fe42abf8"}, {"type": "electric_scooter", "fusion_lon": 0.0, "bike_id": "ee162666017c2e3572d845ab2ac5331e", "is_disabled": 0, "lat": 38.90815, "rental_uris": {"ios": "https://dc.lft.to/lastmile_qr_scan", "android": "https://dc.lft.to/lastmile_qr_scan"}, "is_reserved": 0, "lon": -77.03908016666666, "fusion_lat": 0.0, "name": "ee162666017c2e3572d845ab2ac5331e"}, {"type": "electric_scooter", "fusion_lon": 0.0, "bike_id": "6c77863424b396152bf9dfc580ce0d9e", "is_disabled": 0, "lat": 38.91756916666667, "rental_uris": {"ios": "https://dc.lft.to/lastmile_qr_scan", "android": "https://dc.lft.to/lastmile_qr_scan"}, "is_reserved": 0, "lon": -77.0228535, "fusion_lat": 0.0, "name": "6c77863424b396152bf9dfc580ce0d9e"}, {"type": "electric_scooter", "fusion_lon": 0.0, "bike_id": "a85bf5f2ce948866ffc17e90bbf8e8e9", "is_disabled": 0, "lat": 38.9357495, "rental_uris": {"ios": "https://dc.lft.to/lastmile_qr_scan", "android": "https://dc.lft.to/lastmile_qr_scan"}, "is_reserved": 0, "lon": -76.99302933333334, "fusion_lat": 0.0, "name": "a85bf5f2ce948866ffc17e90bbf8e8e9"}, {"type": "electric_scooter", "fusion_lon": 0.0, "bike_id": "e1be4a35a622c2c803bc68bac1366834", "is_disabled": 0, "lat": 38.92473, "rental_uris": {"ios": "https://dc.lft.to/lastmile_qr_scan", "android": "https://dc.lft.to/lastmile_qr_scan"}, "is_reserved": 0, "lon": -77.02221566666667, "fusion_lat": 0.0, "name": "e1be4a35a622c2c803bc68bac1366834"}, {"type": "electric_scooter", "fusion_lon": 0.0, "bike_id": "26e2400c14d8b4bc1e8ba7a6deddbf4c", "is_disabled": 0, "lat": 38.894859, "rental_uris": {"ios": "https://dc.lft.to/lastmile_qr_scan", "android": "https://dc.lft.to/lastmile_qr_scan"}, "is_reserved": 0, "lon": -77.00292366666666, "fusion_lat": 0.0, "name": "26e2400c14d8b4bc1e8ba7a6deddbf4c"}, {"type": "electric_scooter", "fusion_lon": 0.0, "bike_id": "4b2f2b0265a191908ca468d83d5a3035", "is_disabled": 0, "lat": 38.895346833333335, "rental_uris": {"ios": "https://dc.lft.to/lastmile_qr_scan", "android": "https://dc.lft.to/lastmile_qr_scan"}, "is_reserved": 0, "lon": -77.04646766666667, "fusion_lat": 0.0, "name": "4b2f2b0265a191908ca468d83d5a3035"}, {"type": "electric_bike", "fusion_lon": 0.0, "bike_id": "93971082d8c236c40cc61cd9740d9ecf", "is_disabled": 0, "lat": 38.8587265, "rental_uris": {"ios": "https://dc.lft.to/lastmile_qr_scan", "android": "https://dc.lft.to/lastmile_qr_scan"}, "is_reserved": 0, "lon": -77.09553483333333, "fusion_lat": 0.0, "name": "93971082d8c236c40cc61cd9740d9ecf"}, {"type": "electric_scooter", "fusion_lon": 0.0, "bike_id": "f0ce7000f69521b95780bbc5be8fd85e", "is_disabled": 0, "lat": 38.904734166666664, "rental_uris": {"ios": "https://dc.lft.to/lastmile_qr_scan", "android": "https://dc.lft.to/lastmile_qr_scan"}, "is_reserved": 0, "lon": -77.03437866666667, "fusion_lat": 0.0, "name": "f0ce7000f69521b95780bbc5be8fd85e"}, {"type": "electric_scooter", "fusion_lon": 0.0, "bike_id": "7039f65873040f3ca2fc914d3bc05d99", "is_disabled": 0, "lat": 38.92159016666667, "rental_uris": {"ios": "https://dc.lft.to/lastmile_qr_scan", "android": "https://dc.lft.to/lastmile_qr_scan"}, "is_reserved": 0, "lon": -77.03286016666667, "fusion_lat": 0.0, "name": "7039f65873040f3ca2fc914d3bc05d99"}, {"type": "electric_scooter", "fusion_lon": 0.0, "bike_id": "272e029d0d76906a007ad4341a2d3216", "is_disabled": 0, "lat": 38.911091, "rental_uris": {"ios": "https://dc.lft.to/lastmile_qr_scan", "android": "https://dc.lft.to/lastmile_qr_scan"}, "is_reserved": 0, "lon": -77.04530633333333, "fusion_lat": 0.0, "name": "272e029d0d76906a007ad4341a2d3216"}, {"type": "electric_scooter", "fusion_lon": 0.0, "bike_id": "9fe0b3d58e4ab8123670366be6f0e457", "is_disabled": 0, "lat": 38.8984645, "rental_uris": {"ios": "https://dc.lft.to/lastmile_qr_scan", "android": "https://dc.lft.to/lastmile_qr_scan"}, "is_reserved": 0, "lon": -76.94251733333333, "fusion_lat": 0.0, "name": "9fe0b3d58e4ab8123670366be6f0e457"}, {"type": "electric_scooter", "fusion_lon": 0.0, "bike_id": "f6d15fff386b1c10c1838760f6e765e4", "is_disabled": 0, "lat": 38.903347, "rental_uris": {"ios": "https://dc.lft.to/lastmile_qr_scan", "android": "https://dc.lft.to/lastmile_qr_scan"}, "is_reserved": 0, "lon": -76.9294405, "fusion_lat": 0.0, "name": "f6d15fff386b1c10c1838760f6e765e4"}, {"type": "electric_scooter", "fusion_lon": 0.0, "bike_id": "3c817f400e2f05f312a31531e1e0591e", "is_disabled": 0, "lat": 38.898332333333336, "rental_uris": {"ios": "https://dc.lft.to/lastmile_qr_scan", "android": "https://dc.lft.to/lastmile_qr_scan"}, "is_reserved": 0, "lon": -76.946355, "fusion_lat": 0.0, "name": "3c817f400e2f05f312a31531e1e0591e"}, {"type": "electric_scooter", "fusion_lon": 0.0, "bike_id": "80751fba0cee499671ab748f8c555306", "is_disabled": 0, "lat": 38.9312045, "rental_uris": {"ios": "https://dc.lft.to/lastmile_qr_scan", "android": "https://dc.lft.to/lastmile_qr_scan"}, "is_reserved": 0, "lon": -77.05603516666666, "fusion_lat": 0.0, "name": "80751fba0cee499671ab748f8c555306"}, {"type": "electric_scooter", "fusion_lon": 0.0, "bike_id": "18a2e496c56b4ff5eb76baec2acd1ce2", "is_disabled": 0, "lat": 38.92160416666667, "rental_uris": {"ios": "https://dc.lft.to/lastmile_qr_scan", "android": "https://dc.lft.to/lastmile_qr_scan"}, "is_reserved": 0, "lon": -77.03283816666666, "fusion_lat": 0.0, "name": "18a2e496c56b4ff5eb76baec2acd1ce2"}, {"type": "electric_scooter", "fusion_lon": 0.0, "bike_id": "88eece22bfa23ed21e97da9bdce1e3f6", "is_disabled": 0, "lat": 38.924338, "rental_uris": {"ios": "https://dc.lft.to/lastmile_qr_scan", "android": "https://dc.lft.to/lastmile_qr_scan"}, "is_reserved": 0, "lon": -77.02032983333334, "fusion_lat": 0.0, "name": "88eece22bfa23ed21e97da9bdce1e3f6"}, {"type": "electric_scooter", "fusion_lon": 0.0, "bike_id": "b812e5d52741ce12c948e8ee7565da48", "is_disabled": 0, "lat": 38.923295833333334, "rental_uris": {"ios": "https://dc.lft.to/lastmile_qr_scan", "android": "https://dc.lft.to/lastmile_qr_scan"}, "is_reserved": 0, "lon": -77.0195795, "fusion_lat": 0.0, "name": "b812e5d52741ce12c948e8ee7565da48"}, {"type": "electric_scooter", "fusion_lon": 0.0, "bike_id": "0750ccbd9cdf3d233f678ab135292585", "is_disabled": 0, "lat": 38.91267166666667, "rental_uris": {"ios": "https://dc.lft.to/lastmile_qr_scan", "android": "https://dc.lft.to/lastmile_qr_scan"}, "is_reserved": 0, "lon": -77.04155783333333, "fusion_lat": 0.0, "name": "0750ccbd9cdf3d233f678ab135292585"}, {"type": "electric_scooter", "fusion_lon": 0.0, "bike_id": "d0720eea1bc8678a7df3a3266f1d1129", "is_disabled": 0, "lat": 38.905758, "rental_uris": {"ios": "https://dc.lft.to/lastmile_qr_scan", "android": "https://dc.lft.to/lastmile_qr_scan"}, "is_reserved": 0, "lon": -77.0459935, "fusion_lat": 0.0, "name": "d0720eea1bc8678a7df3a3266f1d1129"}, {"type": "electric_scooter", "fusion_lon": 0.0, "bike_id": "29a66c068b81b7d081eca9c6198a8fa3", "is_disabled": 0, "lat": 38.90132366666667, "rental_uris": {"ios": "https://dc.lft.to/lastmile_qr_scan", "android": "https://dc.lft.to/lastmile_qr_scan"}, "is_reserved": 0, "lon": -77.0396765, "fusion_lat": 0.0, "name": "29a66c068b81b7d081eca9c6198a8fa3"}, {"type": "electric_scooter", "fusion_lon": 0.0, "bike_id": "278b086f9850d01bfa4d2bffb7c14076", "is_disabled": 0, "lat": 38.90791083333333, "rental_uris": {"ios": "https://dc.lft.to/lastmile_qr_scan", "android": "https://dc.lft.to/lastmile_qr_scan"}, "is_reserved": 0, "lon": -77.00955083333334, "fusion_lat": 0.0, "name": "278b086f9850d01bfa4d2bffb7c14076"}, {"type": "electric_scooter", "fusion_lon": 0.0, "bike_id": "43d18e43b9386c83bcc4a470e84e2de3", "is_disabled": 0, "lat": 38.896065666666665, "rental_uris": {"ios": "https://dc.lft.to/lastmile_qr_scan", "android": "https://dc.lft.to/lastmile_qr_scan"}, "is_reserved": 0, "lon": -77.019355, "fusion_lat": 0.0, "name": "43d18e43b9386c83bcc4a470e84e2de3"}, {"type": "electric_scooter", "fusion_lon": 0.0, "bike_id": "a172cf28e16c130fee841535388d7d7a", "is_disabled": 0, "lat": 38.88769966666667, "rental_uris": {"ios": "https://dc.lft.to/lastmile_qr_scan", "android": "https://dc.lft.to/lastmile_qr_scan"}, "is_reserved": 0, "lon": -76.98350166666667, "fusion_lat": 0.0, "name": "a172cf28e16c130fee841535388d7d7a"}, {"type": "electric_scooter", "fusion_lon": 0.0, "bike_id": "139d4619c9634d177076744d8a1a8ea9", "is_disabled": 0, "lat": 38.89237883333333, "rental_uris": {"ios": "https://dc.lft.to/lastmile_qr_scan", "android": "https://dc.lft.to/lastmile_qr_scan"}, "is_reserved": 0, "lon": -77.03207816666666, "fusion_lat": 0.0, "name": "139d4619c9634d177076744d8a1a8ea9"}, {"type": "electric_scooter", "fusion_lon": 0.0, "bike_id": "d2eb030126df749f987107e58a3afc57", "is_disabled": 0, "lat": 38.934756, "rental_uris": {"ios": "https://dc.lft.to/lastmile_qr_scan", "android": "https://dc.lft.to/lastmile_qr_scan"}, "is_reserved": 0, "lon": -77.07281016666667, "fusion_lat": 0.0, "name": "d2eb030126df749f987107e58a3afc57"}, {"type": "electric_scooter", "fusion_lon": 0.0, "bike_id": "533fa754fc3c4a16746d1e8cf9619d10", "is_disabled": 0, "lat": 38.89130866666667, "rental_uris": {"ios": "https://dc.lft.to/lastmile_qr_scan", "android": "https://dc.lft.to/lastmile_qr_scan"}, "is_reserved": 0, "lon": -76.98884183333334, "fusion_lat": 0.0, "name": "533fa754fc3c4a16746d1e8cf9619d10"}, {"type": "electric_scooter", "fusion_lon": 0.0, "bike_id": "e38dcad485a056f60b24c26b1abde3a5", "is_disabled": 0, "lat": 38.935599, "rental_uris": {"ios": "https://dc.lft.to/lastmile_qr_scan", "android": "https://dc.lft.to/lastmile_qr_scan"}, "is_reserved": 0, "lon": -77.07450916666667, "fusion_lat": 0.0, "name": "e38dcad485a056f60b24c26b1abde3a5"}, {"type": "electric_scooter", "fusion_lon": 0.0, "bike_id": "f6b70ca250b9a443605315406619a519", "is_disabled": 0, "lat": 38.892260666666665, "rental_uris": {"ios": "https://dc.lft.to/lastmile_qr_scan", "android": "https://dc.lft.to/lastmile_qr_scan"}, "is_reserved": 0, "lon": -77.04184583333333, "fusion_lat": 0.0, "name": "f6b70ca250b9a443605315406619a519"}, {"type": "electric_scooter", "fusion_lon": 0.0, "bike_id": "4895ecb8e93ed47814de10630d28b584", "is_disabled": 0, "lat": 38.89223, "rental_uris": {"ios": "https://dc.lft.to/lastmile_qr_scan", "android": "https://dc.lft.to/lastmile_qr_scan"}, "is_reserved": 0, "lon": -77.04508633333333, "fusion_lat": 0.0, "name": "4895ecb8e93ed47814de10630d28b584"}, {"type": "electric_scooter", "fusion_lon": 0.0, "bike_id": "7dad12b30cda974a80254da6d7188fcf", "is_disabled": 0, "lat": 38.910205166666664, "rental_uris": {"ios": "https://dc.lft.to/lastmile_qr_scan", "android": "https://dc.lft.to/lastmile_qr_scan"}, "is_reserved": 0, "lon": -77.03854783333334, "fusion_lat": 0.0, "name": "7dad12b30cda974a80254da6d7188fcf"}, {"type": "electric_scooter", "fusion_lon": 0.0, "bike_id": "bd6fe342d6664a1004c9e53655a6bcc2", "is_disabled": 0, "lat": 38.9005945, "rental_uris": {"ios": "https://dc.lft.to/lastmile_qr_scan", "android": "https://dc.lft.to/lastmile_qr_scan"}, "is_reserved": 0, "lon": -77.0262735, "fusion_lat": 0.0, "name": "bd6fe342d6664a1004c9e53655a6bcc2"}, {"type": "electric_scooter", "fusion_lon": 0.0, "bike_id": "ded5816d44589e8917e07df69a22d4ae", "is_disabled": 0, "lat": 38.922407166666666, "rental_uris": {"ios": "https://dc.lft.to/lastmile_qr_scan", "android": "https://dc.lft.to/lastmile_qr_scan"}, "is_reserved": 0, "lon": -77.03079783333334, "fusion_lat": 0.0, "name": "ded5816d44589e8917e07df69a22d4ae"}, {"type": "electric_scooter", "fusion_lon": 0.0, "bike_id": "c6b8ce7adf463b6204570721f12cbfcf", "is_disabled": 0, "lat": 38.8922755, "rental_uris": {"ios": "https://dc.lft.to/lastmile_qr_scan", "android": "https://dc.lft.to/lastmile_qr_scan"}, "is_reserved": 0, "lon": -77.02825816666666, "fusion_lat": 0.0, "name": "c6b8ce7adf463b6204570721f12cbfcf"}, {"type": "electric_scooter", "fusion_lon": 0.0, "bike_id": "790f0653d418e82616df351c4486822b", "is_disabled": 0, "lat": 38.902659166666666, "rental_uris": {"ios": "https://dc.lft.to/lastmile_qr_scan", "android": "https://dc.lft.to/lastmile_qr_scan"}, "is_reserved": 0, "lon": -77.01758183333334, "fusion_lat": 0.0, "name": "790f0653d418e82616df351c4486822b"}, {"type": "electric_scooter", "fusion_lon": 0.0, "bike_id": "98491429bfae444dc830116b6c701c8f", "is_disabled": 0, "lat": 38.9155795, "rental_uris": {"ios": "https://dc.lft.to/lastmile_qr_scan", "android": "https://dc.lft.to/lastmile_qr_scan"}, "is_reserved": 0, "lon": -77.03323066666667, "fusion_lat": 0.0, "name": "98491429bfae444dc830116b6c701c8f"}, {"type": "electric_scooter", "fusion_lon": 0.0, "bike_id": "d33c25d78f96dec5d48e293ef2a577d7", "is_disabled": 0, "lat": 38.91413, "rental_uris": {"ios": "https://dc.lft.to/lastmile_qr_scan", "android": "https://dc.lft.to/lastmile_qr_scan"}, "is_reserved": 0, "lon": -77.04500183333333, "fusion_lat": 0.0, "name": "d33c25d78f96dec5d48e293ef2a577d7"}, {"type": "electric_scooter", "fusion_lon": 0.0, "bike_id": "654a084e75f6ed151927c2f360e7d7fc", "is_disabled": 0, "lat": 38.8926795, "rental_uris": {"ios": "https://dc.lft.to/lastmile_qr_scan", "android": "https://dc.lft.to/lastmile_qr_scan"}, "is_reserved": 0, "lon": -77.04202266666667, "fusion_lat": 0.0, "name": "654a084e75f6ed151927c2f360e7d7fc"}, {"type": "electric_scooter", "fusion_lon": 0.0, "bike_id": "5196636eaca8ab1684b093e434a87761", "is_disabled": 0, "lat": 38.870840333333334, "rental_uris": {"ios": "https://dc.lft.to/lastmile_qr_scan", "android": "https://dc.lft.to/lastmile_qr_scan"}, "is_reserved": 0, "lon": -76.96568866666667, "fusion_lat": 0.0, "name": "5196636eaca8ab1684b093e434a87761"}, {"type": "electric_scooter", "fusion_lon": 0.0, "bike_id": "ffdccec1f606c9071634f2bc558ac134", "is_disabled": 0, "lat": 38.8755025, "rental_uris": {"ios": "https://dc.lft.to/lastmile_qr_scan", "android": "https://dc.lft.to/lastmile_qr_scan"}, "is_reserved": 0, "lon": -76.964865, "fusion_lat": 0.0, "name": "ffdccec1f606c9071634f2bc558ac134"}, {"type": "electric_scooter", "fusion_lon": 0.0, "bike_id": "994c2c6634d8313b99848616de2ec0c5", "is_disabled": 0, "lat": 38.901977, "rental_uris": {"ios": "https://dc.lft.to/lastmile_qr_scan", "android": "https://dc.lft.to/lastmile_qr_scan"}, "is_reserved": 0, "lon": -77.02202283333334, "fusion_lat": 0.0, "name": "994c2c6634d8313b99848616de2ec0c5"}, {"type": "electric_scooter", "fusion_lon": 0.0, "bike_id": "0e62b75d937606fa43d6b6b6f886ad3f", "is_disabled": 0, "lat": 38.931048833333335, "rental_uris": {"ios": "https://dc.lft.to/lastmile_qr_scan", "android": "https://dc.lft.to/lastmile_qr_scan"}, "is_reserved": 0, "lon": -77.03807866666666, "fusion_lat": 0.0, "name": "0e62b75d937606fa43d6b6b6f886ad3f"}, {"type": "electric_scooter", "fusion_lon": 0.0, "bike_id": "541a8acf53f24502e3971f1ae5808b1b", "is_disabled": 0, "lat": 38.9143875, "rental_uris": {"ios": "https://dc.lft.to/lastmile_qr_scan", "android": "https://dc.lft.to/lastmile_qr_scan"}, "is_reserved": 0, "lon": -77.04178466666667, "fusion_lat": 0.0, "name": "541a8acf53f24502e3971f1ae5808b1b"}, {"type": "electric_scooter", "fusion_lon": 0.0, "bike_id": "6691e3009502ff7126aa36a364987f78", "is_disabled": 0, "lat": 38.914105, "rental_uris": {"ios": "https://dc.lft.to/lastmile_qr_scan", "android": "https://dc.lft.to/lastmile_qr_scan"}, "is_reserved": 0, "lon": -77.037976, "fusion_lat": 0.0, "name": "6691e3009502ff7126aa36a364987f78"}, {"type": "electric_scooter", "fusion_lon": 0.0, "bike_id": "0dd605aacb4a3881b8bbf00c6f1c7a4f", "is_disabled": 0, "lat": 38.89718083333333, "rental_uris": {"ios": "https://dc.lft.to/lastmile_qr_scan", "android": "https://dc.lft.to/lastmile_qr_scan"}, "is_reserved": 0, "lon": -77.02453683333333, "fusion_lat": 0.0, "name": "0dd605aacb4a3881b8bbf00c6f1c7a4f"}, {"type": "electric_scooter", "fusion_lon": 0.0, "bike_id": "0d8f148989dfb1ecb9dfe4aa819ee2c5", "is_disabled": 0, "lat": 38.8922005, "rental_uris": {"ios": "https://dc.lft.to/lastmile_qr_scan", "android": "https://dc.lft.to/lastmile_qr_scan"}, "is_reserved": 0, "lon": -77.0486735, "fusion_lat": 0.0, "name": "0d8f148989dfb1ecb9dfe4aa819ee2c5"}, {"type": "electric_scooter", "fusion_lon": 0.0, "bike_id": "f7cbf469ae3bbaaa8b565b31d9345f00", "is_disabled": 0, "lat": 38.900912166666664, "rental_uris": {"ios": "https://dc.lft.to/lastmile_qr_scan", "android": "https://dc.lft.to/lastmile_qr_scan"}, "is_reserved": 0, "lon": -77.04695616666666, "fusion_lat": 0.0, "name": "f7cbf469ae3bbaaa8b565b31d9345f00"}, {"type": "electric_scooter", "fusion_lon": 0.0, "bike_id": "6b535ad1ec7499a7a73a311a1626c0c1", "is_disabled": 0, "lat": 38.92516783333333, "rental_uris": {"ios": "https://dc.lft.to/lastmile_qr_scan", "android": "https://dc.lft.to/lastmile_qr_scan"}, "is_reserved": 0, "lon": -77.02255733333334, "fusion_lat": 0.0, "name": "6b535ad1ec7499a7a73a311a1626c0c1"}, {"type": "electric_bike", "fusion_lon": 0.0, "bike_id": "7e1409fb00bc3b45800ca81531d0cac2", "is_disabled": 0, "lat": 38.895092166666664, "rental_uris": {"ios": "https://dc.lft.to/lastmile_qr_scan", "android": "https://dc.lft.to/lastmile_qr_scan"}, "is_reserved": 0, "lon": -77.04677, "fusion_lat": 0.0, "name": "7e1409fb00bc3b45800ca81531d0cac2"}, {"type": "electric_scooter", "fusion_lon": 0.0, "bike_id": "1d19fe5bd4c7c729a9cf595ee4d421c7", "is_disabled": 0, "lat": 38.939519, "rental_uris": {"ios": "https://dc.lft.to/lastmile_qr_scan", "android": "https://dc.lft.to/lastmile_qr_scan"}, "is_reserved": 0, "lon": -77.07244966666667, "fusion_lat": 0.0, "name": "1d19fe5bd4c7c729a9cf595ee4d421c7"}, {"type": "electric_bike", "fusion_lon": 0.0, "bike_id": "fa0e5225e448a64ed5b9f6d6ae00437f", "is_disabled": 0, "lat": 38.884671, "rental_uris": {"ios": "https://dc.lft.to/lastmile_qr_scan", "android": "https://dc.lft.to/lastmile_qr_scan"}, "is_reserved": 0, "lon": -76.95239166666667, "fusion_lat": 0.0, "name": "fa0e5225e448a64ed5b9f6d6ae00437f"}, {"type": "electric_scooter", "fusion_lon": 0.0, "bike_id": "41ce96c752474510a8fb15943bda690d", "is_disabled": 0, "lat": 38.90802933333333, "rental_uris": {"ios": "https://dc.lft.to/lastmile_qr_scan", "android": "https://dc.lft.to/lastmile_qr_scan"}, "is_reserved": 0, "lon": -77.083989, "fusion_lat": 0.0, "name": "41ce96c752474510a8fb15943bda690d"}, {"type": "electric_scooter", "fusion_lon": 0.0, "bike_id": "f4f105f3f70849f019a5fb0658be4852", "is_disabled": 0, "lat": 38.934965166666665, "rental_uris": {"ios": "https://dc.lft.to/lastmile_qr_scan", "android": "https://dc.lft.to/lastmile_qr_scan"}, "is_reserved": 0, "lon": -77.043712, "fusion_lat": 0.0, "name": "f4f105f3f70849f019a5fb0658be4852"}, {"type": "electric_scooter", "fusion_lon": 0.0, "bike_id": "66ac4f46d1579a7740d17d175882d3be", "is_disabled": 0, "lat": 38.93474233333333, "rental_uris": {"ios": "https://dc.lft.to/lastmile_qr_scan", "android": "https://dc.lft.to/lastmile_qr_scan"}, "is_reserved": 0, "lon": -77.04124766666666, "fusion_lat": 0.0, "name": "66ac4f46d1579a7740d17d175882d3be"}, {"type": "electric_scooter", "fusion_lon": 0.0, "bike_id": "ea9c2d66241df875f1cacba46444512e", "is_disabled": 0, "lat": 38.8986935, "rental_uris": {"ios": "https://dc.lft.to/lastmile_qr_scan", "android": "https://dc.lft.to/lastmile_qr_scan"}, "is_reserved": 0, "lon": -76.94662783333334, "fusion_lat": 0.0, "name": "ea9c2d66241df875f1cacba46444512e"}, {"type": "electric_bike", "fusion_lon": 0.0, "bike_id": "e7c83d8b96fb9fae7c3dbe23282e324d", "is_disabled": 0, "lat": 38.993807, "rental_uris": {"ios": "https://dc.lft.to/lastmile_qr_scan", "android": "https://dc.lft.to/lastmile_qr_scan"}, "is_reserved": 0, "lon": -77.04070283333333, "fusion_lat": 0.0, "name": "e7c83d8b96fb9fae7c3dbe23282e324d"}, {"type": "electric_bike", "fusion_lon": 0.0, "bike_id": "172c4d126f1c3aac0a022639fd7dfca8", "is_disabled": 0, "lat": 38.98809216666667, "rental_uris": {"ios": "https://dc.lft.to/lastmile_qr_scan", "android": "https://dc.lft.to/lastmile_qr_scan"}, "is_reserved": 0, "lon": -76.93959816666667, "fusion_lat": 0.0, "name": "172c4d126f1c3aac0a022639fd7dfca8"}, {"type": "electric_scooter", "fusion_lon": 0.0, "bike_id": "2a5c77aa65d0acd5da58aca08845f4b8", "is_disabled": 0, "lat": 38.90901316666667, "rental_uris": {"ios": "https://dc.lft.to/lastmile_qr_scan", "android": "https://dc.lft.to/lastmile_qr_scan"}, "is_reserved": 0, "lon": -76.99964383333334, "fusion_lat": 0.0, "name": "2a5c77aa65d0acd5da58aca08845f4b8"}, {"type": "electric_scooter", "fusion_lon": 0.0, "bike_id": "8059b43bc1da7d544676c8bdee80b644", "is_disabled": 0, "lat": 38.928778333333334, "rental_uris": {"ios": "https://dc.lft.to/lastmile_qr_scan", "android": "https://dc.lft.to/lastmile_qr_scan"}, "is_reserved": 0, "lon": -77.0295995, "fusion_lat": 0.0, "name": "8059b43bc1da7d544676c8bdee80b644"}, {"type": "electric_scooter", "fusion_lon": 0.0, "bike_id": "334c9eacb1b0bb154ba8bb6d331e90bd", "is_disabled": 0, "lat": 38.8999035, "rental_uris": {"ios": "https://dc.lft.to/lastmile_qr_scan", "android": "https://dc.lft.to/lastmile_qr_scan"}, "is_reserved": 0, "lon": -77.0019875, "fusion_lat": 0.0, "name": "334c9eacb1b0bb154ba8bb6d331e90bd"}, {"type": "electric_scooter", "fusion_lon": 0.0, "bike_id": "09f387338c0fadb0e13a53936add7324", "is_disabled": 0, "lat": 38.923999333333335, "rental_uris": {"ios": "https://dc.lft.to/lastmile_qr_scan", "android": "https://dc.lft.to/lastmile_qr_scan"}, "is_reserved": 0, "lon": -77.02694483333333, "fusion_lat": 0.0, "name": "09f387338c0fadb0e13a53936add7324"}, {"type": "electric_scooter", "fusion_lon": 0.0, "bike_id": "0bda593b8629505fad8a43c793076eb1", "is_disabled": 0, "lat": 38.89192416666667, "rental_uris": {"ios": "https://dc.lft.to/lastmile_qr_scan", "android": "https://dc.lft.to/lastmile_qr_scan"}, "is_reserved": 0, "lon": -76.95273583333334, "fusion_lat": 0.0, "name": "0bda593b8629505fad8a43c793076eb1"}, {"type": "electric_scooter", "fusion_lon": 0.0, "bike_id": "80126a1f1b9681ad0bbd6c592df16198", "is_disabled": 0, "lat": 38.93046483333333, "rental_uris": {"ios": "https://dc.lft.to/lastmile_qr_scan", "android": "https://dc.lft.to/lastmile_qr_scan"}, "is_reserved": 0, "lon": -77.02457733333334, "fusion_lat": 0.0, "name": "80126a1f1b9681ad0bbd6c592df16198"}, {"type": "electric_bike", "fusion_lon": 0.0, "bike_id": "027c93c7affc27b74651469cddf5800a", "is_disabled": 0, "lat": 38.9507785, "rental_uris": {"ios": "https://dc.lft.to/lastmile_qr_scan", "android": "https://dc.lft.to/lastmile_qr_scan"}, "is_reserved": 0, "lon": -77.012181, "fusion_lat": 0.0, "name": "027c93c7affc27b74651469cddf5800a"}, {"type": "electric_scooter", "fusion_lon": 0.0, "bike_id": "cb99509a2a245d16a238b5c0669c6231", "is_disabled": 0, "lat": 38.97218983333333, "rental_uris": {"ios": "https://dc.lft.to/lastmile_qr_scan", "android": "https://dc.lft.to/lastmile_qr_scan"}, "is_reserved": 0, "lon": -77.02713966666667, "fusion_lat": 0.0, "name": "cb99509a2a245d16a238b5c0669c6231"}, {"type": "electric_bike", "fusion_lon": 0.0, "bike_id": "321112042af0e61e6fcf678de287af31", "is_disabled": 0, "lat": 38.83837666666667, "rental_uris": {"ios": "https://dc.lft.to/lastmile_qr_scan", "android": "https://dc.lft.to/lastmile_qr_scan"}, "is_reserved": 0, "lon": -76.99658083333334, "fusion_lat": 0.0, "name": "321112042af0e61e6fcf678de287af31"}, {"type": "electric_scooter", "fusion_lon": 0.0, "bike_id": "a2bcca5e454c83b6b0f12b4f6c3844fb", "is_disabled": 0, "lat": 38.9111735, "rental_uris": {"ios": "https://dc.lft.to/lastmile_qr_scan", "android": "https://dc.lft.to/lastmile_qr_scan"}, "is_reserved": 0, "lon": -77.03826466666666, "fusion_lat": 0.0, "name": "a2bcca5e454c83b6b0f12b4f6c3844fb"}, {"type": "electric_scooter", "fusion_lon": 0.0, "bike_id": "d4170bae6793fc75128ab6007e1af9ad", "is_disabled": 0, "lat": 38.921069, "rental_uris": {"ios": "https://dc.lft.to/lastmile_qr_scan", "android": "https://dc.lft.to/lastmile_qr_scan"}, "is_reserved": 0, "lon": -77.0176405, "fusion_lat": 0.0, "name": "d4170bae6793fc75128ab6007e1af9ad"}, {"type": "electric_scooter", "fusion_lon": 0.0, "bike_id": "51e9434841aa007e680f2781b3c1bf1b", "is_disabled": 0, "lat": 38.8922375, "rental_uris": {"ios": "https://dc.lft.to/lastmile_qr_scan", "android": "https://dc.lft.to/lastmile_qr_scan"}, "is_reserved": 0, "lon": -77.0333735, "fusion_lat": 0.0, "name": "51e9434841aa007e680f2781b3c1bf1b"}, {"type": "electric_scooter", "fusion_lon": 0.0, "bike_id": "875f50976253d1c3a479607a22c29dbd", "is_disabled": 0, "lat": 38.905887, "rental_uris": {"ios": "https://dc.lft.to/lastmile_qr_scan", "android": "https://dc.lft.to/lastmile_qr_scan"}, "is_reserved": 0, "lon": -77.06552416666666, "fusion_lat": 0.0, "name": "875f50976253d1c3a479607a22c29dbd"}, {"type": "electric_scooter", "fusion_lon": 0.0, "bike_id": "c587c94b0edc80592f809f7baf0394a3", "is_disabled": 0, "lat": 38.8934615, "rental_uris": {"ios": "https://dc.lft.to/lastmile_qr_scan", "android": "https://dc.lft.to/lastmile_qr_scan"}, "is_reserved": 0, "lon": -76.93424166666667, "fusion_lat": 0.0, "name": "c587c94b0edc80592f809f7baf0394a3"}, {"type": "electric_scooter", "fusion_lon": 0.0, "bike_id": "cd0762928cb42c64d68b0aacfc5cf9c0", "is_disabled": 0, "lat": 38.892223333333334, "rental_uris": {"ios": "https://dc.lft.to/lastmile_qr_scan", "android": "https://dc.lft.to/lastmile_qr_scan"}, "is_reserved": 0, "lon": -77.04683366666667, "fusion_lat": 0.0, "name": "cd0762928cb42c64d68b0aacfc5cf9c0"}, {"type": "electric_scooter", "fusion_lon": 0.0, "bike_id": "75df0b0e714c0e91a2efabc0acbdf09c", "is_disabled": 0, "lat": 38.88540366666667, "rental_uris": {"ios": "https://dc.lft.to/lastmile_qr_scan", "android": "https://dc.lft.to/lastmile_qr_scan"}, "is_reserved": 0, "lon": -77.01099133333334, "fusion_lat": 0.0, "name": "75df0b0e714c0e91a2efabc0acbdf09c"}, {"type": "electric_scooter", "fusion_lon": 0.0, "bike_id": "8ca8f734abe5a03cbc844d3d8adca996", "is_disabled": 0, "lat": 38.91025166666667, "rental_uris": {"ios": "https://dc.lft.to/lastmile_qr_scan", "android": "https://dc.lft.to/lastmile_qr_scan"}, "is_reserved": 0, "lon": -77.04657783333333, "fusion_lat": 0.0, "name": "8ca8f734abe5a03cbc844d3d8adca996"}, {"type": "electric_scooter", "fusion_lon": 0.0, "bike_id": "280a8fdc92fc35298451b0a8caf787dc", "is_disabled": 0, "lat": 38.8873425, "rental_uris": {"ios": "https://dc.lft.to/lastmile_qr_scan", "android": "https://dc.lft.to/lastmile_qr_scan"}, "is_reserved": 0, "lon": -77.031863, "fusion_lat": 0.0, "name": "280a8fdc92fc35298451b0a8caf787dc"}, {"type": "electric_bike", "fusion_lon": 0.0, "bike_id": "d4714d78033821a0e12c00d110cf3e97", "is_disabled": 0, "lat": 38.90225983333333, "rental_uris": {"ios": "https://dc.lft.to/lastmile_qr_scan", "android": "https://dc.lft.to/lastmile_qr_scan"}, "is_reserved": 0, "lon": -77.04719316666667, "fusion_lat": 0.0, "name": "d4714d78033821a0e12c00d110cf3e97"}, {"type": "electric_scooter", "fusion_lon": 0.0, "bike_id": "6aa7da758f94323042e538a2536112b1", "is_disabled": 0, "lat": 38.907233833333336, "rental_uris": {"ios": "https://dc.lft.to/lastmile_qr_scan", "android": "https://dc.lft.to/lastmile_qr_scan"}, "is_reserved": 0, "lon": -77.02171216666666, "fusion_lat": 0.0, "name": "6aa7da758f94323042e538a2536112b1"}, {"type": "electric_bike", "fusion_lon": 0.0, "bike_id": "1c94a0cfe073f9d0ff0f62f9b422d5ae", "is_disabled": 0, "lat": 38.88162233333333, "rental_uris": {"ios": "https://dc.lft.to/lastmile_qr_scan", "android": "https://dc.lft.to/lastmile_qr_scan"}, "is_reserved": 0, "lon": -77.02609216666667, "fusion_lat": 0.0, "name": "1c94a0cfe073f9d0ff0f62f9b422d5ae"}, {"type": "electric_scooter", "fusion_lon": 0.0, "bike_id": "e1f7451a9e7fd7ac113f6eb6082c4977", "is_disabled": 0, "lat": 38.92708666666667, "rental_uris": {"ios": "https://dc.lft.to/lastmile_qr_scan", "android": "https://dc.lft.to/lastmile_qr_scan"}, "is_reserved": 0, "lon": -77.03758866666666, "fusion_lat": 0.0, "name": "e1f7451a9e7fd7ac113f6eb6082c4977"}, {"type": "electric_scooter", "fusion_lon": 0.0, "bike_id": "ca01247235f1ac2fab44d75469a36850", "is_disabled": 0, "lat": 38.89231183333333, "rental_uris": {"ios": "https://dc.lft.to/lastmile_qr_scan", "android": "https://dc.lft.to/lastmile_qr_scan"}, "is_reserved": 0, "lon": -77.00291133333333, "fusion_lat": 0.0, "name": "ca01247235f1ac2fab44d75469a36850"}, {"type": "electric_scooter", "fusion_lon": 0.0, "bike_id": "920c9760a919835e8548434f57e4ac95", "is_disabled": 0, "lat": 38.92227333333334, "rental_uris": {"ios": "https://dc.lft.to/lastmile_qr_scan", "android": "https://dc.lft.to/lastmile_qr_scan"}, "is_reserved": 0, "lon": -77.04713883333334, "fusion_lat": 0.0, "name": "920c9760a919835e8548434f57e4ac95"}, {"type": "electric_scooter", "fusion_lon": 0.0, "bike_id": "d603cab3b7a84c9f97648116af5f9c4b", "is_disabled": 0, "lat": 38.9041095, "rental_uris": {"ios": "https://dc.lft.to/lastmile_qr_scan", "android": "https://dc.lft.to/lastmile_qr_scan"}, "is_reserved": 0, "lon": -76.9732835, "fusion_lat": 0.0, "name": "d603cab3b7a84c9f97648116af5f9c4b"}, {"type": "electric_scooter", "fusion_lon": 0.0, "bike_id": "94a6fd92c82abd7cac2f4b876d4469bb", "is_disabled": 0, "lat": 38.92260733333333, "rental_uris": {"ios": "https://dc.lft.to/lastmile_qr_scan", "android": "https://dc.lft.to/lastmile_qr_scan"}, "is_reserved": 0, "lon": -77.01819833333333, "fusion_lat": 0.0, "name": "94a6fd92c82abd7cac2f4b876d4469bb"}, {"type": "electric_scooter", "fusion_lon": 0.0, "bike_id": "c309d7fe561f35fda10375fbb5f01873", "is_disabled": 0, "lat": 38.884154833333334, "rental_uris": {"ios": "https://dc.lft.to/lastmile_qr_scan", "android": "https://dc.lft.to/lastmile_qr_scan"}, "is_reserved": 0, "lon": -77.0296115, "fusion_lat": 0.0, "name": "c309d7fe561f35fda10375fbb5f01873"}, {"type": "electric_scooter", "fusion_lon": 0.0, "bike_id": "de77617093eafc49b715916a80b4d8fe", "is_disabled": 0, "lat": 38.889986666666665, "rental_uris": {"ios": "https://dc.lft.to/lastmile_qr_scan", "android": "https://dc.lft.to/lastmile_qr_scan"}, "is_reserved": 0, "lon": -76.95433866666667, "fusion_lat": 0.0, "name": "de77617093eafc49b715916a80b4d8fe"}, {"type": "electric_scooter", "fusion_lon": 0.0, "bike_id": "1df82b8bc5f7cf80273526b739b98080", "is_disabled": 0, "lat": 38.899584, "rental_uris": {"ios": "https://dc.lft.to/lastmile_qr_scan", "android": "https://dc.lft.to/lastmile_qr_scan"}, "is_reserved": 0, "lon": -77.02118466666667, "fusion_lat": 0.0, "name": "1df82b8bc5f7cf80273526b739b98080"}, {"type": "electric_scooter", "fusion_lon": 0.0, "bike_id": "a3ae4db087a166522c2f7bd9bf8786e3", "is_disabled": 0, "lat": 38.89836833333333, "rental_uris": {"ios": "https://dc.lft.to/lastmile_qr_scan", "android": "https://dc.lft.to/lastmile_qr_scan"}, "is_reserved": 0, "lon": -77.05259916666667, "fusion_lat": 0.0, "name": "a3ae4db087a166522c2f7bd9bf8786e3"}, {"type": "electric_scooter", "fusion_lon": 0.0, "bike_id": "f79147cc787040faee1da031a5972058", "is_disabled": 0, "lat": 38.90769783333333, "rental_uris": {"ios": "https://dc.lft.to/lastmile_qr_scan", "android": "https://dc.lft.to/lastmile_qr_scan"}, "is_reserved": 0, "lon": -77.00744933333333, "fusion_lat": 0.0, "name": "f79147cc787040faee1da031a5972058"}, {"type": "electric_scooter", "fusion_lon": 0.0, "bike_id": "a830b3ad1de06a6301a7abc5be57606f", "is_disabled": 0, "lat": 38.90664016666667, "rental_uris": {"ios": "https://dc.lft.to/lastmile_qr_scan", "android": "https://dc.lft.to/lastmile_qr_scan"}, "is_reserved": 0, "lon": -76.979389, "fusion_lat": 0.0, "name": "a830b3ad1de06a6301a7abc5be57606f"}, {"type": "electric_scooter", "fusion_lon": 0.0, "bike_id": "a2c5eb271ddd566cecce900e9d4bb846", "is_disabled": 0, "lat": 38.909712999999996, "rental_uris": {"ios": "https://dc.lft.to/lastmile_qr_scan", "android": "https://dc.lft.to/lastmile_qr_scan"}, "is_reserved": 0, "lon": -77.03863083333333, "fusion_lat": 0.0, "name": "a2c5eb271ddd566cecce900e9d4bb846"}, {"type": "electric_scooter", "fusion_lon": 0.0, "bike_id": "aaa9f1e1b05090c8efed2424d9627f58", "is_disabled": 0, "lat": 38.88201766666667, "rental_uris": {"ios": "https://dc.lft.to/lastmile_qr_scan", "android": "https://dc.lft.to/lastmile_qr_scan"}, "is_reserved": 0, "lon": -77.017735, "fusion_lat": 0.0, "name": "aaa9f1e1b05090c8efed2424d9627f58"}, {"type": "electric_bike", "fusion_lon": 0.0, "bike_id": "2f8e1d7e0a511a61c538e95af525563b", "is_disabled": 0, "lat": 38.835233833333334, "rental_uris": {"ios": "https://dc.lft.to/lastmile_qr_scan", "android": "https://dc.lft.to/lastmile_qr_scan"}, "is_reserved": 0, "lon": -76.9871005, "fusion_lat": 0.0, "name": "2f8e1d7e0a511a61c538e95af525563b"}, {"type": "electric_scooter", "fusion_lon": 0.0, "bike_id": "ce013e723a05b5a7a62a2acd40cc06c7", "is_disabled": 0, "lat": 38.9133375, "rental_uris": {"ios": "https://dc.lft.to/lastmile_qr_scan", "android": "https://dc.lft.to/lastmile_qr_scan"}, "is_reserved": 0, "lon": -77.03320516666666, "fusion_lat": 0.0, "name": "ce013e723a05b5a7a62a2acd40cc06c7"}, {"type": "electric_scooter", "fusion_lon": 0.0, "bike_id": "ee2939e5c6c5f5c4cbe593ae0933e6ea", "is_disabled": 0, "lat": 38.9097745, "rental_uris": {"ios": "https://dc.lft.to/lastmile_qr_scan", "android": "https://dc.lft.to/lastmile_qr_scan"}, "is_reserved": 0, "lon": -77.03837183333333, "fusion_lat": 0.0, "name": "ee2939e5c6c5f5c4cbe593ae0933e6ea"}, {"type": "electric_scooter", "fusion_lon": 0.0, "bike_id": "7583724b43e18883c70a5dd7a1a20cde", "is_disabled": 0, "lat": 38.899171, "rental_uris": {"ios": "https://dc.lft.to/lastmile_qr_scan", "android": "https://dc.lft.to/lastmile_qr_scan"}, "is_reserved": 0, "lon": -77.04206933333333, "fusion_lat": 0.0, "name": "7583724b43e18883c70a5dd7a1a20cde"}, {"type": "electric_scooter", "fusion_lon": 0.0, "bike_id": "eeea63e6f4ff2fbd7c6753f2ce01529c", "is_disabled": 0, "lat": 38.94906983333333, "rental_uris": {"ios": "https://dc.lft.to/lastmile_qr_scan", "android": "https://dc.lft.to/lastmile_qr_scan"}, "is_reserved": 0, "lon": -77.02387716666667, "fusion_lat": 0.0, "name": "eeea63e6f4ff2fbd7c6753f2ce01529c"}, {"type": "electric_scooter", "fusion_lon": 0.0, "bike_id": "6cd7d5ab4f094578848c24b5a3bb88bf", "is_disabled": 0, "lat": 38.923452833333336, "rental_uris": {"ios": "https://dc.lft.to/lastmile_qr_scan", "android": "https://dc.lft.to/lastmile_qr_scan"}, "is_reserved": 0, "lon": -77.0364375, "fusion_lat": 0.0, "name": "6cd7d5ab4f094578848c24b5a3bb88bf"}, {"type": "electric_scooter", "fusion_lon": 0.0, "bike_id": "a42b1b926024925d39bc5b374372eda3", "is_disabled": 0, "lat": 38.91366383333333, "rental_uris": {"ios": "https://dc.lft.to/lastmile_qr_scan", "android": "https://dc.lft.to/lastmile_qr_scan"}, "is_reserved": 0, "lon": -77.0465805, "fusion_lat": 0.0, "name": "a42b1b926024925d39bc5b374372eda3"}, {"type": "electric_bike", "fusion_lon": 0.0, "bike_id": "69030541d584bd145c2359b1bd4f5efb", "is_disabled": 0, "lat": 38.895655, "rental_uris": {"ios": "https://dc.lft.to/lastmile_qr_scan", "android": "https://dc.lft.to/lastmile_qr_scan"}, "is_reserved": 0, "lon": -77.01900933333333, "fusion_lat": 0.0, "name": "69030541d584bd145c2359b1bd4f5efb"}, {"type": "electric_scooter", "fusion_lon": 0.0, "bike_id": "94bac77cd8d975f4bd21846a7830a092", "is_disabled": 0, "lat": 38.92793783333333, "rental_uris": {"ios": "https://dc.lft.to/lastmile_qr_scan", "android": "https://dc.lft.to/lastmile_qr_scan"}, "is_reserved": 0, "lon": -77.054157, "fusion_lat": 0.0, "name": "94bac77cd8d975f4bd21846a7830a092"}, {"type": "electric_scooter", "fusion_lon": 0.0, "bike_id": "52d9e2836a915f4c1ac61d0d02317e46", "is_disabled": 0, "lat": 38.923387166666664, "rental_uris": {"ios": "https://dc.lft.to/lastmile_qr_scan", "android": "https://dc.lft.to/lastmile_qr_scan"}, "is_reserved": 0, "lon": -77.0361125, "fusion_lat": 0.0, "name": "52d9e2836a915f4c1ac61d0d02317e46"}, {"type": "electric_scooter", "fusion_lon": 0.0, "bike_id": "83815e59404a3f88c4d1432f748b12eb", "is_disabled": 0, "lat": 38.87576583333333, "rental_uris": {"ios": "https://dc.lft.to/lastmile_qr_scan", "android": "https://dc.lft.to/lastmile_qr_scan"}, "is_reserved": 0, "lon": -77.00601583333334, "fusion_lat": 0.0, "name": "83815e59404a3f88c4d1432f748b12eb"}, {"type": "electric_scooter", "fusion_lon": 0.0, "bike_id": "c9f0ecaa17619359a080f1ba7a6fd48e", "is_disabled": 0, "lat": 38.90572366666667, "rental_uris": {"ios": "https://dc.lft.to/lastmile_qr_scan", "android": "https://dc.lft.to/lastmile_qr_scan"}, "is_reserved": 0, "lon": -77.0345415, "fusion_lat": 0.0, "name": "c9f0ecaa17619359a080f1ba7a6fd48e"}, {"type": "electric_scooter", "fusion_lon": 0.0, "bike_id": "b407f30b632c9666a7a807738ac675a4", "is_disabled": 0, "lat": 38.892271, "rental_uris": {"ios": "https://dc.lft.to/lastmile_qr_scan", "android": "https://dc.lft.to/lastmile_qr_scan"}, "is_reserved": 0, "lon": -77.04182983333334, "fusion_lat": 0.0, "name": "b407f30b632c9666a7a807738ac675a4"}, {"type": "electric_scooter", "fusion_lon": 0.0, "bike_id": "871431f6104451a6e464c34f013d31d5", "is_disabled": 0, "lat": 38.91014933333334, "rental_uris": {"ios": "https://dc.lft.to/lastmile_qr_scan", "android": "https://dc.lft.to/lastmile_qr_scan"}, "is_reserved": 0, "lon": -77.04455916666667, "fusion_lat": 0.0, "name": "871431f6104451a6e464c34f013d31d5"}, {"type": "electric_scooter", "fusion_lon": 0.0, "bike_id": "8754784896b7989467ca3c3b847289e5", "is_disabled": 0, "lat": 38.863652, "rental_uris": {"ios": "https://dc.lft.to/lastmile_qr_scan", "android": "https://dc.lft.to/lastmile_qr_scan"}, "is_reserved": 0, "lon": -76.99044966666666, "fusion_lat": 0.0, "name": "8754784896b7989467ca3c3b847289e5"}, {"type": "electric_scooter", "fusion_lon": 0.0, "bike_id": "6117ea643c505c87c98b3d15000c64d3", "is_disabled": 0, "lat": 38.8923585, "rental_uris": {"ios": "https://dc.lft.to/lastmile_qr_scan", "android": "https://dc.lft.to/lastmile_qr_scan"}, "is_reserved": 0, "lon": -77.03212483333333, "fusion_lat": 0.0, "name": "6117ea643c505c87c98b3d15000c64d3"}, {"type": "electric_scooter", "fusion_lon": 0.0, "bike_id": "3494cef80bb06a6c46cac8f0fc15e235", "is_disabled": 0, "lat": 38.93330266666667, "rental_uris": {"ios": "https://dc.lft.to/lastmile_qr_scan", "android": "https://dc.lft.to/lastmile_qr_scan"}, "is_reserved": 0, "lon": -77.03809083333333, "fusion_lat": 0.0, "name": "3494cef80bb06a6c46cac8f0fc15e235"}, {"type": "electric_scooter", "fusion_lon": 0.0, "bike_id": "3f430c439d1af6782a76efc13ef27378", "is_disabled": 0, "lat": 38.957313, "rental_uris": {"ios": "https://dc.lft.to/lastmile_qr_scan", "android": "https://dc.lft.to/lastmile_qr_scan"}, "is_reserved": 0, "lon": -77.02403416666667, "fusion_lat": 0.0, "name": "3f430c439d1af6782a76efc13ef27378"}, {"type": "electric_scooter", "fusion_lon": 0.0, "bike_id": "8a166530effaf3acda07b788e4f3ca35", "is_disabled": 0, "lat": 38.91014716666667, "rental_uris": {"ios": "https://dc.lft.to/lastmile_qr_scan", "android": "https://dc.lft.to/lastmile_qr_scan"}, "is_reserved": 0, "lon": -76.9938385, "fusion_lat": 0.0, "name": "8a166530effaf3acda07b788e4f3ca35"}, {"type": "electric_scooter", "fusion_lon": 0.0, "bike_id": "9c998abedeafc09c3fc098bc22b96fbb", "is_disabled": 0, "lat": 38.89896433333333, "rental_uris": {"ios": "https://dc.lft.to/lastmile_qr_scan", "android": "https://dc.lft.to/lastmile_qr_scan"}, "is_reserved": 0, "lon": -77.03979483333333, "fusion_lat": 0.0, "name": "9c998abedeafc09c3fc098bc22b96fbb"}, {"type": "electric_scooter", "fusion_lon": 0.0, "bike_id": "1ff2f690ec98f7812e701778c0b81cbd", "is_disabled": 0, "lat": 38.892208333333336, "rental_uris": {"ios": "https://dc.lft.to/lastmile_qr_scan", "android": "https://dc.lft.to/lastmile_qr_scan"}, "is_reserved": 0, "lon": -77.0221935, "fusion_lat": 0.0, "name": "1ff2f690ec98f7812e701778c0b81cbd"}, {"type": "electric_scooter", "fusion_lon": 0.0, "bike_id": "77aea0175fd500adf23907e83b0aaf43", "is_disabled": 0, "lat": 38.91516983333333, "rental_uris": {"ios": "https://dc.lft.to/lastmile_qr_scan", "android": "https://dc.lft.to/lastmile_qr_scan"}, "is_reserved": 0, "lon": -77.04618833333333, "fusion_lat": 0.0, "name": "77aea0175fd500adf23907e83b0aaf43"}, {"type": "electric_scooter", "fusion_lon": 0.0, "bike_id": "6fa938dd02d1ce0a2bfe691269849ec9", "is_disabled": 0, "lat": 38.899059333333334, "rental_uris": {"ios": "https://dc.lft.to/lastmile_qr_scan", "android": "https://dc.lft.to/lastmile_qr_scan"}, "is_reserved": 0, "lon": -77.04884316666667, "fusion_lat": 0.0, "name": "6fa938dd02d1ce0a2bfe691269849ec9"}, {"type": "electric_scooter", "fusion_lon": 0.0, "bike_id": "bc1ec539afdd6734de64e6c5ee0c49cc", "is_disabled": 0, "lat": 38.90745316666667, "rental_uris": {"ios": "https://dc.lft.to/lastmile_qr_scan", "android": "https://dc.lft.to/lastmile_qr_scan"}, "is_reserved": 0, "lon": -77.0075715, "fusion_lat": 0.0, "name": "bc1ec539afdd6734de64e6c5ee0c49cc"}, {"type": "electric_scooter", "fusion_lon": 0.0, "bike_id": "ba465981df59de0fbd45f13f7f44afdd", "is_disabled": 0, "lat": 38.908837, "rental_uris": {"ios": "https://dc.lft.to/lastmile_qr_scan", "android": "https://dc.lft.to/lastmile_qr_scan"}, "is_reserved": 0, "lon": -77.023147, "fusion_lat": 0.0, "name": "ba465981df59de0fbd45f13f7f44afdd"}, {"type": "electric_bike", "fusion_lon": 0.0, "bike_id": "146ee7685ab0f5c4fb3cc9ff8844e42f", "is_disabled": 0, "lat": 38.93540633333333, "rental_uris": {"ios": "https://dc.lft.to/lastmile_qr_scan", "android": "https://dc.lft.to/lastmile_qr_scan"}, "is_reserved": 0, "lon": -77.07291183333334, "fusion_lat": 0.0, "name": "146ee7685ab0f5c4fb3cc9ff8844e42f"}, {"type": "electric_scooter", "fusion_lon": 0.0, "bike_id": "7cf5d6ac59873df06378b4b7a3d3d572", "is_disabled": 0, "lat": 38.88741533333334, "rental_uris": {"ios": "https://dc.lft.to/lastmile_qr_scan", "android": "https://dc.lft.to/lastmile_qr_scan"}, "is_reserved": 0, "lon": -77.02208916666666, "fusion_lat": 0.0, "name": "7cf5d6ac59873df06378b4b7a3d3d572"}, {"type": "electric_scooter", "fusion_lon": 0.0, "bike_id": "654c1baa6cebdc7e03e59b2a35bd8cf6", "is_disabled": 0, "lat": 38.897348666666666, "rental_uris": {"ios": "https://dc.lft.to/lastmile_qr_scan", "android": "https://dc.lft.to/lastmile_qr_scan"}, "is_reserved": 0, "lon": -77.00752833333334, "fusion_lat": 0.0, "name": "654c1baa6cebdc7e03e59b2a35bd8cf6"}, {"type": "electric_scooter", "fusion_lon": 0.0, "bike_id": "fd01c0670cf3b36a4d84dd4dd1e4fc04", "is_disabled": 0, "lat": 38.9082865, "rental_uris": {"ios": "https://dc.lft.to/lastmile_qr_scan", "android": "https://dc.lft.to/lastmile_qr_scan"}, "is_reserved": 0, "lon": -77.035472, "fusion_lat": 0.0, "name": "fd01c0670cf3b36a4d84dd4dd1e4fc04"}, {"type": "electric_scooter", "fusion_lon": 0.0, "bike_id": "b6c40756ec30e24aae733ba2d7762b68", "is_disabled": 0, "lat": 38.924657333333336, "rental_uris": {"ios": "https://dc.lft.to/lastmile_qr_scan", "android": "https://dc.lft.to/lastmile_qr_scan"}, "is_reserved": 0, "lon": -77.027147, "fusion_lat": 0.0, "name": "b6c40756ec30e24aae733ba2d7762b68"}, {"type": "electric_scooter", "fusion_lon": 0.0, "bike_id": "1c5c7219e0c01eb20ca40f9ddac2b63a", "is_disabled": 0, "lat": 38.86215033333333, "rental_uris": {"ios": "https://dc.lft.to/lastmile_qr_scan", "android": "https://dc.lft.to/lastmile_qr_scan"}, "is_reserved": 0, "lon": -76.99478283333333, "fusion_lat": 0.0, "name": "1c5c7219e0c01eb20ca40f9ddac2b63a"}, {"type": "electric_scooter", "fusion_lon": 0.0, "bike_id": "50b65d562fbfd07de875f455a79609ab", "is_disabled": 0, "lat": 38.892329333333336, "rental_uris": {"ios": "https://dc.lft.to/lastmile_qr_scan", "android": "https://dc.lft.to/lastmile_qr_scan"}, "is_reserved": 0, "lon": -77.0499995, "fusion_lat": 0.0, "name": "50b65d562fbfd07de875f455a79609ab"}, {"type": "electric_scooter", "fusion_lon": 0.0, "bike_id": "b9575b69887b295a9f91222d6a8e8384", "is_disabled": 0, "lat": 38.92861716666667, "rental_uris": {"ios": "https://dc.lft.to/lastmile_qr_scan", "android": "https://dc.lft.to/lastmile_qr_scan"}, "is_reserved": 0, "lon": -77.03740833333333, "fusion_lat": 0.0, "name": "b9575b69887b295a9f91222d6a8e8384"}, {"type": "electric_scooter", "fusion_lon": 0.0, "bike_id": "bf9543eb489033d0b1b5e7117299aa11", "is_disabled": 0, "lat": 38.93532966666667, "rental_uris": {"ios": "https://dc.lft.to/lastmile_qr_scan", "android": "https://dc.lft.to/lastmile_qr_scan"}, "is_reserved": 0, "lon": -77.02855783333334, "fusion_lat": 0.0, "name": "bf9543eb489033d0b1b5e7117299aa11"}, {"type": "electric_scooter", "fusion_lon": 0.0, "bike_id": "598d258b089121a50f1e853c3b1a2285", "is_disabled": 0, "lat": 38.91242916666667, "rental_uris": {"ios": "https://dc.lft.to/lastmile_qr_scan", "android": "https://dc.lft.to/lastmile_qr_scan"}, "is_reserved": 0, "lon": -77.0628035, "fusion_lat": 0.0, "name": "598d258b089121a50f1e853c3b1a2285"}, {"type": "electric_scooter", "fusion_lon": 0.0, "bike_id": "f1734bcc7da5aea544787261176b75d9", "is_disabled": 0, "lat": 38.925783, "rental_uris": {"ios": "https://dc.lft.to/lastmile_qr_scan", "android": "https://dc.lft.to/lastmile_qr_scan"}, "is_reserved": 0, "lon": -77.02606216666666, "fusion_lat": 0.0, "name": "f1734bcc7da5aea544787261176b75d9"}, {"type": "electric_scooter", "fusion_lon": 0.0, "bike_id": "a66c5c5ad5a066f221344705de74f3a1", "is_disabled": 0, "lat": 38.90782683333333, "rental_uris": {"ios": "https://dc.lft.to/lastmile_qr_scan", "android": "https://dc.lft.to/lastmile_qr_scan"}, "is_reserved": 0, "lon": -77.07244916666667, "fusion_lat": 0.0, "name": "a66c5c5ad5a066f221344705de74f3a1"}, {"type": "electric_scooter", "fusion_lon": 0.0, "bike_id": "57798c68eb05b8ec45ebca701f4e13fe", "is_disabled": 0, "lat": 38.9210565, "rental_uris": {"ios": "https://dc.lft.to/lastmile_qr_scan", "android": "https://dc.lft.to/lastmile_qr_scan"}, "is_reserved": 0, "lon": -77.02518, "fusion_lat": 0.0, "name": "57798c68eb05b8ec45ebca701f4e13fe"}, {"type": "electric_scooter", "fusion_lon": 0.0, "bike_id": "3a88cb53a0da7aafb3c6ca261f9a97bc", "is_disabled": 0, "lat": 38.89367516666667, "rental_uris": {"ios": "https://dc.lft.to/lastmile_qr_scan", "android": "https://dc.lft.to/lastmile_qr_scan"}, "is_reserved": 0, "lon": -76.9975525, "fusion_lat": 0.0, "name": "3a88cb53a0da7aafb3c6ca261f9a97bc"}, {"type": "electric_scooter", "fusion_lon": 0.0, "bike_id": "391d147592a4dd45d440d4f85bc96d7a", "is_disabled": 0, "lat": 38.931990666666664, "rental_uris": {"ios": "https://dc.lft.to/lastmile_qr_scan", "android": "https://dc.lft.to/lastmile_qr_scan"}, "is_reserved": 0, "lon": -77.02963733333333, "fusion_lat": 0.0, "name": "391d147592a4dd45d440d4f85bc96d7a"}, {"type": "electric_scooter", "fusion_lon": 0.0, "bike_id": "665df71a605ab5aeb1067fa4a15ef1ab", "is_disabled": 0, "lat": 38.919156666666666, "rental_uris": {"ios": "https://dc.lft.to/lastmile_qr_scan", "android": "https://dc.lft.to/lastmile_qr_scan"}, "is_reserved": 0, "lon": -77.01903333333334, "fusion_lat": 0.0, "name": "665df71a605ab5aeb1067fa4a15ef1ab"}, {"type": "electric_scooter", "fusion_lon": 0.0, "bike_id": "48636c2396b74fcebc6545da11bc2b69", "is_disabled": 0, "lat": 38.926721666666666, "rental_uris": {"ios": "https://dc.lft.to/lastmile_qr_scan", "android": "https://dc.lft.to/lastmile_qr_scan"}, "is_reserved": 0, "lon": -77.02120733333334, "fusion_lat": 0.0, "name": "48636c2396b74fcebc6545da11bc2b69"}, {"type": "electric_scooter", "fusion_lon": 0.0, "bike_id": "7745e2a19f2336cc9749bd22cff8334f", "is_disabled": 0, "lat": 38.88962216666667, "rental_uris": {"ios": "https://dc.lft.to/lastmile_qr_scan", "android": "https://dc.lft.to/lastmile_qr_scan"}, "is_reserved": 0, "lon": -76.98086316666667, "fusion_lat": 0.0, "name": "7745e2a19f2336cc9749bd22cff8334f"}, {"type": "electric_scooter", "fusion_lon": 0.0, "bike_id": "ae1cb83ed329f098ee73b1231d767f40", "is_disabled": 0, "lat": 38.8766405, "rental_uris": {"ios": "https://dc.lft.to/lastmile_qr_scan", "android": "https://dc.lft.to/lastmile_qr_scan"}, "is_reserved": 0, "lon": -77.004623, "fusion_lat": 0.0, "name": "ae1cb83ed329f098ee73b1231d767f40"}, {"type": "electric_scooter", "fusion_lon": 0.0, "bike_id": "c0a0061a0e94d00c6edeaa3ee287d3e1", "is_disabled": 0, "lat": 38.90236783333334, "rental_uris": {"ios": "https://dc.lft.to/lastmile_qr_scan", "android": "https://dc.lft.to/lastmile_qr_scan"}, "is_reserved": 0, "lon": -77.00204833333333, "fusion_lat": 0.0, "name": "c0a0061a0e94d00c6edeaa3ee287d3e1"}, {"type": "electric_scooter", "fusion_lon": 0.0, "bike_id": "32c34d440a27dad09a4def3f4de3e68e", "is_disabled": 0, "lat": 38.9450215, "rental_uris": {"ios": "https://dc.lft.to/lastmile_qr_scan", "android": "https://dc.lft.to/lastmile_qr_scan"}, "is_reserved": 0, "lon": -77.02341433333333, "fusion_lat": 0.0, "name": "32c34d440a27dad09a4def3f4de3e68e"}, {"type": "electric_scooter", "fusion_lon": 0.0, "bike_id": "ad117df8d5bef51d9abde3d6c2fa65f4", "is_disabled": 0, "lat": 38.922393666666665, "rental_uris": {"ios": "https://dc.lft.to/lastmile_qr_scan", "android": "https://dc.lft.to/lastmile_qr_scan"}, "is_reserved": 0, "lon": -77.04485383333333, "fusion_lat": 0.0, "name": "ad117df8d5bef51d9abde3d6c2fa65f4"}, {"type": "electric_scooter", "fusion_lon": 0.0, "bike_id": "b17fec61a8fd1f1b3092b2f2f8ee4269", "is_disabled": 0, "lat": 38.90530866666667, "rental_uris": {"ios": "https://dc.lft.to/lastmile_qr_scan", "android": "https://dc.lft.to/lastmile_qr_scan"}, "is_reserved": 0, "lon": -77.04755666666667, "fusion_lat": 0.0, "name": "b17fec61a8fd1f1b3092b2f2f8ee4269"}, {"type": "electric_scooter", "fusion_lon": 0.0, "bike_id": "94f4fd1593001734efc56bac61764eae", "is_disabled": 0, "lat": 38.9055275, "rental_uris": {"ios": "https://dc.lft.to/lastmile_qr_scan", "android": "https://dc.lft.to/lastmile_qr_scan"}, "is_reserved": 0, "lon": -77.04660916666667, "fusion_lat": 0.0, "name": "94f4fd1593001734efc56bac61764eae"}, {"type": "electric_scooter", "fusion_lon": 0.0, "bike_id": "feff8eb1c6a6e871b2f2f1a59c27dfb4", "is_disabled": 0, "lat": 38.907713, "rental_uris": {"ios": "https://dc.lft.to/lastmile_qr_scan", "android": "https://dc.lft.to/lastmile_qr_scan"}, "is_reserved": 0, "lon": -77.03765883333334, "fusion_lat": 0.0, "name": "feff8eb1c6a6e871b2f2f1a59c27dfb4"}, {"type": "electric_scooter", "fusion_lon": 0.0, "bike_id": "c9fec588299909638f226baaa615bb87", "is_disabled": 0, "lat": 38.924342333333335, "rental_uris": {"ios": "https://dc.lft.to/lastmile_qr_scan", "android": "https://dc.lft.to/lastmile_qr_scan"}, "is_reserved": 0, "lon": -77.04242283333333, "fusion_lat": 0.0, "name": "c9fec588299909638f226baaa615bb87"}, {"type": "electric_scooter", "fusion_lon": 0.0, "bike_id": "fc442bafd8765872c337d2eefcc16916", "is_disabled": 0, "lat": 38.8928145, "rental_uris": {"ios": "https://dc.lft.to/lastmile_qr_scan", "android": "https://dc.lft.to/lastmile_qr_scan"}, "is_reserved": 0, "lon": -77.0467535, "fusion_lat": 0.0, "name": "fc442bafd8765872c337d2eefcc16916"}, {"type": "electric_scooter", "fusion_lon": 0.0, "bike_id": "9e9343710cbf5dad5afc4d40bea3a661", "is_disabled": 0, "lat": 38.90283783333334, "rental_uris": {"ios": "https://dc.lft.to/lastmile_qr_scan", "android": "https://dc.lft.to/lastmile_qr_scan"}, "is_reserved": 0, "lon": -77.03835833333333, "fusion_lat": 0.0, "name": "9e9343710cbf5dad5afc4d40bea3a661"}, {"type": "electric_bike", "fusion_lon": 0.0, "bike_id": "67f91b5359498c32448631f0d203d1d9", "is_disabled": 0, "lat": 38.8812645, "rental_uris": {"ios": "https://dc.lft.to/lastmile_qr_scan", "android": "https://dc.lft.to/lastmile_qr_scan"}, "is_reserved": 0, "lon": -77.01643966666667, "fusion_lat": 0.0, "name": "67f91b5359498c32448631f0d203d1d9"}, {"type": "electric_bike", "fusion_lon": 0.0, "bike_id": "7e2893d17c0fc925ee968c3814efa881", "is_disabled": 0, "lat": 38.944075, "rental_uris": {"ios": "https://dc.lft.to/lastmile_qr_scan", "android": "https://dc.lft.to/lastmile_qr_scan"}, "is_reserved": 0, "lon": -77.0551605, "fusion_lat": 0.0, "name": "7e2893d17c0fc925ee968c3814efa881"}, {"type": "electric_scooter", "fusion_lon": 0.0, "bike_id": "9b83c5f824ceac4f4553ae1a85c4c61b", "is_disabled": 0, "lat": 38.9116615, "rental_uris": {"ios": "https://dc.lft.to/lastmile_qr_scan", "android": "https://dc.lft.to/lastmile_qr_scan"}, "is_reserved": 0, "lon": -77.01622033333334, "fusion_lat": 0.0, "name": "9b83c5f824ceac4f4553ae1a85c4c61b"}, {"type": "electric_scooter", "fusion_lon": 0.0, "bike_id": "3f2ecf13e9837c772d25f9a95d4670d8", "is_disabled": 0, "lat": 38.919240333333335, "rental_uris": {"ios": "https://dc.lft.to/lastmile_qr_scan", "android": "https://dc.lft.to/lastmile_qr_scan"}, "is_reserved": 0, "lon": -77.07938483333334, "fusion_lat": 0.0, "name": "3f2ecf13e9837c772d25f9a95d4670d8"}, {"type": "electric_scooter", "fusion_lon": 0.0, "bike_id": "54e95684556f1fa3ca779e4e4a249659", "is_disabled": 0, "lat": 38.884854, "rental_uris": {"ios": "https://dc.lft.to/lastmile_qr_scan", "android": "https://dc.lft.to/lastmile_qr_scan"}, "is_reserved": 0, "lon": -77.0347595, "fusion_lat": 0.0, "name": "54e95684556f1fa3ca779e4e4a249659"}, {"type": "electric_scooter", "fusion_lon": 0.0, "bike_id": "8a3d26e89fc905ad0f90b93496d93721", "is_disabled": 0, "lat": 38.9223585, "rental_uris": {"ios": "https://dc.lft.to/lastmile_qr_scan", "android": "https://dc.lft.to/lastmile_qr_scan"}, "is_reserved": 0, "lon": -77.018234, "fusion_lat": 0.0, "name": "8a3d26e89fc905ad0f90b93496d93721"}, {"type": "electric_scooter", "fusion_lon": 0.0, "bike_id": "cbc24861204293cb9898690b21977ba6", "is_disabled": 0, "lat": 38.93324833333333, "rental_uris": {"ios": "https://dc.lft.to/lastmile_qr_scan", "android": "https://dc.lft.to/lastmile_qr_scan"}, "is_reserved": 0, "lon": -77.02923283333334, "fusion_lat": 0.0, "name": "cbc24861204293cb9898690b21977ba6"}, {"type": "electric_scooter", "fusion_lon": 0.0, "bike_id": "82dcf15ca186ed918f2f109b39ff8205", "is_disabled": 0, "lat": 38.923002, "rental_uris": {"ios": "https://dc.lft.to/lastmile_qr_scan", "android": "https://dc.lft.to/lastmile_qr_scan"}, "is_reserved": 0, "lon": -77.02321616666667, "fusion_lat": 0.0, "name": "82dcf15ca186ed918f2f109b39ff8205"}, {"type": "electric_scooter", "fusion_lon": 0.0, "bike_id": "92039676b93dff83ee5a637ba3c4ff5b", "is_disabled": 0, "lat": 38.8766285, "rental_uris": {"ios": "https://dc.lft.to/lastmile_qr_scan", "android": "https://dc.lft.to/lastmile_qr_scan"}, "is_reserved": 0, "lon": -77.00296133333333, "fusion_lat": 0.0, "name": "92039676b93dff83ee5a637ba3c4ff5b"}, {"type": "electric_scooter", "fusion_lon": 0.0, "bike_id": "ebc590a9efe4f7f25044bbd552f26db0", "is_disabled": 0, "lat": 38.914241833333335, "rental_uris": {"ios": "https://dc.lft.to/lastmile_qr_scan", "android": "https://dc.lft.to/lastmile_qr_scan"}, "is_reserved": 0, "lon": -77.04581183333333, "fusion_lat": 0.0, "name": "ebc590a9efe4f7f25044bbd552f26db0"}, {"type": "electric_scooter", "fusion_lon": 0.0, "bike_id": "f8cdb1f41119304e1bb0808744ccdc57", "is_disabled": 0, "lat": 38.89981316666667, "rental_uris": {"ios": "https://dc.lft.to/lastmile_qr_scan", "android": "https://dc.lft.to/lastmile_qr_scan"}, "is_reserved": 0, "lon": -77.02198666666666, "fusion_lat": 0.0, "name": "f8cdb1f41119304e1bb0808744ccdc57"}, {"type": "electric_scooter", "fusion_lon": 0.0, "bike_id": "b2e686fb68c04539fe17a9e9ef3876a1", "is_disabled": 0, "lat": 38.918339, "rental_uris": {"ios": "https://dc.lft.to/lastmile_qr_scan", "android": "https://dc.lft.to/lastmile_qr_scan"}, "is_reserved": 0, "lon": -77.03178166666666, "fusion_lat": 0.0, "name": "b2e686fb68c04539fe17a9e9ef3876a1"}, {"type": "electric_scooter", "fusion_lon": 0.0, "bike_id": "c6abf72e7c117745a0515f3a8305895a", "is_disabled": 0, "lat": 38.897308833333334, "rental_uris": {"ios": "https://dc.lft.to/lastmile_qr_scan", "android": "https://dc.lft.to/lastmile_qr_scan"}, "is_reserved": 0, "lon": -77.009179, "fusion_lat": 0.0, "name": "c6abf72e7c117745a0515f3a8305895a"},