{"data": {"bikes": [{"is_reserved": 0, "type": "electric_scooter", "bike_id": "8de9d7616b067deeac8fd60ffe2a4859", "lat": 38.904968833333335, "lon": -77.02944783333334, "rental_uris": {"android": "https://dc.lft.to/lastmile_qr_scan", "ios": "https://dc.lft.to/lastmile_qr_scan"}, "is_disabled": 0, "fusion_lat": 0.0, "name": "8de9d7616b067deeac8fd60ffe2a4859", "fusion_lon": 0.0}, {"is_reserved": 0, "type": "electric_scooter", "bike_id": "e596452ef966a20ff1a97ccf350a8155", "lat": 38.92214466666667, "lon": -77.02033766666666, "rental_uris": {"android": "https://dc.lft.to/lastmile_qr_scan", "ios": "https://dc.lft.to/lastmile_qr_scan"}, "is_disabled": 0, "fusion_lat": 0.0, "name": "e596452ef966a20ff1a97ccf350a8155", "fusion_lon": 0.0}, {"is_reserved": 0, "type": "electric_scooter", "bike_id": "bf31a99af1ecfdfce6c62531ba0ea8ec", "lat": 38.910196, "lon": -76.9937415, "rental_uris": {"android": "https://dc.lft.to/lastmile_qr_scan", "ios": "https://dc.lft.to/lastmile_qr_scan"}, "is_disabled": 0, "fusion_lat": 0.0, "name": "bf31a99af1ecfdfce6c62531ba0ea8ec", "fusion_lon": 0.0}, {"is_reserved": 0, "type": "electric_scooter", "bike_id": "3110d726e1cb43bc9b8980c3393b55f1", "lat": 38.897215833333334, "lon": -77.008026, "rental_uris": {"android": "https://dc.lft.to/lastmile_qr_scan", "ios": "https://dc.lft.to/lastmile_qr_scan"}, "is_disabled": 0, "fusion_lat": 0.0, "name": "3110d726e1cb43bc9b8980c3393b55f1", "fusion_lon": 0.0}, {"is_reserved": 0, "type": "electric_scooter", "bike_id": "1378388f694237f6062566fca2da4f01", "lat": 38.90626666666667, "lon": -77.00888833333333, "rental_uris": {"android": "https://dc.lft.to/lastmile_qr_scan", "ios": "https://dc.lft.to/lastmile_qr_scan"}, "is_disabled": 0, "fusion_lat": 0.0, "name": "1378388f694237f6062566fca2da4f01", "fusion_lon": 0.0}, {"is_reserved": 0, "type": "electric_scooter", "bike_id": "528b23bed6a817b4b0e56e326cce8ef0", "lat": 38.9047945, "lon": -77.0070675, "rental_uris": {"android": "https://dc.lft.to/lastmile_qr_scan", "ios": "https://dc.lft.to/lastmile_qr_scan"}, "is_disabled": 0, "fusion_lat": 0.0, "name": "528b23bed6a817b4b0e56e326cce8ef0", "fusion_lon": 0.0}, {"is_reserved": 0, "type": "electric_scooter", "bike_id": "9906b2aada1628f414236ee1befcc207", "lat": 38.90066133333333, "lon": -77.053025, "rental_uris": {"android": "https://dc.lft.to/lastmile_qr_scan", "ios": "https://dc.lft.to/lastmile_qr_scan"}, "is_disabled": 0, "fusion_lat": 0.0, "name": "9906b2aada1628f414236ee1befcc207", "fusion_lon": 0.0}, {"is_reserved": 0, "type": "electric_scooter", "bike_id": "5181bb1f7f291c24d733a0c2e483e948", "lat": 38.892241166666665, "lon": -77.03116583333333, "rental_uris": {"android": "https://dc.lft.to/lastmile_qr_scan", "ios": "https://dc.lft.to/lastmile_qr_scan"}, "is_disabled": 0, "fusion_lat": 0.0, "name": "5181bb1f7f291c24d733a0c2e483e948", "fusion_lon": 0.0}, {"is_reserved": 0, "type": "electric_bike", "bike_id": "d6f991d77600ade8f169f5c8d5b38df3", "lat": 38.89397533333333, "lon": -76.86855583333333, "rental_uris": {"android": "https://dc.lft.to/lastmile_qr_scan", "ios": "https://dc.lft.to/lastmile_qr_scan"}, "is_disabled": 0, "fusion_lat": 0.0, "name": "d6f991d77600ade8f169f5c8d5b38df3", "fusion_lon": 0.0}, {"is_reserved": 0, "type": "electric_scooter", "bike_id": "f5fbd51d8749dd225865e4c66818f80c", "lat": 38.92337883333333, "lon": -77.00892883333333, "rental_uris": {"android": "https://dc.lft.to/lastmile_qr_scan", "ios": "https://dc.lft.to/lastmile_qr_scan"}, "is_disabled": 0, "fusion_lat": 0.0, "name": "f5fbd51d8749dd225865e4c66818f80c", "fusion_lon": 0.0}, {"is_reserved": 0, "type": "electric_scooter", "bike_id": "1c1c4e113a4030b2ac2c096ef7ceefa6", "lat": 38.91847383333333, "lon": -77.041144, "rental_uris": {"android": "https://dc.lft.to/lastmile_qr_scan", "ios": "https://dc.lft.to/lastmile_qr_scan"}, "is_disabled": 0, "fusion_lat": 0.0, "name": "1c1c4e113a4030b2ac2c096ef7ceefa6", "fusion_lon": 0.0}, {"is_reserved": 0, "type": "electric_scooter", "bike_id": "8e551783e1f5872430c026f5dbb27447", "lat": 38.90544966666667, "lon": -77.041632, "rental_uris": {"android": "https://dc.lft.to/lastmile_qr_scan", "ios": "https://dc.lft.to/lastmile_qr_scan"}, "is_disabled": 0, "fusion_lat": 0.0, "name": "8e551783e1f5872430c026f5dbb27447", "fusion_lon": 0.0}, {"is_reserved": 0, "type": "electric_scooter", "bike_id": "ed54511adfd0308a265173d3a9374797", "lat": 38.916975, "lon": -77.026026, "rental_uris": {"android": "https://dc.lft.to/lastmile_qr_scan", "ios": "https://dc.lft.to/lastmile_qr_scan"}, "is_disabled": 0, "fusion_lat": 0.0, "name": "ed54511adfd0308a265173d3a9374797", "fusion_lon": 0.0}, {"is_reserved": 0, "type": "electric_scooter", "bike_id": "358b8b45c353a69cbab21f1468e608e8", "lat": 38.903798333333334, "lon": -77.032089, "rental_uris": {"android": "https://dc.lft.to/lastmile_qr_scan", "ios": "https://dc.lft.to/lastmile_qr_scan"}, "is_disabled": 0, "fusion_lat": 0.0, "name": "358b8b45c353a69cbab21f1468e608e8", "fusion_lon": 0.0}, {"is_reserved": 0, "type": "electric_scooter", "bike_id": "27bc220c8482284f484022f7b8070c17", "lat": 38.8919065, "lon": -77.021789, "rental_uris": {"android": "https://dc.lft.to/lastmile_qr_scan", "ios": "https://dc.lft.to/lastmile_qr_scan"}, "is_disabled": 0, "fusion_lat": 0.0, "name": "27bc220c8482284f484022f7b8070c17", "fusion_lon": 0.0}, {"is_reserved": 0, "type": "electric_scooter", "bike_id": "5472aff79e0dd940e77e8f659f892930", "lat": 38.89221283333333, "lon": -77.02626966666666, "rental_uris": {"android": "https://dc.lft.to/lastmile_qr_scan", "ios": "https://dc.lft.to/lastmile_qr_scan"}, "is_disabled": 0, "fusion_lat": 0.0, "name": "5472aff79e0dd940e77e8f659f892930", "fusion_lon": 0.0}, {"is_reserved": 0, "type": "electric_scooter", "bike_id": "6ff49b438de080a696921eb5584dc379", "lat": 38.88733, "lon": -76.98382116666667, "rental_uris": {"android": "https://dc.lft.to/lastmile_qr_scan", "ios": "https://dc.lft.to/lastmile_qr_scan"}, "is_disabled": 0, "fusion_lat": 0.0, "name": "6ff49b438de080a696921eb5584dc379", "fusion_lon": 0.0}, {"is_reserved": 0, "type": "electric_scooter", "bike_id": "150e224cef1afea49e9499fc9a099d0f", "lat": 38.90566533333333, "lon": -77.0307325, "rental_uris": {"android": "https://dc.lft.to/lastmile_qr_scan", "ios": "https://dc.lft.to/lastmile_qr_scan"}, "is_disabled": 0, "fusion_lat": 0.0, "name": "150e224cef1afea49e9499fc9a099d0f", "fusion_lon": 0.0}, {"is_reserved": 0, "type": "electric_scooter", "bike_id": "00e5e748304397ab954fbd4e28c965c7", "lat": 38.9092975, "lon": -77.032088, "rental_uris": {"android": "https://dc.lft.to/lastmile_qr_scan", "ios": "https://dc.lft.to/lastmile_qr_scan"}, "is_disabled": 0, "fusion_lat": 0.0, "name": "00e5e748304397ab954fbd4e28c965c7", "fusion_lon": 0.0}, {"is_reserved": 0, "type": "electric_scooter", "bike_id": "91e19dbf73f66d76426ac48aa99514fc", "lat": 38.903989833333334, "lon": -77.062994, "rental_uris": {"android": "https://dc.lft.to/lastmile_qr_scan", "ios": "https://dc.lft.to/lastmile_qr_scan"}, "is_disabled": 0, "fusion_lat": 0.0, "name": "91e19dbf73f66d76426ac48aa99514fc", "fusion_lon": 0.0}, {"is_reserved": 0, "type": "electric_scooter", "bike_id": "90168cf66cdaa59e299fd4bcfa84ad4a", "lat": 38.905535666666665, "lon": -77.00924433333333, "rental_uris": {"android": "https://dc.lft.to/lastmile_qr_scan", "ios": "https://dc.lft.to/lastmile_qr_scan"}, "is_disabled": 0, "fusion_lat": 0.0, "name": "90168cf66cdaa59e299fd4bcfa84ad4a", "fusion_lon": 0.0}, {"is_reserved": 0, "type": "electric_scooter", "bike_id": "78ec1b607eaaa7987ce5cc28d5122309", "lat": 38.920527166666666, "lon": -77.03393983333333, "rental_uris": {"android": "https://dc.lft.to/lastmile_qr_scan", "ios": "https://dc.lft.to/lastmile_qr_scan"}, "is_disabled": 0, "fusion_lat": 0.0, "name": "78ec1b607eaaa7987ce5cc28d5122309", "fusion_lon": 0.0}, {"is_reserved": 0, "type": "electric_scooter", "bike_id": "66ab3bf0a62e4221056578ad9f92c57c", "lat": 38.892487, "lon": -77.01357, "rental_uris": {"android": "https://dc.lft.to/lastmile_qr_scan", "ios": "https://dc.lft.to/lastmile_qr_scan"}, "is_disabled": 0, "fusion_lat": 0.0, "name": "66ab3bf0a62e4221056578ad9f92c57c", "fusion_lon": 0.0}, {"is_reserved": 0, "type": "electric_bike", "bike_id": "8384ec9120ad9ffc4c606fe912fef4ee", "lat": 38.929161, "lon": -77.09742116666666, "rental_uris": {"android": "https://dc.lft.to/lastmile_qr_scan", "ios": "https://dc.lft.to/lastmile_qr_scan"}, "is_disabled": 0, "fusion_lat": 0.0, "name": "8384ec9120ad9ffc4c606fe912fef4ee", "fusion_lon": 0.0}, {"is_reserved": 0, "type": "electric_scooter", "bike_id": "cfc6a6a8f1e242435ebd68e4b599a3b2", "lat": 38.892264, "lon": -77.03116316666667, "rental_uris": {"android": "https://dc.lft.to/lastmile_qr_scan", "ios": "https://dc.lft.to/lastmile_qr_scan"}, "is_disabled": 0, "fusion_lat": 0.0, "name": "cfc6a6a8f1e242435ebd68e4b599a3b2", "fusion_lon": 0.0}, {"is_reserved": 0, "type": "electric_bike", "bike_id": "dfa0cd8f1cf6beb7281a29aeef7ee66e", "lat": 38.8361555, "lon": -77.003856, "rental_uris": {"android": "https://dc.lft.to/lastmile_qr_scan", "ios": "https://dc.lft.to/lastmile_qr_scan"}, "is_disabled": 0, "fusion_lat": 0.0, "name": "dfa0cd8f1cf6beb7281a29aeef7ee66e", "fusion_lon": 0.0}, {"is_reserved": 0, "type": "electric_scooter", "bike_id": "d70ff7743b57efb82fe9306890dc6993", "lat": 38.92820666666667, "lon": -77.062251, "rental_uris": {"android": "https://dc.lft.to/lastmile_qr_scan", "ios": "https://dc.lft.to/lastmile_qr_scan"}, "is_disabled": 0, "fusion_lat": 0.0, "name": "d70ff7743b57efb82fe9306890dc6993", "fusion_lon": 0.0}, {"is_reserved": 0, "type": "electric_scooter", "bike_id": "113d03422af3b2aedc0244535dbd6051", "lat": 38.887330166666665, "lon": -77.02212566666667, "rental_uris": {"android": "https://dc.lft.to/lastmile_qr_scan", "ios": "https://dc.lft.to/lastmile_qr_scan"}, "is_disabled": 0, "fusion_lat": 0.0, "name": "113d03422af3b2aedc0244535dbd6051", "fusion_lon": 0.0}, {"is_reserved": 0, "type": "electric_scooter", "bike_id": "f8384acff97d1e95cd054e0b92fb8f9a", "lat": 38.935950166666665, "lon": -77.03372366666666, "rental_uris": {"android": "https://dc.lft.to/lastmile_qr_scan", "ios": "https://dc.lft.to/lastmile_qr_scan"}, "is_disabled": 0, "fusion_lat": 0.0, "name": "f8384acff97d1e95cd054e0b92fb8f9a", "fusion_lon": 0.0}, {"is_reserved": 0, "type": "electric_scooter", "bike_id": "d64fabdc6e02af059c4ae1461e01b157", "lat": 38.914152, "lon": -77.028316, "rental_uris": {"android": "https://dc.lft.to/lastmile_qr_scan", "ios": "https://dc.lft.to/lastmile_qr_scan"}, "is_disabled": 0, "fusion_lat": 0.0, "name": "d64fabdc6e02af059c4ae1461e01b157", "fusion_lon": 0.0}, {"is_reserved": 0, "type": "electric_scooter", "bike_id": "ceeea5070b9c9528dd21548ca0d0a382", "lat": 38.903699333333336, "lon": -77.02207366666667, "rental_uris": {"android": "https://dc.lft.to/lastmile_qr_scan", "ios": "https://dc.lft.to/lastmile_qr_scan"}, "is_disabled": 0, "fusion_lat": 0.0, "name": "ceeea5070b9c9528dd21548ca0d0a382", "fusion_lon": 0.0}, {"is_reserved": 0, "type": "electric_scooter", "bike_id": "84e9377e8e5cf1ff4bd764d2b82413b4", "lat": 38.9192545, "lon": -77.07272633333334, "rental_uris": {"android": "https://dc.lft.to/lastmile_qr_scan", "ios": "https://dc.lft.to/lastmile_qr_scan"}, "is_disabled": 0, "fusion_lat": 0.0, "name": "84e9377e8e5cf1ff4bd764d2b82413b4", "fusion_lon": 0.0}, {"is_reserved": 0, "type": "electric_scooter", "bike_id": "f18da84c0be79468d357f83b1be81931", "lat": 38.8930015, "lon": -77.01232833333333, "rental_uris": {"android": "https://dc.lft.to/lastmile_qr_scan", "ios": "https://dc.lft.to/lastmile_qr_scan"}, "is_disabled": 0, "fusion_lat": 0.0, "name": "f18da84c0be79468d357f83b1be81931", "fusion_lon": 0.0}, {"is_reserved": 0, "type": "electric_bike", "bike_id": "0109cb7bf8277cec7e85ba2648a8973b", "lat": 38.97318533333333, "lon": -76.99489633333333, "rental_uris": {"android": "https://dc.lft.to/lastmile_qr_scan", "ios": "https://dc.lft.to/lastmile_qr_scan"}, "is_disabled": 0, "fusion_lat": 0.0, "name": "0109cb7bf8277cec7e85ba2648a8973b", "fusion_lon": 0.0}, {"is_reserved": 0, "type": "electric_scooter", "bike_id": "a37291d51d597531ca72f9a824ab9887", "lat": 38.89907733333333, "lon": -76.98003666666666, "rental_uris": {"android": "https://dc.lft.to/lastmile_qr_scan", "ios": "https://dc.lft.to/lastmile_qr_scan"}, "is_disabled": 0, "fusion_lat": 0.0, "name": "a37291d51d597531ca72f9a824ab9887", "fusion_lon": 0.0}, {"is_reserved": 0, "type": "electric_scooter", "bike_id": "e9c473d30539b40cf3723706f139a7ef", "lat": 38.914817166666666, "lon": -77.03183116666666, "rental_uris": {"android": "https://dc.lft.to/lastmile_qr_scan", "ios": "https://dc.lft.to/lastmile_qr_scan"}, "is_disabled": 0, "fusion_lat": 0.0, "name": "e9c473d30539b40cf3723706f139a7ef", "fusion_lon": 0.0}, {"is_reserved": 0, "type": "electric_scooter", "bike_id": "85116a0a9934aea0ef176cd3c6a9652f", "lat": 38.900712166666665, "lon": -76.92745466666666, "rental_uris": {"android": "https://dc.lft.to/lastmile_qr_scan", "ios": "https://dc.lft.to/lastmile_qr_scan"}, "is_disabled": 0, "fusion_lat": 0.0, "name": "85116a0a9934aea0ef176cd3c6a9652f", "fusion_lon": 0.0}, {"is_reserved": 0, "type": "electric_scooter", "bike_id": "0a58226378b92a6019c095f35264a89e", "lat": 38.91487083333333, "lon": -77.00221866666666, "rental_uris": {"android": "https://dc.lft.to/lastmile_qr_scan", "ios": "https://dc.lft.to/lastmile_qr_scan"}, "is_disabled": 0, "fusion_lat": 0.0, "name": "0a58226378b92a6019c095f35264a89e", "fusion_lon": 0.0}, {"is_reserved": 0, "type": "electric_scooter", "bike_id": "438e3107575956b653127622470b0451", "lat": 38.88726716666667, "lon": -76.98361366666667, "rental_uris": {"android": "https://dc.lft.to/lastmile_qr_scan", "ios": "https://dc.lft.to/lastmile_qr_scan"}, "is_disabled": 0, "fusion_lat": 0.0, "name": "438e3107575956b653127622470b0451", "fusion_lon": 0.0}, {"is_reserved": 0, "type": "electric_scooter", "bike_id": "96a114743e985e0def04e8c850f335ed", "lat": 38.942471166666664, "lon": -77.03585383333333, "rental_uris": {"android": "https://dc.lft.to/lastmile_qr_scan", "ios": "https://dc.lft.to/lastmile_qr_scan"}, "is_disabled": 0, "fusion_lat": 0.0, "name": "96a114743e985e0def04e8c850f335ed", "fusion_lon": 0.0}, {"is_reserved": 0, "type": "electric_scooter", "bike_id": "ba5616eca165698471da1cd84dd526a8", "lat": 38.933369166666665, "lon": -77.02398766666667, "rental_uris": {"android": "https://dc.lft.to/lastmile_qr_scan", "ios": "https://dc.lft.to/lastmile_qr_scan"}, "is_disabled": 0, "fusion_lat": 0.0, "name": "ba5616eca165698471da1cd84dd526a8", "fusion_lon": 0.0}, {"is_reserved": 0, "type": "electric_scooter", "bike_id": "0acef4f7d94973093a0a45c3d78ae101", "lat": 38.9388445, "lon": -77.03285816666667, "rental_uris": {"android": "https://dc.lft.to/lastmile_qr_scan", "ios": "https://dc.lft.to/lastmile_qr_scan"}, "is_disabled": 0, "fusion_lat": 0.0, "name": "0acef4f7d94973093a0a45c3d78ae101", "fusion_lon": 0.0}, {"is_reserved": 0, "type": "electric_scooter", "bike_id": "87b7a4d07210b340991bc35b15e45c90", "lat": 38.918076166666665, "lon": -77.00985233333333, "rental_uris": {"android": "https://dc.lft.to/lastmile_qr_scan", "ios": "https://dc.lft.to/lastmile_qr_scan"}, "is_disabled": 0, "fusion_lat": 0.0, "name": "87b7a4d07210b340991bc35b15e45c90", "fusion_lon": 0.0}, {"is_reserved": 0, "type": "electric_scooter", "bike_id": "5a9edde72a57ff2cfcf50e32ba742088", "lat": 38.892231, "lon": -77.01556916666667, "rental_uris": {"android": "https://dc.lft.to/lastmile_qr_scan", "ios": "https://dc.lft.to/lastmile_qr_scan"}, "is_disabled": 0, "fusion_lat": 0.0, "name": "5a9edde72a57ff2cfcf50e32ba742088", "fusion_lon": 0.0}, {"is_reserved": 0, "type": "electric_scooter", "bike_id": "7b88a092a06e20b1e5fee75daff546ec", "lat": 38.910056166666664, "lon": -77.0401135, "rental_uris": {"android": "https://dc.lft.to/lastmile_qr_scan", "ios": "https://dc.lft.to/lastmile_qr_scan"}, "is_disabled": 0, "fusion_lat": 0.0, "name": "7b88a092a06e20b1e5fee75daff546ec", "fusion_lon": 0.0}, {"is_reserved": 0, "type": "electric_scooter", "bike_id": "5b8b313e9c4136ed06d8c6bcbb06d606", "lat": 38.8781295, "lon": -76.99488683333334, "rental_uris": {"android": "https://dc.lft.to/lastmile_qr_scan", "ios": "https://dc.lft.to/lastmile_qr_scan"}, "is_disabled": 0, "fusion_lat": 0.0, "name": "5b8b313e9c4136ed06d8c6bcbb06d606", "fusion_lon": 0.0}, {"is_reserved": 0, "type": "electric_bike", "bike_id": "2b3717de58c7aa0ffcc65fc1d9edf8a9", "lat": 38.863723, "lon": -76.9701565, "rental_uris": {"android": "https://dc.lft.to/lastmile_qr_scan", "ios": "https://dc.lft.to/lastmile_qr_scan"}, "is_disabled": 0, "fusion_lat": 0.0, "name": "2b3717de58c7aa0ffcc65fc1d9edf8a9", "fusion_lon": 0.0}, {"is_reserved": 0, "type": "electric_scooter", "bike_id": "2ec4dfa13dc55e85b508a37881df6937", "lat": 38.89886816666667, "lon": -76.931787, "rental_uris": {"android": "https://dc.lft.to/lastmile_qr_scan", "ios": "https://dc.lft.to/lastmile_qr_scan"}, "is_disabled": 0, "fusion_lat": 0.0, "name": "2ec4dfa13dc55e85b508a37881df6937", "fusion_lon": 0.0}, {"is_reserved": 0, "type": "electric_scooter", "bike_id": "746cd997df1c5c709f35a1d6ce2860a2", "lat": 38.905427333333336, "lon": -77.00202516666667, "rental_uris": {"android": "https://dc.lft.to/lastmile_qr_scan", "ios": "https://dc.lft.to/lastmile_qr_scan"}, "is_disabled": 0, "fusion_lat": 0.0, "name": "746cd997df1c5c709f35a1d6ce2860a2", "fusion_lon": 0.0}, {"is_reserved": 0, "type": "electric_scooter", "bike_id": "d40826ce72b6bdd6eed666b1d253a4f7", "lat": 38.896077166666664, "lon": -77.044123, "rental_uris": {"android": "https://dc.lft.to/lastmile_qr_scan", "ios": "https://dc.lft.to/lastmile_qr_scan"}, "is_disabled": 0, "fusion_lat": 0.0, "name": "d40826ce72b6bdd6eed666b1d253a4f7", "fusion_lon": 0.0}, {"is_reserved": 0, "type": "electric_scooter", "bike_id": "3201acb6fed9c7f1f077d1674b7db472", "lat": 38.90643133333333, "lon": -77.0466335, "rental_uris": {"android": "https://dc.lft.to/lastmile_qr_scan", "ios": "https://dc.lft.to/lastmile_qr_scan"}, "is_disabled": 0, "fusion_lat": 0.0, "name": "3201acb6fed9c7f1f077d1674b7db472", "fusion_lon": 0.0}, {"is_reserved": 0, "type": "electric_scooter", "bike_id": "d224967d259fe5ec06fee26049cdbc4b", "lat": 38.9310105, "lon": -77.02411466666666, "rental_uris": {"android": "https://dc.lft.to/lastmile_qr_scan", "ios": "https://dc.lft.to/lastmile_qr_scan"}, "is_disabled": 0, "fusion_lat": 0.0, "name": "d224967d259fe5ec06fee26049cdbc4b", "fusion_lon": 0.0}, {"is_reserved": 0, "type": "electric_scooter", "bike_id": "cafd7ab8f61668c6c33ea0fb0123c1fe", "lat": 38.9295505, "lon": -77.00413333333333, "rental_uris": {"android": "https://dc.lft.to/lastmile_qr_scan", "ios": "https://dc.lft.to/lastmile_qr_scan"}, "is_disabled": 0, "fusion_lat": 0.0, "name": "cafd7ab8f61668c6c33ea0fb0123c1fe", "fusion_lon": 0.0}, {"is_reserved": 0, "type": "electric_scooter", "bike_id": "6f56ebebe752b74566b01290efa4ca77", "lat": 38.9181845, "lon": -77.0302305, "rental_uris": {"android": "https://dc.lft.to/lastmile_qr_scan", "ios": "https://dc.lft.to/lastmile_qr_scan"}, "is_disabled": 0, "fusion_lat": 0.0, "name": "6f56ebebe752b74566b01290efa4ca77", "fusion_lon": 0.0}, {"is_reserved": 0, "type": "electric_scooter", "bike_id": "b8afa495fd227996260476c19b62105e", "lat": 38.905737333333335, "lon": -77.027666, "rental_uris": {"android": "https://dc.lft.to/lastmile_qr_scan", "ios": "https://dc.lft.to/lastmile_qr_scan"}, "is_disabled": 0, "fusion_lat": 0.0, "name": "b8afa495fd227996260476c19b62105e", "fusion_lon": 0.0}, {"is_reserved": 0, "type": "electric_scooter", "bike_id": "d9d43967330ce7c8848d41e7da930a01", "lat": 38.89229866666667, "lon": -77.04489516666666, "rental_uris": {"android": "https://dc.lft.to/lastmile_qr_scan", "ios": "https://dc.lft.to/lastmile_qr_scan"}, "is_disabled": 0, "fusion_lat": 0.0, "name": "d9d43967330ce7c8848d41e7da930a01", "fusion_lon": 0.0}, {"is_reserved": 0, "type": "electric_scooter", "bike_id": "c10a762afbe59258d8e86adcb3074ea5", "lat": 38.9007715, "lon": -77.02356133333333, "rental_uris": {"android": "https://dc.lft.to/lastmile_qr_scan", "ios": "https://dc.lft.to/lastmile_qr_scan"}, "is_disabled": 0, "fusion_lat": 0.0, "name": "c10a762afbe59258d8e86adcb3074ea5", "fusion_lon": 0.0}, {"is_reserved": 0, "type": "electric_scooter", "bike_id": "2509ddbe7670424111cd6305eb7a1e69", "lat": 38.924814833333336, "lon": -77.02722933333334, "rental_uris": {"android": "https://dc.lft.to/lastmile_qr_scan", "ios": "https://dc.lft.to/lastmile_qr_scan"}, "is_disabled": 0, "fusion_lat": 0.0, "name": "2509ddbe7670424111cd6305eb7a1e69", "fusion_lon": 0.0}, {"is_reserved": 0, "type": "electric_scooter", "bike_id": "92bfdcd8bd9f5c72c5f05dc491c7fa71", "lat": 38.912873, "lon": -77.023015, "rental_uris": {"android": "https://dc.lft.to/lastmile_qr_scan", "ios": "https://dc.lft.to/lastmile_qr_scan"}, "is_disabled": 0, "fusion_lat": 0.0, "name": "92bfdcd8bd9f5c72c5f05dc491c7fa71", "fusion_lon": 0.0}, {"is_reserved": 0, "type": "electric_bike", "bike_id": "82cc543269ba24cf78df75f1c0ed1960", "lat": 38.793363, "lon": -77.00056383333333, "rental_uris": {"android": "https://dc.lft.to/lastmile_qr_scan", "ios": "https://dc.lft.to/lastmile_qr_scan"}, "is_disabled": 0, "fusion_lat": 0.0, "name": "82cc543269ba24cf78df75f1c0ed1960", "fusion_lon": 0.0}, {"is_reserved": 0, "type": "electric_scooter", "bike_id": "5a6d0de63f71be89526aa2b7e80014f5", "lat": 38.9398235, "lon": -77.03564266666666, "rental_uris": {"android": "https://dc.lft.to/lastmile_qr_scan", "ios": "https://dc.lft.to/lastmile_qr_scan"}, "is_disabled": 0, "fusion_lat": 0.0, "name": "5a6d0de63f71be89526aa2b7e80014f5", "fusion_lon": 0.0}, {"is_reserved": 0, "type": "electric_scooter", "bike_id": "12a846c176126a1573fbc7ed72a6861e", "lat": 38.93571266666667, "lon": -77.03268133333333, "rental_uris": {"android": "https://dc.lft.to/lastmile_qr_scan", "ios": "https://dc.lft.to/lastmile_qr_scan"}, "is_disabled": 0, "fusion_lat": 0.0, "name": "12a846c176126a1573fbc7ed72a6861e", "fusion_lon": 0.0}, {"is_reserved": 0, "type": "electric_scooter", "bike_id": "fc3d0afaa654944097303054631cf953", "lat": 38.923916166666665, "lon": -77.050471, "rental_uris": {"android": "https://dc.lft.to/lastmile_qr_scan", "ios": "https://dc.lft.to/lastmile_qr_scan"}, "is_disabled": 0, "fusion_lat": 0.0, "name": "fc3d0afaa654944097303054631cf953", "fusion_lon": 0.0}, {"is_reserved": 0, "type": "electric_scooter", "bike_id": "e434f64a3baedded891fcfe15e2369ce", "lat": 38.864982, "lon": -76.977522, "rental_uris": {"android": "https://dc.lft.to/lastmile_qr_scan", "ios": "https://dc.lft.to/lastmile_qr_scan"}, "is_disabled": 0, "fusion_lat": 0.0, "name": "e434f64a3baedded891fcfe15e2369ce", "fusion_lon": 0.0}, {"is_reserved": 0, "type": "electric_scooter", "bike_id": "785ae3adf39ee8e73feb56a487a32e2e", "lat": 38.894777500000004, "lon": -76.9958125, "rental_uris": {"android": "https://dc.lft.to/lastmile_qr_scan", "ios": "https://dc.lft.to/lastmile_qr_scan"}, "is_disabled": 0, "fusion_lat": 0.0, "name": "785ae3adf39ee8e73feb56a487a32e2e", "fusion_lon": 0.0}, {"is_reserved": 0, "type": "electric_bike", "bike_id": "5de68bd5d14a39d33126f2a25ab33c4f", "lat": 38.935813, "lon": -77.02746633333334, "rental_uris": {"android": "https://dc.lft.to/lastmile_qr_scan", "ios": "https://dc.lft.to/lastmile_qr_scan"}, "is_disabled": 0, "fusion_lat": 0.0, "name": "5de68bd5d14a39d33126f2a25ab33c4f", "fusion_lon": 0.0}, {"is_reserved": 0, "type": "electric_scooter", "bike_id": "f4e6a354ba491a17eda530911a497ffe", "lat": 38.90863133333333, "lon": -77.001731, "rental_uris": {"android": "https://dc.lft.to/lastmile_qr_scan", "ios": "https://dc.lft.to/lastmile_qr_scan"}, "is_disabled": 0, "fusion_lat": 0.0, "name": "f4e6a354ba491a17eda530911a497ffe", "fusion_lon": 0.0}, {"is_reserved": 0, "type": "electric_scooter", "bike_id": "01f188afce096dceb30989b6c7dac230", "lat": 38.923769666666665, "lon": -77.03053683333333, "rental_uris": {"android": "https://dc.lft.to/lastmile_qr_scan", "ios": "https://dc.lft.to/lastmile_qr_scan"}, "is_disabled": 0, "fusion_lat": 0.0, "name": "01f188afce096dceb30989b6c7dac230", "fusion_lon": 0.0}, {"is_reserved": 0, "type": "electric_bike", "bike_id": "9bd8afe84b7be7bd9038971930fc838b", "lat": 38.89618166666666, "lon": -76.90735333333333, "rental_uris": {"android": "https://dc.lft.to/lastmile_qr_scan", "ios": "https://dc.lft.to/lastmile_qr_scan"}, "is_disabled": 0, "fusion_lat": 0.0, "name": "9bd8afe84b7be7bd9038971930fc838b", "fusion_lon": 0.0}, {"is_reserved": 0, "type": "electric_scooter", "bike_id": "a37ebab0e3c609efd79ee676c30adae5", "lat": 38.89354683333333, "lon": -77.01747983333334, "rental_uris": {"android": "https://dc.lft.to/lastmile_qr_scan", "ios": "https://dc.lft.to/lastmile_qr_scan"}, "is_disabled": 0, "fusion_lat": 0.0, "name": "a37ebab0e3c609efd79ee676c30adae5", "fusion_lon": 0.0}, {"is_reserved": 0, "type": "electric_scooter", "bike_id": "9ee02dc1555dfb77942add2eb53571b5", "lat": 38.91253116666667, "lon": -77.027202, "rental_uris": {"android": "https://dc.lft.to/lastmile_qr_scan", "ios": "https://dc.lft.to/lastmile_qr_scan"}, "is_disabled": 0, "fusion_lat": 0.0, "name": "9ee02dc1555dfb77942add2eb53571b5", "fusion_lon": 0.0}, {"is_reserved": 0, "type": "electric_scooter", "bike_id": "cf273e99a627ff047a6e0f2ae8920979", "lat": 38.903840833333334, "lon": -77.03218366666667, "rental_uris": {"android": "https://dc.lft.to/lastmile_qr_scan", "ios": "https://dc.lft.to/lastmile_qr_scan"}, "is_disabled": 0, "fusion_lat": 0.0, "name": "cf273e99a627ff047a6e0f2ae8920979", "fusion_lon": 0.0}, {"is_reserved": 0, "type": "electric_scooter", "bike_id": "a3f0813599b059e692cf499ba8365e2f", "lat": 38.926844, "lon": -77.02623, "rental_uris": {"android": "https://dc.lft.to/lastmile_qr_scan", "ios": "https://dc.lft.to/lastmile_qr_scan"}, "is_disabled": 0, "fusion_lat": 0.0, "name": "a3f0813599b059e692cf499ba8365e2f", "fusion_lon": 0.0}, {"is_reserved": 0, "type": "electric_scooter", "bike_id": "23a9eef53532c9a9c6f51a2f0b714215", "lat": 38.89424283333334, "lon": -77.05599483333333, "rental_uris": {"android": "https://dc.lft.to/lastmile_qr_scan", "ios": "https://dc.lft.to/lastmile_qr_scan"}, "is_disabled": 0, "fusion_lat": 0.0, "name": "23a9eef53532c9a9c6f51a2f0b714215", "fusion_lon": 0.0}, {"is_reserved": 0, "type": "electric_scooter", "bike_id": "63135d869464cbe741186abef68709b2", "lat": 38.888767333333334, "lon": -76.99033016666667, "rental_uris": {"android": "https://dc.lft.to/lastmile_qr_scan", "ios": "https://dc.lft.to/lastmile_qr_scan"}, "is_disabled": 0, "fusion_lat": 0.0, "name": "63135d869464cbe741186abef68709b2", "fusion_lon": 0.0}, {"is_reserved": 0, "type": "electric_scooter", "bike_id": "92a2f122b73e8f046ac25ca1246219ac", "lat": 38.9172175, "lon": -77.03860466666667, "rental_uris": {"android": "https://dc.lft.to/lastmile_qr_scan", "ios": "https://dc.lft.to/lastmile_qr_scan"}, "is_disabled": 0, "fusion_lat": 0.0, "name": "92a2f122b73e8f046ac25ca1246219ac", "fusion_lon": 0.0}, {"is_reserved": 0, "type": "electric_bike", "bike_id": "e14354e1ef4391282d321ecb9ce35103", "lat": 38.889356166666666, "lon": -76.9132715, "rental_uris": {"android": "https://dc.lft.to/lastmile_qr_scan", "ios": "https://dc.lft.to/lastmile_qr_scan"}, "is_disabled": 0, "fusion_lat": 0.0, "name": "e14354e1ef4391282d321ecb9ce35103", "fusion_lon": 0.0}, {"is_reserved": 0, "type": "electric_scooter", "bike_id": "021c4e71afae5224504a0624c21ba584", "lat": 38.92487833333333, "lon": -77.02272716666667, "rental_uris": {"android": "https://dc.lft.to/lastmile_qr_scan", "ios": "https://dc.lft.to/lastmile_qr_scan"}, "is_disabled": 0, "fusion_lat": 0.0, "name": "021c4e71afae5224504a0624c21ba584", "fusion_lon": 0.0}, {"is_reserved": 0, "type": "electric_scooter", "bike_id": "9ace3f159acc17bca1f2fcb7205ff6b0", "lat": 38.897199666666666, "lon": -77.022791, "rental_uris": {"android": "https://dc.lft.to/lastmile_qr_scan", "ios": "https://dc.lft.to/lastmile_qr_scan"}, "is_disabled": 0, "fusion_lat": 0.0, "name": "9ace3f159acc17bca1f2fcb7205ff6b0", "fusion_lon": 0.0}, {"is_reserved": 0, "type": "electric_scooter", "bike_id": "528eb90ff9b58e950d9a6ed1b4411e5b", "lat": 38.91384933333333, "lon": -77.01702233333333, "rental_uris": {"android": "https://dc.lft.to/lastmile_qr_scan", "ios": "https://dc.lft.to/lastmile_qr_scan"}, "is_disabled": 0, "fusion_lat": 0.0, "name": "528eb90ff9b58e950d9a6ed1b4411e5b", "fusion_lon": 0.0}, {"is_reserved": 0, "type": "electric_scooter", "bike_id": "b54929f544cb32cbd12a39387f4e1e4b", "lat": 38.86487266666666, "lon": -76.97755666666667, "rental_uris": {"android": "https://dc.lft.to/lastmile_qr_scan", "ios": "https://dc.lft.to/lastmile_qr_scan"}, "is_disabled": 0, "fusion_lat": 0.0, "name": "b54929f544cb32cbd12a39387f4e1e4b", "fusion_lon": 0.0}, {"is_reserved": 0, "type": "electric_scooter", "bike_id": "66f8d5a9e6fb508eea1ea6dbc64133e6", "lat": 38.90651916666667, "lon": -77.07559983333333, "rental_uris": {"android": "https://dc.lft.to/lastmile_qr_scan", "ios": "https://dc.lft.to/lastmile_qr_scan"}, "is_disabled": 0, "fusion_lat": 0.0, "name": "66f8d5a9e6fb508eea1ea6dbc64133e6", "fusion_lon": 0.0}, {"is_reserved": 0, "type": "electric_scooter", "bike_id": "6ad599121dbe7e0d22ad1ceab262863a", "lat": 38.951875333333334, "lon": -77.02618016666666, "rental_uris": {"android": "https://dc.lft.to/lastmile_qr_scan", "ios": "https://dc.lft.to/lastmile_qr_scan"}, "is_disabled": 0, "fusion_lat": 0.0, "name": "6ad599121dbe7e0d22ad1ceab262863a", "fusion_lon": 0.0}, {"is_reserved": 0, "type": "electric_scooter", "bike_id": "ccbd07b1c08e93be4ad19f0c7826b720", "lat": 38.924218333333336, "lon": -77.035465, "rental_uris": {"android": "https://dc.lft.to/lastmile_qr_scan", "ios": "https://dc.lft.to/lastmile_qr_scan"}, "is_disabled": 0, "fusion_lat": 0.0, "name": "ccbd07b1c08e93be4ad19f0c7826b720", "fusion_lon": 0.0}, {"is_reserved": 0, "type": "electric_scooter", "bike_id": "745a6e27157278781c826862a6a61794", "lat": 38.936967, "lon": -77.056003, "rental_uris": {"android": "https://dc.lft.to/lastmile_qr_scan", "ios": "https://dc.lft.to/lastmile_qr_scan"}, "is_disabled": 0, "fusion_lat": 0.0, "name": "745a6e27157278781c826862a6a61794", "fusion_lon": 0.0}, {"is_reserved": 0, "type": "electric_scooter", "bike_id": "47c683bcec0575efd82dea4b2e1779dd", "lat": 38.90578883333333, "lon": -76.9843285, "rental_uris": {"android": "https://dc.lft.to/lastmile_qr_scan", "ios": "https://dc.lft.to/lastmile_qr_scan"}, "is_disabled": 0, "fusion_lat": 0.0, "name": "47c683bcec0575efd82dea4b2e1779dd", "fusion_lon": 0.0}, {"is_reserved": 0, "type": "electric_scooter", "bike_id": "f757b1ca16856f9d776ec6f8f0417a99", "lat": 38.899948333333334, "lon": -77.02321833333333, "rental_uris": {"android": "https://dc.lft.to/lastmile_qr_scan", "ios": "https://dc.lft.to/lastmile_qr_scan"}, "is_disabled": 0, "fusion_lat": 0.0, "name": "f757b1ca16856f9d776ec6f8f0417a99", "fusion_lon": 0.0}, {"is_reserved": 0, "type": "electric_scooter", "bike_id": "7796ca28c1b8cae8f4a17d3ff1e0cc4d", "lat": 38.887445666666665, "lon": -76.98359866666667, "rental_uris": {"android": "https://dc.lft.to/lastmile_qr_scan", "ios": "https://dc.lft.to/lastmile_qr_scan"}, "is_disabled": 0, "fusion_lat": 0.0, "name": "7796ca28c1b8cae8f4a17d3ff1e0cc4d", "fusion_lon": 0.0}, {"is_reserved": 0, "type": "electric_scooter", "bike_id": "a4e565bf2f44e6fbabcf8823f1e4b947", "lat": 38.90030383333333, "lon": -77.02615433333334, "rental_uris": {"android": "https://dc.lft.to/lastmile_qr_scan", "ios": "https://dc.lft.to/lastmile_qr_scan"}, "is_disabled": 0, "fusion_lat": 0.0, "name": "a4e565bf2f44e6fbabcf8823f1e4b947", "fusion_lon": 0.0}, {"is_reserved": 0, "type": "electric_scooter", "bike_id": "0f39361664037fe1f7475f0d7fd4cc40", "lat": 38.895286, "lon": -76.9921325, "rental_uris": {"android": "https://dc.lft.to/lastmile_qr_scan", "ios": "https://dc.lft.to/lastmile_qr_scan"}, "is_disabled": 0, "fusion_lat": 0.0, "name": "0f39361664037fe1f7475f0d7fd4cc40", "fusion_lon": 0.0}, {"is_reserved": 0, "type": "electric_scooter", "bike_id": "fc52658c74d0fd63aadb27e58bccada9", "lat": 38.92758933333333, "lon": -77.024267, "rental_uris": {"android": "https://dc.lft.to/lastmile_qr_scan", "ios": "https://dc.lft.to/lastmile_qr_scan"}, "is_disabled": 0, "fusion_lat": 0.0, "name": "fc52658c74d0fd63aadb27e58bccada9", "fusion_lon": 0.0}, {"is_reserved": 0, "type": "electric_scooter", "bike_id": "45d0594faa654e517ee50800aef66d9f", "lat": 38.8924315, "lon": -77.05040616666666, "rental_uris": {"android": "https://dc.lft.to/lastmile_qr_scan", "ios": "https://dc.lft.to/lastmile_qr_scan"}, "is_disabled": 0, "fusion_lat": 0.0, "name": "45d0594faa654e517ee50800aef66d9f", "fusion_lon": 0.0}, {"is_reserved": 0, "type": "electric_scooter", "bike_id": "509e230275e241b96ee6cea1274f596b", "lat": 38.9236785, "lon": -77.043167, "rental_uris": {"android": "https://dc.lft.to/lastmile_qr_scan", "ios": "https://dc.lft.to/lastmile_qr_scan"}, "is_disabled": 0, "fusion_lat": 0.0, "name": "509e230275e241b96ee6cea1274f596b", "fusion_lon": 0.0}, {"is_reserved": 0, "type": "electric_scooter", "bike_id": "dbb6359376be6cac739153c3b228dbeb", "lat": 38.892309166666664, "lon": -77.0176855, "rental_uris": {"android": "https://dc.lft.to/lastmile_qr_scan", "ios": "https://dc.lft.to/lastmile_qr_scan"}, "is_disabled": 0, "fusion_lat": 0.0, "name": "dbb6359376be6cac739153c3b228dbeb", "fusion_lon": 0.0}, {"is_reserved": 0, "type": "electric_scooter", "bike_id": "9a44d28c56c1a4ab5d284d62fc7ab5ab", "lat": 38.928989, "lon": -77.02493483333333, "rental_uris": {"android": "https://dc.lft.to/lastmile_qr_scan", "ios": "https://dc.lft.to/lastmile_qr_scan"}, "is_disabled": 0, "fusion_lat": 0.0, "name": "9a44d28c56c1a4ab5d284d62fc7ab5ab", "fusion_lon": 0.0}, {"is_reserved": 0, "type": "electric_scooter", "bike_id": "e76c9d4814a0bd360e0f18e922d9a24e", "lat": 38.91583116666666, "lon": -76.983844, "rental_uris": {"android": "https://dc.lft.to/lastmile_qr_scan", "ios": "https://dc.lft.to/lastmile_qr_scan"}, "is_disabled": 0, "fusion_lat": 0.0, "name": "e76c9d4814a0bd360e0f18e922d9a24e", "fusion_lon": 0.0}, {"is_reserved": 0, "type": "electric_scooter", "bike_id": "206edd1c539e6ced4718ba097b1d1077", "lat": 38.920864333333334, "lon": -77.02393983333333, "rental_uris": {"android": "https://dc.lft.to/lastmile_qr_scan", "ios": "https://dc.lft.to/lastmile_qr_scan"}, "is_disabled": 0, "fusion_lat": 0.0, "name": "206edd1c539e6ced4718ba097b1d1077", "fusion_lon": 0.0}, {"is_reserved": 0, "type": "electric_scooter", "bike_id": "48ad8f403af59496316f3d23df599c3a", "lat": 38.892285, "lon": -77.04361283333333, "rental_uris": {"android": "https://dc.lft.to/lastmile_qr_scan", "ios": "https://dc.lft.to/lastmile_qr_scan"}, "is_disabled": 0, "fusion_lat": 0.0, "name": "48ad8f403af59496316f3d23df599c3a", "fusion_lon": 0.0}, {"is_reserved": 0, "type": "electric_bike", "bike_id": "deb12b8a014f0208e6cd13b88f2f06e0", "lat": 38.830297333333334, "lon": -77.08379016666666, "rental_uris": {"android": "https://dc.lft.to/lastmile_qr_scan", "ios": "https://dc.lft.to/lastmile_qr_scan"}, "is_disabled": 0, "fusion_lat": 0.0, "name": "deb12b8a014f0208e6cd13b88f2f06e0", "fusion_lon": 0.0}, {"is_reserved": 0, "type": "electric_scooter", "bike_id": "3311696a0878826a587eb0f99d138c91", "lat": 38.89729783333333, "lon": -76.99513383333333, "rental_uris": {"android": "https://dc.lft.to/lastmile_qr_scan", "ios": "https://dc.lft.to/lastmile_qr_scan"}, "is_disabled": 0, "fusion_lat": 0.0, "name": "3311696a0878826a587eb0f99d138c91", "fusion_lon": 0.0}, {"is_reserved": 0, "type": "electric_bike", "bike_id": "84d0394eb85e6541e912a601616d24ed", "lat": 38.8578885, "lon": -76.98765683333333, "rental_uris": {"android": "https://dc.lft.to/lastmile_qr_scan", "ios": "https://dc.lft.to/lastmile_qr_scan"}, "is_disabled": 0, "fusion_lat": 0.0, "name": "84d0394eb85e6541e912a601616d24ed", "fusion_lon": 0.0}, {"is_reserved": 0, "type": "electric_scooter", "bike_id": "6a2bba076c3830fd3eeb306914c47623", "lat": 38.91480883333333, "lon": -77.00223466666667, "rental_uris": {"android": "https://dc.lft.to/lastmile_qr_scan", "ios": "https://dc.lft.to/lastmile_qr_scan"}, "is_disabled": 0, "fusion_lat": 0.0, "name": "6a2bba076c3830fd3eeb306914c47623", "fusion_lon": 0.0}, {"is_reserved": 0, "type": "electric_scooter", "bike_id": "efba788c320428d6ebbc44d13f1c9167", "lat": 38.92123433333333, "lon": -77.045775, "rental_uris": {"android": "https://dc.lft.to/lastmile_qr_scan", "ios": "https://dc.lft.to/lastmile_qr_scan"}, "is_disabled": 0, "fusion_lat": 0.0, "name": "efba788c320428d6ebbc44d13f1c9167", "fusion_lon": 0.0}, {"is_reserved": 0, "type": "electric_scooter", "bike_id": "53d69f30af6a78aedb9944cbaa9ae86c", "lat": 38.944526, "lon": -77.02804466666667, "rental_uris": {"android": "https://dc.lft.to/lastmile_qr_scan", "ios": "https://dc.lft.to/lastmile_qr_scan"}, "is_disabled": 0, "fusion_lat": 0.0, "name": "53d69f30af6a78aedb9944cbaa9ae86c", "fusion_lon": 0.0}, {"is_reserved": 0, "type": "electric_scooter", "bike_id": "960c33099085ce0158792a493a476655", "lat": 38.92513683333333, "lon": -77.022866, "rental_uris": {"android": "https://dc.lft.to/lastmile_qr_scan", "ios": "https://dc.lft.to/lastmile_qr_scan"}, "is_disabled": 0, "fusion_lat": 0.0, "name": "960c33099085ce0158792a493a476655", "fusion_lon": 0.0}, {"is_reserved": 0, "type": "electric_scooter", "bike_id": "36bcb37e83a21752413bae1384e0e320", "lat": 38.911182, "lon": -77.00257116666667, "rental_uris": {"android": "https://dc.lft.to/lastmile_qr_scan", "ios": "https://dc.lft.to/lastmile_qr_scan"}, "is_disabled": 0, "fusion_lat": 0.0, "name": "36bcb37e83a21752413bae1384e0e320", "fusion_lon": 0.0}, {"is_reserved": 0, "type": "electric_scooter", "bike_id": "baaa304d6e52169efc2b94f73c07a38a", "lat": 38.90084483333333, "lon": -77.01763916666667, "rental_uris": {"android": "https://dc.lft.to/lastmile_qr_scan", "ios": "https://dc.lft.to/lastmile_qr_scan"}, "is_disabled": 0, "fusion_lat": 0.0, "name": "baaa304d6e52169efc2b94f73c07a38a", "fusion_lon": 0.0}, {"is_reserved": 0, "type": "electric_scooter", "bike_id": "eaff3a1ea6fc568495171b4fdd5cc5c0", "lat": 38.9103625, "lon": -77.048078, "rental_uris": {"android": "https://dc.lft.to/lastmile_qr_scan", "ios": "https://dc.lft.to/lastmile_qr_scan"}, "is_disabled": 0, "fusion_lat": 0.0, "name": "eaff3a1ea6fc568495171b4fdd5cc5c0", "fusion_lon": 0.0}, {"is_reserved": 0, "type": "electric_scooter", "bike_id": "c22e29ad610bcf735d5f7f02bc0764a7", "lat": 38.8954745, "lon": -76.9833825, "rental_uris": {"android": "https://dc.lft.to/lastmile_qr_scan", "ios": "https://dc.lft.to/lastmile_qr_scan"}, "is_disabled": 0, "fusion_lat": 0.0, "name": "c22e29ad610bcf735d5f7f02bc0764a7", "fusion_lon": 0.0}, {"is_reserved": 0, "type": "electric_scooter", "bike_id": "18df07b32838239cd7eb19badd79c3b5", "lat": 38.92678016666667, "lon": -77.007504, "rental_uris": {"android": "https://dc.lft.to/lastmile_qr_scan", "ios": "https://dc.lft.to/lastmile_qr_scan"}, "is_disabled": 0, "fusion_lat": 0.0, "name": "18df07b32838239cd7eb19badd79c3b5", "fusion_lon": 0.0}, {"is_reserved": 0, "type": "electric_scooter", "bike_id": "3828b800c7148c09b7e6244560a5d9a4", "lat": 38.91672716666667, "lon": -77.03858083333333, "rental_uris": {"android": "https://dc.lft.to/lastmile_qr_scan", "ios": "https://dc.lft.to/lastmile_qr_scan"}, "is_disabled": 0, "fusion_lat": 0.0, "name": "3828b800c7148c09b7e6244560a5d9a4", "fusion_lon": 0.0}, {"is_reserved": 0, "type": "electric_bike", "bike_id": "b88b27ab979afe4cdbdf33063e5a4ce4", "lat": 38.98533833333333, "lon": -76.954735, "rental_uris": {"android": "https://dc.lft.to/lastmile_qr_scan", "ios": "https://dc.lft.to/lastmile_qr_scan"}, "is_disabled": 0, "fusion_lat": 0.0, "name": "b88b27ab979afe4cdbdf33063e5a4ce4", "fusion_lon": 0.0}, {"is_reserved": 0, "type": "electric_scooter", "bike_id": "e2b36d7207afc014a4f0315be98cf877", "lat": 38.915577666666664, "lon": -77.0311965, "rental_uris": {"android": "https://dc.lft.to/lastmile_qr_scan", "ios": "https://dc.lft.to/lastmile_qr_scan"}, "is_disabled": 0, "fusion_lat": 0.0, "name": "e2b36d7207afc014a4f0315be98cf877", "fusion_lon": 0.0}, {"is_reserved": 0, "type": "electric_bike", "bike_id": "4b5270923ad27fbcc716f024acfdac0c", "lat": 38.94797066666667, "lon": -76.9424635, "rental_uris": {"android": "https://dc.lft.to/lastmile_qr_scan", "ios": "https://dc.lft.to/lastmile_qr_scan"}, "is_disabled": 0, "fusion_lat": 0.0, "name": "4b5270923ad27fbcc716f024acfdac0c", "fusion_lon": 0.0}, {"is_reserved": 0, "type": "electric_bike", "bike_id": "bb378f243b18b392de56d877e038f558", "lat": 38.844560333333334, "lon": -76.9316435, "rental_uris": {"android": "https://dc.lft.to/lastmile_qr_scan", "ios": "https://dc.lft.to/lastmile_qr_scan"}, "is_disabled": 0, "fusion_lat": 0.0, "name": "bb378f243b18b392de56d877e038f558", "fusion_lon": 0.0}, {"is_reserved": 0, "type": "electric_scooter", "bike_id": "c860f0f2e9dbd9153971d90c17dd43f6", "lat": 38.91423016666667, "lon": -77.01879, "rental_uris": {"android": "https://dc.lft.to/lastmile_qr_scan", "ios": "https://dc.lft.to/lastmile_qr_scan"}, "is_disabled": 0, "fusion_lat": 0.0, "name": "c860f0f2e9dbd9153971d90c17dd43f6", "fusion_lon": 0.0}, {"is_reserved": 0, "type": "electric_scooter", "bike_id": "1413e7c29232b364ecd1ce0239c2dc92", "lat": 38.898691, "lon": -77.03962133333333, "rental_uris": {"android": "https://dc.lft.to/lastmile_qr_scan", "ios": "https://dc.lft.to/lastmile_qr_scan"}, "is_disabled": 0, "fusion_lat": 0.0, "name": "1413e7c29232b364ecd1ce0239c2dc92", "fusion_lon": 0.0}, {"is_reserved": 0, "type": "electric_scooter", "bike_id": "f3f30729955f04f618e5d85cc2961249", "lat": 38.903920166666666, "lon": -77.01791966666667, "rental_uris": {"android": "https://dc.lft.to/lastmile_qr_scan", "ios": "https://dc.lft.to/lastmile_qr_scan"}, "is_disabled": 0, "fusion_lat": 0.0, "name": "f3f30729955f04f618e5d85cc2961249", "fusion_lon": 0.0}, {"is_reserved": 0, "type": "electric_scooter", "bike_id": "43668d9ff6a3c2261787101e4ce74fa5", "lat": 38.9224935, "lon": -77.04716483333333, "rental_uris": {"android": "https://dc.lft.to/lastmile_qr_scan", "ios": "https://dc.lft.to/lastmile_qr_scan"}, "is_disabled": 0, "fusion_lat": 0.0, "name": "43668d9ff6a3c2261787101e4ce74fa5", "fusion_lon": 0.0}, {"is_reserved": 0, "type": "electric_scooter", "bike_id": "39a8cf4238a80376359644d225a516f3", "lat": 38.923294, "lon": -77.03676016666667, "rental_uris": {"android": "https://dc.lft.to/lastmile_qr_scan", "ios": "https://dc.lft.to/lastmile_qr_scan"}, "is_disabled": 0, "fusion_lat": 0.0, "name": "39a8cf4238a80376359644d225a516f3", "fusion_lon": 0.0}, {"is_reserved": 0, "type": "electric_scooter", "bike_id": "dfde118f37884fbd77a797f2b9d22b44", "lat": 38.95217483333333, "lon": -77.01602083333333, "rental_uris": {"android": "https://dc.lft.to/lastmile_qr_scan", "ios": "https://dc.lft.to/lastmile_qr_scan"}, "is_disabled": 0, "fusion_lat": 0.0, "name": "dfde118f37884fbd77a797f2b9d22b44", "fusion_lon": 0.0}, {"is_reserved": 0, "type": "electric_scooter", "bike_id": "45671368118b2d8c4d0c0caa1de3b43c", "lat": 38.97368866666667, "lon": -77.01866033333333, "rental_uris": {"android": "https://dc.lft.to/lastmile_qr_scan", "ios": "https://dc.lft.to/lastmile_qr_scan"}, "is_disabled": 0, "fusion_lat": 0.0, "name": "45671368118b2d8c4d0c0caa1de3b43c", "fusion_lon": 0.0}, {"is_reserved": 0, "type": "electric_bike", "bike_id": "39eca78fd2bf8c17f7decaf8e9245436", "lat": 38.876793, "lon": -77.00024666666667, "rental_uris": {"android": "https://dc.lft.to/lastmile_qr_scan", "ios": "https://dc.lft.to/lastmile_qr_scan"}, "is_disabled": 0, "fusion_lat": 0.0, "name": "39eca78fd2bf8c17f7decaf8e9245436", "fusion_lon": 0.0}, {"is_reserved": 0, "type": "electric_scooter", "bike_id": "c687d6779e38bbe35b12498337adea3e", "lat": 38.9278695, "lon": -77.0256815, "rental_uris": {"android": "https://dc.lft.to/lastmile_qr_scan", "ios": "https://dc.lft.to/lastmile_qr_scan"}, "is_disabled": 0, "fusion_lat": 0.0, "name": "c687d6779e38bbe35b12498337adea3e", "fusion_lon": 0.0}, {"is_reserved": 0, "type": "electric_scooter", "bike_id": "d9f676335c9064fd0c238218329f3515", "lat": 38.9003885, "lon": -77.0022085, "rental_uris": {"android": "https://dc.lft.to/lastmile_qr_scan", "ios": "https://dc.lft.to/lastmile_qr_scan"}, "is_disabled": 0, "fusion_lat": 0.0, "name": "d9f676335c9064fd0c238218329f3515", "fusion_lon": 0.0}, {"is_reserved": 0, "type": "electric_scooter", "bike_id": "85172e00ec2b0dbeca2b8c5588d39b8b", "lat": 38.913677166666666, "lon": -77.0656625, "rental_uris": {"android": "https://dc.lft.to/lastmile_qr_scan", "ios": "https://dc.lft.to/lastmile_qr_scan"}, "is_disabled": 0, "fusion_lat": 0.0, "name": "85172e00ec2b0dbeca2b8c5588d39b8b", "fusion_lon": 0.0}, {"is_reserved": 0, "type": "electric_scooter", "bike_id": "cedca4955ab6d6772dca1f8fda5be8f5", "lat": 38.90123066666666, "lon": -77.0279105, "rental_uris": {"android": "https://dc.lft.to/lastmile_qr_scan", "ios": "https://dc.lft.to/lastmile_qr_scan"}, "is_disabled": 0, "fusion_lat": 0.0, "name": "cedca4955ab6d6772dca1f8fda5be8f5", "fusion_lon": 0.0}, {"is_reserved": 0, "type": "electric_scooter", "bike_id": "854124a41db80488023e3b22c5fc6e58", "lat": 38.9049825, "lon": -77.019889, "rental_uris": {"android": "https://dc.lft.to/lastmile_qr_scan", "ios": "https://dc.lft.to/lastmile_qr_scan"}, "is_disabled": 0, "fusion_lat": 0.0, "name": "854124a41db80488023e3b22c5fc6e58", "fusion_lon": 0.0}, {"is_reserved": 0, "type": "electric_scooter", "bike_id": "a51bc38c8b3a9ffc59e382bdc81a620c", "lat": 38.90269883333333, "lon": -77.02006083333333, "rental_uris": {"android": "https://dc.lft.to/lastmile_qr_scan", "ios": "https://dc.lft.to/lastmile_qr_scan"}, "is_disabled": 0, "fusion_lat": 0.0, "name": "a51bc38c8b3a9ffc59e382bdc81a620c", "fusion_lon": 0.0}, {"is_reserved": 0, "type": "electric_bike", "bike_id": "28fa0a177b6cc366f2c5129f47ee37a5", "lat": 38.919267166666664, "lon": -77.032584, "rental_uris": {"android": "https://dc.lft.to/lastmile_qr_scan", "ios": "https://dc.lft.to/lastmile_qr_scan"}, "is_disabled": 0, "fusion_lat": 0.0, "name": "28fa0a177b6cc366f2c5129f47ee37a5", "fusion_lon": 0.0}, {"is_reserved": 0, "type": "electric_bike", "bike_id": "3bfe123d239781753ba736005410e6e6", "lat": 39.042404833333336, "lon": -76.997349, "rental_uris": {"android": "https://dc.lft.to/lastmile_qr_scan", "ios": "https://dc.lft.to/lastmile_qr_scan"}, "is_disabled": 0, "fusion_lat": 0.0, "name": "3bfe123d239781753ba736005410e6e6", "fusion_lon": 0.0}, {"is_reserved": 0, "type": "electric_bike", "bike_id": "e0eadb036e96dbf5828edf4c98dab58b", "lat": 38.973374166666666, "lon": -76.99583366666667, "rental_uris": {"android": "https://dc.lft.to/lastmile_qr_scan", "ios": "https://dc.lft.to/lastmile_qr_scan"}, "is_disabled": 0, "fusion_lat": 0.0, "name": "e0eadb036e96dbf5828edf4c98dab58b", "fusion_lon": 0.0}, {"is_reserved": 0, "type": "electric_scooter", "bike_id": "1eacab2eebf2c215d71e9bce0484e174", "lat": 38.8973315, "lon": -77.01964616666666, "rental_uris": {"android": "https://dc.lft.to/lastmile_qr_scan", "ios": "https://dc.lft.to/lastmile_qr_scan"}, "is_disabled": 0, "fusion_lat": 0.0, "name": "1eacab2eebf2c215d71e9bce0484e174", "fusion_lon": 0.0}, {"is_reserved": 0, "type": "electric_scooter", "bike_id": "07b0a5dfeaeda79d00846acf49629964", "lat": 38.935054, "lon": -77.042845, "rental_uris": {"android": "https://dc.lft.to/lastmile_qr_scan", "ios": "https://dc.lft.to/lastmile_qr_scan"}, "is_disabled": 0, "fusion_lat": 0.0, "name": "07b0a5dfeaeda79d00846acf49629964", "fusion_lon": 0.0}, {"is_reserved": 0, "type": "electric_scooter", "bike_id": "d89bb0f451e5773a8ef0aaa5e6b3574c", "lat": 38.923981833333336, "lon": -77.05047866666666, "rental_uris": {"android": "https://dc.lft.to/lastmile_qr_scan", "ios": "https://dc.lft.to/lastmile_qr_scan"}, "is_disabled": 0, "fusion_lat": 0.0, "name": "d89bb0f451e5773a8ef0aaa5e6b3574c", "fusion_lon": 0.0}, {"is_reserved": 0, "type": "electric_scooter", "bike_id": "647cbcca70ab3c2ca7b7c497e669e55a", "lat": 38.92389883333333, "lon": -77.050623, "rental_uris": {"android": "https://dc.lft.to/lastmile_qr_scan", "ios": "https://dc.lft.to/lastmile_qr_scan"}, "is_disabled": 0, "fusion_lat": 0.0, "name": "647cbcca70ab3c2ca7b7c497e669e55a", "fusion_lon": 0.0}, {"is_reserved": 0, "type": "electric_scooter", "bike_id": "ac99a185c9d875f0cab6b205a32f36dd", "lat": 38.92772733333334, "lon": -77.0278475, "rental_uris": {"android": "https://dc.lft.to/lastmile_qr_scan", "ios": "https://dc.lft.to/lastmile_qr_scan"}, "is_disabled": 0, "fusion_lat": 0.0, "name": "ac99a185c9d875f0cab6b205a32f36dd", "fusion_lon": 0.0}, {"is_reserved": 0, "type": "electric_scooter", "bike_id": "27a54db56b00fab83b0813629d2f031b", "lat": 38.94747133333333, "lon": -77.01936933333333, "rental_uris": {"android": "https://dc.lft.to/lastmile_qr_scan", "ios": "https://dc.lft.to/lastmile_qr_scan"}, "is_disabled": 0, "fusion_lat": 0.0, "name": "27a54db56b00fab83b0813629d2f031b", "fusion_lon": 0.0}, {"is_reserved": 0, "type": "electric_scooter", "bike_id": "7ba0508180a7a40180d6abc90652792d", "lat": 38.897937, "lon": -77.01194116666667, "rental_uris": {"android": "https://dc.lft.to/lastmile_qr_scan", "ios": "https://dc.lft.to/lastmile_qr_scan"}, "is_disabled": 0, "fusion_lat": 0.0, "name": "7ba0508180a7a40180d6abc90652792d", "fusion_lon": 0.0}, {"is_reserved": 0, "type": "electric_scooter", "bike_id": "9647e0f13d21c7fb25adf0ebfadcbb5b", "lat": 38.90404783333334, "lon": -77.02007216666667, "rental_uris": {"android": "https://dc.lft.to/lastmile_qr_scan", "ios": "https://dc.lft.to/lastmile_qr_scan"}, "is_disabled": 0, "fusion_lat": 0.0, "name": "9647e0f13d21c7fb25adf0ebfadcbb5b", "fusion_lon": 0.0}, {"is_reserved": 0, "type": "electric_scooter", "bike_id": "3abb500563f803b8183cdd79d1ff478f", "lat": 38.91286783333334, "lon": -77.07279683333333, "rental_uris": {"android": "https://dc.lft.to/lastmile_qr_scan", "ios": "https://dc.lft.to/lastmile_qr_scan"}, "is_disabled": 0, "fusion_lat": 0.0, "name": "3abb500563f803b8183cdd79d1ff478f", "fusion_lon": 0.0}, {"is_reserved": 0, "type": "electric_scooter", "bike_id": "6ef7479f223e9f7a98ed0f406138686a", "lat": 38.9207785, "lon": -77.02315833333333, "rental_uris": {"android": "https://dc.lft.to/lastmile_qr_scan", "ios": "https://dc.lft.to/lastmile_qr_scan"}, "is_disabled": 0, "fusion_lat": 0.0, "name": "6ef7479f223e9f7a98ed0f406138686a", "fusion_lon": 0.0}, {"is_reserved": 0, "type": "electric_scooter", "bike_id": "72f0fdf0dbaba68e5169813b6e86559f", "lat": 38.93088233333334, "lon": -77.025527, "rental_uris": {"android": "https://dc.lft.to/lastmile_qr_scan", "ios": "https://dc.lft.to/lastmile_qr_scan"}, "is_disabled": 0, "fusion_lat": 0.0, "name": "72f0fdf0dbaba68e5169813b6e86559f", "fusion_lon": 0.0}, {"is_reserved": 0, "type": "electric_scooter", "bike_id": "5ef78dc0ed03c3fde12dc1f091417fe5", "lat": 38.91734183333333, "lon": -77.0160285, "rental_uris": {"android": "https://dc.lft.to/lastmile_qr_scan", "ios": "https://dc.lft.to/lastmile_qr_scan"}, "is_disabled": 0, "fusion_lat": 0.0, "name": "5ef78dc0ed03c3fde12dc1f091417fe5", "fusion_lon": 0.0}, {"is_reserved": 0, "type": "electric_scooter", "bike_id": "325b7deefe3d48b5657e7de36ecd17c2", "lat": 38.917127, "lon": -77.03225366666666, "rental_uris": {"android": "https://dc.lft.to/lastmile_qr_scan", "ios": "https://dc.lft.to/lastmile_qr_scan"}, "is_disabled": 0, "fusion_lat": 0.0, "name": "325b7deefe3d48b5657e7de36ecd17c2", "fusion_lon": 0.0}, {"is_reserved": 0, "type": "electric_scooter", "bike_id": "05cdd7037d98137bd4f98ade7b5c817a", "lat": 38.92824983333333, "lon": -77.02259533333333, "rental_uris": {"android": "https://dc.lft.to/lastmile_qr_scan", "ios": "https://dc.lft.to/lastmile_qr_scan"}, "is_disabled": 0, "fusion_lat": 0.0, "name": "05cdd7037d98137bd4f98ade7b5c817a", "fusion_lon": 0.0}, {"is_reserved": 0, "type": "electric_scooter", "bike_id": "d924e41df3d6126c591cb6a99bee4476", "lat": 38.918264, "lon": -77.0418195, "rental_uris": {"android": "https://dc.lft.to/lastmile_qr_scan", "ios": "https://dc.lft.to/lastmile_qr_scan"}, "is_disabled": 0, "fusion_lat": 0.0, "name": "d924e41df3d6126c591cb6a99bee4476", "fusion_lon": 0.0}, {"is_reserved": 0, "type": "electric_scooter", "bike_id": "6268d18a02b1f2e1ba077952a1079894", "lat": 38.92958466666666, "lon": -77.00414733333334, "rental_uris": {"android": "https://dc.lft.to/lastmile_qr_scan", "ios": "https://dc.lft.to/lastmile_qr_scan"}, "is_disabled": 0, "fusion_lat": 0.0, "name": "6268d18a02b1f2e1ba077952a1079894", "fusion_lon": 0.0}, {"is_reserved": 0, "type": "electric_scooter", "bike_id": "1207560fb8a04860c9a468b3be0cb2b6", "lat": 38.93426083333333, "lon": -77.032854, "rental_uris": {"android": "https://dc.lft.to/lastmile_qr_scan", "ios": "https://dc.lft.to/lastmile_qr_scan"}, "is_disabled": 0, "fusion_lat": 0.0, "name": "1207560fb8a04860c9a468b3be0cb2b6", "fusion_lon": 0.0}, {"is_reserved": 0, "type": "electric_scooter", "bike_id": "a7e5634510117b35fafaa33e69c9a7b7", "lat": 38.909487666666664, "lon": -77.06441233333334, "rental_uris": {"android": "https://dc.lft.to/lastmile_qr_scan", "ios": "https://dc.lft.to/lastmile_qr_scan"}, "is_disabled": 0, "fusion_lat": 0.0, "name": "a7e5634510117b35fafaa33e69c9a7b7", "fusion_lon": 0.0}, {"is_reserved": 0, "type": "electric_scooter", "bike_id": "b80f2e1fad40f5dd4cce84873b3b3f33", "lat": 38.88391583333333, "lon": -77.030353, "rental_uris": {"android": "https://dc.lft.to/lastmile_qr_scan", "ios": "https://dc.lft.to/lastmile_qr_scan"}, "is_disabled": 0, "fusion_lat": 0.0, "name": "b80f2e1fad40f5dd4cce84873b3b3f33", "fusion_lon": 0.0}, {"is_reserved": 0, "type": "electric_scooter", "bike_id": "1f8b2a44802826fe59b9a2e255c0c2d2", "lat": 38.91033766666666, "lon": -77.00972533333334, "rental_uris": {"android": "https://dc.lft.to/lastmile_qr_scan", "ios": "https://dc.lft.to/lastmile_qr_scan"}, "is_disabled": 0, "fusion_lat": 0.0, "name": "1f8b2a44802826fe59b9a2e255c0c2d2", "fusion_lon": 0.0}, {"is_reserved": 0, "type": "electric_scooter", "bike_id": "ca946debed15d9ce0f378474120a04ee", "lat": 38.89744866666667, "lon": -77.03363866666666, "rental_uris": {"android": "https://dc.lft.to/lastmile_qr_scan", "ios": "https://dc.lft.to/lastmile_qr_scan"}, "is_disabled": 0, "fusion_lat": 0.0, "name": "ca946debed15d9ce0f378474120a04ee", "fusion_lon": 0.0}, {"is_reserved": 0, "type": "electric_scooter", "bike_id": "c5083431e42d2ad1a4850a1fd6d77b99", "lat": 38.90170916666667, "lon": -76.9302695, "rental_uris": {"android": "https://dc.lft.to/lastmile_qr_scan", "ios": "https://dc.lft.to/lastmile_qr_scan"}, "is_disabled": 0, "fusion_lat": 0.0, "name": "c5083431e42d2ad1a4850a1fd6d77b99", "fusion_lon": 0.0}, {"is_reserved": 0, "type": "electric_scooter", "bike_id": "7e7cd067a526f7a96e3fc0b02f4aa25a", "lat": 38.9130345, "lon": -77.02693183333334, "rental_uris": {"android": "https://dc.lft.to/lastmile_qr_scan", "ios": "https://dc.lft.to/lastmile_qr_scan"}, "is_disabled": 0, "fusion_lat": 0.0, "name": "7e7cd067a526f7a96e3fc0b02f4aa25a", "fusion_lon": 0.0}, {"is_reserved": 0, "type": "electric_scooter", "bike_id": "5b4d457c9c373cd59f7bdc6baa9a186d", "lat": 38.91264233333333, "lon": -77.031468, "rental_uris": {"android": "https://dc.lft.to/lastmile_qr_scan", "ios": "https://dc.lft.to/lastmile_qr_scan"}, "is_disabled": 0, "fusion_lat": 0.0, "name": "5b4d457c9c373cd59f7bdc6baa9a186d", "fusion_lon": 0.0}, {"is_reserved": 0, "type": "electric_scooter", "bike_id": "6bddf884130c01632d51b66ae4a67d2f", "lat": 38.91891116666667, "lon": -77.0271375, "rental_uris": {"android": "https://dc.lft.to/lastmile_qr_scan", "ios": "https://dc.lft.to/lastmile_qr_scan"}, "is_disabled": 0, "fusion_lat": 0.0, "name": "6bddf884130c01632d51b66ae4a67d2f", "fusion_lon": 0.0}, {"is_reserved": 0, "type": "electric_scooter", "bike_id": "cbc3e00a51f9b649f3f2548f22480a83", "lat": 38.90797966666667, "lon": -77.00197366666667, "rental_uris": {"android": "https://dc.lft.to/lastmile_qr_scan", "ios": "https://dc.lft.to/lastmile_qr_scan"}, "is_disabled": 0, "fusion_lat": 0.0, "name": "cbc3e00a51f9b649f3f2548f22480a83", "fusion_lon": 0.0}, {"is_reserved": 0, "type": "electric_bike", "bike_id": "5742286c95d23c48dfdb32762953ceb7", "lat": 38.80730716666667, "lon": -76.9925535, "rental_uris": {"android": "https://dc.lft.to/lastmile_qr_scan", "ios": "https://dc.lft.to/lastmile_qr_scan"}, "is_disabled": 0, "fusion_lat": 0.0, "name": "5742286c95d23c48dfdb32762953ceb7", "fusion_lon": 0.0}, {"is_reserved": 0, "type": "electric_scooter", "bike_id": "16df7a0e9610615eed72d40a02c4075d", "lat": 38.92891566666667, "lon": -77.025579, "rental_uris": {"android": "https://dc.lft.to/lastmile_qr_scan", "ios": "https://dc.lft.to/lastmile_qr_scan"}, "is_disabled": 0, "fusion_lat": 0.0, "name": "16df7a0e9610615eed72d40a02c4075d", "fusion_lon": 0.0}, {"is_reserved": 0, "type": "electric_scooter", "bike_id": "ed717b6f15e6db7aae25161e27421b3f", "lat": 38.93594016666667, "lon": -77.05874066666667, "rental_uris": {"android": "https://dc.lft.to/lastmile_qr_scan", "ios": "https://dc.lft.to/lastmile_qr_scan"}, "is_disabled": 0, "fusion_lat": 0.0, "name": "ed717b6f15e6db7aae25161e27421b3f", "fusion_lon": 0.0}, {"is_reserved": 0, "type": "electric_bike", "bike_id": "1f512a08e05771882553a11a0ae9d203", "lat": 38.8884055, "lon": -76.95755433333333, "rental_uris": {"android": "https://dc.lft.to/lastmile_qr_scan", "ios": "https://dc.lft.to/lastmile_qr_scan"}, "is_disabled": 0, "fusion_lat": 0.0, "name": "1f512a08e05771882553a11a0ae9d203", "fusion_lon": 0.0}, {"is_reserved": 0, "type": "electric_scooter", "bike_id": "7eaceca26efb343886d7ab44b5d246a4", "lat": 38.936940666666665, "lon": -77.02715833333333, "rental_uris": {"android": "https://dc.lft.to/lastmile_qr_scan", "ios": "https://dc.lft.to/lastmile_qr_scan"}, "is_disabled": 0, "fusion_lat": 0.0, "name": "7eaceca26efb343886d7ab44b5d246a4", "fusion_lon": 0.0}, {"is_reserved": 0, "type": "electric_scooter", "bike_id": "9ea4b6913db9713e0db19a3187fccf7c", "lat": 38.899716, "lon": -77.01628966666667, "rental_uris": {"android": "https://dc.lft.to/lastmile_qr_scan", "ios": "https://dc.lft.to/lastmile_qr_scan"}, "is_disabled": 0, "fusion_lat": 0.0, "name": "9ea4b6913db9713e0db19a3187fccf7c", "fusion_lon": 0.0}, {"is_reserved": 0, "type": "electric_scooter", "bike_id": "2d23710ba33432d0c68d7885b3630409", "lat": 38.912203, "lon": -77.02727233333333, "rental_uris": {"android": "https://dc.lft.to/lastmile_qr_scan", "ios": "https://dc.lft.to/lastmile_qr_scan"}, "is_disabled": 0, "fusion_lat": 0.0, "name": "2d23710ba33432d0c68d7885b3630409", "fusion_lon": 0.0}, {"is_reserved": 0, "type": "electric_scooter", "bike_id": "01d478e2ba5dd43395ec0f25d192605e", "lat": 38.91663166666667, "lon": -76.98067533333334, "rental_uris": {"android": "https://dc.lft.to/lastmile_qr_scan", "ios": "https://dc.lft.to/lastmile_qr_scan"}, "is_disabled": 0, "fusion_lat": 0.0, "name": "01d478e2ba5dd43395ec0f25d192605e", "fusion_lon": 0.0}, {"is_reserved": 0, "type": "electric_scooter", "bike_id": "4e58e162adb387efd496504fc5087150", "lat": 38.898514, "lon": -76.92753283333333, "rental_uris": {"android": "https://dc.lft.to/lastmile_qr_scan", "ios": "https://dc.lft.to/lastmile_qr_scan"}, "is_disabled": 0, "fusion_lat": 0.0, "name": "4e58e162adb387efd496504fc5087150", "fusion_lon": 0.0}, {"is_reserved": 0, "type": "electric_scooter", "bike_id": "9a16b41ef7207a6a60867cbff9754517", "lat": 38.92566583333333, "lon": -76.97015633333334, "rental_uris": {"android": "https://dc.lft.to/lastmile_qr_scan", "ios": "https://dc.lft.to/lastmile_qr_scan"}, "is_disabled": 0, "fusion_lat": 0.0, "name": "9a16b41ef7207a6a60867cbff9754517", "fusion_lon": 0.0}, {"is_reserved": 0, "type": "electric_bike", "bike_id": "7870196e2cda3a82f2df612a984f9991", "lat": 38.9555375, "lon": -76.969066, "rental_uris": {"android": "https://dc.lft.to/lastmile_qr_scan", "ios": "https://dc.lft.to/lastmile_qr_scan"}, "is_disabled": 0, "fusion_lat": 0.0, "name": "7870196e2cda3a82f2df612a984f9991", "fusion_lon": 0.0}, {"is_reserved": 0, "type": "electric_scooter", "bike_id": "ee7fd3ab6aaf7f25a3bc70e17cddac47", "lat": 38.944460666666664, "lon": -77.029162, "rental_uris": {"android": "https://dc.lft.to/lastmile_qr_scan", "ios": "https://dc.lft.to/lastmile_qr_scan"}, "is_disabled": 0, "fusion_lat": 0.0, "name": "ee7fd3ab6aaf7f25a3bc70e17cddac47", "fusion_lon": 0.0}, {"is_reserved": 0, "type": "electric_scooter", "bike_id": "2a08568a42ed6428832a7da0ab2e05cd", "lat": 38.9067055, "lon": -76.98026383333334, "rental_uris": {"android": "https://dc.lft.to/lastmile_qr_scan", "ios": "https://dc.lft.to/lastmile_qr_scan"}, "is_disabled": 0, "fusion_lat": 0.0, "name": "2a08568a42ed6428832a7da0ab2e05cd", "fusion_lon": 0.0}, {"is_reserved": 0, "type": "electric_scooter", "bike_id": "9dfc74b580df4ac3654c9da998c44e76", "lat": 38.87161433333333, "lon": -77.01353616666667, "rental_uris": {"android": "https://dc.lft.to/lastmile_qr_scan", "ios": "https://dc.lft.to/lastmile_qr_scan"}, "is_disabled": 0, "fusion_lat": 0.0, "name": "9dfc74b580df4ac3654c9da998c44e76", "fusion_lon": 0.0}, {"is_reserved": 0, "type": "electric_scooter", "bike_id": "4a75cf58ec467c8f003729253e00ad03", "lat": 38.907253, "lon": -77.02552166666666, "rental_uris": {"android": "https://dc.lft.to/lastmile_qr_scan", "ios": "https://dc.lft.to/lastmile_qr_scan"}, "is_disabled": 0, "fusion_lat": 0.0, "name": "4a75cf58ec467c8f003729253e00ad03", "fusion_lon": 0.0}, {"is_reserved": 0, "type": "electric_scooter", "bike_id": "427603565e6c82fc98710745866ea4f6", "lat": 38.91869633333334, "lon": -77.04485933333333, "rental_uris": {"android": "https://dc.lft.to/lastmile_qr_scan", "ios": "https://dc.lft.to/lastmile_qr_scan"}, "is_disabled": 0, "fusion_lat": 0.0, "name": "427603565e6c82fc98710745866ea4f6", "fusion_lon": 0.0}, {"is_reserved": 0, "type": "electric_scooter", "bike_id": "33a03f2e52a73768a8edfb0e0c40ce1f", "lat": 38.899369, "lon": -76.97839316666666, "rental_uris": {"android": "https://dc.lft.to/lastmile_qr_scan", "ios": "https://dc.lft.to/lastmile_qr_scan"}, "is_disabled": 0, "fusion_lat": 0.0, "name": "33a03f2e52a73768a8edfb0e0c40ce1f", "fusion_lon": 0.0}, {"is_reserved": 0, "type": "electric_scooter", "bike_id": "81c9e9ad1df8793abf12e63fe5f80a11", "lat": 38.897006, "lon": -77.02258866666666, "rental_uris": {"android": "https://dc.lft.to/lastmile_qr_scan", "ios": "https://dc.lft.to/lastmile_qr_scan"}, "is_disabled": 0, "fusion_lat": 0.0, "name": "81c9e9ad1df8793abf12e63fe5f80a11", "fusion_lon": 0.0}, {"is_reserved": 0, "type": "electric_scooter", "bike_id": "dc3b7bd9f97b5bcb1e704407a31baaa4", "lat": 38.88266333333333, "lon": -77.00360466666666, "rental_uris": {"android": "https://dc.lft.to/lastmile_qr_scan", "ios": "https://dc.lft.to/lastmile_qr_scan"}, "is_disabled": 0, "fusion_lat": 0.0, "name": "dc3b7bd9f97b5bcb1e704407a31baaa4", "fusion_lon": 0.0}, {"is_reserved": 0, "type": "electric_scooter", "bike_id": "fb9ad2dab9cdd942c9e00bd11e2c120c", "lat": 38.931357166666665, "lon": -77.03850016666667, "rental_uris": {"android": "https://dc.lft.to/lastmile_qr_scan", "ios": "https://dc.lft.to/lastmile_qr_scan"}, "is_disabled": 0, "fusion_lat": 0.0, "name": "fb9ad2dab9cdd942c9e00bd11e2c120c", "fusion_lon": 0.0}, {"is_reserved": 0, "type": "electric_scooter", "bike_id": "25e77fde54a0ddbf0ffb0beb5a916e43", "lat": 38.9180045, "lon": -77.0343865, "rental_uris": {"android": "https://dc.lft.to/lastmile_qr_scan", "ios": "https://dc.lft.to/lastmile_qr_scan"}, "is_disabled": 0, "fusion_lat": 0.0, "name": "25e77fde54a0ddbf0ffb0beb5a916e43", "fusion_lon": 0.0}, {"is_reserved": 0, "type": "electric_scooter", "bike_id": "58f3af94c816552f7503ede73bc3adc7", "lat": 38.901571, "lon": -77.02866316666666, "rental_uris": {"android": "https://dc.lft.to/lastmile_qr_scan", "ios": "https://dc.lft.to/lastmile_qr_scan"}, "is_disabled": 0, "fusion_lat": 0.0, "name": "58f3af94c816552f7503ede73bc3adc7", "fusion_lon": 0.0}, {"is_reserved": 0, "type": "electric_scooter", "bike_id": "e2572e4679c8ed0b8677eba37078abdf", "lat": 38.93701933333333, "lon": -77.0211845, "rental_uris": {"android": "https://dc.lft.to/lastmile_qr_scan", "ios": "https://dc.lft.to/lastmile_qr_scan"}, "is_disabled": 0, "fusion_lat": 0.0, "name": "e2572e4679c8ed0b8677eba37078abdf", "fusion_lon": 0.0}, {"is_reserved": 0, "type": "electric_scooter", "bike_id": "e2693ea0b9d39387302ed02bcc882640", "lat": 38.8954065, "lon": -77.030159, "rental_uris": {"android": "https://dc.lft.to/lastmile_qr_scan", "ios": "https://dc.lft.to/lastmile_qr_scan"}, "is_disabled": 0, "fusion_lat": 0.0, "name": "e2693ea0b9d39387302ed02bcc882640", "fusion_lon": 0.0}, {"is_reserved": 0, "type": "electric_scooter", "bike_id": "cc807e4d8a8e6600ea423e43b0c4c907", "lat": 38.9236285, "lon": -77.05031316666667, "rental_uris": {"android": "https://dc.lft.to/lastmile_qr_scan", "ios": "https://dc.lft.to/lastmile_qr_scan"}, "is_disabled": 0, "fusion_lat": 0.0, "name": "cc807e4d8a8e6600ea423e43b0c4c907", "fusion_lon": 0.0}, {"is_reserved": 0, "type": "electric_scooter", "bike_id": "ccdafd0e5318653a3868ef83093e8b35", "lat": 38.905528333333336, "lon": -77.03252383333333, "rental_uris": {"android": "https://dc.lft.to/lastmile_qr_scan", "ios": "https://dc.lft.to/lastmile_qr_scan"}, "is_disabled": 0, "fusion_lat": 0.0, "name": "ccdafd0e5318653a3868ef83093e8b35", "fusion_lon": 0.0}, {"is_reserved": 0, "type": "electric_scooter", "bike_id": "3a87d37bbb330ffd239100f904b2cf49", "lat": 38.89221883333333, "lon": -77.02421833333334, "rental_uris": {"android": "https://dc.lft.to/lastmile_qr_scan", "ios": "https://dc.lft.to/lastmile_qr_scan"}, "is_disabled": 0, "fusion_lat": 0.0, "name": "3a87d37bbb330ffd239100f904b2cf49", "fusion_lon": 0.0}, {"is_reserved": 0, "type": "electric_scooter", "bike_id": "e45d33a3e99ccb4f3f3970dcc03ab83d", "lat": 38.87637083333333, "lon": -77.00830583333334, "rental_uris": {"android": "https://dc.lft.to/lastmile_qr_scan", "ios": "https://dc.lft.to/lastmile_qr_scan"}, "is_disabled": 0, "fusion_lat": 0.0, "name": "e45d33a3e99ccb4f3f3970dcc03ab83d", "fusion_lon": 0.0}, {"is_reserved": 0, "type": "electric_scooter", "bike_id": "c875fac5aa90e54d1a4be44815cce846", "lat": 38.8952415, "lon": -77.03962033333333, "rental_uris": {"android": "https://dc.lft.to/lastmile_qr_scan", "ios": "https://dc.lft.to/lastmile_qr_scan"}, "is_disabled": 0, "fusion_lat": 0.0, "name": "c875fac5aa90e54d1a4be44815cce846", "fusion_lon": 0.0}, {"is_reserved": 0, "type": "electric_scooter", "bike_id": "c967713262d3355b864dc38b16493590", "lat": 38.92395466666667, "lon": -77.04451566666667, "rental_uris": {"android": "https://dc.lft.to/lastmile_qr_scan", "ios": "https://dc.lft.to/lastmile_qr_scan"}, "is_disabled": 0, "fusion_lat": 0.0, "name": "c967713262d3355b864dc38b16493590", "fusion_lon": 0.0}, {"is_reserved": 0, "type": "electric_scooter", "bike_id": "096646a4d784b037b04cf2e676c8f49c", "lat": 38.8983975, "lon": -77.03055766666667, "rental_uris": {"android": "https://dc.lft.to/lastmile_qr_scan", "ios": "https://dc.lft.to/lastmile_qr_scan"}, "is_disabled": 0, "fusion_lat": 0.0, "name": "096646a4d784b037b04cf2e676c8f49c", "fusion_lon": 0.0}, {"is_reserved": 0, "type": "electric_scooter", "bike_id": "745ff2b1f93830a3b89dde7e83f1d049", "lat": 38.89821966666667, "lon": -77.02203316666667, "rental_uris": {"android": "https://dc.lft.to/lastmile_qr_scan", "ios": "https://dc.lft.to/lastmile_qr_scan"}, "is_disabled": 0, "fusion_lat": 0.0, "name": "745ff2b1f93830a3b89dde7e83f1d049", "fusion_lon": 0.0}, {"is_reserved": 0, "type": "electric_scooter", "bike_id": "bcc6854caa0e7c4225c58187fa3d7eb7", "lat": 38.916762166666665, "lon": -77.03457583333334, "rental_uris": {"android": "https://dc.lft.to/lastmile_qr_scan", "ios": "https://dc.lft.to/lastmile_qr_scan"}, "is_disabled": 0, "fusion_lat": 0.0, "name": "bcc6854caa0e7c4225c58187fa3d7eb7", "fusion_lon": 0.0}, {"is_reserved": 0, "type": "electric_scooter", "bike_id": "1f360c22bad7ea219c768f056a905e13", "lat": 38.89596933333333, "lon": -76.92984966666667, "rental_uris": {"android": "https://dc.lft.to/lastmile_qr_scan", "ios": "https://dc.lft.to/lastmile_qr_scan"}, "is_disabled": 0, "fusion_lat": 0.0, "name": "1f360c22bad7ea219c768f056a905e13", "fusion_lon": 0.0}, {"is_reserved": 0, "type": "electric_scooter", "bike_id": "297e0f2b84bfc09ff7752a37c841de37", "lat": 38.97006783333333, "lon": -77.00911566666667, "rental_uris": {"android": "https://dc.lft.to/lastmile_qr_scan", "ios": "https://dc.lft.to/lastmile_qr_scan"}, "is_disabled": 0, "fusion_lat": 0.0, "name": "297e0f2b84bfc09ff7752a37c841de37", "fusion_lon": 0.0}, {"is_reserved": 0, "type": "electric_scooter", "bike_id": "b3bbd773dbc5771047887be8118f0765", "lat": 38.957488166666664, "lon": -77.02106116666667, "rental_uris": {"android": "https://dc.lft.to/lastmile_qr_scan", "ios": "https://dc.lft.to/lastmile_qr_scan"}, "is_disabled": 0, "fusion_lat": 0.0, "name": "b3bbd773dbc5771047887be8118f0765", "fusion_lon": 0.0}, {"is_reserved": 0, "type": "electric_scooter", "bike_id": "ba8dae300a862649d25d75b9c8a05010", "lat": 38.905012666666664, "lon": -77.02946916666667, "rental_uris": {"android": "https://dc.lft.to/lastmile_qr_scan", "ios": "https://dc.lft.to/lastmile_qr_scan"}, "is_disabled": 0, "fusion_lat": 0.0, "name": "ba8dae300a862649d25d75b9c8a05010", "fusion_lon": 0.0}, {"is_reserved": 0, "type": "electric_scooter", "bike_id": "73b21f60dbbfe0cb36ce5bdb3d861331", "lat": 38.938902, "lon": -77.03264983333334, "rental_uris": {"android": "https://dc.lft.to/lastmile_qr_scan", "ios": "https://dc.lft.to/lastmile_qr_scan"}, "is_disabled": 0, "fusion_lat": 0.0, "name": "73b21f60dbbfe0cb36ce5bdb3d861331", "fusion_lon": 0.0}, {"is_reserved": 0, "type": "electric_scooter", "bike_id": "2ab46438224e804e0787dcf006474387", "lat": 38.93621133333333, "lon": -77.03215966666667, "rental_uris": {"android": "https://dc.lft.to/lastmile_qr_scan", "ios": "https://dc.lft.to/lastmile_qr_scan"}, "is_disabled": 0, "fusion_lat": 0.0, "name": "2ab46438224e804e0787dcf006474387", "fusion_lon": 0.0}, {"is_reserved": 0, "type": "electric_scooter", "bike_id": "954f0f494521b68170a6ef3fdd3fe73b", "lat": 38.914076, "lon": -77.03224616666667, "rental_uris": {"android": "https://dc.lft.to/lastmile_qr_scan", "ios": "https://dc.lft.to/lastmile_qr_scan"}, "is_disabled": 0, "fusion_lat": 0.0, "name": "954f0f494521b68170a6ef3fdd3fe73b", "fusion_lon": 0.0}, {"is_reserved": 0, "type": "electric_scooter", "bike_id": "b9858a995c00cc1d66a994343e2e32f8", "lat": 38.876393, "lon": -77.007524, "rental_uris": {"android": "https://dc.lft.to/lastmile_qr_scan", "ios": "https://dc.lft.to/lastmile_qr_scan"}, "is_disabled": 0, "fusion_lat": 0.0, "name": "b9858a995c00cc1d66a994343e2e32f8", "fusion_lon": 0.0}, {"is_reserved": 0, "type": "electric_scooter", "bike_id": "93123abd3acdfc4e31b1e6d21900118f", "lat": 38.89911433333333, "lon": -76.93365516666667, "rental_uris": {"android": "https://dc.lft.to/lastmile_qr_scan", "ios": "https://dc.lft.to/lastmile_qr_scan"}, "is_disabled": 0, "fusion_lat": 0.0, "name": "93123abd3acdfc4e31b1e6d21900118f", "fusion_lon": 0.0}, {"is_reserved": 0, "type": "electric_scooter", "bike_id": "519a19f396e023070c0a17450a4866a0", "lat": 38.92724366666667, "lon": -77.0368845, "rental_uris": {"android": "https://dc.lft.to/lastmile_qr_scan", "ios": "https://dc.lft.to/lastmile_qr_scan"}, "is_disabled": 0, "fusion_lat": 0.0, "name": "519a19f396e023070c0a17450a4866a0", "fusion_lon": 0.0}, {"is_reserved": 0, "type": "electric_scooter", "bike_id": "168de843aa77c1980c9b6fe2546bccee", "lat": 38.852238166666666, "lon": -76.9942805, "rental_uris": {"android": "https://dc.lft.to/lastmile_qr_scan", "ios": "https://dc.lft.to/lastmile_qr_scan"}, "is_disabled": 0, "fusion_lat": 0.0, "name": "168de843aa77c1980c9b6fe2546bccee", "fusion_lon": 0.0}, {"is_reserved": 0, "type": "electric_scooter", "bike_id": "a817075efbecf1f400274e3525613266", "lat": 38.906163166666666, "lon": -77.0088325, "rental_uris": {"android": "https://dc.lft.to/lastmile_qr_scan", "ios": "https://dc.lft.to/lastmile_qr_scan"}, "is_disabled": 0, "fusion_lat": 0.0, "name": "a817075efbecf1f400274e3525613266", "fusion_lon": 0.0}, {"is_reserved": 0, "type": "electric_scooter", "bike_id": "a4ff0af18444f9513af1e396f7cf78f3", "lat": 38.921456166666665, "lon": -77.04489516666666, "rental_uris": {"android": "https://dc.lft.to/lastmile_qr_scan", "ios": "https://dc.lft.to/lastmile_qr_scan"}, "is_disabled": 0, "fusion_lat": 0.0, "name": "a4ff0af18444f9513af1e396f7cf78f3", "fusion_lon": 0.0}, {"is_reserved": 0, "type": "electric_scooter", "bike_id": "6f73170298219e638539f8e83a56ae57", "lat": 38.9300355, "lon": -77.02307966666666, "rental_uris": {"android": "https://dc.lft.to/lastmile_qr_scan", "ios": "https://dc.lft.to/lastmile_qr_scan"}, "is_disabled": 0, "fusion_lat": 0.0, "name": "6f73170298219e638539f8e83a56ae57", "fusion_lon": 0.0}, {"is_reserved": 0, "type": "electric_scooter", "bike_id": "1d27d0fb972e1992cae79a1ed6c13b79", "lat": 38.9215665, "lon": -77.03383583333333, "rental_uris": {"android": "https://dc.lft.to/lastmile_qr_scan", "ios": "https://dc.lft.to/lastmile_qr_scan"}, "is_disabled": 0, "fusion_lat": 0.0, "name": "1d27d0fb972e1992cae79a1ed6c13b79", "fusion_lon": 0.0}, {"is_reserved": 0, "type": "electric_scooter", "bike_id": "51c63eecc49a86da4d05c4e40ad9a261", "lat": 38.91866816666667, "lon": -77.044441, "rental_uris": {"android": "https://dc.lft.to/lastmile_qr_scan", "ios": "https://dc.lft.to/lastmile_qr_scan"}, "is_disabled": 0, "fusion_lat": 0.0, "name": "51c63eecc49a86da4d05c4e40ad9a261", "fusion_lon": 0.0}, {"is_reserved": 0, "type": "electric_scooter", "bike_id": "5cb7f811c624bbfa2f9195aeff59358f", "lat": 38.914175166666666, "lon": -77.01875183333334, "rental_uris": {"android": "https://dc.lft.to/lastmile_qr_scan", "ios": "https://dc.lft.to/lastmile_qr_scan"}, "is_disabled": 0, "fusion_lat": 0.0, "name": "5cb7f811c624bbfa2f9195aeff59358f", "fusion_lon": 0.0}, {"is_reserved": 0, "type": "electric_scooter", "bike_id": "9f7459cc59d89173fca9ad4e81c01e87", "lat": 38.91405116666667, "lon": -77.03170766666666, "rental_uris": {"android": "https://dc.lft.to/lastmile_qr_scan", "ios": "https://dc.lft.to/lastmile_qr_scan"}, "is_disabled": 0, "fusion_lat": 0.0, "name": "9f7459cc59d89173fca9ad4e81c01e87", "fusion_lon": 0.0}, {"is_reserved": 0, "type": "electric_scooter", "bike_id": "4a689d8176ab507cbddb3be62af669f3", "lat": 38.883038, "lon": -76.94859916666667, "rental_uris": {"android": "https://dc.lft.to/lastmile_qr_scan", "ios": "https://dc.lft.to/lastmile_qr_scan"}, "is_disabled": 0, "fusion_lat": 0.0, "name": "4a689d8176ab507cbddb3be62af669f3", "fusion_lon": 0.0}, {"is_reserved": 0, "type": "electric_scooter", "bike_id": "c7483739796f3c1c286278b43941629b", "lat": 38.90092966666667, "lon": -77.04964466666667, "rental_uris": {"android": "https://dc.lft.to/lastmile_qr_scan", "ios": "https://dc.lft.to/lastmile_qr_scan"}, "is_disabled": 0, "fusion_lat": 0.0, "name": "c7483739796f3c1c286278b43941629b", "fusion_lon": 0.0}, {"is_reserved": 0, "type": "electric_scooter", "bike_id": "b412f2086736251b6d6ddbeca906c68d", "lat": 38.87836033333333, "lon": -77.00702966666667, "rental_uris": {"android": "https://dc.lft.to/lastmile_qr_scan", "ios": "https://dc.lft.to/lastmile_qr_scan"}, "is_disabled": 0, "fusion_lat": 0.0, "name": "b412f2086736251b6d6ddbeca906c68d", "fusion_lon": 0.0}, {"is_reserved": 0, "type": "electric_bike", "bike_id": "1adb1bf722d0586f383aefd9265ee8ca", "lat": 38.966212, "lon": -77.03438183333333, "rental_uris": {"android": "https://dc.lft.to/lastmile_qr_scan", "ios": "https://dc.lft.to/lastmile_qr_scan"}, "is_disabled": 0, "fusion_lat": 0.0, "name": "1adb1bf722d0586f383aefd9265ee8ca", "fusion_lon": 0.0}, {"is_reserved": 0, "type": "electric_scooter", "bike_id": "623990f346cfaa63a98d7204a8b99b8b", "lat": 38.9203125, "lon": -77.01782733333333, "rental_uris": {"android": "https://dc.lft.to/lastmile_qr_scan", "ios": "https://dc.lft.to/lastmile_qr_scan"}, "is_disabled": 0, "fusion_lat": 0.0, "name": "623990f346cfaa63a98d7204a8b99b8b", "fusion_lon": 0.0}, {"is_reserved": 0, "type": "electric_scooter", "bike_id": "2bd1d982b0a4a1cfa153cb3ca1e2554d", "lat": 38.911039, "lon": -77.073475, "rental_uris": {"android": "https://dc.lft.to/lastmile_qr_scan", "ios": "https://dc.lft.to/lastmile_qr_scan"}, "is_disabled": 0, "fusion_lat": 0.0, "name": "2bd1d982b0a4a1cfa153cb3ca1e2554d", "fusion_lon": 0.0}, {"is_reserved": 0, "type": "electric_scooter", "bike_id": "42b3d2ea022ad55c21af03937c965446", "lat": 38.9230925, "lon": -77.03033683333334, "rental_uris": {"android": "https://dc.lft.to/lastmile_qr_scan", "ios": "https://dc.lft.to/lastmile_qr_scan"}, "is_disabled": 0, "fusion_lat": 0.0, "name": "42b3d2ea022ad55c21af03937c965446", "fusion_lon": 0.0}, {"is_reserved": 0, "type": "electric_scooter", "bike_id": "0788c60b979d96acacc1d20c2cea0582", "lat": 38.950630333333336, "lon": -77.05418533333334, "rental_uris": {"android": "https://dc.lft.to/lastmile_qr_scan", "ios": "https://dc.lft.to/lastmile_qr_scan"}, "is_disabled": 0, "fusion_lat": 0.0, "name": "0788c60b979d96acacc1d20c2cea0582", "fusion_lon": 0.0}, {"is_reserved": 0, "type": "electric_scooter", "bike_id": "9114c9fbd7a2c068ebcbf137e5ab132f", "lat": 38.900275666666666, "lon": -76.99866283333333, "rental_uris": {"android": "https://dc.lft.to/lastmile_qr_scan", "ios": "https://dc.lft.to/lastmile_qr_scan"}, "is_disabled": 0, "fusion_lat": 0.0, "name": "9114c9fbd7a2c068ebcbf137e5ab132f", "fusion_lon": 0.0}, {"is_reserved": 0, "type": "electric_scooter", "bike_id": "c43afb92ea2312fdf5fb39ae6920ea0e", "lat": 38.91607466666667, "lon": -77.03730383333334, "rental_uris": {"android": "https://dc.lft.to/lastmile_qr_scan", "ios": "https://dc.lft.to/lastmile_qr_scan"}, "is_disabled": 0, "fusion_lat": 0.0, "name": "c43afb92ea2312fdf5fb39ae6920ea0e", "fusion_lon": 0.0}, {"is_reserved": 0, "type": "electric_scooter", "bike_id": "d5b2e981650143c2ca8ace1d87fb1a0e", "lat": 38.8779405, "lon": -77.0173835, "rental_uris": {"android": "https://dc.lft.to/lastmile_qr_scan", "ios": "https://dc.lft.to/lastmile_qr_scan"}, "is_disabled": 0, "fusion_lat": 0.0, "name": "d5b2e981650143c2ca8ace1d87fb1a0e", "fusion_lon": 0.0}, {"is_reserved": 0, "type": "electric_bike", "bike_id": "44d35533f66c874d865ca49fd69f54fd", "lat": 38.9447515, "lon": -76.9868895, "rental_uris": {"android": "https://dc.lft.to/lastmile_qr_scan", "ios": "https://dc.lft.to/lastmile_qr_scan"}, "is_disabled": 0, "fusion_lat": 0.0, "name": "44d35533f66c874d865ca49fd69f54fd", "fusion_lon": 0.0}, {"is_reserved": 0, "type": "electric_scooter", "bike_id": "d69f32a61c9108899aa0e7a9ea6cf7be", "lat": 38.931977333333336, "lon": -77.02374316666666, "rental_uris": {"android": "https://dc.lft.to/lastmile_qr_scan", "ios": "https://dc.lft.to/lastmile_qr_scan"}, "is_disabled": 0, "fusion_lat": 0.0, "name": "d69f32a61c9108899aa0e7a9ea6cf7be", "fusion_lon": 0.0}, {"is_reserved": 0, "type": "electric_scooter", "bike_id": "92b854b8e459dd1f413a1563ad15ff61", "lat": 38.892462333333334, "lon": -77.01343983333334, "rental_uris": {"android": "https://dc.lft.to/lastmile_qr_scan", "ios": "https://dc.lft.to/lastmile_qr_scan"}, "is_disabled": 0, "fusion_lat": 0.0, "name": "92b854b8e459dd1f413a1563ad15ff61", "fusion_lon": 0.0}, {"is_reserved": 0, "type": "electric_scooter", "bike_id": "7cb905815f8eeb4988a8cd651c25b835", "lat": 38.91926683333333, "lon": -77.04821, "rental_uris": {"android": "https://dc.lft.to/lastmile_qr_scan", "ios": "https://dc.lft.to/lastmile_qr_scan"}, "is_disabled": 0, "fusion_lat": 0.0, "name": "7cb905815f8eeb4988a8cd651c25b835", "fusion_lon": 0.0}, {"is_reserved": 0, "type": "electric_scooter", "bike_id": "43ca45748472ff17d74efa95dcb39dbc", "lat": 38.8961205, "lon": -77.00899383333334, "rental_uris": {"android": "https://dc.lft.to/lastmile_qr_scan", "ios": "https://dc.lft.to/lastmile_qr_scan"}, "is_disabled": 0, "fusion_lat": 0.0, "name": "43ca45748472ff17d74efa95dcb39dbc", "fusion_lon": 0.0}, {"is_reserved": 0, "type": "electric_scooter", "bike_id": "301c8385385ba77f3a4d833151cfd231", "lat": 38.924368666666666, "lon": -77.000708, "rental_uris": {"android": "https://dc.lft.to/lastmile_qr_scan", "ios": "https://dc.lft.to/lastmile_qr_scan"}, "is_disabled": 0, "fusion_lat": 0.0, "name": "301c8385385ba77f3a4d833151cfd231", "fusion_lon": 0.0}, {"is_reserved": 0, "type": "electric_scooter", "bike_id": "3fd846784629b36cbd0ac0c2bee8a52c", "lat": 38.94495083333333, "lon": -77.007441, "rental_uris": {"android": "https://dc.lft.to/lastmile_qr_scan", "ios": "https://dc.lft.to/lastmile_qr_scan"}, "is_disabled": 0, "fusion_lat": 0.0, "name": "3fd846784629b36cbd0ac0c2bee8a52c", "fusion_lon": 0.0}, {"is_reserved": 0, "type": "electric_bike", "bike_id": "1157b36575e108717ed9ba37ab83cc1c", "lat": 38.83237116666667, "lon": -76.94624683333333, "rental_uris": {"android": "https://dc.lft.to/lastmile_qr_scan", "ios": "https://dc.lft.to/lastmile_qr_scan"}, "is_disabled": 0, "fusion_lat": 0.0, "name": "1157b36575e108717ed9ba37ab83cc1c", "fusion_lon": 0.0}, {"is_reserved": 0, "type": "electric_scooter", "bike_id": "2cdf412398b706c49265c2e29d8c6ee8", "lat": 38.90498566666667, "lon": -77.0417245, "rental_uris": {"android": "https://dc.lft.to/lastmile_qr_scan", "ios": "https://dc.lft.to/lastmile_qr_scan"}, "is_disabled": 0, "fusion_lat": 0.0, "name": "2cdf412398b706c49265c2e29d8c6ee8", "fusion_lon": 0.0}, {"is_reserved": 0, "type": "electric_scooter", "bike_id": "0d25d329b5fe69745588eeb8bf85fc50", "lat": 38.933677, "lon": -77.02420433333333, "rental_uris": {"android": "https://dc.lft.to/lastmile_qr_scan", "ios": "https://dc.lft.to/lastmile_qr_scan"}, "is_disabled": 0, "fusion_lat": 0.0, "name": "0d25d329b5fe69745588eeb8bf85fc50", "fusion_lon": 0.0}, {"is_reserved": 0, "type": "electric_scooter", "bike_id": "c72808671ae58f51b3fb95bfdbb41423", "lat": 38.927038, "lon": -77.02093366666666, "rental_uris": {"android": "https://dc.lft.to/lastmile_qr_scan", "ios": "https://dc.lft.to/lastmile_qr_scan"}, "is_disabled": 0, "fusion_lat": 0.0, "name": "c72808671ae58f51b3fb95bfdbb41423", "fusion_lon": 0.0}, {"is_reserved": 0, "type": "electric_bike", "bike_id": "297e9e627cc7b390013eaf7627dd5567", "lat": 38.9449915, "lon": -77.0068565, "rental_uris": {"android": "https://dc.lft.to/lastmile_qr_scan", "ios": "https://dc.lft.to/lastmile_qr_scan"}, "is_disabled": 0, "fusion_lat": 0.0, "name": "297e9e627cc7b390013eaf7627dd5567", "fusion_lon": 0.0}, {"is_reserved": 0, "type": "electric_scooter", "bike_id": "0cc68e3239d5c5b9e9322847c8055ced", "lat": 38.911278833333334, "lon": -77.02202466666667, "rental_uris": {"android": "https://dc.lft.to/lastmile_qr_scan", "ios": "https://dc.lft.to/lastmile_qr_scan"}, "is_disabled": 0, "fusion_lat": 0.0, "name": "0cc68e3239d5c5b9e9322847c8055ced", "fusion_lon": 0.0}, {"is_reserved": 0, "type": "electric_scooter", "bike_id": "fd15e114a7efdcabcbb7f314a997a6f2", "lat": 38.9052155, "lon": -77.02603766666667, "rental_uris": {"android": "https://dc.lft.to/lastmile_qr_scan", "ios": "https://dc.lft.to/lastmile_qr_scan"}, "is_disabled": 0, "fusion_lat": 0.0, "name": "fd15e114a7efdcabcbb7f314a997a6f2", "fusion_lon": 0.0}, {"is_reserved": 0, "type": "electric_bike", "bike_id": "e082faed328acad435e2dbd9ec940e26", "lat": 38.8234475, "lon": -77.058228, "rental_uris": {"android": "https://dc.lft.to/lastmile_qr_scan", "ios": "https://dc.lft.to/lastmile_qr_scan"}, "is_disabled": 0, "fusion_lat": 0.0, "name": "e082faed328acad435e2dbd9ec940e26", "fusion_lon": 0.0}, {"is_reserved": 0, "type": "electric_scooter", "bike_id": "33945d8d19cd25900d2baff5abd4ce0e", "lat": 38.89868083333333, "lon": -77.03967083333333, "rental_uris": {"android": "https://dc.lft.to/lastmile_qr_scan", "ios": "https://dc.lft.to/lastmile_qr_scan"}, "is_disabled": 0, "fusion_lat": 0.0, "name": "33945d8d19cd25900d2baff5abd4ce0e", "fusion_lon": 0.0}, {"is_reserved": 0, "type": "electric_bike", "bike_id": "6797256498673212078c16501279f640", "lat": 38.88391683333333, "lon": -76.95449433333333, "rental_uris": {"android": "https://dc.lft.to/lastmile_qr_scan", "ios": "https://dc.lft.to/lastmile_qr_scan"}, "is_disabled": 0, "fusion_lat": 0.0, "name": "6797256498673212078c16501279f640", "fusion_lon": 0.0}, {"is_reserved": 0, "type": "electric_scooter", "bike_id": "be5744012b4b74f397d12fffdd459b97", "lat": 38.89955416666667, "lon": -77.04766833333333, "rental_uris": {"android": "https://dc.lft.to/lastmile_qr_scan", "ios": "https://dc.lft.to/lastmile_qr_scan"}, "is_disabled": 0, "fusion_lat": 0.0, "name": "be5744012b4b74f397d12fffdd459b97", "fusion_lon": 0.0}, {"is_reserved": 0, "type": "electric_scooter", "bike_id": "476bd67d227260ba0f96e8fa83efc4e0", "lat": 38.924603166666664, "lon": -77.0522635, "rental_uris": {"android": "https://dc.lft.to/lastmile_qr_scan", "ios": "https://dc.lft.to/lastmile_qr_scan"}, "is_disabled": 0, "fusion_lat": 0.0, "name": "476bd67d227260ba0f96e8fa83efc4e0", "fusion_lon": 0.0}, {"is_reserved": 0, "type": "electric_scooter", "bike_id": "fb32d367b81b8638cb497a55d2746476", "lat": 38.86381633333333, "lon": -76.99067283333333, "rental_uris": {"android": "https://dc.lft.to/lastmile_qr_scan", "ios": "https://dc.lft.to/lastmile_qr_scan"}, "is_disabled": 0, "fusion_lat": 0.0, "name": "fb32d367b81b8638cb497a55d2746476", "fusion_lon": 0.0}, {"is_reserved": 0, "type": "electric_scooter", "bike_id": "6aa673e3829f90426aae20f97df3bce7", "lat": 38.928331666666665, "lon": -77.0544255, "rental_uris": {"android": "https://dc.lft.to/lastmile_qr_scan", "ios": "https://dc.lft.to/lastmile_qr_scan"}, "is_disabled": 0, "fusion_lat": 0.0, "name": "6aa673e3829f90426aae20f97df3bce7", "fusion_lon": 0.0}, {"is_reserved": 0, "type": "electric_scooter", "bike_id": "db6800c4cb06c13fee4d7c06180c7bd3", "lat": 38.9274475, "lon": -77.03305283333333, "rental_uris": {"android": "https://dc.lft.to/lastmile_qr_scan", "ios": "https://dc.lft.to/lastmile_qr_scan"}, "is_disabled": 0, "fusion_lat": 0.0, "name": "db6800c4cb06c13fee4d7c06180c7bd3", "fusion_lon": 0.0}, {"is_reserved": 0, "type": "electric_scooter", "bike_id": "d211068e26a773c0c0b7d7f48de03bfb", "lat": 38.928341, "lon": -77.05446166666667, "rental_uris": {"android": "https://dc.lft.to/lastmile_qr_scan", "ios": "https://dc.lft.to/lastmile_qr_scan"}, "is_disabled": 0, "fusion_lat": 0.0, "name": "d211068e26a773c0c0b7d7f48de03bfb", "fusion_lon": 0.0}, {"is_reserved": 0, "type": "electric_bike", "bike_id": "44568103cd371e052cb75e71e974ed0b", "lat": 39.0003365, "lon": -77.04746566666667, "rental_uris": {"android": "https://dc.lft.to/lastmile_qr_scan", "ios": "https://dc.lft.to/lastmile_qr_scan"}, "is_disabled": 0, "fusion_lat": 0.0, "name": "44568103cd371e052cb75e71e974ed0b", "fusion_lon": 0.0}, {"is_reserved": 0, "type": "electric_scooter", "bike_id": "39d4322281a1e6dc961fdad442620be8", "lat": 38.91831883333333, "lon": -77.014746, "rental_uris": {"android": "https://dc.lft.to/lastmile_qr_scan", "ios": "https://dc.lft.to/lastmile_qr_scan"}, "is_disabled": 0, "fusion_lat": 0.0, "name": "39d4322281a1e6dc961fdad442620be8", "fusion_lon": 0.0}, {"is_reserved": 0, "type": "electric_scooter", "bike_id": "f45a942441457f80e14d43f72e783af1", "lat": 38.899449833333335, "lon": -76.97713766666666, "rental_uris": {"android": "https://dc.lft.to/lastmile_qr_scan", "ios": "https://dc.lft.to/lastmile_qr_scan"}, "is_disabled": 0, "fusion_lat": 0.0, "name": "f45a942441457f80e14d43f72e783af1", "fusion_lon": 0.0}, {"is_reserved": 0, "type": "electric_scooter", "bike_id": "53344c96e3e0a52cd948ae2e28cdaaea", "lat": 38.892285, "lon": -77.04360183333333, "rental_uris": {"android": "https://dc.lft.to/lastmile_qr_scan", "ios": "https://dc.lft.to/lastmile_qr_scan"}, "is_disabled": 0, "fusion_lat": 0.0, "name": "53344c96e3e0a52cd948ae2e28cdaaea", "fusion_lon": 0.0}, {"is_reserved": 0, "type": "electric_scooter", "bike_id": "3c97c7d7539baa7a9421c187fcbb8925", "lat": 38.953835166666664, "lon": -77.00187916666667, "rental_uris": {"android": "https://dc.lft.to/lastmile_qr_scan", "ios": "https://dc.lft.to/lastmile_qr_scan"}, "is_disabled": 0, "fusion_lat": 0.0, "name": "3c97c7d7539baa7a9421c187fcbb8925", "fusion_lon": 0.0}, {"is_reserved": 0, "type": "electric_scooter", "bike_id": "c09e219f13d4f3dbe91338bfa58bfc65", "lat": 38.905598, "lon": -77.005925, "rental_uris": {"android": "https://dc.lft.to/lastmile_qr_scan", "ios": "https://dc.lft.to/lastmile_qr_scan"}, "is_disabled": 0, "fusion_lat": 0.0, "name": "c09e219f13d4f3dbe91338bfa58bfc65", "fusion_lon": 0.0}, {"is_reserved": 0, "type": "electric_scooter", "bike_id": "7c0d36b2f84d64bebf47fffebf5032d1", "lat": 38.895971333333335, "lon": -77.0301145, "rental_uris": {"android": "https://dc.lft.to/lastmile_qr_scan", "ios": "https://dc.lft.to/lastmile_qr_scan"}, "is_disabled": 0, "fusion_lat": 0.0, "name": "7c0d36b2f84d64bebf47fffebf5032d1", "fusion_lon": 0.0}, {"is_reserved": 0, "type": "electric_scooter", "bike_id": "0db4702fcbad856e0056ae797b41a85d", "lat": 38.88740716666667, "lon": -77.00347716666667, "rental_uris": {"android": "https://dc.lft.to/lastmile_qr_scan", "ios": "https://dc.lft.to/lastmile_qr_scan"}, "is_disabled": 0, "fusion_lat": 0.0, "name": "0db4702fcbad856e0056ae797b41a85d", "fusion_lon": 0.0}, {"is_reserved": 0, "type": "electric_scooter", "bike_id": "f458e6e06a8b46826ff45ac5b2a19435", "lat": 38.934572333333335, "lon": -77.0292175, "rental_uris": {"android": "https://dc.lft.to/lastmile_qr_scan", "ios": "https://dc.lft.to/lastmile_qr_scan"}, "is_disabled": 0, "fusion_lat": 0.0, "name": "f458e6e06a8b46826ff45ac5b2a19435", "fusion_lon": 0.0}, {"is_reserved": 0, "type": "electric_scooter", "bike_id": "f18585977552d6d81a9cc2a442d08102", "lat": 38.89637916666667, "lon": -76.92800966666667, "rental_uris": {"android": "https://dc.lft.to/lastmile_qr_scan", "ios": "https://dc.lft.to/lastmile_qr_scan"}, "is_disabled": 0, "fusion_lat": 0.0, "name": "f18585977552d6d81a9cc2a442d08102", "fusion_lon": 0.0}, {"is_reserved": 0, "type": "electric_scooter", "bike_id": "1acec67bd33bba3d8f23fe8bf15676e1", "lat": 38.92353083333333, "lon": -77.03504583333333, "rental_uris": {"android": "https://dc.lft.to/lastmile_qr_scan", "ios": "https://dc.lft.to/lastmile_qr_scan"}, "is_disabled": 0, "fusion_lat": 0.0, "name": "1acec67bd33bba3d8f23fe8bf15676e1", "fusion_lon": 0.0}, {"is_reserved": 0, "type": "electric_scooter", "bike_id": "9459a9e70c21c8950a19509e8d722888", "lat": 38.876458666666664, "lon": -77.01576516666667, "rental_uris": {"android": "https://dc.lft.to/lastmile_qr_scan", "ios": "https://dc.lft.to/lastmile_qr_scan"}, "is_disabled": 0, "fusion_lat": 0.0, "name": "9459a9e70c21c8950a19509e8d722888", "fusion_lon": 0.0}, {"is_reserved": 0, "type": "electric_scooter", "bike_id": "337e347f9db9118dd44c69f17afaf064", "lat": 38.9001745, "lon": -76.99641416666667, "rental_uris": {"android": "https://dc.lft.to/lastmile_qr_scan", "ios": "https://dc.lft.to/lastmile_qr_scan"}, "is_disabled": 0, "fusion_lat": 0.0, "name": "337e347f9db9118dd44c69f17afaf064", "fusion_lon": 0.0}, {"is_reserved": 0, "type": "electric_scooter", "bike_id": "4ba36751a50d95b21cd049d2c0d1f3b9", "lat": 38.94596833333333, "lon": -77.02035933333333, "rental_uris": {"android": "https://dc.lft.to/lastmile_qr_scan", "ios": "https://dc.lft.to/lastmile_qr_scan"}, "is_disabled": 0, "fusion_lat": 0.0, "name": "4ba36751a50d95b21cd049d2c0d1f3b9", "fusion_lon": 0.0}, {"is_reserved": 0, "type": "electric_scooter", "bike_id": "6fd489f57becbc95d90a6fc3cbb3872b", "lat": 38.90197466666667, "lon": -77.0218245, "rental_uris": {"android": "https://dc.lft.to/lastmile_qr_scan", "ios": "https://dc.lft.to/lastmile_qr_scan"}, "is_disabled": 0, "fusion_lat": 0.0, "name": "6fd489f57becbc95d90a6fc3cbb3872b", "fusion_lon": 0.0}, {"is_reserved": 0, "type": "electric_bike", "bike_id": "5cc25501e5f2989a368528e2196cf55d", "lat": 38.94268266666667, "lon": -76.99070316666666, "rental_uris": {"android": "https://dc.lft.to/lastmile_qr_scan", "ios": "https://dc.lft.to/lastmile_qr_scan"}, "is_disabled": 0, "fusion_lat": 0.0, "name": "5cc25501e5f2989a368528e2196cf55d", "fusion_lon": 0.0}, {"is_reserved": 0, "type": "electric_scooter", "bike_id": "d546987d4ac0391d1777871a8bf9f8c2", "lat": 38.89695733333333, "lon": -77.04344816666666, "rental_uris": {"android": "https://dc.lft.to/lastmile_qr_scan", "ios": "https://dc.lft.to/lastmile_qr_scan"}, "is_disabled": 0, "fusion_lat": 0.0, "name": "d546987d4ac0391d1777871a8bf9f8c2", "fusion_lon": 0.0}, {"is_reserved": 0, "type": "electric_scooter", "bike_id": "0eeadc1b28644790fdebd6fa8dd41811", "lat": 38.95911, "lon": -77.00019116666667, "rental_uris": {"android": "https://dc.lft.to/lastmile_qr_scan", "ios": "https://dc.lft.to/lastmile_qr_scan"}, "is_disabled": 0, "fusion_lat": 0.0, "name": "0eeadc1b28644790fdebd6fa8dd41811", "fusion_lon": 0.0}, {"is_reserved": 0, "type": "electric_scooter", "bike_id": "1699960a51674972e3cb8f933124212b", "lat": 38.894688, "lon": -76.99711583333334, "rental_uris": {"android": "https://dc.lft.to/lastmile_qr_scan", "ios": "https://dc.lft.to/lastmile_qr_scan"}, "is_disabled": 0, "fusion_lat": 0.0, "name": "1699960a51674972e3cb8f933124212b", "fusion_lon": 0.0}, {"is_reserved": 0, "type": "electric_scooter", "bike_id": "c81e9ccbae31858523104bcb35961115", "lat": 38.90130466666667, "lon": -77.04153883333333, "rental_uris": {"android": "https://dc.lft.to/lastmile_qr_scan", "ios": "https://dc.lft.to/lastmile_qr_scan"}, "is_disabled": 0, "fusion_lat": 0.0, "name": "c81e9ccbae31858523104bcb35961115", "fusion_lon": 0.0}, {"is_reserved": 0, "type": "electric_scooter", "bike_id": "61f0b71459974b720a35ec9fba3a5dd9", "lat": 38.92681833333333, "lon": -77.03200566666666, "rental_uris": {"android": "https://dc.lft.to/lastmile_qr_scan", "ios": "https://dc.lft.to/lastmile_qr_scan"}, "is_disabled": 0, "fusion_lat": 0.0, "name": "61f0b71459974b720a35ec9fba3a5dd9", "fusion_lon": 0.0}, {"is_reserved": 0, "type": "electric_bike", "bike_id": "831a7aacd1e9c349560a8d21d7324daa", "lat": 38.9993535, "lon": -77.05132783333333, "rental_uris": {"android": "https://dc.lft.to/lastmile_qr_scan", "ios": "https://dc.lft.to/lastmile_qr_scan"}, "is_disabled": 0, "fusion_lat": 0.0, "name": "831a7aacd1e9c349560a8d21d7324daa", "fusion_lon": 0.0}, {"is_reserved": 0, "type": "electric_bike", "bike_id": "715aa0e7b783f8fada0a018b8f0d93f2", "lat": 38.965038, "lon": -77.10337283333334, "rental_uris": {"android": "https://dc.lft.to/lastmile_qr_scan", "ios": "https://dc.lft.to/lastmile_qr_scan"}, "is_disabled": 0, "fusion_lat": 0.0, "name": "715aa0e7b783f8fada0a018b8f0d93f2", "fusion_lon": 0.0}, {"is_reserved": 0, "type": "electric_scooter", "bike_id": "2ebc1f1723d1df71481a1e476966bd2d", "lat": 38.98365616666667, "lon": -77.02674083333333, "rental_uris": {"android": "https://dc.lft.to/lastmile_qr_scan", "ios": "https://dc.lft.to/lastmile_qr_scan"}, "is_disabled": 0, "fusion_lat": 0.0, "name": "2ebc1f1723d1df71481a1e476966bd2d", "fusion_lon": 0.0}, {"is_reserved": 0, "type": "electric_scooter", "bike_id": "749b5366e48cd3dce0245747b51102d2", "lat": 38.892342166666666, "lon": -77.04875566666666, "rental_uris": {"android": "https://dc.lft.to/lastmile_qr_scan", "ios": "https://dc.lft.to/lastmile_qr_scan"}, "is_disabled": 0, "fusion_lat": 0.0, "name": "749b5366e48cd3dce0245747b51102d2", "fusion_lon": 0.0}, {"is_reserved": 0, "type": "electric_scooter", "bike_id": "a7c8c8d92ec9c4d316a3f03b7ea6b4a1", "lat": 38.917841833333334, "lon": -77.03187583333333, "rental_uris": {"android": "https://dc.lft.to/lastmile_qr_scan", "ios": "https://dc.lft.to/lastmile_qr_scan"}, "is_disabled": 0, "fusion_lat": 0.0, "name": "a7c8c8d92ec9c4d316a3f03b7ea6b4a1", "fusion_lon": 0.0}, {"is_reserved": 0, "type": "electric_scooter", "bike_id": "44e402bf9aeb48cc61dd09193e3cfa35", "lat": 38.9234545, "lon": -77.0191205, "rental_uris": {"android": "https://dc.lft.to/lastmile_qr_scan", "ios": "https://dc.lft.to/lastmile_qr_scan"}, "is_disabled": 0, "fusion_lat": 0.0, "name": "44e402bf9aeb48cc61dd09193e3cfa35", "fusion_lon": 0.0}, {"is_reserved": 0, "type": "electric_scooter", "bike_id": "8881680f3263dbe31a08cbb0fa077025", "lat": 38.898368833333336, "lon": -76.9465575, "rental_uris": {"android": "https://dc.lft.to/lastmile_qr_scan", "ios": "https://dc.lft.to/lastmile_qr_scan"}, "is_disabled": 0, "fusion_lat": 0.0, "name": "8881680f3263dbe31a08cbb0fa077025", "fusion_lon": 0.0}, {"is_reserved": 0, "type": "electric_scooter", "bike_id": "152079e025335d3fea53f385b8d9a5fa", "lat": 38.92425883333333, "lon": -77.01956816666667, "rental_uris": {"android": "https://dc.lft.to/lastmile_qr_scan", "ios": "https://dc.lft.to/lastmile_qr_scan"}, "is_disabled": 0, "fusion_lat": 0.0, "name": "152079e025335d3fea53f385b8d9a5fa", "fusion_lon": 0.0}, {"is_reserved": 0, "type": "electric_scooter", "bike_id": "74a78b485d56c46038f77acfc288fe70", "lat": 38.9070405, "lon": -77.03442916666667, "rental_uris": {"android": "https://dc.lft.to/lastmile_qr_scan", "ios": "https://dc.lft.to/lastmile_qr_scan"}, "is_disabled": 0, "fusion_lat": 0.0, "name": "74a78b485d56c46038f77acfc288fe70", "fusion_lon": 0.0}, {"is_reserved": 0, "type": "electric_scooter", "bike_id": "2e9fb4e7e20c2db5a33c0b408bd9c009", "lat": 38.9364005, "lon": -77.03670466666667, "rental_uris": {"android": "https://dc.lft.to/lastmile_qr_scan", "ios": "https://dc.lft.to/lastmile_qr_scan"}, "is_disabled": 0, "fusion_lat": 0.0, "name": "2e9fb4e7e20c2db5a33c0b408bd9c009", "fusion_lon": 0.0}, {"is_reserved": 0, "type": "electric_scooter", "bike_id": "85feee49ccd2451af0cd409e8e48cb4a", "lat": 38.91195783333333, "lon": -77.00724966666667, "rental_uris": {"android": "https://dc.lft.to/lastmile_qr_scan", "ios": "https://dc.lft.to/lastmile_qr_scan"}, "is_disabled": 0, "fusion_lat": 0.0, "name": "85feee49ccd2451af0cd409e8e48cb4a", "fusion_lon": 0.0}, {"is_reserved": 0, "type": "electric_scooter", "bike_id": "e68954e86cbbf0d3e403dc0ba47b153c", "lat": 38.91417933333334, "lon": -77.0287555, "rental_uris": {"android": "https://dc.lft.to/lastmile_qr_scan", "ios": "https://dc.lft.to/lastmile_qr_scan"}, "is_disabled": 0, "fusion_lat": 0.0, "name": "e68954e86cbbf0d3e403dc0ba47b153c", "fusion_lon": 0.0}, {"is_reserved": 0, "type": "electric_scooter", "bike_id": "b798c85df4d43d9b80173663e8f6f9e9", "lat": 38.8994785, "lon": -77.02720916666667, "rental_uris": {"android": "https://dc.lft.to/lastmile_qr_scan", "ios": "https://dc.lft.to/lastmile_qr_scan"}, "is_disabled": 0, "fusion_lat": 0.0, "name": "b798c85df4d43d9b80173663e8f6f9e9", "fusion_lon": 0.0}, {"is_reserved": 0, "type": "electric_scooter", "bike_id": "3b392200541c4663d72332f7a7dd7741", "lat": 38.93363816666667, "lon": -77.057244, "rental_uris": {"android": "https://dc.lft.to/lastmile_qr_scan", "ios": "https://dc.lft.to/lastmile_qr_scan"}, "is_disabled": 0, "fusion_lat": 0.0, "name": "3b392200541c4663d72332f7a7dd7741", "fusion_lon": 0.0}, {"is_reserved": 0, "type": "electric_scooter", "bike_id": "411a7275d3b9b6d40882184b79743c96", "lat": 38.900040833333335, "lon": -77.01028783333334, "rental_uris": {"android": "https://dc.lft.to/lastmile_qr_scan", "ios": "https://dc.lft.to/lastmile_qr_scan"}, "is_disabled": 0, "fusion_lat": 0.0, "name": "411a7275d3b9b6d40882184b79743c96", "fusion_lon": 0.0}, {"is_reserved": 0, "type": "electric_scooter", "bike_id": "74156d70c2826da5f740821fbcd870e2", "lat": 38.90348516666667, "lon": -77.033067, "rental_uris": {"android": "https://dc.lft.to/lastmile_qr_scan", "ios": "https://dc.lft.to/lastmile_qr_scan"}, "is_disabled": 0, "fusion_lat": 0.0, "name": "74156d70c2826da5f740821fbcd870e2", "fusion_lon": 0.0}, {"is_reserved": 0, "type": "electric_scooter", "bike_id": "fce193a6181c7553c7bd698925e0e576", "lat": 38.92330533333333, "lon": -77.03677433333333, "rental_uris": {"android": "https://dc.lft.to/lastmile_qr_scan", "ios": "https://dc.lft.to/lastmile_qr_scan"}, "is_disabled": 0, "fusion_lat": 0.0, "name": "fce193a6181c7553c7bd698925e0e576", "fusion_lon": 0.0}, {"is_reserved": 0, "type": "electric_scooter", "bike_id": "47566cd888e0be76c9f4dbf1810cb9ab", "lat": 38.90644783333333, "lon": -77.011395, "rental_uris": {"android": "https://dc.lft.to/lastmile_qr_scan", "ios": "https://dc.lft.to/lastmile_qr_scan"}, "is_disabled": 0, "fusion_lat": 0.0, "name": "47566cd888e0be76c9f4dbf1810cb9ab", "fusion_lon": 0.0}, {"is_reserved": 0, "type": "electric_scooter", "bike_id": "a0856a9269bf755e158ede7319e68bd1", "lat": 38.914142, "lon": -77.02612366666666, "rental_uris": {"android": "https://dc.lft.to/lastmile_qr_scan", "ios": "https://dc.lft.to/lastmile_qr_scan"},