{"data": {"bikes": [{"lon": -77.02174466666666, "bike_id": "b7e512ebabbe3a850ef359ccfecc67cb", "lat": 38.90960666666667, "fusion_lon": 0.0, "fusion_lat": 0.0, "type": "electric_scooter", "name": "b7e512ebabbe3a850ef359ccfecc67cb", "is_disabled": 0, "rental_uris": {"ios": "https://dc.lft.to/lastmile_qr_scan", "android": "https://dc.lft.to/lastmile_qr_scan"}, "is_reserved": 0}, {"lon": -77.02690466666667, "bike_id": "7d2d5f35607c6c46c41a69ec92bb6bee", "lat": 38.90059083333333, "fusion_lon": 0.0, "fusion_lat": 0.0, "type": "electric_scooter", "name": "7d2d5f35607c6c46c41a69ec92bb6bee", "is_disabled": 0, "rental_uris": {"ios": "https://dc.lft.to/lastmile_qr_scan", "android": "https://dc.lft.to/lastmile_qr_scan"}, "is_reserved": 0}, {"lon": -77.02104816666667, "bike_id": "43cb657c9e431747de56281c6ca868cc", "lat": 38.89952366666667, "fusion_lon": 0.0, "fusion_lat": 0.0, "type": "electric_scooter", "name": "43cb657c9e431747de56281c6ca868cc", "is_disabled": 0, "rental_uris": {"ios": "https://dc.lft.to/lastmile_qr_scan", "android": "https://dc.lft.to/lastmile_qr_scan"}, "is_reserved": 0}, {"lon": -77.041742, "bike_id": "99ad2e29b3840b81e69b7e02141b1c2c", "lat": 38.919186, "fusion_lon": 0.0, "fusion_lat": 0.0, "type": "electric_scooter", "name": "99ad2e29b3840b81e69b7e02141b1c2c", "is_disabled": 0, "rental_uris": {"ios": "https://dc.lft.to/lastmile_qr_scan", "android": "https://dc.lft.to/lastmile_qr_scan"}, "is_reserved": 0}, {"lon": -77.05863483333333, "bike_id": "d2152d2b0d93b90ded432bc07ea7f77f", "lat": 38.936100333333336, "fusion_lon": 0.0, "fusion_lat": 0.0, "type": "electric_scooter", "name": "d2152d2b0d93b90ded432bc07ea7f77f", "is_disabled": 0, "rental_uris": {"ios": "https://dc.lft.to/lastmile_qr_scan", "android": "https://dc.lft.to/lastmile_qr_scan"}, "is_reserved": 0}, {"lon": -77.03854133333333, "bike_id": "2b5d7f04b2d6b02a8d0c5ed57337252e", "lat": 38.916631, "fusion_lon": 0.0, "fusion_lat": 0.0, "type": "electric_scooter", "name": "2b5d7f04b2d6b02a8d0c5ed57337252e", "is_disabled": 0, "rental_uris": {"ios": "https://dc.lft.to/lastmile_qr_scan", "android": "https://dc.lft.to/lastmile_qr_scan"}, "is_reserved": 0}, {"lon": -76.98214183333333, "bike_id": "623123377b783d572da4ae5d357d9665", "lat": 38.866182, "fusion_lon": 0.0, "fusion_lat": 0.0, "type": "electric_scooter", "name": "623123377b783d572da4ae5d357d9665", "is_disabled": 0, "rental_uris": {"ios": "https://dc.lft.to/lastmile_qr_scan", "android": "https://dc.lft.to/lastmile_qr_scan"}, "is_reserved": 0}, {"lon": -77.0317735, "bike_id": "ea3d57a17a68fced3d0df9b6eabfac58", "lat": 38.903768166666666, "fusion_lon": 0.0, "fusion_lat": 0.0, "type": "electric_scooter", "name": "ea3d57a17a68fced3d0df9b6eabfac58", "is_disabled": 0, "rental_uris": {"ios": "https://dc.lft.to/lastmile_qr_scan", "android": "https://dc.lft.to/lastmile_qr_scan"}, "is_reserved": 0}, {"lon": -76.9904965, "bike_id": "75900ce2d66f8f747560c07fda737801", "lat": 38.88417316666666, "fusion_lon": 0.0, "fusion_lat": 0.0, "type": "electric_scooter", "name": "75900ce2d66f8f747560c07fda737801", "is_disabled": 0, "rental_uris": {"ios": "https://dc.lft.to/lastmile_qr_scan", "android": "https://dc.lft.to/lastmile_qr_scan"}, "is_reserved": 0}, {"lon": -77.07350666666666, "bike_id": "5eeb662674c648a79dcd219a76a63aa7", "lat": 38.9110485, "fusion_lon": 0.0, "fusion_lat": 0.0, "type": "electric_scooter", "name": "5eeb662674c648a79dcd219a76a63aa7", "is_disabled": 0, "rental_uris": {"ios": "https://dc.lft.to/lastmile_qr_scan", "android": "https://dc.lft.to/lastmile_qr_scan"}, "is_reserved": 0}, {"lon": -77.0228215, "bike_id": "191bf4ba1e230271139ccd1256842bb3", "lat": 38.8783965, "fusion_lon": 0.0, "fusion_lat": 0.0, "type": "electric_scooter", "name": "191bf4ba1e230271139ccd1256842bb3", "is_disabled": 0, "rental_uris": {"ios": "https://dc.lft.to/lastmile_qr_scan", "android": "https://dc.lft.to/lastmile_qr_scan"}, "is_reserved": 0}, {"lon": -76.93273433333333, "bike_id": "f35b3727724b7b59ef1d8fe786ad196d", "lat": 38.954225666666666, "fusion_lon": 0.0, "fusion_lat": 0.0, "type": "electric_bike", "name": "f35b3727724b7b59ef1d8fe786ad196d", "is_disabled": 0, "rental_uris": {"ios": "https://dc.lft.to/lastmile_qr_scan", "android": "https://dc.lft.to/lastmile_qr_scan"}, "is_reserved": 0}, {"lon": -77.02710166666667, "bike_id": "5ff7f1d3d41a76f8629af51fceccc674", "lat": 38.900751, "fusion_lon": 0.0, "fusion_lat": 0.0, "type": "electric_scooter", "name": "5ff7f1d3d41a76f8629af51fceccc674", "is_disabled": 0, "rental_uris": {"ios": "https://dc.lft.to/lastmile_qr_scan", "android": "https://dc.lft.to/lastmile_qr_scan"}, "is_reserved": 0}, {"lon": -77.031705, "bike_id": "9ba8d688689ea198092eceea9c2103e7", "lat": 38.9515675, "fusion_lon": 0.0, "fusion_lat": 0.0, "type": "electric_bike", "name": "9ba8d688689ea198092eceea9c2103e7", "is_disabled": 0, "rental_uris": {"ios": "https://dc.lft.to/lastmile_qr_scan", "android": "https://dc.lft.to/lastmile_qr_scan"}, "is_reserved": 0}, {"lon": -76.99645616666666, "bike_id": "bbf7ac10a750a5258e83e1d64b4025eb", "lat": 38.887214166666666, "fusion_lon": 0.0, "fusion_lat": 0.0, "type": "electric_scooter", "name": "bbf7ac10a750a5258e83e1d64b4025eb", "is_disabled": 0, "rental_uris": {"ios": "https://dc.lft.to/lastmile_qr_scan", "android": "https://dc.lft.to/lastmile_qr_scan"}, "is_reserved": 0}, {"lon": -77.00536633333333, "bike_id": "bfb75f476c413ef041fe054b2d52103e", "lat": 38.87546716666667, "fusion_lon": 0.0, "fusion_lat": 0.0, "type": "electric_scooter", "name": "bfb75f476c413ef041fe054b2d52103e", "is_disabled": 0, "rental_uris": {"ios": "https://dc.lft.to/lastmile_qr_scan", "android": "https://dc.lft.to/lastmile_qr_scan"}, "is_reserved": 0}, {"lon": -77.03498716666667, "bike_id": "351281d2f9ee43041628a7b3b535d1fc", "lat": 38.914886333333335, "fusion_lon": 0.0, "fusion_lat": 0.0, "type": "electric_scooter", "name": "351281d2f9ee43041628a7b3b535d1fc", "is_disabled": 0, "rental_uris": {"ios": "https://dc.lft.to/lastmile_qr_scan", "android": "https://dc.lft.to/lastmile_qr_scan"}, "is_reserved": 0}, {"lon": -77.00564216666666, "bike_id": "4862ba37464f38189839f0504d192d8f", "lat": 38.87437466666667, "fusion_lon": 0.0, "fusion_lat": 0.0, "type": "electric_scooter", "name": "4862ba37464f38189839f0504d192d8f", "is_disabled": 0, "rental_uris": {"ios": "https://dc.lft.to/lastmile_qr_scan", "android": "https://dc.lft.to/lastmile_qr_scan"}, "is_reserved": 0}, {"lon": -77.02394066666666, "bike_id": "1791091451a3685577e9d3e86a5c6f25", "lat": 38.9070565, "fusion_lon": 0.0, "fusion_lat": 0.0, "type": "electric_scooter", "name": "1791091451a3685577e9d3e86a5c6f25", "is_disabled": 0, "rental_uris": {"ios": "https://dc.lft.to/lastmile_qr_scan", "android": "https://dc.lft.to/lastmile_qr_scan"}, "is_reserved": 0}, {"lon": -76.9967345, "bike_id": "33c159c0f6271ce6ef0c122b81b86313", "lat": 38.92490316666667, "fusion_lon": 0.0, "fusion_lat": 0.0, "type": "electric_bike", "name": "33c159c0f6271ce6ef0c122b81b86313", "is_disabled": 0, "rental_uris": {"ios": "https://dc.lft.to/lastmile_qr_scan", "android": "https://dc.lft.to/lastmile_qr_scan"}, "is_reserved": 0}, {"lon": -76.9853205, "bike_id": "82c932122805f69e883760c205f95006", "lat": 38.899479, "fusion_lon": 0.0, "fusion_lat": 0.0, "type": "electric_scooter", "name": "82c932122805f69e883760c205f95006", "is_disabled": 0, "rental_uris": {"ios": "https://dc.lft.to/lastmile_qr_scan", "android": "https://dc.lft.to/lastmile_qr_scan"}, "is_reserved": 0}, {"lon": -77.06655416666666, "bike_id": "1bbfc0c0ea2bbe1ae17732c639aeda50", "lat": 38.932503, "fusion_lon": 0.0, "fusion_lat": 0.0, "type": "electric_scooter", "name": "1bbfc0c0ea2bbe1ae17732c639aeda50", "is_disabled": 0, "rental_uris": {"ios": "https://dc.lft.to/lastmile_qr_scan", "android": "https://dc.lft.to/lastmile_qr_scan"}, "is_reserved": 0}, {"lon": -77.02184416666667, "bike_id": "1a8c6078ddf1b31897e121b3d1566ab6", "lat": 38.89516183333333, "fusion_lon": 0.0, "fusion_lat": 0.0, "type": "electric_scooter", "name": "1a8c6078ddf1b31897e121b3d1566ab6", "is_disabled": 0, "rental_uris": {"ios": "https://dc.lft.to/lastmile_qr_scan", "android": "https://dc.lft.to/lastmile_qr_scan"}, "is_reserved": 0}, {"lon": -77.0238475, "bike_id": "fd26dcb8ffa689eae5839f81ed6b1a55", "lat": 38.906294, "fusion_lon": 0.0, "fusion_lat": 0.0, "type": "electric_scooter", "name": "fd26dcb8ffa689eae5839f81ed6b1a55", "is_disabled": 0, "rental_uris": {"ios": "https://dc.lft.to/lastmile_qr_scan", "android": "https://dc.lft.to/lastmile_qr_scan"}, "is_reserved": 0}, {"lon": -77.043298, "bike_id": "6b2506f4dbe5121bdb684b2d933daec7", "lat": 38.918767333333335, "fusion_lon": 0.0, "fusion_lat": 0.0, "type": "electric_scooter", "name": "6b2506f4dbe5121bdb684b2d933daec7", "is_disabled": 0, "rental_uris": {"ios": "https://dc.lft.to/lastmile_qr_scan", "android": "https://dc.lft.to/lastmile_qr_scan"}, "is_reserved": 0}, {"lon": -76.99618233333334, "bike_id": "06f43a629037f3b9371efcc7266b6752", "lat": 38.883151166666664, "fusion_lon": 0.0, "fusion_lat": 0.0, "type": "electric_scooter", "name": "06f43a629037f3b9371efcc7266b6752", "is_disabled": 0, "rental_uris": {"ios": "https://dc.lft.to/lastmile_qr_scan", "android": "https://dc.lft.to/lastmile_qr_scan"}, "is_reserved": 0}, {"lon": -77.01505933333334, "bike_id": "f1ea6993e3a27e76cbb81d98e00ea86b", "lat": 38.8918325, "fusion_lon": 0.0, "fusion_lat": 0.0, "type": "electric_scooter", "name": "f1ea6993e3a27e76cbb81d98e00ea86b", "is_disabled": 0, "rental_uris": {"ios": "https://dc.lft.to/lastmile_qr_scan", "android": "https://dc.lft.to/lastmile_qr_scan"}, "is_reserved": 0}, {"lon": -76.9943095, "bike_id": "ea8586df49935e911f56f966cf871d6a", "lat": 38.933453, "fusion_lon": 0.0, "fusion_lat": 0.0, "type": "electric_bike", "name": "ea8586df49935e911f56f966cf871d6a", "is_disabled": 0, "rental_uris": {"ios": "https://dc.lft.to/lastmile_qr_scan", "android": "https://dc.lft.to/lastmile_qr_scan"}, "is_reserved": 0}, {"lon": -76.9956805, "bike_id": "79aebb10c78fe98ca1fc7a75b56da49d", "lat": 38.8518325, "fusion_lon": 0.0, "fusion_lat": 0.0, "type": "electric_bike", "name": "79aebb10c78fe98ca1fc7a75b56da49d", "is_disabled": 0, "rental_uris": {"ios": "https://dc.lft.to/lastmile_qr_scan", "android": "https://dc.lft.to/lastmile_qr_scan"}, "is_reserved": 0}, {"lon": -77.043503, "bike_id": "d2035e4fc4d3f828c6a924eb9568d29d", "lat": 38.92168783333334, "fusion_lon": 0.0, "fusion_lat": 0.0, "type": "electric_scooter", "name": "d2035e4fc4d3f828c6a924eb9568d29d", "is_disabled": 0, "rental_uris": {"ios": "https://dc.lft.to/lastmile_qr_scan", "android": "https://dc.lft.to/lastmile_qr_scan"}, "is_reserved": 0}, {"lon": -77.04259233333333, "bike_id": "f0eaf94e16a3eb4a48a51faf77a52628", "lat": 38.9103905, "fusion_lon": 0.0, "fusion_lat": 0.0, "type": "electric_scooter", "name": "f0eaf94e16a3eb4a48a51faf77a52628", "is_disabled": 0, "rental_uris": {"ios": "https://dc.lft.to/lastmile_qr_scan", "android": "https://dc.lft.to/lastmile_qr_scan"}, "is_reserved": 0}, {"lon": -76.95193566666667, "bike_id": "16947e93092c10525ea0130745a0458b", "lat": 38.9000195, "fusion_lon": 0.0, "fusion_lat": 0.0, "type": "electric_scooter", "name": "16947e93092c10525ea0130745a0458b", "is_disabled": 0, "rental_uris": {"ios": "https://dc.lft.to/lastmile_qr_scan", "android": "https://dc.lft.to/lastmile_qr_scan"}, "is_reserved": 0}, {"lon": -76.98814266666666, "bike_id": "ae042b438d73cec9ffd2eaa3dc0f0596", "lat": 38.85830933333333, "fusion_lon": 0.0, "fusion_lat": 0.0, "type": "electric_scooter", "name": "ae042b438d73cec9ffd2eaa3dc0f0596", "is_disabled": 0, "rental_uris": {"ios": "https://dc.lft.to/lastmile_qr_scan", "android": "https://dc.lft.to/lastmile_qr_scan"}, "is_reserved": 0}, {"lon": -77.04082133333333, "bike_id": "838ff140541cb34c0a07bba97968ffb2", "lat": 38.909620833333335, "fusion_lon": 0.0, "fusion_lat": 0.0, "type": "electric_scooter", "name": "838ff140541cb34c0a07bba97968ffb2", "is_disabled": 0, "rental_uris": {"ios": "https://dc.lft.to/lastmile_qr_scan", "android": "https://dc.lft.to/lastmile_qr_scan"}, "is_reserved": 0}, {"lon": -77.01609116666667, "bike_id": "057096b02e4c365b27c7cda8f439a9d5", "lat": 38.91068283333333, "fusion_lon": 0.0, "fusion_lat": 0.0, "type": "electric_scooter", "name": "057096b02e4c365b27c7cda8f439a9d5", "is_disabled": 0, "rental_uris": {"ios": "https://dc.lft.to/lastmile_qr_scan", "android": "https://dc.lft.to/lastmile_qr_scan"}, "is_reserved": 0}, {"lon": -77.03855933333334, "bike_id": "95e5c4cba5fd15451ededead57b554d7", "lat": 38.9313245, "fusion_lon": 0.0, "fusion_lat": 0.0, "type": "electric_scooter", "name": "95e5c4cba5fd15451ededead57b554d7", "is_disabled": 0, "rental_uris": {"ios": "https://dc.lft.to/lastmile_qr_scan", "android": "https://dc.lft.to/lastmile_qr_scan"}, "is_reserved": 0}, {"lon": -77.03931483333334, "bike_id": "53d3f914dcc10ec93c9223c356bb6eed", "lat": 38.91110466666667, "fusion_lon": 0.0, "fusion_lat": 0.0, "type": "electric_scooter", "name": "53d3f914dcc10ec93c9223c356bb6eed", "is_disabled": 0, "rental_uris": {"ios": "https://dc.lft.to/lastmile_qr_scan", "android": "https://dc.lft.to/lastmile_qr_scan"}, "is_reserved": 0}, {"lon": -77.04455916666667, "bike_id": "5fe52be89d2298e5923cc4e003695936", "lat": 38.919399, "fusion_lon": 0.0, "fusion_lat": 0.0, "type": "electric_scooter", "name": "5fe52be89d2298e5923cc4e003695936", "is_disabled": 0, "rental_uris": {"ios": "https://dc.lft.to/lastmile_qr_scan", "android": "https://dc.lft.to/lastmile_qr_scan"}, "is_reserved": 0}, {"lon": -77.03281616666666, "bike_id": "f10cf0e66495ecb2bffd17f0bd526ba4", "lat": 38.937787666666665, "fusion_lon": 0.0, "fusion_lat": 0.0, "type": "electric_scooter", "name": "f10cf0e66495ecb2bffd17f0bd526ba4", "is_disabled": 0, "rental_uris": {"ios": "https://dc.lft.to/lastmile_qr_scan", "android": "https://dc.lft.to/lastmile_qr_scan"}, "is_reserved": 0}, {"lon": -76.93175583333333, "bike_id": "e3baf11e44a93a64e0dabb20c03e2cfe", "lat": 38.898826166666666, "fusion_lon": 0.0, "fusion_lat": 0.0, "type": "electric_scooter", "name": "e3baf11e44a93a64e0dabb20c03e2cfe", "is_disabled": 0, "rental_uris": {"ios": "https://dc.lft.to/lastmile_qr_scan", "android": "https://dc.lft.to/lastmile_qr_scan"}, "is_reserved": 0}, {"lon": -76.93369266666667, "bike_id": "4524b923e42a9085b0a7848538a4baa2", "lat": 38.899171333333335, "fusion_lon": 0.0, "fusion_lat": 0.0, "type": "electric_scooter", "name": "4524b923e42a9085b0a7848538a4baa2", "is_disabled": 0, "rental_uris": {"ios": "https://dc.lft.to/lastmile_qr_scan", "android": "https://dc.lft.to/lastmile_qr_scan"}, "is_reserved": 0}, {"lon": -77.03447616666666, "bike_id": "16dbe0e080b7eac832fe07e6298c4516", "lat": 38.90976466666667, "fusion_lon": 0.0, "fusion_lat": 0.0, "type": "electric_scooter", "name": "16dbe0e080b7eac832fe07e6298c4516", "is_disabled": 0, "rental_uris": {"ios": "https://dc.lft.to/lastmile_qr_scan", "android": "https://dc.lft.to/lastmile_qr_scan"}, "is_reserved": 0}, {"lon": -77.01145916666667, "bike_id": "a6babe3e566b94248f31ef05e7d4563b", "lat": 38.90648216666666, "fusion_lon": 0.0, "fusion_lat": 0.0, "type": "electric_scooter", "name": "a6babe3e566b94248f31ef05e7d4563b", "is_disabled": 0, "rental_uris": {"ios": "https://dc.lft.to/lastmile_qr_scan", "android": "https://dc.lft.to/lastmile_qr_scan"}, "is_reserved": 0}, {"lon": -76.98839033333333, "bike_id": "abadb8348f53581f4c30974fc557ce6b", "lat": 38.90072883333333, "fusion_lon": 0.0, "fusion_lat": 0.0, "type": "electric_scooter", "name": "abadb8348f53581f4c30974fc557ce6b", "is_disabled": 0, "rental_uris": {"ios": "https://dc.lft.to/lastmile_qr_scan", "android": "https://dc.lft.to/lastmile_qr_scan"}, "is_reserved": 0}, {"lon": -77.04942733333333, "bike_id": "96995d020bcc814f78c300a8007d61e7", "lat": 38.89731033333333, "fusion_lon": 0.0, "fusion_lat": 0.0, "type": "electric_scooter", "name": "96995d020bcc814f78c300a8007d61e7", "is_disabled": 0, "rental_uris": {"ios": "https://dc.lft.to/lastmile_qr_scan", "android": "https://dc.lft.to/lastmile_qr_scan"}, "is_reserved": 0}, {"lon": -77.038998, "bike_id": "e58f9c6678172bf7dc7eb33d1b437b92", "lat": 38.923568, "fusion_lon": 0.0, "fusion_lat": 0.0, "type": "electric_scooter", "name": "e58f9c6678172bf7dc7eb33d1b437b92", "is_disabled": 0, "rental_uris": {"ios": "https://dc.lft.to/lastmile_qr_scan", "android": "https://dc.lft.to/lastmile_qr_scan"}, "is_reserved": 0}, {"lon": -77.03421916666667, "bike_id": "a23b8df6589eebe5d086779b73346f12", "lat": 38.92241516666667, "fusion_lon": 0.0, "fusion_lat": 0.0, "type": "electric_scooter", "name": "a23b8df6589eebe5d086779b73346f12", "is_disabled": 0, "rental_uris": {"ios": "https://dc.lft.to/lastmile_qr_scan", "android": "https://dc.lft.to/lastmile_qr_scan"}, "is_reserved": 0}, {"lon": -77.003603, "bike_id": "18726ea8760f899593ab69a2be8ca0fd", "lat": 38.920490666666666, "fusion_lon": 0.0, "fusion_lat": 0.0, "type": "electric_scooter", "name": "18726ea8760f899593ab69a2be8ca0fd", "is_disabled": 0, "rental_uris": {"ios": "https://dc.lft.to/lastmile_qr_scan", "android": "https://dc.lft.to/lastmile_qr_scan"}, "is_reserved": 0}, {"lon": -77.18740616666666, "bike_id": "3184d65d81c9f1ad43e660a70130aabb", "lat": 38.8935425, "fusion_lon": 0.0, "fusion_lat": 0.0, "type": "electric_bike", "name": "3184d65d81c9f1ad43e660a70130aabb", "is_disabled": 0, "rental_uris": {"ios": "https://dc.lft.to/lastmile_qr_scan", "android": "https://dc.lft.to/lastmile_qr_scan"}, "is_reserved": 0}, {"lon": -77.08458916666666, "bike_id": "b226fce1e7e7c7bb08cdd0089f108428", "lat": 38.84818666666666, "fusion_lon": 0.0, "fusion_lat": 0.0, "type": "electric_bike", "name": "b226fce1e7e7c7bb08cdd0089f108428", "is_disabled": 0, "rental_uris": {"ios": "https://dc.lft.to/lastmile_qr_scan", "android": "https://dc.lft.to/lastmile_qr_scan"}, "is_reserved": 0}, {"lon": -77.03262783333334, "bike_id": "a1087781f6588a1ee1b2c35cf2ad74d0", "lat": 38.91406883333333, "fusion_lon": 0.0, "fusion_lat": 0.0, "type": "electric_scooter", "name": "a1087781f6588a1ee1b2c35cf2ad74d0", "is_disabled": 0, "rental_uris": {"ios": "https://dc.lft.to/lastmile_qr_scan", "android": "https://dc.lft.to/lastmile_qr_scan"}, "is_reserved": 0}, {"lon": -77.03814733333333, "bike_id": "d50c0d349d1b2d022006af9ecfd5161c", "lat": 38.91041516666667, "fusion_lon": 0.0, "fusion_lat": 0.0, "type": "electric_scooter", "name": "d50c0d349d1b2d022006af9ecfd5161c", "is_disabled": 0, "rental_uris": {"ios": "https://dc.lft.to/lastmile_qr_scan", "android": "https://dc.lft.to/lastmile_qr_scan"}, "is_reserved": 0}, {"lon": -77.0133975, "bike_id": "2d387cbb063c9abc97c41a96489582a6", "lat": 38.879251333333336, "fusion_lon": 0.0, "fusion_lat": 0.0, "type": "electric_scooter", "name": "2d387cbb063c9abc97c41a96489582a6", "is_disabled": 0, "rental_uris": {"ios": "https://dc.lft.to/lastmile_qr_scan", "android": "https://dc.lft.to/lastmile_qr_scan"}, "is_reserved": 0}, {"lon": -77.06339266666667, "bike_id": "45dcd2f867669ded97731244e516060b", "lat": 38.90682733333333, "fusion_lon": 0.0, "fusion_lat": 0.0, "type": "electric_scooter", "name": "45dcd2f867669ded97731244e516060b", "is_disabled": 0, "rental_uris": {"ios": "https://dc.lft.to/lastmile_qr_scan", "android": "https://dc.lft.to/lastmile_qr_scan"}, "is_reserved": 0}, {"lon": -77.03506416666667, "bike_id": "f74ca7eb2fe088f570fde73526cddeea", "lat": 38.93759133333333, "fusion_lon": 0.0, "fusion_lat": 0.0, "type": "electric_scooter", "name": "f74ca7eb2fe088f570fde73526cddeea", "is_disabled": 0, "rental_uris": {"ios": "https://dc.lft.to/lastmile_qr_scan", "android": "https://dc.lft.to/lastmile_qr_scan"}, "is_reserved": 0}, {"lon": -77.03190483333333, "bike_id": "fb4dd8b4b56ef403a3b25f1e747ee0a7", "lat": 38.90873283333333, "fusion_lon": 0.0, "fusion_lat": 0.0, "type": "electric_scooter", "name": "fb4dd8b4b56ef403a3b25f1e747ee0a7", "is_disabled": 0, "rental_uris": {"ios": "https://dc.lft.to/lastmile_qr_scan", "android": "https://dc.lft.to/lastmile_qr_scan"}, "is_reserved": 0}, {"lon": -77.05538183333333, "bike_id": "0b40078c6d9ad14cac5c35c320ad2d46", "lat": 38.93430983333333, "fusion_lon": 0.0, "fusion_lat": 0.0, "type": "electric_scooter", "name": "0b40078c6d9ad14cac5c35c320ad2d46", "is_disabled": 0, "rental_uris": {"ios": "https://dc.lft.to/lastmile_qr_scan", "android": "https://dc.lft.to/lastmile_qr_scan"}, "is_reserved": 0}, {"lon": -77.02426533333333, "bike_id": "9feb9010f337371585693403fc7e486f", "lat": 38.92657716666667, "fusion_lon": 0.0, "fusion_lat": 0.0, "type": "electric_scooter", "name": "9feb9010f337371585693403fc7e486f", "is_disabled": 0, "rental_uris": {"ios": "https://dc.lft.to/lastmile_qr_scan", "android": "https://dc.lft.to/lastmile_qr_scan"}, "is_reserved": 0}, {"lon": -77.022889, "bike_id": "38ca3ad2ae5cebbfc79a5bd47bc57fb7", "lat": 38.878926666666665, "fusion_lon": 0.0, "fusion_lat": 0.0, "type": "electric_scooter", "name": "38ca3ad2ae5cebbfc79a5bd47bc57fb7", "is_disabled": 0, "rental_uris": {"ios": "https://dc.lft.to/lastmile_qr_scan", "android": "https://dc.lft.to/lastmile_qr_scan"}, "is_reserved": 0}, {"lon": -77.036638, "bike_id": "51bf363f6fd74fc098c5a50feed8b0c9", "lat": 38.90276816666667, "fusion_lon": 0.0, "fusion_lat": 0.0, "type": "electric_scooter", "name": "51bf363f6fd74fc098c5a50feed8b0c9", "is_disabled": 0, "rental_uris": {"ios": "https://dc.lft.to/lastmile_qr_scan", "android": "https://dc.lft.to/lastmile_qr_scan"}, "is_reserved": 0}, {"lon": -77.04291683333334, "bike_id": "7769ffc6817ec12b5eddbd266498c6e0", "lat": 38.90734716666667, "fusion_lon": 0.0, "fusion_lat": 0.0, "type": "electric_scooter", "name": "7769ffc6817ec12b5eddbd266498c6e0", "is_disabled": 0, "rental_uris": {"ios": "https://dc.lft.to/lastmile_qr_scan", "android": "https://dc.lft.to/lastmile_qr_scan"}, "is_reserved": 0}, {"lon": -77.01074483333333, "bike_id": "c5067eae05a3154ea50ec38233d010f3", "lat": 38.907309, "fusion_lon": 0.0, "fusion_lat": 0.0, "type": "electric_scooter", "name": "c5067eae05a3154ea50ec38233d010f3", "is_disabled": 0, "rental_uris": {"ios": "https://dc.lft.to/lastmile_qr_scan", "android": "https://dc.lft.to/lastmile_qr_scan"}, "is_reserved": 0}, {"lon": -77.04344033333334, "bike_id": "f973eba2c8f386eb3df8a4e97c46eac3", "lat": 38.921968166666666, "fusion_lon": 0.0, "fusion_lat": 0.0, "type": "electric_scooter", "name": "f973eba2c8f386eb3df8a4e97c46eac3", "is_disabled": 0, "rental_uris": {"ios": "https://dc.lft.to/lastmile_qr_scan", "android": "https://dc.lft.to/lastmile_qr_scan"}, "is_reserved": 0}, {"lon": -76.988361, "bike_id": "0c18c636931850d675f47d3ae3e966a3", "lat": 38.90127733333333, "fusion_lon": 0.0, "fusion_lat": 0.0, "type": "electric_scooter", "name": "0c18c636931850d675f47d3ae3e966a3", "is_disabled": 0, "rental_uris": {"ios": "https://dc.lft.to/lastmile_qr_scan", "android": "https://dc.lft.to/lastmile_qr_scan"}, "is_reserved": 0}, {"lon": -77.00352933333333, "bike_id": "ba66007029d08cd6c7340252610f0e19", "lat": 38.899376833333335, "fusion_lon": 0.0, "fusion_lat": 0.0, "type": "electric_scooter", "name": "ba66007029d08cd6c7340252610f0e19", "is_disabled": 0, "rental_uris": {"ios": "https://dc.lft.to/lastmile_qr_scan", "android": "https://dc.lft.to/lastmile_qr_scan"}, "is_reserved": 0}, {"lon": -77.02207966666667, "bike_id": "fa7650305b79ba30086ff220360d6e91", "lat": 38.920099666666665, "fusion_lon": 0.0, "fusion_lat": 0.0, "type": "electric_scooter", "name": "fa7650305b79ba30086ff220360d6e91", "is_disabled": 0, "rental_uris": {"ios": "https://dc.lft.to/lastmile_qr_scan", "android": "https://dc.lft.to/lastmile_qr_scan"}, "is_reserved": 0}, {"lon": -77.04490933333334, "bike_id": "a2e6bd7e6542b5de8895bb804f678188", "lat": 38.91931233333333, "fusion_lon": 0.0, "fusion_lat": 0.0, "type": "electric_scooter", "name": "a2e6bd7e6542b5de8895bb804f678188", "is_disabled": 0, "rental_uris": {"ios": "https://dc.lft.to/lastmile_qr_scan", "android": "https://dc.lft.to/lastmile_qr_scan"}, "is_reserved": 0}, {"lon": -77.021462, "bike_id": "88ed0908c37fd63f969a78eb883a5a78", "lat": 38.9027115, "fusion_lon": 0.0, "fusion_lat": 0.0, "type": "electric_scooter", "name": "88ed0908c37fd63f969a78eb883a5a78", "is_disabled": 0, "rental_uris": {"ios": "https://dc.lft.to/lastmile_qr_scan", "android": "https://dc.lft.to/lastmile_qr_scan"}, "is_reserved": 0}, {"lon": -76.9810855, "bike_id": "aefd92d915d08279c358cfc4c5f4d047", "lat": 38.90404683333333, "fusion_lon": 0.0, "fusion_lat": 0.0, "type": "electric_scooter", "name": "aefd92d915d08279c358cfc4c5f4d047", "is_disabled": 0, "rental_uris": {"ios": "https://dc.lft.to/lastmile_qr_scan", "android": "https://dc.lft.to/lastmile_qr_scan"}, "is_reserved": 0}, {"lon": -76.99864916666667, "bike_id": "e9bce589fac48522670ea8c1d51b0933", "lat": 38.902477, "fusion_lon": 0.0, "fusion_lat": 0.0, "type": "electric_scooter", "name": "e9bce589fac48522670ea8c1d51b0933", "is_disabled": 0, "rental_uris": {"ios": "https://dc.lft.to/lastmile_qr_scan", "android": "https://dc.lft.to/lastmile_qr_scan"}, "is_reserved": 0}, {"lon": -77.05511533333333, "bike_id": "3fd0c308310eccd8dc22cbe369f490dc", "lat": 38.89963933333333, "fusion_lon": 0.0, "fusion_lat": 0.0, "type": "electric_scooter", "name": "3fd0c308310eccd8dc22cbe369f490dc", "is_disabled": 0, "rental_uris": {"ios": "https://dc.lft.to/lastmile_qr_scan", "android": "https://dc.lft.to/lastmile_qr_scan"}, "is_reserved": 0}, {"lon": -76.9871485, "bike_id": "1df3f8849d15429ff00c5482042bdf75", "lat": 38.866261, "fusion_lon": 0.0, "fusion_lat": 0.0, "type": "electric_scooter", "name": "1df3f8849d15429ff00c5482042bdf75", "is_disabled": 0, "rental_uris": {"ios": "https://dc.lft.to/lastmile_qr_scan", "android": "https://dc.lft.to/lastmile_qr_scan"}, "is_reserved": 0}, {"lon": -77.03258783333334, "bike_id": "9aad34fec70c02928e1bbf9045c5cddf", "lat": 38.935626666666664, "fusion_lon": 0.0, "fusion_lat": 0.0, "type": "electric_scooter", "name": "9aad34fec70c02928e1bbf9045c5cddf", "is_disabled": 0, "rental_uris": {"ios": "https://dc.lft.to/lastmile_qr_scan", "android": "https://dc.lft.to/lastmile_qr_scan"}, "is_reserved": 0}, {"lon": -77.014326, "bike_id": "ff5331f46e5c723e56450049012ae83b", "lat": 38.914630833333334, "fusion_lon": 0.0, "fusion_lat": 0.0, "type": "electric_scooter", "name": "ff5331f46e5c723e56450049012ae83b", "is_disabled": 0, "rental_uris": {"ios": "https://dc.lft.to/lastmile_qr_scan", "android": "https://dc.lft.to/lastmile_qr_scan"}, "is_reserved": 0}, {"lon": -77.05861833333333, "bike_id": "eb60089bf8378a1aaf60e90811bc7dda", "lat": 38.936060499999996, "fusion_lon": 0.0, "fusion_lat": 0.0, "type": "electric_scooter", "name": "eb60089bf8378a1aaf60e90811bc7dda", "is_disabled": 0, "rental_uris": {"ios": "https://dc.lft.to/lastmile_qr_scan", "android": "https://dc.lft.to/lastmile_qr_scan"}, "is_reserved": 0}, {"lon": -76.98351416666667, "bike_id": "9da00e232214c9a92eff0041d296f0c5", "lat": 38.904521, "fusion_lon": 0.0, "fusion_lat": 0.0, "type": "electric_scooter", "name": "9da00e232214c9a92eff0041d296f0c5", "is_disabled": 0, "rental_uris": {"ios": "https://dc.lft.to/lastmile_qr_scan", "android": "https://dc.lft.to/lastmile_qr_scan"}, "is_reserved": 0}, {"lon": -77.03445316666667, "bike_id": "8643fe9e6ba8d7aee11cb0ef44bc71ac", "lat": 38.90734616666667, "fusion_lon": 0.0, "fusion_lat": 0.0, "type": "electric_scooter", "name": "8643fe9e6ba8d7aee11cb0ef44bc71ac", "is_disabled": 0, "rental_uris": {"ios": "https://dc.lft.to/lastmile_qr_scan", "android": "https://dc.lft.to/lastmile_qr_scan"}, "is_reserved": 0}, {"lon": -76.94922116666666, "bike_id": "58dbbf42d9c404c2fb3a3ab9505c21e4", "lat": 38.89356016666667, "fusion_lon": 0.0, "fusion_lat": 0.0, "type": "electric_scooter", "name": "58dbbf42d9c404c2fb3a3ab9505c21e4", "is_disabled": 0, "rental_uris": {"ios": "https://dc.lft.to/lastmile_qr_scan", "android": "https://dc.lft.to/lastmile_qr_scan"}, "is_reserved": 0}, {"lon": -77.02353016666666, "bike_id": "5e8d517dd82ebf03118080966f1199d6", "lat": 38.896353833333336, "fusion_lon": 0.0, "fusion_lat": 0.0, "type": "electric_scooter", "name": "5e8d517dd82ebf03118080966f1199d6", "is_disabled": 0, "rental_uris": {"ios": "https://dc.lft.to/lastmile_qr_scan", "android": "https://dc.lft.to/lastmile_qr_scan"}, "is_reserved": 0}, {"lon": -77.02033366666667, "bike_id": "b778b4d99737d81ac5ee584ce5945008", "lat": 38.92444783333333, "fusion_lon": 0.0, "fusion_lat": 0.0, "type": "electric_scooter", "name": "b778b4d99737d81ac5ee584ce5945008", "is_disabled": 0, "rental_uris": {"ios": "https://dc.lft.to/lastmile_qr_scan", "android": "https://dc.lft.to/lastmile_qr_scan"}, "is_reserved": 0}, {"lon": -77.0743355, "bike_id": "4099de3af03dc137cca148e33907c8c0", "lat": 38.999464, "fusion_lon": 0.0, "fusion_lat": 0.0, "type": "electric_bike", "name": "4099de3af03dc137cca148e33907c8c0", "is_disabled": 0, "rental_uris": {"ios": "https://dc.lft.to/lastmile_qr_scan", "android": "https://dc.lft.to/lastmile_qr_scan"}, "is_reserved": 0}, {"lon": -77.00016566666666, "bike_id": "2777cdd4598bf2a0997143d04b2091f7", "lat": 38.919779, "fusion_lon": 0.0, "fusion_lat": 0.0, "type": "electric_scooter", "name": "2777cdd4598bf2a0997143d04b2091f7", "is_disabled": 0, "rental_uris": {"ios": "https://dc.lft.to/lastmile_qr_scan", "android": "https://dc.lft.to/lastmile_qr_scan"}, "is_reserved": 0}, {"lon": -77.07296366666667, "bike_id": "d19a4a3286888625053978a5897525df", "lat": 38.93476666666667, "fusion_lon": 0.0, "fusion_lat": 0.0, "type": "electric_scooter", "name": "d19a4a3286888625053978a5897525df", "is_disabled": 0, "rental_uris": {"ios": "https://dc.lft.to/lastmile_qr_scan", "android": "https://dc.lft.to/lastmile_qr_scan"}, "is_reserved": 0}, {"lon": -77.01378783333334, "bike_id": "8c4f1eb50ac70daeb4a7f20f4ca69e37", "lat": 38.8867525, "fusion_lon": 0.0, "fusion_lat": 0.0, "type": "electric_scooter", "name": "8c4f1eb50ac70daeb4a7f20f4ca69e37", "is_disabled": 0, "rental_uris": {"ios": "https://dc.lft.to/lastmile_qr_scan", "android": "https://dc.lft.to/lastmile_qr_scan"}, "is_reserved": 0}, {"lon": -77.0195225, "bike_id": "896ac90153ec4ae42cd258b97c8885d2", "lat": 38.913075166666665, "fusion_lon": 0.0, "fusion_lat": 0.0, "type": "electric_scooter", "name": "896ac90153ec4ae42cd258b97c8885d2", "is_disabled": 0, "rental_uris": {"ios": "https://dc.lft.to/lastmile_qr_scan", "android": "https://dc.lft.to/lastmile_qr_scan"}, "is_reserved": 0}, {"lon": -77.04604616666667, "bike_id": "e990657a483f9a240ecb106f3bc92747", "lat": 38.907654666666666, "fusion_lon": 0.0, "fusion_lat": 0.0, "type": "electric_scooter", "name": "e990657a483f9a240ecb106f3bc92747", "is_disabled": 0, "rental_uris": {"ios": "https://dc.lft.to/lastmile_qr_scan", "android": "https://dc.lft.to/lastmile_qr_scan"}, "is_reserved": 0}, {"lon": -77.0344365, "bike_id": "541ff7895ecc7acb83d4358c8d20fae1", "lat": 38.934307833333335, "fusion_lon": 0.0, "fusion_lat": 0.0, "type": "electric_scooter", "name": "541ff7895ecc7acb83d4358c8d20fae1", "is_disabled": 0, "rental_uris": {"ios": "https://dc.lft.to/lastmile_qr_scan", "android": "https://dc.lft.to/lastmile_qr_scan"}, "is_reserved": 0}, {"lon": -76.9866385, "bike_id": "1ba2d289f2720328cde94aaee97ce463", "lat": 38.867348666666665, "fusion_lon": 0.0, "fusion_lat": 0.0, "type": "electric_scooter", "name": "1ba2d289f2720328cde94aaee97ce463", "is_disabled": 0, "rental_uris": {"ios": "https://dc.lft.to/lastmile_qr_scan", "android": "https://dc.lft.to/lastmile_qr_scan"}, "is_reserved": 0}, {"lon": -77.02237716666667, "bike_id": "08b0f283cb1753106e025b469c9e3dfa", "lat": 38.9208275, "fusion_lon": 0.0, "fusion_lat": 0.0, "type": "electric_scooter", "name": "08b0f283cb1753106e025b469c9e3dfa", "is_disabled": 0, "rental_uris": {"ios": "https://dc.lft.to/lastmile_qr_scan", "android": "https://dc.lft.to/lastmile_qr_scan"}, "is_reserved": 0}, {"lon": -77.03813416666667, "bike_id": "9d8b5b6e4a9b9f7cf1e21ed0afb1b707", "lat": 38.93098116666667, "fusion_lon": 0.0, "fusion_lat": 0.0, "type": "electric_scooter", "name": "9d8b5b6e4a9b9f7cf1e21ed0afb1b707", "is_disabled": 0, "rental_uris": {"ios": "https://dc.lft.to/lastmile_qr_scan", "android": "https://dc.lft.to/lastmile_qr_scan"}, "is_reserved": 0}, {"lon": -77.04133766666666, "bike_id": "a6e50a48858b54052dec46fe4470dab4", "lat": 38.942633, "fusion_lon": 0.0, "fusion_lat": 0.0, "type": "electric_scooter", "name": "a6e50a48858b54052dec46fe4470dab4", "is_disabled": 0, "rental_uris": {"ios": "https://dc.lft.to/lastmile_qr_scan", "android": "https://dc.lft.to/lastmile_qr_scan"}, "is_reserved": 0}, {"lon": -77.03080433333334, "bike_id": "1169fd278edf1be0a4b69ec15e448780", "lat": 38.91560483333333, "fusion_lon": 0.0, "fusion_lat": 0.0, "type": "electric_scooter", "name": "1169fd278edf1be0a4b69ec15e448780", "is_disabled": 0, "rental_uris": {"ios": "https://dc.lft.to/lastmile_qr_scan", "android": "https://dc.lft.to/lastmile_qr_scan"}, "is_reserved": 0}, {"lon": -76.95473116666666, "bike_id": "9fac3310cc0bf853f36cc28f03393c53", "lat": 38.88658266666667, "fusion_lon": 0.0, "fusion_lat": 0.0, "type": "electric_scooter", "name": "9fac3310cc0bf853f36cc28f03393c53", "is_disabled": 0, "rental_uris": {"ios": "https://dc.lft.to/lastmile_qr_scan", "android": "https://dc.lft.to/lastmile_qr_scan"}, "is_reserved": 0}, {"lon": -77.0367215, "bike_id": "068e0c8a42e3357f2b2456d126fe8700", "lat": 38.920973833333335, "fusion_lon": 0.0, "fusion_lat": 0.0, "type": "electric_scooter", "name": "068e0c8a42e3357f2b2456d126fe8700", "is_disabled": 0, "rental_uris": {"ios": "https://dc.lft.to/lastmile_qr_scan", "android": "https://dc.lft.to/lastmile_qr_scan"}, "is_reserved": 0}, {"lon": -77.16627783333334, "bike_id": "d64d3c7a9bfa35fdd6bb0bd3792ec36a", "lat": 38.88837733333333, "fusion_lon": 0.0, "fusion_lat": 0.0, "type": "electric_bike", "name": "d64d3c7a9bfa35fdd6bb0bd3792ec36a", "is_disabled": 0, "rental_uris": {"ios": "https://dc.lft.to/lastmile_qr_scan", "android": "https://dc.lft.to/lastmile_qr_scan"}, "is_reserved": 0}, {"lon": -77.02502666666666, "bike_id": "1e6b85da2d62f3ca7a4e701783ad4c29", "lat": 38.9259235, "fusion_lon": 0.0, "fusion_lat": 0.0, "type": "electric_scooter", "name": "1e6b85da2d62f3ca7a4e701783ad4c29", "is_disabled": 0, "rental_uris": {"ios": "https://dc.lft.to/lastmile_qr_scan", "android": "https://dc.lft.to/lastmile_qr_scan"}, "is_reserved": 0}, {"lon": -77.00563533333333, "bike_id": "e4679e17c8467d8803cd6859cb2232fe", "lat": 38.874729, "fusion_lon": 0.0, "fusion_lat": 0.0, "type": "electric_scooter", "name": "e4679e17c8467d8803cd6859cb2232fe", "is_disabled": 0, "rental_uris": {"ios": "https://dc.lft.to/lastmile_qr_scan", "android": "https://dc.lft.to/lastmile_qr_scan"}, "is_reserved": 0}, {"lon": -77.02956916666666, "bike_id": "f9089e87049ee51374fa625661f1af02", "lat": 38.9167685, "fusion_lon": 0.0, "fusion_lat": 0.0, "type": "electric_scooter", "name": "f9089e87049ee51374fa625661f1af02", "is_disabled": 0, "rental_uris": {"ios": "https://dc.lft.to/lastmile_qr_scan", "android": "https://dc.lft.to/lastmile_qr_scan"}, "is_reserved": 0}, {"lon": -77.02961183333333, "bike_id": "91cc8fdc38bf95ad609c93413657d246", "lat": 38.93086733333333, "fusion_lon": 0.0, "fusion_lat": 0.0, "type": "electric_scooter", "name": "91cc8fdc38bf95ad609c93413657d246", "is_disabled": 0, "rental_uris": {"ios": "https://dc.lft.to/lastmile_qr_scan", "android": "https://dc.lft.to/lastmile_qr_scan"}, "is_reserved": 0}, {"lon": -77.04656466666667, "bike_id": "b3938c21cecdbdaa4e6e8d2f30f7d846", "lat": 38.91365416666667, "fusion_lon": 0.0, "fusion_lat": 0.0, "type": "electric_scooter", "name": "b3938c21cecdbdaa4e6e8d2f30f7d846", "is_disabled": 0, "rental_uris": {"ios": "https://dc.lft.to/lastmile_qr_scan", "android": "https://dc.lft.to/lastmile_qr_scan"}, "is_reserved": 0}, {"lon": -77.02369166666666, "bike_id": "5b9a754da2435de2a512d75b1105c2cf", "lat": 38.892182, "fusion_lon": 0.0, "fusion_lat": 0.0, "type": "electric_scooter", "name": "5b9a754da2435de2a512d75b1105c2cf", "is_disabled": 0, "rental_uris": {"ios": "https://dc.lft.to/lastmile_qr_scan", "android": "https://dc.lft.to/lastmile_qr_scan"}, "is_reserved": 0}, {"lon": -77.06875833333334, "bike_id": "779cbf420db5c45981f237d3a0a394d5", "lat": 38.90518466666666, "fusion_lon": 0.0, "fusion_lat": 0.0, "type": "electric_scooter", "name": "779cbf420db5c45981f237d3a0a394d5", "is_disabled": 0, "rental_uris": {"ios": "https://dc.lft.to/lastmile_qr_scan", "android": "https://dc.lft.to/lastmile_qr_scan"}, "is_reserved": 0}, {"lon": -77.03652783333334, "bike_id": "7f84215ba46c86da94f42e45a5a9c826", "lat": 38.912907, "fusion_lon": 0.0, "fusion_lat": 0.0, "type": "electric_scooter", "name": "7f84215ba46c86da94f42e45a5a9c826", "is_disabled": 0, "rental_uris": {"ios": "https://dc.lft.to/lastmile_qr_scan", "android": "https://dc.lft.to/lastmile_qr_scan"}, "is_reserved": 0}, {"lon": -77.04785566666666, "bike_id": "f580eed0e5adb770f2a2daf7b51600be", "lat": 38.829428166666666, "fusion_lon": 0.0, "fusion_lat": 0.0, "type": "electric_bike", "name": "f580eed0e5adb770f2a2daf7b51600be", "is_disabled": 0, "rental_uris": {"ios": "https://dc.lft.to/lastmile_qr_scan", "android": "https://dc.lft.to/lastmile_qr_scan"}, "is_reserved": 0}, {"lon": -77.0504505, "bike_id": "a03b59ccf230ba455e3d4d42a58a36aa", "lat": 38.90725333333334, "fusion_lon": 0.0, "fusion_lat": 0.0, "type": "electric_scooter", "name": "a03b59ccf230ba455e3d4d42a58a36aa", "is_disabled": 0, "rental_uris": {"ios": "https://dc.lft.to/lastmile_qr_scan", "android": "https://dc.lft.to/lastmile_qr_scan"}, "is_reserved": 0}, {"lon": -77.04362216666667, "bike_id": "a4026998c431e8d627fdb3d3e07d8598", "lat": 38.902469833333335, "fusion_lon": 0.0, "fusion_lat": 0.0, "type": "electric_scooter", "name": "a4026998c431e8d627fdb3d3e07d8598", "is_disabled": 0, "rental_uris": {"ios": "https://dc.lft.to/lastmile_qr_scan", "android": "https://dc.lft.to/lastmile_qr_scan"}, "is_reserved": 0}, {"lon": -77.05310033333333, "bike_id": "7d18960271c77791f0f550b601550250", "lat": 38.900744333333336, "fusion_lon": 0.0, "fusion_lat": 0.0, "type": "electric_scooter", "name": "7d18960271c77791f0f550b601550250", "is_disabled": 0, "rental_uris": {"ios": "https://dc.lft.to/lastmile_qr_scan", "android": "https://dc.lft.to/lastmile_qr_scan"}, "is_reserved": 0}, {"lon": -76.9752135, "bike_id": "19015a54558f0c76995419bf177f309f", "lat": 38.966972, "fusion_lon": 0.0, "fusion_lat": 0.0, "type": "electric_bike", "name": "19015a54558f0c76995419bf177f309f", "is_disabled": 0, "rental_uris": {"ios": "https://dc.lft.to/lastmile_qr_scan", "android": "https://dc.lft.to/lastmile_qr_scan"}, "is_reserved": 0}, {"lon": -76.996799, "bike_id": "0bb092382e4b08e0b5e344900437e85f", "lat": 38.860229333333336, "fusion_lon": 0.0, "fusion_lat": 0.0, "type": "electric_scooter", "name": "0bb092382e4b08e0b5e344900437e85f", "is_disabled": 0, "rental_uris": {"ios": "https://dc.lft.to/lastmile_qr_scan", "android": "https://dc.lft.to/lastmile_qr_scan"}, "is_reserved": 0}, {"lon": -77.03222733333334, "bike_id": "c0835af3228a5118714dab38d265fb68", "lat": 38.9088825, "fusion_lon": 0.0, "fusion_lat": 0.0, "type": "electric_scooter", "name": "c0835af3228a5118714dab38d265fb68", "is_disabled": 0, "rental_uris": {"ios": "https://dc.lft.to/lastmile_qr_scan", "android": "https://dc.lft.to/lastmile_qr_scan"}, "is_reserved": 0}, {"lon": -77.03655566666667, "bike_id": "939d40863d2838e1817264f051fe88b3", "lat": 38.940924333333335, "fusion_lon": 0.0, "fusion_lat": 0.0, "type": "electric_scooter", "name": "939d40863d2838e1817264f051fe88b3", "is_disabled": 0, "rental_uris": {"ios": "https://dc.lft.to/lastmile_qr_scan", "android": "https://dc.lft.to/lastmile_qr_scan"}, "is_reserved": 0}, {"lon": -77.0434035, "bike_id": "62b3a0c0b214dda16fd1c5f880a85829", "lat": 38.917786166666666, "fusion_lon": 0.0, "fusion_lat": 0.0, "type": "electric_scooter", "name": "62b3a0c0b214dda16fd1c5f880a85829", "is_disabled": 0, "rental_uris": {"ios": "https://dc.lft.to/lastmile_qr_scan", "android": "https://dc.lft.to/lastmile_qr_scan"}, "is_reserved": 0}, {"lon": -76.99769483333333, "bike_id": "539ba34fdaae88a2b7b647ecd4263c2d", "lat": 38.9245245, "fusion_lon": 0.0, "fusion_lat": 0.0, "type": "electric_scooter", "name": "539ba34fdaae88a2b7b647ecd4263c2d", "is_disabled": 0, "rental_uris": {"ios": "https://dc.lft.to/lastmile_qr_scan", "android": "https://dc.lft.to/lastmile_qr_scan"}, "is_reserved": 0}, {"lon": -77.0245775, "bike_id": "5e51fb10072f555e70dfe4958868d871", "lat": 38.90406433333333, "fusion_lon": 0.0, "fusion_lat": 0.0, "type": "electric_scooter", "name": "5e51fb10072f555e70dfe4958868d871", "is_disabled": 0, "rental_uris": {"ios": "https://dc.lft.to/lastmile_qr_scan", "android": "https://dc.lft.to/lastmile_qr_scan"}, "is_reserved": 0}, {"lon": -77.02308416666666, "bike_id": "5f67455d620de392c1aeebbd2919beb1", "lat": 38.90959683333333, "fusion_lon": 0.0, "fusion_lat": 0.0, "type": "electric_scooter", "name": "5f67455d620de392c1aeebbd2919beb1", "is_disabled": 0, "rental_uris": {"ios": "https://dc.lft.to/lastmile_qr_scan", "android": "https://dc.lft.to/lastmile_qr_scan"}, "is_reserved": 0}, {"lon": -77.01125366666666, "bike_id": "969d19ddf0e6621e4483cf7764dc086d", "lat": 38.86830116666667, "fusion_lon": 0.0, "fusion_lat": 0.0, "type": "electric_scooter", "name": "969d19ddf0e6621e4483cf7764dc086d", "is_disabled": 0, "rental_uris": {"ios": "https://dc.lft.to/lastmile_qr_scan", "android": "https://dc.lft.to/lastmile_qr_scan"}, "is_reserved": 0}, {"lon": -77.05860583333333, "bike_id": "80d7728c90775191d90af8ef51ffe5c5", "lat": 38.93606316666666, "fusion_lon": 0.0, "fusion_lat": 0.0, "type": "electric_scooter", "name": "80d7728c90775191d90af8ef51ffe5c5", "is_disabled": 0, "rental_uris": {"ios": "https://dc.lft.to/lastmile_qr_scan", "android": "https://dc.lft.to/lastmile_qr_scan"}, "is_reserved": 0}, {"lon": -76.97333116666667, "bike_id": "e89c4d49625f84d2a08e025b382bad9c", "lat": 38.86519166666667, "fusion_lon": 0.0, "fusion_lat": 0.0, "type": "electric_bike", "name": "e89c4d49625f84d2a08e025b382bad9c", "is_disabled": 0, "rental_uris": {"ios": "https://dc.lft.to/lastmile_qr_scan", "android": "https://dc.lft.to/lastmile_qr_scan"}, "is_reserved": 0}, {"lon": -77.05010016666667, "bike_id": "d58afa84166949990d4eaa9df11fdd86", "lat": 38.897768666666664, "fusion_lon": 0.0, "fusion_lat": 0.0, "type": "electric_scooter", "name": "d58afa84166949990d4eaa9df11fdd86", "is_disabled": 0, "rental_uris": {"ios": "https://dc.lft.to/lastmile_qr_scan", "android": "https://dc.lft.to/lastmile_qr_scan"}, "is_reserved": 0}, {"lon": -76.983536, "bike_id": "76dd1f3c5799806ef8bda92ba8e9bb02", "lat": 38.902902166666664, "fusion_lon": 0.0, "fusion_lat": 0.0, "type": "electric_scooter", "name": "76dd1f3c5799806ef8bda92ba8e9bb02", "is_disabled": 0, "rental_uris": {"ios": "https://dc.lft.to/lastmile_qr_scan", "android": "https://dc.lft.to/lastmile_qr_scan"}, "is_reserved": 0}, {"lon": -77.0583605, "bike_id": "f100156e0d5f614b3414d37b3125af38", "lat": 38.90529333333333, "fusion_lon": 0.0, "fusion_lat": 0.0, "type": "electric_scooter", "name": "f100156e0d5f614b3414d37b3125af38", "is_disabled": 0, "rental_uris": {"ios": "https://dc.lft.to/lastmile_qr_scan", "android": "https://dc.lft.to/lastmile_qr_scan"}, "is_reserved": 0}, {"lon": -77.014033, "bike_id": "ac3f734be2a2b069c51218a395eb4c71", "lat": 38.92827066666667, "fusion_lon": 0.0, "fusion_lat": 0.0, "type": "electric_scooter", "name": "ac3f734be2a2b069c51218a395eb4c71", "is_disabled": 0, "rental_uris": {"ios": "https://dc.lft.to/lastmile_qr_scan", "android": "https://dc.lft.to/lastmile_qr_scan"}, "is_reserved": 0}, {"lon": -77.03194683333334, "bike_id": "3a2372fa4c67947f13922b38e15ff697", "lat": 38.91060083333333, "fusion_lon": 0.0, "fusion_lat": 0.0, "type": "electric_scooter", "name": "3a2372fa4c67947f13922b38e15ff697", "is_disabled": 0, "rental_uris": {"ios": "https://dc.lft.to/lastmile_qr_scan", "android": "https://dc.lft.to/lastmile_qr_scan"}, "is_reserved": 0}, {"lon": -77.03852983333333, "bike_id": "eb03154a1b1beef9f7ffc72d3c3b8db6", "lat": 38.916235666666665, "fusion_lon": 0.0, "fusion_lat": 0.0, "type": "electric_scooter", "name": "eb03154a1b1beef9f7ffc72d3c3b8db6", "is_disabled": 0, "rental_uris": {"ios": "https://dc.lft.to/lastmile_qr_scan", "android": "https://dc.lft.to/lastmile_qr_scan"}, "is_reserved": 0}, {"lon": -77.02065116666667, "bike_id": "31212a628243055c18f22a1e5c163f4f", "lat": 38.901519, "fusion_lon": 0.0, "fusion_lat": 0.0, "type": "electric_scooter", "name": "31212a628243055c18f22a1e5c163f4f", "is_disabled": 0, "rental_uris": {"ios": "https://dc.lft.to/lastmile_qr_scan", "android": "https://dc.lft.to/lastmile_qr_scan"}, "is_reserved": 0}, {"lon": -77.0320355, "bike_id": "21ca0495ea09a46759868a9d63580caa", "lat": 38.93966783333333, "fusion_lon": 0.0, "fusion_lat": 0.0, "type": "electric_scooter", "name": "21ca0495ea09a46759868a9d63580caa", "is_disabled": 0, "rental_uris": {"ios": "https://dc.lft.to/lastmile_qr_scan", "android": "https://dc.lft.to/lastmile_qr_scan"}, "is_reserved": 0}, {"lon": -77.03272533333333, "bike_id": "235bf7b563ce66335f4c6d8eb8661989", "lat": 38.901559, "fusion_lon": 0.0, "fusion_lat": 0.0, "type": "electric_scooter", "name": "235bf7b563ce66335f4c6d8eb8661989", "is_disabled": 0, "rental_uris": {"ios": "https://dc.lft.to/lastmile_qr_scan", "android": "https://dc.lft.to/lastmile_qr_scan"}, "is_reserved": 0}, {"lon": -77.041719, "bike_id": "dea6aaa8e672a428766068a1146675cc", "lat": 38.91958183333333, "fusion_lon": 0.0, "fusion_lat": 0.0, "type": "electric_scooter", "name": "dea6aaa8e672a428766068a1146675cc", "is_disabled": 0, "rental_uris": {"ios": "https://dc.lft.to/lastmile_qr_scan", "android": "https://dc.lft.to/lastmile_qr_scan"}, "is_reserved": 0}, {"lon": -77.04443016666667, "bike_id": "a4fc63730a17d76f830a69ad35affaf9", "lat": 38.92168083333333, "fusion_lon": 0.0, "fusion_lat": 0.0, "type": "electric_scooter", "name": "a4fc63730a17d76f830a69ad35affaf9", "is_disabled": 0, "rental_uris": {"ios": "https://dc.lft.to/lastmile_qr_scan", "android": "https://dc.lft.to/lastmile_qr_scan"}, "is_reserved": 0}, {"lon": -77.03094733333333, "bike_id": "735616346df41557fead4d14a24866bb", "lat": 38.916977833333334, "fusion_lon": 0.0, "fusion_lat": 0.0, "type": "electric_scooter", "name": "735616346df41557fead4d14a24866bb", "is_disabled": 0, "rental_uris": {"ios": "https://dc.lft.to/lastmile_qr_scan", "android": "https://dc.lft.to/lastmile_qr_scan"}, "is_reserved": 0}, {"lon": -77.02231216666667, "bike_id": "b121bccb681b4d0892f72e51fa5795d4", "lat": 38.96207166666667, "fusion_lon": 0.0, "fusion_lat": 0.0, "type": "electric_scooter", "name": "b121bccb681b4d0892f72e51fa5795d4", "is_disabled": 0, "rental_uris": {"ios": "https://dc.lft.to/lastmile_qr_scan", "android": "https://dc.lft.to/lastmile_qr_scan"}, "is_reserved": 0}, {"lon": -77.00764033333333, "bike_id": "1aa703a829a45bc60ab3499218ab1365", "lat": 38.879121166666664, "fusion_lon": 0.0, "fusion_lat": 0.0, "type": "electric_scooter", "name": "1aa703a829a45bc60ab3499218ab1365", "is_disabled": 0, "rental_uris": {"ios": "https://dc.lft.to/lastmile_qr_scan", "android": "https://dc.lft.to/lastmile_qr_scan"}, "is_reserved": 0}, {"lon": -77.02709966666667, "bike_id": "82f9b5673fc996b5e97ca441d181ef38", "lat": 38.906696333333336, "fusion_lon": 0.0, "fusion_lat": 0.0, "type": "electric_scooter", "name": "82f9b5673fc996b5e97ca441d181ef38", "is_disabled": 0, "rental_uris": {"ios": "https://dc.lft.to/lastmile_qr_scan", "android": "https://dc.lft.to/lastmile_qr_scan"}, "is_reserved": 0}, {"lon": -76.982334, "bike_id": "62180ebf98698a697dc8a5207618be01", "lat": 38.916529833333335, "fusion_lon": 0.0, "fusion_lat": 0.0, "type": "electric_scooter", "name": "62180ebf98698a697dc8a5207618be01", "is_disabled": 0, "rental_uris": {"ios": "https://dc.lft.to/lastmile_qr_scan", "android": "https://dc.lft.to/lastmile_qr_scan"}, "is_reserved": 0}, {"lon": -77.0230725, "bike_id": "fc2117333da963beab71e132ea8e443f", "lat": 38.91611483333333, "fusion_lon": 0.0, "fusion_lat": 0.0, "type": "electric_scooter", "name": "fc2117333da963beab71e132ea8e443f", "is_disabled": 0, "rental_uris": {"ios": "https://dc.lft.to/lastmile_qr_scan", "android": "https://dc.lft.to/lastmile_qr_scan"}, "is_reserved": 0}, {"lon": -77.0476165, "bike_id": "b7da1c202cfac97d9f123f586530340f", "lat": 38.91773383333334, "fusion_lon": 0.0, "fusion_lat": 0.0, "type": "electric_scooter", "name": "b7da1c202cfac97d9f123f586530340f", "is_disabled": 0, "rental_uris": {"ios": "https://dc.lft.to/lastmile_qr_scan", "android": "https://dc.lft.to/lastmile_qr_scan"}, "is_reserved": 0}, {"lon": -77.02695716666666, "bike_id": "a2b2e6ca1c2656b390c95f7b41e166d8", "lat": 38.908444833333334, "fusion_lon": 0.0, "fusion_lat": 0.0, "type": "electric_scooter", "name": "a2b2e6ca1c2656b390c95f7b41e166d8", "is_disabled": 0, "rental_uris": {"ios": "https://dc.lft.to/lastmile_qr_scan", "android": "https://dc.lft.to/lastmile_qr_scan"}, "is_reserved": 0}, {"lon": -76.94880166666667, "bike_id": "2a66d68d0a4dc4c45f5eb31a7cfa0ea4", "lat": 38.8942985, "fusion_lon": 0.0, "fusion_lat": 0.0, "type": "electric_scooter", "name": "2a66d68d0a4dc4c45f5eb31a7cfa0ea4", "is_disabled": 0, "rental_uris": {"ios": "https://dc.lft.to/lastmile_qr_scan", "android": "https://dc.lft.to/lastmile_qr_scan"}, "is_reserved": 0}, {"lon": -76.99627083333333, "bike_id": "2280332a2b3c3361c79931148ccddcc1", "lat": 38.88804233333333, "fusion_lon": 0.0, "fusion_lat": 0.0, "type": "electric_scooter", "name": "2280332a2b3c3361c79931148ccddcc1", "is_disabled": 0, "rental_uris": {"ios": "https://dc.lft.to/lastmile_qr_scan", "android": "https://dc.lft.to/lastmile_qr_scan"}, "is_reserved": 0}, {"lon": -77.05294566666667, "bike_id": "5ea46031d467355235e0cf42b008c64c", "lat": 38.9033735, "fusion_lon": 0.0, "fusion_lat": 0.0, "type": "electric_scooter", "name": "5ea46031d467355235e0cf42b008c64c", "is_disabled": 0, "rental_uris": {"ios": "https://dc.lft.to/lastmile_qr_scan", "android": "https://dc.lft.to/lastmile_qr_scan"}, "is_reserved": 0}, {"lon": -77.02326833333333, "bike_id": "d6a3108cfda88eae740ba43d98893f5f", "lat": 38.949699333333335, "fusion_lon": 0.0, "fusion_lat": 0.0, "type": "electric_scooter", "name": "d6a3108cfda88eae740ba43d98893f5f", "is_disabled": 0, "rental_uris": {"ios": "https://dc.lft.to/lastmile_qr_scan", "android": "https://dc.lft.to/lastmile_qr_scan"}, "is_reserved": 0}, {"lon": -76.94121866666667, "bike_id": "9c1c3fc0322b450985a87e33f7667117", "lat": 38.908254166666666, "fusion_lon": 0.0, "fusion_lat": 0.0, "type": "electric_scooter", "name": "9c1c3fc0322b450985a87e33f7667117", "is_disabled": 0, "rental_uris": {"ios": "https://dc.lft.to/lastmile_qr_scan", "android": "https://dc.lft.to/lastmile_qr_scan"}, "is_reserved": 0}, {"lon": -77.03374683333334, "bike_id": "865fd6fc16f534a490fbc33435b6d1fa", "lat": 38.938745, "fusion_lon": 0.0, "fusion_lat": 0.0, "type": "electric_scooter", "name": "865fd6fc16f534a490fbc33435b6d1fa", "is_disabled": 0, "rental_uris": {"ios": "https://dc.lft.to/lastmile_qr_scan", "android": "https://dc.lft.to/lastmile_qr_scan"}, "is_reserved": 0}, {"lon": -77.03181183333334, "bike_id": "d2be5a6a5323f861da6e5cda35c5d2ba", "lat": 38.909110166666665, "fusion_lon": 0.0, "fusion_lat": 0.0, "type": "electric_scooter", "name": "d2be5a6a5323f861da6e5cda35c5d2ba", "is_disabled": 0, "rental_uris": {"ios": "https://dc.lft.to/lastmile_qr_scan", "android": "https://dc.lft.to/lastmile_qr_scan"}, "is_reserved": 0}, {"lon": -76.9478945, "bike_id": "26c750a0b8ebd96381aee15dbc90ab83", "lat": 38.86188333333333, "fusion_lon": 0.0, "fusion_lat": 0.0, "type": "electric_bike", "name": "26c750a0b8ebd96381aee15dbc90ab83", "is_disabled": 0, "rental_uris": {"ios": "https://dc.lft.to/lastmile_qr_scan", "android": "https://dc.lft.to/lastmile_qr_scan"}, "is_reserved": 0}, {"lon": -76.99366316666666, "bike_id": "3e68afbc2864cb6e5727ee8fbb9f788b", "lat": 38.89375783333333, "fusion_lon": 0.0, "fusion_lat": 0.0, "type": "electric_scooter", "name": "3e68afbc2864cb6e5727ee8fbb9f788b", "is_disabled": 0, "rental_uris": {"ios": "https://dc.lft.to/lastmile_qr_scan", "android": "https://dc.lft.to/lastmile_qr_scan"}, "is_reserved": 0}, {"lon": -76.99056233333333, "bike_id": "7579e30d98dbbf18a9e75715dadce984", "lat": 38.863789, "fusion_lon": 0.0, "fusion_lat": 0.0, "type": "electric_scooter", "name": "7579e30d98dbbf18a9e75715dadce984", "is_disabled": 0, "rental_uris": {"ios": "https://dc.lft.to/lastmile_qr_scan", "android": "https://dc.lft.to/lastmile_qr_scan"}, "is_reserved": 0}, {"lon": -77.02404116666666, "bike_id": "563f7fde20d507c6633ba348ec3df685", "lat": 38.916010666666665, "fusion_lon": 0.0, "fusion_lat": 0.0, "type": "electric_scooter", "name": "563f7fde20d507c6633ba348ec3df685", "is_disabled": 0, "rental_uris": {"ios": "https://dc.lft.to/lastmile_qr_scan", "android": "https://dc.lft.to/lastmile_qr_scan"}, "is_reserved": 0}, {"lon": -77.00677383333333, "bike_id": "6f28867a4a96de0eb502e6ed8a40864f", "lat": 38.83493333333333, "fusion_lon": 0.0, "fusion_lat": 0.0, "type": "electric_scooter", "name": "6f28867a4a96de0eb502e6ed8a40864f", "is_disabled": 0, "rental_uris": {"ios": "https://dc.lft.to/lastmile_qr_scan", "android": "https://dc.lft.to/lastmile_qr_scan"}, "is_reserved": 0}, {"lon": -77.03472866666667, "bike_id": "009e525929ba8c5a5d8df50f0d67292f", "lat": 38.884874333333336, "fusion_lon": 0.0, "fusion_lat": 0.0, "type": "electric_scooter", "name": "009e525929ba8c5a5d8df50f0d67292f", "is_disabled": 0, "rental_uris": {"ios": "https://dc.lft.to/lastmile_qr_scan", "android": "https://dc.lft.to/lastmile_qr_scan"}, "is_reserved": 0}, {"lon": -77.03350183333333, "bike_id": "0b1e599ccb75cd26c7752fb492666ea6", "lat": 38.90587466666667, "fusion_lon": 0.0, "fusion_lat": 0.0, "type": "electric_scooter", "name": "0b1e599ccb75cd26c7752fb492666ea6", "is_disabled": 0, "rental_uris": {"ios": "https://dc.lft.to/lastmile_qr_scan", "android": "https://dc.lft.to/lastmile_qr_scan"}, "is_reserved": 0}, {"lon": -77.024057, "bike_id": "60f8f4206f2a24d6e12aae407ed4abe0", "lat": 38.882871, "fusion_lon": 0.0, "fusion_lat": 0.0, "type": "electric_scooter", "name": "60f8f4206f2a24d6e12aae407ed4abe0", "is_disabled": 0, "rental_uris": {"ios": "https://dc.lft.to/lastmile_qr_scan", "android": "https://dc.lft.to/lastmile_qr_scan"}, "is_reserved": 0}, {"lon": -77.04154983333333, "bike_id": "74568575f6cc2ab0745040c1b00fbe4f", "lat": 38.917166333333334, "fusion_lon": 0.0, "fusion_lat": 0.0, "type": "electric_scooter", "name": "74568575f6cc2ab0745040c1b00fbe4f", "is_disabled": 0, "rental_uris": {"ios": "https://dc.lft.to/lastmile_qr_scan", "android": "https://dc.lft.to/lastmile_qr_scan"}, "is_reserved": 0}, {"lon": -77.03663416666667, "bike_id": "5b3588d8fe3d7ef6861f0dea27db2bac", "lat": 38.91815416666667, "fusion_lon": 0.0, "fusion_lat": 0.0, "type": "electric_scooter", "name": "5b3588d8fe3d7ef6861f0dea27db2bac", "is_disabled": 0, "rental_uris": {"ios": "https://dc.lft.to/lastmile_qr_scan", "android": "https://dc.lft.to/lastmile_qr_scan"}, "is_reserved": 0}, {"lon": -77.02193416666667, "bike_id": "6350b34e264ac324a9e3e9c6e9131655", "lat": 38.914871, "fusion_lon": 0.0, "fusion_lat": 0.0, "type": "electric_scooter", "name": "6350b34e264ac324a9e3e9c6e9131655", "is_disabled": 0, "rental_uris": {"ios": "https://dc.lft.to/lastmile_qr_scan", "android": "https://dc.lft.to/lastmile_qr_scan"}, "is_reserved": 0}, {"lon": -77.03672416666667, "bike_id": "351faa0dbff1783f2461bdc64bbde2fa", "lat": 38.908280833333336, "fusion_lon": 0.0, "fusion_lat": 0.0, "type": "electric_scooter", "name": "351faa0dbff1783f2461bdc64bbde2fa", "is_disabled": 0, "rental_uris": {"ios": "https://dc.lft.to/lastmile_qr_scan", "android": "https://dc.lft.to/lastmile_qr_scan"}, "is_reserved": 0}, {"lon": -77.03777183333334, "bike_id": "16f87ef6d1f9e3904d3e47058762bbf2", "lat": 38.93606616666667, "fusion_lon": 0.0, "fusion_lat": 0.0, "type": "electric_scooter", "name": "16f87ef6d1f9e3904d3e47058762bbf2", "is_disabled": 0, "rental_uris": {"ios": "https://dc.lft.to/lastmile_qr_scan", "android": "https://dc.lft.to/lastmile_qr_scan"}, "is_reserved": 0}, {"lon": -77.02458633333333, "bike_id": "5a0d780741755a73dc422e9fc869cd6b", "lat": 38.916928666666664, "fusion_lon": 0.0, "fusion_lat": 0.0, "type": "electric_scooter", "name": "5a0d780741755a73dc422e9fc869cd6b", "is_disabled": 0, "rental_uris": {"ios": "https://dc.lft.to/lastmile_qr_scan", "android": "https://dc.lft.to/lastmile_qr_scan"}, "is_reserved": 0}, {"lon": -77.02694533333333, "bike_id": "306a4ac2167d1c4762eb4ac021f4d4b2", "lat": 38.91638183333333, "fusion_lon": 0.0, "fusion_lat": 0.0, "type": "electric_scooter", "name": "306a4ac2167d1c4762eb4ac021f4d4b2", "is_disabled": 0, "rental_uris": {"ios": "https://dc.lft.to/lastmile_qr_scan", "android": "https://dc.lft.to/lastmile_qr_scan"}, "is_reserved": 0}, {"lon": -77.0346625, "bike_id": "df6bf7247ef2570e5c4d6d45d9d48bd7", "lat": 38.90952633333333, "fusion_lon": 0.0, "fusion_lat": 0.0, "type": "electric_scooter", "name": "df6bf7247ef2570e5c4d6d45d9d48bd7", "is_disabled": 0, "rental_uris": {"ios": "https://dc.lft.to/lastmile_qr_scan", "android": "https://dc.lft.to/lastmile_qr_scan"}, "is_reserved": 0}, {"lon": -76.99177716666667, "bike_id": "40e1256d836092c72f5d46da2e958128", "lat": 38.889915, "fusion_lon": 0.0, "fusion_lat": 0.0, "type": "electric_scooter", "name": "40e1256d836092c72f5d46da2e958128", "is_disabled": 0, "rental_uris": {"ios": "https://dc.lft.to/lastmile_qr_scan", "android": "https://dc.lft.to/lastmile_qr_scan"}, "is_reserved": 0}, {"lon": -77.0411495, "bike_id": "6cb06750b6c3f736b5a6029a106ca263", "lat": 38.9245255, "fusion_lon": 0.0, "fusion_lat": 0.0, "type": "electric_scooter", "name": "6cb06750b6c3f736b5a6029a106ca263", "is_disabled": 0, "rental_uris": {"ios": "https://dc.lft.to/lastmile_qr_scan", "android": "https://dc.lft.to/lastmile_qr_scan"}, "is_reserved": 0}, {"lon": -77.0385885, "bike_id": "dbda630c7b959c33af73b9a9754f59d8", "lat": 38.91019766666667, "fusion_lon": 0.0, "fusion_lat": 0.0, "type": "electric_scooter", "name": "dbda630c7b959c33af73b9a9754f59d8", "is_disabled": 0, "rental_uris": {"ios": "https://dc.lft.to/lastmile_qr_scan", "android": "https://dc.lft.to/lastmile_qr_scan"}, "is_reserved": 0}, {"lon": -77.03344183333333, "bike_id": "d08bc2dd1627c07d08e408004a4743a1", "lat": 38.91553366666667, "fusion_lon": 0.0, "fusion_lat": 0.0, "type": "electric_scooter", "name": "d08bc2dd1627c07d08e408004a4743a1", "is_disabled": 0, "rental_uris": {"ios": "https://dc.lft.to/lastmile_qr_scan", "android": "https://dc.lft.to/lastmile_qr_scan"}, "is_reserved": 0}, {"lon": -77.036623, "bike_id": "89f5f83a8fe5ef85448f50d7c29c0e7f", "lat": 38.92247116666667, "fusion_lon": 0.0, "fusion_lat": 0.0, "type": "electric_scooter", "name": "89f5f83a8fe5ef85448f50d7c29c0e7f", "is_disabled": 0, "rental_uris": {"ios": "https://dc.lft.to/lastmile_qr_scan", "android": "https://dc.lft.to/lastmile_qr_scan"}, "is_reserved": 0}, {"lon": -77.02449133333333, "bike_id": "e8a0a3f2e3bd6896fa2aa37a02a0f316", "lat": 38.92353716666667, "fusion_lon": 0.0, "fusion_lat": 0.0, "type": "electric_scooter", "name": "e8a0a3f2e3bd6896fa2aa37a02a0f316", "is_disabled": 0, "rental_uris": {"ios": "https://dc.lft.to/lastmile_qr_scan", "android": "https://dc.lft.to/lastmile_qr_scan"}, "is_reserved": 0}, {"lon": -77.05057883333333, "bike_id": "223316534372b2fa51908ad62e8ae49d", "lat": 38.925833833333336, "fusion_lon": 0.0, "fusion_lat": 0.0, "type": "electric_scooter", "name": "223316534372b2fa51908ad62e8ae49d", "is_disabled": 0, "rental_uris": {"ios": "https://dc.lft.to/lastmile_qr_scan", "android": "https://dc.lft.to/lastmile_qr_scan"}, "is_reserved": 0}, {"lon": -77.040916, "bike_id": "470bfeb6523e60a60e5afe1db94522a4", "lat": 38.90959316666667, "fusion_lon": 0.0, "fusion_lat": 0.0, "type": "electric_scooter", "name": "470bfeb6523e60a60e5afe1db94522a4", "is_disabled": 0, "rental_uris": {"ios": "https://dc.lft.to/lastmile_qr_scan", "android": "https://dc.lft.to/lastmile_qr_scan"}, "is_reserved": 0}, {"lon": -76.98439233333333, "bike_id": "81100ad53fe7f2aad134340491d765cb", "lat": 38.914600166666666, "fusion_lon": 0.0, "fusion_lat": 0.0, "type": "electric_scooter", "name": "81100ad53fe7f2aad134340491d765cb", "is_disabled": 0, "rental_uris": {"ios": "https://dc.lft.to/lastmile_qr_scan", "android": "https://dc.lft.to/lastmile_qr_scan"}, "is_reserved": 0}, {"lon": -77.02093583333334, "bike_id": "9a6192109e5c5708ca518c0b2cb96275", "lat": 38.876838, "fusion_lon": 0.0, "fusion_lat": 0.0, "type": "electric_scooter", "name": "9a6192109e5c5708ca518c0b2cb96275", "is_disabled": 0, "rental_uris": {"ios": "https://dc.lft.to/lastmile_qr_scan", "android": "https://dc.lft.to/lastmile_qr_scan"}, "is_reserved": 0}, {"lon": -76.9898745, "bike_id": "ce750881cdc98150c1ce317dae5e7307", "lat": 38.93367633333333, "fusion_lon": 0.0, "fusion_lat": 0.0, "type": "electric_scooter", "name": "ce750881cdc98150c1ce317dae5e7307", "is_disabled": 0, "rental_uris": {"ios": "https://dc.lft.to/lastmile_qr_scan", "android": "https://dc.lft.to/lastmile_qr_scan"}, "is_reserved": 0}, {"lon": -76.9935235, "bike_id": "bda661eaa86d0c7be3e150162a7aaad5", "lat": 38.845067, "fusion_lon": 0.0, "fusion_lat": 0.0, "type": "electric_bike", "name": "bda661eaa86d0c7be3e150162a7aaad5", "is_disabled": 0, "rental_uris": {"ios": "https://dc.lft.to/lastmile_qr_scan", "android": "https://dc.lft.to/lastmile_qr_scan"}, "is_reserved": 0}, {"lon": -77.062986, "bike_id": "9f25e9556912d3246f1d300d6e913e34", "lat": 38.90396483333333, "fusion_lon": 0.0, "fusion_lat": 0.0, "type": "electric_scooter", "name": "9f25e9556912d3246f1d300d6e913e34", "is_disabled": 0, "rental_uris": {"ios": "https://dc.lft.to/lastmile_qr_scan", "android": "https://dc.lft.to/lastmile_qr_scan"}, "is_reserved": 0}, {"lon": -77.03561366666666, "bike_id": "3482e59dd124e3b6eabe003654ae59bf", "lat": 38.91812633333333, "fusion_lon": 0.0, "fusion_lat": 0.0, "type": "electric_scooter", "name": "3482e59dd124e3b6eabe003654ae59bf", "is_disabled": 0, "rental_uris": {"ios": "https://dc.lft.to/lastmile_qr_scan", "android": "https://dc.lft.to/lastmile_qr_scan"}, "is_reserved": 0}, {"lon": -77.03068433333334, "bike_id": "b913c3ad7241b4f20adea8d68849929c", "lat": 38.9075425, "fusion_lon": 0.0, "fusion_lat": 0.0, "type": "electric_scooter", "name": "b913c3ad7241b4f20adea8d68849929c", "is_disabled": 0, "rental_uris": {"ios": "https://dc.lft.to/lastmile_qr_scan", "android": "https://dc.lft.to/lastmile_qr_scan"}, "is_reserved": 0}, {"lon": -77.03227183333334, "bike_id": "add709f22f86cf4cd12be44ada8f8831", "lat": 38.90867633333333, "fusion_lon": 0.0, "fusion_lat": 0.0, "type": "electric_scooter", "name": "add709f22f86cf4cd12be44ada8f8831", "is_disabled": 0, "rental_uris": {"ios": "https://dc.lft.to/lastmile_qr_scan", "android": "https://dc.lft.to/lastmile_qr_scan"}, "is_reserved": 0}, {"lon": -77.03165483333333, "bike_id": "097017ce2058fa1af0ed099fd483c506", "lat": 38.9182255, "fusion_lon": 0.0, "fusion_lat": 0.0, "type": "electric_scooter", "name": "097017ce2058fa1af0ed099fd483c506", "is_disabled": 0, "rental_uris": {"ios": "https://dc.lft.to/lastmile_qr_scan", "android": "https://dc.lft.to/lastmile_qr_scan"}, "is_reserved": 0}, {"lon": -76.97497483333333, "bike_id": "0bfeac89cdf8348dd7abd4959007fdd3", "lat": 38.919260333333334, "fusion_lon": 0.0, "fusion_lat": 0.0, "type": "electric_scooter", "name": "0bfeac89cdf8348dd7abd4959007fdd3", "is_disabled": 0, "rental_uris": {"ios": "https://dc.lft.to/lastmile_qr_scan", "android": "https://dc.lft.to/lastmile_qr_scan"}, "is_reserved": 0}, {"lon": -77.02190333333333, "bike_id": "87cebda0d7566d90f8d32f631380274d", "lat": 38.914483, "fusion_lon": 0.0, "fusion_lat": 0.0, "type": "electric_scooter", "name": "87cebda0d7566d90f8d32f631380274d", "is_disabled": 0, "rental_uris": {"ios": "https://dc.lft.to/lastmile_qr_scan", "android": "https://dc.lft.to/lastmile_qr_scan"}, "is_reserved": 0}, {"lon": -76.94405266666666, "bike_id": "a063ae0f4361eca88b45a1177ae2347c", "lat": 38.88145016666667, "fusion_lon": 0.0, "fusion_lat": 0.0, "type": "electric_scooter", "name": "a063ae0f4361eca88b45a1177ae2347c", "is_disabled": 0, "rental_uris": {"ios": "https://dc.lft.to/lastmile_qr_scan", "android": "https://dc.lft.to/lastmile_qr_scan"}, "is_reserved": 0}, {"lon": -77.06514533333333, "bike_id": "329aea4411e70caa078c86f85b5fdb44", "lat": 38.90504333333333, "fusion_lon": 0.0, "fusion_lat": 0.0, "type": "electric_scooter", "name": "329aea4411e70caa078c86f85b5fdb44", "is_disabled": 0, "rental_uris": {"ios": "https://dc.lft.to/lastmile_qr_scan", "android": "https://dc.lft.to/lastmile_qr_scan"}, "is_reserved": 0}, {"lon": -77.04010083333333, "bike_id": "474d477dffe8230988ac7bdd842ad0d5", "lat": 38.922135, "fusion_lon": 0.0, "fusion_lat": 0.0, "type": "electric_scooter", "name": "474d477dffe8230988ac7bdd842ad0d5", "is_disabled": 0, "rental_uris": {"ios": "https://dc.lft.to/lastmile_qr_scan", "android": "https://dc.lft.to/lastmile_qr_scan"}, "is_reserved": 0}, {"lon": -77.004602, "bike_id": "deffd1ada63b660e6241e844109c83e0", "lat": 38.91147933333333, "fusion_lon": 0.0, "fusion_lat": 0.0, "type": "electric_scooter", "name": "deffd1ada63b660e6241e844109c83e0", "is_disabled": 0, "rental_uris": {"ios": "https://dc.lft.to/lastmile_qr_scan", "android": "https://dc.lft.to/lastmile_qr_scan"}, "is_reserved": 0}, {"lon": -76.9463285, "bike_id": "97d8412ce3e4684d1c26673d689e9e4f", "lat": 38.89832783333333, "fusion_lon": 0.0, "fusion_lat": 0.0, "type": "electric_scooter", "name": "97d8412ce3e4684d1c26673d689e9e4f", "is_disabled": 0, "rental_uris": {"ios": "https://dc.lft.to/lastmile_qr_scan", "android": "https://dc.lft.to/lastmile_qr_scan"}, "is_reserved": 0}, {"lon": -77.035149, "bike_id": "05ca8d80ca400ea6696e1ac23377d31e", "lat": 38.923399, "fusion_lon": 0.0, "fusion_lat": 0.0, "type": "electric_scooter", "name": "05ca8d80ca400ea6696e1ac23377d31e", "is_disabled": 0, "rental_uris": {"ios": "https://dc.lft.to/lastmile_qr_scan", "android": "https://dc.lft.to/lastmile_qr_scan"}, "is_reserved": 0}, {"lon": -77.03390283333333, "bike_id": "ebbb419441f379e89eb233f6ef800930", "lat": 38.90975733333333, "fusion_lon": 0.0, "fusion_lat": 0.0, "type": "electric_scooter", "name": "ebbb419441f379e89eb233f6ef800930", "is_disabled": 0, "rental_uris": {"ios": "https://dc.lft.to/lastmile_qr_scan", "android": "https://dc.lft.to/lastmile_qr_scan"}, "is_reserved": 0}, {"lon": -76.941079, "bike_id": "98f32312afcf257e2248b97fc8877b75", "lat": 38.886430833333335, "fusion_lon": 0.0, "fusion_lat": 0.0, "type": "electric_scooter", "name": "98f32312afcf257e2248b97fc8877b75", "is_disabled": 0, "rental_uris": {"ios": "https://dc.lft.to/lastmile_qr_scan", "android": "https://dc.lft.to/lastmile_qr_scan"}, "is_reserved": 0}, {"lon": -77.01761783333333, "bike_id": "5efecc799b8d275a50b446e8533408f5", "lat": 38.903872666666665, "fusion_lon": 0.0, "fusion_lat": 0.0, "type": "electric_scooter", "name": "5efecc799b8d275a50b446e8533408f5", "is_disabled": 0, "rental_uris": {"ios": "https://dc.lft.to/lastmile_qr_scan", "android": "https://dc.lft.to/lastmile_qr_scan"}, "is_reserved": 0}, {"lon": -77.03681083333333, "bike_id": "e809e5ddfae07c6c1d1cd6cb655ea37c", "lat": 38.921042666666665, "fusion_lon": 0.0, "fusion_lat": 0.0, "type": "electric_scooter", "name": "e809e5ddfae07c6c1d1cd6cb655ea37c", "is_disabled": 0, "rental_uris": {"ios": "https://dc.lft.to/lastmile_qr_scan", "android": "https://dc.lft.to/lastmile_qr_scan"}, "is_reserved": 0}, {"lon": -76.9652415, "bike_id": "f151c614b6aa471fb8c0aed9f4e24d0c", "lat": 38.876271, "fusion_lon": 0.0, "fusion_lat": 0.0, "type": "electric_scooter", "name": "f151c614b6aa471fb8c0aed9f4e24d0c", "is_disabled": 0, "rental_uris": {"ios": "https://dc.lft.to/lastmile_qr_scan", "android": "https://dc.lft.to/lastmile_qr_scan"}, "is_reserved": 0}, {"lon": -77.05021366666666, "bike_id": "3ed9e737a072b46b248e27bb9c78a5ac", "lat": 38.89821, "fusion_lon": 0.0, "fusion_lat": 0.0, "type": "electric_scooter", "name": "3ed9e737a072b46b248e27bb9c78a5ac", "is_disabled": 0, "rental_uris": {"ios": "https://dc.lft.to/lastmile_qr_scan", "android": "https://dc.lft.to/lastmile_qr_scan"}, "is_reserved": 0}, {"lon": -77.033203, "bike_id": "7dcff8d9edc13621124703286ab9106d", "lat": 38.921548666666666, "fusion_lon": 0.0, "fusion_lat": 0.0, "type": "electric_scooter", "name": "7dcff8d9edc13621124703286ab9106d", "is_disabled": 0, "rental_uris": {"ios": "https://dc.lft.to/lastmile_qr_scan", "android": "https://dc.lft.to/lastmile_qr_scan"}, "is_reserved": 0}, {"lon": -77.03548116666667, "bike_id": "a10bacce4db5a9478b6da5ae997b7709", "lat": 38.9077565, "fusion_lon": 0.0, "fusion_lat": 0.0, "type": "electric_scooter", "name": "a10bacce4db5a9478b6da5ae997b7709", "is_disabled": 0, "rental_uris": {"ios": "https://dc.lft.to/lastmile_qr_scan", "android": "https://dc.lft.to/lastmile_qr_scan"}, "is_reserved": 0}, {"lon": -76.9848985, "bike_id": "8a3b9f06ea9c09fcf4a6c360b09ca7bc", "lat": 38.8783695, "fusion_lon": 0.0, "fusion_lat": 0.0, "type": "electric_scooter", "name": "8a3b9f06ea9c09fcf4a6c360b09ca7bc", "is_disabled": 0, "rental_uris": {"ios": "https://dc.lft.to/lastmile_qr_scan", "android": "https://dc.lft.to/lastmile_qr_scan"}, "is_reserved": 0}, {"lon": -77.05221683333333, "bike_id": "c15a783ba13340f6c7de7d74b8919159", "lat": 38.915683, "fusion_lon": 0.0, "fusion_lat": 0.0, "type": "electric_scooter", "name": "c15a783ba13340f6c7de7d74b8919159", "is_disabled": 0, "rental_uris": {"ios": "https://dc.lft.to/lastmile_qr_scan", "android": "https://dc.lft.to/lastmile_qr_scan"}, "is_reserved": 0}, {"lon": -77.05710716666667, "bike_id": "0b702492c7facb4cee0ccea08c5c590a", "lat": 38.905490666666665, "fusion_lon": 0.0, "fusion_lat": 0.0, "type": "electric_scooter", "name": "0b702492c7facb4cee0ccea08c5c590a", "is_disabled": 0, "rental_uris": {"ios": "https://dc.lft.to/lastmile_qr_scan", "android": "https://dc.lft.to/lastmile_qr_scan"}, "is_reserved": 0}, {"lon": -77.030978, "bike_id": "d243df010dd366ebd7ddfd4f57077751", "lat": 38.93454233333333, "fusion_lon": 0.0, "fusion_lat": 0.0, "type": "electric_scooter", "name": "d243df010dd366ebd7ddfd4f57077751", "is_disabled": 0, "rental_uris": {"ios": "https://dc.lft.to/lastmile_qr_scan", "android": "https://dc.lft.to/lastmile_qr_scan"}, "is_reserved": 0}, {"lon": -77.03249316666667, "bike_id": "6aaf7f5291a86f1e76a7cb63620bbae4", "lat": 38.92992816666667, "fusion_lon": 0.0, "fusion_lat": 0.0, "type": "electric_scooter", "name": "6aaf7f5291a86f1e76a7cb63620bbae4", "is_disabled": 0, "rental_uris": {"ios": "https://dc.lft.to/lastmile_qr_scan", "android": "https://dc.lft.to/lastmile_qr_scan"}, "is_reserved": 0}, {"lon": -77.00579433333333, "bike_id": "c189a4dbbf25851596bf04c34b71e14f", "lat": 38.904007, "fusion_lon": 0.0, "fusion_lat": 0.0, "type": "electric_scooter", "name": "c189a4dbbf25851596bf04c34b71e14f", "is_disabled": 0, "rental_uris": {"ios": "https://dc.lft.to/lastmile_qr_scan", "android": "https://dc.lft.to/lastmile_qr_scan"}, "is_reserved": 0}, {"lon": -77.0320885, "bike_id": "6b9399a5e35d51b7e719b6293af731cd", "lat": 38.908297166666664, "fusion_lon": 0.0, "fusion_lat": 0.0, "type": "electric_scooter", "name": "6b9399a5e35d51b7e719b6293af731cd", "is_disabled": 0, "rental_uris": {"ios": "https://dc.lft.to/lastmile_qr_scan", "android": "https://dc.lft.to/lastmile_qr_scan"}, "is_reserved": 0}, {"lon": -76.93359683333334, "bike_id": "feb343210d5a6ef5ed92086fd9fe10a2", "lat": 38.88796683333333, "fusion_lon": 0.0, "fusion_lat": 0.0, "type": "electric_scooter", "name": "feb343210d5a6ef5ed92086fd9fe10a2", "is_disabled": 0, "rental_uris": {"ios": "https://dc.lft.to/lastmile_qr_scan", "android": "https://dc.lft.to/lastmile_qr_scan"}, "is_reserved": 0}, {"lon": -77.01005083333334, "bike_id": "3c2f4f523a27fb3a99b1e5a8983835e0", "lat": 38.919243333333334, "fusion_lon": 0.0, "fusion_lat": 0.0, "type": "electric_scooter", "name": "3c2f4f523a27fb3a99b1e5a8983835e0", "is_disabled": 0, "rental_uris": {"ios": "https://dc.lft.to/lastmile_qr_scan", "android": "https://dc.lft.to/lastmile_qr_scan"}, "is_reserved": 0}, {"lon": -77.04277233333333, "bike_id": "fb3dcb518d2ffaa6bfba4caca989d1d5", "lat": 38.91559316666667, "fusion_lon": 0.0, "fusion_lat": 0.0, "type": "electric_scooter", "name": "fb3dcb518d2ffaa6bfba4caca989d1d5", "is_disabled": 0, "rental_uris": {"ios": "https://dc.lft.to/lastmile_qr_scan", "android": "https://dc.lft.to/lastmile_qr_scan"}, "is_reserved": 0}, {"lon": -77.02352766666667, "bike_id": "6016e18c670113f0170049dc738a4084", "lat": 38.93536616666667, "fusion_lon": 0.0, "fusion_lat": 0.0, "type": "electric_scooter", "name": "6016e18c670113f0170049dc738a4084", "is_disabled": 0, "rental_uris": {"ios": "https://dc.lft.to/lastmile_qr_scan", "android": "https://dc.lft.to/lastmile_qr_scan"}, "is_reserved": 0}, {"lon": -77.03080233333333, "bike_id": "59452242ae5251fe9c805b5280f35fc9", "lat": 38.9103245, "fusion_lon": 0.0, "fusion_lat": 0.0, "type": "electric_scooter", "name": "59452242ae5251fe9c805b5280f35fc9", "is_disabled": 0, "rental_uris": {"ios": "https://dc.lft.to/lastmile_qr_scan", "android": "https://dc.lft.to/lastmile_qr_scan"}, "is_reserved": 0}, {"lon": -76.94880516666667, "bike_id": "718042cb0e4a1eb680e4e746318c2421", "lat": 38.895491166666666, "fusion_lon": 0.0, "fusion_lat": 0.0, "type": "electric_scooter", "name": "718042cb0e4a1eb680e4e746318c2421", "is_disabled": 0, "rental_uris": {"ios": "https://dc.lft.to/lastmile_qr_scan", "android": "https://dc.lft.to/lastmile_qr_scan"}, "is_reserved": 0}, {"lon": -77.01297066666666, "bike_id": "2103b5cbf5106bbceaa3f8e4e2149806", "lat": 38.912684666666664, "fusion_lon": 0.0, "fusion_lat": 0.0, "type": "electric_scooter", "name": "2103b5cbf5106bbceaa3f8e4e2149806", "is_disabled": 0, "rental_uris": {"ios": "https://dc.lft.to/lastmile_qr_scan", "android": "https://dc.lft.to/lastmile_qr_scan"}, "is_reserved": 0}, {"lon": -77.03625783333334, "bike_id": "0f2d09ad393260bb207ab3fb176ccf8a", "lat": 38.945674833333335, "fusion_lon": 0.0, "fusion_lat": 0.0, "type": "electric_scooter", "name": "0f2d09ad393260bb207ab3fb176ccf8a", "is_disabled": 0, "rental_uris": {"ios": "https://dc.lft.to/lastmile_qr_scan", "android": "https://dc.lft.to/lastmile_qr_scan"}, "is_reserved": 0}, {"lon": -77.03847233333333, "bike_id": "560267fe61c6d07d6daa180df760f6fa", "lat": 38.91665733333333, "fusion_lon": 0.0, "fusion_lat": 0.0, "type": "electric_scooter", "name": "560267fe61c6d07d6daa180df760f6fa", "is_disabled": 0, "rental_uris": {"ios": "https://dc.lft.to/lastmile_qr_scan", "android": "https://dc.lft.to/lastmile_qr_scan"}, "is_reserved": 0}, {"lon": -77.01491366666667, "bike_id": "3c387cc02e52068989e67e80a03bf6f3", "lat": 38.926649833333336, "fusion_lon": 0.0, "fusion_lat": 0.0, "type": "electric_scooter", "name": "3c387cc02e52068989e67e80a03bf6f3", "is_disabled": 0, "rental_uris": {"ios": "https://dc.lft.to/lastmile_qr_scan", "android": "https://dc.lft.to/lastmile_qr_scan"}, "is_reserved": 0}, {"lon": -77.02595816666667, "bike_id": "8753e46e85da7a423cdcc961508879d5", "lat": 38.91690966666667, "fusion_lon": 0.0, "fusion_lat": 0.0, "type": "electric_scooter", "name": "8753e46e85da7a423cdcc961508879d5", "is_disabled": 0, "rental_uris": {"ios": "https://dc.lft.to/lastmile_qr_scan", "android": "https://dc.lft.to/lastmile_qr_scan"}, "is_reserved": 0}, {"lon": -76.98941083333334, "bike_id": "0e83f8686a2d1b19862d08fb38984b61", "lat": 38.918378, "fusion_lon": 0.0, "fusion_lat": 0.0, "type": "electric_scooter", "name": "0e83f8686a2d1b19862d08fb38984b61", "is_disabled": 0, "rental_uris": {"ios": "https://dc.lft.to/lastmile_qr_scan", "android": "https://dc.lft.to/lastmile_qr_scan"}, "is_reserved": 0}, {"lon": -77.025682, "bike_id": "7e0cc5b082ee64882c380ebe849726ec", "lat": 38.91340266666667, "fusion_lon": 0.0, "fusion_lat": 0.0, "type": "electric_scooter", "name": "7e0cc5b082ee64882c380ebe849726ec", "is_disabled": 0, "rental_uris": {"ios": "https://dc.lft.to/lastmile_qr_scan", "android": "https://dc.lft.to/lastmile_qr_scan"}, "is_reserved": 0}, {"lon": -77.03787866666667, "bike_id": "d111a57678b2c3c627d9d2c786357b25", "lat": 38.929651, "fusion_lon": 0.0, "fusion_lat": 0.0, "type": "electric_scooter", "name": "d111a57678b2c3c627d9d2c786357b25", "is_disabled": 0, "rental_uris": {"ios": "https://dc.lft.to/lastmile_qr_scan", "android": "https://dc.lft.to/lastmile_qr_scan"}, "is_reserved": 0}, {"lon": -77.02614266666667, "bike_id": "7078eb5dfd4ac538bc120ad6a2f14e73", "lat": 38.90074366666666, "fusion_lon": 0.0, "fusion_lat": 0.0, "type": "electric_scooter", "name": "7078eb5dfd4ac538bc120ad6a2f14e73", "is_disabled": 0, "rental_uris": {"ios": "https://dc.lft.to/lastmile_qr_scan", "android": "https://dc.lft.to/lastmile_qr_scan"}, "is_reserved": 0}, {"lon": -77.0242085, "bike_id": "2f4e5b2877ea30cbe705df58a7caf016", "lat": 38.92086116666667, "fusion_lon": 0.0, "fusion_lat": 0.0, "type": "electric_scooter", "name": "2f4e5b2877ea30cbe705df58a7caf016", "is_disabled": 0, "rental_uris": {"ios": "https://dc.lft.to/lastmile_qr_scan", "android": "https://dc.lft.to/lastmile_qr_scan"}, "is_reserved": 0}, {"lon": -76.98404616666667, "bike_id": "92f85066b44fb123837641b6ef79073e", "lat": 38.9062745, "fusion_lon": 0.0, "fusion_lat": 0.0, "type": "electric_scooter", "name": "92f85066b44fb123837641b6ef79073e", "is_disabled": 0, "rental_uris": {"ios": "https://dc.lft.to/lastmile_qr_scan", "android": "https://dc.lft.to/lastmile_qr_scan"}, "is_reserved": 0}, {"lon": -77.05589516666667, "bike_id": "b362f3fbf216295120af30688ecc9f22", "lat": 38.89309983333333, "fusion_lon": 0.0, "fusion_lat": 0.0, "type": "electric_scooter", "name": "b362f3fbf216295120af30688ecc9f22", "is_disabled": 0, "rental_uris": {"ios": "https://dc.lft.to/lastmile_qr_scan", "android": "https://dc.lft.to/lastmile_qr_scan"}, "is_reserved": 0}, {"lon": -77.04013516666667, "bike_id": "3d330d9469d04195e916ace874a26a8a", "lat": 38.904055666666665, "fusion_lon": 0.0, "fusion_lat": 0.0, "type": "electric_scooter", "name": "3d330d9469d04195e916ace874a26a8a", "is_disabled": 0, "rental_uris": {"ios": "https://dc.lft.to/lastmile_qr_scan", "android": "https://dc.lft.to/lastmile_qr_scan"}, "is_reserved": 0}, {"lon": -77.04989283333333, "bike_id": "47236162d1724ff1a4ff545e6c2e6c84", "lat": 38.900685, "fusion_lon": 0.0, "fusion_lat": 0.0, "type": "electric_scooter", "name": "47236162d1724ff1a4ff545e6c2e6c84", "is_disabled": 0, "rental_uris": {"ios": "https://dc.lft.to/lastmile_qr_scan", "android": "https://dc.lft.to/lastmile_qr_scan"}, "is_reserved": 0}, {"lon": -77.10808233333333, "bike_id": "5ba708b117a53f9ed4d01dc39d0a7f38", "lat": 38.81204316666667, "fusion_lon": 0.0, "fusion_lat": 0.0, "type": "electric_bike", "name": "5ba708b117a53f9ed4d01dc39d0a7f38", "is_disabled": 0, "rental_uris": {"ios": "https://dc.lft.to/lastmile_qr_scan", "android": "https://dc.lft.to/lastmile_qr_scan"}, "is_reserved": 0}, {"lon": -77.02723916666666, "bike_id": "3c1b6466b299a3f783f09a9e4c464881", "lat": 38.900583833333336, "fusion_lon": 0.0, "fusion_lat": 0.0, "type": "electric_scooter", "name": "3c1b6466b299a3f783f09a9e4c464881", "is_disabled": 0, "rental_uris": {"ios": "https://dc.lft.to/lastmile_qr_scan", "android": "https://dc.lft.to/lastmile_qr_scan"}, "is_reserved": 0}, {"lon": -77.04210016666667, "bike_id": "e965545d0dcfdc5e80707c28a46aed46", "lat": 38.923177, "fusion_lon": 0.0, "fusion_lat": 0.0, "type": "electric_scooter", "name": "e965545d0dcfdc5e80707c28a46aed46", "is_disabled": 0, "rental_uris": {"ios": "https://dc.lft.to/lastmile_qr_scan", "android": "https://dc.lft.to/lastmile_qr_scan"}, "is_reserved": 0}, {"lon": -77.0543935, "bike_id": "b0124129c66b214f5abd8e22ff8dda26", "lat": 38.928545166666666, "fusion_lon": 0.0, "fusion_lat": 0.0, "type": "electric_bike", "name": "b0124129c66b214f5abd8e22ff8dda26", "is_disabled": 0, "rental_uris": {"ios": "https://dc.lft.to/lastmile_qr_scan", "android": "https://dc.lft.to/lastmile_qr_scan"}, "is_reserved": 0}, {"lon": -77.00005433333334, "bike_id": "61c15c8bf8890c64d6e29953d0e538b1", "lat": 38.89740716666667, "fusion_lon": 0.0, "fusion_lat": 0.0, "type": "electric_scooter", "name": "61c15c8bf8890c64d6e29953d0e538b1", "is_disabled": 0, "rental_uris": {"ios": "https://dc.lft.to/lastmile_qr_scan", "android": "https://dc.lft.to/lastmile_qr_scan"}, "is_reserved": 0}, {"lon": -76.99866966666667, "bike_id": "2acdbf023919c15cd62f0bcea0434524", "lat": 38.9002475, "fusion_lon": 0.0, "fusion_lat": 0.0, "type": "electric_scooter", "name": "2acdbf023919c15cd62f0bcea0434524", "is_disabled": 0, "rental_uris": {"ios": "https://dc.lft.to/lastmile_qr_scan", "android": "https://dc.lft.to/lastmile_qr_scan"}, "is_reserved": 0}, {"lon": -77.014439, "bike_id": "02ecddbab42a5ecdeb661c27b2edb67c", "lat": 38.87680183333333, "fusion_lon": 0.0, "fusion_lat": 0.0, "type": "electric_bike", "name": "02ecddbab42a5ecdeb661c27b2edb67c", "is_disabled": 0, "rental_uris": {"ios": "https://dc.lft.to/lastmile_qr_scan", "android": "https://dc.lft.to/lastmile_qr_scan"}, "is_reserved": 0}, {"lon": -77.01532966666667, "bike_id": "aa24c13bf14898fd5701e38e044c217c", "lat": 38.884945, "fusion_lon": 0.0, "fusion_lat": 0.0, "type": "electric_scooter", "name": "aa24c13bf14898fd5701e38e044c217c", "is_disabled": 0, "rental_uris": {"ios": "https://dc.lft.to/lastmile_qr_scan", "android": "https://dc.lft.to/lastmile_qr_scan"}, "is_reserved": 0}, {"lon": -77.01993016666667, "bike_id": "4300acaf655098f466139f6119e2bbd0", "lat": 38.896037166666666, "fusion_lon": 0.0, "fusion_lat": 0.0, "type": "electric_scooter", "name": "4300acaf655098f466139f6119e2bbd0", "is_disabled": 0, "rental_uris": {"ios": "https://dc.lft.to/lastmile_qr_scan", "android": "https://dc.lft.to/lastmile_qr_scan"}, "is_reserved": 0}, {"lon": -77.0459805, "bike_id": "5ae0a5000cd1e11319e87feb06a61a1c", "lat": 38.91356116666667, "fusion_lon": 0.0, "fusion_lat": 0.0, "type": "electric_scooter", "name": "5ae0a5000cd1e11319e87feb06a61a1c", "is_disabled": 0, "rental_uris": {"ios": "https://dc.lft.to/lastmile_qr_scan", "android": "https://dc.lft.to/lastmile_qr_scan"}, "is_reserved": 0}, {"lon": -77.0648835, "bike_id": "5a4de9f77d06f53ebe9b78fa49c57e21", "lat": 38.90974666666666, "fusion_lon": 0.0, "fusion_lat": 0.0, "type": "electric_scooter", "name": "5a4de9f77d06f53ebe9b78fa49c57e21", "is_disabled": 0, "rental_uris": {"ios": "https://dc.lft.to/lastmile_qr_scan", "android": "https://dc.lft.to/lastmile_qr_scan"}, "is_reserved": 0}, {"lon": -77.0224455, "bike_id": "511da02c469b698cb245506edd24494e", "lat": 38.922738833333334, "fusion_lon": 0.0, "fusion_lat": 0.0, "type": "electric_scooter", "name": "511da02c469b698cb245506edd24494e", "is_disabled": 0, "rental_uris": {"ios": "https://dc.lft.to/lastmile_qr_scan", "android": "https://dc.lft.to/lastmile_qr_scan"}, "is_reserved": 0}, {"lon": -76.9873665, "bike_id": "f7710b927b5e2c7b3cfd697deeebf2f6", "lat": 38.865817666666665, "fusion_lon": 0.0, "fusion_lat": 0.0, "type": "electric_bike", "name": "f7710b927b5e2c7b3cfd697deeebf2f6", "is_disabled": 0, "rental_uris": {"ios": "https://dc.lft.to/lastmile_qr_scan", "android": "https://dc.lft.to/lastmile_qr_scan"}, "is_reserved": 0}, {"lon": -77.02974716666667, "bike_id": "322bfef7cf7f5a88f562a8e8d7a17f1e", "lat": 38.939322, "fusion_lon": 0.0, "fusion_lat": 0.0, "type": "electric_scooter", "name": "322bfef7cf7f5a88f562a8e8d7a17f1e", "is_disabled": 0, "rental_uris": {"ios": "https://dc.lft.to/lastmile_qr_scan", "android": "https://dc.lft.to/lastmile_qr_scan"}, "is_reserved": 0}, {"lon": -77.031641, "bike_id": "5521c4def8c77faa89f52c37310bc195", "lat": 38.9141745, "fusion_lon": 0.0, "fusion_lat": 0.0, "type": "electric_scooter", "name": "5521c4def8c77faa89f52c37310bc195", "is_disabled": 0, "rental_uris": {"ios": "https://dc.lft.to/lastmile_qr_scan", "android": "https://dc.lft.to/lastmile_qr_scan"}, "is_reserved": 0}, {"lon": -77.02187866666667, "bike_id": "a68e5a37a284df97f57146282a627a9f", "lat": 38.91128716666667, "fusion_lon": 0.0, "fusion_lat": 0.0, "type": "electric_scooter", "name": "a68e5a37a284df97f57146282a627a9f", "is_disabled": 0, "rental_uris": {"ios": "https://dc.lft.to/lastmile_qr_scan", "android": "https://dc.lft.to/lastmile_qr_scan"}, "is_reserved": 0}, {"lon": -76.98683716666666, "bike_id": "16d62e658f316ecf3c30ef4a7d7698db", "lat": 38.912924, "fusion_lon": 0.0, "fusion_lat": 0.0, "type": "electric_bike", "name": "16d62e658f316ecf3c30ef4a7d7698db", "is_disabled": 0, "rental_uris": {"ios": "https://dc.lft.to/lastmile_qr_scan", "android": "https://dc.lft.to/lastmile_qr_scan"}, "is_reserved": 0}, {"lon": -77.064164, "bike_id": "23d4e536d8e79c871d070f80d784e86b", "lat": 38.993324666666666, "fusion_lon": 0.0, "fusion_lat": 0.0, "type": "electric_scooter", "name": "23d4e536d8e79c871d070f80d784e86b", "is_disabled": 0, "rental_uris": {"ios": "https://dc.lft.to/lastmile_qr_scan", "android": "https://dc.lft.to/lastmile_qr_scan"}, "is_reserved": 0}, {"lon": -76.96527383333333, "bike_id": "eb75e0b6bead1144371590b940ff1296", "lat": 38.876310333333336, "fusion_lon": 0.0, "fusion_lat": 0.0, "type": "electric_scooter", "name": "eb75e0b6bead1144371590b940ff1296", "is_disabled": 0, "rental_uris": {"ios": "https://dc.lft.to/lastmile_qr_scan", "android": "https://dc.lft.to/lastmile_qr_scan"}, "is_reserved": 0}, {"lon": -77.04114633333333, "bike_id": "e1a0fa2e7c8ca5cad5a9be6f4de09f3a", "lat": 38.93475333333333, "fusion_lon": 0.0, "fusion_lat": 0.0, "type": "electric_scooter", "name": "e1a0fa2e7c8ca5cad5a9be6f4de09f3a", "is_disabled": 0, "rental_uris": {"ios": "https://dc.lft.to/lastmile_qr_scan", "android": "https://dc.lft.to/lastmile_qr_scan"}, "is_reserved": 0}, {"lon": -77.039592, "bike_id": "584976b73f2a60acb69203852c1ca5a6", "lat": 38.915634833333336, "fusion_lon": 0.0, "fusion_lat": 0.0, "type": "electric_scooter", "name": "584976b73f2a60acb69203852c1ca5a6", "is_disabled": 0, "rental_uris": {"ios": "https://dc.lft.to/lastmile_qr_scan", "android": "https://dc.lft.to/lastmile_qr_scan"}, "is_reserved": 0}, {"lon": -76.97870866666666, "bike_id": "30e6dc15cd53858d45b2b2ea526fa001", "lat": 38.88304216666667, "fusion_lon": 0.0, "fusion_lat": 0.0, "type": "electric_scooter", "name": "30e6dc15cd53858d45b2b2ea526fa001", "is_disabled": 0, "rental_uris": {"ios": "https://dc.lft.to/lastmile_qr_scan", "android": "https://dc.lft.to/lastmile_qr_scan"}, "is_reserved": 0}, {"lon": -77.02393533333333, "bike_id": "2c05e0a6d9b4525b0f96f6a9142ed7cd", "lat": 38.931099833333334, "fusion_lon": 0.0, "fusion_lat": 0.0, "type": "electric_scooter", "name": "2c05e0a6d9b4525b0f96f6a9142ed7cd", "is_disabled": 0, "rental_uris": {"ios": "https://dc.lft.to/lastmile_qr_scan", "android": "https://dc.lft.to/lastmile_qr_scan"}, "is_reserved": 0}, {"lon": -77.03909766666666, "bike_id": "b19014dff044696f46f2406f632691cd", "lat": 38.914083833333336, "fusion_lon": 0.0, "fusion_lat": 0.0, "type": "electric_scooter", "name": "b19014dff044696f46f2406f632691cd", "is_disabled": 0, "rental_uris": {"ios": "https://dc.lft.to/lastmile_qr_scan", "android": "https://dc.lft.to/lastmile_qr_scan"}, "is_reserved": 0}, {"lon": -76.98107266666666, "bike_id": "5c4d31f71b0016c6aca88f4fb81f3a6a", "lat": 38.904052666666665, "fusion_lon": 0.0, "fusion_lat": 0.0, "type": "electric_scooter", "name": "5c4d31f71b0016c6aca88f4fb81f3a6a", "is_disabled": 0, "rental_uris": {"ios": "https://dc.lft.to/lastmile_qr_scan", "android": "https://dc.lft.to/lastmile_qr_scan"}, "is_reserved": 0}, {"lon": -77.03631866666667, "bike_id": "e50ba40fe81692a53f009aea3ce8a1ba", "lat": 38.94497633333334, "fusion_lon": 0.0, "fusion_lat": 0.0, "type": "electric_scooter", "name": "e50ba40fe81692a53f009aea3ce8a1ba", "is_disabled": 0, "rental_uris": {"ios": "https://dc.lft.to/lastmile_qr_scan", "android": "https://dc.lft.to/lastmile_qr_scan"}, "is_reserved": 0}, {"lon": -77.0089255, "bike_id": "ccc044955b36cf757aa66843b78d286c", "lat": 38.89764566666667, "fusion_lon": 0.0, "fusion_lat": 0.0, "type": "electric_scooter", "name": "ccc044955b36cf757aa66843b78d286c", "is_disabled": 0, "rental_uris": {"ios": "https://dc.lft.to/lastmile_qr_scan", "android": "https://dc.lft.to/lastmile_qr_scan"}, "is_reserved": 0}, {"lon": -77.03283966666666, "bike_id": "900a10fa48542993967fbdc16e4d3871", "lat": 38.91993016666667, "fusion_lon": 0.0, "fusion_lat": 0.0, "type": "electric_scooter", "name": "900a10fa48542993967fbdc16e4d3871", "is_disabled": 0, "rental_uris": {"ios": "https://dc.lft.to/lastmile_qr_scan", "android": "https://dc.lft.to/lastmile_qr_scan"}, "is_reserved": 0}, {"lon": -76.98634016666666, "bike_id": "60a50b2ccbb06865b7290c2e2b4e3967", "lat": 38.90162566666667, "fusion_lon": 0.0, "fusion_lat": 0.0, "type": "electric_scooter", "name": "60a50b2ccbb06865b7290c2e2b4e3967", "is_disabled": 0, "rental_uris": {"ios": "https://dc.lft.to/lastmile_qr_scan", "android": "https://dc.lft.to/lastmile_qr_scan"}, "is_reserved": 0}, {"lon": -77.04883066666666, "bike_id": "2c306edd4be2f458b62aaac0033205de", "lat": 38.90612016666667, "fusion_lon": 0.0, "fusion_lat": 0.0, "type": "electric_scooter", "name": "2c306edd4be2f458b62aaac0033205de", "is_disabled": 0, "rental_uris": {"ios": "https://dc.lft.to/lastmile_qr_scan", "android": "https://dc.lft.to/lastmile_qr_scan"}, "is_reserved": 0}, {"lon": -77.09615416666666, "bike_id": "fc7a9901bddadccd37b8883cb1977ff5", "lat": 38.8695125, "fusion_lon": 0.0, "fusion_lat": 0.0, "type": "electric_bike", "name": "fc7a9901bddadccd37b8883cb1977ff5", "is_disabled": 0, "rental_uris": {"ios": "https://dc.lft.to/lastmile_qr_scan", "android": "https://dc.lft.to/lastmile_qr_scan"}, "is_reserved": 0}, {"lon": -76.98749233333334, "bike_id": "894b09fbb3c899c7af4dd50a1a42e5ca", "lat": 38.900308833333334, "fusion_lon": 0.0, "fusion_lat": 0.0, "type": "electric_scooter", "name": "894b09fbb3c899c7af4dd50a1a42e5ca", "is_disabled": 0, "rental_uris": {"ios": "https://dc.lft.to/lastmile_qr_scan", "android": "https://dc.lft.to/lastmile_qr_scan"}, "is_reserved": 0}, {"lon": -77.01835166666666, "bike_id": "357ec12de5903853dd1342db80022726", "lat": 38.9093395, "fusion_lon": 0.0, "fusion_lat": 0.0, "type": "electric_scooter", "name": "357ec12de5903853dd1342db80022726", "is_disabled": 0, "rental_uris": {"ios": "https://dc.lft.to/lastmile_qr_scan", "android": "https://dc.lft.to/lastmile_qr_scan"}, "is_reserved": 0}, {"lon": -77.03639883333334, "bike_id": "7ee1fbff60cce116f170f180f734d179", "lat": 38.9221155, "fusion_lon": 0.0, "fusion_lat": 0.0, "type": "electric_scooter", "name": "7ee1fbff60cce116f170f180f734d179", "is_disabled": 0, "rental_uris": {"ios": "https://dc.lft.to/lastmile_qr_scan", "android": "https://dc.lft.to/lastmile_qr_scan"}, "is_reserved": 0}, {"lon": -77.00763033333334, "bike_id": "4a043ff8d71f4aa7b0a217ceabc360c4", "lat": 38.89794583333333, "fusion_lon": 0.0, "fusion_lat": 0.0, "type": "electric_bike", "name": "4a043ff8d71f4aa7b0a217ceabc360c4", "is_disabled": 0, "rental_uris": {"ios": "https://dc.lft.to/lastmile_qr_scan", "android": "https://dc.lft.to/lastmile_qr_scan"}, "is_reserved": 0}, {"lon": -76.97247033333333, "bike_id": "e526b05672f328176a4325c55affd5aa", "lat": 38.90346133333333, "fusion_lon": 0.0, "fusion_lat": 0.0, "type": "electric_scooter", "name": "e526b05672f328176a4325c55affd5aa", "is_disabled": 0, "rental_uris": {"ios": "https://dc.lft.to/lastmile_qr_scan", "android": "https://dc.lft.to/lastmile_qr_scan"}, "is_reserved": 0}, {"lon": -77.00536033333333, "bike_id": "fc9c92b41298c2a3062c30b44046b3cb", "lat": 38.87547566666667, "fusion_lon": 0.0, "fusion_lat": 0.0, "type": "electric_scooter", "name": "fc9c92b41298c2a3062c30b44046b3cb", "is_disabled": 0, "rental_uris": {"ios": "https://dc.lft.to/lastmile_qr_scan", "android": "https://dc.lft.to/lastmile_qr_scan"}, "is_reserved": 0}, {"lon": -77.01374433333334, "bike_id": "01e55349469cf0efad4d2f194b35bd74", "lat": 38.8697205, "fusion_lon": 0.0, "fusion_lat": 0.0, "type": "electric_scooter", "name": "01e55349469cf0efad4d2f194b35bd74", "is_disabled": 0, "rental_uris": {"ios": "https://dc.lft.to/lastmile_qr_scan", "android": "https://dc.lft.to/lastmile_qr_scan"}, "is_reserved": 0}, {"lon": -76.97888516666667, "bike_id": "68d707e3248bd87465c99a97def6c29d", "lat": 38.88539, "fusion_lon": 0.0, "fusion_lat": 0.0, "type": "electric_scooter", "name": "68d707e3248bd87465c99a97def6c29d", "is_disabled": 0, "rental_uris": {"ios": "https://dc.lft.to/lastmile_qr_scan", "android": "https://dc.lft.to/lastmile_qr_scan"}, "is_reserved": 0}, {"lon": -76.9856015, "bike_id": "1c6ca783e32815a79d0821c2b0ba5541", "lat": 38.907199166666665, "fusion_lon": 0.0, "fusion_lat": 0.0, "type": "electric_scooter", "name": "1c6ca783e32815a79d0821c2b0ba5541", "is_disabled": 0, "rental_uris": {"ios": "https://dc.lft.to/lastmile_qr_scan", "android": "https://dc.lft.to/lastmile_qr_scan"}, "is_reserved": 0}, {"lon": -77.02691266666666, "bike_id": "c9ba7bb8de0dec57242933555f24a436", "lat": 38.918168, "fusion_lon": 0.0, "fusion_lat": 0.0, "type": "electric_scooter", "name": "c9ba7bb8de0dec57242933555f24a436", "is_disabled": 0, "rental_uris": {"ios": "https://dc.lft.to/lastmile_qr_scan", "android": "https://dc.lft.to/lastmile_qr_scan"}, "is_reserved": 0}, {"lon": -76.997104, "bike_id": "3aedc976c1aaac64a0aec343d64a6dfd", "lat": 38.844303833333335, "fusion_lon": 0.0, "fusion_lat": 0.0, "type": "electric_scooter", "name": "3aedc976c1aaac64a0aec343d64a6dfd", "is_disabled": 0, "rental_uris": {"ios": "https://dc.lft.to/lastmile_qr_scan", "android": "https://dc.lft.to/lastmile_qr_scan"}, "is_reserved": 0}, {"lon": -77.01515083333334, "bike_id": "beaf7d0821844b85f24e59eeb4ca0d2b", "lat": 38.918681166666666, "fusion_lon": 0.0, "fusion_lat": 0.0, "type": "electric_scooter", "name": "beaf7d0821844b85f24e59eeb4ca0d2b", "is_disabled": 0, "rental_uris": {"ios": "https://dc.lft.to/lastmile_qr_scan", "android": "https://dc.lft.to/lastmile_qr_scan"}, "is_reserved": 0}, {"lon": -76.98335266666666, "bike_id": "b73970c0d9e10a4d06b84e5e39621331", "lat": 38.895466, "fusion_lon": 0.0, "fusion_lat": 0.0, "type": "electric_scooter", "name": "b73970c0d9e10a4d06b84e5e39621331", "is_disabled": 0, "rental_uris": {"ios": "https://dc.lft.to/lastmile_qr_scan", "android": "https://dc.lft.to/lastmile_qr_scan"}, "is_reserved": 0}, {"lon": -77.03867016666666, "bike_id": "967820b57df7772c8aa64ed619c6a200", "lat": 38.9215405, "fusion_lon": 0.0, "fusion_lat": 0.0, "type": "electric_scooter", "name": "967820b57df7772c8aa64ed619c6a200", "is_disabled": 0, "rental_uris": {"ios": "https://dc.lft.to/lastmile_qr_scan", "android": "https://dc.lft.to/lastmile_qr_scan"}, "is_reserved": 0}, {"lon": -77.02473016666667, "bike_id": "171a1334a483fb8f6d402cff40b715cf", "lat": 38.91998366666667, "fusion_lon": 0.0, "fusion_lat": 0.0, "type": "electric_scooter", "name": "171a1334a483fb8f6d402cff40b715cf", "is_disabled": 0, "rental_uris": {"ios": "https://dc.lft.to/lastmile_qr_scan", "android": "https://dc.lft.to/lastmile_qr_scan"}, "is_reserved": 0}, {"lon": -77.031351, "bike_id": "4e64fabf11970089b653508344d09330", "lat": 38.91763, "fusion_lon": 0.0, "fusion_lat": 0.0, "type": "electric_scooter", "name": "4e64fabf11970089b653508344d09330", "is_disabled": 0, "rental_uris": {"ios": "https://dc.lft.to/lastmile_qr_scan", "android": "https://dc.lft.to/lastmile_qr_scan"}, "is_reserved": 0}, {"lon": -77.03244316666667, "bike_id": "550597f31d1a0e4a0cdf537b1448b63b", "lat": 38.91567383333334, "fusion_lon": 0.0, "fusion_lat": 0.0, "type": "electric_scooter", "name": "550597f31d1a0e4a0cdf537b1448b63b", "is_disabled": 0, "rental_uris": {"ios": "https://dc.lft.to/lastmile_qr_scan", "android": "https://dc.lft.to/lastmile_qr_scan"}, "is_reserved": 0}, {"lon": -77.03113866666666, "bike_id": "4b3147dd6408040ec88c1592d33288b0", "lat": 38.93326016666666, "fusion_lon": 0.0, "fusion_lat": 0.0, "type": "electric_scooter", "name": "4b3147dd6408040ec88c1592d33288b0", "is_disabled": 0, "rental_uris": {"ios": "https://dc.lft.to/lastmile_qr_scan", "android": "https://dc.lft.to/lastmile_qr_scan"}, "is_reserved": 0}, {"lon": -76.97830433333333, "bike_id": "b8bd13704560ba23fa4486a8dfeba612", "lat": 38.8435605, "fusion_lon": 0.0, "fusion_lat": 0.0, "type": "electric_bike", "name": "b8bd13704560ba23fa4486a8dfeba612", "is_disabled": 0, "rental_uris": {"ios": "https://dc.lft.to/lastmile_qr_scan", "android": "https://dc.lft.to/lastmile_qr_scan"}, "is_reserved": 0}, {"lon": -77.02253316666666, "bike_id": "22736abc1be61f22e13c9f3b569db06c", "lat": 38.90411, "fusion_lon": 0.0, "fusion_lat": 0.0, "type": "electric_scooter", "name": "22736abc1be61f22e13c9f3b569db06c", "is_disabled": 0, "rental_uris": {"ios": "https://dc.lft.to/lastmile_qr_scan", "android": "https://dc.lft.to/lastmile_qr_scan"}, "is_reserved": 0}, {"lon": -77.04747666666667, "bike_id": "a1828a8b7ab4d7da496b9ebec3b6fb00", "lat": 38.90946983333333, "fusion_lon": 0.0, "fusion_lat": 0.0, "type": "electric_scooter", "name": "a1828a8b7ab4d7da496b9ebec3b6fb00", "is_disabled": 0, "rental_uris": {"ios": "https://dc.lft.to/lastmile_qr_scan", "android": "https://dc.lft.to/lastmile_qr_scan"}, "is_reserved": 0}, {"lon": -77.03587, "bike_id": "2c0258231d6453f20432192ea0a87bf6", "lat": 38.992263, "fusion_lon": 0.0, "fusion_lat": 0.0, "type": "electric_scooter", "name": "2c0258231d6453f20432192ea0a87bf6", "is_disabled": 0, "rental_uris": {"ios": "https://dc.lft.to/lastmile_qr_scan", "android": "https://dc.lft.to/lastmile_qr_scan"}, "is_reserved": 0}, {"lon": -76.93074383333334, "bike_id": "f6f29bf01f4429c8ec8c98432bf803c2", "lat": 38.895588000000004, "fusion_lon": 0.0, "fusion_lat": 0.0, "type": "electric_scooter", "name": "f6f29bf01f4429c8ec8c98432bf803c2", "is_disabled": 0, "rental_uris": {"ios": "https://dc.lft.to/lastmile_qr_scan", "android": "https://dc.lft.to/lastmile_qr_scan"}, "is_reserved": 0}, {"lon": -77.11764633333334, "bike_id": "0b7dace5461a9b0e18bdcdd510397594", "lat": 38.85583616666667, "fusion_lon": 0.0, "fusion_lat": 0.0, "type": "electric_bike", "name": "0b7dace5461a9b0e18bdcdd510397594", "is_disabled": 0, "rental_uris": {"ios": "https://dc.lft.to/lastmile_qr_scan", "android": "https://dc.lft.to/lastmile_qr_scan"}, "is_reserved": 0}, {"lon": -77.00195983333333, "bike_id": "71985d57714ce45bc72f01b9456156e5", "lat": 38.902397666666666, "fusion_lon": 0.0, "fusion_lat": 0.0, "type": "electric_scooter", "name": "71985d57714ce45bc72f01b9456156e5", "is_disabled": 0, "rental_uris": {"ios": "https://dc.lft.to/lastmile_qr_scan", "android": "https://dc.lft.to/lastmile_qr_scan"}, "is_reserved": 0}, {"lon": -77.03157116666667, "bike_id": "b75187e430c097658c4c86e57d4e1d76", "lat": 38.91415583333333, "fusion_lon": 0.0, "fusion_lat": 0.0, "type": "electric_scooter", "name": "b75187e430c097658c4c86e57d4e1d76", "is_disabled": 0, "rental_uris": {"ios": "https://dc.lft.to/lastmile_qr_scan", "android": "https://dc.lft.to/lastmile_qr_scan"}, "is_reserved": 0}, {"lon": -77.03216416666666, "bike_id": "8f0421afc6944b0d732376b19fdb12f7", "lat": 38.92278133333333, "fusion_lon": 0.0, "fusion_lat": 0.0, "type": "electric_scooter", "name": "8f0421afc6944b0d732376b19fdb12f7", "is_disabled": 0, "rental_uris": {"ios": "https://dc.lft.to/lastmile_qr_scan", "android": "https://dc.lft.to/lastmile_qr_scan"}, "is_reserved": 0}, {"lon": -77.036263, "bike_id": "4240a820aafb27000e7c7e59cad969c8", "lat": 38.93161683333334, "fusion_lon": 0.0, "fusion_lat": 0.0, "type": "electric_scooter", "name": "4240a820aafb27000e7c7e59cad969c8", "is_disabled": 0, "rental_uris": {"ios": "https://dc.lft.to/lastmile_qr_scan", "android": "https://dc.lft.to/lastmile_qr_scan"}, "is_reserved": 0}, {"lon": -77.02858316666666, "bike_id": "952e6215bd8e31fa14e37453c9a08750", "lat": 38.8874595, "fusion_lon": 0.0, "fusion_lat": 0.0, "type": "electric_scooter", "name": "952e6215bd8e31fa14e37453c9a08750", "is_disabled": 0, "rental_uris": {"ios": "https://dc.lft.to/lastmile_qr_scan", "android": "https://dc.lft.to/lastmile_qr_scan"}, "is_reserved": 0}, {"lon": -77.02458716666666, "bike_id": "d00643c69af17d358b7b71d2494d8d50", "lat": 38.9040915, "fusion_lon": 0.0, "fusion_lat": 0.0, "type": "electric_scooter", "name": "d00643c69af17d358b7b71d2494d8d50", "is_disabled": 0, "rental_uris": {"ios": "https://dc.lft.to/lastmile_qr_scan", "android": "https://dc.lft.to/lastmile_qr_scan"}, "is_reserved": 0},