{"data": {"bikes": [{"lon": -77.13100616666667, "bike_id": "afdc4f3986eda1e334208f4dbe826982", "lat": 39.02434183333333, "fusion_lon": 0.0, "fusion_lat": 0.0, "type": "electric_bike", "name": "afdc4f3986eda1e334208f4dbe826982", "is_disabled": 0, "rental_uris": {"ios": "https://dc.lft.to/lastmile_qr_scan", "android": "https://dc.lft.to/lastmile_qr_scan"}, "is_reserved": 0}, {"lon": -77.02069816666666, "bike_id": "5f3b07b8ff7763634289290c73b15e14", "lat": 38.9326015, "fusion_lon": 0.0, "fusion_lat": 0.0, "type": "electric_bike", "name": "5f3b07b8ff7763634289290c73b15e14", "is_disabled": 0, "rental_uris": {"ios": "https://dc.lft.to/lastmile_qr_scan", "android": "https://dc.lft.to/lastmile_qr_scan"}, "is_reserved": 0}, {"lon": -77.03469566666666, "bike_id": "0d84ea3f8caf486a3e8014dc314a70c9", "lat": 38.9215265, "fusion_lon": 0.0, "fusion_lat": 0.0, "type": "electric_scooter", "name": "0d84ea3f8caf486a3e8014dc314a70c9", "is_disabled": 0, "rental_uris": {"ios": "https://dc.lft.to/lastmile_qr_scan", "android": "https://dc.lft.to/lastmile_qr_scan"}, "is_reserved": 0}, {"lon": -77.00348866666667, "bike_id": "1ae40a8a25f958ca69ab0b6ed68b9b8b", "lat": 38.88717116666667, "fusion_lon": 0.0, "fusion_lat": 0.0, "type": "electric_scooter", "name": "1ae40a8a25f958ca69ab0b6ed68b9b8b", "is_disabled": 0, "rental_uris": {"ios": "https://dc.lft.to/lastmile_qr_scan", "android": "https://dc.lft.to/lastmile_qr_scan"}, "is_reserved": 0}, {"lon": -77.05068733333333, "bike_id": "2524aab6e0920794abfd6fc05e886b2e", "lat": 38.90073666666667, "fusion_lon": 0.0, "fusion_lat": 0.0, "type": "electric_scooter", "name": "2524aab6e0920794abfd6fc05e886b2e", "is_disabled": 0, "rental_uris": {"ios": "https://dc.lft.to/lastmile_qr_scan", "android": "https://dc.lft.to/lastmile_qr_scan"}, "is_reserved": 0}, {"lon": -77.02957716666667, "bike_id": "756df21287ef3363ed4db5e5cf64a365", "lat": 38.90653666666667, "fusion_lon": 0.0, "fusion_lat": 0.0, "type": "electric_scooter", "name": "756df21287ef3363ed4db5e5cf64a365", "is_disabled": 0, "rental_uris": {"ios": "https://dc.lft.to/lastmile_qr_scan", "android": "https://dc.lft.to/lastmile_qr_scan"}, "is_reserved": 0}, {"lon": -77.03289316666667, "bike_id": "336abb2e79d1ec3c16fc2ea2bedfcada", "lat": 38.90969666666667, "fusion_lon": 0.0, "fusion_lat": 0.0, "type": "electric_scooter", "name": "336abb2e79d1ec3c16fc2ea2bedfcada", "is_disabled": 0, "rental_uris": {"ios": "https://dc.lft.to/lastmile_qr_scan", "android": "https://dc.lft.to/lastmile_qr_scan"}, "is_reserved": 0}, {"lon": -77.039815, "bike_id": "8ff8cbb582caebb1f4e37a4a38f59b5b", "lat": 38.911855333333335, "fusion_lon": 0.0, "fusion_lat": 0.0, "type": "electric_scooter", "name": "8ff8cbb582caebb1f4e37a4a38f59b5b", "is_disabled": 0, "rental_uris": {"ios": "https://dc.lft.to/lastmile_qr_scan", "android": "https://dc.lft.to/lastmile_qr_scan"}, "is_reserved": 0}, {"lon": -76.98017116666666, "bike_id": "960dd58821432e2fa46039a84dd4d6fd", "lat": 38.90331166666667, "fusion_lon": 0.0, "fusion_lat": 0.0, "type": "electric_scooter", "name": "960dd58821432e2fa46039a84dd4d6fd", "is_disabled": 0, "rental_uris": {"ios": "https://dc.lft.to/lastmile_qr_scan", "android": "https://dc.lft.to/lastmile_qr_scan"}, "is_reserved": 0}, {"lon": -77.00371983333334, "bike_id": "036fcd34f374c834c117f6c687be3e10", "lat": 38.8973025, "fusion_lon": 0.0, "fusion_lat": 0.0, "type": "electric_scooter", "name": "036fcd34f374c834c117f6c687be3e10", "is_disabled": 0, "rental_uris": {"ios": "https://dc.lft.to/lastmile_qr_scan", "android": "https://dc.lft.to/lastmile_qr_scan"}, "is_reserved": 0}, {"lon": -77.054217, "bike_id": "de51b10e71cd4adbc2bc7df8edc69904", "lat": 38.928409, "fusion_lon": 0.0, "fusion_lat": 0.0, "type": "electric_scooter", "name": "de51b10e71cd4adbc2bc7df8edc69904", "is_disabled": 0, "rental_uris": {"ios": "https://dc.lft.to/lastmile_qr_scan", "android": "https://dc.lft.to/lastmile_qr_scan"}, "is_reserved": 0}, {"lon": -77.01924833333334, "bike_id": "21458058a2ea46244aed8c97eda3991e", "lat": 38.922137666666664, "fusion_lon": 0.0, "fusion_lat": 0.0, "type": "electric_scooter", "name": "21458058a2ea46244aed8c97eda3991e", "is_disabled": 0, "rental_uris": {"ios": "https://dc.lft.to/lastmile_qr_scan", "android": "https://dc.lft.to/lastmile_qr_scan"}, "is_reserved": 0}, {"lon": -77.139333, "bike_id": "40956dc42c2d4b3746b24c498fd692e1", "lat": 38.8729865, "fusion_lon": 0.0, "fusion_lat": 0.0, "type": "electric_bike", "name": "40956dc42c2d4b3746b24c498fd692e1", "is_disabled": 0, "rental_uris": {"ios": "https://dc.lft.to/lastmile_qr_scan", "android": "https://dc.lft.to/lastmile_qr_scan"}, "is_reserved": 0}, {"lon": -77.05613683333333, "bike_id": "fd38d2f3ef648b52c560b0dc14bb8d39", "lat": 38.923347, "fusion_lon": 0.0, "fusion_lat": 0.0, "type": "electric_scooter", "name": "fd38d2f3ef648b52c560b0dc14bb8d39", "is_disabled": 0, "rental_uris": {"ios": "https://dc.lft.to/lastmile_qr_scan", "android": "https://dc.lft.to/lastmile_qr_scan"}, "is_reserved": 0}, {"lon": -77.00974416666666, "bike_id": "b99cbd6e30eb4a38ac881375797866ec", "lat": 38.870710833333334, "fusion_lon": 0.0, "fusion_lat": 0.0, "type": "electric_scooter", "name": "b99cbd6e30eb4a38ac881375797866ec", "is_disabled": 0, "rental_uris": {"ios": "https://dc.lft.to/lastmile_qr_scan", "android": "https://dc.lft.to/lastmile_qr_scan"}, "is_reserved": 0}, {"lon": -76.97208, "bike_id": "ac8e8f8f4b9686f465f966efccfdf9a3", "lat": 38.89287233333334, "fusion_lon": 0.0, "fusion_lat": 0.0, "type": "electric_bike", "name": "ac8e8f8f4b9686f465f966efccfdf9a3", "is_disabled": 0, "rental_uris": {"ios": "https://dc.lft.to/lastmile_qr_scan", "android": "https://dc.lft.to/lastmile_qr_scan"}, "is_reserved": 0}, {"lon": -77.03512333333333, "bike_id": "016fc6051412fa90e0f283603b60300f", "lat": 38.9651075, "fusion_lon": 0.0, "fusion_lat": 0.0, "type": "electric_bike", "name": "016fc6051412fa90e0f283603b60300f", "is_disabled": 0, "rental_uris": {"ios": "https://dc.lft.to/lastmile_qr_scan", "android": "https://dc.lft.to/lastmile_qr_scan"}, "is_reserved": 0}, {"lon": -76.988364, "bike_id": "7d38042af736dda1536435ddbe3d8714", "lat": 38.896635833333335, "fusion_lon": 0.0, "fusion_lat": 0.0, "type": "electric_scooter", "name": "7d38042af736dda1536435ddbe3d8714", "is_disabled": 0, "rental_uris": {"ios": "https://dc.lft.to/lastmile_qr_scan", "android": "https://dc.lft.to/lastmile_qr_scan"}, "is_reserved": 0}, {"lon": -77.02483116666667, "bike_id": "ca0f4d34e1b40570ea0188571d0c32df", "lat": 38.903353333333335, "fusion_lon": 0.0, "fusion_lat": 0.0, "type": "electric_scooter", "name": "ca0f4d34e1b40570ea0188571d0c32df", "is_disabled": 0, "rental_uris": {"ios": "https://dc.lft.to/lastmile_qr_scan", "android": "https://dc.lft.to/lastmile_qr_scan"}, "is_reserved": 0}, {"lon": -77.02208833333333, "bike_id": "2c8c6ad50718d800442d4d3344a1d546", "lat": 38.89354433333333, "fusion_lon": 0.0, "fusion_lat": 0.0, "type": "electric_scooter", "name": "2c8c6ad50718d800442d4d3344a1d546", "is_disabled": 0, "rental_uris": {"ios": "https://dc.lft.to/lastmile_qr_scan", "android": "https://dc.lft.to/lastmile_qr_scan"}, "is_reserved": 0}, {"lon": -76.9772245, "bike_id": "1eb464d27dbae4a474303f3b62ab5b8b", "lat": 38.87248016666667, "fusion_lon": 0.0, "fusion_lat": 0.0, "type": "electric_scooter", "name": "1eb464d27dbae4a474303f3b62ab5b8b", "is_disabled": 0, "rental_uris": {"ios": "https://dc.lft.to/lastmile_qr_scan", "android": "https://dc.lft.to/lastmile_qr_scan"}, "is_reserved": 0}, {"lon": -77.054215, "bike_id": "d2136006ab842b88923a11111b363f93", "lat": 38.928364333333334, "fusion_lon": 0.0, "fusion_lat": 0.0, "type": "electric_scooter", "name": "d2136006ab842b88923a11111b363f93", "is_disabled": 0, "rental_uris": {"ios": "https://dc.lft.to/lastmile_qr_scan", "android": "https://dc.lft.to/lastmile_qr_scan"}, "is_reserved": 0}, {"lon": -77.048631, "bike_id": "5588bbf8c99e711bf562502b0bf0d2e0", "lat": 38.9095995, "fusion_lon": 0.0, "fusion_lat": 0.0, "type": "electric_scooter", "name": "5588bbf8c99e711bf562502b0bf0d2e0", "is_disabled": 0, "rental_uris": {"ios": "https://dc.lft.to/lastmile_qr_scan", "android": "https://dc.lft.to/lastmile_qr_scan"}, "is_reserved": 0}, {"lon": -76.9210835, "bike_id": "4cf588c6042b89a695b33d22b0b673fe", "lat": 38.891053, "fusion_lon": 0.0, "fusion_lat": 0.0, "type": "electric_scooter", "name": "4cf588c6042b89a695b33d22b0b673fe", "is_disabled": 0, "rental_uris": {"ios": "https://dc.lft.to/lastmile_qr_scan", "android": "https://dc.lft.to/lastmile_qr_scan"}, "is_reserved": 0}, {"lon": -77.07478633333334, "bike_id": "3114f5eb78780a846ce682cdc05e6c24", "lat": 38.963146333333334, "fusion_lon": 0.0, "fusion_lat": 0.0, "type": "electric_scooter", "name": "3114f5eb78780a846ce682cdc05e6c24", "is_disabled": 0, "rental_uris": {"ios": "https://dc.lft.to/lastmile_qr_scan", "android": "https://dc.lft.to/lastmile_qr_scan"}, "is_reserved": 0}, {"lon": -77.02179983333333, "bike_id": "426107ede15ca66f80f0a6020791c7d8", "lat": 38.906978, "fusion_lon": 0.0, "fusion_lat": 0.0, "type": "electric_bike", "name": "426107ede15ca66f80f0a6020791c7d8", "is_disabled": 0, "rental_uris": {"ios": "https://dc.lft.to/lastmile_qr_scan", "android": "https://dc.lft.to/lastmile_qr_scan"}, "is_reserved": 0}, {"lon": -77.022016, "bike_id": "bbf292f68f4c79dcc40e09b56318e1c0", "lat": 38.90038116666667, "fusion_lon": 0.0, "fusion_lat": 0.0, "type": "electric_scooter", "name": "bbf292f68f4c79dcc40e09b56318e1c0", "is_disabled": 0, "rental_uris": {"ios": "https://dc.lft.to/lastmile_qr_scan", "android": "https://dc.lft.to/lastmile_qr_scan"}, "is_reserved": 0}, {"lon": -76.987157, "bike_id": "ce5acad0476673535f184debd787fbe5", "lat": 38.86626183333333, "fusion_lon": 0.0, "fusion_lat": 0.0, "type": "electric_scooter", "name": "ce5acad0476673535f184debd787fbe5", "is_disabled": 0, "rental_uris": {"ios": "https://dc.lft.to/lastmile_qr_scan", "android": "https://dc.lft.to/lastmile_qr_scan"}, "is_reserved": 0}, {"lon": -77.04048316666666, "bike_id": "50190080ceec9d145965998e55ea1fde", "lat": 38.92383516666666, "fusion_lon": 0.0, "fusion_lat": 0.0, "type": "electric_scooter", "name": "50190080ceec9d145965998e55ea1fde", "is_disabled": 0, "rental_uris": {"ios": "https://dc.lft.to/lastmile_qr_scan", "android": "https://dc.lft.to/lastmile_qr_scan"}, "is_reserved": 0}, {"lon": -77.07332433333333, "bike_id": "e13c966bb298d1c04f63822d7500333f", "lat": 38.923950833333336, "fusion_lon": 0.0, "fusion_lat": 0.0, "type": "electric_scooter", "name": "e13c966bb298d1c04f63822d7500333f", "is_disabled": 0, "rental_uris": {"ios": "https://dc.lft.to/lastmile_qr_scan", "android": "https://dc.lft.to/lastmile_qr_scan"}, "is_reserved": 0}, {"lon": -77.01375483333334, "bike_id": "b646d4e20e03855530af29023d7b1055", "lat": 38.88672966666667, "fusion_lon": 0.0, "fusion_lat": 0.0, "type": "electric_scooter", "name": "b646d4e20e03855530af29023d7b1055", "is_disabled": 0, "rental_uris": {"ios": "https://dc.lft.to/lastmile_qr_scan", "android": "https://dc.lft.to/lastmile_qr_scan"}, "is_reserved": 0}, {"lon": -77.00978016666667, "bike_id": "a174dc44554077568b6904085bb6cf30", "lat": 38.89485366666667, "fusion_lon": 0.0, "fusion_lat": 0.0, "type": "electric_scooter", "name": "a174dc44554077568b6904085bb6cf30", "is_disabled": 0, "rental_uris": {"ios": "https://dc.lft.to/lastmile_qr_scan", "android": "https://dc.lft.to/lastmile_qr_scan"}, "is_reserved": 0}, {"lon": -77.03322716666666, "bike_id": "e49c5ac21b9df80f734d66a5001f2868", "lat": 38.919681, "fusion_lon": 0.0, "fusion_lat": 0.0, "type": "electric_scooter", "name": "e49c5ac21b9df80f734d66a5001f2868", "is_disabled": 0, "rental_uris": {"ios": "https://dc.lft.to/lastmile_qr_scan", "android": "https://dc.lft.to/lastmile_qr_scan"}, "is_reserved": 0}, {"lon": -76.98349066666667, "bike_id": "d395d239acd9e121af7cdd86298500d2", "lat": 38.90454483333333, "fusion_lon": 0.0, "fusion_lat": 0.0, "type": "electric_scooter", "name": "d395d239acd9e121af7cdd86298500d2", "is_disabled": 0, "rental_uris": {"ios": "https://dc.lft.to/lastmile_qr_scan", "android": "https://dc.lft.to/lastmile_qr_scan"}, "is_reserved": 0}, {"lon": -77.058639, "bike_id": "92aaba746cfa963a4a10965f2df7127a", "lat": 38.936060833333336, "fusion_lon": 0.0, "fusion_lat": 0.0, "type": "electric_scooter", "name": "92aaba746cfa963a4a10965f2df7127a", "is_disabled": 0, "rental_uris": {"ios": "https://dc.lft.to/lastmile_qr_scan", "android": "https://dc.lft.to/lastmile_qr_scan"}, "is_reserved": 0}, {"lon": -77.0743365, "bike_id": "8afec9d8264c73615caebc5864dd536f", "lat": 38.999454666666665, "fusion_lon": 0.0, "fusion_lat": 0.0, "type": "electric_bike", "name": "8afec9d8264c73615caebc5864dd536f", "is_disabled": 0, "rental_uris": {"ios": "https://dc.lft.to/lastmile_qr_scan", "android": "https://dc.lft.to/lastmile_qr_scan"}, "is_reserved": 0}, {"lon": -76.94921866666667, "bike_id": "034a7028c9ebd65366a1d288ddad5ef8", "lat": 38.893514833333334, "fusion_lon": 0.0, "fusion_lat": 0.0, "type": "electric_scooter", "name": "034a7028c9ebd65366a1d288ddad5ef8", "is_disabled": 0, "rental_uris": {"ios": "https://dc.lft.to/lastmile_qr_scan", "android": "https://dc.lft.to/lastmile_qr_scan"}, "is_reserved": 0}, {"lon": -77.020316, "bike_id": "550b5ad5b6e94b00ecfff38cbf16b020", "lat": 38.924417, "fusion_lon": 0.0, "fusion_lat": 0.0, "type": "electric_scooter", "name": "550b5ad5b6e94b00ecfff38cbf16b020", "is_disabled": 0, "rental_uris": {"ios": "https://dc.lft.to/lastmile_qr_scan", "android": "https://dc.lft.to/lastmile_qr_scan"}, "is_reserved": 0}, {"lon": -77.000145, "bike_id": "6712cb6924df1b390dfcc419fca03afe", "lat": 38.9198105, "fusion_lon": 0.0, "fusion_lat": 0.0, "type": "electric_scooter", "name": "6712cb6924df1b390dfcc419fca03afe", "is_disabled": 0, "rental_uris": {"ios": "https://dc.lft.to/lastmile_qr_scan", "android": "https://dc.lft.to/lastmile_qr_scan"}, "is_reserved": 0}, {"lon": -76.98331716666667, "bike_id": "3435dc6ee65d89e2959096817f20faf9", "lat": 38.90087333333334, "fusion_lon": 0.0, "fusion_lat": 0.0, "type": "electric_scooter", "name": "3435dc6ee65d89e2959096817f20faf9", "is_disabled": 0, "rental_uris": {"ios": "https://dc.lft.to/lastmile_qr_scan", "android": "https://dc.lft.to/lastmile_qr_scan"}, "is_reserved": 0}, {"lon": -77.03193416666667, "bike_id": "c6bfffa1b80d943fb03b3683b56826d7", "lat": 38.918986333333336, "fusion_lon": 0.0, "fusion_lat": 0.0, "type": "electric_scooter", "name": "c6bfffa1b80d943fb03b3683b56826d7", "is_disabled": 0, "rental_uris": {"ios": "https://dc.lft.to/lastmile_qr_scan", "android": "https://dc.lft.to/lastmile_qr_scan"}, "is_reserved": 0}, {"lon": -76.9927205, "bike_id": "06af7365f249d364dfe0ff97b94aabaf", "lat": 38.89766083333333, "fusion_lon": 0.0, "fusion_lat": 0.0, "type": "electric_scooter", "name": "06af7365f249d364dfe0ff97b94aabaf", "is_disabled": 0, "rental_uris": {"ios": "https://dc.lft.to/lastmile_qr_scan", "android": "https://dc.lft.to/lastmile_qr_scan"}, "is_reserved": 0}, {"lon": -76.94891566666666, "bike_id": "857b58467ef86bdb8e1757b13e29fa31", "lat": 38.895293833333334, "fusion_lon": 0.0, "fusion_lat": 0.0, "type": "electric_scooter", "name": "857b58467ef86bdb8e1757b13e29fa31", "is_disabled": 0, "rental_uris": {"ios": "https://dc.lft.to/lastmile_qr_scan", "android": "https://dc.lft.to/lastmile_qr_scan"}, "is_reserved": 0}, {"lon": -77.00694883333334, "bike_id": "84ac73e83cc17108b9dc81ab3d105550", "lat": 38.878357, "fusion_lon": 0.0, "fusion_lat": 0.0, "type": "electric_scooter", "name": "84ac73e83cc17108b9dc81ab3d105550", "is_disabled": 0, "rental_uris": {"ios": "https://dc.lft.to/lastmile_qr_scan", "android": "https://dc.lft.to/lastmile_qr_scan"}, "is_reserved": 0}, {"lon": -77.018332, "bike_id": "9042ab038aceffc736edbf289a1ae7eb", "lat": 38.901463166666666, "fusion_lon": 0.0, "fusion_lat": 0.0, "type": "electric_scooter", "name": "9042ab038aceffc736edbf289a1ae7eb", "is_disabled": 0, "rental_uris": {"ios": "https://dc.lft.to/lastmile_qr_scan", "android": "https://dc.lft.to/lastmile_qr_scan"}, "is_reserved": 0}, {"lon": -77.08820133333333, "bike_id": "82c8da9ba3f097568237a87dbaeecad1", "lat": 38.909781333333335, "fusion_lon": 0.0, "fusion_lat": 0.0, "type": "electric_scooter", "name": "82c8da9ba3f097568237a87dbaeecad1", "is_disabled": 0, "rental_uris": {"ios": "https://dc.lft.to/lastmile_qr_scan", "android": "https://dc.lft.to/lastmile_qr_scan"}, "is_reserved": 0}, {"lon": -77.0072525, "bike_id": "70dcf1de203ef06f8a3de2c70501766c", "lat": 38.950623666666665, "fusion_lon": 0.0, "fusion_lat": 0.0, "type": "electric_bike", "name": "70dcf1de203ef06f8a3de2c70501766c", "is_disabled": 0, "rental_uris": {"ios": "https://dc.lft.to/lastmile_qr_scan", "android": "https://dc.lft.to/lastmile_qr_scan"}, "is_reserved": 0}, {"lon": -77.00210566666667, "bike_id": "70fe78f97c30fa7481b38654749afc77", "lat": 38.90049, "fusion_lon": 0.0, "fusion_lat": 0.0, "type": "electric_scooter", "name": "70fe78f97c30fa7481b38654749afc77", "is_disabled": 0, "rental_uris": {"ios": "https://dc.lft.to/lastmile_qr_scan", "android": "https://dc.lft.to/lastmile_qr_scan"}, "is_reserved": 0}, {"lon": -77.02406866666666, "bike_id": "ffed8857b8984bbd02b99aa2827a2d03", "lat": 38.909842166666664, "fusion_lon": 0.0, "fusion_lat": 0.0, "type": "electric_scooter", "name": "ffed8857b8984bbd02b99aa2827a2d03", "is_disabled": 0, "rental_uris": {"ios": "https://dc.lft.to/lastmile_qr_scan", "android": "https://dc.lft.to/lastmile_qr_scan"}, "is_reserved": 0}, {"lon": -77.0172555, "bike_id": "694357787d6c37c58782274c10ad57c4", "lat": 38.872964333333336, "fusion_lon": 0.0, "fusion_lat": 0.0, "type": "electric_scooter", "name": "694357787d6c37c58782274c10ad57c4", "is_disabled": 0, "rental_uris": {"ios": "https://dc.lft.to/lastmile_qr_scan", "android": "https://dc.lft.to/lastmile_qr_scan"}, "is_reserved": 0}, {"lon": -77.03131816666667, "bike_id": "7a5dd3f9983033fe4229f1a5f735ea6d", "lat": 38.91496, "fusion_lon": 0.0, "fusion_lat": 0.0, "type": "electric_scooter", "name": "7a5dd3f9983033fe4229f1a5f735ea6d", "is_disabled": 0, "rental_uris": {"ios": "https://dc.lft.to/lastmile_qr_scan", "android": "https://dc.lft.to/lastmile_qr_scan"}, "is_reserved": 0}, {"lon": -77.028426, "bike_id": "b3509c682bbeab1c38a03613809b7c47", "lat": 38.92580233333333, "fusion_lon": 0.0, "fusion_lat": 0.0, "type": "electric_scooter", "name": "b3509c682bbeab1c38a03613809b7c47", "is_disabled": 0, "rental_uris": {"ios": "https://dc.lft.to/lastmile_qr_scan", "android": "https://dc.lft.to/lastmile_qr_scan"}, "is_reserved": 0}, {"lon": -77.02832366666667, "bike_id": "95c241c13ae4c8b4ed1fe32029ce0b9c", "lat": 38.93459683333333, "fusion_lon": 0.0, "fusion_lat": 0.0, "type": "electric_scooter", "name": "95c241c13ae4c8b4ed1fe32029ce0b9c", "is_disabled": 0, "rental_uris": {"ios": "https://dc.lft.to/lastmile_qr_scan", "android": "https://dc.lft.to/lastmile_qr_scan"}, "is_reserved": 0}, {"lon": -77.028046, "bike_id": "d86bfd5a37a628fd87ad795d5ee7cfcf", "lat": 38.911010166666664, "fusion_lon": 0.0, "fusion_lat": 0.0, "type": "electric_scooter", "name": "d86bfd5a37a628fd87ad795d5ee7cfcf", "is_disabled": 0, "rental_uris": {"ios": "https://dc.lft.to/lastmile_qr_scan", "android": "https://dc.lft.to/lastmile_qr_scan"}, "is_reserved": 0}, {"lon": -77.00924766666667, "bike_id": "c33ccfc4b5f06a86c1d3f9090db6ddae", "lat": 38.91097766666667, "fusion_lon": 0.0, "fusion_lat": 0.0, "type": "electric_scooter", "name": "c33ccfc4b5f06a86c1d3f9090db6ddae", "is_disabled": 0, "rental_uris": {"ios": "https://dc.lft.to/lastmile_qr_scan", "android": "https://dc.lft.to/lastmile_qr_scan"}, "is_reserved": 0}, {"lon": -76.95756233333333, "bike_id": "d537e5e3caaf4a5af3b0e008626465ba", "lat": 38.884329, "fusion_lon": 0.0, "fusion_lat": 0.0, "type": "electric_scooter", "name": "d537e5e3caaf4a5af3b0e008626465ba", "is_disabled": 0, "rental_uris": {"ios": "https://dc.lft.to/lastmile_qr_scan", "android": "https://dc.lft.to/lastmile_qr_scan"}, "is_reserved": 0}, {"lon": -77.02927666666666, "bike_id": "47f3714d4b7c9f9541bb7bdcb1a83bdc", "lat": 38.93463533333333, "fusion_lon": 0.0, "fusion_lat": 0.0, "type": "electric_scooter", "name": "47f3714d4b7c9f9541bb7bdcb1a83bdc", "is_disabled": 0, "rental_uris": {"ios": "https://dc.lft.to/lastmile_qr_scan", "android": "https://dc.lft.to/lastmile_qr_scan"}, "is_reserved": 0}, {"lon": -77.0485965, "bike_id": "211dead7935c069fe1c110a28ea2c1dd", "lat": 38.90957916666667, "fusion_lon": 0.0, "fusion_lat": 0.0, "type": "electric_scooter", "name": "211dead7935c069fe1c110a28ea2c1dd", "is_disabled": 0, "rental_uris": {"ios": "https://dc.lft.to/lastmile_qr_scan", "android": "https://dc.lft.to/lastmile_qr_scan"}, "is_reserved": 0}, {"lon": -77.02197133333334, "bike_id": "659736a3dc58ab31228b09d7cc15fb91", "lat": 38.920917, "fusion_lon": 0.0, "fusion_lat": 0.0, "type": "electric_scooter", "name": "659736a3dc58ab31228b09d7cc15fb91", "is_disabled": 0, "rental_uris": {"ios": "https://dc.lft.to/lastmile_qr_scan", "android": "https://dc.lft.to/lastmile_qr_scan"}, "is_reserved": 0}, {"lon": -77.03210866666667, "bike_id": "b476f1c187fd69f35ac9a562634119eb", "lat": 38.90896083333333, "fusion_lon": 0.0, "fusion_lat": 0.0, "type": "electric_bike", "name": "b476f1c187fd69f35ac9a562634119eb", "is_disabled": 0, "rental_uris": {"ios": "https://dc.lft.to/lastmile_qr_scan", "android": "https://dc.lft.to/lastmile_qr_scan"}, "is_reserved": 0}, {"lon": -76.990355, "bike_id": "288913b3248b1b0e57f910e4c1e3408b", "lat": 38.898531, "fusion_lon": 0.0, "fusion_lat": 0.0, "type": "electric_scooter", "name": "288913b3248b1b0e57f910e4c1e3408b", "is_disabled": 0, "rental_uris": {"ios": "https://dc.lft.to/lastmile_qr_scan", "android": "https://dc.lft.to/lastmile_qr_scan"}, "is_reserved": 0}, {"lon": -77.03787466666667, "bike_id": "c461d5f999a8a9ac45ceb40d93017d87", "lat": 38.92570033333333, "fusion_lon": 0.0, "fusion_lat": 0.0, "type": "electric_scooter", "name": "c461d5f999a8a9ac45ceb40d93017d87", "is_disabled": 0, "rental_uris": {"ios": "https://dc.lft.to/lastmile_qr_scan", "android": "https://dc.lft.to/lastmile_qr_scan"}, "is_reserved": 0}, {"lon": -76.9793135, "bike_id": "f427ee0fcf6ac538e3973d1118df4bdf", "lat": 38.90495116666666, "fusion_lon": 0.0, "fusion_lat": 0.0, "type": "electric_scooter", "name": "f427ee0fcf6ac538e3973d1118df4bdf", "is_disabled": 0, "rental_uris": {"ios": "https://dc.lft.to/lastmile_qr_scan", "android": "https://dc.lft.to/lastmile_qr_scan"}, "is_reserved": 0}, {"lon": -77.0987355, "bike_id": "d2e8f0124e18f712a62358a9ca1fbba1", "lat": 38.94963816666667, "fusion_lon": 0.0, "fusion_lat": 0.0, "type": "electric_scooter", "name": "d2e8f0124e18f712a62358a9ca1fbba1", "is_disabled": 0, "rental_uris": {"ios": "https://dc.lft.to/lastmile_qr_scan", "android": "https://dc.lft.to/lastmile_qr_scan"}, "is_reserved": 0}, {"lon": -76.9900375, "bike_id": "1b44910718e0282ac73fdd292458c8ce", "lat": 38.86508283333333, "fusion_lon": 0.0, "fusion_lat": 0.0, "type": "electric_scooter", "name": "1b44910718e0282ac73fdd292458c8ce", "is_disabled": 0, "rental_uris": {"ios": "https://dc.lft.to/lastmile_qr_scan", "android": "https://dc.lft.to/lastmile_qr_scan"}, "is_reserved": 0}, {"lon": -76.99373566666667, "bike_id": "f47eea454739aaf77507fd4d4236eade", "lat": 38.879709166666665, "fusion_lon": 0.0, "fusion_lat": 0.0, "type": "electric_scooter", "name": "f47eea454739aaf77507fd4d4236eade", "is_disabled": 0, "rental_uris": {"ios": "https://dc.lft.to/lastmile_qr_scan", "android": "https://dc.lft.to/lastmile_qr_scan"}, "is_reserved": 0}, {"lon": -77.0271545, "bike_id": "61d344063c8a5a4bae58c93d6bd33c58", "lat": 38.897215, "fusion_lon": 0.0, "fusion_lat": 0.0, "type": "electric_scooter", "name": "61d344063c8a5a4bae58c93d6bd33c58", "is_disabled": 0, "rental_uris": {"ios": "https://dc.lft.to/lastmile_qr_scan", "android": "https://dc.lft.to/lastmile_qr_scan"}, "is_reserved": 0}, {"lon": -76.99455483333334, "bike_id": "2bcf6ff3a75323308a06270e3112bbbc", "lat": 38.966162833333335, "fusion_lon": 0.0, "fusion_lat": 0.0, "type": "electric_bike", "name": "2bcf6ff3a75323308a06270e3112bbbc", "is_disabled": 0, "rental_uris": {"ios": "https://dc.lft.to/lastmile_qr_scan", "android": "https://dc.lft.to/lastmile_qr_scan"}, "is_reserved": 0}, {"lon": -77.03743283333333, "bike_id": "022ee80b588a3fd1740fcf3b48ce8b8c", "lat": 38.918047, "fusion_lon": 0.0, "fusion_lat": 0.0, "type": "electric_scooter", "name": "022ee80b588a3fd1740fcf3b48ce8b8c", "is_disabled": 0, "rental_uris": {"ios": "https://dc.lft.to/lastmile_qr_scan", "android": "https://dc.lft.to/lastmile_qr_scan"}, "is_reserved": 0}, {"lon": -77.01318833333333, "bike_id": "076edf1ce14e60af9d94cad8340e19d5", "lat": 38.871479, "fusion_lon": 0.0, "fusion_lat": 0.0, "type": "electric_scooter", "name": "076edf1ce14e60af9d94cad8340e19d5", "is_disabled": 0, "rental_uris": {"ios": "https://dc.lft.to/lastmile_qr_scan", "android": "https://dc.lft.to/lastmile_qr_scan"}, "is_reserved": 0}, {"lon": -77.01133183333333, "bike_id": "ba543a9d1c4d4451314a400df88d6970", "lat": 38.9002795, "fusion_lon": 0.0, "fusion_lat": 0.0, "type": "electric_scooter", "name": "ba543a9d1c4d4451314a400df88d6970", "is_disabled": 0, "rental_uris": {"ios": "https://dc.lft.to/lastmile_qr_scan", "android": "https://dc.lft.to/lastmile_qr_scan"}, "is_reserved": 0}, {"lon": -76.99201616666667, "bike_id": "c588eb6ce30f65071f2d6b9680c04367", "lat": 38.898257, "fusion_lon": 0.0, "fusion_lat": 0.0, "type": "electric_scooter", "name": "c588eb6ce30f65071f2d6b9680c04367", "is_disabled": 0, "rental_uris": {"ios": "https://dc.lft.to/lastmile_qr_scan", "android": "https://dc.lft.to/lastmile_qr_scan"}, "is_reserved": 0}, {"lon": -77.02242316666667, "bike_id": "fbec9d5ad1ffcfe5f8cce13c914ac9c3", "lat": 38.92898783333333, "fusion_lon": 0.0, "fusion_lat": 0.0, "type": "electric_scooter", "name": "fbec9d5ad1ffcfe5f8cce13c914ac9c3", "is_disabled": 0, "rental_uris": {"ios": "https://dc.lft.to/lastmile_qr_scan", "android": "https://dc.lft.to/lastmile_qr_scan"}, "is_reserved": 0}, {"lon": -76.97618283333334, "bike_id": "bee4f3ed172aada59e2c8d08776020ff", "lat": 38.92655716666667, "fusion_lon": 0.0, "fusion_lat": 0.0, "type": "electric_scooter", "name": "bee4f3ed172aada59e2c8d08776020ff", "is_disabled": 0, "rental_uris": {"ios": "https://dc.lft.to/lastmile_qr_scan", "android": "https://dc.lft.to/lastmile_qr_scan"}, "is_reserved": 0}, {"lon": -77.02154233333333, "bike_id": "cf6a1408a4db740356312d1ec3428f35", "lat": 38.894905333333334, "fusion_lon": 0.0, "fusion_lat": 0.0, "type": "electric_scooter", "name": "cf6a1408a4db740356312d1ec3428f35", "is_disabled": 0, "rental_uris": {"ios": "https://dc.lft.to/lastmile_qr_scan", "android": "https://dc.lft.to/lastmile_qr_scan"}, "is_reserved": 0}, {"lon": -77.02050533333333, "bike_id": "2be04fa7cb1e2e1e96463705a606deda", "lat": 38.92387383333333, "fusion_lon": 0.0, "fusion_lat": 0.0, "type": "electric_scooter", "name": "2be04fa7cb1e2e1e96463705a606deda", "is_disabled": 0, "rental_uris": {"ios": "https://dc.lft.to/lastmile_qr_scan", "android": "https://dc.lft.to/lastmile_qr_scan"}, "is_reserved": 0}, {"lon": -77.07297566666666, "bike_id": "836c511d8bc913da1bfe9c7b12051b9e", "lat": 38.930521166666665, "fusion_lon": 0.0, "fusion_lat": 0.0, "type": "electric_scooter", "name": "836c511d8bc913da1bfe9c7b12051b9e", "is_disabled": 0, "rental_uris": {"ios": "https://dc.lft.to/lastmile_qr_scan", "android": "https://dc.lft.to/lastmile_qr_scan"}, "is_reserved": 0}, {"lon": -77.00968633333333, "bike_id": "f39c2964e5e918a5315a5b1c31d64f86", "lat": 38.907893333333334, "fusion_lon": 0.0, "fusion_lat": 0.0, "type": "electric_scooter", "name": "f39c2964e5e918a5315a5b1c31d64f86", "is_disabled": 0, "rental_uris": {"ios": "https://dc.lft.to/lastmile_qr_scan", "android": "https://dc.lft.to/lastmile_qr_scan"}, "is_reserved": 0}, {"lon": -77.0007295, "bike_id": "1a566321897dd81d9322c39cc1790e6f", "lat": 38.87402383333333, "fusion_lon": 0.0, "fusion_lat": 0.0, "type": "electric_scooter", "name": "1a566321897dd81d9322c39cc1790e6f", "is_disabled": 0, "rental_uris": {"ios": "https://dc.lft.to/lastmile_qr_scan", "android": "https://dc.lft.to/lastmile_qr_scan"}, "is_reserved": 0}, {"lon": -76.9652645, "bike_id": "c79ad32afbeaec415e6e3ea4ee434374", "lat": 38.8747905, "fusion_lon": 0.0, "fusion_lat": 0.0, "type": "electric_scooter", "name": "c79ad32afbeaec415e6e3ea4ee434374", "is_disabled": 0, "rental_uris": {"ios": "https://dc.lft.to/lastmile_qr_scan", "android": "https://dc.lft.to/lastmile_qr_scan"}, "is_reserved": 0}, {"lon": -77.02122166666666, "bike_id": "9b01dde92c853d35873fdb952fc4cdad", "lat": 38.937000833333336, "fusion_lon": 0.0, "fusion_lat": 0.0, "type": "electric_scooter", "name": "9b01dde92c853d35873fdb952fc4cdad", "is_disabled": 0, "rental_uris": {"ios": "https://dc.lft.to/lastmile_qr_scan", "android": "https://dc.lft.to/lastmile_qr_scan"}, "is_reserved": 0}, {"lon": -77.0256105, "bike_id": "da08ebcf07a6d6bd76600e4011c2718a", "lat": 38.93353166666667, "fusion_lon": 0.0, "fusion_lat": 0.0, "type": "electric_scooter", "name": "da08ebcf07a6d6bd76600e4011c2718a", "is_disabled": 0, "rental_uris": {"ios": "https://dc.lft.to/lastmile_qr_scan", "android": "https://dc.lft.to/lastmile_qr_scan"}, "is_reserved": 0}, {"lon": -77.0402875, "bike_id": "2c668ad10824189d77d7760ddbd3b8f0", "lat": 38.9237895, "fusion_lon": 0.0, "fusion_lat": 0.0, "type": "electric_scooter", "name": "2c668ad10824189d77d7760ddbd3b8f0", "is_disabled": 0, "rental_uris": {"ios": "https://dc.lft.to/lastmile_qr_scan", "android": "https://dc.lft.to/lastmile_qr_scan"}, "is_reserved": 0}, {"lon": -77.02175066666666, "bike_id": "84000cf0abd4ce3ddd6cf27cb696dbaf", "lat": 38.942937666666666, "fusion_lon": 0.0, "fusion_lat": 0.0, "type": "electric_scooter", "name": "84000cf0abd4ce3ddd6cf27cb696dbaf", "is_disabled": 0, "rental_uris": {"ios": "https://dc.lft.to/lastmile_qr_scan", "android": "https://dc.lft.to/lastmile_qr_scan"}, "is_reserved": 0}, {"lon": -76.94631733333334, "bike_id": "205bbd32eb1cf08afd1c6f2da5998d85", "lat": 38.898308666666665, "fusion_lon": 0.0, "fusion_lat": 0.0, "type": "electric_scooter", "name": "205bbd32eb1cf08afd1c6f2da5998d85", "is_disabled": 0, "rental_uris": {"ios": "https://dc.lft.to/lastmile_qr_scan", "android": "https://dc.lft.to/lastmile_qr_scan"}, "is_reserved": 0}, {"lon": -77.03056933333333, "bike_id": "f870ab13f7fcbf10e436fd3486655fee", "lat": 38.8841125, "fusion_lon": 0.0, "fusion_lat": 0.0, "type": "electric_scooter", "name": "f870ab13f7fcbf10e436fd3486655fee", "is_disabled": 0, "rental_uris": {"ios": "https://dc.lft.to/lastmile_qr_scan", "android": "https://dc.lft.to/lastmile_qr_scan"}, "is_reserved": 0}, {"lon": -76.99644966666666, "bike_id": "a0ad349d359f64349a1113ab9db95c7c", "lat": 38.90016083333333, "fusion_lon": 0.0, "fusion_lat": 0.0, "type": "electric_scooter", "name": "a0ad349d359f64349a1113ab9db95c7c", "is_disabled": 0, "rental_uris": {"ios": "https://dc.lft.to/lastmile_qr_scan", "android": "https://dc.lft.to/lastmile_qr_scan"}, "is_reserved": 0}, {"lon": -77.04480366666667, "bike_id": "2ca8ee7e4faf0e0b5d673e746dcae9f8", "lat": 38.92427333333333, "fusion_lon": 0.0, "fusion_lat": 0.0, "type": "electric_scooter", "name": "2ca8ee7e4faf0e0b5d673e746dcae9f8", "is_disabled": 0, "rental_uris": {"ios": "https://dc.lft.to/lastmile_qr_scan", "android": "https://dc.lft.to/lastmile_qr_scan"}, "is_reserved": 0}, {"lon": -77.05201766666667, "bike_id": "10d766eca1865aa514033bd8d5d2ae06", "lat": 38.8995475, "fusion_lon": 0.0, "fusion_lat": 0.0, "type": "electric_scooter", "name": "10d766eca1865aa514033bd8d5d2ae06", "is_disabled": 0, "rental_uris": {"ios": "https://dc.lft.to/lastmile_qr_scan", "android": "https://dc.lft.to/lastmile_qr_scan"}, "is_reserved": 0}, {"lon": -77.0352075, "bike_id": "1914fe22988e81c7e7529d15b012f212", "lat": 38.9219785, "fusion_lon": 0.0, "fusion_lat": 0.0, "type": "electric_scooter", "name": "1914fe22988e81c7e7529d15b012f212", "is_disabled": 0, "rental_uris": {"ios": "https://dc.lft.to/lastmile_qr_scan", "android": "https://dc.lft.to/lastmile_qr_scan"}, "is_reserved": 0}, {"lon": -77.02751133333334, "bike_id": "a81f3f8d9dc15b59ec23fc1f72b43138", "lat": 38.94181016666667, "fusion_lon": 0.0, "fusion_lat": 0.0, "type": "electric_scooter", "name": "a81f3f8d9dc15b59ec23fc1f72b43138", "is_disabled": 0, "rental_uris": {"ios": "https://dc.lft.to/lastmile_qr_scan", "android": "https://dc.lft.to/lastmile_qr_scan"}, "is_reserved": 0}, {"lon": -77.04515916666666, "bike_id": "3b98679c86772e952636660621afa679", "lat": 38.8860075, "fusion_lon": 0.0, "fusion_lat": 0.0, "type": "electric_scooter", "name": "3b98679c86772e952636660621afa679", "is_disabled": 0, "rental_uris": {"ios": "https://dc.lft.to/lastmile_qr_scan", "android": "https://dc.lft.to/lastmile_qr_scan"}, "is_reserved": 0}, {"lon": -77.03577616666666, "bike_id": "4034afc6ddb9c5ec900b3750b1525cfc", "lat": 38.9176245, "fusion_lon": 0.0, "fusion_lat": 0.0, "type": "electric_scooter", "name": "4034afc6ddb9c5ec900b3750b1525cfc", "is_disabled": 0, "rental_uris": {"ios": "https://dc.lft.to/lastmile_qr_scan", "android": "https://dc.lft.to/lastmile_qr_scan"}, "is_reserved": 0}, {"lon": -77.0366465, "bike_id": "f29e4215951c410795a65fb6d72a2625", "lat": 38.91752416666667, "fusion_lon": 0.0, "fusion_lat": 0.0, "type": "electric_scooter", "name": "f29e4215951c410795a65fb6d72a2625", "is_disabled": 0, "rental_uris": {"ios": "https://dc.lft.to/lastmile_qr_scan", "android": "https://dc.lft.to/lastmile_qr_scan"}, "is_reserved": 0}, {"lon": -77.10909933333333, "bike_id": "ebb075c74b5c51418fb7c17e8522eb94", "lat": 39.0520435, "fusion_lon": 0.0, "fusion_lat": 0.0, "type": "electric_bike", "name": "ebb075c74b5c51418fb7c17e8522eb94", "is_disabled": 0, "rental_uris": {"ios": "https://dc.lft.to/lastmile_qr_scan", "android": "https://dc.lft.to/lastmile_qr_scan"}, "is_reserved": 0}, {"lon": -77.040235, "bike_id": "b31cad62490ee2a4957fdf79331f07b6", "lat": 38.91119033333333, "fusion_lon": 0.0, "fusion_lat": 0.0, "type": "electric_scooter", "name": "b31cad62490ee2a4957fdf79331f07b6", "is_disabled": 0, "rental_uris": {"ios": "https://dc.lft.to/lastmile_qr_scan", "android": "https://dc.lft.to/lastmile_qr_scan"}, "is_reserved": 0}, {"lon": -76.93000666666667, "bike_id": "d25f36272930cba9045402011fe1695b", "lat": 38.90186083333333, "fusion_lon": 0.0, "fusion_lat": 0.0, "type": "electric_scooter", "name": "d25f36272930cba9045402011fe1695b", "is_disabled": 0, "rental_uris": {"ios": "https://dc.lft.to/lastmile_qr_scan", "android": "https://dc.lft.to/lastmile_qr_scan"}, "is_reserved": 0}, {"lon": -77.02080666666667, "bike_id": "8590e4f87c19fc45494e503692bf3aba", "lat": 38.93013966666667, "fusion_lon": 0.0, "fusion_lat": 0.0, "type": "electric_scooter", "name": "8590e4f87c19fc45494e503692bf3aba", "is_disabled": 0, "rental_uris": {"ios": "https://dc.lft.to/lastmile_qr_scan", "android": "https://dc.lft.to/lastmile_qr_scan"}, "is_reserved": 0}, {"lon": -77.014165, "bike_id": "65648c8c38c21abfb365d42c737ae42a", "lat": 38.92831233333333, "fusion_lon": 0.0, "fusion_lat": 0.0, "type": "electric_scooter", "name": "65648c8c38c21abfb365d42c737ae42a", "is_disabled": 0, "rental_uris": {"ios": "https://dc.lft.to/lastmile_qr_scan", "android": "https://dc.lft.to/lastmile_qr_scan"}, "is_reserved": 0}, {"lon": -77.032043, "bike_id": "d35ade56aa3e0438d5a291ebc40e9211", "lat": 38.896150666666664, "fusion_lon": 0.0, "fusion_lat": 0.0, "type": "electric_scooter", "name": "d35ade56aa3e0438d5a291ebc40e9211", "is_disabled": 0, "rental_uris": {"ios": "https://dc.lft.to/lastmile_qr_scan", "android": "https://dc.lft.to/lastmile_qr_scan"}, "is_reserved": 0}, {"lon": -77.03889783333334, "bike_id": "82b164a75f5e039255c51e428ada56dc", "lat": 38.92006083333333, "fusion_lon": 0.0, "fusion_lat": 0.0, "type": "electric_scooter", "name": "82b164a75f5e039255c51e428ada56dc", "is_disabled": 0, "rental_uris": {"ios": "https://dc.lft.to/lastmile_qr_scan", "android": "https://dc.lft.to/lastmile_qr_scan"}, "is_reserved": 0}, {"lon": -77.027079, "bike_id": "cc072070102dbf3c1e837230b97424c9", "lat": 38.92768183333333, "fusion_lon": 0.0, "fusion_lat": 0.0, "type": "electric_scooter", "name": "cc072070102dbf3c1e837230b97424c9", "is_disabled": 0, "rental_uris": {"ios": "https://dc.lft.to/lastmile_qr_scan", "android": "https://dc.lft.to/lastmile_qr_scan"}, "is_reserved": 0}, {"lon": -76.93175216666667, "bike_id": "97f0b7262c6aa83d8f1cd5bc720a7e5f", "lat": 38.898781, "fusion_lon": 0.0, "fusion_lat": 0.0, "type": "electric_scooter", "name": "97f0b7262c6aa83d8f1cd5bc720a7e5f", "is_disabled": 0, "rental_uris": {"ios": "https://dc.lft.to/lastmile_qr_scan", "android": "https://dc.lft.to/lastmile_qr_scan"}, "is_reserved": 0}, {"lon": -77.0214255, "bike_id": "55f76635e9a1f8da8b3df39c8d229323", "lat": 38.89504866666667, "fusion_lon": 0.0, "fusion_lat": 0.0, "type": "electric_scooter", "name": "55f76635e9a1f8da8b3df39c8d229323", "is_disabled": 0, "rental_uris": {"ios": "https://dc.lft.to/lastmile_qr_scan", "android": "https://dc.lft.to/lastmile_qr_scan"}, "is_reserved": 0}, {"lon": -77.03183433333334, "bike_id": "f97cc57e5b2548058081247c7b402854", "lat": 38.884095, "fusion_lon": 0.0, "fusion_lat": 0.0, "type": "electric_scooter", "name": "f97cc57e5b2548058081247c7b402854", "is_disabled": 0, "rental_uris": {"ios": "https://dc.lft.to/lastmile_qr_scan", "android": "https://dc.lft.to/lastmile_qr_scan"}, "is_reserved": 0}, {"lon": -77.0306225, "bike_id": "37d9cbf87d843ed1aca8f6f2bf4c715b", "lat": 38.938733666666664, "fusion_lon": 0.0, "fusion_lat": 0.0, "type": "electric_scooter", "name": "37d9cbf87d843ed1aca8f6f2bf4c715b", "is_disabled": 0, "rental_uris": {"ios": "https://dc.lft.to/lastmile_qr_scan", "android": "https://dc.lft.to/lastmile_qr_scan"}, "is_reserved": 0}, {"lon": -77.014229, "bike_id": "26c66dfafc891f48a0e10609b28109a3", "lat": 38.928298166666664, "fusion_lon": 0.0, "fusion_lat": 0.0, "type": "electric_scooter", "name": "26c66dfafc891f48a0e10609b28109a3", "is_disabled": 0, "rental_uris": {"ios": "https://dc.lft.to/lastmile_qr_scan", "android": "https://dc.lft.to/lastmile_qr_scan"}, "is_reserved": 0}, {"lon": -76.98708883333333, "bike_id": "176fa2351c7c46e7aed188005de58c50", "lat": 38.86703466666667, "fusion_lon": 0.0, "fusion_lat": 0.0, "type": "electric_scooter", "name": "176fa2351c7c46e7aed188005de58c50", "is_disabled": 0, "rental_uris": {"ios": "https://dc.lft.to/lastmile_qr_scan", "android": "https://dc.lft.to/lastmile_qr_scan"}, "is_reserved": 0}, {"lon": -77.02108483333333, "bike_id": "f966869fdbcd2f5a8f6e4c94569d913c", "lat": 38.9217575, "fusion_lon": 0.0, "fusion_lat": 0.0, "type": "electric_scooter", "name": "f966869fdbcd2f5a8f6e4c94569d913c", "is_disabled": 0, "rental_uris": {"ios": "https://dc.lft.to/lastmile_qr_scan", "android": "https://dc.lft.to/lastmile_qr_scan"}, "is_reserved": 0}, {"lon": -77.0268205, "bike_id": "da293e60a4aca829ee1b5cf6dd9fd896", "lat": 38.98490066666667, "fusion_lon": 0.0, "fusion_lat": 0.0, "type": "electric_scooter", "name": "da293e60a4aca829ee1b5cf6dd9fd896", "is_disabled": 0, "rental_uris": {"ios": "https://dc.lft.to/lastmile_qr_scan", "android": "https://dc.lft.to/lastmile_qr_scan"}, "is_reserved": 0}, {"lon": -77.03181366666666, "bike_id": "705febd665d772de03e1647450ad1ecf", "lat": 38.887345, "fusion_lon": 0.0, "fusion_lat": 0.0, "type": "electric_scooter", "name": "705febd665d772de03e1647450ad1ecf", "is_disabled": 0, "rental_uris": {"ios": "https://dc.lft.to/lastmile_qr_scan", "android": "https://dc.lft.to/lastmile_qr_scan"}, "is_reserved": 0}, {"lon": -77.0154115, "bike_id": "7d322f1ce5bea0bc1e708ee60fc4cd82", "lat": 38.88322183333333, "fusion_lon": 0.0, "fusion_lat": 0.0, "type": "electric_scooter", "name": "7d322f1ce5bea0bc1e708ee60fc4cd82", "is_disabled": 0, "rental_uris": {"ios": "https://dc.lft.to/lastmile_qr_scan", "android": "https://dc.lft.to/lastmile_qr_scan"}, "is_reserved": 0}, {"lon": -77.00157433333334, "bike_id": "5000af60505517b9852e2b6b13eae367", "lat": 38.842866, "fusion_lon": 0.0, "fusion_lat": 0.0, "type": "electric_scooter", "name": "5000af60505517b9852e2b6b13eae367", "is_disabled": 0, "rental_uris": {"ios": "https://dc.lft.to/lastmile_qr_scan", "android": "https://dc.lft.to/lastmile_qr_scan"}, "is_reserved": 0}, {"lon": -76.98715983333334, "bike_id": "cf8bc94670dbb0dc208470c3bcdcbbbf", "lat": 38.866954166666666, "fusion_lon": 0.0, "fusion_lat": 0.0, "type": "electric_scooter", "name": "cf8bc94670dbb0dc208470c3bcdcbbbf", "is_disabled": 0, "rental_uris": {"ios": "https://dc.lft.to/lastmile_qr_scan", "android": "https://dc.lft.to/lastmile_qr_scan"}, "is_reserved": 0}, {"lon": -76.99185183333333, "bike_id": "a21b8f77e073379357b02ed416a251f3", "lat": 38.908368833333334, "fusion_lon": 0.0, "fusion_lat": 0.0, "type": "electric_scooter", "name": "a21b8f77e073379357b02ed416a251f3", "is_disabled": 0, "rental_uris": {"ios": "https://dc.lft.to/lastmile_qr_scan", "android": "https://dc.lft.to/lastmile_qr_scan"}, "is_reserved": 0}, {"lon": -77.01986933333333, "bike_id": "162ad5b36f9372c74bfc8c9a57e25da8", "lat": 38.960269333333336, "fusion_lon": 0.0, "fusion_lat": 0.0, "type": "electric_scooter", "name": "162ad5b36f9372c74bfc8c9a57e25da8", "is_disabled": 0, "rental_uris": {"ios": "https://dc.lft.to/lastmile_qr_scan", "android": "https://dc.lft.to/lastmile_qr_scan"}, "is_reserved": 0}, {"lon": -77.00904433333334, "bike_id": "aa499343cd0f42a47fda81e304e4598e", "lat": 38.917849333333336, "fusion_lon": 0.0, "fusion_lat": 0.0, "type": "electric_scooter", "name": "aa499343cd0f42a47fda81e304e4598e", "is_disabled": 0, "rental_uris": {"ios": "https://dc.lft.to/lastmile_qr_scan", "android": "https://dc.lft.to/lastmile_qr_scan"}, "is_reserved": 0}, {"lon": -77.00327483333334, "bike_id": "1d5af3059386f5df667c2697d4ace0bb", "lat": 38.9197875, "fusion_lon": 0.0, "fusion_lat": 0.0, "type": "electric_bike", "name": "1d5af3059386f5df667c2697d4ace0bb", "is_disabled": 0, "rental_uris": {"ios": "https://dc.lft.to/lastmile_qr_scan", "android": "https://dc.lft.to/lastmile_qr_scan"}, "is_reserved": 0}, {"lon": -76.9875525, "bike_id": "d947c45f094ae91281a580ed808368d6", "lat": 38.903834, "fusion_lon": 0.0, "fusion_lat": 0.0, "type": "electric_scooter", "name": "d947c45f094ae91281a580ed808368d6", "is_disabled": 0, "rental_uris": {"ios": "https://dc.lft.to/lastmile_qr_scan", "android": "https://dc.lft.to/lastmile_qr_scan"}, "is_reserved": 0}, {"lon": -77.03310533333334, "bike_id": "a2762c1964a8596b52e1f1a777a9b9c0", "lat": 38.925602, "fusion_lon": 0.0, "fusion_lat": 0.0, "type": "electric_scooter", "name": "a2762c1964a8596b52e1f1a777a9b9c0", "is_disabled": 0, "rental_uris": {"ios": "https://dc.lft.to/lastmile_qr_scan", "android": "https://dc.lft.to/lastmile_qr_scan"}, "is_reserved": 0}, {"lon": -77.04323966666666, "bike_id": "f524d3178144db96b2abe0723131a6df", "lat": 38.918770333333335, "fusion_lon": 0.0, "fusion_lat": 0.0, "type": "electric_scooter", "name": "f524d3178144db96b2abe0723131a6df", "is_disabled": 0, "rental_uris": {"ios": "https://dc.lft.to/lastmile_qr_scan", "android": "https://dc.lft.to/lastmile_qr_scan"}, "is_reserved": 0}, {"lon": -76.97477266666667, "bike_id": "9ad2ca492a807b0ddc7fc304ff83453a", "lat": 38.903496833333335, "fusion_lon": 0.0, "fusion_lat": 0.0, "type": "electric_scooter", "name": "9ad2ca492a807b0ddc7fc304ff83453a", "is_disabled": 0, "rental_uris": {"ios": "https://dc.lft.to/lastmile_qr_scan", "android": "https://dc.lft.to/lastmile_qr_scan"}, "is_reserved": 0}, {"lon": -77.03644866666667, "bike_id": "cdeb05519a140bce1c971979d37a6e97", "lat": 38.9043275, "fusion_lon": 0.0, "fusion_lat": 0.0, "type": "electric_scooter", "name": "cdeb05519a140bce1c971979d37a6e97", "is_disabled": 0, "rental_uris": {"ios": "https://dc.lft.to/lastmile_qr_scan", "android": "https://dc.lft.to/lastmile_qr_scan"}, "is_reserved": 0}, {"lon": -77.06519433333334, "bike_id": "c561cc07f8ba8d2e650a07e366dceb12", "lat": 38.903918166666664, "fusion_lon": 0.0, "fusion_lat": 0.0, "type": "electric_scooter", "name": "c561cc07f8ba8d2e650a07e366dceb12", "is_disabled": 0, "rental_uris": {"ios": "https://dc.lft.to/lastmile_qr_scan", "android": "https://dc.lft.to/lastmile_qr_scan"}, "is_reserved": 0}, {"lon": -77.01291583333334, "bike_id": "6d3d9c9403ba7502e8e31cf11b51b5a3", "lat": 38.92017966666667, "fusion_lon": 0.0, "fusion_lat": 0.0, "type": "electric_scooter", "name": "6d3d9c9403ba7502e8e31cf11b51b5a3", "is_disabled": 0, "rental_uris": {"ios": "https://dc.lft.to/lastmile_qr_scan", "android": "https://dc.lft.to/lastmile_qr_scan"}, "is_reserved": 0}, {"lon": -76.99084433333333, "bike_id": "b260d31f0d6539ae91bde0c1da339aae", "lat": 38.862349333333334, "fusion_lon": 0.0, "fusion_lat": 0.0, "type": "electric_bike", "name": "b260d31f0d6539ae91bde0c1da339aae", "is_disabled": 0, "rental_uris": {"ios": "https://dc.lft.to/lastmile_qr_scan", "android": "https://dc.lft.to/lastmile_qr_scan"}, "is_reserved": 0}, {"lon": -77.080745, "bike_id": "9398f8e0f69f92f2a2519729d2dc6e8b", "lat": 39.0527995, "fusion_lon": 0.0, "fusion_lat": 0.0, "type": "electric_bike", "name": "9398f8e0f69f92f2a2519729d2dc6e8b", "is_disabled": 0, "rental_uris": {"ios": "https://dc.lft.to/lastmile_qr_scan", "android": "https://dc.lft.to/lastmile_qr_scan"}, "is_reserved": 0}, {"lon": -77.02621316666666, "bike_id": "c7b4b0c1e45d254d7a4aa86d1af08107", "lat": 38.92913633333333, "fusion_lon": 0.0, "fusion_lat": 0.0, "type": "electric_scooter", "name": "c7b4b0c1e45d254d7a4aa86d1af08107", "is_disabled": 0, "rental_uris": {"ios": "https://dc.lft.to/lastmile_qr_scan", "android": "https://dc.lft.to/lastmile_qr_scan"}, "is_reserved": 0}, {"lon": -76.99019016666666, "bike_id": "c3356f731dbdbab113b8f7c8d176998a", "lat": 38.86643616666667, "fusion_lon": 0.0, "fusion_lat": 0.0, "type": "electric_scooter", "name": "c3356f731dbdbab113b8f7c8d176998a", "is_disabled": 0, "rental_uris": {"ios": "https://dc.lft.to/lastmile_qr_scan", "android": "https://dc.lft.to/lastmile_qr_scan"}, "is_reserved": 0}, {"lon": -77.01942216666667, "bike_id": "d6976cbc4edb2cc9f7711e04c7392d8f", "lat": 38.9352365, "fusion_lon": 0.0, "fusion_lat": 0.0, "type": "electric_scooter", "name": "d6976cbc4edb2cc9f7711e04c7392d8f", "is_disabled": 0, "rental_uris": {"ios": "https://dc.lft.to/lastmile_qr_scan", "android": "https://dc.lft.to/lastmile_qr_scan"}, "is_reserved": 0}, {"lon": -76.99535083333333, "bike_id": "3f84ce1c9889f4f5e4c36d71c9d33cf9", "lat": 38.883674, "fusion_lon": 0.0, "fusion_lat": 0.0, "type": "electric_scooter", "name": "3f84ce1c9889f4f5e4c36d71c9d33cf9", "is_disabled": 0, "rental_uris": {"ios": "https://dc.lft.to/lastmile_qr_scan", "android": "https://dc.lft.to/lastmile_qr_scan"}, "is_reserved": 0}, {"lon": -77.0334035, "bike_id": "6b09ec81ecff7d71bd81393ad7b8508c", "lat": 38.90339733333333, "fusion_lon": 0.0, "fusion_lat": 0.0, "type": "electric_scooter", "name": "6b09ec81ecff7d71bd81393ad7b8508c", "is_disabled": 0, "rental_uris": {"ios": "https://dc.lft.to/lastmile_qr_scan", "android": "https://dc.lft.to/lastmile_qr_scan"}, "is_reserved": 0}, {"lon": -77.04870166666667, "bike_id": "70f6b36ebc161f160d294151afa8bdf9", "lat": 38.892233166666664, "fusion_lon": 0.0, "fusion_lat": 0.0, "type": "electric_scooter", "name": "70f6b36ebc161f160d294151afa8bdf9", "is_disabled": 0, "rental_uris": {"ios": "https://dc.lft.to/lastmile_qr_scan", "android": "https://dc.lft.to/lastmile_qr_scan"}, "is_reserved": 0}, {"lon": -77.02749433333334, "bike_id": "d714d400f06e253a431606cd40994202", "lat": 38.928947, "fusion_lon": 0.0, "fusion_lat": 0.0, "type": "electric_scooter", "name": "d714d400f06e253a431606cd40994202", "is_disabled": 0, "rental_uris": {"ios": "https://dc.lft.to/lastmile_qr_scan", "android": "https://dc.lft.to/lastmile_qr_scan"}, "is_reserved": 0}, {"lon": -77.0134595, "bike_id": "2d2e8f8570222cf3d156600c64b04a5e", "lat": 38.878105833333336, "fusion_lon": 0.0, "fusion_lat": 0.0, "type": "electric_scooter", "name": "2d2e8f8570222cf3d156600c64b04a5e", "is_disabled": 0, "rental_uris": {"ios": "https://dc.lft.to/lastmile_qr_scan", "android": "https://dc.lft.to/lastmile_qr_scan"}, "is_reserved": 0}, {"lon": -77.028793, "bike_id": "4205c7fe9ed5293c9e2c083fedf493f9", "lat": 38.9169265, "fusion_lon": 0.0, "fusion_lat": 0.0, "type": "electric_scooter", "name": "4205c7fe9ed5293c9e2c083fedf493f9", "is_disabled": 0, "rental_uris": {"ios": "https://dc.lft.to/lastmile_qr_scan", "android": "https://dc.lft.to/lastmile_qr_scan"}, "is_reserved": 0}, {"lon": -77.02081866666667, "bike_id": "80d8b3afb928d20efffe93d3c1d22b64", "lat": 38.88183733333334, "fusion_lon": 0.0, "fusion_lat": 0.0, "type": "electric_scooter", "name": "80d8b3afb928d20efffe93d3c1d22b64", "is_disabled": 0, "rental_uris": {"ios": "https://dc.lft.to/lastmile_qr_scan", "android": "https://dc.lft.to/lastmile_qr_scan"}, "is_reserved": 0}, {"lon": -77.100275, "bike_id": "263998830d5a15af6ba77a7083334b0e", "lat": 38.871326833333335, "fusion_lon": 0.0, "fusion_lat": 0.0, "type": "electric_bike", "name": "263998830d5a15af6ba77a7083334b0e", "is_disabled": 0, "rental_uris": {"ios": "https://dc.lft.to/lastmile_qr_scan", "android": "https://dc.lft.to/lastmile_qr_scan"}, "is_reserved": 0}, {"lon": -77.02531466666667, "bike_id": "9464f78d130977e005c0e7138399956e", "lat": 38.928931666666664, "fusion_lon": 0.0, "fusion_lat": 0.0, "type": "electric_scooter", "name": "9464f78d130977e005c0e7138399956e", "is_disabled": 0, "rental_uris": {"ios": "https://dc.lft.to/lastmile_qr_scan", "android": "https://dc.lft.to/lastmile_qr_scan"}, "is_reserved": 0}, {"lon": -76.96529716666667, "bike_id": "a9c60b642ed7a9471c711cc2d0b84db2", "lat": 38.87627283333333, "fusion_lon": 0.0, "fusion_lat": 0.0, "type": "electric_scooter", "name": "a9c60b642ed7a9471c711cc2d0b84db2", "is_disabled": 0, "rental_uris": {"ios": "https://dc.lft.to/lastmile_qr_scan", "android": "https://dc.lft.to/lastmile_qr_scan"}, "is_reserved": 0}, {"lon": -77.03757233333333, "bike_id": "d868f4363a53e2893d6c4afab961fd70", "lat": 38.90779066666666, "fusion_lon": 0.0, "fusion_lat": 0.0, "type": "electric_scooter", "name": "d868f4363a53e2893d6c4afab961fd70", "is_disabled": 0, "rental_uris": {"ios": "https://dc.lft.to/lastmile_qr_scan", "android": "https://dc.lft.to/lastmile_qr_scan"}, "is_reserved": 0}, {"lon": -77.00559816666667, "bike_id": "b66f2e6c8892e36ca64fba35576583a3", "lat": 38.90560166666667, "fusion_lon": 0.0, "fusion_lat": 0.0, "type": "electric_scooter", "name": "b66f2e6c8892e36ca64fba35576583a3", "is_disabled": 0, "rental_uris": {"ios": "https://dc.lft.to/lastmile_qr_scan", "android": "https://dc.lft.to/lastmile_qr_scan"}, "is_reserved": 0}, {"lon": -76.98335566666667, "bike_id": "4d85a3a128ec2b523ef25ebfb0552da6", "lat": 38.895427833333336, "fusion_lon": 0.0, "fusion_lat": 0.0, "type": "electric_scooter", "name": "4d85a3a128ec2b523ef25ebfb0552da6", "is_disabled": 0, "rental_uris": {"ios": "https://dc.lft.to/lastmile_qr_scan", "android": "https://dc.lft.to/lastmile_qr_scan"}, "is_reserved": 0}, {"lon": -77.02009283333334, "bike_id": "d631d022c963aeead94bf2fa9a00b417", "lat": 38.885981, "fusion_lon": 0.0, "fusion_lat": 0.0, "type": "electric_scooter", "name": "d631d022c963aeead94bf2fa9a00b417", "is_disabled": 0, "rental_uris": {"ios": "https://dc.lft.to/lastmile_qr_scan", "android": "https://dc.lft.to/lastmile_qr_scan"}, "is_reserved": 0}, {"lon": -76.99717666666666, "bike_id": "c1f820ae4aae8531b655ba54cc0afc3a", "lat": 38.89256483333333, "fusion_lon": 0.0, "fusion_lat": 0.0, "type": "electric_scooter", "name": "c1f820ae4aae8531b655ba54cc0afc3a", "is_disabled": 0, "rental_uris": {"ios": "https://dc.lft.to/lastmile_qr_scan", "android": "https://dc.lft.to/lastmile_qr_scan"}, "is_reserved": 0}, {"lon": -77.03901383333333, "bike_id": "f9e154315de986d1fabf27bcd5e7129f", "lat": 38.91843516666667, "fusion_lon": 0.0, "fusion_lat": 0.0, "type": "electric_scooter", "name": "f9e154315de986d1fabf27bcd5e7129f", "is_disabled": 0, "rental_uris": {"ios": "https://dc.lft.to/lastmile_qr_scan", "android": "https://dc.lft.to/lastmile_qr_scan"}, "is_reserved": 0}, {"lon": -77.01836383333334, "bike_id": "4ae94203b2ec1b84fc27126cce0cb275", "lat": 38.909313, "fusion_lon": 0.0, "fusion_lat": 0.0, "type": "electric_scooter", "name": "4ae94203b2ec1b84fc27126cce0cb275", "is_disabled": 0, "rental_uris": {"ios": "https://dc.lft.to/lastmile_qr_scan", "android": "https://dc.lft.to/lastmile_qr_scan"}, "is_reserved": 0}, {"lon": -77.015159, "bike_id": "55307fead889fbc276fb8f2b61322f54", "lat": 38.91865983333334, "fusion_lon": 0.0, "fusion_lat": 0.0, "type": "electric_scooter", "name": "55307fead889fbc276fb8f2b61322f54", "is_disabled": 0, "rental_uris": {"ios": "https://dc.lft.to/lastmile_qr_scan", "android": "https://dc.lft.to/lastmile_qr_scan"}, "is_reserved": 0}, {"lon": -77.0487035, "bike_id": "82342f8ca0bd07a614485745a3da6e6f", "lat": 38.90612333333333, "fusion_lon": 0.0, "fusion_lat": 0.0, "type": "electric_scooter", "name": "82342f8ca0bd07a614485745a3da6e6f", "is_disabled": 0, "rental_uris": {"ios": "https://dc.lft.to/lastmile_qr_scan", "android": "https://dc.lft.to/lastmile_qr_scan"}, "is_reserved": 0}, {"lon": -77.01713983333333, "bike_id": "f998df1d9be7fcce4bb7d0b8b328b84c", "lat": 38.90461766666667, "fusion_lon": 0.0, "fusion_lat": 0.0, "type": "electric_scooter", "name": "f998df1d9be7fcce4bb7d0b8b328b84c", "is_disabled": 0, "rental_uris": {"ios": "https://dc.lft.to/lastmile_qr_scan", "android": "https://dc.lft.to/lastmile_qr_scan"}, "is_reserved": 0}, {"lon": -76.99075966666666, "bike_id": "bbc4865d5919275f147fbb91c4af9f3c", "lat": 38.898145, "fusion_lon": 0.0, "fusion_lat": 0.0, "type": "electric_bike", "name": "bbc4865d5919275f147fbb91c4af9f3c", "is_disabled": 0, "rental_uris": {"ios": "https://dc.lft.to/lastmile_qr_scan", "android": "https://dc.lft.to/lastmile_qr_scan"}, "is_reserved": 0}, {"lon": -76.972436, "bike_id": "5c0337993fe8f09f49323eb144530b5f", "lat": 38.90343433333334, "fusion_lon": 0.0, "fusion_lat": 0.0, "type": "electric_scooter", "name": "5c0337993fe8f09f49323eb144530b5f", "is_disabled": 0, "rental_uris": {"ios": "https://dc.lft.to/lastmile_qr_scan", "android": "https://dc.lft.to/lastmile_qr_scan"}, "is_reserved": 0}, {"lon": -76.98277683333333, "bike_id": "23d9198e353d69dbf876c7d26f442523", "lat": 38.88526, "fusion_lon": 0.0, "fusion_lat": 0.0, "type": "electric_scooter", "name": "23d9198e353d69dbf876c7d26f442523", "is_disabled": 0, "rental_uris": {"ios": "https://dc.lft.to/lastmile_qr_scan", "android": "https://dc.lft.to/lastmile_qr_scan"}, "is_reserved": 0}, {"lon": -77.032074, "bike_id": "a23b6d117f30656f1dfcd8306bebe807", "lat": 38.884021833333335, "fusion_lon": 0.0, "fusion_lat": 0.0, "type": "electric_scooter", "name": "a23b6d117f30656f1dfcd8306bebe807", "is_disabled": 0, "rental_uris": {"ios": "https://dc.lft.to/lastmile_qr_scan", "android": "https://dc.lft.to/lastmile_qr_scan"}, "is_reserved": 0}, {"lon": -77.02978633333333, "bike_id": "c88cb6f0177947812fabdc41b159e3f4", "lat": 38.939358166666665, "fusion_lon": 0.0, "fusion_lat": 0.0, "type": "electric_scooter", "name": "c88cb6f0177947812fabdc41b159e3f4", "is_disabled": 0, "rental_uris": {"ios": "https://dc.lft.to/lastmile_qr_scan", "android": "https://dc.lft.to/lastmile_qr_scan"}, "is_reserved": 0}, {"lon": -76.98340016666667, "bike_id": "e13b16fab182f9a42543613ab08ed9a7", "lat": 38.90094933333334, "fusion_lon": 0.0, "fusion_lat": 0.0, "type": "electric_scooter", "name": "e13b16fab182f9a42543613ab08ed9a7", "is_disabled": 0, "rental_uris": {"ios": "https://dc.lft.to/lastmile_qr_scan", "android": "https://dc.lft.to/lastmile_qr_scan"}, "is_reserved": 0}, {"lon": -77.002046, "bike_id": "77d4c5bae3c9978ae7fb1bf17c4dde0d", "lat": 38.89542816666667, "fusion_lon": 0.0, "fusion_lat": 0.0, "type": "electric_scooter", "name": "77d4c5bae3c9978ae7fb1bf17c4dde0d", "is_disabled": 0, "rental_uris": {"ios": "https://dc.lft.to/lastmile_qr_scan", "android": "https://dc.lft.to/lastmile_qr_scan"}, "is_reserved": 0}, {"lon": -77.0203725, "bike_id": "2901d3635f8bca30df0a274cb71bee4c", "lat": 38.9086135, "fusion_lon": 0.0, "fusion_lat": 0.0, "type": "electric_scooter", "name": "2901d3635f8bca30df0a274cb71bee4c", "is_disabled": 0, "rental_uris": {"ios": "https://dc.lft.to/lastmile_qr_scan", "android": "https://dc.lft.to/lastmile_qr_scan"}, "is_reserved": 0}, {"lon": -77.00532683333333, "bike_id": "d0f76e37caf3374c3c34206bce7dd1d3", "lat": 38.929739, "fusion_lon": 0.0, "fusion_lat": 0.0, "type": "electric_scooter", "name": "d0f76e37caf3374c3c34206bce7dd1d3", "is_disabled": 0, "rental_uris": {"ios": "https://dc.lft.to/lastmile_qr_scan", "android": "https://dc.lft.to/lastmile_qr_scan"}, "is_reserved": 0}, {"lon": -76.92624366666666, "bike_id": "21ff930ea39b12c9b8904f6958e0b3c7", "lat": 38.88458883333333, "fusion_lon": 0.0, "fusion_lat": 0.0, "type": "electric_scooter", "name": "21ff930ea39b12c9b8904f6958e0b3c7", "is_disabled": 0, "rental_uris": {"ios": "https://dc.lft.to/lastmile_qr_scan", "android": "https://dc.lft.to/lastmile_qr_scan"}, "is_reserved": 0}, {"lon": -77.02209, "bike_id": "ca2ede355fd742e8c7157ca8d89b79f2", "lat": 38.893545, "fusion_lon": 0.0, "fusion_lat": 0.0, "type": "electric_scooter", "name": "ca2ede355fd742e8c7157ca8d89b79f2", "is_disabled": 0, "rental_uris": {"ios": "https://dc.lft.to/lastmile_qr_scan", "android": "https://dc.lft.to/lastmile_qr_scan"}, "is_reserved": 0}, {"lon": -77.02263066666667, "bike_id": "bbbe1fac621f62a8fc333f79be044aa0", "lat": 38.93762733333333, "fusion_lon": 0.0, "fusion_lat": 0.0, "type": "electric_scooter", "name": "bbbe1fac621f62a8fc333f79be044aa0", "is_disabled": 0, "rental_uris": {"ios": "https://dc.lft.to/lastmile_qr_scan", "android": "https://dc.lft.to/lastmile_qr_scan"}, "is_reserved": 0}, {"lon": -77.05418966666667, "bike_id": "fc27f2ece861ee93b71003bed749a81e", "lat": 38.950468666666666, "fusion_lon": 0.0, "fusion_lat": 0.0, "type": "electric_scooter", "name": "fc27f2ece861ee93b71003bed749a81e", "is_disabled": 0, "rental_uris": {"ios": "https://dc.lft.to/lastmile_qr_scan", "android": "https://dc.lft.to/lastmile_qr_scan"}, "is_reserved": 0}, {"lon": -77.02805733333334, "bike_id": "e15bef1564b517b67f2d2c5da128db3c", "lat": 38.916853833333334, "fusion_lon": 0.0, "fusion_lat": 0.0, "type": "electric_scooter", "name": "e15bef1564b517b67f2d2c5da128db3c", "is_disabled": 0, "rental_uris": {"ios": "https://dc.lft.to/lastmile_qr_scan", "android": "https://dc.lft.to/lastmile_qr_scan"}, "is_reserved": 0}, {"lon": -77.0147585, "bike_id": "1744e2fa4736883c0c45e85b3b9aecc8", "lat": 38.94065466666667, "fusion_lon": 0.0, "fusion_lat": 0.0, "type": "electric_bike", "name": "1744e2fa4736883c0c45e85b3b9aecc8", "is_disabled": 0, "rental_uris": {"ios": "https://dc.lft.to/lastmile_qr_scan", "android": "https://dc.lft.to/lastmile_qr_scan"}, "is_reserved": 0}, {"lon": -76.97604466666667, "bike_id": "20a810280990115fc9f0630f4a96cf5f", "lat": 38.905696166666665, "fusion_lon": 0.0, "fusion_lat": 0.0, "type": "electric_scooter", "name": "20a810280990115fc9f0630f4a96cf5f", "is_disabled": 0, "rental_uris": {"ios": "https://dc.lft.to/lastmile_qr_scan", "android": "https://dc.lft.to/lastmile_qr_scan"}, "is_reserved": 0}, {"lon": -77.02946166666666, "bike_id": "3f74795ae6e96f041608c2f64d012549", "lat": 38.88740933333333, "fusion_lon": 0.0, "fusion_lat": 0.0, "type": "electric_scooter", "name": "3f74795ae6e96f041608c2f64d012549", "is_disabled": 0, "rental_uris": {"ios": "https://dc.lft.to/lastmile_qr_scan", "android": "https://dc.lft.to/lastmile_qr_scan"}, "is_reserved": 0}, {"lon": -77.01630033333333, "bike_id": "f3164cb9a06550bdf6a997661ac5075a", "lat": 38.9009955, "fusion_lon": 0.0, "fusion_lat": 0.0, "type": "electric_scooter", "name": "f3164cb9a06550bdf6a997661ac5075a", "is_disabled": 0, "rental_uris": {"ios": "https://dc.lft.to/lastmile_qr_scan", "android": "https://dc.lft.to/lastmile_qr_scan"}, "is_reserved": 0}, {"lon": -77.0365545, "bike_id": "67d24363b677aef8c2863667df10ed31", "lat": 38.92089466666667, "fusion_lon": 0.0, "fusion_lat": 0.0, "type": "electric_scooter", "name": "67d24363b677aef8c2863667df10ed31", "is_disabled": 0, "rental_uris": {"ios": "https://dc.lft.to/lastmile_qr_scan", "android": "https://dc.lft.to/lastmile_qr_scan"}, "is_reserved": 0}, {"lon": -77.03202866666666, "bike_id": "f4216bb6f386c88f019eb527c1e49735", "lat": 38.944107, "fusion_lon": 0.0, "fusion_lat": 0.0, "type": "electric_scooter", "name": "f4216bb6f386c88f019eb527c1e49735", "is_disabled": 0, "rental_uris": {"ios": "https://dc.lft.to/lastmile_qr_scan", "android": "https://dc.lft.to/lastmile_qr_scan"}, "is_reserved": 0}, {"lon": -77.04335916666666, "bike_id": "32902f865b1c590fdf01e3fde082a894", "lat": 38.900484, "fusion_lon": 0.0, "fusion_lat": 0.0, "type": "electric_scooter", "name": "32902f865b1c590fdf01e3fde082a894", "is_disabled": 0, "rental_uris": {"ios": "https://dc.lft.to/lastmile_qr_scan", "android": "https://dc.lft.to/lastmile_qr_scan"}, "is_reserved": 0}, {"lon": -76.99994166666667, "bike_id": "f6abdf1c642d57fc150fc5a9778cb0e2", "lat": 38.967954166666665, "fusion_lon": 0.0, "fusion_lat": 0.0, "type": "electric_bike", "name": "f6abdf1c642d57fc150fc5a9778cb0e2", "is_disabled": 0, "rental_uris": {"ios": "https://dc.lft.to/lastmile_qr_scan", "android": "https://dc.lft.to/lastmile_qr_scan"}, "is_reserved": 0}, {"lon": -77.03764216666667, "bike_id": "6ea3a5ebf04d8f52c1b567b05dd6a164", "lat": 38.929399, "fusion_lon": 0.0, "fusion_lat": 0.0, "type": "electric_scooter", "name": "6ea3a5ebf04d8f52c1b567b05dd6a164", "is_disabled": 0, "rental_uris": {"ios": "https://dc.lft.to/lastmile_qr_scan", "android": "https://dc.lft.to/lastmile_qr_scan"}, "is_reserved": 0}, {"lon": -77.02374183333333, "bike_id": "794c17284be95eaa1c4b1fd4f3416b37", "lat": 38.902046166666665, "fusion_lon": 0.0, "fusion_lat": 0.0, "type": "electric_scooter", "name": "794c17284be95eaa1c4b1fd4f3416b37", "is_disabled": 0, "rental_uris": {"ios": "https://dc.lft.to/lastmile_qr_scan", "android": "https://dc.lft.to/lastmile_qr_scan"}, "is_reserved": 0}, {"lon": -77.000725, "bike_id": "efdb09ebbec1166b5a7e8cb8539d1631", "lat": 38.89733016666667, "fusion_lon": 0.0, "fusion_lat": 0.0, "type": "electric_scooter", "name": "efdb09ebbec1166b5a7e8cb8539d1631", "is_disabled": 0, "rental_uris": {"ios": "https://dc.lft.to/lastmile_qr_scan", "android": "https://dc.lft.to/lastmile_qr_scan"}, "is_reserved": 0}, {"lon": -77.0054655, "bike_id": "8760a8bd98d73424ab4b2edd24c41186", "lat": 38.8746075, "fusion_lon": 0.0, "fusion_lat": 0.0, "type": "electric_scooter", "name": "8760a8bd98d73424ab4b2edd24c41186", "is_disabled": 0, "rental_uris": {"ios": "https://dc.lft.to/lastmile_qr_scan", "android": "https://dc.lft.to/lastmile_qr_scan"}, "is_reserved": 0}, {"lon": -77.03353166666666, "bike_id": "e358fce1ded8ac5b663514f4c83d08bf", "lat": 38.897270666666664, "fusion_lon": 0.0, "fusion_lat": 0.0, "type": "electric_scooter", "name": "e358fce1ded8ac5b663514f4c83d08bf", "is_disabled": 0, "rental_uris": {"ios": "https://dc.lft.to/lastmile_qr_scan", "android": "https://dc.lft.to/lastmile_qr_scan"}, "is_reserved": 0}, {"lon": -77.05409016666667, "bike_id": "2c11a66e24a6fba36ccf4369e83fc2a7", "lat": 38.901543333333336, "fusion_lon": 0.0, "fusion_lat": 0.0, "type": "electric_scooter", "name": "2c11a66e24a6fba36ccf4369e83fc2a7", "is_disabled": 0, "rental_uris": {"ios": "https://dc.lft.to/lastmile_qr_scan", "android": "https://dc.lft.to/lastmile_qr_scan"}, "is_reserved": 0}, {"lon": -77.00066733333334, "bike_id": "1db4cde599a9780121ab3f6573770a8f", "lat": 38.92439383333333, "fusion_lon": 0.0, "fusion_lat": 0.0, "type": "electric_scooter", "name": "1db4cde599a9780121ab3f6573770a8f", "is_disabled": 0, "rental_uris": {"ios": "https://dc.lft.to/lastmile_qr_scan", "android": "https://dc.lft.to/lastmile_qr_scan"}, "is_reserved": 0}, {"lon": -76.99773833333333, "bike_id": "0b6442bb4e8d9f5fcecbef3762c70ff0", "lat": 38.9228665, "fusion_lon": 0.0, "fusion_lat": 0.0, "type": "electric_scooter", "name": "0b6442bb4e8d9f5fcecbef3762c70ff0", "is_disabled": 0, "rental_uris": {"ios": "https://dc.lft.to/lastmile_qr_scan", "android": "https://dc.lft.to/lastmile_qr_scan"}, "is_reserved": 0}, {"lon": -76.96363466666666, "bike_id": "5a46a015b836e5dd07b86452fa060149", "lat": 38.93502866666667, "fusion_lon": 0.0, "fusion_lat": 0.0, "type": "electric_scooter", "name": "5a46a015b836e5dd07b86452fa060149", "is_disabled": 0, "rental_uris": {"ios": "https://dc.lft.to/lastmile_qr_scan", "android": "https://dc.lft.to/lastmile_qr_scan"}, "is_reserved": 0}, {"lon": -77.00916583333333, "bike_id": "1dc1b13056b07c10deb2cb21456dbf49", "lat": 38.82785783333333, "fusion_lon": 0.0, "fusion_lat": 0.0, "type": "electric_bike", "name": "1dc1b13056b07c10deb2cb21456dbf49", "is_disabled": 0, "rental_uris": {"ios": "https://dc.lft.to/lastmile_qr_scan", "android": "https://dc.lft.to/lastmile_qr_scan"}, "is_reserved": 0}, {"lon": -77.03208683333334, "bike_id": "5a34348d76d6d03895fecd5537292bf1", "lat": 38.9054915, "fusion_lon": 0.0, "fusion_lat": 0.0, "type": "electric_scooter", "name": "5a34348d76d6d03895fecd5537292bf1", "is_disabled": 0, "rental_uris": {"ios": "https://dc.lft.to/lastmile_qr_scan", "android": "https://dc.lft.to/lastmile_qr_scan"}, "is_reserved": 0}, {"lon": -77.0317615, "bike_id": "63a74f2655591ebb265aac493e5bc48f", "lat": 38.91928566666667, "fusion_lon": 0.0, "fusion_lat": 0.0, "type": "electric_scooter", "name": "63a74f2655591ebb265aac493e5bc48f", "is_disabled": 0, "rental_uris": {"ios": "https://dc.lft.to/lastmile_qr_scan", "android": "https://dc.lft.to/lastmile_qr_scan"}, "is_reserved": 0}, {"lon": -77.0221575, "bike_id": "084c675b431494f7d3ad4234d000452a", "lat": 38.8996955, "fusion_lon": 0.0, "fusion_lat": 0.0, "type": "electric_scooter", "name": "084c675b431494f7d3ad4234d000452a", "is_disabled": 0, "rental_uris": {"ios": "https://dc.lft.to/lastmile_qr_scan", "android": "https://dc.lft.to/lastmile_qr_scan"}, "is_reserved": 0}, {"lon": -77.04716133333334, "bike_id": "c1bda5af965a2f8a5dd1608952daa67e", "lat": 38.9222965, "fusion_lon": 0.0, "fusion_lat": 0.0, "type": "electric_scooter", "name": "c1bda5af965a2f8a5dd1608952daa67e", "is_disabled": 0, "rental_uris": {"ios": "https://dc.lft.to/lastmile_qr_scan", "android": "https://dc.lft.to/lastmile_qr_scan"}, "is_reserved": 0}, {"lon": -77.02116916666667, "bike_id": "4df1ea7d10a3d1396bfecf4eabfe816d", "lat": 38.9369825, "fusion_lon": 0.0, "fusion_lat": 0.0, "type": "electric_scooter", "name": "4df1ea7d10a3d1396bfecf4eabfe816d", "is_disabled": 0, "rental_uris": {"ios": "https://dc.lft.to/lastmile_qr_scan", "android": "https://dc.lft.to/lastmile_qr_scan"}, "is_reserved": 0}, {"lon": -77.03529166666667, "bike_id": "145e0b6369c46c887a8684f7fff627e7", "lat": 38.906688, "fusion_lon": 0.0, "fusion_lat": 0.0, "type": "electric_scooter", "name": "145e0b6369c46c887a8684f7fff627e7", "is_disabled": 0, "rental_uris": {"ios": "https://dc.lft.to/lastmile_qr_scan", "android": "https://dc.lft.to/lastmile_qr_scan"}, "is_reserved": 0}, {"lon": -76.97615866666666, "bike_id": "e475acfdf48de1a9afedd8aafbb2ab86", "lat": 38.903835, "fusion_lon": 0.0, "fusion_lat": 0.0, "type": "electric_scooter", "name": "e475acfdf48de1a9afedd8aafbb2ab86", "is_disabled": 0, "rental_uris": {"ios": "https://dc.lft.to/lastmile_qr_scan", "android": "https://dc.lft.to/lastmile_qr_scan"}, "is_reserved": 0}, {"lon": -77.028088, "bike_id": "6f2b816b742529af5900cf8fa1067dba", "lat": 38.956469, "fusion_lon": 0.0, "fusion_lat": 0.0, "type": "electric_bike", "name": "6f2b816b742529af5900cf8fa1067dba", "is_disabled": 0, "rental_uris": {"ios": "https://dc.lft.to/lastmile_qr_scan", "android": "https://dc.lft.to/lastmile_qr_scan"}, "is_reserved": 0}, {"lon": -77.044884, "bike_id": "57be983fabd505a2607e9a8e05b3d326", "lat": 38.91360566666667, "fusion_lon": 0.0, "fusion_lat": 0.0, "type": "electric_scooter", "name": "57be983fabd505a2607e9a8e05b3d326", "is_disabled": 0, "rental_uris": {"ios": "https://dc.lft.to/lastmile_qr_scan", "android": "https://dc.lft.to/lastmile_qr_scan"}, "is_reserved": 0}, {"lon": -76.9420275, "bike_id": "bcb7dbd57d48a47f8b0c22a12647840b", "lat": 38.893141666666665, "fusion_lon": 0.0, "fusion_lat": 0.0, "type": "electric_bike", "name": "bcb7dbd57d48a47f8b0c22a12647840b", "is_disabled": 0, "rental_uris": {"ios": "https://dc.lft.to/lastmile_qr_scan", "android": "https://dc.lft.to/lastmile_qr_scan"}, "is_reserved": 0}, {"lon": -77.0261275, "bike_id": "fcb582a18f10aee007ac1c7f28a43664", "lat": 38.905620166666665, "fusion_lon": 0.0, "fusion_lat": 0.0, "type": "electric_scooter", "name": "fcb582a18f10aee007ac1c7f28a43664", "is_disabled": 0, "rental_uris": {"ios": "https://dc.lft.to/lastmile_qr_scan", "android": "https://dc.lft.to/lastmile_qr_scan"}, "is_reserved": 0}, {"lon": -77.03491, "bike_id": "26f2db9daed3e258b81f0d2770e2bbc8", "lat": 38.932746, "fusion_lon": 0.0, "fusion_lat": 0.0, "type": "electric_scooter", "name": "26f2db9daed3e258b81f0d2770e2bbc8", "is_disabled": 0, "rental_uris": {"ios": "https://dc.lft.to/lastmile_qr_scan", "android": "https://dc.lft.to/lastmile_qr_scan"}, "is_reserved": 0}, {"lon": -77.03663333333333, "bike_id": "3d67ea20693db34c079578cac1d3a3e8", "lat": 38.91274933333333, "fusion_lon": 0.0, "fusion_lat": 0.0, "type": "electric_scooter", "name": "3d67ea20693db34c079578cac1d3a3e8", "is_disabled": 0, "rental_uris": {"ios": "https://dc.lft.to/lastmile_qr_scan", "android": "https://dc.lft.to/lastmile_qr_scan"}, "is_reserved": 0}, {"lon": -77.01624883333334, "bike_id": "bee54d2febbaca3e3d4d1f87a53e68bd", "lat": 38.90869716666667, "fusion_lon": 0.0, "fusion_lat": 0.0, "type": "electric_scooter", "name": "bee54d2febbaca3e3d4d1f87a53e68bd", "is_disabled": 0, "rental_uris": {"ios": "https://dc.lft.to/lastmile_qr_scan", "android": "https://dc.lft.to/lastmile_qr_scan"}, "is_reserved": 0}, {"lon": -77.0486445, "bike_id": "3411daa1bb5036315a50271ebe8f2254", "lat": 38.90955866666667, "fusion_lon": 0.0, "fusion_lat": 0.0, "type": "electric_scooter", "name": "3411daa1bb5036315a50271ebe8f2254", "is_disabled": 0, "rental_uris": {"ios": "https://dc.lft.to/lastmile_qr_scan", "android": "https://dc.lft.to/lastmile_qr_scan"}, "is_reserved": 0}, {"lon": -76.998643, "bike_id": "78daed3da237c07bed2edcef855c0fcf", "lat": 38.90029633333333, "fusion_lon": 0.0, "fusion_lat": 0.0, "type": "electric_scooter", "name": "78daed3da237c07bed2edcef855c0fcf", "is_disabled": 0, "rental_uris": {"ios": "https://dc.lft.to/lastmile_qr_scan", "android": "https://dc.lft.to/lastmile_qr_scan"}, "is_reserved": 0}, {"lon": -77.00207166666667, "bike_id": "c3f3e69dcc62019f025ffd225c238441", "lat": 38.91461016666667, "fusion_lon": 0.0, "fusion_lat": 0.0, "type": "electric_scooter", "name": "c3f3e69dcc62019f025ffd225c238441", "is_disabled": 0, "rental_uris": {"ios": "https://dc.lft.to/lastmile_qr_scan", "android": "https://dc.lft.to/lastmile_qr_scan"}, "is_reserved": 0}, {"lon": -77.04508883333334, "bike_id": "3f1ebdb0e280bcb167d32dc96d28cecd", "lat": 38.935302666666665, "fusion_lon": 0.0, "fusion_lat": 0.0, "type": "electric_scooter", "name": "3f1ebdb0e280bcb167d32dc96d28cecd", "is_disabled": 0, "rental_uris": {"ios": "https://dc.lft.to/lastmile_qr_scan", "android": "https://dc.lft.to/lastmile_qr_scan"}, "is_reserved": 0}, {"lon": -77.04024016666666, "bike_id": "0248469852e345aeb2a0ceef517572a8", "lat": 38.924527166666664, "fusion_lon": 0.0, "fusion_lat": 0.0, "type": "electric_scooter", "name": "0248469852e345aeb2a0ceef517572a8", "is_disabled": 0, "rental_uris": {"ios": "https://dc.lft.to/lastmile_qr_scan", "android": "https://dc.lft.to/lastmile_qr_scan"}, "is_reserved": 0}, {"lon": -76.98713883333333, "bike_id": "2e6f38cd52672e3e788c02ec057a7976", "lat": 38.86701516666667, "fusion_lon": 0.0, "fusion_lat": 0.0, "type": "electric_scooter", "name": "2e6f38cd52672e3e788c02ec057a7976", "is_disabled": 0, "rental_uris": {"ios": "https://dc.lft.to/lastmile_qr_scan", "android": "https://dc.lft.to/lastmile_qr_scan"}, "is_reserved": 0}, {"lon": -77.03030733333334, "bike_id": "9adb1dec7aa29ef3ef51fcfe7c854ab5", "lat": 38.917022333333335, "fusion_lon": 0.0, "fusion_lat": 0.0, "type": "electric_scooter", "name": "9adb1dec7aa29ef3ef51fcfe7c854ab5", "is_disabled": 0, "rental_uris": {"ios": "https://dc.lft.to/lastmile_qr_scan", "android": "https://dc.lft.to/lastmile_qr_scan"}, "is_reserved": 0}, {"lon": -76.97855683333333, "bike_id": "4e05cd3569c0e156a62742678766a711", "lat": 38.870716, "fusion_lon": 0.0, "fusion_lat": 0.0, "type": "electric_scooter", "name": "4e05cd3569c0e156a62742678766a711", "is_disabled": 0, "rental_uris": {"ios": "https://dc.lft.to/lastmile_qr_scan", "android": "https://dc.lft.to/lastmile_qr_scan"}, "is_reserved": 0}, {"lon": -77.0260235, "bike_id": "6261404c94fca2e1cdd965f175ba18c9", "lat": 38.927946666666664, "fusion_lon": 0.0, "fusion_lat": 0.0, "type": "electric_scooter", "name": "6261404c94fca2e1cdd965f175ba18c9", "is_disabled": 0, "rental_uris": {"ios": "https://dc.lft.to/lastmile_qr_scan", "android": "https://dc.lft.to/lastmile_qr_scan"}, "is_reserved": 0}, {"lon": -77.01210833333333, "bike_id": "ba23c03fd3d8284c01e9ffc3a0ff31bd", "lat": 38.91590933333333, "fusion_lon": 0.0, "fusion_lat": 0.0, "type": "electric_scooter", "name": "ba23c03fd3d8284c01e9ffc3a0ff31bd", "is_disabled": 0, "rental_uris": {"ios": "https://dc.lft.to/lastmile_qr_scan", "android": "https://dc.lft.to/lastmile_qr_scan"}, "is_reserved": 0}, {"lon": -77.03184083333333, "bike_id": "2668e24a7cd71fb0fdee442257922e04", "lat": 38.92098216666667, "fusion_lon": 0.0, "fusion_lat": 0.0, "type": "electric_scooter", "name": "2668e24a7cd71fb0fdee442257922e04", "is_disabled": 0, "rental_uris": {"ios": "https://dc.lft.to/lastmile_qr_scan", "android": "https://dc.lft.to/lastmile_qr_scan"}, "is_reserved": 0}, {"lon": -77.03515966666667, "bike_id": "4af1c0a9ae895bf491df4637dbb3f7c7", "lat": 38.92336066666667, "fusion_lon": 0.0, "fusion_lat": 0.0, "type": "electric_scooter", "name": "4af1c0a9ae895bf491df4637dbb3f7c7", "is_disabled": 0, "rental_uris": {"ios": "https://dc.lft.to/lastmile_qr_scan", "android": "https://dc.lft.to/lastmile_qr_scan"}, "is_reserved": 0}, {"lon": -76.98887083333334, "bike_id": "665378a05d54067a29646eb979aa507f", "lat": 38.86649766666667, "fusion_lon": 0.0, "fusion_lat": 0.0, "type": "electric_scooter", "name": "665378a05d54067a29646eb979aa507f", "is_disabled": 0, "rental_uris": {"ios": "https://dc.lft.to/lastmile_qr_scan", "android": "https://dc.lft.to/lastmile_qr_scan"}, "is_reserved": 0}, {"lon": -77.02127116666666, "bike_id": "738a5965fef6aaa32ec22f2d09f2f8d7", "lat": 38.93577333333333, "fusion_lon": 0.0, "fusion_lat": 0.0, "type": "electric_bike", "name": "738a5965fef6aaa32ec22f2d09f2f8d7", "is_disabled": 0, "rental_uris": {"ios": "https://dc.lft.to/lastmile_qr_scan", "android": "https://dc.lft.to/lastmile_qr_scan"}, "is_reserved": 0}, {"lon": -77.01748416666666, "bike_id": "5a25dfdd0f89fad12e2feddee8fd1891", "lat": 38.902625, "fusion_lon": 0.0, "fusion_lat": 0.0, "type": "electric_scooter", "name": "5a25dfdd0f89fad12e2feddee8fd1891", "is_disabled": 0, "rental_uris": {"ios": "https://dc.lft.to/lastmile_qr_scan", "android": "https://dc.lft.to/lastmile_qr_scan"}, "is_reserved": 0}, {"lon": -77.03183383333334, "bike_id": "65abbbeeb88ba997cc69b8f1a957a098", "lat": 38.90708033333333, "fusion_lon": 0.0, "fusion_lat": 0.0, "type": "electric_scooter", "name": "65abbbeeb88ba997cc69b8f1a957a098", "is_disabled": 0, "rental_uris": {"ios": "https://dc.lft.to/lastmile_qr_scan", "android": "https://dc.lft.to/lastmile_qr_scan"}, "is_reserved": 0}, {"lon": -76.99571783333333, "bike_id": "31cda62398caae01dad2848dbddb7247", "lat": 38.851822166666665, "fusion_lon": 0.0, "fusion_lat": 0.0, "type": "electric_bike", "name": "31cda62398caae01dad2848dbddb7247", "is_disabled": 0, "rental_uris": {"ios": "https://dc.lft.to/lastmile_qr_scan", "android": "https://dc.lft.to/lastmile_qr_scan"}, "is_reserved": 0}, {"lon": -76.931738, "bike_id": "a87d720df65ccabefd66c85caeb623b7", "lat": 38.89883283333333, "fusion_lon": 0.0, "fusion_lat": 0.0, "type": "electric_scooter", "name": "a87d720df65ccabefd66c85caeb623b7", "is_disabled": 0, "rental_uris": {"ios": "https://dc.lft.to/lastmile_qr_scan", "android": "https://dc.lft.to/lastmile_qr_scan"}, "is_reserved": 0}, {"lon": -76.93368616666666, "bike_id": "2eca0efa521b9bab03e710615726b4b0", "lat": 38.8991175, "fusion_lon": 0.0, "fusion_lat": 0.0, "type": "electric_scooter", "name": "2eca0efa521b9bab03e710615726b4b0", "is_disabled": 0, "rental_uris": {"ios": "https://dc.lft.to/lastmile_qr_scan", "android": "https://dc.lft.to/lastmile_qr_scan"}, "is_reserved": 0}, {"lon": -77.03600533333334, "bike_id": "c920707b88962d6d356bd7bcf00c43b5", "lat": 38.909586833333336, "fusion_lon": 0.0, "fusion_lat": 0.0, "type": "electric_scooter", "name": "c920707b88962d6d356bd7bcf00c43b5", "is_disabled": 0, "rental_uris": {"ios": "https://dc.lft.to/lastmile_qr_scan", "android": "https://dc.lft.to/lastmile_qr_scan"}, "is_reserved": 0}, {"lon": -77.04102416666667, "bike_id": "580ea5acb4df9f23d7ceee2e2c2b1265", "lat": 38.92025, "fusion_lon": 0.0, "fusion_lat": 0.0, "type": "electric_scooter", "name": "580ea5acb4df9f23d7ceee2e2c2b1265", "is_disabled": 0, "rental_uris": {"ios": "https://dc.lft.to/lastmile_qr_scan", "android": "https://dc.lft.to/lastmile_qr_scan"}, "is_reserved": 0}, {"lon": -76.95194516666666, "bike_id": "6b58e1b5467621c3ac5c1eb25676deee", "lat": 38.900023833333336, "fusion_lon": 0.0, "fusion_lat": 0.0, "type": "electric_scooter", "name": "6b58e1b5467621c3ac5c1eb25676deee", "is_disabled": 0, "rental_uris": {"ios": "https://dc.lft.to/lastmile_qr_scan", "android": "https://dc.lft.to/lastmile_qr_scan"}, "is_reserved": 0}, {"lon": -76.997368, "bike_id": "e83c78db9efe35c7efed1a4d758b9d00", "lat": 38.9002815, "fusion_lon": 0.0, "fusion_lat": 0.0, "type": "electric_scooter", "name": "e83c78db9efe35c7efed1a4d758b9d00", "is_disabled": 0, "rental_uris": {"ios": "https://dc.lft.to/lastmile_qr_scan", "android": "https://dc.lft.to/lastmile_qr_scan"}, "is_reserved": 0}, {"lon": -77.01576183333333, "bike_id": "ec391670c8db43a70624728b084f4084", "lat": 38.89467633333334, "fusion_lon": 0.0, "fusion_lat": 0.0, "type": "electric_scooter", "name": "ec391670c8db43a70624728b084f4084", "is_disabled": 0, "rental_uris": {"ios": "https://dc.lft.to/lastmile_qr_scan", "android": "https://dc.lft.to/lastmile_qr_scan"}, "is_reserved": 0}, {"lon": -76.99612433333333, "bike_id": "e37c9852dcbbca5e498115f7fcf917b7", "lat": 38.88316866666667, "fusion_lon": 0.0, "fusion_lat": 0.0, "type": "electric_scooter", "name": "e37c9852dcbbca5e498115f7fcf917b7", "is_disabled": 0, "rental_uris": {"ios": "https://dc.lft.to/lastmile_qr_scan", "android": "https://dc.lft.to/lastmile_qr_scan"}, "is_reserved": 0}, {"lon": -76.99740666666666, "bike_id": "09005fb0b619ebee1fceb8169fe5dae0", "lat": 38.90969033333333, "fusion_lon": 0.0, "fusion_lat": 0.0, "type": "electric_scooter", "name": "09005fb0b619ebee1fceb8169fe5dae0", "is_disabled": 0, "rental_uris": {"ios": "https://dc.lft.to/lastmile_qr_scan", "android": "https://dc.lft.to/lastmile_qr_scan"}, "is_reserved": 0}, {"lon": -77.04497083333334, "bike_id": "eebccd94da156b902e4b976753773461", "lat": 38.9193345, "fusion_lon": 0.0, "fusion_lat": 0.0, "type": "electric_scooter", "name": "eebccd94da156b902e4b976753773461", "is_disabled": 0, "rental_uris": {"ios": "https://dc.lft.to/lastmile_qr_scan", "android": "https://dc.lft.to/lastmile_qr_scan"}, "is_reserved": 0}, {"lon": -77.04456233333333, "bike_id": "6cf0cad22406d350b900880a308358f5", "lat": 38.9194285, "fusion_lon": 0.0, "fusion_lat": 0.0, "type": "electric_scooter", "name": "6cf0cad22406d350b900880a308358f5", "is_disabled": 0, "rental_uris": {"ios": "https://dc.lft.to/lastmile_qr_scan", "android": "https://dc.lft.to/lastmile_qr_scan"}, "is_reserved": 0}, {"lon": -77.0334595, "bike_id": "d3608456b7cafa2bb62248389c6555ea", "lat": 38.9471005, "fusion_lon": 0.0, "fusion_lat": 0.0, "type": "electric_scooter", "name": "d3608456b7cafa2bb62248389c6555ea", "is_disabled": 0, "rental_uris": {"ios": "https://dc.lft.to/lastmile_qr_scan", "android": "https://dc.lft.to/lastmile_qr_scan"}, "is_reserved": 0}, {"lon": -76.98365866666667, "bike_id": "319b4f9056bc6fc8eb96bebdb05b00cd", "lat": 38.861073166666664, "fusion_lon": 0.0, "fusion_lat": 0.0, "type": "electric_scooter", "name": "319b4f9056bc6fc8eb96bebdb05b00cd", "is_disabled": 0, "rental_uris": {"ios": "https://dc.lft.to/lastmile_qr_scan", "android": "https://dc.lft.to/lastmile_qr_scan"}, "is_reserved": 0}, {"lon": -77.03762333333333, "bike_id": "e437f72939f2cd36e97019c5fd267416", "lat": 38.907781, "fusion_lon": 0.0, "fusion_lat": 0.0, "type": "electric_scooter", "name": "e437f72939f2cd36e97019c5fd267416", "is_disabled": 0, "rental_uris": {"ios": "https://dc.lft.to/lastmile_qr_scan", "android": "https://dc.lft.to/lastmile_qr_scan"}, "is_reserved": 0}, {"lon": -77.045557, "bike_id": "b1680da3c749a1aa6b199679149bba43", "lat": 38.913647833333336, "fusion_lon": 0.0, "fusion_lat": 0.0, "type": "electric_scooter", "name": "b1680da3c749a1aa6b199679149bba43", "is_disabled": 0, "rental_uris": {"ios": "https://dc.lft.to/lastmile_qr_scan", "android": "https://dc.lft.to/lastmile_qr_scan"}, "is_reserved": 0}, {"lon": -77.02952533333334, "bike_id": "1a754489ecd6df3d237669c1cf733841", "lat": 38.904991, "fusion_lon": 0.0, "fusion_lat": 0.0, "type": "electric_scooter", "name": "1a754489ecd6df3d237669c1cf733841", "is_disabled": 0, "rental_uris": {"ios": "https://dc.lft.to/lastmile_qr_scan", "android": "https://dc.lft.to/lastmile_qr_scan"}, "is_reserved": 0}, {"lon": -77.038867, "bike_id": "00a0a460b1a2a49eebf4808de9dd3687", "lat": 38.911042, "fusion_lon": 0.0, "fusion_lat": 0.0, "type": "electric_scooter", "name": "00a0a460b1a2a49eebf4808de9dd3687", "is_disabled": 0, "rental_uris": {"ios": "https://dc.lft.to/lastmile_qr_scan", "android": "https://dc.lft.to/lastmile_qr_scan"}, "is_reserved": 0}, {"lon": -77.02484833333334, "bike_id": "7cfa24235b6e6f2ae14248bc4d06dd59", "lat": 38.931029333333335, "fusion_lon": 0.0, "fusion_lat": 0.0, "type": "electric_scooter", "name": "7cfa24235b6e6f2ae14248bc4d06dd59", "is_disabled": 0, "rental_uris": {"ios": "https://dc.lft.to/lastmile_qr_scan", "android": "https://dc.lft.to/lastmile_qr_scan"}, "is_reserved": 0}, {"lon": -77.01607283333334, "bike_id": "9c95be6d83b388e027d043fad3c6a295", "lat": 38.9106125, "fusion_lon": 0.0, "fusion_lat": 0.0, "type": "electric_scooter", "name": "9c95be6d83b388e027d043fad3c6a295", "is_disabled": 0, "rental_uris": {"ios": "https://dc.lft.to/lastmile_qr_scan", "android": "https://dc.lft.to/lastmile_qr_scan"}, "is_reserved": 0}, {"lon": -77.00812633333334, "bike_id": "d24a3aca7c6b12520df914afa30f99e8", "lat": 38.916940333333336, "fusion_lon": 0.0, "fusion_lat": 0.0, "type": "electric_scooter", "name": "d24a3aca7c6b12520df914afa30f99e8", "is_disabled": 0, "rental_uris": {"ios": "https://dc.lft.to/lastmile_qr_scan", "android": "https://dc.lft.to/lastmile_qr_scan"}, "is_reserved": 0}, {"lon": -76.9854025, "bike_id": "102a9a321b43d46613f3cebe9096c852", "lat": 38.9101925, "fusion_lon": 0.0, "fusion_lat": 0.0, "type": "electric_scooter", "name": "102a9a321b43d46613f3cebe9096c852", "is_disabled": 0, "rental_uris": {"ios": "https://dc.lft.to/lastmile_qr_scan", "android": "https://dc.lft.to/lastmile_qr_scan"}, "is_reserved": 0}, {"lon": -77.04635383333333, "bike_id": "7e64004d741f34c77e75e72c21a2cf1d", "lat": 38.921196333333334, "fusion_lon": 0.0, "fusion_lat": 0.0, "type": "electric_scooter", "name": "7e64004d741f34c77e75e72c21a2cf1d", "is_disabled": 0, "rental_uris": {"ios": "https://dc.lft.to/lastmile_qr_scan", "android": "https://dc.lft.to/lastmile_qr_scan"}, "is_reserved": 0}, {"lon": -77.02714266666666, "bike_id": "43418c2c7b7c8fc0dc9cf7b02e037337", "lat": 38.92767666666667, "fusion_lon": 0.0, "fusion_lat": 0.0, "type": "electric_scooter", "name": "43418c2c7b7c8fc0dc9cf7b02e037337", "is_disabled": 0, "rental_uris": {"ios": "https://dc.lft.to/lastmile_qr_scan", "android": "https://dc.lft.to/lastmile_qr_scan"}, "is_reserved": 0}, {"lon": -77.04251, "bike_id": "c722f2a8489f7852f9c06a198a592054", "lat": 38.9222305, "fusion_lon": 0.0, "fusion_lat": 0.0, "type": "electric_scooter", "name": "c722f2a8489f7852f9c06a198a592054", "is_disabled": 0, "rental_uris": {"ios": "https://dc.lft.to/lastmile_qr_scan", "android": "https://dc.lft.to/lastmile_qr_scan"}, "is_reserved": 0}, {"lon": -77.02559916666667, "bike_id": "b4616eb2e81a8b7e5081b365a8f04185", "lat": 38.92402716666667, "fusion_lon": 0.0, "fusion_lat": 0.0, "type": "electric_scooter", "name": "b4616eb2e81a8b7e5081b365a8f04185", "is_disabled": 0, "rental_uris": {"ios": "https://dc.lft.to/lastmile_qr_scan", "android": "https://dc.lft.to/lastmile_qr_scan"}, "is_reserved": 0}, {"lon": -77.061003, "bike_id": "d8a635b783b5ae42246fcd3f01b8de01", "lat": 38.937015, "fusion_lon": 0.0, "fusion_lat": 0.0, "type": "electric_scooter", "name": "d8a635b783b5ae42246fcd3f01b8de01", "is_disabled": 0, "rental_uris": {"ios": "https://dc.lft.to/lastmile_qr_scan", "android": "https://dc.lft.to/lastmile_qr_scan"}, "is_reserved": 0}, {"lon": -77.003742, "bike_id": "9ab01e8e2d5e19fb8adf03e4c5a07bd4", "lat": 38.89732466666667, "fusion_lon": 0.0, "fusion_lat": 0.0, "type": "electric_scooter", "name": "9ab01e8e2d5e19fb8adf03e4c5a07bd4", "is_disabled": 0, "rental_uris": {"ios": "https://dc.lft.to/lastmile_qr_scan", "android": "https://dc.lft.to/lastmile_qr_scan"}, "is_reserved": 0}, {"lon": -77.02367666666666, "bike_id": "dff4b29e28e0f1042655f133c1f49e41", "lat": 38.89219766666667, "fusion_lon": 0.0, "fusion_lat": 0.0, "type": "electric_scooter", "name": "dff4b29e28e0f1042655f133c1f49e41", "is_disabled": 0, "rental_uris": {"ios": "https://dc.lft.to/lastmile_qr_scan", "android": "https://dc.lft.to/lastmile_qr_scan"}, "is_reserved": 0}, {"lon": -77.0261355, "bike_id": "ffb4aca9ffb6d8226a8fe06143874109", "lat": 38.92877266666667, "fusion_lon": 0.0, "fusion_lat": 0.0, "type": "electric_scooter", "name": "ffb4aca9ffb6d8226a8fe06143874109", "is_disabled": 0, "rental_uris": {"ios": "https://dc.lft.to/lastmile_qr_scan", "android": "https://dc.lft.to/lastmile_qr_scan"}, "is_reserved": 0}, {"lon": -77.032642, "bike_id": "d12bb817d17783829a270dc25f2a67d5", "lat": 38.920006, "fusion_lon": 0.0, "fusion_lat": 0.0, "type": "electric_scooter", "name": "d12bb817d17783829a270dc25f2a67d5", "is_disabled": 0, "rental_uris": {"ios": "https://dc.lft.to/lastmile_qr_scan", "android": "https://dc.lft.to/lastmile_qr_scan"}, "is_reserved": 0}, {"lon": -77.03411716666666, "bike_id": "79346528c29afabf1cac95adb80796aa", "lat": 38.934238666666666, "fusion_lon": 0.0, "fusion_lat": 0.0, "type": "electric_scooter", "name": "79346528c29afabf1cac95adb80796aa", "is_disabled": 0, "rental_uris": {"ios": "https://dc.lft.to/lastmile_qr_scan", "android": "https://dc.lft.to/lastmile_qr_scan"}, "is_reserved": 0}, {"lon": -77.0349255, "bike_id": "41be3d1b91e6940786606b127c23a378", "lat": 38.91688966666667, "fusion_lon": 0.0, "fusion_lat": 0.0, "type": "electric_scooter", "name": "41be3d1b91e6940786606b127c23a378", "is_disabled": 0, "rental_uris": {"ios": "https://dc.lft.to/lastmile_qr_scan", "android": "https://dc.lft.to/lastmile_qr_scan"}, "is_reserved": 0}, {"lon": -77.0500435, "bike_id": "5e2dd73ec75833a434fa3e5f4f67c30c", "lat": 38.899855333333335, "fusion_lon": 0.0, "fusion_lat": 0.0, "type": "electric_scooter", "name": "5e2dd73ec75833a434fa3e5f4f67c30c", "is_disabled": 0, "rental_uris": {"ios": "https://dc.lft.to/lastmile_qr_scan", "android": "https://dc.lft.to/lastmile_qr_scan"}, "is_reserved": 0}, {"lon": -77.038651, "bike_id": "e4702bcc5e31c535de32dcfe48c112c5", "lat": 38.91252083333333, "fusion_lon": 0.0, "fusion_lat": 0.0, "type": "electric_scooter", "name": "e4702bcc5e31c535de32dcfe48c112c5", "is_disabled": 0, "rental_uris": {"ios": "https://dc.lft.to/lastmile_qr_scan", "android": "https://dc.lft.to/lastmile_qr_scan"}, "is_reserved": 0}, {"lon": -76.99366833333333, "bike_id": "abd39a388a5481b870d639b8f3de757b", "lat": 38.893701, "fusion_lon": 0.0, "fusion_lat": 0.0, "type": "electric_scooter", "name": "abd39a388a5481b870d639b8f3de757b", "is_disabled": 0, "rental_uris": {"ios": "https://dc.lft.to/lastmile_qr_scan", "android": "https://dc.lft.to/lastmile_qr_scan"}, "is_reserved": 0}, {"lon": -77.0258165, "bike_id": "0010b61ce98107d1330f0dc96e14d38f", "lat": 38.8873725, "fusion_lon": 0.0, "fusion_lat": 0.0, "type": "electric_scooter", "name": "0010b61ce98107d1330f0dc96e14d38f", "is_disabled": 0, "rental_uris": {"ios": "https://dc.lft.to/lastmile_qr_scan", "android": "https://dc.lft.to/lastmile_qr_scan"}, "is_reserved": 0}, {"lon": -77.00680416666667, "bike_id": "270d6f5f763c7896e104b863f796c19c", "lat": 38.834944166666666, "fusion_lon": 0.0, "fusion_lat": 0.0, "type": "electric_scooter", "name": "270d6f5f763c7896e104b863f796c19c", "is_disabled": 0, "rental_uris": {"ios": "https://dc.lft.to/lastmile_qr_scan", "android": "https://dc.lft.to/lastmile_qr_scan"}, "is_reserved": 0}, {"lon": -76.94793583333333, "bike_id": "734ba8437eab152ca528ecc92f846254", "lat": 38.861847166666664, "fusion_lon": 0.0, "fusion_lat": 0.0, "type": "electric_bike", "name": "734ba8437eab152ca528ecc92f846254", "is_disabled": 0, "rental_uris": {"ios": "https://dc.lft.to/lastmile_qr_scan", "android": "https://dc.lft.to/lastmile_qr_scan"}, "is_reserved": 0}, {"lon": -77.01766683333334, "bike_id": "27ab6c60b1ce7e7e86b82c3dfc3bf4be", "lat": 38.88740833333333, "fusion_lon": 0.0, "fusion_lat": 0.0, "type": "electric_scooter", "name": "27ab6c60b1ce7e7e86b82c3dfc3bf4be", "is_disabled": 0, "rental_uris": {"ios": "https://dc.lft.to/lastmile_qr_scan", "android": "https://dc.lft.to/lastmile_qr_scan"}, "is_reserved": 0}, {"lon": -76.94877066666666, "bike_id": "2e65e1aeeb13ab2fb7006d857982d801", "lat": 38.894232333333335, "fusion_lon": 0.0, "fusion_lat": 0.0, "type": "electric_scooter", "name": "2e65e1aeeb13ab2fb7006d857982d801", "is_disabled": 0, "rental_uris": {"ios": "https://dc.lft.to/lastmile_qr_scan", "android": "https://dc.lft.to/lastmile_qr_scan"}, "is_reserved": 0}, {"lon": -77.0224785, "bike_id": "4b59416a055043130307b4cc632260a5", "lat": 38.955234, "fusion_lon": 0.0, "fusion_lat": 0.0, "type": "electric_scooter", "name": "4b59416a055043130307b4cc632260a5", "is_disabled": 0, "rental_uris": {"ios": "https://dc.lft.to/lastmile_qr_scan", "android": "https://dc.lft.to/lastmile_qr_scan"}, "is_reserved": 0}, {"lon": -76.99625233333333, "bike_id": "13497b694ad9c7f1488337e092a48838", "lat": 38.887972, "fusion_lon": 0.0, "fusion_lat": 0.0, "type": "electric_scooter", "name": "13497b694ad9c7f1488337e092a48838", "is_disabled": 0, "rental_uris": {"ios": "https://dc.lft.to/lastmile_qr_scan", "android": "https://dc.lft.to/lastmile_qr_scan"}, "is_reserved": 0}, {"lon": -77.01826833333334, "bike_id": "5de476886aa61ced56087c753da2e77a", "lat": 38.901246666666665, "fusion_lon": 0.0, "fusion_lat": 0.0, "type": "electric_scooter", "name": "5de476886aa61ced56087c753da2e77a", "is_disabled": 0, "rental_uris": {"ios": "https://dc.lft.to/lastmile_qr_scan", "android": "https://dc.lft.to/lastmile_qr_scan"}, "is_reserved": 0}, {"lon": -76.9412455, "bike_id": "6fb4d2656d073b5e828c0e90d2d99d52", "lat": 38.9081585, "fusion_lon": 0.0, "fusion_lat": 0.0, "type": "electric_scooter", "name": "6fb4d2656d073b5e828c0e90d2d99d52", "is_disabled": 0, "rental_uris": {"ios": "https://dc.lft.to/lastmile_qr_scan", "android": "https://dc.lft.to/lastmile_qr_scan"}, "is_reserved": 0}, {"lon": -76.9905435, "bike_id": "46aafaed3353c39ff54b383c7fdcf89b", "lat": 38.863807, "fusion_lon": 0.0, "fusion_lat": 0.0, "type": "electric_scooter", "name": "46aafaed3353c39ff54b383c7fdcf89b", "is_disabled": 0, "rental_uris": {"ios": "https://dc.lft.to/lastmile_qr_scan", "android": "https://dc.lft.to/lastmile_qr_scan"}, "is_reserved": 0}, {"lon": -77.05290433333333, "bike_id": "1306dc23547381a18171543a4a5b9f95", "lat": 38.903423333333336, "fusion_lon": 0.0, "fusion_lat": 0.0, "type": "electric_scooter", "name": "1306dc23547381a18171543a4a5b9f95", "is_disabled": 0, "rental_uris": {"ios": "https://dc.lft.to/lastmile_qr_scan", "android": "https://dc.lft.to/lastmile_qr_scan"}, "is_reserved": 0}, {"lon": -77.0448115, "bike_id": "6c0c8be2523c62e980e4d73eab49f531", "lat": 38.9192855, "fusion_lon": 0.0, "fusion_lat": 0.0, "type": "electric_scooter", "name": "6c0c8be2523c62e980e4d73eab49f531", "is_disabled": 0, "rental_uris": {"ios": "https://dc.lft.to/lastmile_qr_scan", "android": "https://dc.lft.to/lastmile_qr_scan"}, "is_reserved": 0}, {"lon": -77.00066133333333, "bike_id": "02881ae197f91fd87163b5c699fd1e52", "lat": 38.900838, "fusion_lon": 0.0, "fusion_lat": 0.0, "type": "electric_scooter", "name": "02881ae197f91fd87163b5c699fd1e52", "is_disabled": 0, "rental_uris": {"ios": "https://dc.lft.to/lastmile_qr_scan", "android": "https://dc.lft.to/lastmile_qr_scan"}, "is_reserved": 0}, {"lon": -77.02026083333334, "bike_id": "4195a67f45694b81f2db88707e98807a", "lat": 38.898992, "fusion_lon": 0.0, "fusion_lat": 0.0, "type": "electric_scooter", "name": "4195a67f45694b81f2db88707e98807a", "is_disabled": 0, "rental_uris": {"ios": "https://dc.lft.to/lastmile_qr_scan", "android": "https://dc.lft.to/lastmile_qr_scan"}, "is_reserved": 0}, {"lon": -77.05863516666666, "bike_id": "227ec5fd637aef6d6614b933959fc043", "lat": 38.93605566666667, "fusion_lon": 0.0, "fusion_lat": 0.0, "type": "electric_scooter", "name": "227ec5fd637aef6d6614b933959fc043", "is_disabled": 0, "rental_uris": {"ios": "https://dc.lft.to/lastmile_qr_scan", "android": "https://dc.lft.to/lastmile_qr_scan"}, "is_reserved": 0}, {"lon": -77.05513933333333, "bike_id": "717169e4b246251db3d367a27bc896e4", "lat": 38.89956433333333, "fusion_lon": 0.0, "fusion_lat": 0.0, "type": "electric_scooter", "name": "717169e4b246251db3d367a27bc896e4", "is_disabled": 0, "rental_uris": {"ios": "https://dc.lft.to/lastmile_qr_scan", "android": "https://dc.lft.to/lastmile_qr_scan"}, "is_reserved": 0}, {"lon": -77.04249066666667, "bike_id": "f1951c61a5cfe360712faa9ed3b0dcdc", "lat": 38.91473833333333, "fusion_lon": 0.0, "fusion_lat": 0.0, "type": "electric_scooter", "name": "f1951c61a5cfe360712faa9ed3b0dcdc", "is_disabled": 0, "rental_uris": {"ios": "https://dc.lft.to/lastmile_qr_scan", "android": "https://dc.lft.to/lastmile_qr_scan"}, "is_reserved": 0}, {"lon": -77.02757183333334, "bike_id": "4e4fd0c00ddc304aafef2c607399795b", "lat": 38.9440045, "fusion_lon": 0.0, "fusion_lat": 0.0, "type": "electric_scooter", "name": "4e4fd0c00ddc304aafef2c607399795b", "is_disabled": 0, "rental_uris": {"ios": "https://dc.lft.to/lastmile_qr_scan", "android": "https://dc.lft.to/lastmile_qr_scan"}, "is_reserved": 0}, {"lon": -77.02132233333333, "bike_id": "5ae49b9b4fbc977d1983c16a7cfd43f1", "lat": 38.900913833333334, "fusion_lon": 0.0, "fusion_lat": 0.0, "type": "electric_scooter", "name": "5ae49b9b4fbc977d1983c16a7cfd43f1", "is_disabled": 0, "rental_uris": {"ios": "https://dc.lft.to/lastmile_qr_scan", "android": "https://dc.lft.to/lastmile_qr_scan"}, "is_reserved": 0}, {"lon": -77.03318316666666, "bike_id": "5ba2127f4e2305fc7293eb2d9cc31259", "lat": 38.91563333333333, "fusion_lon": 0.0, "fusion_lat": 0.0, "type": "electric_scooter", "name": "5ba2127f4e2305fc7293eb2d9cc31259", "is_disabled": 0, "rental_uris": {"ios": "https://dc.lft.to/lastmile_qr_scan", "android": "https://dc.lft.to/lastmile_qr_scan"}, "is_reserved": 0}, {"lon": -77.03073233333333, "bike_id": "97a22a5a82b0116b20a77badc0ac6cb0", "lat": 38.902674833333336, "fusion_lon": 0.0, "fusion_lat": 0.0, "type": "electric_scooter", "name": "97a22a5a82b0116b20a77badc0ac6cb0", "is_disabled": 0, "rental_uris": {"ios": "https://dc.lft.to/lastmile_qr_scan", "android": "https://dc.lft.to/lastmile_qr_scan"}, "is_reserved": 0}, {"lon": -77.02000666666666, "bike_id": "8393d6c6f2e5dacd0a15f3c939c005d1", "lat": 38.91363966666667, "fusion_lon": 0.0, "fusion_lat": 0.0, "type": "electric_scooter", "name": "8393d6c6f2e5dacd0a15f3c939c005d1", "is_disabled": 0, "rental_uris": {"ios": "https://dc.lft.to/lastmile_qr_scan", "android": "https://dc.lft.to/lastmile_qr_scan"}, "is_reserved": 0}, {"lon": -77.03683816666667, "bike_id": "0d8c26b7b1e8975981958145f24cbde4", "lat": 38.91257383333333, "fusion_lon": 0.0, "fusion_lat": 0.0, "type": "electric_scooter", "name": "0d8c26b7b1e8975981958145f24cbde4", "is_disabled": 0, "rental_uris": {"ios": "https://dc.lft.to/lastmile_qr_scan", "android": "https://dc.lft.to/lastmile_qr_scan"}, "is_reserved": 0}, {"lon": -77.010153, "bike_id": "04641949b7cfbc6b479b11c9290f4672", "lat": 38.867188166666665, "fusion_lon": 0.0, "fusion_lat": 0.0, "type": "electric_scooter", "name": "04641949b7cfbc6b479b11c9290f4672", "is_disabled": 0, "rental_uris": {"ios": "https://dc.lft.to/lastmile_qr_scan", "android": "https://dc.lft.to/lastmile_qr_scan"}, "is_reserved": 0}, {"lon": -77.0220205, "bike_id": "aa7c8f3563a1357ac439c52ce2e7caac", "lat": 38.90980916666667, "fusion_lon": 0.0, "fusion_lat": 0.0, "type": "electric_scooter", "name": "aa7c8f3563a1357ac439c52ce2e7caac", "is_disabled": 0, "rental_uris": {"ios": "https://dc.lft.to/lastmile_qr_scan", "android": "https://dc.lft.to/lastmile_qr_scan"}, "is_reserved": 0}, {"lon": -77.0115795, "bike_id": "c2359bf3b38e07d871363a49c1af417c", "lat": 38.91401166666667, "fusion_lon": 0.0, "fusion_lat": 0.0, "type": "electric_scooter", "name": "c2359bf3b38e07d871363a49c1af417c", "is_disabled": 0, "rental_uris": {"ios": "https://dc.lft.to/lastmile_qr_scan", "android": "https://dc.lft.to/lastmile_qr_scan"}, "is_reserved": 0}, {"lon": -77.01748866666667, "bike_id": "91b444d10a9896167e9da78e612ba30c", "lat": 38.90264633333334, "fusion_lon": 0.0, "fusion_lat": 0.0, "type": "electric_scooter", "name": "91b444d10a9896167e9da78e612ba30c", "is_disabled": 0, "rental_uris": {"ios": "https://dc.lft.to/lastmile_qr_scan", "android": "https://dc.lft.to/lastmile_qr_scan"}, "is_reserved": 0}, {"lon": -76.97539866666666, "bike_id": "02955ef2b6dc9c093e3d7f57541b06ff", "lat": 38.9032935, "fusion_lon": 0.0, "fusion_lat": 0.0, "type": "electric_bike", "name": "02955ef2b6dc9c093e3d7f57541b06ff", "is_disabled": 0, "rental_uris": {"ios": "https://dc.lft.to/lastmile_qr_scan", "android": "https://dc.lft.to/lastmile_qr_scan"}, "is_reserved": 0}, {"lon": -76.99623533333333, "bike_id": "0b5b2bc65be4f133b8e63eaaf1621405", "lat": 38.9093855, "fusion_lon": 0.0, "fusion_lat": 0.0, "type": "electric_scooter", "name": "0b5b2bc65be4f133b8e63eaaf1621405", "is_disabled": 0, "rental_uris": {"ios": "https://dc.lft.to/lastmile_qr_scan", "android": "https://dc.lft.to/lastmile_qr_scan"}, "is_reserved": 0}, {"lon": -77.01896366666666, "bike_id": "26415fec6bafba629934b74dcc153a80", "lat": 38.874626666666664, "fusion_lon": 0.0, "fusion_lat": 0.0, "type": "electric_scooter", "name": "26415fec6bafba629934b74dcc153a80", "is_disabled": 0, "rental_uris": {"ios": "https://dc.lft.to/lastmile_qr_scan", "android": "https://dc.lft.to/lastmile_qr_scan"}, "is_reserved": 0}, {"lon": -77.00261783333333, "bike_id": "84d2fd3410e0dbfa9340bf6394882c8f", "lat": 38.9181775, "fusion_lon": 0.0, "fusion_lat": 0.0, "type": "electric_scooter", "name": "84d2fd3410e0dbfa9340bf6394882c8f", "is_disabled": 0, "rental_uris": {"ios": "https://dc.lft.to/lastmile_qr_scan", "android": "https://dc.lft.to/lastmile_qr_scan"}, "is_reserved": 0}, {"lon": -77.116128, "bike_id": "f097e9e57f33de6415d22ce359728c20", "lat": 38.85482116666667, "fusion_lon": 0.0, "fusion_lat": 0.0, "type": "electric_bike", "name": "f097e9e57f33de6415d22ce359728c20", "is_disabled": 0, "rental_uris": {"ios": "https://dc.lft.to/lastmile_qr_scan", "android": "https://dc.lft.to/lastmile_qr_scan"}, "is_reserved": 0}, {"lon": -76.94178616666667, "bike_id": "2e772a9aec487baaa12beb4aef3d4684", "lat": 38.892652166666664, "fusion_lon": 0.0, "fusion_lat": 0.0, "type": "electric_scooter", "name": "2e772a9aec487baaa12beb4aef3d4684", "is_disabled": 0, "rental_uris": {"ios": "https://dc.lft.to/lastmile_qr_scan", "android": "https://dc.lft.to/lastmile_qr_scan"}, "is_reserved": 0}, {"lon": -77.00102216666667, "bike_id": "16acbd3dc7f67a494703178d06b6a600", "lat": 38.917062333333334, "fusion_lon": 0.0, "fusion_lat": 0.0, "type": "electric_scooter", "name": "16acbd3dc7f67a494703178d06b6a600", "is_disabled": 0, "rental_uris": {"ios": "https://dc.lft.to/lastmile_qr_scan", "android": "https://dc.lft.to/lastmile_qr_scan"}, "is_reserved": 0},