{"data": {"bikes": [{"name": "89a53602b7da29e99da6f28568a256b4", "lon": -77.04618566666667, "lat": 38.92327566666667, "type": "electric_scooter", "fusion_lon": 0.0, "is_reserved": 0, "bike_id": "89a53602b7da29e99da6f28568a256b4", "fusion_lat": 0.0, "is_disabled": 0, "rental_uris": {"ios": "https://dc.lft.to/lastmile_qr_scan", "android": "https://dc.lft.to/lastmile_qr_scan"}}, {"name": "4a84e6aefbbe09baf3713bb9753d1f62", "lon": -76.9888815, "lat": 38.866575, "type": "electric_scooter", "fusion_lon": 0.0, "is_reserved": 0, "bike_id": "4a84e6aefbbe09baf3713bb9753d1f62", "fusion_lat": 0.0, "is_disabled": 0, "rental_uris": {"ios": "https://dc.lft.to/lastmile_qr_scan", "android": "https://dc.lft.to/lastmile_qr_scan"}}, {"name": "39d46d4cfd1225397332dec645851294", "lon": -77.03856583333334, "lat": 38.9125285, "type": "electric_scooter", "fusion_lon": 0.0, "is_reserved": 0, "bike_id": "39d46d4cfd1225397332dec645851294", "fusion_lat": 0.0, "is_disabled": 0, "rental_uris": {"ios": "https://dc.lft.to/lastmile_qr_scan", "android": "https://dc.lft.to/lastmile_qr_scan"}}, {"name": "85557586b557a22c8be85c1f8840d809", "lon": -77.03032316666666, "lat": 38.897234, "type": "electric_scooter", "fusion_lon": 0.0, "is_reserved": 0, "bike_id": "85557586b557a22c8be85c1f8840d809", "fusion_lat": 0.0, "is_disabled": 0, "rental_uris": {"ios": "https://dc.lft.to/lastmile_qr_scan", "android": "https://dc.lft.to/lastmile_qr_scan"}}, {"name": "8dfa68527c4e2ff9427f6137f19eec9c", "lon": -77.04651483333333, "lat": 38.913586, "type": "electric_scooter", "fusion_lon": 0.0, "is_reserved": 0, "bike_id": "8dfa68527c4e2ff9427f6137f19eec9c", "fusion_lat": 0.0, "is_disabled": 0, "rental_uris": {"ios": "https://dc.lft.to/lastmile_qr_scan", "android": "https://dc.lft.to/lastmile_qr_scan"}}, {"name": "9e6b76d3bf05bb271a373040f759079c", "lon": -77.02819933333333, "lat": 38.96501516666667, "type": "electric_bike", "fusion_lon": 0.0, "is_reserved": 0, "bike_id": "9e6b76d3bf05bb271a373040f759079c", "fusion_lat": 0.0, "is_disabled": 0, "rental_uris": {"ios": "https://dc.lft.to/lastmile_qr_scan", "android": "https://dc.lft.to/lastmile_qr_scan"}}, {"name": "0efa75c92a03c9e67ec38c351fadbd3b", "lon": -77.04932216666667, "lat": 38.909997833333335, "type": "electric_scooter", "fusion_lon": 0.0, "is_reserved": 0, "bike_id": "0efa75c92a03c9e67ec38c351fadbd3b", "fusion_lat": 0.0, "is_disabled": 0, "rental_uris": {"ios": "https://dc.lft.to/lastmile_qr_scan", "android": "https://dc.lft.to/lastmile_qr_scan"}}, {"name": "884fd8dd9c2ed436e16bc9b9273dd492", "lon": -77.02897266666666, "lat": 38.9170585, "type": "electric_scooter", "fusion_lon": 0.0, "is_reserved": 0, "bike_id": "884fd8dd9c2ed436e16bc9b9273dd492", "fusion_lat": 0.0, "is_disabled": 0, "rental_uris": {"ios": "https://dc.lft.to/lastmile_qr_scan", "android": "https://dc.lft.to/lastmile_qr_scan"}}, {"name": "d6d64d400c8d4baf1c02d2f4c9200e46", "lon": -77.01295216666666, "lat": 38.894708333333334, "type": "electric_scooter", "fusion_lon": 0.0, "is_reserved": 0, "bike_id": "d6d64d400c8d4baf1c02d2f4c9200e46", "fusion_lat": 0.0, "is_disabled": 0, "rental_uris": {"ios": "https://dc.lft.to/lastmile_qr_scan", "android": "https://dc.lft.to/lastmile_qr_scan"}}, {"name": "46c04733967fb2c9a2d5486a201c1c23", "lon": -77.02947966666666, "lat": 38.90511166666667, "type": "electric_scooter", "fusion_lon": 0.0, "is_reserved": 0, "bike_id": "46c04733967fb2c9a2d5486a201c1c23", "fusion_lat": 0.0, "is_disabled": 0, "rental_uris": {"ios": "https://dc.lft.to/lastmile_qr_scan", "android": "https://dc.lft.to/lastmile_qr_scan"}}, {"name": "f454a2a116f7d1d09fd62e6805dab815", "lon": -77.027155, "lat": 38.918155, "type": "electric_scooter", "fusion_lon": 0.0, "is_reserved": 0, "bike_id": "f454a2a116f7d1d09fd62e6805dab815", "fusion_lat": 0.0, "is_disabled": 0, "rental_uris": {"ios": "https://dc.lft.to/lastmile_qr_scan", "android": "https://dc.lft.to/lastmile_qr_scan"}}, {"name": "bf224e24277e7e9dabded471855788af", "lon": -77.115681, "lat": 38.99329016666667, "type": "electric_bike", "fusion_lon": 0.0, "is_reserved": 0, "bike_id": "bf224e24277e7e9dabded471855788af", "fusion_lat": 0.0, "is_disabled": 0, "rental_uris": {"ios": "https://dc.lft.to/lastmile_qr_scan", "android": "https://dc.lft.to/lastmile_qr_scan"}}, {"name": "ddc6076983d9b24b5a5316947948ed3f", "lon": -77.04429433333334, "lat": 38.921262666666664, "type": "electric_scooter", "fusion_lon": 0.0, "is_reserved": 0, "bike_id": "ddc6076983d9b24b5a5316947948ed3f", "fusion_lat": 0.0, "is_disabled": 0, "rental_uris": {"ios": "https://dc.lft.to/lastmile_qr_scan", "android": "https://dc.lft.to/lastmile_qr_scan"}}, {"name": "3c084b70b05f5dec474c2171bc3ee2fe", "lon": -77.04074833333334, "lat": 38.925351, "type": "electric_scooter", "fusion_lon": 0.0, "is_reserved": 0, "bike_id": "3c084b70b05f5dec474c2171bc3ee2fe", "fusion_lat": 0.0, "is_disabled": 0, "rental_uris": {"ios": "https://dc.lft.to/lastmile_qr_scan", "android": "https://dc.lft.to/lastmile_qr_scan"}}, {"name": "41de86e3a818be91791d9b64242e9c35", "lon": -77.04870083333333, "lat": 38.89268083333333, "type": "electric_scooter", "fusion_lon": 0.0, "is_reserved": 0, "bike_id": "41de86e3a818be91791d9b64242e9c35", "fusion_lat": 0.0, "is_disabled": 0, "rental_uris": {"ios": "https://dc.lft.to/lastmile_qr_scan", "android": "https://dc.lft.to/lastmile_qr_scan"}}, {"name": "778211cb9a083035d566137c375c7d59", "lon": -77.03523183333333, "lat": 38.918226833333335, "type": "electric_scooter", "fusion_lon": 0.0, "is_reserved": 0, "bike_id": "778211cb9a083035d566137c375c7d59", "fusion_lat": 0.0, "is_disabled": 0, "rental_uris": {"ios": "https://dc.lft.to/lastmile_qr_scan", "android": "https://dc.lft.to/lastmile_qr_scan"}}, {"name": "9e068d35ef2c3eb1a2cbc11b4f4796cc", "lon": -77.01966733333333, "lat": 38.95652533333333, "type": "electric_scooter", "fusion_lon": 0.0, "is_reserved": 0, "bike_id": "9e068d35ef2c3eb1a2cbc11b4f4796cc", "fusion_lat": 0.0, "is_disabled": 0, "rental_uris": {"ios": "https://dc.lft.to/lastmile_qr_scan", "android": "https://dc.lft.to/lastmile_qr_scan"}}, {"name": "a9a246f6968d85e478e2fde115753e97", "lon": -77.02895983333333, "lat": 38.91690933333334, "type": "electric_scooter", "fusion_lon": 0.0, "is_reserved": 0, "bike_id": "a9a246f6968d85e478e2fde115753e97", "fusion_lat": 0.0, "is_disabled": 0, "rental_uris": {"ios": "https://dc.lft.to/lastmile_qr_scan", "android": "https://dc.lft.to/lastmile_qr_scan"}}, {"name": "1a37bb2f7533c4d50e435ff865fba6dc", "lon": -77.002233, "lat": 38.90734166666667, "type": "electric_scooter", "fusion_lon": 0.0, "is_reserved": 0, "bike_id": "1a37bb2f7533c4d50e435ff865fba6dc", "fusion_lat": 0.0, "is_disabled": 0, "rental_uris": {"ios": "https://dc.lft.to/lastmile_qr_scan", "android": "https://dc.lft.to/lastmile_qr_scan"}}, {"name": "a8f3652355237b629352e8dad93c108e", "lon": -77.03047666666667, "lat": 38.88408866666666, "type": "electric_scooter", "fusion_lon": 0.0, "is_reserved": 0, "bike_id": "a8f3652355237b629352e8dad93c108e", "fusion_lat": 0.0, "is_disabled": 0, "rental_uris": {"ios": "https://dc.lft.to/lastmile_qr_scan", "android": "https://dc.lft.to/lastmile_qr_scan"}}, {"name": "fe923fc78af87fc596f5b0fb1588de4d", "lon": -77.02810433333333, "lat": 38.96079183333333, "type": "electric_scooter", "fusion_lon": 0.0, "is_reserved": 0, "bike_id": "fe923fc78af87fc596f5b0fb1588de4d", "fusion_lat": 0.0, "is_disabled": 0, "rental_uris": {"ios": "https://dc.lft.to/lastmile_qr_scan", "android": "https://dc.lft.to/lastmile_qr_scan"}}, {"name": "1ea3ce968e4ab6730ef2c9d24463c877", "lon": -77.04688683333333, "lat": 38.9215765, "type": "electric_scooter", "fusion_lon": 0.0, "is_reserved": 0, "bike_id": "1ea3ce968e4ab6730ef2c9d24463c877", "fusion_lat": 0.0, "is_disabled": 0, "rental_uris": {"ios": "https://dc.lft.to/lastmile_qr_scan", "android": "https://dc.lft.to/lastmile_qr_scan"}}, {"name": "c81c3fa9c34ef2bc6a8c646c289b76e3", "lon": -77.05330266666667, "lat": 38.900023833333336, "type": "electric_scooter", "fusion_lon": 0.0, "is_reserved": 0, "bike_id": "c81c3fa9c34ef2bc6a8c646c289b76e3", "fusion_lat": 0.0, "is_disabled": 0, "rental_uris": {"ios": "https://dc.lft.to/lastmile_qr_scan", "android": "https://dc.lft.to/lastmile_qr_scan"}}, {"name": "0c86522dca3f7849c71e9745e6ad656b", "lon": -77.03640166666666, "lat": 38.90383716666667, "type": "electric_scooter", "fusion_lon": 0.0, "is_reserved": 0, "bike_id": "0c86522dca3f7849c71e9745e6ad656b", "fusion_lat": 0.0, "is_disabled": 0, "rental_uris": {"ios": "https://dc.lft.to/lastmile_qr_scan", "android": "https://dc.lft.to/lastmile_qr_scan"}}, {"name": "4ef79152cc08eadc99cdfc17f9ab2f54", "lon": -77.00594716666667, "lat": 38.9057245, "type": "electric_scooter", "fusion_lon": 0.0, "is_reserved": 0, "bike_id": "4ef79152cc08eadc99cdfc17f9ab2f54", "fusion_lat": 0.0, "is_disabled": 0, "rental_uris": {"ios": "https://dc.lft.to/lastmile_qr_scan", "android": "https://dc.lft.to/lastmile_qr_scan"}}, {"name": "94a2e3e59dbf99554f7a1dd29a6b6611", "lon": -77.01767583333333, "lat": 38.883236333333336, "type": "electric_scooter", "fusion_lon": 0.0, "is_reserved": 0, "bike_id": "94a2e3e59dbf99554f7a1dd29a6b6611", "fusion_lat": 0.0, "is_disabled": 0, "rental_uris": {"ios": "https://dc.lft.to/lastmile_qr_scan", "android": "https://dc.lft.to/lastmile_qr_scan"}}, {"name": "f9d6d17de10b25c6cba491f73ce3ee51", "lon": -77.0116685, "lat": 38.916919, "type": "electric_scooter", "fusion_lon": 0.0, "is_reserved": 0, "bike_id": "f9d6d17de10b25c6cba491f73ce3ee51", "fusion_lat": 0.0, "is_disabled": 0, "rental_uris": {"ios": "https://dc.lft.to/lastmile_qr_scan", "android": "https://dc.lft.to/lastmile_qr_scan"}}, {"name": "52d686105bd1bff7d6ff7db232765f77", "lon": -76.99776583333333, "lat": 38.84429883333333, "type": "electric_scooter", "fusion_lon": 0.0, "is_reserved": 0, "bike_id": "52d686105bd1bff7d6ff7db232765f77", "fusion_lat": 0.0, "is_disabled": 0, "rental_uris": {"ios": "https://dc.lft.to/lastmile_qr_scan", "android": "https://dc.lft.to/lastmile_qr_scan"}}, {"name": "ee35098d8c4a9e8b82bc71312714f749", "lon": -77.03798333333333, "lat": 38.911630333333335, "type": "electric_scooter", "fusion_lon": 0.0, "is_reserved": 0, "bike_id": "ee35098d8c4a9e8b82bc71312714f749", "fusion_lat": 0.0, "is_disabled": 0, "rental_uris": {"ios": "https://dc.lft.to/lastmile_qr_scan", "android": "https://dc.lft.to/lastmile_qr_scan"}}, {"name": "37e02a30ef606558f5e0228041fb7876", "lon": -77.03908283333334, "lat": 38.918270666666665, "type": "electric_scooter", "fusion_lon": 0.0, "is_reserved": 0, "bike_id": "37e02a30ef606558f5e0228041fb7876", "fusion_lat": 0.0, "is_disabled": 0, "rental_uris": {"ios": "https://dc.lft.to/lastmile_qr_scan", "android": "https://dc.lft.to/lastmile_qr_scan"}}, {"name": "652544cd42553637dc670de08db892ef", "lon": -77.01165566666667, "lat": 38.91562666666667, "type": "electric_scooter", "fusion_lon": 0.0, "is_reserved": 0, "bike_id": "652544cd42553637dc670de08db892ef", "fusion_lat": 0.0, "is_disabled": 0, "rental_uris": {"ios": "https://dc.lft.to/lastmile_qr_scan", "android": "https://dc.lft.to/lastmile_qr_scan"}}, {"name": "5243335fa5b2ca100cef1257a59fef12", "lon": -77.02252733333333, "lat": 38.923058833333336, "type": "electric_scooter", "fusion_lon": 0.0, "is_reserved": 0, "bike_id": "5243335fa5b2ca100cef1257a59fef12", "fusion_lat": 0.0, "is_disabled": 0, "rental_uris": {"ios": "https://dc.lft.to/lastmile_qr_scan", "android": "https://dc.lft.to/lastmile_qr_scan"}}, {"name": "f48fe2b92994eb2e72f1657e1ec3bb3f", "lon": -77.03856133333333, "lat": 38.91549633333333, "type": "electric_scooter", "fusion_lon": 0.0, "is_reserved": 0, "bike_id": "f48fe2b92994eb2e72f1657e1ec3bb3f", "fusion_lat": 0.0, "is_disabled": 0, "rental_uris": {"ios": "https://dc.lft.to/lastmile_qr_scan", "android": "https://dc.lft.to/lastmile_qr_scan"}}, {"name": "f49dbf80ac560d2940a48218a6fb2f0f", "lon": -77.01761816666667, "lat": 38.87682933333333, "type": "electric_scooter", "fusion_lon": 0.0, "is_reserved": 0, "bike_id": "f49dbf80ac560d2940a48218a6fb2f0f", "fusion_lat": 0.0, "is_disabled": 0, "rental_uris": {"ios": "https://dc.lft.to/lastmile_qr_scan", "android": "https://dc.lft.to/lastmile_qr_scan"}}, {"name": "01ac8641afe11c7c68f5458b40f6ab8e", "lon": -76.9734585, "lat": 38.849582, "type": "electric_scooter", "fusion_lon": 0.0, "is_reserved": 0, "bike_id": "01ac8641afe11c7c68f5458b40f6ab8e", "fusion_lat": 0.0, "is_disabled": 0, "rental_uris": {"ios": "https://dc.lft.to/lastmile_qr_scan", "android": "https://dc.lft.to/lastmile_qr_scan"}}, {"name": "21999e9c7d5236f4461315f64741f148", "lon": -77.04648266666666, "lat": 39.05497233333333, "type": "electric_bike", "fusion_lon": 0.0, "is_reserved": 0, "bike_id": "21999e9c7d5236f4461315f64741f148", "fusion_lat": 0.0, "is_disabled": 0, "rental_uris": {"ios": "https://dc.lft.to/lastmile_qr_scan", "android": "https://dc.lft.to/lastmile_qr_scan"}}, {"name": "83babbe97cf351fa26eef302db9aca18", "lon": -77.02872016666667, "lat": 38.9988525, "type": "electric_bike", "fusion_lon": 0.0, "is_reserved": 0, "bike_id": "83babbe97cf351fa26eef302db9aca18", "fusion_lat": 0.0, "is_disabled": 0, "rental_uris": {"ios": "https://dc.lft.to/lastmile_qr_scan", "android": "https://dc.lft.to/lastmile_qr_scan"}}, {"name": "f9585467ddadaaf17b9e69a92c13f3c7", "lon": -77.04732683333333, "lat": 38.913374833333336, "type": "electric_scooter", "fusion_lon": 0.0, "is_reserved": 0, "bike_id": "f9585467ddadaaf17b9e69a92c13f3c7", "fusion_lat": 0.0, "is_disabled": 0, "rental_uris": {"ios": "https://dc.lft.to/lastmile_qr_scan", "android": "https://dc.lft.to/lastmile_qr_scan"}}, {"name": "acb89240d7379a2adf2190a5edd74b04", "lon": -76.95653666666666, "lat": 38.896073333333334, "type": "electric_scooter", "fusion_lon": 0.0, "is_reserved": 0, "bike_id": "acb89240d7379a2adf2190a5edd74b04", "fusion_lat": 0.0, "is_disabled": 0, "rental_uris": {"ios": "https://dc.lft.to/lastmile_qr_scan", "android": "https://dc.lft.to/lastmile_qr_scan"}}, {"name": "15ba64b6793a3f361b0797a4b8e5b5ad", "lon": -77.04356766666666, "lat": 38.9111795, "type": "electric_scooter", "fusion_lon": 0.0, "is_reserved": 0, "bike_id": "15ba64b6793a3f361b0797a4b8e5b5ad", "fusion_lat": 0.0, "is_disabled": 0, "rental_uris": {"ios": "https://dc.lft.to/lastmile_qr_scan", "android": "https://dc.lft.to/lastmile_qr_scan"}}, {"name": "6ad4c3fe7384a91eeca2a206169837d7", "lon": -77.009869, "lat": 38.872869, "type": "electric_scooter", "fusion_lon": 0.0, "is_reserved": 0, "bike_id": "6ad4c3fe7384a91eeca2a206169837d7", "fusion_lat": 0.0, "is_disabled": 0, "rental_uris": {"ios": "https://dc.lft.to/lastmile_qr_scan", "android": "https://dc.lft.to/lastmile_qr_scan"}}, {"name": "ddb6c87cc4d0897a776e5ecfe46e6a09", "lon": -76.96835733333333, "lat": 38.94321433333333, "type": "electric_bike", "fusion_lon": 0.0, "is_reserved": 0, "bike_id": "ddb6c87cc4d0897a776e5ecfe46e6a09", "fusion_lat": 0.0, "is_disabled": 0, "rental_uris": {"ios": "https://dc.lft.to/lastmile_qr_scan", "android": "https://dc.lft.to/lastmile_qr_scan"}}, {"name": "b5107d182950dfd8efd19c769c888f84", "lon": -76.92509433333333, "lat": 38.959205833333336, "type": "electric_bike", "fusion_lon": 0.0, "is_reserved": 0, "bike_id": "b5107d182950dfd8efd19c769c888f84", "fusion_lat": 0.0, "is_disabled": 0, "rental_uris": {"ios": "https://dc.lft.to/lastmile_qr_scan", "android": "https://dc.lft.to/lastmile_qr_scan"}}, {"name": "601ee0e673676cdb1d3edf112ae04150", "lon": -77.02966466666666, "lat": 38.90521183333333, "type": "electric_scooter", "fusion_lon": 0.0, "is_reserved": 0, "bike_id": "601ee0e673676cdb1d3edf112ae04150", "fusion_lat": 0.0, "is_disabled": 0, "rental_uris": {"ios": "https://dc.lft.to/lastmile_qr_scan", "android": "https://dc.lft.to/lastmile_qr_scan"}}, {"name": "6e17a7b6ed02b7328508552c5f5f7e2a", "lon": -77.033059, "lat": 38.956314, "type": "electric_scooter", "fusion_lon": 0.0, "is_reserved": 0, "bike_id": "6e17a7b6ed02b7328508552c5f5f7e2a", "fusion_lat": 0.0, "is_disabled": 0, "rental_uris": {"ios": "https://dc.lft.to/lastmile_qr_scan", "android": "https://dc.lft.to/lastmile_qr_scan"}}, {"name": "d722849e0779c552acff75d997c79e14", "lon": -77.02962016666666, "lat": 38.91677033333333, "type": "electric_scooter", "fusion_lon": 0.0, "is_reserved": 0, "bike_id": "d722849e0779c552acff75d997c79e14", "fusion_lat": 0.0, "is_disabled": 0, "rental_uris": {"ios": "https://dc.lft.to/lastmile_qr_scan", "android": "https://dc.lft.to/lastmile_qr_scan"}}, {"name": "2424c6afbae33969dad63e1c96df6305", "lon": -77.02756933333333, "lat": 38.954226, "type": "electric_scooter", "fusion_lon": 0.0, "is_reserved": 0, "bike_id": "2424c6afbae33969dad63e1c96df6305", "fusion_lat": 0.0, "is_disabled": 0, "rental_uris": {"ios": "https://dc.lft.to/lastmile_qr_scan", "android": "https://dc.lft.to/lastmile_qr_scan"}}, {"name": "24e14c8f727180e7ab1eaff4bde980c6", "lon": -76.98992316666667, "lat": 38.863876833333336, "type": "electric_bike", "fusion_lon": 0.0, "is_reserved": 0, "bike_id": "24e14c8f727180e7ab1eaff4bde980c6", "fusion_lat": 0.0, "is_disabled": 0, "rental_uris": {"ios": "https://dc.lft.to/lastmile_qr_scan", "android": "https://dc.lft.to/lastmile_qr_scan"}}, {"name": "58166ca6a0c443c109ba8beefba89c39", "lon": -77.02387316666666, "lat": 38.90743066666667, "type": "electric_scooter", "fusion_lon": 0.0, "is_reserved": 0, "bike_id": "58166ca6a0c443c109ba8beefba89c39", "fusion_lat": 0.0, "is_disabled": 0, "rental_uris": {"ios": "https://dc.lft.to/lastmile_qr_scan", "android": "https://dc.lft.to/lastmile_qr_scan"}}, {"name": "d93eff8ca7e8f1ee08a9a898ac33e6d1", "lon": -77.058597, "lat": 38.9360455, "type": "electric_scooter", "fusion_lon": 0.0, "is_reserved": 0, "bike_id": "d93eff8ca7e8f1ee08a9a898ac33e6d1", "fusion_lat": 0.0, "is_disabled": 0, "rental_uris": {"ios": "https://dc.lft.to/lastmile_qr_scan", "android": "https://dc.lft.to/lastmile_qr_scan"}}, {"name": "a9d286868d5d7ae8ca4981376bc28b8f", "lon": -76.99084316666666, "lat": 38.862334, "type": "electric_bike", "fusion_lon": 0.0, "is_reserved": 0, "bike_id": "a9d286868d5d7ae8ca4981376bc28b8f", "fusion_lat": 0.0, "is_disabled": 0, "rental_uris": {"ios": "https://dc.lft.to/lastmile_qr_scan", "android": "https://dc.lft.to/lastmile_qr_scan"}}, {"name": "b3713f7987db3f087b073f0358f69c76", "lon": -77.02820883333334, "lat": 38.88730433333333, "type": "electric_scooter", "fusion_lon": 0.0, "is_reserved": 0, "bike_id": "b3713f7987db3f087b073f0358f69c76", "fusion_lat": 0.0, "is_disabled": 0, "rental_uris": {"ios": "https://dc.lft.to/lastmile_qr_scan", "android": "https://dc.lft.to/lastmile_qr_scan"}}, {"name": "5a431cb7de38cea64d2f6c4b43abbdb2", "lon": -77.04611983333334, "lat": 38.902534833333334, "type": "electric_scooter", "fusion_lon": 0.0, "is_reserved": 0, "bike_id": "5a431cb7de38cea64d2f6c4b43abbdb2", "fusion_lat": 0.0, "is_disabled": 0, "rental_uris": {"ios": "https://dc.lft.to/lastmile_qr_scan", "android": "https://dc.lft.to/lastmile_qr_scan"}}, {"name": "8bb36f88d3d772d56da016f70e42b094", "lon": -77.09480633333334, "lat": 39.030464333333335, "type": "electric_bike", "fusion_lon": 0.0, "is_reserved": 0, "bike_id": "8bb36f88d3d772d56da016f70e42b094", "fusion_lat": 0.0, "is_disabled": 0, "rental_uris": {"ios": "https://dc.lft.to/lastmile_qr_scan", "android": "https://dc.lft.to/lastmile_qr_scan"}}, {"name": "54701c8f963d0ba113d253528dce013c", "lon": -77.02384, "lat": 38.916516666666666, "type": "electric_scooter", "fusion_lon": 0.0, "is_reserved": 0, "bike_id": "54701c8f963d0ba113d253528dce013c", "fusion_lat": 0.0, "is_disabled": 0, "rental_uris": {"ios": "https://dc.lft.to/lastmile_qr_scan", "android": "https://dc.lft.to/lastmile_qr_scan"}}, {"name": "61ea85f6a6371bcc299c2b9deae4cb2f", "lon": -77.0007055, "lat": 38.901395, "type": "electric_scooter", "fusion_lon": 0.0, "is_reserved": 0, "bike_id": "61ea85f6a6371bcc299c2b9deae4cb2f", "fusion_lat": 0.0, "is_disabled": 0, "rental_uris": {"ios": "https://dc.lft.to/lastmile_qr_scan", "android": "https://dc.lft.to/lastmile_qr_scan"}}, {"name": "ca6cf61cfa20582e91f2f779fab6bbaa", "lon": -77.03444016666667, "lat": 38.910061, "type": "electric_scooter", "fusion_lon": 0.0, "is_reserved": 0, "bike_id": "ca6cf61cfa20582e91f2f779fab6bbaa", "fusion_lat": 0.0, "is_disabled": 0, "rental_uris": {"ios": "https://dc.lft.to/lastmile_qr_scan", "android": "https://dc.lft.to/lastmile_qr_scan"}}, {"name": "76eb715cf9aab0446a6c2c01ab6b61b0", "lon": -77.02956483333334, "lat": 38.939772833333336, "type": "electric_scooter", "fusion_lon": 0.0, "is_reserved": 0, "bike_id": "76eb715cf9aab0446a6c2c01ab6b61b0", "fusion_lat": 0.0, "is_disabled": 0, "rental_uris": {"ios": "https://dc.lft.to/lastmile_qr_scan", "android": "https://dc.lft.to/lastmile_qr_scan"}}, {"name": "247ee3a7e391c78cbb22b156daf3931d", "lon": -77.02593, "lat": 38.963902, "type": "electric_scooter", "fusion_lon": 0.0, "is_reserved": 0, "bike_id": "247ee3a7e391c78cbb22b156daf3931d", "fusion_lat": 0.0, "is_disabled": 0, "rental_uris": {"ios": "https://dc.lft.to/lastmile_qr_scan", "android": "https://dc.lft.to/lastmile_qr_scan"}}, {"name": "f31edd8cba741ac26a8f2e31acbbd4eb", "lon": -77.03705283333333, "lat": 38.92033583333333, "type": "electric_bike", "fusion_lon": 0.0, "is_reserved": 0, "bike_id": "f31edd8cba741ac26a8f2e31acbbd4eb", "fusion_lat": 0.0, "is_disabled": 0, "rental_uris": {"ios": "https://dc.lft.to/lastmile_qr_scan", "android": "https://dc.lft.to/lastmile_qr_scan"}}, {"name": "316c322103b4519172c407e658cd687d", "lon": -77.060709, "lat": 38.88576783333333, "type": "electric_bike", "fusion_lon": 0.0, "is_reserved": 0, "bike_id": "316c322103b4519172c407e658cd687d", "fusion_lat": 0.0, "is_disabled": 0, "rental_uris": {"ios": "https://dc.lft.to/lastmile_qr_scan", "android": "https://dc.lft.to/lastmile_qr_scan"}}, {"name": "b58fc0fef4b02d5ad30b95957c564127", "lon": -77.01604716666667, "lat": 38.89962366666666, "type": "electric_scooter", "fusion_lon": 0.0, "is_reserved": 0, "bike_id": "b58fc0fef4b02d5ad30b95957c564127", "fusion_lat": 0.0, "is_disabled": 0, "rental_uris": {"ios": "https://dc.lft.to/lastmile_qr_scan", "android": "https://dc.lft.to/lastmile_qr_scan"}}, {"name": "a02911d2c81703ce6d857be933d705a8", "lon": -77.011919, "lat": 38.90018383333334, "type": "electric_scooter", "fusion_lon": 0.0, "is_reserved": 0, "bike_id": "a02911d2c81703ce6d857be933d705a8", "fusion_lat": 0.0, "is_disabled": 0, "rental_uris": {"ios": "https://dc.lft.to/lastmile_qr_scan", "android": "https://dc.lft.to/lastmile_qr_scan"}}, {"name": "1b49504382b18375ad2a703f747f3d25", "lon": -77.025501, "lat": 38.942232, "type": "electric_scooter", "fusion_lon": 0.0, "is_reserved": 0, "bike_id": "1b49504382b18375ad2a703f747f3d25", "fusion_lat": 0.0, "is_disabled": 0, "rental_uris": {"ios": "https://dc.lft.to/lastmile_qr_scan", "android": "https://dc.lft.to/lastmile_qr_scan"}}, {"name": "7ee949d8d99b79a37aed30a5137f0bea", "lon": -77.13096283333333, "lat": 39.0243095, "type": "electric_bike", "fusion_lon": 0.0, "is_reserved": 0, "bike_id": "7ee949d8d99b79a37aed30a5137f0bea", "fusion_lat": 0.0, "is_disabled": 0, "rental_uris": {"ios": "https://dc.lft.to/lastmile_qr_scan", "android": "https://dc.lft.to/lastmile_qr_scan"}}, {"name": "3c99a7a1445a76b9728706ddc82789bc", "lon": -77.0274725, "lat": 38.951595833333336, "type": "electric_scooter", "fusion_lon": 0.0, "is_reserved": 0, "bike_id": "3c99a7a1445a76b9728706ddc82789bc", "fusion_lat": 0.0, "is_disabled": 0, "rental_uris": {"ios": "https://dc.lft.to/lastmile_qr_scan", "android": "https://dc.lft.to/lastmile_qr_scan"}}, {"name": "2941a879888ee8fbf4aa5c8d5721ec3c", "lon": -77.04301416666667, "lat": 38.923365833333335, "type": "electric_scooter", "fusion_lon": 0.0, "is_reserved": 0, "bike_id": "2941a879888ee8fbf4aa5c8d5721ec3c", "fusion_lat": 0.0, "is_disabled": 0, "rental_uris": {"ios": "https://dc.lft.to/lastmile_qr_scan", "android": "https://dc.lft.to/lastmile_qr_scan"}}, {"name": "8ea55760ce21d30d893771431dc1e3ac", "lon": -77.055435, "lat": 38.907615, "type": "electric_scooter", "fusion_lon": 0.0, "is_reserved": 0, "bike_id": "8ea55760ce21d30d893771431dc1e3ac", "fusion_lat": 0.0, "is_disabled": 0, "rental_uris": {"ios": "https://dc.lft.to/lastmile_qr_scan", "android": "https://dc.lft.to/lastmile_qr_scan"}}, {"name": "53801de69b428b33e0e1fe6a0bf5950e", "lon": -77.0176895, "lat": 38.877121833333334, "type": "electric_scooter", "fusion_lon": 0.0, "is_reserved": 0, "bike_id": "53801de69b428b33e0e1fe6a0bf5950e", "fusion_lat": 0.0, "is_disabled": 0, "rental_uris": {"ios": "https://dc.lft.to/lastmile_qr_scan", "android": "https://dc.lft.to/lastmile_qr_scan"}}, {"name": "068fc2000c80812d62b69e1454128194", "lon": -77.0476315, "lat": 38.917545833333335, "type": "electric_scooter", "fusion_lon": 0.0, "is_reserved": 0, "bike_id": "068fc2000c80812d62b69e1454128194", "fusion_lat": 0.0, "is_disabled": 0, "rental_uris": {"ios": "https://dc.lft.to/lastmile_qr_scan", "android": "https://dc.lft.to/lastmile_qr_scan"}}, {"name": "90ef70088611e539d453ed264620920d", "lon": -77.033108, "lat": 38.94709366666667, "type": "electric_scooter", "fusion_lon": 0.0, "is_reserved": 0, "bike_id": "90ef70088611e539d453ed264620920d", "fusion_lat": 0.0, "is_disabled": 0, "rental_uris": {"ios": "https://dc.lft.to/lastmile_qr_scan", "android": "https://dc.lft.to/lastmile_qr_scan"}}, {"name": "a3bff2d8c4223416da2e61a750454d4d", "lon": -76.973291, "lat": 38.904108, "type": "electric_scooter", "fusion_lon": 0.0, "is_reserved": 0, "bike_id": "a3bff2d8c4223416da2e61a750454d4d", "fusion_lat": 0.0, "is_disabled": 0, "rental_uris": {"ios": "https://dc.lft.to/lastmile_qr_scan", "android": "https://dc.lft.to/lastmile_qr_scan"}}, {"name": "d14dda633d498b72b5b32a62976d9ad7", "lon": -77.08576533333333, "lat": 38.874208333333335, "type": "electric_bike", "fusion_lon": 0.0, "is_reserved": 0, "bike_id": "d14dda633d498b72b5b32a62976d9ad7", "fusion_lat": 0.0, "is_disabled": 0, "rental_uris": {"ios": "https://dc.lft.to/lastmile_qr_scan", "android": "https://dc.lft.to/lastmile_qr_scan"}}, {"name": "e8294d8ca95087b750c8ced64378fb3e", "lon": -77.00383733333334, "lat": 38.92360033333333, "type": "electric_scooter", "fusion_lon": 0.0, "is_reserved": 0, "bike_id": "e8294d8ca95087b750c8ced64378fb3e", "fusion_lat": 0.0, "is_disabled": 0, "rental_uris": {"ios": "https://dc.lft.to/lastmile_qr_scan", "android": "https://dc.lft.to/lastmile_qr_scan"}}, {"name": "d4414f544184f245698588552ff8d94a", "lon": -76.93182783333333, "lat": 38.8987555, "type": "electric_scooter", "fusion_lon": 0.0, "is_reserved": 0, "bike_id": "d4414f544184f245698588552ff8d94a", "fusion_lat": 0.0, "is_disabled": 0, "rental_uris": {"ios": "https://dc.lft.to/lastmile_qr_scan", "android": "https://dc.lft.to/lastmile_qr_scan"}}, {"name": "64154a15ce5628f9649716bfeac62f8b", "lon": -77.03356933333333, "lat": 38.90722816666667, "type": "electric_scooter", "fusion_lon": 0.0, "is_reserved": 0, "bike_id": "64154a15ce5628f9649716bfeac62f8b", "fusion_lat": 0.0, "is_disabled": 0, "rental_uris": {"ios": "https://dc.lft.to/lastmile_qr_scan", "android": "https://dc.lft.to/lastmile_qr_scan"}}, {"name": "3fcfa91ec14a27dc0760e9926751665b", "lon": -77.0236675, "lat": 38.8921995, "type": "electric_scooter", "fusion_lon": 0.0, "is_reserved": 0, "bike_id": "3fcfa91ec14a27dc0760e9926751665b", "fusion_lat": 0.0, "is_disabled": 0, "rental_uris": {"ios": "https://dc.lft.to/lastmile_qr_scan", "android": "https://dc.lft.to/lastmile_qr_scan"}}, {"name": "ed022b43f4d37a966a1a9978f44a3474", "lon": -77.03475233333333, "lat": 38.90720233333333, "type": "electric_scooter", "fusion_lon": 0.0, "is_reserved": 0, "bike_id": "ed022b43f4d37a966a1a9978f44a3474", "fusion_lat": 0.0, "is_disabled": 0, "rental_uris": {"ios": "https://dc.lft.to/lastmile_qr_scan", "android": "https://dc.lft.to/lastmile_qr_scan"}}, {"name": "bd0c377c2f75252e507bf1b79d39e838", "lon": -77.0363615, "lat": 38.92242016666667, "type": "electric_scooter", "fusion_lon": 0.0, "is_reserved": 0, "bike_id": "bd0c377c2f75252e507bf1b79d39e838", "fusion_lat": 0.0, "is_disabled": 0, "rental_uris": {"ios": "https://dc.lft.to/lastmile_qr_scan", "android": "https://dc.lft.to/lastmile_qr_scan"}}, {"name": "02b9e55688347e2c3eec4d8d514236a3", "lon": -77.048165, "lat": 38.904554, "type": "electric_scooter", "fusion_lon": 0.0, "is_reserved": 0, "bike_id": "02b9e55688347e2c3eec4d8d514236a3", "fusion_lat": 0.0, "is_disabled": 0, "rental_uris": {"ios": "https://dc.lft.to/lastmile_qr_scan", "android": "https://dc.lft.to/lastmile_qr_scan"}}, {"name": "b3000647e5e6bd42b39944a351953b9e", "lon": -77.05035916666667, "lat": 38.90087316666666, "type": "electric_scooter", "fusion_lon": 0.0, "is_reserved": 0, "bike_id": "b3000647e5e6bd42b39944a351953b9e", "fusion_lat": 0.0, "is_disabled": 0, "rental_uris": {"ios": "https://dc.lft.to/lastmile_qr_scan", "android": "https://dc.lft.to/lastmile_qr_scan"}}, {"name": "faa93e60d740bf81b485857684e3d823", "lon": -77.1012855, "lat": 38.852075666666664, "type": "electric_bike", "fusion_lon": 0.0, "is_reserved": 0, "bike_id": "faa93e60d740bf81b485857684e3d823", "fusion_lat": 0.0, "is_disabled": 0, "rental_uris": {"ios": "https://dc.lft.to/lastmile_qr_scan", "android": "https://dc.lft.to/lastmile_qr_scan"}}, {"name": "373c35e9b9dfd776d04c8b020f8151b8", "lon": -77.041795, "lat": 38.9197615, "type": "electric_scooter", "fusion_lon": 0.0, "is_reserved": 0, "bike_id": "373c35e9b9dfd776d04c8b020f8151b8", "fusion_lat": 0.0, "is_disabled": 0, "rental_uris": {"ios": "https://dc.lft.to/lastmile_qr_scan", "android": "https://dc.lft.to/lastmile_qr_scan"}}, {"name": "4c2f9ee98bdb57e0a61d48735edf47e8", "lon": -77.0248255, "lat": 38.93860816666667, "type": "electric_scooter", "fusion_lon": 0.0, "is_reserved": 0, "bike_id": "4c2f9ee98bdb57e0a61d48735edf47e8", "fusion_lat": 0.0, "is_disabled": 0, "rental_uris": {"ios": "https://dc.lft.to/lastmile_qr_scan", "android": "https://dc.lft.to/lastmile_qr_scan"}}, {"name": "97567ec14b3b8f8a8abc51003b5a15d0", "lon": -77.05583433333334, "lat": 38.893251666666664, "type": "electric_scooter", "fusion_lon": 0.0, "is_reserved": 0, "bike_id": "97567ec14b3b8f8a8abc51003b5a15d0", "fusion_lat": 0.0, "is_disabled": 0, "rental_uris": {"ios": "https://dc.lft.to/lastmile_qr_scan", "android": "https://dc.lft.to/lastmile_qr_scan"}}, {"name": "3940cc9078629d7587a51e48214306f3", "lon": -77.01162533333333, "lat": 38.87235016666666, "type": "electric_bike", "fusion_lon": 0.0, "is_reserved": 0, "bike_id": "3940cc9078629d7587a51e48214306f3", "fusion_lat": 0.0, "is_disabled": 0, "rental_uris": {"ios": "https://dc.lft.to/lastmile_qr_scan", "android": "https://dc.lft.to/lastmile_qr_scan"}}, {"name": "2a31d78b190a6888d0fd51a2fcd83071", "lon": -77.00740383333333, "lat": 38.89841766666667, "type": "electric_scooter", "fusion_lon": 0.0, "is_reserved": 0, "bike_id": "2a31d78b190a6888d0fd51a2fcd83071", "fusion_lat": 0.0, "is_disabled": 0, "rental_uris": {"ios": "https://dc.lft.to/lastmile_qr_scan", "android": "https://dc.lft.to/lastmile_qr_scan"}}, {"name": "b8970e2d592da9728e654fa2394893cd", "lon": -77.02529733333333, "lat": 38.94257616666667, "type": "electric_scooter", "fusion_lon": 0.0, "is_reserved": 0, "bike_id": "b8970e2d592da9728e654fa2394893cd", "fusion_lat": 0.0, "is_disabled": 0, "rental_uris": {"ios": "https://dc.lft.to/lastmile_qr_scan", "android": "https://dc.lft.to/lastmile_qr_scan"}}, {"name": "db47bc89e9d9472e9a67aa3b51b35fdf", "lon": -77.0499765, "lat": 38.904265, "type": "electric_scooter", "fusion_lon": 0.0, "is_reserved": 0, "bike_id": "db47bc89e9d9472e9a67aa3b51b35fdf", "fusion_lat": 0.0, "is_disabled": 0, "rental_uris": {"ios": "https://dc.lft.to/lastmile_qr_scan", "android": "https://dc.lft.to/lastmile_qr_scan"}}, {"name": "467f3c1e503661d93c1ef0649d01447b", "lon": -76.98553283333334, "lat": 38.90419033333333, "type": "electric_scooter", "fusion_lon": 0.0, "is_reserved": 0, "bike_id": "467f3c1e503661d93c1ef0649d01447b", "fusion_lat": 0.0, "is_disabled": 0, "rental_uris": {"ios": "https://dc.lft.to/lastmile_qr_scan", "android": "https://dc.lft.to/lastmile_qr_scan"}}, {"name": "060d72d76a40dad014ce9a6efd197da2", "lon": -77.04619, "lat": 38.90961166666666, "type": "electric_scooter", "fusion_lon": 0.0, "is_reserved": 0, "bike_id": "060d72d76a40dad014ce9a6efd197da2", "fusion_lat": 0.0, "is_disabled": 0, "rental_uris": {"ios": "https://dc.lft.to/lastmile_qr_scan", "android": "https://dc.lft.to/lastmile_qr_scan"}}, {"name": "cd04b11591c8d441bbf8085d08bfe45a", "lon": -76.978325, "lat": 38.87205933333333, "type": "electric_scooter", "fusion_lon": 0.0, "is_reserved": 0, "bike_id": "cd04b11591c8d441bbf8085d08bfe45a", "fusion_lat": 0.0, "is_disabled": 0, "rental_uris": {"ios": "https://dc.lft.to/lastmile_qr_scan", "android": "https://dc.lft.to/lastmile_qr_scan"}}, {"name": "acb2e45517af4b18af1f01bfe544402c", "lon": -77.04268433333333, "lat": 38.91328816666667, "type": "electric_scooter", "fusion_lon": 0.0, "is_reserved": 0, "bike_id": "acb2e45517af4b18af1f01bfe544402c", "fusion_lat": 0.0, "is_disabled": 0, "rental_uris": {"ios": "https://dc.lft.to/lastmile_qr_scan", "android": "https://dc.lft.to/lastmile_qr_scan"}}, {"name": "24b3b127745309761c8f0857904eb9e6", "lon": -77.01481966666667, "lat": 38.88131633333333, "type": "electric_scooter", "fusion_lon": 0.0, "is_reserved": 0, "bike_id": "24b3b127745309761c8f0857904eb9e6", "fusion_lat": 0.0, "is_disabled": 0, "rental_uris": {"ios": "https://dc.lft.to/lastmile_qr_scan", "android": "https://dc.lft.to/lastmile_qr_scan"}}, {"name": "b4cfe026ba1a6a3f79357a04d2db57ac", "lon": -76.98889883333334, "lat": 38.866586166666664, "type": "electric_scooter", "fusion_lon": 0.0, "is_reserved": 0, "bike_id": "b4cfe026ba1a6a3f79357a04d2db57ac", "fusion_lat": 0.0, "is_disabled": 0, "rental_uris": {"ios": "https://dc.lft.to/lastmile_qr_scan", "android": "https://dc.lft.to/lastmile_qr_scan"}}, {"name": "fac8da1b017db8d8c62c4122fb3c1a2a", "lon": -77.03779583333333, "lat": 38.91690633333333, "type": "electric_scooter", "fusion_lon": 0.0, "is_reserved": 0, "bike_id": "fac8da1b017db8d8c62c4122fb3c1a2a", "fusion_lat": 0.0, "is_disabled": 0, "rental_uris": {"ios": "https://dc.lft.to/lastmile_qr_scan", "android": "https://dc.lft.to/lastmile_qr_scan"}}, {"name": "a211e3fab9daaaa751b90734f36e9cfb", "lon": -77.00937733333333, "lat": 38.874608333333335, "type": "electric_scooter", "fusion_lon": 0.0, "is_reserved": 0, "bike_id": "a211e3fab9daaaa751b90734f36e9cfb", "fusion_lat": 0.0, "is_disabled": 0, "rental_uris": {"ios": "https://dc.lft.to/lastmile_qr_scan", "android": "https://dc.lft.to/lastmile_qr_scan"}}, {"name": "c427a6d12bf76671a4d3e7d9db72dda2", "lon": -77.029772, "lat": 38.90726433333333, "type": "electric_scooter", "fusion_lon": 0.0, "is_reserved": 0, "bike_id": "c427a6d12bf76671a4d3e7d9db72dda2", "fusion_lat": 0.0, "is_disabled": 0, "rental_uris": {"ios": "https://dc.lft.to/lastmile_qr_scan", "android": "https://dc.lft.to/lastmile_qr_scan"}}, {"name": "ce6a83297d381f023b83371755f2966b", "lon": -77.04776716666667, "lat": 38.9005255, "type": "electric_scooter", "fusion_lon": 0.0, "is_reserved": 0, "bike_id": "ce6a83297d381f023b83371755f2966b", "fusion_lat": 0.0, "is_disabled": 0, "rental_uris": {"ios": "https://dc.lft.to/lastmile_qr_scan", "android": "https://dc.lft.to/lastmile_qr_scan"}}, {"name": "2d136a3b476bb83b96558f8487989d4e", "lon": -77.0268855, "lat": 38.90970433333333, "type": "electric_scooter", "fusion_lon": 0.0, "is_reserved": 0, "bike_id": "2d136a3b476bb83b96558f8487989d4e", "fusion_lat": 0.0, "is_disabled": 0, "rental_uris": {"ios": "https://dc.lft.to/lastmile_qr_scan", "android": "https://dc.lft.to/lastmile_qr_scan"}}, {"name": "77423fed5ce8174686bac5617bc2ec78", "lon": -77.0208895, "lat": 38.93714933333333, "type": "electric_bike", "fusion_lon": 0.0, "is_reserved": 0, "bike_id": "77423fed5ce8174686bac5617bc2ec78", "fusion_lat": 0.0, "is_disabled": 0, "rental_uris": {"ios": "https://dc.lft.to/lastmile_qr_scan", "android": "https://dc.lft.to/lastmile_qr_scan"}}, {"name": "2806837391e82c866bc0035b4e208d0a", "lon": -77.02707366666667, "lat": 38.90474916666667, "type": "electric_scooter", "fusion_lon": 0.0, "is_reserved": 0, "bike_id": "2806837391e82c866bc0035b4e208d0a", "fusion_lat": 0.0, "is_disabled": 0, "rental_uris": {"ios": "https://dc.lft.to/lastmile_qr_scan", "android": "https://dc.lft.to/lastmile_qr_scan"}}, {"name": "981c0d6856f0db95df54c0a34f97d4c3", "lon": -77.03100066666667, "lat": 38.950683166666664, "type": "electric_scooter", "fusion_lon": 0.0, "is_reserved": 0, "bike_id": "981c0d6856f0db95df54c0a34f97d4c3", "fusion_lat": 0.0, "is_disabled": 0, "rental_uris": {"ios": "https://dc.lft.to/lastmile_qr_scan", "android": "https://dc.lft.to/lastmile_qr_scan"}}, {"name": "e53295e45d768e5087176a518134eba1", "lon": -77.04532316666666, "lat": 38.93457133333333, "type": "electric_bike", "fusion_lon": 0.0, "is_reserved": 0, "bike_id": "e53295e45d768e5087176a518134eba1", "fusion_lat": 0.0, "is_disabled": 0, "rental_uris": {"ios": "https://dc.lft.to/lastmile_qr_scan", "android": "https://dc.lft.to/lastmile_qr_scan"}}, {"name": "8fb92658dea832c626d27807e62f6283", "lon": -77.08393066666666, "lat": 38.907987166666665, "type": "electric_scooter", "fusion_lon": 0.0, "is_reserved": 0, "bike_id": "8fb92658dea832c626d27807e62f6283", "fusion_lat": 0.0, "is_disabled": 0, "rental_uris": {"ios": "https://dc.lft.to/lastmile_qr_scan", "android": "https://dc.lft.to/lastmile_qr_scan"}}, {"name": "099bf3d0c632bd40b33bb2e82dda847b", "lon": -76.96907783333333, "lat": 38.846103, "type": "electric_bike", "fusion_lon": 0.0, "is_reserved": 0, "bike_id": "099bf3d0c632bd40b33bb2e82dda847b", "fusion_lat": 0.0, "is_disabled": 0, "rental_uris": {"ios": "https://dc.lft.to/lastmile_qr_scan", "android": "https://dc.lft.to/lastmile_qr_scan"}}, {"name": "f0952842fbcabe6d4e1de337e97af4f2", "lon": -76.997756, "lat": 38.86210466666667, "type": "electric_bike", "fusion_lon": 0.0, "is_reserved": 0, "bike_id": "f0952842fbcabe6d4e1de337e97af4f2", "fusion_lat": 0.0, "is_disabled": 0, "rental_uris": {"ios": "https://dc.lft.to/lastmile_qr_scan", "android": "https://dc.lft.to/lastmile_qr_scan"}}, {"name": "a1b921216e690aff51acb472e1557818", "lon": -77.03452833333333, "lat": 38.90585166666666, "type": "electric_scooter", "fusion_lon": 0.0, "is_reserved": 0, "bike_id": "a1b921216e690aff51acb472e1557818", "fusion_lat": 0.0, "is_disabled": 0, "rental_uris": {"ios": "https://dc.lft.to/lastmile_qr_scan", "android": "https://dc.lft.to/lastmile_qr_scan"}}, {"name": "b50f5d5be7f137769df4aa9e7355b45d", "lon": -77.0448745, "lat": 38.84286633333333, "type": "electric_bike", "fusion_lon": 0.0, "is_reserved": 0, "bike_id": "b50f5d5be7f137769df4aa9e7355b45d", "fusion_lat": 0.0, "is_disabled": 0, "rental_uris": {"ios": "https://dc.lft.to/lastmile_qr_scan", "android": "https://dc.lft.to/lastmile_qr_scan"}}, {"name": "ba61b62551f9b2beb721a219d779f712", "lon": -77.0726035, "lat": 38.93341066666667, "type": "electric_bike", "fusion_lon": 0.0, "is_reserved": 0, "bike_id": "ba61b62551f9b2beb721a219d779f712", "fusion_lat": 0.0, "is_disabled": 0, "rental_uris": {"ios": "https://dc.lft.to/lastmile_qr_scan", "android": "https://dc.lft.to/lastmile_qr_scan"}}, {"name": "f4b66bb9ab2cdf53481274e9fa8259fc", "lon": -76.949297, "lat": 38.89341183333333, "type": "electric_scooter", "fusion_lon": 0.0, "is_reserved": 0, "bike_id": "f4b66bb9ab2cdf53481274e9fa8259fc", "fusion_lat": 0.0, "is_disabled": 0, "rental_uris": {"ios": "https://dc.lft.to/lastmile_qr_scan", "android": "https://dc.lft.to/lastmile_qr_scan"}}, {"name": "686cf265e60be0f514854dcd0fa8dd38", "lon": -77.0450365, "lat": 38.911938666666664, "type": "electric_scooter", "fusion_lon": 0.0, "is_reserved": 0, "bike_id": "686cf265e60be0f514854dcd0fa8dd38", "fusion_lat": 0.0, "is_disabled": 0, "rental_uris": {"ios": "https://dc.lft.to/lastmile_qr_scan", "android": "https://dc.lft.to/lastmile_qr_scan"}}, {"name": "af7cf62d549676ac4558008a5b754559", "lon": -76.998312, "lat": 38.8847055, "type": "electric_scooter", "fusion_lon": 0.0, "is_reserved": 0, "bike_id": "af7cf62d549676ac4558008a5b754559", "fusion_lat": 0.0, "is_disabled": 0, "rental_uris": {"ios": "https://dc.lft.to/lastmile_qr_scan", "android": "https://dc.lft.to/lastmile_qr_scan"}}, {"name": "77d051af9420c03a778a9f924f909ea6", "lon": -77.00563316666667, "lat": 38.87902283333333, "type": "electric_scooter", "fusion_lon": 0.0, "is_reserved": 0, "bike_id": "77d051af9420c03a778a9f924f909ea6", "fusion_lat": 0.0, "is_disabled": 0, "rental_uris": {"ios": "https://dc.lft.to/lastmile_qr_scan", "android": "https://dc.lft.to/lastmile_qr_scan"}}, {"name": "4c4947f34f864aa71e5c327a49ff6668", "lon": -77.042703, "lat": 38.908531833333335, "type": "electric_scooter", "fusion_lon": 0.0, "is_reserved": 0, "bike_id": "4c4947f34f864aa71e5c327a49ff6668", "fusion_lat": 0.0, "is_disabled": 0, "rental_uris": {"ios": "https://dc.lft.to/lastmile_qr_scan", "android": "https://dc.lft.to/lastmile_qr_scan"}}, {"name": "b5cd88b69520b019a0f2fd10995825c5", "lon": -77.038327, "lat": 38.921557166666666, "type": "electric_scooter", "fusion_lon": 0.0, "is_reserved": 0, "bike_id": "b5cd88b69520b019a0f2fd10995825c5", "fusion_lat": 0.0, "is_disabled": 0, "rental_uris": {"ios": "https://dc.lft.to/lastmile_qr_scan", "android": "https://dc.lft.to/lastmile_qr_scan"}}, {"name": "c966bcf8a6652e6fa695b06c27dbdeb1", "lon": -77.03759783333334, "lat": 38.916927, "type": "electric_scooter", "fusion_lon": 0.0, "is_reserved": 0, "bike_id": "c966bcf8a6652e6fa695b06c27dbdeb1", "fusion_lat": 0.0, "is_disabled": 0, "rental_uris": {"ios": "https://dc.lft.to/lastmile_qr_scan", "android": "https://dc.lft.to/lastmile_qr_scan"}}, {"name": "a277f082124a30852bd816ac7d376f91", "lon": -77.03121, "lat": 38.91561633333333, "type": "electric_scooter", "fusion_lon": 0.0, "is_reserved": 0, "bike_id": "a277f082124a30852bd816ac7d376f91", "fusion_lat": 0.0, "is_disabled": 0, "rental_uris": {"ios": "https://dc.lft.to/lastmile_qr_scan", "android": "https://dc.lft.to/lastmile_qr_scan"}}, {"name": "2965953af4b5bc344264f028da1f7507", "lon": -76.99299766666667, "lat": 38.90008383333333, "type": "electric_scooter", "fusion_lon": 0.0, "is_reserved": 0, "bike_id": "2965953af4b5bc344264f028da1f7507", "fusion_lat": 0.0, "is_disabled": 0, "rental_uris": {"ios": "https://dc.lft.to/lastmile_qr_scan", "android": "https://dc.lft.to/lastmile_qr_scan"}}, {"name": "8f9aec3e597d072134a9a79435fcf357", "lon": -77.01759433333334, "lat": 38.87683783333333, "type": "electric_scooter", "fusion_lon": 0.0, "is_reserved": 0, "bike_id": "8f9aec3e597d072134a9a79435fcf357", "fusion_lat": 0.0, "is_disabled": 0, "rental_uris": {"ios": "https://dc.lft.to/lastmile_qr_scan", "android": "https://dc.lft.to/lastmile_qr_scan"}}, {"name": "bbe52d9bab069d524fb110d08027cb63", "lon": -77.046912, "lat": 38.91576083333333, "type": "electric_scooter", "fusion_lon": 0.0, "is_reserved": 0, "bike_id": "bbe52d9bab069d524fb110d08027cb63", "fusion_lat": 0.0, "is_disabled": 0, "rental_uris": {"ios": "https://dc.lft.to/lastmile_qr_scan", "android": "https://dc.lft.to/lastmile_qr_scan"}}, {"name": "e3b7a8de5124b977533e85106da55cdb", "lon": -77.0499925, "lat": 38.8923195, "type": "electric_scooter", "fusion_lon": 0.0, "is_reserved": 0, "bike_id": "e3b7a8de5124b977533e85106da55cdb", "fusion_lat": 0.0, "is_disabled": 0, "rental_uris": {"ios": "https://dc.lft.to/lastmile_qr_scan", "android": "https://dc.lft.to/lastmile_qr_scan"}}, {"name": "57848dd6c7f7bac9af0f5006f09210b2", "lon": -77.01403683333334, "lat": 38.8874045, "type": "electric_scooter", "fusion_lon": 0.0, "is_reserved": 0, "bike_id": "57848dd6c7f7bac9af0f5006f09210b2", "fusion_lat": 0.0, "is_disabled": 0, "rental_uris": {"ios": "https://dc.lft.to/lastmile_qr_scan", "android": "https://dc.lft.to/lastmile_qr_scan"}}, {"name": "a9773a44402210c4fe5560081eed448a", "lon": -77.036441, "lat": 38.903851833333334, "type": "electric_scooter", "fusion_lon": 0.0, "is_reserved": 0, "bike_id": "a9773a44402210c4fe5560081eed448a", "fusion_lat": 0.0, "is_disabled": 0, "rental_uris": {"ios": "https://dc.lft.to/lastmile_qr_scan", "android": "https://dc.lft.to/lastmile_qr_scan"}}, {"name": "f7e3681bb01626421339e917abde496f", "lon": -77.02945366666667, "lat": 38.92074983333333, "type": "electric_scooter", "fusion_lon": 0.0, "is_reserved": 0, "bike_id": "f7e3681bb01626421339e917abde496f", "fusion_lat": 0.0, "is_disabled": 0, "rental_uris": {"ios": "https://dc.lft.to/lastmile_qr_scan", "android": "https://dc.lft.to/lastmile_qr_scan"}}, {"name": "e9725b41cc7d82a04bf5b5107d97be58", "lon": -77.0267715, "lat": 38.90239283333333, "type": "electric_scooter", "fusion_lon": 0.0, "is_reserved": 0, "bike_id": "e9725b41cc7d82a04bf5b5107d97be58", "fusion_lat": 0.0, "is_disabled": 0, "rental_uris": {"ios": "https://dc.lft.to/lastmile_qr_scan", "android": "https://dc.lft.to/lastmile_qr_scan"}}, {"name": "59a8a4381d7eafb97c845ffb49d7b5c7", "lon": -77.0945935, "lat": 38.8861415, "type": "electric_bike", "fusion_lon": 0.0, "is_reserved": 0, "bike_id": "59a8a4381d7eafb97c845ffb49d7b5c7", "fusion_lat": 0.0, "is_disabled": 0, "rental_uris": {"ios": "https://dc.lft.to/lastmile_qr_scan", "android": "https://dc.lft.to/lastmile_qr_scan"}}, {"name": "fbc16731f2482548e802f4e9eecb9b4e", "lon": -77.0354565, "lat": 38.907722, "type": "electric_scooter", "fusion_lon": 0.0, "is_reserved": 0, "bike_id": "fbc16731f2482548e802f4e9eecb9b4e", "fusion_lat": 0.0, "is_disabled": 0, "rental_uris": {"ios": "https://dc.lft.to/lastmile_qr_scan", "android": "https://dc.lft.to/lastmile_qr_scan"}}, {"name": "ab42c2fde16765328a42d267866befd9", "lon": -77.04120333333333, "lat": 38.921706666666665, "type": "electric_scooter", "fusion_lon": 0.0, "is_reserved": 0, "bike_id": "ab42c2fde16765328a42d267866befd9", "fusion_lat": 0.0, "is_disabled": 0, "rental_uris": {"ios": "https://dc.lft.to/lastmile_qr_scan", "android": "https://dc.lft.to/lastmile_qr_scan"}}, {"name": "8d718c5ad1b4929ef9c367114bc45e5b", "lon": -77.02897633333333, "lat": 38.88751033333333, "type": "electric_scooter", "fusion_lon": 0.0, "is_reserved": 0, "bike_id": "8d718c5ad1b4929ef9c367114bc45e5b", "fusion_lat": 0.0, "is_disabled": 0, "rental_uris": {"ios": "https://dc.lft.to/lastmile_qr_scan", "android": "https://dc.lft.to/lastmile_qr_scan"}}, {"name": "dfdec1b15bce046351127c1fc83134b9", "lon": -77.03262566666666, "lat": 38.92758033333333, "type": "electric_scooter", "fusion_lon": 0.0, "is_reserved": 0, "bike_id": "dfdec1b15bce046351127c1fc83134b9", "fusion_lat": 0.0, "is_disabled": 0, "rental_uris": {"ios": "https://dc.lft.to/lastmile_qr_scan", "android": "https://dc.lft.to/lastmile_qr_scan"}}, {"name": "191b67ddfe4d81acfd0a131027241735", "lon": -77.00334783333334, "lat": 38.88982433333334, "type": "electric_scooter", "fusion_lon": 0.0, "is_reserved": 0, "bike_id": "191b67ddfe4d81acfd0a131027241735", "fusion_lat": 0.0, "is_disabled": 0, "rental_uris": {"ios": "https://dc.lft.to/lastmile_qr_scan", "android": "https://dc.lft.to/lastmile_qr_scan"}}, {"name": "59c87378748dfc4d02732fe2d4ed5984", "lon": -76.93730783333334, "lat": 38.89014366666667, "type": "electric_scooter", "fusion_lon": 0.0, "is_reserved": 0, "bike_id": "59c87378748dfc4d02732fe2d4ed5984", "fusion_lat": 0.0, "is_disabled": 0, "rental_uris": {"ios": "https://dc.lft.to/lastmile_qr_scan", "android": "https://dc.lft.to/lastmile_qr_scan"}}, {"name": "a9b1ff32c286fbfa4718fbc5c8eb5e3f", "lon": -77.02194283333333, "lat": 38.91125133333333, "type": "electric_scooter", "fusion_lon": 0.0, "is_reserved": 0, "bike_id": "a9b1ff32c286fbfa4718fbc5c8eb5e3f", "fusion_lat": 0.0, "is_disabled": 0, "rental_uris": {"ios": "https://dc.lft.to/lastmile_qr_scan", "android": "https://dc.lft.to/lastmile_qr_scan"}}, {"name": "2d9033d71207ad2bc453d5572c6d10ad", "lon": -76.98839433333333, "lat": 38.9002955, "type": "electric_scooter", "fusion_lon": 0.0, "is_reserved": 0, "bike_id": "2d9033d71207ad2bc453d5572c6d10ad", "fusion_lat": 0.0, "is_disabled": 0, "rental_uris": {"ios": "https://dc.lft.to/lastmile_qr_scan", "android": "https://dc.lft.to/lastmile_qr_scan"}}, {"name": "62efee9ee7f8d3bf08872147a8c6784c", "lon": -77.02368466666667, "lat": 38.90218266666667, "type": "electric_scooter", "fusion_lon": 0.0, "is_reserved": 0, "bike_id": "62efee9ee7f8d3bf08872147a8c6784c", "fusion_lat": 0.0, "is_disabled": 0, "rental_uris": {"ios": "https://dc.lft.to/lastmile_qr_scan", "android": "https://dc.lft.to/lastmile_qr_scan"}}, {"name": "ff592f64ec831671fbfe13bc8da5b226", "lon": -77.04645633333334, "lat": 38.905517833333334, "type": "electric_scooter", "fusion_lon": 0.0, "is_reserved": 0, "bike_id": "ff592f64ec831671fbfe13bc8da5b226", "fusion_lat": 0.0, "is_disabled": 0, "rental_uris": {"ios": "https://dc.lft.to/lastmile_qr_scan", "android": "https://dc.lft.to/lastmile_qr_scan"}}, {"name": "efb8de5d214875be551dc14fb55cd790", "lon": -77.04183966666666, "lat": 38.892243, "type": "electric_scooter", "fusion_lon": 0.0, "is_reserved": 0, "bike_id": "efb8de5d214875be551dc14fb55cd790", "fusion_lat": 0.0, "is_disabled": 0, "rental_uris": {"ios": "https://dc.lft.to/lastmile_qr_scan", "android": "https://dc.lft.to/lastmile_qr_scan"}}, {"name": "f66cdc99b912db6403cb2add6147ad87", "lon": -77.0238205, "lat": 38.919593166666665, "type": "electric_scooter", "fusion_lon": 0.0, "is_reserved": 0, "bike_id": "f66cdc99b912db6403cb2add6147ad87", "fusion_lat": 0.0, "is_disabled": 0, "rental_uris": {"ios": "https://dc.lft.to/lastmile_qr_scan", "android": "https://dc.lft.to/lastmile_qr_scan"}}, {"name": "ca777dad3c282c70ec26e2ddeb7e5bcf", "lon": -77.01601666666667, "lat": 38.89956766666667, "type": "electric_scooter", "fusion_lon": 0.0, "is_reserved": 0, "bike_id": "ca777dad3c282c70ec26e2ddeb7e5bcf", "fusion_lat": 0.0, "is_disabled": 0, "rental_uris": {"ios": "https://dc.lft.to/lastmile_qr_scan", "android": "https://dc.lft.to/lastmile_qr_scan"}}, {"name": "7a57367b38a3a8009f8a56a12f33b9ed", "lon": -77.02960016666667, "lat": 38.92776, "type": "electric_bike", "fusion_lon": 0.0, "is_reserved": 0, "bike_id": "7a57367b38a3a8009f8a56a12f33b9ed", "fusion_lat": 0.0, "is_disabled": 0, "rental_uris": {"ios": "https://dc.lft.to/lastmile_qr_scan", "android": "https://dc.lft.to/lastmile_qr_scan"}}, {"name": "559f449d0a31e5d56b76a36b38b0184c", "lon": -77.0075545, "lat": 38.910259333333336, "type": "electric_scooter", "fusion_lon": 0.0, "is_reserved": 0, "bike_id": "559f449d0a31e5d56b76a36b38b0184c", "fusion_lat": 0.0, "is_disabled": 0, "rental_uris": {"ios": "https://dc.lft.to/lastmile_qr_scan", "android": "https://dc.lft.to/lastmile_qr_scan"}}, {"name": "344849d9874b9d5326b812df5a3a22cf", "lon": -77.04341933333333, "lat": 38.923436333333335, "type": "electric_scooter", "fusion_lon": 0.0, "is_reserved": 0, "bike_id": "344849d9874b9d5326b812df5a3a22cf", "fusion_lat": 0.0, "is_disabled": 0, "rental_uris": {"ios": "https://dc.lft.to/lastmile_qr_scan", "android": "https://dc.lft.to/lastmile_qr_scan"}}, {"name": "46694f2f70397f3733b2df15ec53bb65", "lon": -77.046857, "lat": 39.023915, "type": "electric_bike", "fusion_lon": 0.0, "is_reserved": 0, "bike_id": "46694f2f70397f3733b2df15ec53bb65", "fusion_lat": 0.0, "is_disabled": 0, "rental_uris": {"ios": "https://dc.lft.to/lastmile_qr_scan", "android": "https://dc.lft.to/lastmile_qr_scan"}}, {"name": "7d4c61203770ad44e84e90a516dc5d0a", "lon": -77.0628875, "lat": 38.964988166666664, "type": "electric_scooter", "fusion_lon": 0.0, "is_reserved": 0, "bike_id": "7d4c61203770ad44e84e90a516dc5d0a", "fusion_lat": 0.0, "is_disabled": 0, "rental_uris": {"ios": "https://dc.lft.to/lastmile_qr_scan", "android": "https://dc.lft.to/lastmile_qr_scan"}}, {"name": "800a1258e38e5caf912904a3ce47b396", "lon": -77.03472883333333, "lat": 38.90571083333333, "type": "electric_scooter", "fusion_lon": 0.0, "is_reserved": 0, "bike_id": "800a1258e38e5caf912904a3ce47b396", "fusion_lat": 0.0, "is_disabled": 0, "rental_uris": {"ios": "https://dc.lft.to/lastmile_qr_scan", "android": "https://dc.lft.to/lastmile_qr_scan"}}, {"name": "02bef4383a13de1299a18f7583d7da99", "lon": -77.02947733333333, "lat": 38.9052805, "type": "electric_scooter", "fusion_lon": 0.0, "is_reserved": 0, "bike_id": "02bef4383a13de1299a18f7583d7da99", "fusion_lat": 0.0, "is_disabled": 0, "rental_uris": {"ios": "https://dc.lft.to/lastmile_qr_scan", "android": "https://dc.lft.to/lastmile_qr_scan"}}, {"name": "33df35fd6ae88be2d0666996b283ed2d", "lon": -77.03500383333333, "lat": 38.917095333333336, "type": "electric_scooter", "fusion_lon": 0.0, "is_reserved": 0, "bike_id": "33df35fd6ae88be2d0666996b283ed2d", "fusion_lat": 0.0, "is_disabled": 0, "rental_uris": {"ios": "https://dc.lft.to/lastmile_qr_scan", "android": "https://dc.lft.to/lastmile_qr_scan"}}, {"name": "8234e0ca58f556da3b1de12b9914a0ce", "lon": -77.03638083333334, "lat": 38.92339616666667, "type": "electric_scooter", "fusion_lon": 0.0, "is_reserved": 0, "bike_id": "8234e0ca58f556da3b1de12b9914a0ce", "fusion_lat": 0.0, "is_disabled": 0, "rental_uris": {"ios": "https://dc.lft.to/lastmile_qr_scan", "android": "https://dc.lft.to/lastmile_qr_scan"}}, {"name": "95974a3e85799e3ac630a49d40a4fe6f", "lon": -77.050081, "lat": 38.90625566666667, "type": "electric_scooter", "fusion_lon": 0.0, "is_reserved": 0, "bike_id": "95974a3e85799e3ac630a49d40a4fe6f", "fusion_lat": 0.0, "is_disabled": 0, "rental_uris": {"ios": "https://dc.lft.to/lastmile_qr_scan", "android": "https://dc.lft.to/lastmile_qr_scan"}}, {"name": "c72e8af16555581b764417175970a8f5", "lon": -77.04317666666667, "lat": 38.905073, "type": "electric_scooter", "fusion_lon": 0.0, "is_reserved": 0, "bike_id": "c72e8af16555581b764417175970a8f5", "fusion_lat": 0.0, "is_disabled": 0, "rental_uris": {"ios": "https://dc.lft.to/lastmile_qr_scan", "android": "https://dc.lft.to/lastmile_qr_scan"}}, {"name": "8f03f6e2ec883c61ce9fc663b8e44977", "lon": -77.03709083333334, "lat": 38.93552233333333, "type": "electric_bike", "fusion_lon": 0.0, "is_reserved": 0, "bike_id": "8f03f6e2ec883c61ce9fc663b8e44977", "fusion_lat": 0.0, "is_disabled": 0, "rental_uris": {"ios": "https://dc.lft.to/lastmile_qr_scan", "android": "https://dc.lft.to/lastmile_qr_scan"}}, {"name": "fcbe6ba974ca74900447cea9bf9df9ec", "lon": -77.0120375, "lat": 38.87094616666667, "type": "electric_scooter", "fusion_lon": 0.0, "is_reserved": 0, "bike_id": "fcbe6ba974ca74900447cea9bf9df9ec", "fusion_lat": 0.0, "is_disabled": 0, "rental_uris": {"ios": "https://dc.lft.to/lastmile_qr_scan", "android": "https://dc.lft.to/lastmile_qr_scan"}}, {"name": "8f95a4b81ac75fef3b8b743b251eb054", "lon": -77.02183833333333, "lat": 38.908334333333336, "type": "electric_scooter", "fusion_lon": 0.0, "is_reserved": 0, "bike_id": "8f95a4b81ac75fef3b8b743b251eb054", "fusion_lat": 0.0, "is_disabled": 0, "rental_uris": {"ios": "https://dc.lft.to/lastmile_qr_scan", "android": "https://dc.lft.to/lastmile_qr_scan"}}, {"name": "4af9161cab55c7c32ff3debd59c5b046", "lon": -77.03867816666667, "lat": 38.92152683333333, "type": "electric_scooter", "fusion_lon": 0.0, "is_reserved": 0, "bike_id": "4af9161cab55c7c32ff3debd59c5b046", "fusion_lat": 0.0, "is_disabled": 0, "rental_uris": {"ios": "https://dc.lft.to/lastmile_qr_scan", "android": "https://dc.lft.to/lastmile_qr_scan"}}, {"name": "cb41c1f4b144c6181840fb20c212d6eb", "lon": -77.18740933333333, "lat": 38.89349133333333, "type": "electric_bike", "fusion_lon": 0.0, "is_reserved": 0, "bike_id": "cb41c1f4b144c6181840fb20c212d6eb", "fusion_lat": 0.0, "is_disabled": 0, "rental_uris": {"ios": "https://dc.lft.to/lastmile_qr_scan", "android": "https://dc.lft.to/lastmile_qr_scan"}}, {"name": "9d56d25cd0a7a2187815ead97aa9ab09", "lon": -77.021596, "lat": 38.9261245, "type": "electric_scooter", "fusion_lon": 0.0, "is_reserved": 0, "bike_id": "9d56d25cd0a7a2187815ead97aa9ab09", "fusion_lat": 0.0, "is_disabled": 0, "rental_uris": {"ios": "https://dc.lft.to/lastmile_qr_scan", "android": "https://dc.lft.to/lastmile_qr_scan"}}, {"name": "65ae15c45efe027e2f63459e5b3ef7bd", "lon": -77.0670675, "lat": 38.950576833333336, "type": "electric_scooter", "fusion_lon": 0.0, "is_reserved": 0, "bike_id": "65ae15c45efe027e2f63459e5b3ef7bd", "fusion_lat": 0.0, "is_disabled": 0, "rental_uris": {"ios": "https://dc.lft.to/lastmile_qr_scan", "android": "https://dc.lft.to/lastmile_qr_scan"}}, {"name": "57d91006f7b9993c85e11d58fd1f9781", "lon": -77.04442433333334, "lat": 38.90369483333333, "type": "electric_scooter", "fusion_lon": 0.0, "is_reserved": 0, "bike_id": "57d91006f7b9993c85e11d58fd1f9781", "fusion_lat": 0.0, "is_disabled": 0, "rental_uris": {"ios": "https://dc.lft.to/lastmile_qr_scan", "android": "https://dc.lft.to/lastmile_qr_scan"}}, {"name": "33f52f5fbfa12cd16d071190b2da54b7", "lon": -77.00193816666666, "lat": 38.902397, "type": "electric_scooter", "fusion_lon": 0.0, "is_reserved": 0, "bike_id": "33f52f5fbfa12cd16d071190b2da54b7", "fusion_lat": 0.0, "is_disabled": 0, "rental_uris": {"ios": "https://dc.lft.to/lastmile_qr_scan", "android": "https://dc.lft.to/lastmile_qr_scan"}}, {"name": "861de6ab1cee015e37179dc87536bb6c", "lon": -77.04814066666667, "lat": 38.900456, "type": "electric_scooter", "fusion_lon": 0.0, "is_reserved": 0, "bike_id": "861de6ab1cee015e37179dc87536bb6c", "fusion_lat": 0.0, "is_disabled": 0, "rental_uris": {"ios": "https://dc.lft.to/lastmile_qr_scan", "android": "https://dc.lft.to/lastmile_qr_scan"}}, {"name": "6563dd9a33c3e10f145a86bf047230b0", "lon": -77.0437, "lat": 38.89216916666667, "type": "electric_scooter", "fusion_lon": 0.0, "is_reserved": 0, "bike_id": "6563dd9a33c3e10f145a86bf047230b0", "fusion_lat": 0.0, "is_disabled": 0, "rental_uris": {"ios": "https://dc.lft.to/lastmile_qr_scan", "android": "https://dc.lft.to/lastmile_qr_scan"}}, {"name": "9653f879296d9494a19cf1931aef85bb", "lon": -77.0382425, "lat": 38.92469616666666, "type": "electric_scooter", "fusion_lon": 0.0, "is_reserved": 0, "bike_id": "9653f879296d9494a19cf1931aef85bb", "fusion_lat": 0.0, "is_disabled": 0, "rental_uris": {"ios": "https://dc.lft.to/lastmile_qr_scan", "android": "https://dc.lft.to/lastmile_qr_scan"}}, {"name": "f45caf34e5bd96feac2bb87fe761314f", "lon": -77.03486983333333, "lat": 38.924789833333335, "type": "electric_scooter", "fusion_lon": 0.0, "is_reserved": 0, "bike_id": "f45caf34e5bd96feac2bb87fe761314f", "fusion_lat": 0.0, "is_disabled": 0, "rental_uris": {"ios": "https://dc.lft.to/lastmile_qr_scan", "android": "https://dc.lft.to/lastmile_qr_scan"}}, {"name": "41820b6caa940f38ae4a66958efc90ad", "lon": -77.00206316666667, "lat": 38.9002875, "type": "electric_scooter", "fusion_lon": 0.0, "is_reserved": 0, "bike_id": "41820b6caa940f38ae4a66958efc90ad", "fusion_lat": 0.0, "is_disabled": 0, "rental_uris": {"ios": "https://dc.lft.to/lastmile_qr_scan", "android": "https://dc.lft.to/lastmile_qr_scan"}}, {"name": "903e31b82b01bd826b6deb1c9cc71a1b", "lon": -77.03263283333334, "lat": 38.919925166666665, "type": "electric_scooter", "fusion_lon": 0.0, "is_reserved": 0, "bike_id": "903e31b82b01bd826b6deb1c9cc71a1b", "fusion_lat": 0.0, "is_disabled": 0, "rental_uris": {"ios": "https://dc.lft.to/lastmile_qr_scan", "android": "https://dc.lft.to/lastmile_qr_scan"}}, {"name": "718dc5abf726c2cabc5ae2ca37081048", "lon": -77.03365616666666, "lat": 38.935879666666665, "type": "electric_scooter", "fusion_lon": 0.0, "is_reserved": 0, "bike_id": "718dc5abf726c2cabc5ae2ca37081048", "fusion_lat": 0.0, "is_disabled": 0, "rental_uris": {"ios": "https://dc.lft.to/lastmile_qr_scan", "android": "https://dc.lft.to/lastmile_qr_scan"}}, {"name": "6d214647351bb022d7383a607621079a", "lon": -76.97442733333334, "lat": 38.865354333333336, "type": "electric_scooter", "fusion_lon": 0.0, "is_reserved": 0, "bike_id": "6d214647351bb022d7383a607621079a", "fusion_lat": 0.0, "is_disabled": 0, "rental_uris": {"ios": "https://dc.lft.to/lastmile_qr_scan", "android": "https://dc.lft.to/lastmile_qr_scan"}}, {"name": "f02c05a0775fbe08f90c8a6f5d73c395", "lon": -77.00802633333333, "lat": 38.94921433333333, "type": "electric_bike", "fusion_lon": 0.0, "is_reserved": 0, "bike_id": "f02c05a0775fbe08f90c8a6f5d73c395", "fusion_lat": 0.0, "is_disabled": 0, "rental_uris": {"ios": "https://dc.lft.to/lastmile_qr_scan", "android": "https://dc.lft.to/lastmile_qr_scan"}}, {"name": "de78734be91faaa4acbfc0d7da925eb8", "lon": -77.0295935, "lat": 38.923215666666664, "type": "electric_scooter", "fusion_lon": 0.0, "is_reserved": 0, "bike_id": "de78734be91faaa4acbfc0d7da925eb8", "fusion_lat": 0.0, "is_disabled": 0, "rental_uris": {"ios": "https://dc.lft.to/lastmile_qr_scan", "android": "https://dc.lft.to/lastmile_qr_scan"}}, {"name": "624e612b274d80b42ade892dcb656818", "lon": -77.03250383333334, "lat": 38.911857, "type": "electric_scooter", "fusion_lon": 0.0, "is_reserved": 0, "bike_id": "624e612b274d80b42ade892dcb656818", "fusion_lat": 0.0, "is_disabled": 0, "rental_uris": {"ios": "https://dc.lft.to/lastmile_qr_scan", "android": "https://dc.lft.to/lastmile_qr_scan"}}, {"name": "891d63e8d4d57d91098d0abe0a12742b", "lon": -77.034201, "lat": 38.91922016666667, "type": "electric_scooter", "fusion_lon": 0.0, "is_reserved": 0, "bike_id": "891d63e8d4d57d91098d0abe0a12742b", "fusion_lat": 0.0, "is_disabled": 0, "rental_uris": {"ios": "https://dc.lft.to/lastmile_qr_scan", "android": "https://dc.lft.to/lastmile_qr_scan"}}, {"name": "7d3995a2a1cabfae21422ca62fd600ea", "lon": -77.0432525, "lat": 38.89222066666667, "type": "electric_scooter", "fusion_lon": 0.0, "is_reserved": 0, "bike_id": "7d3995a2a1cabfae21422ca62fd600ea", "fusion_lat": 0.0, "is_disabled": 0, "rental_uris": {"ios": "https://dc.lft.to/lastmile_qr_scan", "android": "https://dc.lft.to/lastmile_qr_scan"}}, {"name": "c515b82ceb0ec06a9bf12a2ac5ff6082", "lon": -77.03293433333333, "lat": 38.95632283333333, "type": "electric_scooter", "fusion_lon": 0.0, "is_reserved": 0, "bike_id": "c515b82ceb0ec06a9bf12a2ac5ff6082", "fusion_lat": 0.0, "is_disabled": 0, "rental_uris": {"ios": "https://dc.lft.to/lastmile_qr_scan", "android": "https://dc.lft.to/lastmile_qr_scan"}}, {"name": "3b6e303a198943343cd12fced0433752", "lon": -77.00923333333333, "lat": 38.913405, "type": "electric_scooter", "fusion_lon": 0.0, "is_reserved": 0, "bike_id": "3b6e303a198943343cd12fced0433752", "fusion_lat": 0.0, "is_disabled": 0, "rental_uris": {"ios": "https://dc.lft.to/lastmile_qr_scan", "android": "https://dc.lft.to/lastmile_qr_scan"}}, {"name": "a292157e1632d0aa2f7138a78f0d4700", "lon": -76.94242566666667, "lat": 38.89668866666667, "type": "electric_scooter", "fusion_lon": 0.0, "is_reserved": 0, "bike_id": "a292157e1632d0aa2f7138a78f0d4700", "fusion_lat": 0.0, "is_disabled": 0, "rental_uris": {"ios": "https://dc.lft.to/lastmile_qr_scan", "android": "https://dc.lft.to/lastmile_qr_scan"}}, {"name": "60844b5d0d2d52a1d1f7f036cf1fb895", "lon": -76.94609966666667, "lat": 38.83233466666667, "type": "electric_bike", "fusion_lon": 0.0, "is_reserved": 0, "bike_id": "60844b5d0d2d52a1d1f7f036cf1fb895", "fusion_lat": 0.0, "is_disabled": 0, "rental_uris": {"ios": "https://dc.lft.to/lastmile_qr_scan", "android": "https://dc.lft.to/lastmile_qr_scan"}}, {"name": "d255af26c67259c19c6fbce276be32ea", "lon": -77.0575105, "lat": 38.92494816666667, "type": "electric_scooter", "fusion_lon": 0.0, "is_reserved": 0, "bike_id": "d255af26c67259c19c6fbce276be32ea", "fusion_lat": 0.0, "is_disabled": 0, "rental_uris": {"ios": "https://dc.lft.to/lastmile_qr_scan", "android": "https://dc.lft.to/lastmile_qr_scan"}}, {"name": "ab8af0a9b37ad24018009ce145333953", "lon": -77.03540583333333, "lat": 38.92537566666667, "type": "electric_scooter", "fusion_lon": 0.0, "is_reserved": 0, "bike_id": "ab8af0a9b37ad24018009ce145333953", "fusion_lat": 0.0, "is_disabled": 0, "rental_uris": {"ios": "https://dc.lft.to/lastmile_qr_scan", "android": "https://dc.lft.to/lastmile_qr_scan"}}, {"name": "8414e8ec054eecab158a21a27d5f8298", "lon": -77.04976483333333, "lat": 39.0629055, "type": "electric_bike", "fusion_lon": 0.0, "is_reserved": 0, "bike_id": "8414e8ec054eecab158a21a27d5f8298", "fusion_lat": 0.0, "is_disabled": 0, "rental_uris": {"ios": "https://dc.lft.to/lastmile_qr_scan", "android": "https://dc.lft.to/lastmile_qr_scan"}}, {"name": "749811d36f34a0aadb926d3dcdaaf294", "lon": -77.001201, "lat": 38.904990166666664, "type": "electric_scooter", "fusion_lon": 0.0, "is_reserved": 0, "bike_id": "749811d36f34a0aadb926d3dcdaaf294", "fusion_lat": 0.0, "is_disabled": 0, "rental_uris": {"ios": "https://dc.lft.to/lastmile_qr_scan", "android": "https://dc.lft.to/lastmile_qr_scan"}}, {"name": "97ca46b3875d5741a0158e504b1ed637", "lon": -76.96625333333333, "lat": 38.87101833333333, "type": "electric_scooter", "fusion_lon": 0.0, "is_reserved": 0, "bike_id": "97ca46b3875d5741a0158e504b1ed637", "fusion_lat": 0.0, "is_disabled": 0, "rental_uris": {"ios": "https://dc.lft.to/lastmile_qr_scan", "android": "https://dc.lft.to/lastmile_qr_scan"}}, {"name": "dd85f5c69f317d992570022cedac352a", "lon": -77.029378, "lat": 38.8962745, "type": "electric_scooter", "fusion_lon": 0.0, "is_reserved": 0, "bike_id": "dd85f5c69f317d992570022cedac352a", "fusion_lat": 0.0, "is_disabled": 0, "rental_uris": {"ios": "https://dc.lft.to/lastmile_qr_scan", "android": "https://dc.lft.to/lastmile_qr_scan"}}, {"name": "3b3a05063e835ec633592fc5792edeac", "lon": -77.03042133333334, "lat": 38.89827583333334, "type": "electric_scooter", "fusion_lon": 0.0, "is_reserved": 0, "bike_id": "3b3a05063e835ec633592fc5792edeac", "fusion_lat": 0.0, "is_disabled": 0, "rental_uris": {"ios": "https://dc.lft.to/lastmile_qr_scan", "android": "https://dc.lft.to/lastmile_qr_scan"}}, {"name": "c8c6a9468efb03ada49556753a42d648", "lon": -76.99161916666667, "lat": 38.89799516666667, "type": "electric_scooter", "fusion_lon": 0.0, "is_reserved": 0, "bike_id": "c8c6a9468efb03ada49556753a42d648", "fusion_lat": 0.0, "is_disabled": 0, "rental_uris": {"ios": "https://dc.lft.to/lastmile_qr_scan", "android": "https://dc.lft.to/lastmile_qr_scan"}}, {"name": "b3f3de0741beacf3d50b161a4e58d420", "lon": -77.0269155, "lat": 38.90685, "type": "electric_scooter", "fusion_lon": 0.0, "is_reserved": 0, "bike_id": "b3f3de0741beacf3d50b161a4e58d420", "fusion_lat": 0.0, "is_disabled": 0, "rental_uris": {"ios": "https://dc.lft.to/lastmile_qr_scan", "android": "https://dc.lft.to/lastmile_qr_scan"}}, {"name": "395c04d88767bcdd974c224c7ee41563", "lon": -77.04183716666667, "lat": 38.91680316666667, "type": "electric_scooter", "fusion_lon": 0.0, "is_reserved": 0, "bike_id": "395c04d88767bcdd974c224c7ee41563", "fusion_lat": 0.0, "is_disabled": 0, "rental_uris": {"ios": "https://dc.lft.to/lastmile_qr_scan", "android": "https://dc.lft.to/lastmile_qr_scan"}}, {"name": "381091c02fce2c858260eddbe45cb6e4", "lon": -76.95638233333334, "lat": 38.895536666666665, "type": "electric_scooter", "fusion_lon": 0.0, "is_reserved": 0, "bike_id": "381091c02fce2c858260eddbe45cb6e4", "fusion_lat": 0.0, "is_disabled": 0, "rental_uris": {"ios": "https://dc.lft.to/lastmile_qr_scan", "android": "https://dc.lft.to/lastmile_qr_scan"}}, {"name": "66e9f614f8cadbd7fda0e4f3fde35187", "lon": -77.03472066666667, "lat": 38.90571, "type": "electric_scooter", "fusion_lon": 0.0, "is_reserved": 0, "bike_id": "66e9f614f8cadbd7fda0e4f3fde35187", "fusion_lat": 0.0, "is_disabled": 0, "rental_uris": {"ios": "https://dc.lft.to/lastmile_qr_scan", "android": "https://dc.lft.to/lastmile_qr_scan"}}, {"name": "d1c58c3470689429f8580047fc9317d8", "lon": -77.03260633333333, "lat": 38.93257716666667, "type": "electric_scooter", "fusion_lon": 0.0, "is_reserved": 0, "bike_id": "d1c58c3470689429f8580047fc9317d8", "fusion_lat": 0.0, "is_disabled": 0, "rental_uris": {"ios": "https://dc.lft.to/lastmile_qr_scan", "android": "https://dc.lft.to/lastmile_qr_scan"}}, {"name": "af90978311047582be7b1b78ac37a05e", "lon": -76.9648725, "lat": 38.87547216666667, "type": "electric_bike", "fusion_lon": 0.0, "is_reserved": 0, "bike_id": "af90978311047582be7b1b78ac37a05e", "fusion_lat": 0.0, "is_disabled": 0, "rental_uris": {"ios": "https://dc.lft.to/lastmile_qr_scan", "android": "https://dc.lft.to/lastmile_qr_scan"}}, {"name": "0dbc92b7cd1abfb799f681c46a31160e", "lon": -77.22209466666666, "lat": 38.928542, "type": "electric_bike", "fusion_lon": 0.0, "is_reserved": 0, "bike_id": "0dbc92b7cd1abfb799f681c46a31160e", "fusion_lat": 0.0, "is_disabled": 0, "rental_uris": {"ios": "https://dc.lft.to/lastmile_qr_scan", "android": "https://dc.lft.to/lastmile_qr_scan"}}, {"name": "7f1624b0e71d46c3e06a38e01fd08d92", "lon": -77.0096435, "lat": 38.90784716666667, "type": "electric_scooter", "fusion_lon": 0.0, "is_reserved": 0, "bike_id": "7f1624b0e71d46c3e06a38e01fd08d92", "fusion_lat": 0.0, "is_disabled": 0, "rental_uris": {"ios": "https://dc.lft.to/lastmile_qr_scan", "android": "https://dc.lft.to/lastmile_qr_scan"}}, {"name": "4d9aa135ca6af0026eb8d67dd433c5af", "lon": -77.0319145, "lat": 38.91778883333333, "type": "electric_scooter", "fusion_lon": 0.0, "is_reserved": 0, "bike_id": "4d9aa135ca6af0026eb8d67dd433c5af", "fusion_lat": 0.0, "is_disabled": 0, "rental_uris": {"ios": "https://dc.lft.to/lastmile_qr_scan", "android": "https://dc.lft.to/lastmile_qr_scan"}}, {"name": "e4d175a9954e7fbe80be4c4980dd1c2a", "lon": -77.17840716666667, "lat": 39.08854783333334, "type": "electric_bike", "fusion_lon": 0.0, "is_reserved": 0, "bike_id": "e4d175a9954e7fbe80be4c4980dd1c2a", "fusion_lat": 0.0, "is_disabled": 0, "rental_uris": {"ios": "https://dc.lft.to/lastmile_qr_scan", "android": "https://dc.lft.to/lastmile_qr_scan"}}, {"name": "ab720802fa9e78374491820509a876a0", "lon": -77.02196433333333, "lat": 38.899794166666666, "type": "electric_scooter", "fusion_lon": 0.0, "is_reserved": 0, "bike_id": "ab720802fa9e78374491820509a876a0", "fusion_lat": 0.0, "is_disabled": 0, "rental_uris": {"ios": "https://dc.lft.to/lastmile_qr_scan", "android": "https://dc.lft.to/lastmile_qr_scan"}}, {"name": "b71683b6a122fca558365935618286d2", "lon": -77.0862625, "lat": 38.881803833333336, "type": "electric_bike", "fusion_lon": 0.0, "is_reserved": 0, "bike_id": "b71683b6a122fca558365935618286d2", "fusion_lat": 0.0, "is_disabled": 0, "rental_uris": {"ios": "https://dc.lft.to/lastmile_qr_scan", "android": "https://dc.lft.to/lastmile_qr_scan"}}, {"name": "e972c110e32a9eace6fd5c0556a872af", "lon": -76.99060166666666, "lat": 38.86352816666667, "type": "electric_scooter", "fusion_lon": 0.0, "is_reserved": 0, "bike_id": "e972c110e32a9eace6fd5c0556a872af", "fusion_lat": 0.0, "is_disabled": 0, "rental_uris": {"ios": "https://dc.lft.to/lastmile_qr_scan", "android": "https://dc.lft.to/lastmile_qr_scan"}}, {"name": "468f897145d83132ecd1bc6e221d0d90", "lon": -77.01184666666667, "lat": 38.9154705, "type": "electric_scooter", "fusion_lon": 0.0, "is_reserved": 0, "bike_id": "468f897145d83132ecd1bc6e221d0d90", "fusion_lat": 0.0, "is_disabled": 0, "rental_uris": {"ios": "https://dc.lft.to/lastmile_qr_scan", "android": "https://dc.lft.to/lastmile_qr_scan"}}, {"name": "35709c8709e44a5225c057cba4283859", "lon": -76.95365016666666, "lat": 38.892064166666664, "type": "electric_scooter", "fusion_lon": 0.0, "is_reserved": 0, "bike_id": "35709c8709e44a5225c057cba4283859", "fusion_lat": 0.0, "is_disabled": 0, "rental_uris": {"ios": "https://dc.lft.to/lastmile_qr_scan", "android": "https://dc.lft.to/lastmile_qr_scan"}}, {"name": "0deba3a8f2e51138694ceb512cf830de", "lon": -76.98708066666667, "lat": 38.86694933333333, "type": "electric_scooter", "fusion_lon": 0.0, "is_reserved": 0, "bike_id": "0deba3a8f2e51138694ceb512cf830de", "fusion_lat": 0.0, "is_disabled": 0, "rental_uris": {"ios": "https://dc.lft.to/lastmile_qr_scan", "android": "https://dc.lft.to/lastmile_qr_scan"}}, {"name": "856bdd50acbd5b61eee9a85b65b268d8", "lon": -77.05119266666667, "lat": 38.89957166666667, "type": "electric_scooter", "fusion_lon": 0.0, "is_reserved": 0, "bike_id": "856bdd50acbd5b61eee9a85b65b268d8", "fusion_lat": 0.0, "is_disabled": 0, "rental_uris": {"ios": "https://dc.lft.to/lastmile_qr_scan", "android": "https://dc.lft.to/lastmile_qr_scan"}}, {"name": "ff5d00e075db1cd0094cb7ab37510d04", "lon": -77.05392916666666, "lat": 38.928121833333336, "type": "electric_scooter", "fusion_lon": 0.0, "is_reserved": 0, "bike_id": "ff5d00e075db1cd0094cb7ab37510d04", "fusion_lat": 0.0, "is_disabled": 0, "rental_uris": {"ios": "https://dc.lft.to/lastmile_qr_scan", "android": "https://dc.lft.to/lastmile_qr_scan"}}, {"name": "7b223a1b53b979307b35e400fea38920", "lon": -76.99413616666666, "lat": 38.921100333333335, "type": "electric_scooter", "fusion_lon": 0.0, "is_reserved": 0, "bike_id": "7b223a1b53b979307b35e400fea38920", "fusion_lat": 0.0, "is_disabled": 0, "rental_uris": {"ios": "https://dc.lft.to/lastmile_qr_scan", "android": "https://dc.lft.to/lastmile_qr_scan"}}, {"name": "d82114c996f2e27c219ebaeeb076b3bc", "lon": -77.02366333333333, "lat": 38.892199, "type": "electric_scooter", "fusion_lon": 0.0, "is_reserved": 0, "bike_id": "d82114c996f2e27c219ebaeeb076b3bc", "fusion_lat": 0.0, "is_disabled": 0, "rental_uris": {"ios": "https://dc.lft.to/lastmile_qr_scan", "android": "https://dc.lft.to/lastmile_qr_scan"}}, {"name": "07670071f0ca2131590f7725465077ba", "lon": -77.03256283333333, "lat": 38.93144916666667, "type": "electric_scooter", "fusion_lon": 0.0, "is_reserved": 0, "bike_id": "07670071f0ca2131590f7725465077ba", "fusion_lat": 0.0, "is_disabled": 0, "rental_uris": {"ios": "https://dc.lft.to/lastmile_qr_scan", "android": "https://dc.lft.to/lastmile_qr_scan"}}, {"name": "2c77c3f3ef177e865e3b3113c62fb8a0", "lon": -77.0058045, "lat": 38.885727333333335, "type": "electric_scooter", "fusion_lon": 0.0, "is_reserved": 0, "bike_id": "2c77c3f3ef177e865e3b3113c62fb8a0", "fusion_lat": 0.0, "is_disabled": 0, "rental_uris": {"ios": "https://dc.lft.to/lastmile_qr_scan", "android": "https://dc.lft.to/lastmile_qr_scan"}}, {"name": "5321f752baff4bcb6431a4b305fa6e0e", "lon": -77.03824183333333, "lat": 38.911148833333336, "type": "electric_scooter", "fusion_lon": 0.0, "is_reserved": 0, "bike_id": "5321f752baff4bcb6431a4b305fa6e0e", "fusion_lat": 0.0, "is_disabled": 0, "rental_uris": {"ios": "https://dc.lft.to/lastmile_qr_scan", "android": "https://dc.lft.to/lastmile_qr_scan"}}, {"name": "00556af57fa21eb8591feaddfdfdf975", "lon": -77.05206316666667, "lat": 38.9246805, "type": "electric_scooter", "fusion_lon": 0.0, "is_reserved": 0, "bike_id": "00556af57fa21eb8591feaddfdfdf975", "fusion_lat": 0.0, "is_disabled": 0, "rental_uris": {"ios": "https://dc.lft.to/lastmile_qr_scan", "android": "https://dc.lft.to/lastmile_qr_scan"}}, {"name": "3838871c2285ba5edd6d4e4455068a2f", "lon": -77.07433166666667, "lat": 38.99945833333334, "type": "electric_bike", "fusion_lon": 0.0, "is_reserved": 0, "bike_id": "3838871c2285ba5edd6d4e4455068a2f", "fusion_lat": 0.0, "is_disabled": 0, "rental_uris": {"ios": "https://dc.lft.to/lastmile_qr_scan", "android": "https://dc.lft.to/lastmile_qr_scan"}}, {"name": "808a9ad99d436fa0045aeaf46d91272f", "lon": -76.9753445, "lat": 38.840145, "type": "electric_bike", "fusion_lon": 0.0, "is_reserved": 0, "bike_id": "808a9ad99d436fa0045aeaf46d91272f", "fusion_lat": 0.0, "is_disabled": 0, "rental_uris": {"ios": "https://dc.lft.to/lastmile_qr_scan", "android": "https://dc.lft.to/lastmile_qr_scan"}}, {"name": "f4aa6f39e465b14e43d9a56004ac216c", "lon": -77.02685566666666, "lat": 38.912631166666664, "type": "electric_scooter", "fusion_lon": 0.0, "is_reserved": 0, "bike_id": "f4aa6f39e465b14e43d9a56004ac216c", "fusion_lat": 0.0, "is_disabled": 0, "rental_uris": {"ios": "https://dc.lft.to/lastmile_qr_scan", "android": "https://dc.lft.to/lastmile_qr_scan"}}, {"name": "799d2c843e0311244eadbcd248117de7", "lon": -77.00763683333334, "lat": 38.82594866666667, "type": "electric_scooter", "fusion_lon": 0.0, "is_reserved": 0, "bike_id": "799d2c843e0311244eadbcd248117de7", "fusion_lat": 0.0, "is_disabled": 0, "rental_uris": {"ios": "https://dc.lft.to/lastmile_qr_scan", "android": "https://dc.lft.to/lastmile_qr_scan"}}, {"name": "cc711feeb000793a249a6cf05c8aa201", "lon": -76.98714483333333, "lat": 38.866239, "type": "electric_scooter", "fusion_lon": 0.0, "is_reserved": 0, "bike_id": "cc711feeb000793a249a6cf05c8aa201", "fusion_lat": 0.0, "is_disabled": 0, "rental_uris": {"ios": "https://dc.lft.to/lastmile_qr_scan", "android": "https://dc.lft.to/lastmile_qr_scan"}}, {"name": "20a3d3acf8fe0af5fa73bc53e59f75c8", "lon": -77.02429916666667, "lat": 38.927224833333334, "type": "electric_scooter", "fusion_lon": 0.0, "is_reserved": 0, "bike_id": "20a3d3acf8fe0af5fa73bc53e59f75c8", "fusion_lat": 0.0, "is_disabled": 0, "rental_uris": {"ios": "https://dc.lft.to/lastmile_qr_scan", "android": "https://dc.lft.to/lastmile_qr_scan"}}, {"name": "a0800428964a898f0b40b8ee119ca4ca", "lon": -77.124828, "lat": 38.85392733333333, "type": "electric_bike", "fusion_lon": 0.0, "is_reserved": 0, "bike_id": "a0800428964a898f0b40b8ee119ca4ca", "fusion_lat": 0.0, "is_disabled": 0, "rental_uris": {"ios": "https://dc.lft.to/lastmile_qr_scan", "android": "https://dc.lft.to/lastmile_qr_scan"}}, {"name": "665030fcdd1b1fced56e7c5d13c50aea", "lon": -77.03271416666666, "lat": 38.916272, "type": "electric_scooter", "fusion_lon": 0.0, "is_reserved": 0, "bike_id": "665030fcdd1b1fced56e7c5d13c50aea", "fusion_lat": 0.0, "is_disabled": 0, "rental_uris": {"ios": "https://dc.lft.to/lastmile_qr_scan", "android": "https://dc.lft.to/lastmile_qr_scan"}}, {"name": "5b087e9d2504dd7aa51ad670fb7d796a", "lon": -77.01095316666667, "lat": 38.903437833333335, "type": "electric_scooter", "fusion_lon": 0.0, "is_reserved": 0, "bike_id": "5b087e9d2504dd7aa51ad670fb7d796a", "fusion_lat": 0.0, "is_disabled": 0, "rental_uris": {"ios": "https://dc.lft.to/lastmile_qr_scan", "android": "https://dc.lft.to/lastmile_qr_scan"}}, {"name": "a6f97ae26f249629ea14ef6e3fc5ef57", "lon": -77.0447875, "lat": 38.919319, "type": "electric_scooter", "fusion_lon": 0.0, "is_reserved": 0, "bike_id": "a6f97ae26f249629ea14ef6e3fc5ef57", "fusion_lat": 0.0, "is_disabled": 0, "rental_uris": {"ios": "https://dc.lft.to/lastmile_qr_scan", "android": "https://dc.lft.to/lastmile_qr_scan"}}, {"name": "fe5a1ed2aeb686ec5181b9b3b51e89ae", "lon": -77.092518, "lat": 38.94147266666667, "type": "electric_scooter", "fusion_lon": 0.0, "is_reserved": 0, "bike_id": "fe5a1ed2aeb686ec5181b9b3b51e89ae", "fusion_lat": 0.0, "is_disabled": 0, "rental_uris": {"ios": "https://dc.lft.to/lastmile_qr_scan", "android": "https://dc.lft.to/lastmile_qr_scan"}}, {"name": "084a89298842a224672aafb0581eb08c", "lon": -77.03124533333333, "lat": 38.915590333333334, "type": "electric_scooter", "fusion_lon": 0.0, "is_reserved": 0, "bike_id": "084a89298842a224672aafb0581eb08c", "fusion_lat": 0.0, "is_disabled": 0, "rental_uris": {"ios": "https://dc.lft.to/lastmile_qr_scan", "android": "https://dc.lft.to/lastmile_qr_scan"}}, {"name": "8325c058e916c0ad0b0c14c065ea1136", "lon": -77.02668033333333, "lat": 38.902288666666664, "type": "electric_scooter", "fusion_lon": 0.0, "is_reserved": 0, "bike_id": "8325c058e916c0ad0b0c14c065ea1136", "fusion_lat": 0.0, "is_disabled": 0, "rental_uris": {"ios": "https://dc.lft.to/lastmile_qr_scan", "android": "https://dc.lft.to/lastmile_qr_scan"}}, {"name": "254a45047cc1e4438ef6813b2a5a2716", "lon": -77.03723966666666, "lat": 38.93566416666667, "type": "electric_scooter", "fusion_lon": 0.0, "is_reserved": 0, "bike_id": "254a45047cc1e4438ef6813b2a5a2716", "fusion_lat": 0.0, "is_disabled": 0, "rental_uris": {"ios": "https://dc.lft.to/lastmile_qr_scan", "android": "https://dc.lft.to/lastmile_qr_scan"}}, {"name": "34a8a5d0c8868dea0efa6738e6b6a04d", "lon": -77.0493975, "lat": 38.90969483333333, "type": "electric_scooter", "fusion_lon": 0.0, "is_reserved": 0, "bike_id": "34a8a5d0c8868dea0efa6738e6b6a04d", "fusion_lat": 0.0, "is_disabled": 0, "rental_uris": {"ios": "https://dc.lft.to/lastmile_qr_scan", "android": "https://dc.lft.to/lastmile_qr_scan"}}, {"name": "7fdd8acbbf1b09bc0fdff85eb40e640c", "lon": -76.97584333333333, "lat": 38.84028566666667, "type": "electric_bike", "fusion_lon": 0.0, "is_reserved": 0, "bike_id": "7fdd8acbbf1b09bc0fdff85eb40e640c", "fusion_lat": 0.0, "is_disabled": 0, "rental_uris": {"ios": "https://dc.lft.to/lastmile_qr_scan", "android": "https://dc.lft.to/lastmile_qr_scan"}}, {"name": "9a4c737d2bb15c6d00bf65c76a95d85b", "lon": -77.02963, "lat": 38.916786333333334, "type": "electric_scooter", "fusion_lon": 0.0, "is_reserved": 0, "bike_id": "9a4c737d2bb15c6d00bf65c76a95d85b", "fusion_lat": 0.0, "is_disabled": 0, "rental_uris": {"ios": "https://dc.lft.to/lastmile_qr_scan", "android": "https://dc.lft.to/lastmile_qr_scan"}}, {"name": "dbb4064209156e06bac0ed5c51a583c6", "lon": -77.049045, "lat": 38.900872, "type": "electric_scooter", "fusion_lon": 0.0, "is_reserved": 0, "bike_id": "dbb4064209156e06bac0ed5c51a583c6", "fusion_lat": 0.0, "is_disabled": 0, "rental_uris": {"ios": "https://dc.lft.to/lastmile_qr_scan", "android": "https://dc.lft.to/lastmile_qr_scan"}}, {"name": "7db481edca0c4dfebd530a0598a3287a", "lon": -77.04587083333334, "lat": 38.916982833333336, "type": "electric_scooter", "fusion_lon": 0.0, "is_reserved": 0, "bike_id": "7db481edca0c4dfebd530a0598a3287a", "fusion_lat": 0.0, "is_disabled": 0, "rental_uris": {"ios": "https://dc.lft.to/lastmile_qr_scan", "android": "https://dc.lft.to/lastmile_qr_scan"}}, {"name": "611e1c896ea4043087a2c77ba00da61c", "lon": -77.02221216666666, "lat": 38.95685833333334, "type": "electric_bike", "fusion_lon": 0.0, "is_reserved": 0, "bike_id": "611e1c896ea4043087a2c77ba00da61c", "fusion_lat": 0.0, "is_disabled": 0, "rental_uris": {"ios": "https://dc.lft.to/lastmile_qr_scan", "android": "https://dc.lft.to/lastmile_qr_scan"}}, {"name": "fc65480787ce86160092d0ae7fbe9ae1", "lon": -77.02502516666667, "lat": 38.9207095, "type": "electric_scooter", "fusion_lon": 0.0, "is_reserved": 0, "bike_id": "fc65480787ce86160092d0ae7fbe9ae1", "fusion_lat": 0.0, "is_disabled": 0, "rental_uris": {"ios": "https://dc.lft.to/lastmile_qr_scan", "android": "https://dc.lft.to/lastmile_qr_scan"}}, {"name": "3e13b9175aaa6c55fa91cdc00213d8e2", "lon": -77.00505133333333, "lat": 38.91686516666667, "type": "electric_scooter", "fusion_lon": 0.0, "is_reserved": 0, "bike_id": "3e13b9175aaa6c55fa91cdc00213d8e2", "fusion_lat": 0.0, "is_disabled": 0, "rental_uris": {"ios": "https://dc.lft.to/lastmile_qr_scan", "android": "https://dc.lft.to/lastmile_qr_scan"}}, {"name": "785d495f9e221439ce0b4de9d30380ac", "lon": -77.01131916666667, "lat": 38.88521333333333, "type": "electric_scooter", "fusion_lon": 0.0, "is_reserved": 0, "bike_id": "785d495f9e221439ce0b4de9d30380ac", "fusion_lat": 0.0, "is_disabled": 0, "rental_uris": {"ios": "https://dc.lft.to/lastmile_qr_scan", "android": "https://dc.lft.to/lastmile_qr_scan"}}, {"name": "2e1e86a0f568b02f524404f5b3e9caf6", "lon": -77.031205, "lat": 38.894797, "type": "electric_scooter", "fusion_lon": 0.0, "is_reserved": 0, "bike_id": "2e1e86a0f568b02f524404f5b3e9caf6", "fusion_lat": 0.0, "is_disabled": 0, "rental_uris": {"ios": "https://dc.lft.to/lastmile_qr_scan", "android": "https://dc.lft.to/lastmile_qr_scan"}}, {"name": "982be3d8b8cd79795021b3229cd9febd", "lon": -77.04874416666667, "lat": 38.90580833333333, "type": "electric_scooter", "fusion_lon": 0.0, "is_reserved": 0, "bike_id": "982be3d8b8cd79795021b3229cd9febd", "fusion_lat": 0.0, "is_disabled": 0, "rental_uris": {"ios": "https://dc.lft.to/lastmile_qr_scan", "android": "https://dc.lft.to/lastmile_qr_scan"}}, {"name": "c5fdb1fbed20d5dddb0c26c77fdc97db", "lon": -77.045115, "lat": 38.903750333333335, "type": "electric_scooter", "fusion_lon": 0.0, "is_reserved": 0, "bike_id": "c5fdb1fbed20d5dddb0c26c77fdc97db", "fusion_lat": 0.0, "is_disabled": 0, "rental_uris": {"ios": "https://dc.lft.to/lastmile_qr_scan", "android": "https://dc.lft.to/lastmile_qr_scan"}}, {"name": "4785dd9bfeac55646e846832400a92e7", "lon": -76.99604566666666, "lat": 38.88498216666667, "type": "electric_scooter", "fusion_lon": 0.0, "is_reserved": 0, "bike_id": "4785dd9bfeac55646e846832400a92e7", "fusion_lat": 0.0, "is_disabled": 0, "rental_uris": {"ios": "https://dc.lft.to/lastmile_qr_scan", "android": "https://dc.lft.to/lastmile_qr_scan"}}, {"name": "0ee00535cd9dc67d28855b32e182ccb4", "lon": -77.02611983333334, "lat": 38.917056, "type": "electric_scooter", "fusion_lon": 0.0, "is_reserved": 0, "bike_id": "0ee00535cd9dc67d28855b32e182ccb4", "fusion_lat": 0.0, "is_disabled": 0, "rental_uris": {"ios": "https://dc.lft.to/lastmile_qr_scan", "android": "https://dc.lft.to/lastmile_qr_scan"}}, {"name": "5be59396d9cd45a795002663ee96e106", "lon": -77.04871866666667, "lat": 38.90652133333333, "type": "electric_scooter", "fusion_lon": 0.0, "is_reserved": 0, "bike_id": "5be59396d9cd45a795002663ee96e106", "fusion_lat": 0.0, "is_disabled": 0, "rental_uris": {"ios": "https://dc.lft.to/lastmile_qr_scan", "android": "https://dc.lft.to/lastmile_qr_scan"}}, {"name": "30ea50c8f2e045f6171334c2b6edc92d", "lon": -77.02165533333333, "lat": 38.942887999999996, "type": "electric_scooter", "fusion_lon": 0.0, "is_reserved": 0, "bike_id": "30ea50c8f2e045f6171334c2b6edc92d", "fusion_lat": 0.0, "is_disabled": 0, "rental_uris": {"ios": "https://dc.lft.to/lastmile_qr_scan", "android": "https://dc.lft.to/lastmile_qr_scan"}}, {"name": "69db0358f4fc7b4b44b8141b7d257dd0", "lon": -77.01916816666666, "lat": 38.92367683333333, "type": "electric_scooter", "fusion_lon": 0.0, "is_reserved": 0, "bike_id": "69db0358f4fc7b4b44b8141b7d257dd0", "fusion_lat": 0.0, "is_disabled": 0, "rental_uris": {"ios": "https://dc.lft.to/lastmile_qr_scan", "android": "https://dc.lft.to/lastmile_qr_scan"}}, {"name": "64950ab1d2f677f81931c33e63053056", "lon": -77.05129866666667, "lat": 38.903815333333334, "type": "electric_scooter", "fusion_lon": 0.0, "is_reserved": 0, "bike_id": "64950ab1d2f677f81931c33e63053056", "fusion_lat": 0.0, "is_disabled": 0, "rental_uris": {"ios": "https://dc.lft.to/lastmile_qr_scan", "android": "https://dc.lft.to/lastmile_qr_scan"}}, {"name": "573410bba778542bfc7b4a6b7babe4c3", "lon": -77.11761083333333, "lat": 39.049125833333335, "type": "electric_bike", "fusion_lon": 0.0, "is_reserved": 0, "bike_id": "573410bba778542bfc7b4a6b7babe4c3", "fusion_lat": 0.0, "is_disabled": 0, "rental_uris": {"ios": "https://dc.lft.to/lastmile_qr_scan", "android": "https://dc.lft.to/lastmile_qr_scan"}}, {"name": "5bbbe60e5fd165ac768fb12a775b89fe", "lon": -77.05501066666666, "lat": 38.93657366666667, "type": "electric_scooter", "fusion_lon": 0.0, "is_reserved": 0, "bike_id": "5bbbe60e5fd165ac768fb12a775b89fe", "fusion_lat": 0.0, "is_disabled": 0, "rental_uris": {"ios": "https://dc.lft.to/lastmile_qr_scan", "android": "https://dc.lft.to/lastmile_qr_scan"}}, {"name": "137d8b7c4cdfd00ba7796b957f6506c1", "lon": -77.13144483333333, "lat": 38.861684833333335, "type": "electric_bike", "fusion_lon": 0.0, "is_reserved": 0, "bike_id": "137d8b7c4cdfd00ba7796b957f6506c1", "fusion_lat": 0.0, "is_disabled": 0, "rental_uris": {"ios": "https://dc.lft.to/lastmile_qr_scan", "android": "https://dc.lft.to/lastmile_qr_scan"}}, {"name": "802e3f637ead608bc65d3b7cf7940d2a", "lon": -76.9990905, "lat": 38.9245435, "type": "electric_scooter", "fusion_lon": 0.0, "is_reserved": 0, "bike_id": "802e3f637ead608bc65d3b7cf7940d2a", "fusion_lat": 0.0, "is_disabled": 0, "rental_uris": {"ios": "https://dc.lft.to/lastmile_qr_scan", "android": "https://dc.lft.to/lastmile_qr_scan"}}, {"name": "619016c2e8e4f77bd80507f2944d73d3", "lon": -77.043114, "lat": 38.88106483333333, "type": "electric_scooter", "fusion_lon": 0.0, "is_reserved": 0, "bike_id": "619016c2e8e4f77bd80507f2944d73d3", "fusion_lat": 0.0, "is_disabled": 0, "rental_uris": {"ios": "https://dc.lft.to/lastmile_qr_scan", "android": "https://dc.lft.to/lastmile_qr_scan"}}, {"name": "667588677b066c2f4fbb2591edf65c79", "lon": -76.97183866666667, "lat": 38.9178585, "type": "electric_bike", "fusion_lon": 0.0, "is_reserved": 0, "bike_id": "667588677b066c2f4fbb2591edf65c79", "fusion_lat": 0.0, "is_disabled": 0, "rental_uris": {"ios": "https://dc.lft.to/lastmile_qr_scan", "android": "https://dc.lft.to/lastmile_qr_scan"}}, {"name": "2aada35db78a596244e9452384a237bf", "lon": -77.00890483333333, "lat": 38.924859, "type": "electric_scooter", "fusion_lon": 0.0, "is_reserved": 0, "bike_id": "2aada35db78a596244e9452384a237bf", "fusion_lat": 0.0, "is_disabled": 0, "rental_uris": {"ios": "https://dc.lft.to/lastmile_qr_scan", "android": "https://dc.lft.to/lastmile_qr_scan"}}, {"name": "4b4043cb0fbb2501df113f0781637fcc", "lon": -77.071462, "lat": 38.920355, "type": "electric_scooter", "fusion_lon": 0.0, "is_reserved": 0, "bike_id": "4b4043cb0fbb2501df113f0781637fcc", "fusion_lat": 0.0, "is_disabled": 0, "rental_uris": {"ios": "https://dc.lft.to/lastmile_qr_scan", "android": "https://dc.lft.to/lastmile_qr_scan"}}, {"name": "18d01008163ed46e1e1845ad8d1bc0fd", "lon": -77.04020316666667, "lat": 38.9235, "type": "electric_scooter", "fusion_lon": 0.0, "is_reserved": 0, "bike_id": "18d01008163ed46e1e1845ad8d1bc0fd", "fusion_lat": 0.0, "is_disabled": 0, "rental_uris": {"ios": "https://dc.lft.to/lastmile_qr_scan", "android": "https://dc.lft.to/lastmile_qr_scan"}}, {"name": "f7aa6d2114d09c962f129b2f521b822c", "lon": -77.03867883333334, "lat": 38.90380433333333, "type": "electric_scooter", "fusion_lon": 0.0, "is_reserved": 0, "bike_id": "f7aa6d2114d09c962f129b2f521b822c", "fusion_lat": 0.0, "is_disabled": 0, "rental_uris": {"ios": "https://dc.lft.to/lastmile_qr_scan", "android": "https://dc.lft.to/lastmile_qr_scan"}}, {"name": "946becb7d202cf09cc4f0c09944e64bf", "lon": -77.00257966666666, "lat": 38.9223975, "type": "electric_scooter", "fusion_lon": 0.0, "is_reserved": 0, "bike_id": "946becb7d202cf09cc4f0c09944e64bf", "fusion_lat": 0.0, "is_disabled": 0, "rental_uris": {"ios": "https://dc.lft.to/lastmile_qr_scan", "android": "https://dc.lft.to/lastmile_qr_scan"}}, {"name": "728970088c9967003245126c8a0746a1", "lon": -77.02432583333334, "lat": 38.909661666666665, "type": "electric_scooter", "fusion_lon": 0.0, "is_reserved": 0, "bike_id": "728970088c9967003245126c8a0746a1", "fusion_lat": 0.0, "is_disabled": 0, "rental_uris": {"ios": "https://dc.lft.to/lastmile_qr_scan", "android": "https://dc.lft.to/lastmile_qr_scan"}}, {"name": "133fb46b33a31e5abe3f02ecdb27533d", "lon": -77.00598183333334, "lat": 38.906345333333334, "type": "electric_scooter", "fusion_lon": 0.0, "is_reserved": 0, "bike_id": "133fb46b33a31e5abe3f02ecdb27533d", "fusion_lat": 0.0, "is_disabled": 0, "rental_uris": {"ios": "https://dc.lft.to/lastmile_qr_scan", "android": "https://dc.lft.to/lastmile_qr_scan"}}, {"name": "7c9cbc156558ad0adc228d57807ced89", "lon": -77.00916366666667, "lat": 38.82783366666666, "type": "electric_scooter", "fusion_lon": 0.0, "is_reserved": 0, "bike_id": "7c9cbc156558ad0adc228d57807ced89", "fusion_lat": 0.0, "is_disabled": 0, "rental_uris": {"ios": "https://dc.lft.to/lastmile_qr_scan", "android": "https://dc.lft.to/lastmile_qr_scan"}}, {"name": "68c10bf65b8a1405cfa9ab734b46046c", "lon": -77.032828, "lat": 38.926188, "type": "electric_bike", "fusion_lon": 0.0, "is_reserved": 0, "bike_id": "68c10bf65b8a1405cfa9ab734b46046c", "fusion_lat": 0.0, "is_disabled": 0, "rental_uris": {"ios": "https://dc.lft.to/lastmile_qr_scan", "android": "https://dc.lft.to/lastmile_qr_scan"}}, {"name": "338190820c8c39993a9f2161fa03790d", "lon": -76.99385433333333, "lat": 38.877591, "type": "electric_scooter", "fusion_lon": 0.0, "is_reserved": 0, "bike_id": "338190820c8c39993a9f2161fa03790d", "fusion_lat": 0.0, "is_disabled": 0, "rental_uris": {"ios": "https://dc.lft.to/lastmile_qr_scan", "android": "https://dc.lft.to/lastmile_qr_scan"}}, {"name": "9260601e9d5062ecb6b3a66208e10a00", "lon": -77.0558145, "lat": 38.93613666666667, "type": "electric_scooter", "fusion_lon": 0.0, "is_reserved": 0, "bike_id": "9260601e9d5062ecb6b3a66208e10a00", "fusion_lat": 0.0, "is_disabled": 0, "rental_uris": {"ios": "https://dc.lft.to/lastmile_qr_scan", "android": "https://dc.lft.to/lastmile_qr_scan"}}, {"name": "0e7b27156ab54f52ba583a73de14cb6d", "lon": -77.04484983333333, "lat": 38.92405683333333, "type": "electric_scooter", "fusion_lon": 0.0, "is_reserved": 0, "bike_id": "0e7b27156ab54f52ba583a73de14cb6d", "fusion_lat": 0.0, "is_disabled": 0, "rental_uris": {"ios": "https://dc.lft.to/lastmile_qr_scan", "android": "https://dc.lft.to/lastmile_qr_scan"}}, {"name": "352df94831a08871b02ef9d5c5f48652", "lon": -77.02203183333333, "lat": 38.899872333333334, "type": "electric_scooter", "fusion_lon": 0.0, "is_reserved": 0, "bike_id": "352df94831a08871b02ef9d5c5f48652", "fusion_lat": 0.0, "is_disabled": 0, "rental_uris": {"ios": "https://dc.lft.to/lastmile_qr_scan", "android": "https://dc.lft.to/lastmile_qr_scan"}}, {"name": "ab2c37d3757bbd8a003da6ec8c6b1e0b", "lon": -77.05217483333334, "lat": 38.92485083333333, "type": "electric_scooter", "fusion_lon": 0.0, "is_reserved": 0, "bike_id": "ab2c37d3757bbd8a003da6ec8c6b1e0b", "fusion_lat": 0.0, "is_disabled": 0, "rental_uris": {"ios": "https://dc.lft.to/lastmile_qr_scan", "android": "https://dc.lft.to/lastmile_qr_scan"}}, {"name": "479b3d8b8b8cc05d2e154123bdaad977", "lon": -77.03284483333333, "lat": 38.9387915, "type": "electric_scooter", "fusion_lon": 0.0, "is_reserved": 0, "bike_id": "479b3d8b8b8cc05d2e154123bdaad977", "fusion_lat": 0.0, "is_disabled": 0, "rental_uris": {"ios": "https://dc.lft.to/lastmile_qr_scan", "android": "https://dc.lft.to/lastmile_qr_scan"}}, {"name": "66bac2aa4d383821efbbf51166bdc299", "lon": -77.02287366666667, "lat": 38.910732833333334, "type": "electric_scooter", "fusion_lon": 0.0, "is_reserved": 0, "bike_id": "66bac2aa4d383821efbbf51166bdc299", "fusion_lat": 0.0, "is_disabled": 0, "rental_uris": {"ios": "https://dc.lft.to/lastmile_qr_scan", "android": "https://dc.lft.to/lastmile_qr_scan"}}, {"name": "b2af6049fb0215ab09435dd69cb457f6", "lon": -77.01944366666666, "lat": 38.9241345, "type": "electric_scooter", "fusion_lon": 0.0, "is_reserved": 0, "bike_id": "b2af6049fb0215ab09435dd69cb457f6", "fusion_lat": 0.0, "is_disabled": 0, "rental_uris": {"ios": "https://dc.lft.to/lastmile_qr_scan", "android": "https://dc.lft.to/lastmile_qr_scan"}}, {"name": "216e74c8f857dc1fa5c6d1aee55b611c", "lon": -77.02717783333334, "lat": 38.94958316666666, "type": "electric_scooter", "fusion_lon": 0.0, "is_reserved": 0, "bike_id": "216e74c8f857dc1fa5c6d1aee55b611c", "fusion_lat": 0.0, "is_disabled": 0, "rental_uris": {"ios": "https://dc.lft.to/lastmile_qr_scan", "android": "https://dc.lft.to/lastmile_qr_scan"}}, {"name": "760aed36fa943bbc8b94f4d3558f1fca", "lon": -76.99779066666666, "lat": 38.90906916666667, "type": "electric_scooter", "fusion_lon": 0.0, "is_reserved": 0, "bike_id": "760aed36fa943bbc8b94f4d3558f1fca", "fusion_lat": 0.0, "is_disabled": 0, "rental_uris": {"ios": "https://dc.lft.to/lastmile_qr_scan", "android": "https://dc.lft.to/lastmile_qr_scan"}}, {"name": "8bc5efc67d349fd5a64bf8530612b75e", "lon": -77.018429, "lat": 38.9152385, "type": "electric_scooter", "fusion_lon": 0.0, "is_reserved": 0, "bike_id": "8bc5efc67d349fd5a64bf8530612b75e", "fusion_lat": 0.0, "is_disabled": 0, "rental_uris": {"ios": "https://dc.lft.to/lastmile_qr_scan", "android": "https://dc.lft.to/lastmile_qr_scan"}}, {"name": "0b7bc96f799a512890a54f35f64d5c01", "lon": -76.93613516666667, "lat": 38.88669433333333, "type": "electric_scooter", "fusion_lon": 0.0, "is_reserved": 0, "bike_id": "0b7bc96f799a512890a54f35f64d5c01", "fusion_lat": 0.0, "is_disabled": 0, "rental_uris": {"ios": "https://dc.lft.to/lastmile_qr_scan", "android": "https://dc.lft.to/lastmile_qr_scan"}}, {"name": "3adf81c0030dcf78535e4e3fe73f5dd9", "lon": -76.9960985, "lat": 38.903660333333335, "type": "electric_scooter", "fusion_lon": 0.0, "is_reserved": 0, "bike_id": "3adf81c0030dcf78535e4e3fe73f5dd9", "fusion_lat": 0.0, "is_disabled": 0, "rental_uris": {"ios": "https://dc.lft.to/lastmile_qr_scan", "android": "https://dc.lft.to/lastmile_qr_scan"}}, {"name": "01c69fbd7fce8a91875500629c89cb35", "lon": -77.03664833333333, "lat": 38.927202666666666, "type": "electric_scooter", "fusion_lon": 0.0, "is_reserved": 0, "bike_id": "01c69fbd7fce8a91875500629c89cb35", "fusion_lat": 0.0, "is_disabled": 0, "rental_uris": {"ios": "https://dc.lft.to/lastmile_qr_scan", "android": "https://dc.lft.to/lastmile_qr_scan"}}, {"name": "fa558d2820536102aed58bce07aaaf61", "lon": -77.02084833333333, "lat": 38.9271795, "type": "electric_scooter", "fusion_lon": 0.0, "is_reserved": 0, "bike_id": "fa558d2820536102aed58bce07aaaf61", "fusion_lat": 0.0, "is_disabled": 0, "rental_uris": {"ios": "https://dc.lft.to/lastmile_qr_scan", "android": "https://dc.lft.to/lastmile_qr_scan"}}, {"name": "29f8e83ba7fc198b44dfc27437f880be", "lon": -77.0240385, "lat": 38.93792333333333, "type": "electric_scooter", "fusion_lon": 0.0, "is_reserved": 0, "bike_id": "29f8e83ba7fc198b44dfc27437f880be", "fusion_lat": 0.0, "is_disabled": 0, "rental_uris": {"ios": "https://dc.lft.to/lastmile_qr_scan", "android": "https://dc.lft.to/lastmile_qr_scan"}}, {"name": "c8d1be35605c349039b7e0f1c9217408", "lon": -77.03101783333334, "lat": 38.919147333333335, "type": "electric_scooter", "fusion_lon": 0.0, "is_reserved": 0, "bike_id": "c8d1be35605c349039b7e0f1c9217408", "fusion_lat": 0.0, "is_disabled": 0, "rental_uris": {"ios": "https://dc.lft.to/lastmile_qr_scan", "android": "https://dc.lft.to/lastmile_qr_scan"}}, {"name": "e727cb84d80c5adabd876ede6374e5a1", "lon": -77.02689233333334, "lat": 38.8972015, "type": "electric_scooter", "fusion_lon": 0.0, "is_reserved": 0, "bike_id": "e727cb84d80c5adabd876ede6374e5a1", "fusion_lat": 0.0, "is_disabled": 0, "rental_uris": {"ios": "https://dc.lft.to/lastmile_qr_scan", "android": "https://dc.lft.to/lastmile_qr_scan"}}, {"name": "35cab1c139c486a12ec14b410b8eb1b5", "lon": -77.03801516666667, "lat": 38.9249875, "type": "electric_scooter", "fusion_lon": 0.0, "is_reserved": 0, "bike_id": "35cab1c139c486a12ec14b410b8eb1b5", "fusion_lat": 0.0, "is_disabled": 0, "rental_uris": {"ios": "https://dc.lft.to/lastmile_qr_scan", "android": "https://dc.lft.to/lastmile_qr_scan"}}, {"name": "8922e65f9107690b12573b33567f46dd", "lon": -77.04448716666667, "lat": 38.911776333333336, "type": "electric_scooter", "fusion_lon": 0.0, "is_reserved": 0, "bike_id": "8922e65f9107690b12573b33567f46dd", "fusion_lat": 0.0, "is_disabled": 0, "rental_uris": {"ios": "https://dc.lft.to/lastmile_qr_scan", "android": "https://dc.lft.to/lastmile_qr_scan"}}, {"name": "38fc61a07ec49e5d0d898ced5a4240be", "lon": -77.00044633333333, "lat": 38.9189495, "type": "electric_scooter", "fusion_lon": 0.0, "is_reserved": 0, "bike_id": "38fc61a07ec49e5d0d898ced5a4240be", "fusion_lat": 0.0, "is_disabled": 0, "rental_uris": {"ios": "https://dc.lft.to/lastmile_qr_scan", "android": "https://dc.lft.to/lastmile_qr_scan"}}, {"name": "dcc986fb972f09861b51ed3458294503", "lon": -76.97161583333333, "lat": 38.916431833333334, "type": "electric_bike", "fusion_lon": 0.0, "is_reserved": 0, "bike_id": "dcc986fb972f09861b51ed3458294503", "fusion_lat": 0.0, "is_disabled": 0, "rental_uris": {"ios": "https://dc.lft.to/lastmile_qr_scan", "android": "https://dc.lft.to/lastmile_qr_scan"}}, {"name": "3937fa90887b7bf0ff859924bf2d62b3", "lon": -77.0279425, "lat": 38.91216883333333, "type": "electric_scooter", "fusion_lon": 0.0, "is_reserved": 0, "bike_id": "3937fa90887b7bf0ff859924bf2d62b3", "fusion_lat": 0.0, "is_disabled": 0, "rental_uris": {"ios": "https://dc.lft.to/lastmile_qr_scan", "android": "https://dc.lft.to/lastmile_qr_scan"}}, {"name": "4ebc6c8723e83b268683bbe0526dba69", "lon": -77.0432355, "lat": 38.892231833333334, "type": "electric_scooter", "fusion_lon": 0.0, "is_reserved": 0, "bike_id": "4ebc6c8723e83b268683bbe0526dba69", "fusion_lat": 0.0, "is_disabled": 0, "rental_uris": {"ios": "https://dc.lft.to/lastmile_qr_scan", "android": "https://dc.lft.to/lastmile_qr_scan"}}, {"name": "330426ca20aafbd1c49f752050ce4b54", "lon": -77.03550266666667, "lat": 38.934003833333335, "type": "electric_bike", "fusion_lon": 0.0, "is_reserved": 0, "bike_id": "330426ca20aafbd1c49f752050ce4b54", "fusion_lat": 0.0, "is_disabled": 0, "rental_uris": {"ios": "https://dc.lft.to/lastmile_qr_scan", "android": "https://dc.lft.to/lastmile_qr_scan"}}, {"name": "0cbbdfc7802bd3cb0cfb5a250a83cc9a", "lon": -76.937518, "lat": 38.8904865, "type": "electric_scooter", "fusion_lon": 0.0, "is_reserved": 0, "bike_id": "0cbbdfc7802bd3cb0cfb5a250a83cc9a", "fusion_lat": 0.0, "is_disabled": 0, "rental_uris": {"ios": "https://dc.lft.to/lastmile_qr_scan", "android": "https://dc.lft.to/lastmile_qr_scan"}},