{"data": {"bikes": [{"rental_uris": {"ios": "https://dc.lft.to/lastmile_qr_scan", "android": "https://dc.lft.to/lastmile_qr_scan"}, "fusion_lon": 0.0, "type": "electric_scooter", "is_reserved": 0, "lon": -77.03247383333333, "is_disabled": 0, "fusion_lat": 0.0, "bike_id": "870f95791fe28ae173775a8438414f49", "name": "870f95791fe28ae173775a8438414f49", "lat": 38.9170395}, {"rental_uris": {"ios": "https://dc.lft.to/lastmile_qr_scan", "android": "https://dc.lft.to/lastmile_qr_scan"}, "fusion_lon": 0.0, "type": "electric_scooter", "is_reserved": 0, "lon": -77.02167216666666, "is_disabled": 0, "fusion_lat": 0.0, "bike_id": "6fcd52d34841f3864cc350695ac77ddd", "name": "6fcd52d34841f3864cc350695ac77ddd", "lat": 38.90556016666667}, {"rental_uris": {"ios": "https://dc.lft.to/lastmile_qr_scan", "android": "https://dc.lft.to/lastmile_qr_scan"}, "fusion_lon": 0.0, "type": "electric_scooter", "is_reserved": 0, "lon": -77.04824183333334, "is_disabled": 0, "fusion_lat": 0.0, "bike_id": "e44e901785fee3039d92f8c2c6d2d29b", "name": "e44e901785fee3039d92f8c2c6d2d29b", "lat": 38.898348}, {"rental_uris": {"ios": "https://dc.lft.to/lastmile_qr_scan", "android": "https://dc.lft.to/lastmile_qr_scan"}, "fusion_lon": 0.0, "type": "electric_scooter", "is_reserved": 0, "lon": -77.00566533333334, "is_disabled": 0, "fusion_lat": 0.0, "bike_id": "7ac6e6c9e3f0737d4b0b349cea82ba57", "name": "7ac6e6c9e3f0737d4b0b349cea82ba57", "lat": 38.8851125}, {"rental_uris": {"ios": "https://dc.lft.to/lastmile_qr_scan", "android": "https://dc.lft.to/lastmile_qr_scan"}, "fusion_lon": 0.0, "type": "electric_bike", "is_reserved": 0, "lon": -77.05853183333333, "is_disabled": 0, "fusion_lat": 0.0, "bike_id": "d1754f65563ee9b5ee0e4fa189330210", "name": "d1754f65563ee9b5ee0e4fa189330210", "lat": 38.92382466666667}, {"rental_uris": {"ios": "https://dc.lft.to/lastmile_qr_scan", "android": "https://dc.lft.to/lastmile_qr_scan"}, "fusion_lon": 0.0, "type": "electric_scooter", "is_reserved": 0, "lon": -77.0472025, "is_disabled": 0, "fusion_lat": 0.0, "bike_id": "219ac2bf34c38f47c003d86065d1d82a", "name": "219ac2bf34c38f47c003d86065d1d82a", "lat": 38.89964616666666}, {"rental_uris": {"ios": "https://dc.lft.to/lastmile_qr_scan", "android": "https://dc.lft.to/lastmile_qr_scan"}, "fusion_lon": 0.0, "type": "electric_scooter", "is_reserved": 0, "lon": -77.04532983333333, "is_disabled": 0, "fusion_lat": 0.0, "bike_id": "9eeb6790f749d3138dc519b9021fe181", "name": "9eeb6790f749d3138dc519b9021fe181", "lat": 38.905725333333336}, {"rental_uris": {"ios": "https://dc.lft.to/lastmile_qr_scan", "android": "https://dc.lft.to/lastmile_qr_scan"}, "fusion_lon": 0.0, "type": "electric_scooter", "is_reserved": 0, "lon": -76.93759033333333, "is_disabled": 0, "fusion_lat": 0.0, "bike_id": "86aa284332a77c39760b286c3c9c844a", "name": "86aa284332a77c39760b286c3c9c844a", "lat": 38.89966916666667}, {"rental_uris": {"ios": "https://dc.lft.to/lastmile_qr_scan", "android": "https://dc.lft.to/lastmile_qr_scan"}, "fusion_lon": 0.0, "type": "electric_scooter", "is_reserved": 0, "lon": -77.00347016666667, "is_disabled": 0, "fusion_lat": 0.0, "bike_id": "f74d8704e512989a05b1d9f4579a6ef1", "name": "f74d8704e512989a05b1d9f4579a6ef1", "lat": 38.896169666666665}, {"rental_uris": {"ios": "https://dc.lft.to/lastmile_qr_scan", "android": "https://dc.lft.to/lastmile_qr_scan"}, "fusion_lon": 0.0, "type": "electric_scooter", "is_reserved": 0, "lon": -77.0110395, "is_disabled": 0, "fusion_lat": 0.0, "bike_id": "c2c8594244687453742cdd6a104fde2f", "name": "c2c8594244687453742cdd6a104fde2f", "lat": 38.90357316666667}, {"rental_uris": {"ios": "https://dc.lft.to/lastmile_qr_scan", "android": "https://dc.lft.to/lastmile_qr_scan"}, "fusion_lon": 0.0, "type": "electric_scooter", "is_reserved": 0, "lon": -77.01784266666667, "is_disabled": 0, "fusion_lat": 0.0, "bike_id": "957e384e9d3382b0bcfa2b0caad9cb0a", "name": "957e384e9d3382b0bcfa2b0caad9cb0a", "lat": 38.92138083333333}, {"rental_uris": {"ios": "https://dc.lft.to/lastmile_qr_scan", "android": "https://dc.lft.to/lastmile_qr_scan"}, "fusion_lon": 0.0, "type": "electric_scooter", "is_reserved": 0, "lon": -77.04158766666667, "is_disabled": 0, "fusion_lat": 0.0, "bike_id": "1a1e66ea5b9cdb6bedfc569cc83d7d37", "name": "1a1e66ea5b9cdb6bedfc569cc83d7d37", "lat": 38.89573583333333}, {"rental_uris": {"ios": "https://dc.lft.to/lastmile_qr_scan", "android": "https://dc.lft.to/lastmile_qr_scan"}, "fusion_lon": 0.0, "type": "electric_scooter", "is_reserved": 0, "lon": -77.0220195, "is_disabled": 0, "fusion_lat": 0.0, "bike_id": "013bb9ece7e94b6811ae1b1d6eaae1dd", "name": "013bb9ece7e94b6811ae1b1d6eaae1dd", "lat": 38.92062883333333}, {"rental_uris": {"ios": "https://dc.lft.to/lastmile_qr_scan", "android": "https://dc.lft.to/lastmile_qr_scan"}, "fusion_lon": 0.0, "type": "electric_bike", "is_reserved": 0, "lon": -77.00825583333334, "is_disabled": 0, "fusion_lat": 0.0, "bike_id": "d39e7d825dd205375f98d11aee4af6db", "name": "d39e7d825dd205375f98d11aee4af6db", "lat": 38.830421333333334}, {"rental_uris": {"ios": "https://dc.lft.to/lastmile_qr_scan", "android": "https://dc.lft.to/lastmile_qr_scan"}, "fusion_lon": 0.0, "type": "electric_scooter", "is_reserved": 0, "lon": -77.03204733333334, "is_disabled": 0, "fusion_lat": 0.0, "bike_id": "5b86fa652599d066f011b50edc7773e3", "name": "5b86fa652599d066f011b50edc7773e3", "lat": 38.90924666666667}, {"rental_uris": {"ios": "https://dc.lft.to/lastmile_qr_scan", "android": "https://dc.lft.to/lastmile_qr_scan"}, "fusion_lon": 0.0, "type": "electric_scooter", "is_reserved": 0, "lon": -77.05012683333334, "is_disabled": 0, "fusion_lat": 0.0, "bike_id": "06f5edc63c0f234c1e0b5ff744ca5475", "name": "06f5edc63c0f234c1e0b5ff744ca5475", "lat": 38.90087}, {"rental_uris": {"ios": "https://dc.lft.to/lastmile_qr_scan", "android": "https://dc.lft.to/lastmile_qr_scan"}, "fusion_lon": 0.0, "type": "electric_bike", "is_reserved": 0, "lon": -77.06931216666666, "is_disabled": 0, "fusion_lat": 0.0, "bike_id": "5de3230e8d7b9eb5cc0f21cf13199ad9", "name": "5de3230e8d7b9eb5cc0f21cf13199ad9", "lat": 38.84625166666667}, {"rental_uris": {"ios": "https://dc.lft.to/lastmile_qr_scan", "android": "https://dc.lft.to/lastmile_qr_scan"}, "fusion_lon": 0.0, "type": "electric_scooter", "is_reserved": 0, "lon": -77.038015, "is_disabled": 0, "fusion_lat": 0.0, "bike_id": "f72104976a59373dcca53698ca6c9f33", "name": "f72104976a59373dcca53698ca6c9f33", "lat": 38.918044333333334}, {"rental_uris": {"ios": "https://dc.lft.to/lastmile_qr_scan", "android": "https://dc.lft.to/lastmile_qr_scan"}, "fusion_lon": 0.0, "type": "electric_scooter", "is_reserved": 0, "lon": -77.03772516666666, "is_disabled": 0, "fusion_lat": 0.0, "bike_id": "bfb71de7323c2d181d353e56bc5bf1d6", "name": "bfb71de7323c2d181d353e56bc5bf1d6", "lat": 38.92558016666667}, {"rental_uris": {"ios": "https://dc.lft.to/lastmile_qr_scan", "android": "https://dc.lft.to/lastmile_qr_scan"}, "fusion_lon": 0.0, "type": "electric_scooter", "is_reserved": 0, "lon": -77.03814166666666, "is_disabled": 0, "fusion_lat": 0.0, "bike_id": "53f647ccd43ad47d5f2c4f64563bb3ef", "name": "53f647ccd43ad47d5f2c4f64563bb3ef", "lat": 38.91430366666667}, {"rental_uris": {"ios": "https://dc.lft.to/lastmile_qr_scan", "android": "https://dc.lft.to/lastmile_qr_scan"}, "fusion_lon": 0.0, "type": "electric_scooter", "is_reserved": 0, "lon": -77.07326833333333, "is_disabled": 0, "fusion_lat": 0.0, "bike_id": "79a69a70b283f02008b5907eb9b3ede5", "name": "79a69a70b283f02008b5907eb9b3ede5", "lat": 38.943216666666665}, {"rental_uris": {"ios": "https://dc.lft.to/lastmile_qr_scan", "android": "https://dc.lft.to/lastmile_qr_scan"}, "fusion_lon": 0.0, "type": "electric_scooter", "is_reserved": 0, "lon": -77.04156733333333, "is_disabled": 0, "fusion_lat": 0.0, "bike_id": "dbd580b3af24b7615aee4e1d89ca8924", "name": "dbd580b3af24b7615aee4e1d89ca8924", "lat": 38.901436833333335}, {"rental_uris": {"ios": "https://dc.lft.to/lastmile_qr_scan", "android": "https://dc.lft.to/lastmile_qr_scan"}, "fusion_lon": 0.0, "type": "electric_scooter", "is_reserved": 0, "lon": -77.02146683333333, "is_disabled": 0, "fusion_lat": 0.0, "bike_id": "a745e232f163d8793f7283b686f6be0d", "name": "a745e232f163d8793f7283b686f6be0d", "lat": 38.902274}, {"rental_uris": {"ios": "https://dc.lft.to/lastmile_qr_scan", "android": "https://dc.lft.to/lastmile_qr_scan"}, "fusion_lon": 0.0, "type": "electric_scooter", "is_reserved": 0, "lon": -77.0481335, "is_disabled": 0, "fusion_lat": 0.0, "bike_id": "fe09aa8323a2d0b97719c2b2ef6954d7", "name": "fe09aa8323a2d0b97719c2b2ef6954d7", "lat": 38.91644083333333}, {"rental_uris": {"ios": "https://dc.lft.to/lastmile_qr_scan", "android": "https://dc.lft.to/lastmile_qr_scan"}, "fusion_lon": 0.0, "type": "electric_scooter", "is_reserved": 0, "lon": -77.01202233333333, "is_disabled": 0, "fusion_lat": 0.0, "bike_id": "0ff0d5ba058ab903e03b761a070a0da8", "name": "0ff0d5ba058ab903e03b761a070a0da8", "lat": 38.89780866666667}, {"rental_uris": {"ios": "https://dc.lft.to/lastmile_qr_scan", "android": "https://dc.lft.to/lastmile_qr_scan"}, "fusion_lon": 0.0, "type": "electric_scooter", "is_reserved": 0, "lon": -77.0115395, "is_disabled": 0, "fusion_lat": 0.0, "bike_id": "9499899b4432e8a7aa2c4b42b54b38fd", "name": "9499899b4432e8a7aa2c4b42b54b38fd", "lat": 38.90031}, {"rental_uris": {"ios": "https://dc.lft.to/lastmile_qr_scan", "android": "https://dc.lft.to/lastmile_qr_scan"}, "fusion_lon": 0.0, "type": "electric_scooter", "is_reserved": 0, "lon": -77.04888016666666, "is_disabled": 0, "fusion_lat": 0.0, "bike_id": "f03affd48eccdc34403f983262b38e8e", "name": "f03affd48eccdc34403f983262b38e8e", "lat": 38.90059383333333}, {"rental_uris": {"ios": "https://dc.lft.to/lastmile_qr_scan", "android": "https://dc.lft.to/lastmile_qr_scan"}, "fusion_lon": 0.0, "type": "electric_scooter", "is_reserved": 0, "lon": -76.98536116666666, "is_disabled": 0, "fusion_lat": 0.0, "bike_id": "e2471ff3ac8d70b4a5b1c6448b71b20e", "name": "e2471ff3ac8d70b4a5b1c6448b71b20e", "lat": 38.90949466666667}, {"rental_uris": {"ios": "https://dc.lft.to/lastmile_qr_scan", "android": "https://dc.lft.to/lastmile_qr_scan"}, "fusion_lon": 0.0, "type": "electric_scooter", "is_reserved": 0, "lon": -77.02690683333333, "is_disabled": 0, "fusion_lat": 0.0, "bike_id": "462f9fff16ba59a4bd60c66e67bf28d1", "name": "462f9fff16ba59a4bd60c66e67bf28d1", "lat": 38.90235533333333}, {"rental_uris": {"ios": "https://dc.lft.to/lastmile_qr_scan", "android": "https://dc.lft.to/lastmile_qr_scan"}, "fusion_lon": 0.0, "type": "electric_scooter", "is_reserved": 0, "lon": -77.02287816666667, "is_disabled": 0, "fusion_lat": 0.0, "bike_id": "6a7c3799ea2b2804e2a5519a985a8676", "name": "6a7c3799ea2b2804e2a5519a985a8676", "lat": 38.9174795}, {"rental_uris": {"ios": "https://dc.lft.to/lastmile_qr_scan", "android": "https://dc.lft.to/lastmile_qr_scan"}, "fusion_lon": 0.0, "type": "electric_scooter", "is_reserved": 0, "lon": -77.01532116666667, "is_disabled": 0, "fusion_lat": 0.0, "bike_id": "aaf658347cc3b8c7eab481c7d84cf287", "name": "aaf658347cc3b8c7eab481c7d84cf287", "lat": 38.8873675}, {"rental_uris": {"ios": "https://dc.lft.to/lastmile_qr_scan", "android": "https://dc.lft.to/lastmile_qr_scan"}, "fusion_lon": 0.0, "type": "electric_scooter", "is_reserved": 0, "lon": -77.018192, "is_disabled": 0, "fusion_lat": 0.0, "bike_id": "be229df092ad12b04490d1301f18a1b9", "name": "be229df092ad12b04490d1301f18a1b9", "lat": 38.922295166666665}, {"rental_uris": {"ios": "https://dc.lft.to/lastmile_qr_scan", "android": "https://dc.lft.to/lastmile_qr_scan"}, "fusion_lon": 0.0, "type": "electric_scooter", "is_reserved": 0, "lon": -77.026526, "is_disabled": 0, "fusion_lat": 0.0, "bike_id": "415b91a1c494428f4ee5cbc109f6fcfd", "name": "415b91a1c494428f4ee5cbc109f6fcfd", "lat": 38.917078833333335}, {"rental_uris": {"ios": "https://dc.lft.to/lastmile_qr_scan", "android": "https://dc.lft.to/lastmile_qr_scan"}, "fusion_lon": 0.0, "type": "electric_scooter", "is_reserved": 0, "lon": -77.0024655, "is_disabled": 0, "fusion_lat": 0.0, "bike_id": "61542b4b22b076a2a95ab1dc216f5500", "name": "61542b4b22b076a2a95ab1dc216f5500", "lat": 38.919206333333335}, {"rental_uris": {"ios": "https://dc.lft.to/lastmile_qr_scan", "android": "https://dc.lft.to/lastmile_qr_scan"}, "fusion_lon": 0.0, "type": "electric_scooter", "is_reserved": 0, "lon": -77.02478983333333, "is_disabled": 0, "fusion_lat": 0.0, "bike_id": "1e918c71a26fe29f632d91f304e995c1", "name": "1e918c71a26fe29f632d91f304e995c1", "lat": 38.918133166666664}, {"rental_uris": {"ios": "https://dc.lft.to/lastmile_qr_scan", "android": "https://dc.lft.to/lastmile_qr_scan"}, "fusion_lon": 0.0, "type": "electric_scooter", "is_reserved": 0, "lon": -77.05342333333333, "is_disabled": 0, "fusion_lat": 0.0, "bike_id": "a0e03ef5153ced7d48b2adbf47802c61", "name": "a0e03ef5153ced7d48b2adbf47802c61", "lat": 38.904457666666666}, {"rental_uris": {"ios": "https://dc.lft.to/lastmile_qr_scan", "android": "https://dc.lft.to/lastmile_qr_scan"}, "fusion_lon": 0.0, "type": "electric_bike", "is_reserved": 0, "lon": -76.9906105, "is_disabled": 0, "fusion_lat": 0.0, "bike_id": "9cb6f2598270c714dbc3ef0c62a55391", "name": "9cb6f2598270c714dbc3ef0c62a55391", "lat": 38.920131833333336}, {"rental_uris": {"ios": "https://dc.lft.to/lastmile_qr_scan", "android": "https://dc.lft.to/lastmile_qr_scan"}, "fusion_lon": 0.0, "type": "electric_scooter", "is_reserved": 0, "lon": -77.021845, "is_disabled": 0, "fusion_lat": 0.0, "bike_id": "d6fa41604fa83610b409fc298651a1a8", "name": "d6fa41604fa83610b409fc298651a1a8", "lat": 38.91354666666667}, {"rental_uris": {"ios": "https://dc.lft.to/lastmile_qr_scan", "android": "https://dc.lft.to/lastmile_qr_scan"}, "fusion_lon": 0.0, "type": "electric_scooter", "is_reserved": 0, "lon": -77.03198316666666, "is_disabled": 0, "fusion_lat": 0.0, "bike_id": "963fe4a298781db9cf11a6d30847062f", "name": "963fe4a298781db9cf11a6d30847062f", "lat": 38.917304333333334}, {"rental_uris": {"ios": "https://dc.lft.to/lastmile_qr_scan", "android": "https://dc.lft.to/lastmile_qr_scan"}, "fusion_lon": 0.0, "type": "electric_bike", "is_reserved": 0, "lon": -77.06382766666667, "is_disabled": 0, "fusion_lat": 0.0, "bike_id": "927d6b0f94d37ce0744226ecfb4248c5", "name": "927d6b0f94d37ce0744226ecfb4248c5", "lat": 38.84291666666667}, {"rental_uris": {"ios": "https://dc.lft.to/lastmile_qr_scan", "android": "https://dc.lft.to/lastmile_qr_scan"}, "fusion_lon": 0.0, "type": "electric_scooter", "is_reserved": 0, "lon": -77.064041, "is_disabled": 0, "fusion_lat": 0.0, "bike_id": "408b938b2e320eaa0cfe981b687ce7c8", "name": "408b938b2e320eaa0cfe981b687ce7c8", "lat": 38.90853333333333}, {"rental_uris": {"ios": "https://dc.lft.to/lastmile_qr_scan", "android": "https://dc.lft.to/lastmile_qr_scan"}, "fusion_lon": 0.0, "type": "electric_bike", "is_reserved": 0, "lon": -76.99874683333333, "is_disabled": 0, "fusion_lat": 0.0, "bike_id": "3cd5f96a2c8c942580bc3b1252f67216", "name": "3cd5f96a2c8c942580bc3b1252f67216", "lat": 38.93222033333333}, {"rental_uris": {"ios": "https://dc.lft.to/lastmile_qr_scan", "android": "https://dc.lft.to/lastmile_qr_scan"}, "fusion_lon": 0.0, "type": "electric_scooter", "is_reserved": 0, "lon": -77.04218616666667, "is_disabled": 0, "fusion_lat": 0.0, "bike_id": "9f170b67d98f5d9e29fe4c464c3104e4", "name": "9f170b67d98f5d9e29fe4c464c3104e4", "lat": 38.92104483333333}, {"rental_uris": {"ios": "https://dc.lft.to/lastmile_qr_scan", "android": "https://dc.lft.to/lastmile_qr_scan"}, "fusion_lon": 0.0, "type": "electric_bike", "is_reserved": 0, "lon": -76.97946133333333, "is_disabled": 0, "fusion_lat": 0.0, "bike_id": "06c0ed4f104a318be806b464e6c8c863", "name": "06c0ed4f104a318be806b464e6c8c863", "lat": 38.92029616666667}, {"rental_uris": {"ios": "https://dc.lft.to/lastmile_qr_scan", "android": "https://dc.lft.to/lastmile_qr_scan"}, "fusion_lon": 0.0, "type": "electric_bike", "is_reserved": 0, "lon": -77.0962215, "is_disabled": 0, "fusion_lat": 0.0, "bike_id": "0dc5c41fc7b1a3c494600fea72b78fd2", "name": "0dc5c41fc7b1a3c494600fea72b78fd2", "lat": 38.95244866666667}, {"rental_uris": {"ios": "https://dc.lft.to/lastmile_qr_scan", "android": "https://dc.lft.to/lastmile_qr_scan"}, "fusion_lon": 0.0, "type": "electric_scooter", "is_reserved": 0, "lon": -77.04575933333334, "is_disabled": 0, "fusion_lat": 0.0, "bike_id": "392d468c6a9bc1c2c214a58476de3b4a", "name": "392d468c6a9bc1c2c214a58476de3b4a", "lat": 38.90731066666667}, {"rental_uris": {"ios": "https://dc.lft.to/lastmile_qr_scan", "android": "https://dc.lft.to/lastmile_qr_scan"}, "fusion_lon": 0.0, "type": "electric_scooter", "is_reserved": 0, "lon": -77.0307615, "is_disabled": 0, "fusion_lat": 0.0, "bike_id": "66a996e1630a97850e3ecc0608e11d50", "name": "66a996e1630a97850e3ecc0608e11d50", "lat": 38.92245583333333}, {"rental_uris": {"ios": "https://dc.lft.to/lastmile_qr_scan", "android": "https://dc.lft.to/lastmile_qr_scan"}, "fusion_lon": 0.0, "type": "electric_scooter", "is_reserved": 0, "lon": -77.0382745, "is_disabled": 0, "fusion_lat": 0.0, "bike_id": "d15dfcfe38c592b568c76ee7f5ab334d", "name": "d15dfcfe38c592b568c76ee7f5ab334d", "lat": 38.911154833333335}, {"rental_uris": {"ios": "https://dc.lft.to/lastmile_qr_scan", "android": "https://dc.lft.to/lastmile_qr_scan"}, "fusion_lon": 0.0, "type": "electric_scooter", "is_reserved": 0, "lon": -77.02219133333334, "is_disabled": 0, "fusion_lat": 0.0, "bike_id": "4f50e75a6f52ea30bf3c2c2e06ee660d", "name": "4f50e75a6f52ea30bf3c2c2e06ee660d", "lat": 38.89615716666667}, {"rental_uris": {"ios": "https://dc.lft.to/lastmile_qr_scan", "android": "https://dc.lft.to/lastmile_qr_scan"}, "fusion_lon": 0.0, "type": "electric_scooter", "is_reserved": 0, "lon": -77.047875, "is_disabled": 0, "fusion_lat": 0.0, "bike_id": "8b04917412fa3c2fc4ec0d2ba9f0e947", "name": "8b04917412fa3c2fc4ec0d2ba9f0e947", "lat": 38.919478166666664}, {"rental_uris": {"ios": "https://dc.lft.to/lastmile_qr_scan", "android": "https://dc.lft.to/lastmile_qr_scan"}, "fusion_lon": 0.0, "type": "electric_scooter", "is_reserved": 0, "lon": -77.04947583333333, "is_disabled": 0, "fusion_lat": 0.0, "bike_id": "dc7379298481f1708c7fad0336e640f8", "name": "dc7379298481f1708c7fad0336e640f8", "lat": 38.89748266666667}, {"rental_uris": {"ios": "https://dc.lft.to/lastmile_qr_scan", "android": "https://dc.lft.to/lastmile_qr_scan"}, "fusion_lon": 0.0, "type": "electric_scooter", "is_reserved": 0, "lon": -77.0404865, "is_disabled": 0, "fusion_lat": 0.0, "bike_id": "19a1f33047fcca671d6d2903be9fb01d", "name": "19a1f33047fcca671d6d2903be9fb01d", "lat": 38.924283}, {"rental_uris": {"ios": "https://dc.lft.to/lastmile_qr_scan", "android": "https://dc.lft.to/lastmile_qr_scan"}, "fusion_lon": 0.0, "type": "electric_scooter", "is_reserved": 0, "lon": -77.00101233333334, "is_disabled": 0, "fusion_lat": 0.0, "bike_id": "7f6724e0128e2bae069ae0958d562085", "name": "7f6724e0128e2bae069ae0958d562085", "lat": 38.90743583333333}, {"rental_uris": {"ios": "https://dc.lft.to/lastmile_qr_scan", "android": "https://dc.lft.to/lastmile_qr_scan"}, "fusion_lon": 0.0, "type": "electric_scooter", "is_reserved": 0, "lon": -77.02355133333333, "is_disabled": 0, "fusion_lat": 0.0, "bike_id": "5eb698848928d4563e9e0ef2852cebb1", "name": "5eb698848928d4563e9e0ef2852cebb1", "lat": 38.93526716666667}, {"rental_uris": {"ios": "https://dc.lft.to/lastmile_qr_scan", "android": "https://dc.lft.to/lastmile_qr_scan"}, "fusion_lon": 0.0, "type": "electric_scooter", "is_reserved": 0, "lon": -77.01274083333334, "is_disabled": 0, "fusion_lat": 0.0, "bike_id": "4765cb80b576f1f2a84b8803f6285f41", "name": "4765cb80b576f1f2a84b8803f6285f41", "lat": 38.90954266666667}, {"rental_uris": {"ios": "https://dc.lft.to/lastmile_qr_scan", "android": "https://dc.lft.to/lastmile_qr_scan"}, "fusion_lon": 0.0, "type": "electric_scooter", "is_reserved": 0, "lon": -77.00175216666666, "is_disabled": 0, "fusion_lat": 0.0, "bike_id": "ac1bb480aff795b3b72de665ef5b6b5f", "name": "ac1bb480aff795b3b72de665ef5b6b5f", "lat": 38.88868733333334}, {"rental_uris": {"ios": "https://dc.lft.to/lastmile_qr_scan", "android": "https://dc.lft.to/lastmile_qr_scan"}, "fusion_lon": 0.0, "type": "electric_scooter", "is_reserved": 0, "lon": -77.0661125, "is_disabled": 0, "fusion_lat": 0.0, "bike_id": "e5f8b962648bc205d7bd2feba4527fc0", "name": "e5f8b962648bc205d7bd2feba4527fc0", "lat": 38.90586233333333}, {"rental_uris": {"ios": "https://dc.lft.to/lastmile_qr_scan", "android": "https://dc.lft.to/lastmile_qr_scan"}, "fusion_lon": 0.0, "type": "electric_scooter", "is_reserved": 0, "lon": -77.023634, "is_disabled": 0, "fusion_lat": 0.0, "bike_id": "6d99d9480d09107bf3778b8ccdc646fa", "name": "6d99d9480d09107bf3778b8ccdc646fa", "lat": 38.91966716666667}, {"rental_uris": {"ios": "https://dc.lft.to/lastmile_qr_scan", "android": "https://dc.lft.to/lastmile_qr_scan"}, "fusion_lon": 0.0, "type": "electric_scooter", "is_reserved": 0, "lon": -77.045282, "is_disabled": 0, "fusion_lat": 0.0, "bike_id": "dc0a095f096c5522eee8258b0b855437", "name": "dc0a095f096c5522eee8258b0b855437", "lat": 38.912989833333334}, {"rental_uris": {"ios": "https://dc.lft.to/lastmile_qr_scan", "android": "https://dc.lft.to/lastmile_qr_scan"}, "fusion_lon": 0.0, "type": "electric_bike", "is_reserved": 0, "lon": -76.95252283333333, "is_disabled": 0, "fusion_lat": 0.0, "bike_id": "09b0855169a5d70a6adb9b86952477a9", "name": "09b0855169a5d70a6adb9b86952477a9", "lat": 38.906909166666665}, {"rental_uris": {"ios": "https://dc.lft.to/lastmile_qr_scan", "android": "https://dc.lft.to/lastmile_qr_scan"}, "fusion_lon": 0.0, "type": "electric_scooter", "is_reserved": 0, "lon": -76.9847555, "is_disabled": 0, "fusion_lat": 0.0, "bike_id": "d55f6ed6929dbcc06407e0ddfa0ba7b1", "name": "d55f6ed6929dbcc06407e0ddfa0ba7b1", "lat": 38.942667666666665}, {"rental_uris": {"ios": "https://dc.lft.to/lastmile_qr_scan", "android": "https://dc.lft.to/lastmile_qr_scan"}, "fusion_lon": 0.0, "type": "electric_scooter", "is_reserved": 0, "lon": -77.0195005, "is_disabled": 0, "fusion_lat": 0.0, "bike_id": "74060a1958b61c94d4008a981169ac1f", "name": "74060a1958b61c94d4008a981169ac1f", "lat": 38.922432666666666}, {"rental_uris": {"ios": "https://dc.lft.to/lastmile_qr_scan", "android": "https://dc.lft.to/lastmile_qr_scan"}, "fusion_lon": 0.0, "type": "electric_scooter", "is_reserved": 0, "lon": -77.050252, "is_disabled": 0, "fusion_lat": 0.0, "bike_id": "e87ab4bde6924fe64d815e237a4457b8", "name": "e87ab4bde6924fe64d815e237a4457b8", "lat": 38.90072583333333}, {"rental_uris": {"ios": "https://dc.lft.to/lastmile_qr_scan", "android": "https://dc.lft.to/lastmile_qr_scan"}, "fusion_lon": 0.0, "type": "electric_scooter", "is_reserved": 0, "lon": -76.9576755, "is_disabled": 0, "fusion_lat": 0.0, "bike_id": "938cd30c7c9948e2db226a053d5cb0b7", "name": "938cd30c7c9948e2db226a053d5cb0b7", "lat": 38.883534}, {"rental_uris": {"ios": "https://dc.lft.to/lastmile_qr_scan", "android": "https://dc.lft.to/lastmile_qr_scan"}, "fusion_lon": 0.0, "type": "electric_bike", "is_reserved": 0, "lon": -77.0625335, "is_disabled": 0, "fusion_lat": 0.0, "bike_id": "2383e11a0b8769230f250d30e7faa3f6", "name": "2383e11a0b8769230f250d30e7faa3f6", "lat": 38.80638916666667}, {"rental_uris": {"ios": "https://dc.lft.to/lastmile_qr_scan", "android": "https://dc.lft.to/lastmile_qr_scan"}, "fusion_lon": 0.0, "type": "electric_scooter", "is_reserved": 0, "lon": -76.995674, "is_disabled": 0, "fusion_lat": 0.0, "bike_id": "e49ad43c279cbf10c6e002517eb8e696", "name": "e49ad43c279cbf10c6e002517eb8e696", "lat": 38.920230833333335}, {"rental_uris": {"ios": "https://dc.lft.to/lastmile_qr_scan", "android": "https://dc.lft.to/lastmile_qr_scan"}, "fusion_lon": 0.0, "type": "electric_scooter", "is_reserved": 0, "lon": -77.0555895, "is_disabled": 0, "fusion_lat": 0.0, "bike_id": "3264fd3f371f490729d4280c1e15a566", "name": "3264fd3f371f490729d4280c1e15a566", "lat": 38.8997125}, {"rental_uris": {"ios": "https://dc.lft.to/lastmile_qr_scan", "android": "https://dc.lft.to/lastmile_qr_scan"}, "fusion_lon": 0.0, "type": "electric_scooter", "is_reserved": 0, "lon": -77.03519533333333, "is_disabled": 0, "fusion_lat": 0.0, "bike_id": "eacb316d1c0af51e22d523784ef74467", "name": "eacb316d1c0af51e22d523784ef74467", "lat": 38.92255766666667}, {"rental_uris": {"ios": "https://dc.lft.to/lastmile_qr_scan", "android": "https://dc.lft.to/lastmile_qr_scan"}, "fusion_lon": 0.0, "type": "electric_scooter", "is_reserved": 0, "lon": -76.990328, "is_disabled": 0, "fusion_lat": 0.0, "bike_id": "205ff96b0fa44d1563b40509a7c3097b", "name": "205ff96b0fa44d1563b40509a7c3097b", "lat": 38.89851266666667}, {"rental_uris": {"ios": "https://dc.lft.to/lastmile_qr_scan", "android": "https://dc.lft.to/lastmile_qr_scan"}, "fusion_lon": 0.0, "type": "electric_scooter", "is_reserved": 0, "lon": -77.06003616666666, "is_disabled": 0, "fusion_lat": 0.0, "bike_id": "392a3f542dfcde0fd619edfe3c947a7a", "name": "392a3f542dfcde0fd619edfe3c947a7a", "lat": 38.93776583333333}, {"rental_uris": {"ios": "https://dc.lft.to/lastmile_qr_scan", "android": "https://dc.lft.to/lastmile_qr_scan"}, "fusion_lon": 0.0, "type": "electric_scooter", "is_reserved": 0, "lon": -76.983762, "is_disabled": 0, "fusion_lat": 0.0, "bike_id": "a4b96e720068463ca720a982ad560f9c", "name": "a4b96e720068463ca720a982ad560f9c", "lat": 38.860806333333336}, {"rental_uris": {"ios": "https://dc.lft.to/lastmile_qr_scan", "android": "https://dc.lft.to/lastmile_qr_scan"}, "fusion_lon": 0.0, "type": "electric_scooter", "is_reserved": 0, "lon": -77.01933, "is_disabled": 0, "fusion_lat": 0.0, "bike_id": "6db1ddbb4af7e3b9ff74821229067298", "name": "6db1ddbb4af7e3b9ff74821229067298", "lat": 38.8997485}, {"rental_uris": {"ios": "https://dc.lft.to/lastmile_qr_scan", "android": "https://dc.lft.to/lastmile_qr_scan"}, "fusion_lon": 0.0, "type": "electric_scooter", "is_reserved": 0, "lon": -77.02270816666666, "is_disabled": 0, "fusion_lat": 0.0, "bike_id": "5760bcb63ac309e8a98c875886256912", "name": "5760bcb63ac309e8a98c875886256912", "lat": 38.922306166666665}, {"rental_uris": {"ios": "https://dc.lft.to/lastmile_qr_scan", "android": "https://dc.lft.to/lastmile_qr_scan"}, "fusion_lon": 0.0, "type": "electric_scooter", "is_reserved": 0, "lon": -77.03198083333334, "is_disabled": 0, "fusion_lat": 0.0, "bike_id": "8a6e96203df8a1025496a98f84c48e06", "name": "8a6e96203df8a1025496a98f84c48e06", "lat": 38.91737166666667}, {"rental_uris": {"ios": "https://dc.lft.to/lastmile_qr_scan", "android": "https://dc.lft.to/lastmile_qr_scan"}, "fusion_lon": 0.0, "type": "electric_scooter", "is_reserved": 0, "lon": -77.01210683333333, "is_disabled": 0, "fusion_lat": 0.0, "bike_id": "c6e12cf6d89cf4e36e88d90ba61b5d7e", "name": "c6e12cf6d89cf4e36e88d90ba61b5d7e", "lat": 38.88575483333334}, {"rental_uris": {"ios": "https://dc.lft.to/lastmile_qr_scan", "android": "https://dc.lft.to/lastmile_qr_scan"}, "fusion_lon": 0.0, "type": "electric_scooter", "is_reserved": 0, "lon": -77.02284166666666, "is_disabled": 0, "fusion_lat": 0.0, "bike_id": "9cc81923c4265d2507982a305066eb9c", "name": "9cc81923c4265d2507982a305066eb9c", "lat": 38.914368833333334}, {"rental_uris": {"ios": "https://dc.lft.to/lastmile_qr_scan", "android": "https://dc.lft.to/lastmile_qr_scan"}, "fusion_lon": 0.0, "type": "electric_scooter", "is_reserved": 0, "lon": -77.02416166666667, "is_disabled": 0, "fusion_lat": 0.0, "bike_id": "df1cfa5b05bb64495efe881367c9ce8f", "name": "df1cfa5b05bb64495efe881367c9ce8f", "lat": 38.90959133333333}, {"rental_uris": {"ios": "https://dc.lft.to/lastmile_qr_scan", "android": "https://dc.lft.to/lastmile_qr_scan"}, "fusion_lon": 0.0, "type": "electric_scooter", "is_reserved": 0, "lon": -77.00127966666666, "is_disabled": 0, "fusion_lat": 0.0, "bike_id": "3ef6d1c3bae8f9b08e394ab2b39ec4cc", "name": "3ef6d1c3bae8f9b08e394ab2b39ec4cc", "lat": 38.878697}, {"rental_uris": {"ios": "https://dc.lft.to/lastmile_qr_scan", "android": "https://dc.lft.to/lastmile_qr_scan"}, "fusion_lon": 0.0, "type": "electric_scooter", "is_reserved": 0, "lon": -77.04874866666667, "is_disabled": 0, "fusion_lat": 0.0, "bike_id": "e54281364cc28117884d2428ff7b2e1c", "name": "e54281364cc28117884d2428ff7b2e1c", "lat": 38.90492666666667}, {"rental_uris": {"ios": "https://dc.lft.to/lastmile_qr_scan", "android": "https://dc.lft.to/lastmile_qr_scan"}, "fusion_lon": 0.0, "type": "electric_scooter", "is_reserved": 0, "lon": -77.0019445, "is_disabled": 0, "fusion_lat": 0.0, "bike_id": "069c615b0e07fda854b275b0236eae50", "name": "069c615b0e07fda854b275b0236eae50", "lat": 38.8873895}, {"rental_uris": {"ios": "https://dc.lft.to/lastmile_qr_scan", "android": "https://dc.lft.to/lastmile_qr_scan"}, "fusion_lon": 0.0, "type": "electric_scooter", "is_reserved": 0, "lon": -77.0295195, "is_disabled": 0, "fusion_lat": 0.0, "bike_id": "3d1a43dcc18acf983250664bda145fbc", "name": "3d1a43dcc18acf983250664bda145fbc", "lat": 38.90174016666667}, {"rental_uris": {"ios": "https://dc.lft.to/lastmile_qr_scan", "android": "https://dc.lft.to/lastmile_qr_scan"}, "fusion_lon": 0.0, "type": "electric_scooter", "is_reserved": 0, "lon": -77.03134333333334, "is_disabled": 0, "fusion_lat": 0.0, "bike_id": "a57e3095a4b9be4d3136c60deac705ee", "name": "a57e3095a4b9be4d3136c60deac705ee", "lat": 38.923708}, {"rental_uris": {"ios": "https://dc.lft.to/lastmile_qr_scan", "android": "https://dc.lft.to/lastmile_qr_scan"}, "fusion_lon": 0.0, "type": "electric_scooter", "is_reserved": 0, "lon": -77.039949, "is_disabled": 0, "fusion_lat": 0.0, "bike_id": "ef578ee70f48d3ff5ee1cd60341820e3", "name": "ef578ee70f48d3ff5ee1cd60341820e3", "lat": 38.9175795}, {"rental_uris": {"ios": "https://dc.lft.to/lastmile_qr_scan", "android": "https://dc.lft.to/lastmile_qr_scan"}, "fusion_lon": 0.0, "type": "electric_scooter", "is_reserved": 0, "lon": -77.01201616666667, "is_disabled": 0, "fusion_lat": 0.0, "bike_id": "61667be861f64c0de6633c11a6d63eac", "name": "61667be861f64c0de6633c11a6d63eac", "lat": 38.89683933333333}, {"rental_uris": {"ios": "https://dc.lft.to/lastmile_qr_scan", "android": "https://dc.lft.to/lastmile_qr_scan"}, "fusion_lon": 0.0, "type": "electric_scooter", "is_reserved": 0, "lon": -77.044574, "is_disabled": 0, "fusion_lat": 0.0, "bike_id": "7143e626884cfde70fc22b0855f71335", "name": "7143e626884cfde70fc22b0855f71335", "lat": 38.915349}, {"rental_uris": {"ios": "https://dc.lft.to/lastmile_qr_scan", "android": "https://dc.lft.to/lastmile_qr_scan"}, "fusion_lon": 0.0, "type": "electric_scooter", "is_reserved": 0, "lon": -77.040431, "is_disabled": 0, "fusion_lat": 0.0, "bike_id": "d27c491edcd7b1075e30c162ec2c483a", "name": "d27c491edcd7b1075e30c162ec2c483a", "lat": 38.9242765}, {"rental_uris": {"ios": "https://dc.lft.to/lastmile_qr_scan", "android": "https://dc.lft.to/lastmile_qr_scan"}, "fusion_lon": 0.0, "type": "electric_scooter", "is_reserved": 0, "lon": -77.0326105, "is_disabled": 0, "fusion_lat": 0.0, "bike_id": "8f4a4f189c1cedc648eeb37b73fc58f7", "name": "8f4a4f189c1cedc648eeb37b73fc58f7", "lat": 38.9140485}, {"rental_uris": {"ios": "https://dc.lft.to/lastmile_qr_scan", "android": "https://dc.lft.to/lastmile_qr_scan"}, "fusion_lon": 0.0, "type": "electric_scooter", "is_reserved": 0, "lon": -77.04314783333334, "is_disabled": 0, "fusion_lat": 0.0, "bike_id": "e910667478fba74bf789c92c8354161b", "name": "e910667478fba74bf789c92c8354161b", "lat": 38.9238195}, {"rental_uris": {"ios": "https://dc.lft.to/lastmile_qr_scan", "android": "https://dc.lft.to/lastmile_qr_scan"}, "fusion_lon": 0.0, "type": "electric_scooter", "is_reserved": 0, "lon": -77.01951333333334, "is_disabled": 0, "fusion_lat": 0.0, "bike_id": "1dac7e7fc3f365abf292756085f97e08", "name": "1dac7e7fc3f365abf292756085f97e08", "lat": 38.92422416666667}, {"rental_uris": {"ios": "https://dc.lft.to/lastmile_qr_scan", "android": "https://dc.lft.to/lastmile_qr_scan"}, "fusion_lon": 0.0, "type": "electric_scooter", "is_reserved": 0, "lon": -77.03834633333334, "is_disabled": 0, "fusion_lat": 0.0, "bike_id": "2b7e20d4b6d2a67eb685e1b4b8aa05c8", "name": "2b7e20d4b6d2a67eb685e1b4b8aa05c8", "lat": 38.91472816666667}, {"rental_uris": {"ios": "https://dc.lft.to/lastmile_qr_scan", "android": "https://dc.lft.to/lastmile_qr_scan"}, "fusion_lon": 0.0, "type": "electric_scooter", "is_reserved": 0, "lon": -77.00437466666666, "is_disabled": 0, "fusion_lat": 0.0, "bike_id": "58fcb2db06a52c793fcd723f85d9e634", "name": "58fcb2db06a52c793fcd723f85d9e634", "lat": 38.87647966666667}, {"rental_uris": {"ios": "https://dc.lft.to/lastmile_qr_scan", "android": "https://dc.lft.to/lastmile_qr_scan"}, "fusion_lon": 0.0, "type": "electric_scooter", "is_reserved": 0, "lon": -77.065095, "is_disabled": 0, "fusion_lat": 0.0, "bike_id": "59f1098a070f4856ca864cc53f456df8", "name": "59f1098a070f4856ca864cc53f456df8", "lat": 38.90521316666667}, {"rental_uris": {"ios": "https://dc.lft.to/lastmile_qr_scan", "android": "https://dc.lft.to/lastmile_qr_scan"}, "fusion_lon": 0.0, "type": "electric_scooter", "is_reserved": 0, "lon": -77.00374633333334, "is_disabled": 0, "fusion_lat": 0.0, "bike_id": "2ac88c84cac7a5c57d6a4609a470a7f8", "name": "2ac88c84cac7a5c57d6a4609a470a7f8", "lat": 38.907516333333334}, {"rental_uris": {"ios": "https://dc.lft.to/lastmile_qr_scan", "android": "https://dc.lft.to/lastmile_qr_scan"}, "fusion_lon": 0.0, "type": "electric_scooter", "is_reserved": 0, "lon": -77.0269035, "is_disabled": 0, "fusion_lat": 0.0, "bike_id": "5cf87e16c494732f8ea9da7cf3c1727a", "name": "5cf87e16c494732f8ea9da7cf3c1727a", "lat": 38.9023895}, {"rental_uris": {"ios": "https://dc.lft.to/lastmile_qr_scan", "android": "https://dc.lft.to/lastmile_qr_scan"}, "fusion_lon": 0.0, "type": "electric_scooter", "is_reserved": 0, "lon": -77.017676, "is_disabled": 0, "fusion_lat": 0.0, "bike_id": "e6df709eed2decb7420c6538ae9b06f8", "name": "e6df709eed2decb7420c6538ae9b06f8", "lat": 38.88583466666667}, {"rental_uris": {"ios": "https://dc.lft.to/lastmile_qr_scan", "android": "https://dc.lft.to/lastmile_qr_scan"}, "fusion_lon": 0.0, "type": "electric_scooter", "is_reserved": 0, "lon": -77.03632133333333, "is_disabled": 0, "fusion_lat": 0.0, "bike_id": "0c997567a8ad08b7df2eead6ad97bfde", "name": "0c997567a8ad08b7df2eead6ad97bfde", "lat": 38.92943616666667}, {"rental_uris": {"ios": "https://dc.lft.to/lastmile_qr_scan", "android": "https://dc.lft.to/lastmile_qr_scan"}, "fusion_lon": 0.0, "type": "electric_scooter", "is_reserved": 0, "lon": -77.03816783333333, "is_disabled": 0, "fusion_lat": 0.0, "bike_id": "4ebea9f18c849e131006bfae52ced85b", "name": "4ebea9f18c849e131006bfae52ced85b", "lat": 38.9038745}, {"rental_uris": {"ios": "https://dc.lft.to/lastmile_qr_scan", "android": "https://dc.lft.to/lastmile_qr_scan"}, "fusion_lon": 0.0, "type": "electric_scooter", "is_reserved": 0, "lon": -77.05232316666667, "is_disabled": 0, "fusion_lat": 0.0, "bike_id": "d3f0f4b16539c7da25875cd2fa50e798", "name": "d3f0f4b16539c7da25875cd2fa50e798", "lat": 38.924639166666665}, {"rental_uris": {"ios": "https://dc.lft.to/lastmile_qr_scan", "android": "https://dc.lft.to/lastmile_qr_scan"}, "fusion_lon": 0.0, "type": "electric_scooter", "is_reserved": 0, "lon": -77.03344716666666, "is_disabled": 0, "fusion_lat": 0.0, "bike_id": "91f1953ee0f9f7f91b21bc944789e837", "name": "91f1953ee0f9f7f91b21bc944789e837", "lat": 38.90150383333334}, {"rental_uris": {"ios": "https://dc.lft.to/lastmile_qr_scan", "android": "https://dc.lft.to/lastmile_qr_scan"}, "fusion_lon": 0.0, "type": "electric_scooter", "is_reserved": 0, "lon": -77.03240133333334, "is_disabled": 0, "fusion_lat": 0.0, "bike_id": "b5e9c0784390d21161722ee4217de0f5", "name": "b5e9c0784390d21161722ee4217de0f5", "lat": 38.92860233333333}, {"rental_uris": {"ios": "https://dc.lft.to/lastmile_qr_scan", "android": "https://dc.lft.to/lastmile_qr_scan"}, "fusion_lon": 0.0, "type": "electric_scooter", "is_reserved": 0, "lon": -77.0161245, "is_disabled": 0, "fusion_lat": 0.0, "bike_id": "08c3a62c5335232bf56e2684b538f84b", "name": "08c3a62c5335232bf56e2684b538f84b", "lat": 38.90582716666667}, {"rental_uris": {"ios": "https://dc.lft.to/lastmile_qr_scan", "android": "https://dc.lft.to/lastmile_qr_scan"}, "fusion_lon": 0.0, "type": "electric_scooter", "is_reserved": 0, "lon": -77.001556, "is_disabled": 0, "fusion_lat": 0.0, "bike_id": "95e6645c9365c66f8cc174a2fa0d1fd2", "name": "95e6645c9365c66f8cc174a2fa0d1fd2", "lat": 38.90014733333334}, {"rental_uris": {"ios": "https://dc.lft.to/lastmile_qr_scan", "android": "https://dc.lft.to/lastmile_qr_scan"}, "fusion_lon": 0.0, "type": "electric_scooter", "is_reserved": 0, "lon": -77.03908816666667, "is_disabled": 0, "fusion_lat": 0.0, "bike_id": "62f3e24e8c13eaed488e08d40638aa4f", "name": "62f3e24e8c13eaed488e08d40638aa4f", "lat": 38.902466833333335}, {"rental_uris": {"ios": "https://dc.lft.to/lastmile_qr_scan", "android": "https://dc.lft.to/lastmile_qr_scan"}, "fusion_lon": 0.0, "type": "electric_scooter", "is_reserved": 0, "lon": -77.07467666666666, "is_disabled": 0, "fusion_lat": 0.0, "bike_id": "fbce2605cc68493b6411ae7c603f66ad", "name": "fbce2605cc68493b6411ae7c603f66ad", "lat": 38.90633716666667}, {"rental_uris": {"ios": "https://dc.lft.to/lastmile_qr_scan", "android": "https://dc.lft.to/lastmile_qr_scan"}, "fusion_lon": 0.0, "type": "electric_scooter", "is_reserved": 0, "lon": -77.0157665, "is_disabled": 0, "fusion_lat": 0.0, "bike_id": "bf0d28aa1274985574bd51b332411b6f", "name": "bf0d28aa1274985574bd51b332411b6f", "lat": 38.87464266666667}, {"rental_uris": {"ios": "https://dc.lft.to/lastmile_qr_scan", "android": "https://dc.lft.to/lastmile_qr_scan"}, "fusion_lon": 0.0, "type": "electric_scooter", "is_reserved": 0, "lon": -77.00084466666667, "is_disabled": 0, "fusion_lat": 0.0, "bike_id": "729e54ee4aa9ce8837ff5b54fb1969cb", "name": "729e54ee4aa9ce8837ff5b54fb1969cb", "lat": 38.907406333333334}, {"rental_uris": {"ios": "https://dc.lft.to/lastmile_qr_scan", "android": "https://dc.lft.to/lastmile_qr_scan"}, "fusion_lon": 0.0, "type": "electric_scooter", "is_reserved": 0, "lon": -77.04191266666666, "is_disabled": 0, "fusion_lat": 0.0, "bike_id": "aa93cc325da7e5e79849571f86dbc100", "name": "aa93cc325da7e5e79849571f86dbc100", "lat": 38.920428333333334}, {"rental_uris": {"ios": "https://dc.lft.to/lastmile_qr_scan", "android": "https://dc.lft.to/lastmile_qr_scan"}, "fusion_lon": 0.0, "type": "electric_scooter", "is_reserved": 0, "lon": -77.02931016666666, "is_disabled": 0, "fusion_lat": 0.0, "bike_id": "86adf407bcdbc76ebe975a55b3ba3b57", "name": "86adf407bcdbc76ebe975a55b3ba3b57", "lat": 38.89546166666667}, {"rental_uris": {"ios": "https://dc.lft.to/lastmile_qr_scan", "android": "https://dc.lft.to/lastmile_qr_scan"}, "fusion_lon": 0.0, "type": "electric_scooter", "is_reserved": 0, "lon": -77.0441375, "is_disabled": 0, "fusion_lat": 0.0, "bike_id": "41851b97af46f2e8f3c644645a1a7b9d", "name": "41851b97af46f2e8f3c644645a1a7b9d", "lat": 38.901166}, {"rental_uris": {"ios": "https://dc.lft.to/lastmile_qr_scan", "android": "https://dc.lft.to/lastmile_qr_scan"}, "fusion_lon": 0.0, "type": "electric_scooter", "is_reserved": 0, "lon": -77.04830816666667, "is_disabled": 0, "fusion_lat": 0.0, "bike_id": "481d90528d5c9f9b2bf1e1cb16bc2d3a", "name": "481d90528d5c9f9b2bf1e1cb16bc2d3a", "lat": 38.90453983333333}, {"rental_uris": {"ios": "https://dc.lft.to/lastmile_qr_scan", "android": "https://dc.lft.to/lastmile_qr_scan"}, "fusion_lon": 0.0, "type": "electric_scooter", "is_reserved": 0, "lon": -77.01853866666667, "is_disabled": 0, "fusion_lat": 0.0, "bike_id": "dfebe47e8170d553862e40d5c0c8459c", "name": "dfebe47e8170d553862e40d5c0c8459c", "lat": 38.94911166666667}, {"rental_uris": {"ios": "https://dc.lft.to/lastmile_qr_scan", "android": "https://dc.lft.to/lastmile_qr_scan"}, "fusion_lon": 0.0, "type": "electric_scooter", "is_reserved": 0, "lon": -77.053411, "is_disabled": 0, "fusion_lat": 0.0, "bike_id": "1b8b3b3171f895e7c22b8d3d0f576b68", "name": "1b8b3b3171f895e7c22b8d3d0f576b68", "lat": 38.902327}, {"rental_uris": {"ios": "https://dc.lft.to/lastmile_qr_scan", "android": "https://dc.lft.to/lastmile_qr_scan"}, "fusion_lon": 0.0, "type": "electric_scooter", "is_reserved": 0, "lon": -77.035007, "is_disabled": 0, "fusion_lat": 0.0, "bike_id": "5df1c37d281ea1c1284950d4bde81741", "name": "5df1c37d281ea1c1284950d4bde81741", "lat": 38.921458}, {"rental_uris": {"ios": "https://dc.lft.to/lastmile_qr_scan", "android": "https://dc.lft.to/lastmile_qr_scan"}, "fusion_lon": 0.0, "type": "electric_scooter", "is_reserved": 0, "lon": -76.99840266666666, "is_disabled": 0, "fusion_lat": 0.0, "bike_id": "882638b6ef66b4dee317dd7ffcd4545f", "name": "882638b6ef66b4dee317dd7ffcd4545f", "lat": 38.9030235}, {"rental_uris": {"ios": "https://dc.lft.to/lastmile_qr_scan", "android": "https://dc.lft.to/lastmile_qr_scan"}, "fusion_lon": 0.0, "type": "electric_scooter", "is_reserved": 0, "lon": -76.94909166666666, "is_disabled": 0, "fusion_lat": 0.0, "bike_id": "9792ad40d6e7df32cd4aea712b23b99a", "name": "9792ad40d6e7df32cd4aea712b23b99a", "lat": 38.896661333333334}, {"rental_uris": {"ios": "https://dc.lft.to/lastmile_qr_scan", "android": "https://dc.lft.to/lastmile_qr_scan"}, "fusion_lon": 0.0, "type": "electric_scooter", "is_reserved": 0, "lon": -77.02335766666667, "is_disabled": 0, "fusion_lat": 0.0, "bike_id": "20acd0de35301d38a60b2e257a27b63a", "name": "20acd0de35301d38a60b2e257a27b63a", "lat": 38.908387833333336}, {"rental_uris": {"ios": "https://dc.lft.to/lastmile_qr_scan", "android": "https://dc.lft.to/lastmile_qr_scan"}, "fusion_lon": 0.0, "type": "electric_scooter", "is_reserved": 0, "lon": -77.021326, "is_disabled": 0, "fusion_lat": 0.0, "bike_id": "ea5075c9600af59912a6378e6cf8ad0d", "name": "ea5075c9600af59912a6378e6cf8ad0d", "lat": 38.924128833333334}, {"rental_uris": {"ios": "https://dc.lft.to/lastmile_qr_scan", "android": "https://dc.lft.to/lastmile_qr_scan"}, "fusion_lon": 0.0, "type": "electric_scooter", "is_reserved": 0, "lon": -77.03221933333333, "is_disabled": 0, "fusion_lat": 0.0, "bike_id": "8d9cc081f37a36fe596a24f7d38759b3", "name": "8d9cc081f37a36fe596a24f7d38759b3", "lat": 38.90365583333333}, {"rental_uris": {"ios": "https://dc.lft.to/lastmile_qr_scan", "android": "https://dc.lft.to/lastmile_qr_scan"}, "fusion_lon": 0.0, "type": "electric_scooter", "is_reserved": 0, "lon": -77.046127, "is_disabled": 0, "fusion_lat": 0.0, "bike_id": "997b588fc89f547c0504245f57496c1f", "name": "997b588fc89f547c0504245f57496c1f", "lat": 38.905658333333335}, {"rental_uris": {"ios": "https://dc.lft.to/lastmile_qr_scan", "android": "https://dc.lft.to/lastmile_qr_scan"}, "fusion_lon": 0.0, "type": "electric_scooter", "is_reserved": 0, "lon": -77.03529166666667, "is_disabled": 0, "fusion_lat": 0.0, "bike_id": "b3afc211a55718194803957164287e62", "name": "b3afc211a55718194803957164287e62", "lat": 38.907763833333334}, {"rental_uris": {"ios": "https://dc.lft.to/lastmile_qr_scan", "android": "https://dc.lft.to/lastmile_qr_scan"}, "fusion_lon": 0.0, "type": "electric_scooter", "is_reserved": 0, "lon": -77.01513816666667, "is_disabled": 0, "fusion_lat": 0.0, "bike_id": "307565ad498bf312f6a7f880a47d6717", "name": "307565ad498bf312f6a7f880a47d6717", "lat": 38.892495333333336}, {"rental_uris": {"ios": "https://dc.lft.to/lastmile_qr_scan", "android": "https://dc.lft.to/lastmile_qr_scan"}, "fusion_lon": 0.0, "type": "electric_bike", "is_reserved": 0, "lon": -77.015793, "is_disabled": 0, "fusion_lat": 0.0, "bike_id": "51e3e965dc5be7431436b98a9cafe18d", "name": "51e3e965dc5be7431436b98a9cafe18d", "lat": 38.9723845}, {"rental_uris": {"ios": "https://dc.lft.to/lastmile_qr_scan", "android": "https://dc.lft.to/lastmile_qr_scan"}, "fusion_lon": 0.0, "type": "electric_scooter", "is_reserved": 0, "lon": -77.0231445, "is_disabled": 0, "fusion_lat": 0.0, "bike_id": "b3754b1f2e28efb19e6046ff635f79a3", "name": "b3754b1f2e28efb19e6046ff635f79a3", "lat": 38.89932616666667}, {"rental_uris": {"ios": "https://dc.lft.to/lastmile_qr_scan", "android": "https://dc.lft.to/lastmile_qr_scan"}, "fusion_lon": 0.0, "type": "electric_scooter", "is_reserved": 0, "lon": -77.02744916666667, "is_disabled": 0, "fusion_lat": 0.0, "bike_id": "289d22b7917dee7c0b65e23353d95e6f", "name": "289d22b7917dee7c0b65e23353d95e6f", "lat": 38.92403933333333}, {"rental_uris": {"ios": "https://dc.lft.to/lastmile_qr_scan", "android": "https://dc.lft.to/lastmile_qr_scan"}, "fusion_lon": 0.0, "type": "electric_scooter", "is_reserved": 0, "lon": -77.041156, "is_disabled": 0, "fusion_lat": 0.0, "bike_id": "b76ee12c1efe65ffc13ffa9ab94c695a", "name": "b76ee12c1efe65ffc13ffa9ab94c695a", "lat": 38.919732333333336}, {"rental_uris": {"ios": "https://dc.lft.to/lastmile_qr_scan", "android": "https://dc.lft.to/lastmile_qr_scan"}, "fusion_lon": 0.0, "type": "electric_scooter", "is_reserved": 0, "lon": -77.02585766666667, "is_disabled": 0, "fusion_lat": 0.0, "bike_id": "11becb463c1594314602c2513d4c76d9", "name": "11becb463c1594314602c2513d4c76d9", "lat": 38.90742}, {"rental_uris": {"ios": "https://dc.lft.to/lastmile_qr_scan", "android": "https://dc.lft.to/lastmile_qr_scan"}, "fusion_lon": 0.0, "type": "electric_scooter", "is_reserved": 0, "lon": -77.04727216666667, "is_disabled": 0, "fusion_lat": 0.0, "bike_id": "28e5429e357c4a4f4185d848f178a7e6", "name": "28e5429e357c4a4f4185d848f178a7e6", "lat": 38.90181416666667}, {"rental_uris": {"ios": "https://dc.lft.to/lastmile_qr_scan", "android": "https://dc.lft.to/lastmile_qr_scan"}, "fusion_lon": 0.0, "type": "electric_scooter", "is_reserved": 0, "lon": -77.02081716666666, "is_disabled": 0, "fusion_lat": 0.0, "bike_id": "60d9893cc53e63f3baaae8f030582e42", "name": "60d9893cc53e63f3baaae8f030582e42", "lat": 38.924677833333334}, {"rental_uris": {"ios": "https://dc.lft.to/lastmile_qr_scan", "android": "https://dc.lft.to/lastmile_qr_scan"}, "fusion_lon": 0.0, "type": "electric_scooter", "is_reserved": 0, "lon": -77.04751083333333, "is_disabled": 0, "fusion_lat": 0.0, "bike_id": "29e743c6342a7c253489c5b1094799f6", "name": "29e743c6342a7c253489c5b1094799f6", "lat": 38.917728333333336}, {"rental_uris": {"ios": "https://dc.lft.to/lastmile_qr_scan", "android": "https://dc.lft.to/lastmile_qr_scan"}, "fusion_lon": 0.0, "type": "electric_scooter", "is_reserved": 0, "lon": -77.02116166666667, "is_disabled": 0, "fusion_lat": 0.0, "bike_id": "b562314e062a936f7389bb62077e9960", "name": "b562314e062a936f7389bb62077e9960", "lat": 38.917373}, {"rental_uris": {"ios": "https://dc.lft.to/lastmile_qr_scan", "android": "https://dc.lft.to/lastmile_qr_scan"}, "fusion_lon": 0.0, "type": "electric_scooter", "is_reserved": 0, "lon": -77.0212745, "is_disabled": 0, "fusion_lat": 0.0, "bike_id": "ede3e90542acf9a49cbf430f5bc92530", "name": "ede3e90542acf9a49cbf430f5bc92530", "lat": 38.923340333333336}, {"rental_uris": {"ios": "https://dc.lft.to/lastmile_qr_scan", "android": "https://dc.lft.to/lastmile_qr_scan"}, "fusion_lon": 0.0, "type": "electric_scooter", "is_reserved": 0, "lon": -77.02060783333333, "is_disabled": 0, "fusion_lat": 0.0, "bike_id": "b4f58f95af84d5ba88e16d66f5798b4d", "name": "b4f58f95af84d5ba88e16d66f5798b4d", "lat": 38.913551166666664}, {"rental_uris": {"ios": "https://dc.lft.to/lastmile_qr_scan", "android": "https://dc.lft.to/lastmile_qr_scan"}, "fusion_lon": 0.0, "type": "electric_scooter", "is_reserved": 0, "lon": -77.04503066666666, "is_disabled": 0, "fusion_lat": 0.0, "bike_id": "b88b8ac016112678e087b9c85b6509c4", "name": "b88b8ac016112678e087b9c85b6509c4", "lat": 38.892595}, {"rental_uris": {"ios": "https://dc.lft.to/lastmile_qr_scan", "android": "https://dc.lft.to/lastmile_qr_scan"}, "fusion_lon": 0.0, "type": "electric_scooter", "is_reserved": 0, "lon": -77.002026, "is_disabled": 0, "fusion_lat": 0.0, "bike_id": "563ded486eb365f0263ed562286812b8", "name": "563ded486eb365f0263ed562286812b8", "lat": 38.902365833333334}, {"rental_uris": {"ios": "https://dc.lft.to/lastmile_qr_scan", "android": "https://dc.lft.to/lastmile_qr_scan"}, "fusion_lon": 0.0, "type": "electric_scooter", "is_reserved": 0, "lon": -77.01955166666667, "is_disabled": 0, "fusion_lat": 0.0, "bike_id": "88f56a0b256c02b504a22239c0ee56c0", "name": "88f56a0b256c02b504a22239c0ee56c0", "lat": 38.92369083333333}, {"rental_uris": {"ios": "https://dc.lft.to/lastmile_qr_scan", "android": "https://dc.lft.to/lastmile_qr_scan"}, "fusion_lon": 0.0, "type": "electric_bike", "is_reserved": 0, "lon": -77.0608295, "is_disabled": 0, "fusion_lat": 0.0, "bike_id": "91858138f6ed206874ca42052c03c2d4", "name": "91858138f6ed206874ca42052c03c2d4", "lat": 38.804609}, {"rental_uris": {"ios": "https://dc.lft.to/lastmile_qr_scan", "android": "https://dc.lft.to/lastmile_qr_scan"}, "fusion_lon": 0.0, "type": "electric_scooter", "is_reserved": 0, "lon": -77.038581, "is_disabled": 0, "fusion_lat": 0.0, "bike_id": "96dd06494bc6aa615f176a0472c482b6", "name": "96dd06494bc6aa615f176a0472c482b6", "lat": 38.9180545}, {"rental_uris": {"ios": "https://dc.lft.to/lastmile_qr_scan", "android": "https://dc.lft.to/lastmile_qr_scan"}, "fusion_lon": 0.0, "type": "electric_scooter", "is_reserved": 0, "lon": -77.02066583333334, "is_disabled": 0, "fusion_lat": 0.0, "bike_id": "854cac1061f2667cc08d20f97881d40a", "name": "854cac1061f2667cc08d20f97881d40a", "lat": 38.903798333333334}, {"rental_uris": {"ios": "https://dc.lft.to/lastmile_qr_scan", "android": "https://dc.lft.to/lastmile_qr_scan"}, "fusion_lon": 0.0, "type": "electric_bike", "is_reserved": 0, "lon": -77.07326833333333, "is_disabled": 0, "fusion_lat": 0.0, "bike_id": "0891065266688ad2613fc6a41b8db53b", "name": "0891065266688ad2613fc6a41b8db53b", "lat": 38.925301}, {"rental_uris": {"ios": "https://dc.lft.to/lastmile_qr_scan", "android": "https://dc.lft.to/lastmile_qr_scan"}, "fusion_lon": 0.0, "type": "electric_scooter", "is_reserved": 0, "lon": -77.05345783333334, "is_disabled": 0, "fusion_lat": 0.0, "bike_id": "1f1fe9a5cc0e739e4ed6afa442b59e7c", "name": "1f1fe9a5cc0e739e4ed6afa442b59e7c", "lat": 38.90224033333333}, {"rental_uris": {"ios": "https://dc.lft.to/lastmile_qr_scan", "android": "https://dc.lft.to/lastmile_qr_scan"}, "fusion_lon": 0.0, "type": "electric_scooter", "is_reserved": 0, "lon": -77.037573, "is_disabled": 0, "fusion_lat": 0.0, "bike_id": "91643a158197065dc37ed22e686dd2d8", "name": "91643a158197065dc37ed22e686dd2d8", "lat": 38.92945016666667}, {"rental_uris": {"ios": "https://dc.lft.to/lastmile_qr_scan", "android": "https://dc.lft.to/lastmile_qr_scan"}, "fusion_lon": 0.0, "type": "electric_scooter", "is_reserved": 0, "lon": -77.02682183333333, "is_disabled": 0, "fusion_lat": 0.0, "bike_id": "ae309de137f6e96f955aeecd6157f5e5", "name": "ae309de137f6e96f955aeecd6157f5e5", "lat": 38.8969145}, {"rental_uris": {"ios": "https://dc.lft.to/lastmile_qr_scan", "android": "https://dc.lft.to/lastmile_qr_scan"}, "fusion_lon": 0.0, "type": "electric_scooter", "is_reserved": 0, "lon": -77.03871516666666, "is_disabled": 0, "fusion_lat": 0.0, "bike_id": "c82dfac1d9d81f254ee8b633d7e6c4e0", "name": "c82dfac1d9d81f254ee8b633d7e6c4e0", "lat": 38.920681333333334}, {"rental_uris": {"ios": "https://dc.lft.to/lastmile_qr_scan", "android": "https://dc.lft.to/lastmile_qr_scan"}, "fusion_lon": 0.0, "type": "electric_scooter", "is_reserved": 0, "lon": -77.04972716666667, "is_disabled": 0, "fusion_lat": 0.0, "bike_id": "2662e585100d6330619d58898fc561a0", "name": "2662e585100d6330619d58898fc561a0", "lat": 38.8978005}, {"rental_uris": {"ios": "https://dc.lft.to/lastmile_qr_scan", "android": "https://dc.lft.to/lastmile_qr_scan"}, "fusion_lon": 0.0, "type": "electric_scooter", "is_reserved": 0, "lon": -77.03083533333333, "is_disabled": 0, "fusion_lat": 0.0, "bike_id": "87ae6cb009eb70defbaefc4fb8e69ddb", "name": "87ae6cb009eb70defbaefc4fb8e69ddb", "lat": 38.932984166666664}, {"rental_uris": {"ios": "https://dc.lft.to/lastmile_qr_scan", "android": "https://dc.lft.to/lastmile_qr_scan"}, "fusion_lon": 0.0, "type": "electric_scooter", "is_reserved": 0, "lon": -77.02137316666666, "is_disabled": 0, "fusion_lat": 0.0, "bike_id": "1344147d01d1b51b5918498ae2970d1d", "name": "1344147d01d1b51b5918498ae2970d1d", "lat": 38.921048}, {"rental_uris": {"ios": "https://dc.lft.to/lastmile_qr_scan", "android": "https://dc.lft.to/lastmile_qr_scan"}, "fusion_lon": 0.0, "type": "electric_scooter", "is_reserved": 0, "lon": -77.07251683333334, "is_disabled": 0, "fusion_lat": 0.0, "bike_id": "5d42d401da3f5c7ac6dab276d9eef43a", "name": "5d42d401da3f5c7ac6dab276d9eef43a", "lat": 38.9077765}, {"rental_uris": {"ios": "https://dc.lft.to/lastmile_qr_scan", "android": "https://dc.lft.to/lastmile_qr_scan"}, "fusion_lon": 0.0, "type": "electric_scooter", "is_reserved": 0, "lon": -77.03222216666667, "is_disabled": 0, "fusion_lat": 0.0, "bike_id": "5c5f795619f1aa07ec9dcfe269432eb4", "name": "5c5f795619f1aa07ec9dcfe269432eb4", "lat": 38.8966805}, {"rental_uris": {"ios": "https://dc.lft.to/lastmile_qr_scan", "android": "https://dc.lft.to/lastmile_qr_scan"}, "fusion_lon": 0.0, "type": "electric_scooter", "is_reserved": 0, "lon": -76.986165, "is_disabled": 0, "fusion_lat": 0.0, "bike_id": "2301220be93d83678bb9370830b94343", "name": "2301220be93d83678bb9370830b94343", "lat": 38.90345083333333}, {"rental_uris": {"ios": "https://dc.lft.to/lastmile_qr_scan", "android": "https://dc.lft.to/lastmile_qr_scan"}, "fusion_lon": 0.0, "type": "electric_scooter", "is_reserved": 0, "lon": -77.044631, "is_disabled": 0, "fusion_lat": 0.0, "bike_id": "bd595b2d54a040f76c0d4f2413aa493e", "name": "bd595b2d54a040f76c0d4f2413aa493e", "lat": 38.9232935}, {"rental_uris": {"ios": "https://dc.lft.to/lastmile_qr_scan", "android": "https://dc.lft.to/lastmile_qr_scan"}, "fusion_lon": 0.0, "type": "electric_scooter", "is_reserved": 0, "lon": -77.042087, "is_disabled": 0, "fusion_lat": 0.0, "bike_id": "c229c97b859222837fb467f23337074e", "name": "c229c97b859222837fb467f23337074e", "lat": 38.911190166666664}, {"rental_uris": {"ios": "https://dc.lft.to/lastmile_qr_scan", "android": "https://dc.lft.to/lastmile_qr_scan"}, "fusion_lon": 0.0, "type": "electric_scooter", "is_reserved": 0, "lon": -77.03639483333333, "is_disabled": 0, "fusion_lat": 0.0, "bike_id": "33ebac8399786e99a11ef401f7a28b88", "name": "33ebac8399786e99a11ef401f7a28b88", "lat": 38.90381383333333}, {"rental_uris": {"ios": "https://dc.lft.to/lastmile_qr_scan", "android": "https://dc.lft.to/lastmile_qr_scan"}, "fusion_lon": 0.0, "type": "electric_bike", "is_reserved": 0, "lon": -77.07055383333334, "is_disabled": 0, "fusion_lat": 0.0, "bike_id": "156e3231d624d32a2ceb7305d4541d45", "name": "156e3231d624d32a2ceb7305d4541d45", "lat": 38.8976435}, {"rental_uris": {"ios": "https://dc.lft.to/lastmile_qr_scan", "android": "https://dc.lft.to/lastmile_qr_scan"}, "fusion_lon": 0.0, "type": "electric_scooter", "is_reserved": 0, "lon": -77.03501766666666, "is_disabled": 0, "fusion_lat": 0.0, "bike_id": "9b65e4f84e0f4869de4084928897a576", "name": "9b65e4f84e0f4869de4084928897a576", "lat": 38.92333266666667}, {"rental_uris": {"ios": "https://dc.lft.to/lastmile_qr_scan", "android": "https://dc.lft.to/lastmile_qr_scan"}, "fusion_lon": 0.0, "type": "electric_scooter", "is_reserved": 0, "lon": -77.01499616666666, "is_disabled": 0, "fusion_lat": 0.0, "bike_id": "b6dc44f5ecea95746c3b29ded6bd2748", "name": "b6dc44f5ecea95746c3b29ded6bd2748", "lat": 38.92659666666667}, {"rental_uris": {"ios": "https://dc.lft.to/lastmile_qr_scan", "android": "https://dc.lft.to/lastmile_qr_scan"}, "fusion_lon": 0.0, "type": "electric_scooter", "is_reserved": 0, "lon": -76.98384183333333, "is_disabled": 0, "fusion_lat": 0.0, "bike_id": "f17b8631a32005f1fe909a54f51b09b7", "name": "f17b8631a32005f1fe909a54f51b09b7", "lat": 38.887106833333334}, {"rental_uris": {"ios": "https://dc.lft.to/lastmile_qr_scan", "android": "https://dc.lft.to/lastmile_qr_scan"}, "fusion_lon": 0.0, "type": "electric_scooter", "is_reserved": 0, "lon": -77.01014166666667, "is_disabled": 0, "fusion_lat": 0.0, "bike_id": "87f6c6d6aff747575b66d969b07e95e1", "name": "87f6c6d6aff747575b66d969b07e95e1", "lat": 38.90686816666667}, {"rental_uris": {"ios": "https://dc.lft.to/lastmile_qr_scan", "android": "https://dc.lft.to/lastmile_qr_scan"}, "fusion_lon": 0.0, "type": "electric_scooter", "is_reserved": 0, "lon": -77.02712, "is_disabled": 0, "fusion_lat": 0.0, "bike_id": "fcde1ac8f03a6793e1a5bff116eb6307", "name": "fcde1ac8f03a6793e1a5bff116eb6307", "lat": 38.9067135}, {"rental_uris": {"ios": "https://dc.lft.to/lastmile_qr_scan", "android": "https://dc.lft.to/lastmile_qr_scan"}, "fusion_lon": 0.0, "type": "electric_scooter", "is_reserved": 0, "lon": -77.03834683333334, "is_disabled": 0, "fusion_lat": 0.0, "bike_id": "65d4447dc8bcdc55012e07a03e635bf0", "name": "65d4447dc8bcdc55012e07a03e635bf0", "lat": 38.903786833333335}, {"rental_uris": {"ios": "https://dc.lft.to/lastmile_qr_scan", "android": "https://dc.lft.to/lastmile_qr_scan"}, "fusion_lon": 0.0, "type": "electric_scooter", "is_reserved": 0, "lon": -77.04188216666667, "is_disabled": 0, "fusion_lat": 0.0, "bike_id": "e3b31e0ba4d166df4bfb6d24d0d9ae78", "name": "e3b31e0ba4d166df4bfb6d24d0d9ae78", "lat": 38.9205125}, {"rental_uris": {"ios": "https://dc.lft.to/lastmile_qr_scan", "android": "https://dc.lft.to/lastmile_qr_scan"}, "fusion_lon": 0.0, "type": "electric_scooter", "is_reserved": 0, "lon": -77.01936983333333, "is_disabled": 0, "fusion_lat": 0.0, "bike_id": "52b56dff9eb40a542e0d06df1fccaa9a", "name": "52b56dff9eb40a542e0d06df1fccaa9a", "lat": 38.87667966666667}, {"rental_uris": {"ios": "https://dc.lft.to/lastmile_qr_scan", "android": "https://dc.lft.to/lastmile_qr_scan"}, "fusion_lon": 0.0, "type": "electric_scooter", "is_reserved": 0, "lon": -76.99465533333333, "is_disabled": 0, "fusion_lat": 0.0, "bike_id": "c389f13eb0ccebdbb63788cd5fc3e56f", "name": "c389f13eb0ccebdbb63788cd5fc3e56f", "lat": 38.897300666666666}, {"rental_uris": {"ios": "https://dc.lft.to/lastmile_qr_scan", "android": "https://dc.lft.to/lastmile_qr_scan"}, "fusion_lon": 0.0, "type": "electric_bike", "is_reserved": 0, "lon": -76.9172235, "is_disabled": 0, "fusion_lat": 0.0, "bike_id": "85304e625724bcb3c4be3f36717da074", "name": "85304e625724bcb3c4be3f36717da074", "lat": 38.88023966666667}, {"rental_uris": {"ios": "https://dc.lft.to/lastmile_qr_scan", "android": "https://dc.lft.to/lastmile_qr_scan"}, "fusion_lon": 0.0, "type": "electric_scooter", "is_reserved": 0, "lon": -77.04545616666667, "is_disabled": 0, "fusion_lat": 0.0, "bike_id": "3c0ba8f35b24e08683db9585222ec89f", "name": "3c0ba8f35b24e08683db9585222ec89f", "lat": 38.907415}, {"rental_uris": {"ios": "https://dc.lft.to/lastmile_qr_scan", "android": "https://dc.lft.to/lastmile_qr_scan"}, "fusion_lon": 0.0, "type": "electric_scooter", "is_reserved": 0, "lon": -77.02417816666667, "is_disabled": 0, "fusion_lat": 0.0, "bike_id": "152e10e932e33cf27bf7262e21ba5f19", "name": "152e10e932e33cf27bf7262e21ba5f19", "lat": 38.909653}, {"rental_uris": {"ios": "https://dc.lft.to/lastmile_qr_scan", "android": "https://dc.lft.to/lastmile_qr_scan"}, "fusion_lon": 0.0, "type": "electric_scooter", "is_reserved": 0, "lon": -76.94965766666667, "is_disabled": 0, "fusion_lat": 0.0, "bike_id": "e081b70c09989741ab37fc2862bcfefc", "name": "e081b70c09989741ab37fc2862bcfefc", "lat": 38.90481833333333}, {"rental_uris": {"ios": "https://dc.lft.to/lastmile_qr_scan", "android": "https://dc.lft.to/lastmile_qr_scan"}, "fusion_lon": 0.0, "type": "electric_scooter", "is_reserved": 0, "lon": -77.03980366666667, "is_disabled": 0, "fusion_lat": 0.0, "bike_id": "14962a968662f86eaca834f35b4fd45a", "name": "14962a968662f86eaca834f35b4fd45a", "lat": 38.902534333333335}, {"rental_uris": {"ios": "https://dc.lft.to/lastmile_qr_scan", "android": "https://dc.lft.to/lastmile_qr_scan"}, "fusion_lon": 0.0, "type": "electric_scooter", "is_reserved": 0, "lon": -77.03985383333334, "is_disabled": 0, "fusion_lat": 0.0, "bike_id": "d2abc965e9aa1137f3ac687f79a77b53", "name": "d2abc965e9aa1137f3ac687f79a77b53", "lat": 38.903087}, {"rental_uris": {"ios": "https://dc.lft.to/lastmile_qr_scan", "android": "https://dc.lft.to/lastmile_qr_scan"}, "fusion_lon": 0.0, "type": "electric_scooter", "is_reserved": 0, "lon": -77.06797283333333, "is_disabled": 0, "fusion_lat": 0.0, "bike_id": "28b861e0add0c134b3d5bb8389348483", "name": "28b861e0add0c134b3d5bb8389348483", "lat": 38.91277383333333}, {"rental_uris": {"ios": "https://dc.lft.to/lastmile_qr_scan", "android": "https://dc.lft.to/lastmile_qr_scan"}, "fusion_lon": 0.0, "type": "electric_scooter", "is_reserved": 0, "lon": -77.04749916666667, "is_disabled": 0, "fusion_lat": 0.0, "bike_id": "7d43db3c882e045d2fe2459842262c8d", "name": "7d43db3c882e045d2fe2459842262c8d", "lat": 38.900539}, {"rental_uris": {"ios": "https://dc.lft.to/lastmile_qr_scan", "android": "https://dc.lft.to/lastmile_qr_scan"}, "fusion_lon": 0.0, "type": "electric_scooter", "is_reserved": 0, "lon": -77.04762416666667, "is_disabled": 0, "fusion_lat": 0.0, "bike_id": "657312620294ca8f416ddfafe1abf622", "name": "657312620294ca8f416ddfafe1abf622", "lat": 38.91260183333333}, {"rental_uris": {"ios": "https://dc.lft.to/lastmile_qr_scan", "android": "https://dc.lft.to/lastmile_qr_scan"}, "fusion_lon": 0.0, "type": "electric_scooter", "is_reserved": 0, "lon": -76.94664116666667, "is_disabled": 0, "fusion_lat": 0.0, "bike_id": "dbda678b4447614cb9e63f40a69d73ab", "name": "dbda678b4447614cb9e63f40a69d73ab", "lat": 38.89866516666667}, {"rental_uris": {"ios": "https://dc.lft.to/lastmile_qr_scan", "android": "https://dc.lft.to/lastmile_qr_scan"}, "fusion_lon": 0.0, "type": "electric_scooter", "is_reserved": 0, "lon": -77.01953916666666, "is_disabled": 0, "fusion_lat": 0.0, "bike_id": "c464d44f2680d831eff7607d46dbb2b2", "name": "c464d44f2680d831eff7607d46dbb2b2", "lat": 38.9243195}, {"rental_uris": {"ios": "https://dc.lft.to/lastmile_qr_scan", "android": "https://dc.lft.to/lastmile_qr_scan"}, "fusion_lon": 0.0, "type": "electric_scooter", "is_reserved": 0, "lon": -77.00046166666667, "is_disabled": 0, "fusion_lat": 0.0, "bike_id": "f9a29033c9f37af239056e9790816d00", "name": "f9a29033c9f37af239056e9790816d00", "lat": 38.8742455}, {"rental_uris": {"ios": "https://dc.lft.to/lastmile_qr_scan", "android": "https://dc.lft.to/lastmile_qr_scan"}, "fusion_lon": 0.0, "type": "electric_scooter", "is_reserved": 0, "lon": -77.02847383333334, "is_disabled": 0, "fusion_lat": 0.0, "bike_id": "819e0169521cbd3b29b39a8a8195de01", "name": "819e0169521cbd3b29b39a8a8195de01", "lat": 38.93497716666667}, {"rental_uris": {"ios": "https://dc.lft.to/lastmile_qr_scan", "android": "https://dc.lft.to/lastmile_qr_scan"}, "fusion_lon": 0.0, "type": "electric_scooter", "is_reserved": 0, "lon": -77.02278983333333, "is_disabled": 0, "fusion_lat": 0.0, "bike_id": "e990c2d9b86962eeb57e03f98f5f2047", "name": "e990c2d9b86962eeb57e03f98f5f2047", "lat": 38.9014175}, {"rental_uris": {"ios": "https://dc.lft.to/lastmile_qr_scan", "android": "https://dc.lft.to/lastmile_qr_scan"}, "fusion_lon": 0.0, "type": "electric_scooter", "is_reserved": 0, "lon": -77.04864883333333, "is_disabled": 0, "fusion_lat": 0.0, "bike_id": "c65b2c40360f52ae25b9aeee236996d6", "name": "c65b2c40360f52ae25b9aeee236996d6", "lat": 38.900783}, {"rental_uris": {"ios": "https://dc.lft.to/lastmile_qr_scan", "android": "https://dc.lft.to/lastmile_qr_scan"}, "fusion_lon": 0.0, "type": "electric_scooter", "is_reserved": 0, "lon": -76.97732, "is_disabled": 0, "fusion_lat": 0.0, "bike_id": "5c220557714f94eedc4cf54b17caa5af", "name": "5c220557714f94eedc4cf54b17caa5af", "lat": 38.887699}, {"rental_uris": {"ios": "https://dc.lft.to/lastmile_qr_scan", "android": "https://dc.lft.to/lastmile_qr_scan"}, "fusion_lon": 0.0, "type": "electric_scooter", "is_reserved": 0, "lon": -77.04039266666666, "is_disabled": 0, "fusion_lat": 0.0, "bike_id": "1b21d6965d39d1cf698919a988035ca6", "name": "1b21d6965d39d1cf698919a988035ca6", "lat": 38.91858633333333}, {"rental_uris": {"ios": "https://dc.lft.to/lastmile_qr_scan", "android": "https://dc.lft.to/lastmile_qr_scan"}, "fusion_lon": 0.0, "type": "electric_scooter", "is_reserved": 0, "lon": -77.0611665, "is_disabled": 0, "fusion_lat": 0.0, "bike_id": "79ca02dee5fb8f12efd3a4a2ef8c110d", "name": "79ca02dee5fb8f12efd3a4a2ef8c110d", "lat": 38.9038085}, {"rental_uris": {"ios": "https://dc.lft.to/lastmile_qr_scan", "android": "https://dc.lft.to/lastmile_qr_scan"}, "fusion_lon": 0.0, "type": "electric_scooter", "is_reserved": 0, "lon": -77.02981366666667, "is_disabled": 0, "fusion_lat": 0.0, "bike_id": "797bbe3ee17ca3417b88975361dc7c2a", "name": "797bbe3ee17ca3417b88975361dc7c2a", "lat": 38.915410333333334}, {"rental_uris": {"ios": "https://dc.lft.to/lastmile_qr_scan", "android": "https://dc.lft.to/lastmile_qr_scan"}, "fusion_lon": 0.0, "type": "electric_scooter", "is_reserved": 0, "lon": -76.97734566666666, "is_disabled": 0, "fusion_lat": 0.0, "bike_id": "cee7fedba135e204143d1d68a86c9b03", "name": "cee7fedba135e204143d1d68a86c9b03", "lat": 38.88770383333333}, {"rental_uris": {"ios": "https://dc.lft.to/lastmile_qr_scan", "android": "https://dc.lft.to/lastmile_qr_scan"}, "fusion_lon": 0.0, "type": "electric_scooter", "is_reserved": 0, "lon": -77.0019345, "is_disabled": 0, "fusion_lat": 0.0, "bike_id": "4d9869fe43390dcae087b51a0263ce7a", "name": "4d9869fe43390dcae087b51a0263ce7a", "lat": 38.876422166666664}, {"rental_uris": {"ios": "https://dc.lft.to/lastmile_qr_scan", "android": "https://dc.lft.to/lastmile_qr_scan"}, "fusion_lon": 0.0, "type": "electric_scooter", "is_reserved": 0, "lon": -77.02329983333334, "is_disabled": 0, "fusion_lat": 0.0, "bike_id": "187bcdfa57238b6ab98f1a99aec1d9ac", "name": "187bcdfa57238b6ab98f1a99aec1d9ac", "lat": 38.9178575}, {"rental_uris": {"ios": "https://dc.lft.to/lastmile_qr_scan", "android": "https://dc.lft.to/lastmile_qr_scan"}, "fusion_lon": 0.0, "type": "electric_scooter", "is_reserved": 0, "lon": -77.03259966666667, "is_disabled": 0, "fusion_lat": 0.0, "bike_id": "c0e38e2b30dd515746e5efa7f2963e06", "name": "c0e38e2b30dd515746e5efa7f2963e06", "lat": 38.929355}, {"rental_uris": {"ios": "https://dc.lft.to/lastmile_qr_scan", "android": "https://dc.lft.to/lastmile_qr_scan"}, "fusion_lon": 0.0, "type": "electric_scooter", "is_reserved": 0, "lon": -77.03540966666667, "is_disabled": 0, "fusion_lat": 0.0, "bike_id": "040de1333719cfed7a7115c7d1d98c9b", "name": "040de1333719cfed7a7115c7d1d98c9b", "lat": 38.924641}, {"rental_uris": {"ios": "https://dc.lft.to/lastmile_qr_scan", "android": "https://dc.lft.to/lastmile_qr_scan"}, "fusion_lon": 0.0, "type": "electric_scooter", "is_reserved": 0, "lon": -77.04012233333333, "is_disabled": 0, "fusion_lat": 0.0, "bike_id": "caa6b7c11e5c3c664e3e1d7120707ccd", "name": "caa6b7c11e5c3c664e3e1d7120707ccd", "lat": 38.898737}, {"rental_uris": {"ios": "https://dc.lft.to/lastmile_qr_scan", "android": "https://dc.lft.to/lastmile_qr_scan"}, "fusion_lon": 0.0, "type": "electric_scooter", "is_reserved": 0, "lon": -77.05169333333333, "is_disabled": 0, "fusion_lat": 0.0, "bike_id": "1dc6f13c939b2738615c7a910080a9cd", "name": "1dc6f13c939b2738615c7a910080a9cd", "lat": 38.90245066666667}, {"rental_uris": {"ios": "https://dc.lft.to/lastmile_qr_scan", "android": "https://dc.lft.to/lastmile_qr_scan"}, "fusion_lon": 0.0, "type": "electric_scooter", "is_reserved": 0, "lon": -77.01228616666667, "is_disabled": 0, "fusion_lat": 0.0, "bike_id": "03024937dfce0ada2ca47b5436f339d7", "name": "03024937dfce0ada2ca47b5436f339d7", "lat": 38.90021333333333}, {"rental_uris": {"ios": "https://dc.lft.to/lastmile_qr_scan", "android": "https://dc.lft.to/lastmile_qr_scan"}, "fusion_lon": 0.0, "type": "electric_scooter", "is_reserved": 0, "lon": -77.0245585, "is_disabled": 0, "fusion_lat": 0.0, "bike_id": "43179b5d82c845e2cda125edb3b409d9", "name": "43179b5d82c845e2cda125edb3b409d9", "lat": 38.93710733333333}, {"rental_uris": {"ios": "https://dc.lft.to/lastmile_qr_scan", "android": "https://dc.lft.to/lastmile_qr_scan"}, "fusion_lon": 0.0, "type": "electric_scooter", "is_reserved": 0, "lon": -77.03848716666667, "is_disabled": 0, "fusion_lat": 0.0, "bike_id": "c30e6f909a39b18ee780d5d1a41487b2", "name": "c30e6f909a39b18ee780d5d1a41487b2", "lat": 38.91369616666667}, {"rental_uris": {"ios": "https://dc.lft.to/lastmile_qr_scan", "android": "https://dc.lft.to/lastmile_qr_scan"}, "fusion_lon": 0.0, "type": "electric_scooter", "is_reserved": 0, "lon": -77.00783233333334, "is_disabled": 0, "fusion_lat": 0.0, "bike_id": "fb119616d123714eec37bf46abaec428", "name": "fb119616d123714eec37bf46abaec428", "lat": 38.915598}, {"rental_uris": {"ios": "https://dc.lft.to/lastmile_qr_scan", "android": "https://dc.lft.to/lastmile_qr_scan"}, "fusion_lon": 0.0, "type": "electric_scooter", "is_reserved": 0, "lon": -76.98340333333333, "is_disabled": 0, "fusion_lat": 0.0, "bike_id": "b888dd17529450e1f7f08946a08923cb", "name": "b888dd17529450e1f7f08946a08923cb", "lat": 38.88698983333333}, {"rental_uris": {"ios": "https://dc.lft.to/lastmile_qr_scan", "android": "https://dc.lft.to/lastmile_qr_scan"}, "fusion_lon": 0.0, "type": "electric_scooter", "is_reserved": 0, "lon": -76.99853433333334, "is_disabled": 0, "fusion_lat": 0.0, "bike_id": "7aaa76766363e370d76a9439bdba357a", "name": "7aaa76766363e370d76a9439bdba357a", "lat": 38.896208}, {"rental_uris": {"ios": "https://dc.lft.to/lastmile_qr_scan", "android": "https://dc.lft.to/lastmile_qr_scan"}, "fusion_lon": 0.0, "type": "electric_scooter", "is_reserved": 0, "lon": -77.025836, "is_disabled": 0, "fusion_lat": 0.0, "bike_id": "d56b6fc6f47866c64f0f243b88762721", "name": "d56b6fc6f47866c64f0f243b88762721", "lat": 38.91333683333333}, {"rental_uris": {"ios": "https://dc.lft.to/lastmile_qr_scan", "android": "https://dc.lft.to/lastmile_qr_scan"}, "fusion_lon": 0.0, "type": "electric_bike", "is_reserved": 0, "lon": -77.0038345, "is_disabled": 0, "fusion_lat": 0.0, "bike_id": "38f41c46474ee519d303603e5ddaee52", "name": "38f41c46474ee519d303603e5ddaee52", "lat": 38.99860533333333}, {"rental_uris": {"ios": "https://dc.lft.to/lastmile_qr_scan", "android": "https://dc.lft.to/lastmile_qr_scan"}, "fusion_lon": 0.0, "type": "electric_scooter", "is_reserved": 0, "lon": -77.03347033333333, "is_disabled": 0, "fusion_lat": 0.0, "bike_id": "6d5dc6465daa2bc50a499dabfd010411", "name": "6d5dc6465daa2bc50a499dabfd010411", "lat": 38.8971905}, {"rental_uris": {"ios": "https://dc.lft.to/lastmile_qr_scan", "android": "https://dc.lft.to/lastmile_qr_scan"}, "fusion_lon": 0.0, "type": "electric_scooter", "is_reserved": 0, "lon": -77.0110415, "is_disabled": 0, "fusion_lat": 0.0, "bike_id": "5da1b8e89d71957ddd63e6a42b6cce2f", "name": "5da1b8e89d71957ddd63e6a42b6cce2f", "lat": 38.89480283333333}, {"rental_uris": {"ios": "https://dc.lft.to/lastmile_qr_scan", "android": "https://dc.lft.to/lastmile_qr_scan"}, "fusion_lon": 0.0, "type": "electric_scooter", "is_reserved": 0, "lon": -77.04336566666667, "is_disabled": 0, "fusion_lat": 0.0, "bike_id": "e00ffb224d3cff05b22ab4a057649bd9", "name": "e00ffb224d3cff05b22ab4a057649bd9", "lat": 38.924965666666665}, {"rental_uris": {"ios": "https://dc.lft.to/lastmile_qr_scan", "android": "https://dc.lft.to/lastmile_qr_scan"}, "fusion_lon": 0.0, "type": "electric_scooter", "is_reserved": 0, "lon": -77.03180083333334, "is_disabled": 0, "fusion_lat": 0.0, "bike_id": "a0d7f69605b22efe4e79607ec602f507", "name": "a0d7f69605b22efe4e79607ec602f507", "lat": 38.91333133333333}, {"rental_uris": {"ios": "https://dc.lft.to/lastmile_qr_scan", "android": "https://dc.lft.to/lastmile_qr_scan"}, "fusion_lon": 0.0, "type": "electric_scooter", "is_reserved": 0, "lon": -77.0725005, "is_disabled": 0, "fusion_lat": 0.0, "bike_id": "4d4c7217f355250172c5e95f4b32a443", "name": "4d4c7217f355250172c5e95f4b32a443", "lat": 38.90776666666667}, {"rental_uris": {"ios": "https://dc.lft.to/lastmile_qr_scan", "android": "https://dc.lft.to/lastmile_qr_scan"}, "fusion_lon": 0.0, "type": "electric_scooter", "is_reserved": 0, "lon": -77.026709, "is_disabled": 0, "fusion_lat": 0.0, "bike_id": "8105059315db58604fb3ea643f0329b4", "name": "8105059315db58604fb3ea643f0329b4", "lat": 38.92168233333334}, {"rental_uris": {"ios": "https://dc.lft.to/lastmile_qr_scan", "android": "https://dc.lft.to/lastmile_qr_scan"}, "fusion_lon": 0.0, "type": "electric_scooter", "is_reserved": 0, "lon": -77.02541683333334, "is_disabled": 0, "fusion_lat": 0.0, "bike_id": "aa1559644f29ce77e5df6d8825f7dc39", "name": "aa1559644f29ce77e5df6d8825f7dc39", "lat": 38.89212916666666}, {"rental_uris": {"ios": "https://dc.lft.to/lastmile_qr_scan", "android": "https://dc.lft.to/lastmile_qr_scan"}, "fusion_lon": 0.0, "type": "electric_scooter", "is_reserved": 0, "lon": -77.03369216666667, "is_disabled": 0, "fusion_lat": 0.0, "bike_id": "8b9c4fcb0d7e5ac847db46aaba01921d", "name": "8b9c4fcb0d7e5ac847db46aaba01921d", "lat": 38.9081425}, {"rental_uris": {"ios": "https://dc.lft.to/lastmile_qr_scan", "android": "https://dc.lft.to/lastmile_qr_scan"}, "fusion_lon": 0.0, "type": "electric_scooter", "is_reserved": 0, "lon": -77.0065845, "is_disabled": 0, "fusion_lat": 0.0, "bike_id": "dc0ffea2cc86711e8a32bd0b877df343", "name": "dc0ffea2cc86711e8a32bd0b877df343", "lat": 38.944612}, {"rental_uris": {"ios": "https://dc.lft.to/lastmile_qr_scan", "android": "https://dc.lft.to/lastmile_qr_scan"}, "fusion_lon": 0.0, "type": "electric_scooter", "is_reserved": 0, "lon": -77.03143966666667, "is_disabled": 0, "fusion_lat": 0.0, "bike_id": "1a4ee643e1d40dce5c653e4709fe6f59", "name": "1a4ee643e1d40dce5c653e4709fe6f59", "lat": 38.908963}, {"rental_uris": {"ios": "https://dc.lft.to/lastmile_qr_scan", "android": "https://dc.lft.to/lastmile_qr_scan"}, "fusion_lon": 0.0, "type": "electric_scooter", "is_reserved": 0, "lon": -77.0227815, "is_disabled": 0, "fusion_lat": 0.0, "bike_id": "8b3ba853aa7982e2433512759f8b0e1c", "name": "8b3ba853aa7982e2433512759f8b0e1c", "lat": 38.9095195}, {"rental_uris": {"ios": "https://dc.lft.to/lastmile_qr_scan", "android": "https://dc.lft.to/lastmile_qr_scan"}, "fusion_lon": 0.0, "type": "electric_scooter", "is_reserved": 0, "lon": -77.072474, "is_disabled": 0, "fusion_lat": 0.0, "bike_id": "f814eaca67d99e840e0000a337f051ad", "name": "f814eaca67d99e840e0000a337f051ad", "lat": 38.907769333333334}, {"rental_uris": {"ios": "https://dc.lft.to/lastmile_qr_scan", "android": "https://dc.lft.to/lastmile_qr_scan"}, "fusion_lon": 0.0, "type": "electric_scooter", "is_reserved": 0, "lon": -76.98828383333333, "is_disabled": 0, "fusion_lat": 0.0, "bike_id": "b1c2670b892c3272284e9bc411ad07e1", "name": "b1c2670b892c3272284e9bc411ad07e1", "lat": 38.900785166666665}, {"rental_uris": {"ios": "https://dc.lft.to/lastmile_qr_scan", "android": "https://dc.lft.to/lastmile_qr_scan"}, "fusion_lon": 0.0, "type": "electric_scooter", "is_reserved": 0, "lon": -77.00180733333333, "is_disabled": 0, "fusion_lat": 0.0, "bike_id": "64765dd9d3884b5d7afa4667626e4076", "name": "64765dd9d3884b5d7afa4667626e4076", "lat": 38.90015783333333}, {"rental_uris": {"ios": "https://dc.lft.to/lastmile_qr_scan", "android": "https://dc.lft.to/lastmile_qr_scan"}, "fusion_lon": 0.0, "type": "electric_scooter", "is_reserved": 0, "lon": -77.04296866666667, "is_disabled": 0, "fusion_lat": 0.0, "bike_id": "40fa43ea7d75a7302ce38777db2e9410", "name": "40fa43ea7d75a7302ce38777db2e9410", "lat": 38.922434}, {"rental_uris": {"ios": "https://dc.lft.to/lastmile_qr_scan", "android": "https://dc.lft.to/lastmile_qr_scan"}, "fusion_lon": 0.0, "type": "electric_scooter", "is_reserved": 0, "lon": -76.987822, "is_disabled": 0, "fusion_lat": 0.0, "bike_id": "9f606c6bbc2676aeed5dc560cfec32ed", "name": "9f606c6bbc2676aeed5dc560cfec32ed", "lat": 38.910714666666664}, {"rental_uris": {"ios": "https://dc.lft.to/lastmile_qr_scan", "android": "https://dc.lft.to/lastmile_qr_scan"}, "fusion_lon": 0.0, "type": "electric_scooter", "is_reserved": 0, "lon": -77.02211, "is_disabled": 0, "fusion_lat": 0.0, "bike_id": "19fae6cc3246803c6a76ce9261ca7180", "name": "19fae6cc3246803c6a76ce9261ca7180", "lat": 38.920143833333334}, {"rental_uris": {"ios": "https://dc.lft.to/lastmile_qr_scan", "android": "https://dc.lft.to/lastmile_qr_scan"}, "fusion_lon": 0.0, "type": "electric_scooter", "is_reserved": 0, "lon": -77.03927216666666, "is_disabled": 0, "fusion_lat": 0.0, "bike_id": "12f97f76d782ab161d996da919f761c3", "name": "12f97f76d782ab161d996da919f761c3", "lat": 38.90326183333333}, {"rental_uris": {"ios": "https://dc.lft.to/lastmile_qr_scan", "android": "https://dc.lft.to/lastmile_qr_scan"}, "fusion_lon": 0.0, "type": "electric_scooter", "is_reserved": 0, "lon": -77.02355366666667, "is_disabled": 0, "fusion_lat": 0.0, "bike_id": "ace4f3ecb0df684f9045ec4904b9ea67", "name": "ace4f3ecb0df684f9045ec4904b9ea67", "lat": 38.87916333333333}, {"rental_uris": {"ios": "https://dc.lft.to/lastmile_qr_scan", "android": "https://dc.lft.to/lastmile_qr_scan"}, "fusion_lon": 0.0, "type": "electric_scooter", "is_reserved": 0, "lon": -77.02999016666666, "is_disabled": 0, "fusion_lat": 0.0, "bike_id": "f0ca06d8e3b4c84de439eadef5333a0e", "name": "f0ca06d8e3b4c84de439eadef5333a0e", "lat": 38.89749066666667}, {"rental_uris": {"ios": "https://dc.lft.to/lastmile_qr_scan", "android": "https://dc.lft.to/lastmile_qr_scan"}, "fusion_lon": 0.0, "type": "electric_scooter", "is_reserved": 0, "lon": -77.02314616666666, "is_disabled": 0, "fusion_lat": 0.0, "bike_id": "494abde29bc442702d87cf84e2961b39", "name": "494abde29bc442702d87cf84e2961b39", "lat": 38.899088166666665}, {"rental_uris": {"ios": "https://dc.lft.to/lastmile_qr_scan", "android": "https://dc.lft.to/lastmile_qr_scan"}, "fusion_lon": 0.0, "type": "electric_scooter", "is_reserved": 0, "lon": -76.93927183333334, "is_disabled": 0, "fusion_lat": 0.0, "bike_id": "0a8f15724828b21342517c8fb7fd7072", "name": "0a8f15724828b21342517c8fb7fd7072", "lat": 38.893288166666665}, {"rental_uris": {"ios": "https://dc.lft.to/lastmile_qr_scan", "android": "https://dc.lft.to/lastmile_qr_scan"}, "fusion_lon": 0.0, "type": "electric_scooter", "is_reserved": 0, "lon": -77.03204716666667, "is_disabled": 0, "fusion_lat": 0.0, "bike_id": "87b282047779c71e7cc33bd9827a93da", "name": "87b282047779c71e7cc33bd9827a93da", "lat": 38.93601866666667}, {"rental_uris": {"ios": "https://dc.lft.to/lastmile_qr_scan", "android": "https://dc.lft.to/lastmile_qr_scan"}, "fusion_lon": 0.0, "type": "electric_scooter", "is_reserved": 0, "lon": -77.02730233333334, "is_disabled": 0, "fusion_lat": 0.0, "bike_id": "15639e4263e4a0fae4e7b70ed75e5661", "name": "15639e4263e4a0fae4e7b70ed75e5661", "lat": 38.8975045}, {"rental_uris": {"ios": "https://dc.lft.to/lastmile_qr_scan", "android": "https://dc.lft.to/lastmile_qr_scan"}, "fusion_lon": 0.0, "type": "electric_scooter", "is_reserved": 0, "lon": -77.04170683333334, "is_disabled": 0, "fusion_lat": 0.0, "bike_id": "d4cf92995363769a103e365583846c48", "name": "d4cf92995363769a103e365583846c48", "lat": 38.9085025}, {"rental_uris": {"ios": "https://dc.lft.to/lastmile_qr_scan", "android": "https://dc.lft.to/lastmile_qr_scan"}, "fusion_lon": 0.0, "type": "electric_scooter", "is_reserved": 0, "lon": -77.02713766666666, "is_disabled": 0, "fusion_lat": 0.0, "bike_id": "029d8b811db8bbdff57f27b0e55c5962", "name": "029d8b811db8bbdff57f27b0e55c5962", "lat": 38.906899333333335}, {"rental_uris": {"ios": "https://dc.lft.to/lastmile_qr_scan", "android": "https://dc.lft.to/lastmile_qr_scan"}, "fusion_lon": 0.0, "type": "electric_scooter", "is_reserved": 0, "lon": -77.02806983333333, "is_disabled": 0, "fusion_lat": 0.0, "bike_id": "d4b221f64acf7ffc7ca46a6a309ac6cc", "name": "d4b221f64acf7ffc7ca46a6a309ac6cc", "lat": 38.91250516666667}, {"rental_uris": {"ios": "https://dc.lft.to/lastmile_qr_scan", "android": "https://dc.lft.to/lastmile_qr_scan"}, "fusion_lon": 0.0, "type": "electric_scooter", "is_reserved": 0, "lon": -77.0403785, "is_disabled": 0, "fusion_lat": 0.0, "bike_id": "5126dc86335dd4baa5558b88d5fa17bf", "name": "5126dc86335dd4baa5558b88d5fa17bf", "lat": 38.898815166666665}, {"rental_uris": {"ios": "https://dc.lft.to/lastmile_qr_scan", "android": "https://dc.lft.to/lastmile_qr_scan"}, "fusion_lon": 0.0, "type": "electric_scooter", "is_reserved": 0, "lon": -77.02075666666667, "is_disabled": 0, "fusion_lat": 0.0, "bike_id": "28c659f2263ee58ecd081df2da0e27eb", "name": "28c659f2263ee58ecd081df2da0e27eb", "lat": 38.9525715}, {"rental_uris": {"ios": "https://dc.lft.to/lastmile_qr_scan", "android": "https://dc.lft.to/lastmile_qr_scan"}, "fusion_lon": 0.0, "type": "electric_scooter", "is_reserved": 0, "lon": -77.01222366666667, "is_disabled": 0, "fusion_lat": 0.0, "bike_id": "484073e4473cb94eab421b7320d69fd9", "name": "484073e4473cb94eab421b7320d69fd9", "lat": 38.88578116666667}, {"rental_uris": {"ios": "https://dc.lft.to/lastmile_qr_scan", "android": "https://dc.lft.to/lastmile_qr_scan"}, "fusion_lon": 0.0, "type": "electric_scooter", "is_reserved": 0, "lon": -77.032815, "is_disabled": 0, "fusion_lat": 0.0, "bike_id": "4bc0d0c5372bc6575128178cec032153", "name": "4bc0d0c5372bc6575128178cec032153", "lat": 38.936066}, {"rental_uris": {"ios": "https://dc.lft.to/lastmile_qr_scan", "android": "https://dc.lft.to/lastmile_qr_scan"}, "fusion_lon": 0.0, "type": "electric_scooter", "is_reserved": 0, "lon": -77.02118866666666, "is_disabled": 0, "fusion_lat": 0.0, "bike_id": "9c41600d30a8338342530944e4df4f45", "name": "9c41600d30a8338342530944e4df4f45", "lat": 38.91750033333334}, {"rental_uris": {"ios": "https://dc.lft.to/lastmile_qr_scan", "android": "https://dc.lft.to/lastmile_qr_scan"}, "fusion_lon": 0.0, "type": "electric_scooter", "is_reserved": 0, "lon": -77.020211, "is_disabled": 0, "fusion_lat": 0.0, "bike_id": "45aef4208ecabecaa768285831056f74", "name": "45aef4208ecabecaa768285831056f74", "lat": 38.89444433333333}, {"rental_uris": {"ios": "https://dc.lft.to/lastmile_qr_scan", "android": "https://dc.lft.to/lastmile_qr_scan"}, "fusion_lon": 0.0, "type": "electric_scooter", "is_reserved": 0, "lon": -77.03285, "is_disabled": 0, "fusion_lat": 0.0, "bike_id": "c17c357597ba5016b4e027bbf1ac8526", "name": "c17c357597ba5016b4e027bbf1ac8526", "lat": 38.934399666666664}, {"rental_uris": {"ios": "https://dc.lft.to/lastmile_qr_scan", "android": "https://dc.lft.to/lastmile_qr_scan"}, "fusion_lon": 0.0, "type": "electric_scooter", "is_reserved": 0, "lon": -77.02814183333334, "is_disabled": 0, "fusion_lat": 0.0, "bike_id": "8d0c31e8355bb369142a21258778f6c8", "name": "8d0c31e8355bb369142a21258778f6c8", "lat": 38.90277}, {"rental_uris": {"ios": "https://dc.lft.to/lastmile_qr_scan", "android": "https://dc.lft.to/lastmile_qr_scan"}, "fusion_lon": 0.0, "type": "electric_scooter", "is_reserved": 0, "lon": -77.050007, "is_disabled": 0, "fusion_lat": 0.0, "bike_id": "9da5060513a9990d9d59b81f0ac35ef3", "name": "9da5060513a9990d9d59b81f0ac35ef3", "lat": 38.89764983333333}, {"rental_uris": {"ios": "https://dc.lft.to/lastmile_qr_scan", "android": "https://dc.lft.to/lastmile_qr_scan"}, "fusion_lon": 0.0, "type": "electric_scooter", "is_reserved": 0, "lon": -76.93175183333334, "is_disabled": 0, "fusion_lat": 0.0, "bike_id": "d62792d3612a08d1f38ce92a7aea8f19", "name": "d62792d3612a08d1f38ce92a7aea8f19", "lat": 38.89886116666667}, {"rental_uris": {"ios": "https://dc.lft.to/lastmile_qr_scan", "android": "https://dc.lft.to/lastmile_qr_scan"}, "fusion_lon": 0.0, "type": "electric_scooter", "is_reserved": 0, "lon": -77.02502616666666, "is_disabled": 0, "fusion_lat": 0.0, "bike_id": "fea292510723b30265076877d7bc9861", "name": "fea292510723b30265076877d7bc9861", "lat": 38.926402}, {"rental_uris": {"ios": "https://dc.lft.to/lastmile_qr_scan", "android": "https://dc.lft.to/lastmile_qr_scan"}, "fusion_lon": 0.0, "type": "electric_bike", "is_reserved": 0, "lon": -76.95541766666666, "is_disabled": 0, "fusion_lat": 0.0, "bike_id": "45b43d67824cdf3bc131c7b7e88ea8a8", "name": "45b43d67824cdf3bc131c7b7e88ea8a8", "lat": 38.972476}, {"rental_uris": {"ios": "https://dc.lft.to/lastmile_qr_scan", "android": "https://dc.lft.to/lastmile_qr_scan"}, "fusion_lon": 0.0, "type": "electric_scooter", "is_reserved": 0, "lon": -77.01423616666666, "is_disabled": 0, "fusion_lat": 0.0, "bike_id": "13fade60bc42e33d17e1d29e8e4da5bc", "name": "13fade60bc42e33d17e1d29e8e4da5bc", "lat": 38.955584}, {"rental_uris": {"ios": "https://dc.lft.to/lastmile_qr_scan", "android": "https://dc.lft.to/lastmile_qr_scan"}, "fusion_lon": 0.0, "type": "electric_scooter", "is_reserved": 0, "lon": -77.04437783333333, "is_disabled": 0, "fusion_lat": 0.0, "bike_id": "5af06c354d0364f3f1620967e5a823bc", "name": "5af06c354d0364f3f1620967e5a823bc", "lat": 38.911239}, {"rental_uris": {"ios": "https://dc.lft.to/lastmile_qr_scan", "android": "https://dc.lft.to/lastmile_qr_scan"}, "fusion_lon": 0.0, "type": "electric_scooter", "is_reserved": 0, "lon": -77.022838, "is_disabled": 0, "fusion_lat": 0.0, "bike_id": "4fc50f13124c31625e93c361cd3852c6", "name": "4fc50f13124c31625e93c361cd3852c6", "lat": 38.89856133333333}, {"rental_uris": {"ios": "https://dc.lft.to/lastmile_qr_scan", "android": "https://dc.lft.to/lastmile_qr_scan"}, "fusion_lon": 0.0, "type": "electric_scooter", "is_reserved": 0, "lon": -77.03071433333334, "is_disabled": 0, "fusion_lat": 0.0, "bike_id": "537a4b8be955e947bb4ff198bf146fb4", "name": "537a4b8be955e947bb4ff198bf146fb4", "lat": 38.89666833333333}, {"rental_uris": {"ios": "https://dc.lft.to/lastmile_qr_scan", "android": "https://dc.lft.to/lastmile_qr_scan"}, "fusion_lon": 0.0, "type": "electric_scooter", "is_reserved": 0, "lon": -77.01629816666667, "is_disabled": 0, "fusion_lat": 0.0, "bike_id": "749ebc762fd9ff56991efeabbfccfeab", "name": "749ebc762fd9ff56991efeabbfccfeab", "lat": 38.910552333333335}, {"rental_uris": {"ios": "https://dc.lft.to/lastmile_qr_scan", "android": "https://dc.lft.to/lastmile_qr_scan"}, "fusion_lon": 0.0, "type": "electric_scooter", "is_reserved": 0, "lon": -77.08033633333334, "is_disabled": 0, "fusion_lat": 0.0, "bike_id": "3a884574bca74fdb02379342d455d776", "name": "3a884574bca74fdb02379342d455d776", "lat": 38.956037}, {"rental_uris": {"ios": "https://dc.lft.to/lastmile_qr_scan", "android": "https://dc.lft.to/lastmile_qr_scan"}, "fusion_lon": 0.0, "type": "electric_scooter", "is_reserved": 0, "lon": -77.01863166666666, "is_disabled": 0, "fusion_lat": 0.0, "bike_id": "9016319ac259008a4c03c7be80ba9906", "name": "9016319ac259008a4c03c7be80ba9906", "lat": 38.9736785}, {"rental_uris": {"ios": "https://dc.lft.to/lastmile_qr_scan", "android": "https://dc.lft.to/lastmile_qr_scan"}, "fusion_lon": 0.0, "type": "electric_scooter", "is_reserved": 0, "lon": -77.012047, "is_disabled": 0, "fusion_lat": 0.0, "bike_id": "5a870dd4bdfef213309cf194e5be60b3", "name": "5a870dd4bdfef213309cf194e5be60b3", "lat": 38.91554283333333}, {"rental_uris": {"ios": "https://dc.lft.to/lastmile_qr_scan", "android": "https://dc.lft.to/lastmile_qr_scan"}, "fusion_lon": 0.0, "type": "electric_bike", "is_reserved": 0, "lon": -77.12645066666667, "is_disabled": 0, "fusion_lat": 0.0, "bike_id": "c7582fd6bc5ffe8a2684782845c85fdc", "name": "c7582fd6bc5ffe8a2684782845c85fdc", "lat": 38.81902183333333}, {"rental_uris": {"ios": "https://dc.lft.to/lastmile_qr_scan", "android": "https://dc.lft.to/lastmile_qr_scan"}, "fusion_lon": 0.0, "type": "electric_scooter", "is_reserved": 0, "lon": -77.01477233333334, "is_disabled": 0, "fusion_lat": 0.0, "bike_id": "3f9a29aa6a0e9de38a2faa54aeb6ed61", "name": "3f9a29aa6a0e9de38a2faa54aeb6ed61", "lat": 38.92671883333333}, {"rental_uris": {"ios": "https://dc.lft.to/lastmile_qr_scan", "android": "https://dc.lft.to/lastmile_qr_scan"}, "fusion_lon": 0.0, "type": "electric_scooter", "is_reserved": 0, "lon": -77.045098, "is_disabled": 0, "fusion_lat": 0.0, "bike_id": "9393f47a14de1fe3b2e44e635d2689f5", "name": "9393f47a14de1fe3b2e44e635d2689f5", "lat": 38.900760166666664}, {"rental_uris": {"ios": "https://dc.lft.to/lastmile_qr_scan", "android": "https://dc.lft.to/lastmile_qr_scan"}, "fusion_lon": 0.0, "type": "electric_scooter", "is_reserved": 0, "lon": -77.02657366666666, "is_disabled": 0, "fusion_lat": 0.0, "bike_id": "13cc39921a9c164290ca33b4c33eb15f", "name": "13cc39921a9c164290ca33b4c33eb15f", "lat": 38.97596733333334}, {"rental_uris": {"ios": "https://dc.lft.to/lastmile_qr_scan", "android": "https://dc.lft.to/lastmile_qr_scan"}, "fusion_lon": 0.0, "type": "electric_scooter", "is_reserved": 0, "lon": -77.0053855, "is_disabled": 0, "fusion_lat": 0.0, "bike_id": "1d55400ad0130fd627af3ecd737626a8", "name": "1d55400ad0130fd627af3ecd737626a8", "lat": 38.8754265}, {"rental_uris": {"ios": "https://dc.lft.to/lastmile_qr_scan", "android": "https://dc.lft.to/lastmile_qr_scan"}, "fusion_lon": 0.0, "type": "electric_scooter", "is_reserved": 0, "lon": -77.03398366666667, "is_disabled": 0, "fusion_lat": 0.0, "bike_id": "7ba4d6727b6f477bc07977a565b1ce81", "name": "7ba4d6727b6f477bc07977a565b1ce81", "lat": 38.928625}, {"rental_uris": {"ios": "https://dc.lft.to/lastmile_qr_scan", "android": "https://dc.lft.to/lastmile_qr_scan"}, "fusion_lon": 0.0, "type": "electric_scooter", "is_reserved": 0, "lon": -77.02451033333334, "is_disabled": 0, "fusion_lat": 0.0, "bike_id": "96e84f115a14400cad350025efe9214f", "name": "96e84f115a14400cad350025efe9214f", "lat": 38.91803316666667}, {"rental_uris": {"ios": "https://dc.lft.to/lastmile_qr_scan", "android": "https://dc.lft.to/lastmile_qr_scan"}, "fusion_lon": 0.0, "type": "electric_scooter", "is_reserved": 0, "lon": -77.01968033333333, "is_disabled": 0, "fusion_lat": 0.0, "bike_id": "546d263892579a9ff91621b452980f18", "name": "546d263892579a9ff91621b452980f18", "lat": 38.92036483333333}, {"rental_uris": {"ios": "https://dc.lft.to/lastmile_qr_scan", "android": "https://dc.lft.to/lastmile_qr_scan"}, "fusion_lon": 0.0, "type": "electric_scooter", "is_reserved": 0, "lon": -77.03581183333333, "is_disabled": 0, "fusion_lat": 0.0, "bike_id": "55b6b1e538d528a4a5fdfb260d22fd91", "name": "55b6b1e538d528a4a5fdfb260d22fd91", "lat": 38.9087135}, {"rental_uris": {"ios": "https://dc.lft.to/lastmile_qr_scan", "android": "https://dc.lft.to/lastmile_qr_scan"}, "fusion_lon": 0.0, "type": "electric_scooter", "is_reserved": 0, "lon": -77.00736583333334, "is_disabled": 0, "fusion_lat": 0.0, "bike_id": "7f01722ca1ffddbc6418564968aefdf7", "name": "7f01722ca1ffddbc6418564968aefdf7", "lat": 38.8766255}, {"rental_uris": {"ios": "https://dc.lft.to/lastmile_qr_scan", "android": "https://dc.lft.to/lastmile_qr_scan"}, "fusion_lon": 0.0, "type": "electric_scooter", "is_reserved": 0, "lon": -77.010046, "is_disabled": 0, "fusion_lat": 0.0, "bike_id": "b065e6f5e7e35a834b68b6080dbce4b8", "name": "b065e6f5e7e35a834b68b6080dbce4b8", "lat": 38.879403333333336}, {"rental_uris": {"ios": "https://dc.lft.to/lastmile_qr_scan", "android": "https://dc.lft.to/lastmile_qr_scan"}, "fusion_lon": 0.0, "type": "electric_scooter", "is_reserved": 0, "lon": -77.03231216666667, "is_disabled": 0, "fusion_lat": 0.0, "bike_id": "be92da4f9236500f2d606a39b3fb5b7f", "name": "be92da4f9236500f2d606a39b3fb5b7f", "lat": 38.928769}, {"rental_uris": {"ios": "https://dc.lft.to/lastmile_qr_scan", "android": "https://dc.lft.to/lastmile_qr_scan"}, "fusion_lon": 0.0, "type": "electric_scooter", "is_reserved": 0, "lon": -77.0161955, "is_disabled": 0, "fusion_lat": 0.0, "bike_id": "379ffa159f7426fa3a5caa632a79f49d", "name": "379ffa159f7426fa3a5caa632a79f49d", "lat": 38.89953583333333}, {"rental_uris": {"ios": "https://dc.lft.to/lastmile_qr_scan", "android": "https://dc.lft.to/lastmile_qr_scan"}, "fusion_lon": 0.0, "type": "electric_scooter", "is_reserved": 0, "lon": -77.04636133333334, "is_disabled": 0, "fusion_lat": 0.0, "bike_id": "0553ac95d79401923f89c820994d53f6", "name": "0553ac95d79401923f89c820994d53f6", "lat": 38.919226333333334}, {"rental_uris": {"ios": "https://dc.lft.to/lastmile_qr_scan", "android": "https://dc.lft.to/lastmile_qr_scan"}, "fusion_lon": 0.0, "type": "electric_scooter", "is_reserved": 0, "lon": -77.041359, "is_disabled": 0, "fusion_lat": 0.0, "bike_id": "ebad7fc2f0e080387cab2cccbbbe4c8d", "name": "ebad7fc2f0e080387cab2cccbbbe4c8d", "lat": 38.897437333333336}, {"rental_uris": {"ios": "https://dc.lft.to/lastmile_qr_scan", "android": "https://dc.lft.to/lastmile_qr_scan"}, "fusion_lon": 0.0, "type": "electric_scooter", "is_reserved": 0, "lon": -77.032831, "is_disabled": 0, "fusion_lat": 0.0, "bike_id": "0d0b3a3e8797cc4c7b4da49aa4e931bd", "name": "0d0b3a3e8797cc4c7b4da49aa4e931bd", "lat": 38.947467833333334}, {"rental_uris": {"ios": "https://dc.lft.to/lastmile_qr_scan", "android": "https://dc.lft.to/lastmile_qr_scan"}, "fusion_lon": 0.0, "type": "electric_scooter", "is_reserved": 0, "lon": -77.000034, "is_disabled": 0, "fusion_lat": 0.0, "bike_id": "8338b00c15c45205079d313bda5fca66", "name": "8338b00c15c45205079d313bda5fca66", "lat": 38.8887335}, {"rental_uris": {"ios": "https://dc.lft.to/lastmile_qr_scan", "android": "https://dc.lft.to/lastmile_qr_scan"}, "fusion_lon": 0.0, "type": "electric_bike", "is_reserved": 0, "lon": -77.03276116666666, "is_disabled": 0, "fusion_lat": 0.0, "bike_id": "450c2ad3fd90d89c23b0e916dfe7b85e", "name": "450c2ad3fd90d89c23b0e916dfe7b85e", "lat": 38.9612415}, {"rental_uris": {"ios": "https://dc.lft.to/lastmile_qr_scan", "android": "https://dc.lft.to/lastmile_qr_scan"}, "fusion_lon": 0.0, "type": "electric_scooter", "is_reserved": 0, "lon": -77.0714505, "is_disabled": 0, "fusion_lat": 0.0, "bike_id": "4317f037656ce2a69718dedad12131eb", "name": "4317f037656ce2a69718dedad12131eb", "lat": 38.920091}, {"rental_uris": {"ios": "https://dc.lft.to/lastmile_qr_scan", "android": "https://dc.lft.to/lastmile_qr_scan"}, "fusion_lon": 0.0, "type": "electric_scooter", "is_reserved": 0, "lon": -77.03542966666667, "is_disabled": 0, "fusion_lat": 0.0, "bike_id": "8fb6aed53af71772e0540aa2e959fef5", "name": "8fb6aed53af71772e0540aa2e959fef5", "lat": 38.924134}, {"rental_uris": {"ios": "https://dc.lft.to/lastmile_qr_scan", "android": "https://dc.lft.to/lastmile_qr_scan"}, "fusion_lon": 0.0, "type": "electric_bike", "is_reserved": 0, "lon": -77.04920916666667, "is_disabled": 0, "fusion_lat": 0.0, "bike_id": "a94666ef7f53dcbda81c1a54d22e88de", "name": "a94666ef7f53dcbda81c1a54d22e88de", "lat": 38.88950766666667}, {"rental_uris": {"ios": "https://dc.lft.to/lastmile_qr_scan", "android": "https://dc.lft.to/lastmile_qr_scan"}, "fusion_lon": 0.0, "type": "electric_scooter", "is_reserved": 0, "lon": -77.029845, "is_disabled": 0, "fusion_lat": 0.0, "bike_id": "882e20de4309ec67b47ce7b668c90634", "name": "882e20de4309ec67b47ce7b668c90634", "lat": 38.91551283333333}, {"rental_uris": {"ios": "https://dc.lft.to/lastmile_qr_scan", "android": "https://dc.lft.to/lastmile_qr_scan"}, "fusion_lon": 0.0, "type": "electric_bike", "is_reserved": 0, "lon": -77.08824833333334, "is_disabled": 0, "fusion_lat": 0.0, "bike_id": "a46cd3091ed56c17889eb23e137981cf", "name": "a46cd3091ed56c17889eb23e137981cf", "lat": 38.9096575}, {"rental_uris": {"ios": "https://dc.lft.to/lastmile_qr_scan", "android": "https://dc.lft.to/lastmile_qr_scan"}, "fusion_lon": 0.0, "type": "electric_scooter", "is_reserved": 0, "lon": -77.01592533333333, "is_disabled": 0, "fusion_lat": 0.0, "bike_id": "9461aaa1872a73655885d7952e2dfccd", "name": "9461aaa1872a73655885d7952e2dfccd", "lat": 38.965920833333335}, {"rental_uris": {"ios": "https://dc.lft.to/lastmile_qr_scan", "android": "https://dc.lft.to/lastmile_qr_scan"}, "fusion_lon": 0.0, "type": "electric_scooter", "is_reserved": 0, "lon": -77.01489916666667, "is_disabled": 0, "fusion_lat": 0.0, "bike_id": "ce2dcd97d5761016225e30c97fb64d2e", "name": "ce2dcd97d5761016225e30c97fb64d2e", "lat": 38.89299283333333}, {"rental_uris": {"ios": "https://dc.lft.to/lastmile_qr_scan", "android": "https://dc.lft.to/lastmile_qr_scan"}, "fusion_lon": 0.0, "type": "electric_scooter", "is_reserved": 0, "lon": -77.0402375, "is_disabled": 0, "fusion_lat": 0.0, "bike_id": "f371ed22b69a757f1f5a961f3eca78a4", "name": "f371ed22b69a757f1f5a961f3eca78a4", "lat": 38.921595833333335}, {"rental_uris": {"ios": "https://dc.lft.to/lastmile_qr_scan", "android": "https://dc.lft.to/lastmile_qr_scan"}, "fusion_lon": 0.0, "type": "electric_scooter", "is_reserved": 0, "lon": -77.009108, "is_disabled": 0, "fusion_lat": 0.0, "bike_id": "c790fc433a7b7677ea6f9019e0f465ec", "name": "c790fc433a7b7677ea6f9019e0f465ec", "lat": 38.89549983333333}, {"rental_uris": {"ios": "https://dc.lft.to/lastmile_qr_scan", "android": "https://dc.lft.to/lastmile_qr_scan"}, "fusion_lon": 0.0, "type": "electric_scooter", "is_reserved": 0, "lon": -77.032102, "is_disabled": 0, "fusion_lat": 0.0, "bike_id": "3c4c26ac0d101f8860a040ed1b40fdfd", "name": "3c4c26ac0d101f8860a040ed1b40fdfd", "lat": 38.91133}, {"rental_uris": {"ios": "https://dc.lft.to/lastmile_qr_scan", "android": "https://dc.lft.to/lastmile_qr_scan"}, "fusion_lon": 0.0, "type": "electric_scooter", "is_reserved": 0, "lon": -77.028682, "is_disabled": 0, "fusion_lat": 0.0, "bike_id": "02234dbc96f0127f6ff0144dc4a3e8e1", "name": "02234dbc96f0127f6ff0144dc4a3e8e1", "lat": 38.90510233333333}, {"rental_uris": {"ios": "https://dc.lft.to/lastmile_qr_scan", "android": "https://dc.lft.to/lastmile_qr_scan"}, "fusion_lon": 0.0, "type": "electric_scooter", "is_reserved": 0, "lon": -77.02214183333334, "is_disabled": 0, "fusion_lat": 0.0, "bike_id": "23f413d05c7577deaf618f533a52ed83", "name": "23f413d05c7577deaf618f533a52ed83", "lat": 38.92081016666667}, {"rental_uris": {"ios": "https://dc.lft.to/lastmile_qr_scan", "android": "https://dc.lft.to/lastmile_qr_scan"}, "fusion_lon": 0.0, "type": "electric_scooter", "is_reserved": 0, "lon": -77.018313, "is_disabled": 0, "fusion_lat": 0.0, "bike_id": "afbd55db667ea73d9296ceb2ec3310d0", "name": "afbd55db667ea73d9296ceb2ec3310d0", "lat": 38.89245316666667}, {"rental_uris": {"ios": "https://dc.lft.to/lastmile_qr_scan", "android": "https://dc.lft.to/lastmile_qr_scan"}, "fusion_lon": 0.0, "type": "electric_scooter", "is_reserved": 0, "lon": -77.01783683333333, "is_disabled": 0, "fusion_lat": 0.0, "bike_id": "563190e2a188cbd71a0c350c003e15c3", "name": "563190e2a188cbd71a0c350c003e15c3", "lat": 38.921221}, {"rental_uris": {"ios": "https://dc.lft.to/lastmile_qr_scan", "android": "https://dc.lft.to/lastmile_qr_scan"}, "fusion_lon": 0.0, "type": "electric_scooter", "is_reserved": 0, "lon": -77.02415116666667, "is_disabled": 0, "fusion_lat": 0.0, "bike_id": "01e0059f36f37a8c240c60529e60be58", "name": "01e0059f36f37a8c240c60529e60be58", "lat": 38.9024935}, {"rental_uris": {"ios": "https://dc.lft.to/lastmile_qr_scan", "android": "https://dc.lft.to/lastmile_qr_scan"}, "fusion_lon": 0.0, "type": "electric_scooter", "is_reserved": 0, "lon": -77.024139, "is_disabled": 0, "fusion_lat": 0.0, "bike_id": "4ab0dba8e9f0f231bc1d48b5beb8b681", "name": "4ab0dba8e9f0f231bc1d48b5beb8b681", "lat": 38.936796333333334}, {"rental_uris": {"ios": "https://dc.lft.to/lastmile_qr_scan", "android": "https://dc.lft.to/lastmile_qr_scan"}, "fusion_lon": 0.0, "type": "electric_scooter", "is_reserved": 0, "lon": -77.00788283333333, "is_disabled": 0, "fusion_lat": 0.0, "bike_id": "e9202f0a80a641b4c61a7ba15b641453", "name": "e9202f0a80a641b4c61a7ba15b641453", "lat": 38.9071465}, {"rental_uris": {"ios": "https://dc.lft.to/lastmile_qr_scan", "android": "https://dc.lft.to/lastmile_qr_scan"}, "fusion_lon": 0.0, "type": "electric_scooter", "is_reserved": 0, "lon": -76.932612, "is_disabled": 0, "fusion_lat": 0.0, "bike_id": "fbd7965d024c5b210d28723b8d7e6ff3", "name": "fbd7965d024c5b210d28723b8d7e6ff3", "lat": 38.88770933333333}, {"rental_uris": {"ios": "https://dc.lft.to/lastmile_qr_scan", "android": "https://dc.lft.to/lastmile_qr_scan"}, "fusion_lon": 0.0, "type": "electric_bike", "is_reserved": 0, "lon": -76.98803016666666, "is_disabled": 0, "fusion_lat": 0.0, "bike_id": "a931766e18397213faef4f4d55054dee", "name": "a931766e18397213faef4f4d55054dee", "lat": 38.98883383333333}, {"rental_uris": {"ios": "https://dc.lft.to/lastmile_qr_scan", "android": "https://dc.lft.to/lastmile_qr_scan"}, "fusion_lon": 0.0, "type": "electric_scooter", "is_reserved": 0, "lon": -77.011952, "is_disabled": 0, "fusion_lat": 0.0, "bike_id": "5e2ef92877f9467debf4b99484ae0914", "name": "5e2ef92877f9467debf4b99484ae0914", "lat": 38.89767333333333}, {"rental_uris": {"ios": "https://dc.lft.to/lastmile_qr_scan", "android": "https://dc.lft.to/lastmile_qr_scan"}, "fusion_lon": 0.0, "type": "electric_bike", "is_reserved": 0, "lon": -77.01052466666667, "is_disabled": 0, "fusion_lat": 0.0, "bike_id": "3c07c89b2854e2ec9aab8456b2c91120", "name": "3c07c89b2854e2ec9aab8456b2c91120", "lat": 38.89806466666667}, {"rental_uris": {"ios": "https://dc.lft.to/lastmile_qr_scan", "android": "https://dc.lft.to/lastmile_qr_scan"},