{"data": {"bikes": [{"fusion_lat": 0.0, "type": "electric_bike", "name": "eb1c03a9d68dafb3c0961296cc710914", "fusion_lon": 0.0, "bike_id": "eb1c03a9d68dafb3c0961296cc710914", "is_reserved": 0, "rental_uris": {"android": "https://dc.lft.to/lastmile_qr_scan", "ios": "https://dc.lft.to/lastmile_qr_scan"}, "lat": 38.8772845, "is_disabled": 0, "lon": -76.9811135}, {"fusion_lat": 0.0, "type": "electric_scooter", "name": "2fce00c4a69f842bd62bb7e352c1c864", "fusion_lon": 0.0, "bike_id": "2fce00c4a69f842bd62bb7e352c1c864", "is_reserved": 0, "rental_uris": {"android": "https://dc.lft.to/lastmile_qr_scan", "ios": "https://dc.lft.to/lastmile_qr_scan"}, "lat": 38.89842083333333, "is_disabled": 0, "lon": -76.94642366666666}, {"fusion_lat": 0.0, "type": "electric_scooter", "name": "303a29fc3a83fd9f1b4cc175823cb451", "fusion_lon": 0.0, "bike_id": "303a29fc3a83fd9f1b4cc175823cb451", "is_reserved": 0, "rental_uris": {"android": "https://dc.lft.to/lastmile_qr_scan", "ios": "https://dc.lft.to/lastmile_qr_scan"}, "lat": 38.934603333333335, "is_disabled": 0, "lon": -77.05779466666667}, {"fusion_lat": 0.0, "type": "electric_scooter", "name": "fa1d69b8c6669f21ecb5a43d2afd1ea3", "fusion_lon": 0.0, "bike_id": "fa1d69b8c6669f21ecb5a43d2afd1ea3", "is_reserved": 0, "rental_uris": {"android": "https://dc.lft.to/lastmile_qr_scan", "ios": "https://dc.lft.to/lastmile_qr_scan"}, "lat": 38.8605655, "is_disabled": 0, "lon": -76.9842555}, {"fusion_lat": 0.0, "type": "electric_bike", "name": "0bd42eac79fa87aace64c57f9cd3243d", "fusion_lon": 0.0, "bike_id": "0bd42eac79fa87aace64c57f9cd3243d", "is_reserved": 0, "rental_uris": {"android": "https://dc.lft.to/lastmile_qr_scan", "ios": "https://dc.lft.to/lastmile_qr_scan"}, "lat": 38.98425183333333, "is_disabled": 0, "lon": -77.09694133333333}, {"fusion_lat": 0.0, "type": "electric_scooter", "name": "a844d15ca0055340a61a0c4891ddcb7b", "fusion_lon": 0.0, "bike_id": "a844d15ca0055340a61a0c4891ddcb7b", "is_reserved": 0, "rental_uris": {"android": "https://dc.lft.to/lastmile_qr_scan", "ios": "https://dc.lft.to/lastmile_qr_scan"}, "lat": 38.8804205, "is_disabled": 0, "lon": -77.0198865}, {"fusion_lat": 0.0, "type": "electric_scooter", "name": "b409917dadcfc044dc24ddd8d5d11464", "fusion_lon": 0.0, "bike_id": "b409917dadcfc044dc24ddd8d5d11464", "is_reserved": 0, "rental_uris": {"android": "https://dc.lft.to/lastmile_qr_scan", "ios": "https://dc.lft.to/lastmile_qr_scan"}, "lat": 38.922904333333335, "is_disabled": 0, "lon": -77.021097}, {"fusion_lat": 0.0, "type": "electric_scooter", "name": "32254962b65dfb257afa3085fb562dbd", "fusion_lon": 0.0, "bike_id": "32254962b65dfb257afa3085fb562dbd", "is_reserved": 0, "rental_uris": {"android": "https://dc.lft.to/lastmile_qr_scan", "ios": "https://dc.lft.to/lastmile_qr_scan"}, "lat": 38.946598333333334, "is_disabled": 0, "lon": -77.006051}, {"fusion_lat": 0.0, "type": "electric_scooter", "name": "8a9b1e88508a02159bcc3671bd25ec2f", "fusion_lon": 0.0, "bike_id": "8a9b1e88508a02159bcc3671bd25ec2f", "is_reserved": 0, "rental_uris": {"android": "https://dc.lft.to/lastmile_qr_scan", "ios": "https://dc.lft.to/lastmile_qr_scan"}, "lat": 38.901315333333336, "is_disabled": 0, "lon": -77.04351383333334}, {"fusion_lat": 0.0, "type": "electric_scooter", "name": "3fedeb099dfcc67db27b189fff0bbbde", "fusion_lon": 0.0, "bike_id": "3fedeb099dfcc67db27b189fff0bbbde", "is_reserved": 0, "rental_uris": {"android": "https://dc.lft.to/lastmile_qr_scan", "ios": "https://dc.lft.to/lastmile_qr_scan"}, "lat": 38.89221666666667, "is_disabled": 0, "lon": -77.04687216666666}, {"fusion_lat": 0.0, "type": "electric_scooter", "name": "9652eeed8eba23a70ca38dd3c2febbca", "fusion_lon": 0.0, "bike_id": "9652eeed8eba23a70ca38dd3c2febbca", "is_reserved": 0, "rental_uris": {"android": "https://dc.lft.to/lastmile_qr_scan", "ios": "https://dc.lft.to/lastmile_qr_scan"}, "lat": 38.915644666666665, "is_disabled": 0, "lon": -77.03786216666667}, {"fusion_lat": 0.0, "type": "electric_scooter", "name": "34bd416a8e6ac2a1aac82304313c0967", "fusion_lon": 0.0, "bike_id": "34bd416a8e6ac2a1aac82304313c0967", "is_reserved": 0, "rental_uris": {"android": "https://dc.lft.to/lastmile_qr_scan", "ios": "https://dc.lft.to/lastmile_qr_scan"}, "lat": 38.923015, "is_disabled": 0, "lon": -77.04457216666667}, {"fusion_lat": 0.0, "type": "electric_scooter", "name": "203e184dd253d48c4fdd26577f7a2908", "fusion_lon": 0.0, "bike_id": "203e184dd253d48c4fdd26577f7a2908", "is_reserved": 0, "rental_uris": {"android": "https://dc.lft.to/lastmile_qr_scan", "ios": "https://dc.lft.to/lastmile_qr_scan"}, "lat": 38.913959, "is_disabled": 0, "lon": -77.03185316666666}, {"fusion_lat": 0.0, "type": "electric_scooter", "name": "37e72ccfc6d6c7f3ad8454281c89612e", "fusion_lon": 0.0, "bike_id": "37e72ccfc6d6c7f3ad8454281c89612e", "is_reserved": 0, "rental_uris": {"android": "https://dc.lft.to/lastmile_qr_scan", "ios": "https://dc.lft.to/lastmile_qr_scan"}, "lat": 38.919592, "is_disabled": 0, "lon": -77.02348066666667}, {"fusion_lat": 0.0, "type": "electric_scooter", "name": "c2337c0c5f3020e5fd43755093577fe5", "fusion_lon": 0.0, "bike_id": "c2337c0c5f3020e5fd43755093577fe5", "is_reserved": 0, "rental_uris": {"android": "https://dc.lft.to/lastmile_qr_scan", "ios": "https://dc.lft.to/lastmile_qr_scan"}, "lat": 38.874617666666666, "is_disabled": 0, "lon": -77.0096445}, {"fusion_lat": 0.0, "type": "electric_scooter", "name": "67de658850167006e59565b167afb90f", "fusion_lon": 0.0, "bike_id": "67de658850167006e59565b167afb90f", "is_reserved": 0, "rental_uris": {"android": "https://dc.lft.to/lastmile_qr_scan", "ios": "https://dc.lft.to/lastmile_qr_scan"}, "lat": 38.903173333333335, "is_disabled": 0, "lon": -77.04350416666666}, {"fusion_lat": 0.0, "type": "electric_scooter", "name": "4c85781cc7e2554ea3e90193856804dc", "fusion_lon": 0.0, "bike_id": "4c85781cc7e2554ea3e90193856804dc", "is_reserved": 0, "rental_uris": {"android": "https://dc.lft.to/lastmile_qr_scan", "ios": "https://dc.lft.to/lastmile_qr_scan"}, "lat": 38.9031145, "is_disabled": 0, "lon": -77.0589325}, {"fusion_lat": 0.0, "type": "electric_scooter", "name": "f52a9d42d6dda227c929ca6afb8b41a7", "fusion_lon": 0.0, "bike_id": "f52a9d42d6dda227c929ca6afb8b41a7", "is_reserved": 0, "rental_uris": {"android": "https://dc.lft.to/lastmile_qr_scan", "ios": "https://dc.lft.to/lastmile_qr_scan"}, "lat": 38.8949875, "is_disabled": 0, "lon": -77.00948033333333}, {"fusion_lat": 0.0, "type": "electric_scooter", "name": "2fb7455882623760f4f05af0390fa104", "fusion_lon": 0.0, "bike_id": "2fb7455882623760f4f05af0390fa104", "is_reserved": 0, "rental_uris": {"android": "https://dc.lft.to/lastmile_qr_scan", "ios": "https://dc.lft.to/lastmile_qr_scan"}, "lat": 38.925723, "is_disabled": 0, "lon": -77.02848483333334}, {"fusion_lat": 0.0, "type": "electric_scooter", "name": "1b81bfd7d10f1df06b3754de762da385", "fusion_lon": 0.0, "bike_id": "1b81bfd7d10f1df06b3754de762da385", "is_reserved": 0, "rental_uris": {"android": "https://dc.lft.to/lastmile_qr_scan", "ios": "https://dc.lft.to/lastmile_qr_scan"}, "lat": 38.906245, "is_disabled": 0, "lon": -77.042778}, {"fusion_lat": 0.0, "type": "electric_scooter", "name": "4cc41a9d3fac7b4ccd9978545466f29a", "fusion_lon": 0.0, "bike_id": "4cc41a9d3fac7b4ccd9978545466f29a", "is_reserved": 0, "rental_uris": {"android": "https://dc.lft.to/lastmile_qr_scan", "ios": "https://dc.lft.to/lastmile_qr_scan"}, "lat": 38.900809333333335, "is_disabled": 0, "lon": -76.99364183333333}, {"fusion_lat": 0.0, "type": "electric_scooter", "name": "ba3442e428d4919e8cde13d871995cf2", "fusion_lon": 0.0, "bike_id": "ba3442e428d4919e8cde13d871995cf2", "is_reserved": 0, "rental_uris": {"android": "https://dc.lft.to/lastmile_qr_scan", "ios": "https://dc.lft.to/lastmile_qr_scan"}, "lat": 38.91804033333333, "is_disabled": 0, "lon": -77.02497233333334}, {"fusion_lat": 0.0, "type": "electric_scooter", "name": "db7b14a13354140577ecb0a289a9e684", "fusion_lon": 0.0, "bike_id": "db7b14a13354140577ecb0a289a9e684", "is_reserved": 0, "rental_uris": {"android": "https://dc.lft.to/lastmile_qr_scan", "ios": "https://dc.lft.to/lastmile_qr_scan"}, "lat": 38.941794, "is_disabled": 0, "lon": -77.0253265}, {"fusion_lat": 0.0, "type": "electric_scooter", "name": "9c6ced76af34bd73391600c9ef48d159", "fusion_lon": 0.0, "bike_id": "9c6ced76af34bd73391600c9ef48d159", "is_reserved": 0, "rental_uris": {"android": "https://dc.lft.to/lastmile_qr_scan", "ios": "https://dc.lft.to/lastmile_qr_scan"}, "lat": 38.92612333333334, "is_disabled": 0, "lon": -77.02167366666667}, {"fusion_lat": 0.0, "type": "electric_scooter", "name": "3334ff6434ee05ec5ee879021a26e6cc", "fusion_lon": 0.0, "bike_id": "3334ff6434ee05ec5ee879021a26e6cc", "is_reserved": 0, "rental_uris": {"android": "https://dc.lft.to/lastmile_qr_scan", "ios": "https://dc.lft.to/lastmile_qr_scan"}, "lat": 38.908101, "is_disabled": 0, "lon": -77.0386135}, {"fusion_lat": 0.0, "type": "electric_scooter", "name": "eceab7eed7ab4b4c63c3e4a0ab33bf63", "fusion_lon": 0.0, "bike_id": "eceab7eed7ab4b4c63c3e4a0ab33bf63", "is_reserved": 0, "rental_uris": {"android": "https://dc.lft.to/lastmile_qr_scan", "ios": "https://dc.lft.to/lastmile_qr_scan"}, "lat": 38.91722216666667, "is_disabled": 0, "lon": -77.02968683333333}, {"fusion_lat": 0.0, "type": "electric_scooter", "name": "2ee616b36d2fab389e8726f8b247ffa6", "fusion_lon": 0.0, "bike_id": "2ee616b36d2fab389e8726f8b247ffa6", "is_reserved": 0, "rental_uris": {"android": "https://dc.lft.to/lastmile_qr_scan", "ios": "https://dc.lft.to/lastmile_qr_scan"}, "lat": 38.9235425, "is_disabled": 0, "lon": -77.01925116666666}, {"fusion_lat": 0.0, "type": "electric_scooter", "name": "4a1ff035fe7f0c18c60be6a9fe76c3ba", "fusion_lon": 0.0, "bike_id": "4a1ff035fe7f0c18c60be6a9fe76c3ba", "is_reserved": 0, "rental_uris": {"android": "https://dc.lft.to/lastmile_qr_scan", "ios": "https://dc.lft.to/lastmile_qr_scan"}, "lat": 38.887657833333336, "is_disabled": 0, "lon": -76.95578183333333}, {"fusion_lat": 0.0, "type": "electric_scooter", "name": "8f9b65c91b7758ba13f20d01a1c73cbc", "fusion_lon": 0.0, "bike_id": "8f9b65c91b7758ba13f20d01a1c73cbc", "is_reserved": 0, "rental_uris": {"android": "https://dc.lft.to/lastmile_qr_scan", "ios": "https://dc.lft.to/lastmile_qr_scan"}, "lat": 38.9353745, "is_disabled": 0, "lon": -77.05829683333333}, {"fusion_lat": 0.0, "type": "electric_scooter", "name": "a37f4e2a7ad5b46b79dc7393df41f330", "fusion_lon": 0.0, "bike_id": "a37f4e2a7ad5b46b79dc7393df41f330", "is_reserved": 0, "rental_uris": {"android": "https://dc.lft.to/lastmile_qr_scan", "ios": "https://dc.lft.to/lastmile_qr_scan"}, "lat": 38.8936335, "is_disabled": 0, "lon": -77.0549405}, {"fusion_lat": 0.0, "type": "electric_scooter", "name": "997e7c10ca6cd08bd517760357f9bd4a", "fusion_lon": 0.0, "bike_id": "997e7c10ca6cd08bd517760357f9bd4a", "is_reserved": 0, "rental_uris": {"android": "https://dc.lft.to/lastmile_qr_scan", "ios": "https://dc.lft.to/lastmile_qr_scan"}, "lat": 38.94449683333333, "is_disabled": 0, "lon": -77.06031666666667}, {"fusion_lat": 0.0, "type": "electric_scooter", "name": "1f880cd74c34362b90486052c515d102", "fusion_lon": 0.0, "bike_id": "1f880cd74c34362b90486052c515d102", "is_reserved": 0, "rental_uris": {"android": "https://dc.lft.to/lastmile_qr_scan", "ios": "https://dc.lft.to/lastmile_qr_scan"}, "lat": 38.9030305, "is_disabled": 0, "lon": -77.04643583333333}, {"fusion_lat": 0.0, "type": "electric_scooter", "name": "5f450037bcb7a8d8b1e9468c0329341b", "fusion_lon": 0.0, "bike_id": "5f450037bcb7a8d8b1e9468c0329341b", "is_reserved": 0, "rental_uris": {"android": "https://dc.lft.to/lastmile_qr_scan", "ios": "https://dc.lft.to/lastmile_qr_scan"}, "lat": 38.904699666666666, "is_disabled": 0, "lon": -77.04377516666666}, {"fusion_lat": 0.0, "type": "electric_scooter", "name": "23901cf04f1f1fa4ee06b4c55ce9b63b", "fusion_lon": 0.0, "bike_id": "23901cf04f1f1fa4ee06b4c55ce9b63b", "is_reserved": 0, "rental_uris": {"android": "https://dc.lft.to/lastmile_qr_scan", "ios": "https://dc.lft.to/lastmile_qr_scan"}, "lat": 38.907193, "is_disabled": 0, "lon": -77.03459683333334}, {"fusion_lat": 0.0, "type": "electric_scooter", "name": "0269308250ce280b28692d9bcd7ecdb0", "fusion_lon": 0.0, "bike_id": "0269308250ce280b28692d9bcd7ecdb0", "is_reserved": 0, "rental_uris": {"android": "https://dc.lft.to/lastmile_qr_scan", "ios": "https://dc.lft.to/lastmile_qr_scan"}, "lat": 38.897989333333335, "is_disabled": 0, "lon": -77.02488733333334}, {"fusion_lat": 0.0, "type": "electric_scooter", "name": "ba9111ad52e26e21503b221833605684", "fusion_lon": 0.0, "bike_id": "ba9111ad52e26e21503b221833605684", "is_reserved": 0, "rental_uris": {"android": "https://dc.lft.to/lastmile_qr_scan", "ios": "https://dc.lft.to/lastmile_qr_scan"}, "lat": 38.927101666666665, "is_disabled": 0, "lon": -77.02394133333334}, {"fusion_lat": 0.0, "type": "electric_scooter", "name": "c509c6aed3575c69680bdf985fa45f77", "fusion_lon": 0.0, "bike_id": "c509c6aed3575c69680bdf985fa45f77", "is_reserved": 0, "rental_uris": {"android": "https://dc.lft.to/lastmile_qr_scan", "ios": "https://dc.lft.to/lastmile_qr_scan"}, "lat": 38.89655066666667, "is_disabled": 0, "lon": -77.050294}, {"fusion_lat": 0.0, "type": "electric_scooter", "name": "16904f5033ab204f1cd0e1c913054deb", "fusion_lon": 0.0, "bike_id": "16904f5033ab204f1cd0e1c913054deb", "is_reserved": 0, "rental_uris": {"android": "https://dc.lft.to/lastmile_qr_scan", "ios": "https://dc.lft.to/lastmile_qr_scan"}, "lat": 38.9012775, "is_disabled": 0, "lon": -77.00257216666667}, {"fusion_lat": 0.0, "type": "electric_scooter", "name": "68697fc6c79cc342c593158f8f3eecb5", "fusion_lon": 0.0, "bike_id": "68697fc6c79cc342c593158f8f3eecb5", "is_reserved": 0, "rental_uris": {"android": "https://dc.lft.to/lastmile_qr_scan", "ios": "https://dc.lft.to/lastmile_qr_scan"}, "lat": 38.9241655, "is_disabled": 0, "lon": -77.02314266666667}, {"fusion_lat": 0.0, "type": "electric_scooter", "name": "491bad20524c66e71121ef9b588527ed", "fusion_lon": 0.0, "bike_id": "491bad20524c66e71121ef9b588527ed", "is_reserved": 0, "rental_uris": {"android": "https://dc.lft.to/lastmile_qr_scan", "ios": "https://dc.lft.to/lastmile_qr_scan"}, "lat": 38.89218183333333, "is_disabled": 0, "lon": -77.03229283333333}, {"fusion_lat": 0.0, "type": "electric_scooter", "name": "d2a1d4e6ab5ca82b4d115526b6bf6c00", "fusion_lon": 0.0, "bike_id": "d2a1d4e6ab5ca82b4d115526b6bf6c00", "is_reserved": 0, "rental_uris": {"android": "https://dc.lft.to/lastmile_qr_scan", "ios": "https://dc.lft.to/lastmile_qr_scan"}, "lat": 38.91052233333333, "is_disabled": 0, "lon": -77.0219005}, {"fusion_lat": 0.0, "type": "electric_scooter", "name": "a4554e933a0f9484da1281115b110afa", "fusion_lon": 0.0, "bike_id": "a4554e933a0f9484da1281115b110afa", "is_reserved": 0, "rental_uris": {"android": "https://dc.lft.to/lastmile_qr_scan", "ios": "https://dc.lft.to/lastmile_qr_scan"}, "lat": 38.932494, "is_disabled": 0, "lon": -77.02841416666666}, {"fusion_lat": 0.0, "type": "electric_scooter", "name": "3dbe815a9b627ab76cf07a34dfa4d98a", "fusion_lon": 0.0, "bike_id": "3dbe815a9b627ab76cf07a34dfa4d98a", "is_reserved": 0, "rental_uris": {"android": "https://dc.lft.to/lastmile_qr_scan", "ios": "https://dc.lft.to/lastmile_qr_scan"}, "lat": 38.89296516666667, "is_disabled": 0, "lon": -76.99822683333333}, {"fusion_lat": 0.0, "type": "electric_scooter", "name": "70ece3320916a6bf443b2f56f7c9942c", "fusion_lon": 0.0, "bike_id": "70ece3320916a6bf443b2f56f7c9942c", "is_reserved": 0, "rental_uris": {"android": "https://dc.lft.to/lastmile_qr_scan", "ios": "https://dc.lft.to/lastmile_qr_scan"}, "lat": 38.886072666666664, "is_disabled": 0, "lon": -76.95585816666667}, {"fusion_lat": 0.0, "type": "electric_scooter", "name": "bdbb089978ef45372a4a90554796c124", "fusion_lon": 0.0, "bike_id": "bdbb089978ef45372a4a90554796c124", "is_reserved": 0, "rental_uris": {"android": "https://dc.lft.to/lastmile_qr_scan", "ios": "https://dc.lft.to/lastmile_qr_scan"}, "lat": 38.89221533333333, "is_disabled": 0, "lon": -77.04154766666667}, {"fusion_lat": 0.0, "type": "electric_scooter", "name": "924f0ecb4d9a05edb1cba21f94365066", "fusion_lon": 0.0, "bike_id": "924f0ecb4d9a05edb1cba21f94365066", "is_reserved": 0, "rental_uris": {"android": "https://dc.lft.to/lastmile_qr_scan", "ios": "https://dc.lft.to/lastmile_qr_scan"}, "lat": 38.902355666666665, "is_disabled": 0, "lon": -77.0270195}, {"fusion_lat": 0.0, "type": "electric_scooter", "name": "85ed42ef03cef81924c37402ec5b02a3", "fusion_lon": 0.0, "bike_id": "85ed42ef03cef81924c37402ec5b02a3", "is_reserved": 0, "rental_uris": {"android": "https://dc.lft.to/lastmile_qr_scan", "ios": "https://dc.lft.to/lastmile_qr_scan"}, "lat": 38.89427833333333, "is_disabled": 0, "lon": -76.94879083333333}, {"fusion_lat": 0.0, "type": "electric_scooter", "name": "049754de74ccb5bc12f3d2bcb0a080b7", "fusion_lon": 0.0, "bike_id": "049754de74ccb5bc12f3d2bcb0a080b7", "is_reserved": 0, "rental_uris": {"android": "https://dc.lft.to/lastmile_qr_scan", "ios": "https://dc.lft.to/lastmile_qr_scan"}, "lat": 38.8924145, "is_disabled": 0, "lon": -77.01728483333333}, {"fusion_lat": 0.0, "type": "electric_scooter", "name": "980856717e0edc93e62e8248b8e8e016", "fusion_lon": 0.0, "bike_id": "980856717e0edc93e62e8248b8e8e016", "is_reserved": 0, "rental_uris": {"android": "https://dc.lft.to/lastmile_qr_scan", "ios": "https://dc.lft.to/lastmile_qr_scan"}, "lat": 38.8898715, "is_disabled": 0, "lon": -76.983336}, {"fusion_lat": 0.0, "type": "electric_scooter", "name": "df0f3d29b79b1955208e5f258f664fed", "fusion_lon": 0.0, "bike_id": "df0f3d29b79b1955208e5f258f664fed", "is_reserved": 0, "rental_uris": {"android": "https://dc.lft.to/lastmile_qr_scan", "ios": "https://dc.lft.to/lastmile_qr_scan"}, "lat": 38.90026983333333, "is_disabled": 0, "lon": -77.0449885}, {"fusion_lat": 0.0, "type": "electric_scooter", "name": "8c28c6651b9cedb26e38cb87bc2a268e", "fusion_lon": 0.0, "bike_id": "8c28c6651b9cedb26e38cb87bc2a268e", "is_reserved": 0, "rental_uris": {"android": "https://dc.lft.to/lastmile_qr_scan", "ios": "https://dc.lft.to/lastmile_qr_scan"}, "lat": 38.90388316666667, "is_disabled": 0, "lon": -77.03835633333334}, {"fusion_lat": 0.0, "type": "electric_scooter", "name": "12a517d69f1909870a6f1bf1e7f4a025", "fusion_lon": 0.0, "bike_id": "12a517d69f1909870a6f1bf1e7f4a025", "is_reserved": 0, "rental_uris": {"android": "https://dc.lft.to/lastmile_qr_scan", "ios": "https://dc.lft.to/lastmile_qr_scan"}, "lat": 38.90412833333333, "is_disabled": 0, "lon": -77.02385183333334}, {"fusion_lat": 0.0, "type": "electric_scooter", "name": "5083f7bb4cf40f30adc68630715d1b9a", "fusion_lon": 0.0, "bike_id": "5083f7bb4cf40f30adc68630715d1b9a", "is_reserved": 0, "rental_uris": {"android": "https://dc.lft.to/lastmile_qr_scan", "ios": "https://dc.lft.to/lastmile_qr_scan"}, "lat": 38.9219, "is_disabled": 0, "lon": -77.01839083333333}, {"fusion_lat": 0.0, "type": "electric_scooter", "name": "7cfb558dbc12b394c1ca16aa3ffa35a0", "fusion_lon": 0.0, "bike_id": "7cfb558dbc12b394c1ca16aa3ffa35a0", "is_reserved": 0, "rental_uris": {"android": "https://dc.lft.to/lastmile_qr_scan", "ios": "https://dc.lft.to/lastmile_qr_scan"}, "lat": 38.89220066666667, "is_disabled": 0, "lon": -77.04503983333333}, {"fusion_lat": 0.0, "type": "electric_scooter", "name": "c1bfbc1985cdd5ee945ad1c2aec2e75d", "fusion_lon": 0.0, "bike_id": "c1bfbc1985cdd5ee945ad1c2aec2e75d", "is_reserved": 0, "rental_uris": {"android": "https://dc.lft.to/lastmile_qr_scan", "ios": "https://dc.lft.to/lastmile_qr_scan"}, "lat": 38.92987883333333, "is_disabled": 0, "lon": -77.03474333333334}, {"fusion_lat": 0.0, "type": "electric_scooter", "name": "0370a6b021703fa6dd2cf811774e363e", "fusion_lon": 0.0, "bike_id": "0370a6b021703fa6dd2cf811774e363e", "is_reserved": 0, "rental_uris": {"android": "https://dc.lft.to/lastmile_qr_scan", "ios": "https://dc.lft.to/lastmile_qr_scan"}, "lat": 38.918019666666666, "is_disabled": 0, "lon": -77.02496283333333}, {"fusion_lat": 0.0, "type": "electric_scooter", "name": "e7e9b5570dcfe7384dbbe44b50bd7b7b", "fusion_lon": 0.0, "bike_id": "e7e9b5570dcfe7384dbbe44b50bd7b7b", "is_reserved": 0, "rental_uris": {"android": "https://dc.lft.to/lastmile_qr_scan", "ios": "https://dc.lft.to/lastmile_qr_scan"}, "lat": 38.8871775, "is_disabled": 0, "lon": -77.02176}, {"fusion_lat": 0.0, "type": "electric_bike", "name": "d9c4db166db277bd337c58248aaebec1", "fusion_lon": 0.0, "bike_id": "d9c4db166db277bd337c58248aaebec1", "is_reserved": 0, "rental_uris": {"android": "https://dc.lft.to/lastmile_qr_scan", "ios": "https://dc.lft.to/lastmile_qr_scan"}, "lat": 38.898204666666665, "is_disabled": 0, "lon": -77.00594983333333}, {"fusion_lat": 0.0, "type": "electric_scooter", "name": "3e742f74808f98bb8a7afe042e7d2232", "fusion_lon": 0.0, "bike_id": "3e742f74808f98bb8a7afe042e7d2232", "is_reserved": 0, "rental_uris": {"android": "https://dc.lft.to/lastmile_qr_scan", "ios": "https://dc.lft.to/lastmile_qr_scan"}, "lat": 38.908384166666664, "is_disabled": 0, "lon": -77.04165016666667}, {"fusion_lat": 0.0, "type": "electric_scooter", "name": "1edc3239d600898ae0c91aac3c8a8f1a", "fusion_lon": 0.0, "bike_id": "1edc3239d600898ae0c91aac3c8a8f1a", "is_reserved": 0, "rental_uris": {"android": "https://dc.lft.to/lastmile_qr_scan", "ios": "https://dc.lft.to/lastmile_qr_scan"}, "lat": 38.952287166666665, "is_disabled": 0, "lon": -77.01428133333333}, {"fusion_lat": 0.0, "type": "electric_scooter", "name": "f6f0d169f0308c072a5a95da0fe51178", "fusion_lon": 0.0, "bike_id": "f6f0d169f0308c072a5a95da0fe51178", "is_reserved": 0, "rental_uris": {"android": "https://dc.lft.to/lastmile_qr_scan", "ios": "https://dc.lft.to/lastmile_qr_scan"}, "lat": 38.93024716666667, "is_disabled": 0, "lon": -77.012984}, {"fusion_lat": 0.0, "type": "electric_scooter", "name": "97e68cd5549e31b83c2a4cce0dc0b39f", "fusion_lon": 0.0, "bike_id": "97e68cd5549e31b83c2a4cce0dc0b39f", "is_reserved": 0, "rental_uris": {"android": "https://dc.lft.to/lastmile_qr_scan", "ios": "https://dc.lft.to/lastmile_qr_scan"}, "lat": 38.88714216666666, "is_disabled": 0, "lon": -77.02196616666667}, {"fusion_lat": 0.0, "type": "electric_scooter", "name": "42bd6ae1238fb696857f4349111fc928", "fusion_lon": 0.0, "bike_id": "42bd6ae1238fb696857f4349111fc928", "is_reserved": 0, "rental_uris": {"android": "https://dc.lft.to/lastmile_qr_scan", "ios": "https://dc.lft.to/lastmile_qr_scan"}, "lat": 38.9281305, "is_disabled": 0, "lon": -77.05521733333333}, {"fusion_lat": 0.0, "type": "electric_scooter", "name": "24883bebdc87af24aa2d1ac488b88d8c", "fusion_lon": 0.0, "bike_id": "24883bebdc87af24aa2d1ac488b88d8c", "is_reserved": 0, "rental_uris": {"android": "https://dc.lft.to/lastmile_qr_scan", "ios": "https://dc.lft.to/lastmile_qr_scan"}, "lat": 38.88297466666667, "is_disabled": 0, "lon": -77.01680316666666}, {"fusion_lat": 0.0, "type": "electric_scooter", "name": "3f2fffb8a79ea9724c19fb301b4d2150", "fusion_lon": 0.0, "bike_id": "3f2fffb8a79ea9724c19fb301b4d2150", "is_reserved": 0, "rental_uris": {"android": "https://dc.lft.to/lastmile_qr_scan", "ios": "https://dc.lft.to/lastmile_qr_scan"}, "lat": 38.9216765, "is_disabled": 0, "lon": -77.04232316666666}, {"fusion_lat": 0.0, "type": "electric_scooter", "name": "d743c074c878f05ffd2467ac262699cc", "fusion_lon": 0.0, "bike_id": "d743c074c878f05ffd2467ac262699cc", "is_reserved": 0, "rental_uris": {"android": "https://dc.lft.to/lastmile_qr_scan", "ios": "https://dc.lft.to/lastmile_qr_scan"}, "lat": 38.9283265, "is_disabled": 0, "lon": -77.01403133333334}, {"fusion_lat": 0.0, "type": "electric_scooter", "name": "fd806f13411e37cbe18c7dd899fd7219", "fusion_lon": 0.0, "bike_id": "fd806f13411e37cbe18c7dd899fd7219", "is_reserved": 0, "rental_uris": {"android": "https://dc.lft.to/lastmile_qr_scan", "ios": "https://dc.lft.to/lastmile_qr_scan"}, "lat": 38.900158166666664, "is_disabled": 0, "lon": -77.03365316666667}, {"fusion_lat": 0.0, "type": "electric_scooter", "name": "cc1b1c9b40482bf4e02f34d8e02c40f8", "fusion_lon": 0.0, "bike_id": "cc1b1c9b40482bf4e02f34d8e02c40f8", "is_reserved": 0, "rental_uris": {"android": "https://dc.lft.to/lastmile_qr_scan", "ios": "https://dc.lft.to/lastmile_qr_scan"}, "lat": 38.900768666666664, "is_disabled": 0, "lon": -77.012877}, {"fusion_lat": 0.0, "type": "electric_scooter", "name": "a6f4f22bcd60498b1af1ee28ae4788af", "fusion_lon": 0.0, "bike_id": "a6f4f22bcd60498b1af1ee28ae4788af", "is_reserved": 0, "rental_uris": {"android": "https://dc.lft.to/lastmile_qr_scan", "ios": "https://dc.lft.to/lastmile_qr_scan"}, "lat": 38.9107635, "is_disabled": 0, "lon": -77.06548833333333}, {"fusion_lat": 0.0, "type": "electric_scooter", "name": "e07b327a69b255730da24102402c8f78", "fusion_lon": 0.0, "bike_id": "e07b327a69b255730da24102402c8f78", "is_reserved": 0, "rental_uris": {"android": "https://dc.lft.to/lastmile_qr_scan", "ios": "https://dc.lft.to/lastmile_qr_scan"}, "lat": 38.866981333333335, "is_disabled": 0, "lon": -76.98596266666667}, {"fusion_lat": 0.0, "type": "electric_scooter", "name": "c096796b2edb16fa0b7fe8fa8a4f2eff", "fusion_lon": 0.0, "bike_id": "c096796b2edb16fa0b7fe8fa8a4f2eff", "is_reserved": 0, "rental_uris": {"android": "https://dc.lft.to/lastmile_qr_scan", "ios": "https://dc.lft.to/lastmile_qr_scan"}, "lat": 38.905013833333335, "is_disabled": 0, "lon": -77.0348655}, {"fusion_lat": 0.0, "type": "electric_scooter", "name": "a788564c1c629868b7aa67700ad11b03", "fusion_lon": 0.0, "bike_id": "a788564c1c629868b7aa67700ad11b03", "is_reserved": 0, "rental_uris": {"android": "https://dc.lft.to/lastmile_qr_scan", "ios": "https://dc.lft.to/lastmile_qr_scan"}, "lat": 38.8954335, "is_disabled": 0, "lon": -77.0326485}, {"fusion_lat": 0.0, "type": "electric_scooter", "name": "3d0f70711430616fd67d7d979bc5da74", "fusion_lon": 0.0, "bike_id": "3d0f70711430616fd67d7d979bc5da74", "is_reserved": 0, "rental_uris": {"android": "https://dc.lft.to/lastmile_qr_scan", "ios": "https://dc.lft.to/lastmile_qr_scan"}, "lat": 38.8873315, "is_disabled": 0, "lon": -77.0283405}, {"fusion_lat": 0.0, "type": "electric_scooter", "name": "7b57cadc233f73ee5515baa02c2e0d00", "fusion_lon": 0.0, "bike_id": "7b57cadc233f73ee5515baa02c2e0d00", "is_reserved": 0, "rental_uris": {"android": "https://dc.lft.to/lastmile_qr_scan", "ios": "https://dc.lft.to/lastmile_qr_scan"}, "lat": 38.881772833333336, "is_disabled": 0, "lon": -77.03578033333334}, {"fusion_lat": 0.0, "type": "electric_scooter", "name": "820aaa1c3dbbaca481e5798792e46388", "fusion_lon": 0.0, "bike_id": "820aaa1c3dbbaca481e5798792e46388", "is_reserved": 0, "rental_uris": {"android": "https://dc.lft.to/lastmile_qr_scan", "ios": "https://dc.lft.to/lastmile_qr_scan"}, "lat": 38.93868366666667, "is_disabled": 0, "lon": -77.060509}, {"fusion_lat": 0.0, "type": "electric_scooter", "name": "bf7b4147e96507e004233f453aac4c92", "fusion_lon": 0.0, "bike_id": "bf7b4147e96507e004233f453aac4c92", "is_reserved": 0, "rental_uris": {"android": "https://dc.lft.to/lastmile_qr_scan", "ios": "https://dc.lft.to/lastmile_qr_scan"}, "lat": 38.87656533333333, "is_disabled": 0, "lon": -77.00877183333333}, {"fusion_lat": 0.0, "type": "electric_bike", "name": "7197a406f55487de44347f0f1ffcb84f", "fusion_lon": 0.0, "bike_id": "7197a406f55487de44347f0f1ffcb84f", "is_reserved": 0, "rental_uris": {"android": "https://dc.lft.to/lastmile_qr_scan", "ios": "https://dc.lft.to/lastmile_qr_scan"}, "lat": 38.80754683333333, "is_disabled": 0, "lon": -77.09456016666667}, {"fusion_lat": 0.0, "type": "electric_scooter", "name": "5ad930223ec686959fb846730d7d2061", "fusion_lon": 0.0, "bike_id": "5ad930223ec686959fb846730d7d2061", "is_reserved": 0, "rental_uris": {"android": "https://dc.lft.to/lastmile_qr_scan", "ios": "https://dc.lft.to/lastmile_qr_scan"}, "lat": 38.905297166666664, "is_disabled": 0, "lon": -77.04998266666666}, {"fusion_lat": 0.0, "type": "electric_scooter", "name": "40d32c881b1f7b49e4d8628550a5dd30", "fusion_lon": 0.0, "bike_id": "40d32c881b1f7b49e4d8628550a5dd30", "is_reserved": 0, "rental_uris": {"android": "https://dc.lft.to/lastmile_qr_scan", "ios": "https://dc.lft.to/lastmile_qr_scan"}, "lat": 38.911448166666666, "is_disabled": 0, "lon": -77.004636}, {"fusion_lat": 0.0, "type": "electric_bike", "name": "b3bf779c19a49fce171967fa3a29e8f4", "fusion_lon": 0.0, "bike_id": "b3bf779c19a49fce171967fa3a29e8f4", "is_reserved": 0, "rental_uris": {"android": "https://dc.lft.to/lastmile_qr_scan", "ios": "https://dc.lft.to/lastmile_qr_scan"}, "lat": 38.85324883333333, "is_disabled": 0, "lon": -76.98019566666666}, {"fusion_lat": 0.0, "type": "electric_scooter", "name": "af8fd592ca3a97369ad99a5b50c473cc", "fusion_lon": 0.0, "bike_id": "af8fd592ca3a97369ad99a5b50c473cc", "is_reserved": 0, "rental_uris": {"android": "https://dc.lft.to/lastmile_qr_scan", "ios": "https://dc.lft.to/lastmile_qr_scan"}, "lat": 38.8861725, "is_disabled": 0, "lon": -76.955781}, {"fusion_lat": 0.0, "type": "electric_bike", "name": "ad3bf038a714ff535160c8db8afc36c2", "fusion_lon": 0.0, "bike_id": "ad3bf038a714ff535160c8db8afc36c2", "is_reserved": 0, "rental_uris": {"android": "https://dc.lft.to/lastmile_qr_scan", "ios": "https://dc.lft.to/lastmile_qr_scan"}, "lat": 38.85275266666667, "is_disabled": 0, "lon": -76.9958325}, {"fusion_lat": 0.0, "type": "electric_scooter", "name": "c4bfefea2b534870432b32ccda46951d", "fusion_lon": 0.0, "bike_id": "c4bfefea2b534870432b32ccda46951d", "is_reserved": 0, "rental_uris": {"android": "https://dc.lft.to/lastmile_qr_scan", "ios": "https://dc.lft.to/lastmile_qr_scan"}, "lat": 38.9274595, "is_disabled": 0, "lon": -77.03634816666667}, {"fusion_lat": 0.0, "type": "electric_scooter", "name": "2db49fa0857e16d81d6706cfdc145c4e", "fusion_lon": 0.0, "bike_id": "2db49fa0857e16d81d6706cfdc145c4e", "is_reserved": 0, "rental_uris": {"android": "https://dc.lft.to/lastmile_qr_scan", "ios": "https://dc.lft.to/lastmile_qr_scan"}, "lat": 38.9507135, "is_disabled": 0, "lon": -76.99564033333333}, {"fusion_lat": 0.0, "type": "electric_scooter", "name": "2156474e655b9d8098ce274dc28a2967", "fusion_lon": 0.0, "bike_id": "2156474e655b9d8098ce274dc28a2967", "is_reserved": 0, "rental_uris": {"android": "https://dc.lft.to/lastmile_qr_scan", "ios": "https://dc.lft.to/lastmile_qr_scan"}, "lat": 38.90832433333333, "is_disabled": 0, "lon": -77.07439116666667}, {"fusion_lat": 0.0, "type": "electric_bike", "name": "1bcefc185cc8e6414eb8a0541449205f", "fusion_lon": 0.0, "bike_id": "1bcefc185cc8e6414eb8a0541449205f", "is_reserved": 0, "rental_uris": {"android": "https://dc.lft.to/lastmile_qr_scan", "ios": "https://dc.lft.to/lastmile_qr_scan"}, "lat": 38.9724735, "is_disabled": 0, "lon": -76.99275983333334}, {"fusion_lat": 0.0, "type": "electric_scooter", "name": "e219f3d527afe967a46aa375429b2372", "fusion_lon": 0.0, "bike_id": "e219f3d527afe967a46aa375429b2372", "is_reserved": 0, "rental_uris": {"android": "https://dc.lft.to/lastmile_qr_scan", "ios": "https://dc.lft.to/lastmile_qr_scan"}, "lat": 38.90741116666667, "is_disabled": 0, "lon": -77.045256}, {"fusion_lat": 0.0, "type": "electric_scooter", "name": "50ad19acf05c375ff431f82ca72dd3f8", "fusion_lon": 0.0, "bike_id": "50ad19acf05c375ff431f82ca72dd3f8", "is_reserved": 0, "rental_uris": {"android": "https://dc.lft.to/lastmile_qr_scan", "ios": "https://dc.lft.to/lastmile_qr_scan"}, "lat": 38.89356633333333, "is_disabled": 0, "lon": -77.00339083333333}, {"fusion_lat": 0.0, "type": "electric_scooter", "name": "ee305895953f0706abeabd47b864f53c", "fusion_lon": 0.0, "bike_id": "ee305895953f0706abeabd47b864f53c", "is_reserved": 0, "rental_uris": {"android": "https://dc.lft.to/lastmile_qr_scan", "ios": "https://dc.lft.to/lastmile_qr_scan"}, "lat": 38.896074666666664, "is_disabled": 0, "lon": -77.045998}, {"fusion_lat": 0.0, "type": "electric_scooter", "name": "a0316cfe2767327b01bbc8bb897695e1", "fusion_lon": 0.0, "bike_id": "a0316cfe2767327b01bbc8bb897695e1", "is_reserved": 0, "rental_uris": {"android": "https://dc.lft.to/lastmile_qr_scan", "ios": "https://dc.lft.to/lastmile_qr_scan"}, "lat": 38.881186166666666, "is_disabled": 0, "lon": -77.01669283333334}, {"fusion_lat": 0.0, "type": "electric_scooter", "name": "df716be31f84ba85e00f10293a801f91", "fusion_lon": 0.0, "bike_id": "df716be31f84ba85e00f10293a801f91", "is_reserved": 0, "rental_uris": {"android": "https://dc.lft.to/lastmile_qr_scan", "ios": "https://dc.lft.to/lastmile_qr_scan"}, "lat": 38.91916366666667, "is_disabled": 0, "lon": -77.04798466666666}, {"fusion_lat": 0.0, "type": "electric_scooter", "name": "64283e2e318f4bfd803726a9d8818929", "fusion_lon": 0.0, "bike_id": "64283e2e318f4bfd803726a9d8818929", "is_reserved": 0, "rental_uris": {"android": "https://dc.lft.to/lastmile_qr_scan", "ios": "https://dc.lft.to/lastmile_qr_scan"}, "lat": 38.8954625, "is_disabled": 0, "lon": -77.05661616666667}, {"fusion_lat": 0.0, "type": "electric_scooter", "name": "38f2114652275089fdc3bd02e496639e", "fusion_lon": 0.0, "bike_id": "38f2114652275089fdc3bd02e496639e", "is_reserved": 0, "rental_uris": {"android": "https://dc.lft.to/lastmile_qr_scan", "ios": "https://dc.lft.to/lastmile_qr_scan"}, "lat": 38.90277283333333, "is_disabled": 0, "lon": -77.03441166666667}, {"fusion_lat": 0.0, "type": "electric_scooter", "name": "3e7f49924ab7b26636556a5166e6f6a2", "fusion_lon": 0.0, "bike_id": "3e7f49924ab7b26636556a5166e6f6a2", "is_reserved": 0, "rental_uris": {"android": "https://dc.lft.to/lastmile_qr_scan", "ios": "https://dc.lft.to/lastmile_qr_scan"}, "lat": 38.91508283333334, "is_disabled": 0, "lon": -77.04343766666666}, {"fusion_lat": 0.0, "type": "electric_scooter", "name": "67383a9470b232aaa6ba21172b91544f", "fusion_lon": 0.0, "bike_id": "67383a9470b232aaa6ba21172b91544f", "is_reserved": 0, "rental_uris": {"android": "https://dc.lft.to/lastmile_qr_scan", "ios": "https://dc.lft.to/lastmile_qr_scan"}, "lat": 38.896065, "is_disabled": 0, "lon": -77.04981833333333}, {"fusion_lat": 0.0, "type": "electric_bike", "name": "16eecaff9c02b4c901e334bb7c2b6c1f", "fusion_lon": 0.0, "bike_id": "16eecaff9c02b4c901e334bb7c2b6c1f", "is_reserved": 0, "rental_uris": {"android": "https://dc.lft.to/lastmile_qr_scan", "ios": "https://dc.lft.to/lastmile_qr_scan"}, "lat": 38.8237685, "is_disabled": 0, "lon": -77.00229533333334}, {"fusion_lat": 0.0, "type": "electric_scooter", "name": "ce16cf7395e7512f4ad5ffcb9449f711", "fusion_lon": 0.0, "bike_id": "ce16cf7395e7512f4ad5ffcb9449f711", "is_reserved": 0, "rental_uris": {"android": "https://dc.lft.to/lastmile_qr_scan", "ios": "https://dc.lft.to/lastmile_qr_scan"}, "lat": 38.919760333333336, "is_disabled": 0, "lon": -77.02194516666667}, {"fusion_lat": 0.0, "type": "electric_scooter", "name": "118302a3e3828b80bafaaa7a57686a47", "fusion_lon": 0.0, "bike_id": "118302a3e3828b80bafaaa7a57686a47", "is_reserved": 0, "rental_uris": {"android": "https://dc.lft.to/lastmile_qr_scan", "ios": "https://dc.lft.to/lastmile_qr_scan"}, "lat": 38.88727766666667, "is_disabled": 0, "lon": -77.02829716666666}, {"fusion_lat": 0.0, "type": "electric_scooter", "name": "dae34c55908cf730b74adbfe196a2907", "fusion_lon": 0.0, "bike_id": "dae34c55908cf730b74adbfe196a2907", "is_reserved": 0, "rental_uris": {"android": "https://dc.lft.to/lastmile_qr_scan", "ios": "https://dc.lft.to/lastmile_qr_scan"}, "lat": 38.905046666666664, "is_disabled": 0, "lon": -77.03016833333334}, {"fusion_lat": 0.0, "type": "electric_scooter", "name": "46cf4863cd0b185914f9280b8695ce93", "fusion_lon": 0.0, "bike_id": "46cf4863cd0b185914f9280b8695ce93", "is_reserved": 0, "rental_uris": {"android": "https://dc.lft.to/lastmile_qr_scan", "ios": "https://dc.lft.to/lastmile_qr_scan"}, "lat": 38.920603, "is_disabled": 0, "lon": -77.02510033333333}, {"fusion_lat": 0.0, "type": "electric_scooter", "name": "3c727c81e7e610847ee33b487031e648", "fusion_lon": 0.0, "bike_id": "3c727c81e7e610847ee33b487031e648", "is_reserved": 0, "rental_uris": {"android": "https://dc.lft.to/lastmile_qr_scan", "ios": "https://dc.lft.to/lastmile_qr_scan"}, "lat": 38.873129166666665, "is_disabled": 0, "lon": -77.00602866666667}, {"fusion_lat": 0.0, "type": "electric_scooter", "name": "f2204bebbf34a9d19c52fab37a4d79e0", "fusion_lon": 0.0, "bike_id": "f2204bebbf34a9d19c52fab37a4d79e0", "is_reserved": 0, "rental_uris": {"android": "https://dc.lft.to/lastmile_qr_scan", "ios": "https://dc.lft.to/lastmile_qr_scan"}, "lat": 38.86263866666667, "is_disabled": 0, "lon": -76.99472}, {"fusion_lat": 0.0, "type": "electric_scooter", "name": "3ba267e4784ff2928e4f1e464dd8cfbc", "fusion_lon": 0.0, "bike_id": "3ba267e4784ff2928e4f1e464dd8cfbc", "is_reserved": 0, "rental_uris": {"android": "https://dc.lft.to/lastmile_qr_scan", "ios": "https://dc.lft.to/lastmile_qr_scan"}, "lat": 38.8881165, "is_disabled": 0, "lon": -76.93345666666667}, {"fusion_lat": 0.0, "type": "electric_scooter", "name": "c368490ccb0402b659d09df6eb3bc788", "fusion_lon": 0.0, "bike_id": "c368490ccb0402b659d09df6eb3bc788", "is_reserved": 0, "rental_uris": {"android": "https://dc.lft.to/lastmile_qr_scan", "ios": "https://dc.lft.to/lastmile_qr_scan"}, "lat": 38.89329383333333, "is_disabled": 0, "lon": -77.012061}, {"fusion_lat": 0.0, "type": "electric_scooter", "name": "cf6ae04170eb13db99008f35c0ce0b74", "fusion_lon": 0.0, "bike_id": "cf6ae04170eb13db99008f35c0ce0b74", "is_reserved": 0, "rental_uris": {"android": "https://dc.lft.to/lastmile_qr_scan", "ios": "https://dc.lft.to/lastmile_qr_scan"}, "lat": 38.892309833333336, "is_disabled": 0, "lon": -77.031952}, {"fusion_lat": 0.0, "type": "electric_scooter", "name": "34a4412bdb3e3845d8b041e6f77ac285", "fusion_lon": 0.0, "bike_id": "34a4412bdb3e3845d8b041e6f77ac285", "is_reserved": 0, "rental_uris": {"android": "https://dc.lft.to/lastmile_qr_scan", "ios": "https://dc.lft.to/lastmile_qr_scan"}, "lat": 38.90251933333333, "is_disabled": 0, "lon": -77.02817566666667}, {"fusion_lat": 0.0, "type": "electric_scooter", "name": "b8dc80b50d41c7f156b20ce08b321411", "fusion_lon": 0.0, "bike_id": "b8dc80b50d41c7f156b20ce08b321411", "is_reserved": 0, "rental_uris": {"android": "https://dc.lft.to/lastmile_qr_scan", "ios": "https://dc.lft.to/lastmile_qr_scan"}, "lat": 38.92101266666667, "is_disabled": 0, "lon": -77.00439216666666}, {"fusion_lat": 0.0, "type": "electric_scooter", "name": "314b2e989ac4955d711f213b965bbd98", "fusion_lon": 0.0, "bike_id": "314b2e989ac4955d711f213b965bbd98", "is_reserved": 0, "rental_uris": {"android": "https://dc.lft.to/lastmile_qr_scan", "ios": "https://dc.lft.to/lastmile_qr_scan"}, "lat": 38.90280033333333, "is_disabled": 0, "lon": -77.03442383333334}, {"fusion_lat": 0.0, "type": "electric_scooter", "name": "6a553f179bc39a3940b99c5c1c3edf4c", "fusion_lon": 0.0, "bike_id": "6a553f179bc39a3940b99c5c1c3edf4c", "is_reserved": 0, "rental_uris": {"android": "https://dc.lft.to/lastmile_qr_scan", "ios": "https://dc.lft.to/lastmile_qr_scan"}, "lat": 38.902028333333334, "is_disabled": 0, "lon": -77.04818783333333}, {"fusion_lat": 0.0, "type": "electric_scooter", "name": "7fa440a85f45167c5c388c553fc0ff06", "fusion_lon": 0.0, "bike_id": "7fa440a85f45167c5c388c553fc0ff06", "is_reserved": 0, "rental_uris": {"android": "https://dc.lft.to/lastmile_qr_scan", "ios": "https://dc.lft.to/lastmile_qr_scan"}, "lat": 38.9336175, "is_disabled": 0, "lon": -77.05746083333334}, {"fusion_lat": 0.0, "type": "electric_scooter", "name": "c2fc043f88a39c6f3f13002ce103b021", "fusion_lon": 0.0, "bike_id": "c2fc043f88a39c6f3f13002ce103b021", "is_reserved": 0, "rental_uris": {"android": "https://dc.lft.to/lastmile_qr_scan", "ios": "https://dc.lft.to/lastmile_qr_scan"}, "lat": 38.9018705, "is_disabled": 0, "lon": -77.0214445}, {"fusion_lat": 0.0, "type": "electric_scooter", "name": "38fca6bb9e7101274683a06deba92910", "fusion_lon": 0.0, "bike_id": "38fca6bb9e7101274683a06deba92910", "is_reserved": 0, "rental_uris": {"android": "https://dc.lft.to/lastmile_qr_scan", "ios": "https://dc.lft.to/lastmile_qr_scan"}, "lat": 38.876819166666664, "is_disabled": 0, "lon": -77.0042645}, {"fusion_lat": 0.0, "type": "electric_scooter", "name": "58a1921790e704f32f74ca3746d784c6", "fusion_lon": 0.0, "bike_id": "58a1921790e704f32f74ca3746d784c6", "is_reserved": 0, "rental_uris": {"android": "https://dc.lft.to/lastmile_qr_scan", "ios": "https://dc.lft.to/lastmile_qr_scan"}, "lat": 38.8996155, "is_disabled": 0, "lon": -77.0458095}, {"fusion_lat": 0.0, "type": "electric_scooter", "name": "ba491bbd2c6f2b2a8de938199fc1f6b3", "fusion_lon": 0.0, "bike_id": "ba491bbd2c6f2b2a8de938199fc1f6b3", "is_reserved": 0, "rental_uris": {"android": "https://dc.lft.to/lastmile_qr_scan", "ios": "https://dc.lft.to/lastmile_qr_scan"}, "lat": 38.885645, "is_disabled": 0, "lon": -76.99798583333333}, {"fusion_lat": 0.0, "type": "electric_scooter", "name": "ed456f4095e773a5ff72b1d7ac837097", "fusion_lon": 0.0, "bike_id": "ed456f4095e773a5ff72b1d7ac837097", "is_reserved": 0, "rental_uris": {"android": "https://dc.lft.to/lastmile_qr_scan", "ios": "https://dc.lft.to/lastmile_qr_scan"}, "lat": 38.912893, "is_disabled": 0, "lon": -77.045406}, {"fusion_lat": 0.0, "type": "electric_scooter", "name": "01f278a7a6c5c32ca70514fdb06101b3", "fusion_lon": 0.0, "bike_id": "01f278a7a6c5c32ca70514fdb06101b3", "is_reserved": 0, "rental_uris": {"android": "https://dc.lft.to/lastmile_qr_scan", "ios": "https://dc.lft.to/lastmile_qr_scan"}, "lat": 38.95334966666667, "is_disabled": 0, "lon": -76.99975783333333}, {"fusion_lat": 0.0, "type": "electric_scooter", "name": "97412cea6eaf80bd0159f85521834a93", "fusion_lon": 0.0, "bike_id": "97412cea6eaf80bd0159f85521834a93", "is_reserved": 0, "rental_uris": {"android": "https://dc.lft.to/lastmile_qr_scan", "ios": "https://dc.lft.to/lastmile_qr_scan"}, "lat": 38.92768816666667, "is_disabled": 0, "lon": -77.02788216666667}, {"fusion_lat": 0.0, "type": "electric_scooter", "name": "6fce4100aedca3a992270ac4c3894ee1", "fusion_lon": 0.0, "bike_id": "6fce4100aedca3a992270ac4c3894ee1", "is_reserved": 0, "rental_uris": {"android": "https://dc.lft.to/lastmile_qr_scan", "ios": "https://dc.lft.to/lastmile_qr_scan"}, "lat": 38.90344116666667, "is_disabled": 0, "lon": -77.02552983333334}, {"fusion_lat": 0.0, "type": "electric_scooter", "name": "4b1fbeff0170369cbe2a96a04cf1ba59", "fusion_lon": 0.0, "bike_id": "4b1fbeff0170369cbe2a96a04cf1ba59", "is_reserved": 0, "rental_uris": {"android": "https://dc.lft.to/lastmile_qr_scan", "ios": "https://dc.lft.to/lastmile_qr_scan"}, "lat": 38.89221166666667, "is_disabled": 0, "lon": -77.0450395}, {"fusion_lat": 0.0, "type": "electric_scooter", "name": "31eece87dbc733d32b2606b1744b47bf", "fusion_lon": 0.0, "bike_id": "31eece87dbc733d32b2606b1744b47bf", "is_reserved": 0, "rental_uris": {"android": "https://dc.lft.to/lastmile_qr_scan", "ios": "https://dc.lft.to/lastmile_qr_scan"}, "lat": 38.91791, "is_disabled": 0, "lon": -77.023172}, {"fusion_lat": 0.0, "type": "electric_scooter", "name": "b2495d38efb6d69c06476e972b40efaa", "fusion_lon": 0.0, "bike_id": "b2495d38efb6d69c06476e972b40efaa", "is_reserved": 0, "rental_uris": {"android": "https://dc.lft.to/lastmile_qr_scan", "ios": "https://dc.lft.to/lastmile_qr_scan"}, "lat": 38.906780833333336, "is_disabled": 0, "lon": -77.04157116666667}, {"fusion_lat": 0.0, "type": "electric_scooter", "name": "18978c99c19000cff6335718957e66ad", "fusion_lon": 0.0, "bike_id": "18978c99c19000cff6335718957e66ad", "is_reserved": 0, "rental_uris": {"android": "https://dc.lft.to/lastmile_qr_scan", "ios": "https://dc.lft.to/lastmile_qr_scan"}, "lat": 38.872833166666666, "is_disabled": 0, "lon": -76.977368}, {"fusion_lat": 0.0, "type": "electric_scooter", "name": "43d3586c76b176af8a057cfcabfdda85", "fusion_lon": 0.0, "bike_id": "43d3586c76b176af8a057cfcabfdda85", "is_reserved": 0, "rental_uris": {"android": "https://dc.lft.to/lastmile_qr_scan", "ios": "https://dc.lft.to/lastmile_qr_scan"}, "lat": 38.887670666666665, "is_disabled": 0, "lon": -77.01773866666667}, {"fusion_lat": 0.0, "type": "electric_scooter", "name": "84439955cbc42355298f0dd0a0e47e62", "fusion_lon": 0.0, "bike_id": "84439955cbc42355298f0dd0a0e47e62", "is_reserved": 0, "rental_uris": {"android": "https://dc.lft.to/lastmile_qr_scan", "ios": "https://dc.lft.to/lastmile_qr_scan"}, "lat": 38.90860633333333, "is_disabled": 0, "lon": -77.04864283333333}, {"fusion_lat": 0.0, "type": "electric_scooter", "name": "0516d3c521088177251e77935c5cbaa4", "fusion_lon": 0.0, "bike_id": "0516d3c521088177251e77935c5cbaa4", "is_reserved": 0, "rental_uris": {"android": "https://dc.lft.to/lastmile_qr_scan", "ios": "https://dc.lft.to/lastmile_qr_scan"}, "lat": 38.89220683333333, "is_disabled": 0, "lon": -77.03336566666667}, {"fusion_lat": 0.0, "type": "electric_scooter", "name": "1e93ffdc5781bfa501604797ffaba452", "fusion_lon": 0.0, "bike_id": "1e93ffdc5781bfa501604797ffaba452", "is_reserved": 0, "rental_uris": {"android": "https://dc.lft.to/lastmile_qr_scan", "ios": "https://dc.lft.to/lastmile_qr_scan"}, "lat": 38.9225515, "is_disabled": 0, "lon": -77.07034833333333}, {"fusion_lat": 0.0, "type": "electric_scooter", "name": "9ea00f771ee1baa0eb62146fe1cc52ae", "fusion_lon": 0.0, "bike_id": "9ea00f771ee1baa0eb62146fe1cc52ae", "is_reserved": 0, "rental_uris": {"android": "https://dc.lft.to/lastmile_qr_scan", "ios": "https://dc.lft.to/lastmile_qr_scan"}, "lat": 38.866986, "is_disabled": 0, "lon": -76.9859645}, {"fusion_lat": 0.0, "type": "electric_scooter", "name": "75125fd7c163ecd57b96a609cb1766e4", "fusion_lon": 0.0, "bike_id": "75125fd7c163ecd57b96a609cb1766e4", "is_reserved": 0, "rental_uris": {"android": "https://dc.lft.to/lastmile_qr_scan", "ios": "https://dc.lft.to/lastmile_qr_scan"}, "lat": 38.88997533333333, "is_disabled": 0, "lon": -77.04904233333333}, {"fusion_lat": 0.0, "type": "electric_scooter", "name": "9c72c9669a0a6872682d68ae7a2cc3a0", "fusion_lon": 0.0, "bike_id": "9c72c9669a0a6872682d68ae7a2cc3a0", "is_reserved": 0, "rental_uris": {"android": "https://dc.lft.to/lastmile_qr_scan", "ios": "https://dc.lft.to/lastmile_qr_scan"}, "lat": 38.904217, "is_disabled": 0, "lon": -77.05318566666666}, {"fusion_lat": 0.0, "type": "electric_scooter", "name": "a6fa3fa927c913cae2056a1aa052f389", "fusion_lon": 0.0, "bike_id": "a6fa3fa927c913cae2056a1aa052f389", "is_reserved": 0, "rental_uris": {"android": "https://dc.lft.to/lastmile_qr_scan", "ios": "https://dc.lft.to/lastmile_qr_scan"}, "lat": 38.942010833333335, "is_disabled": 0, "lon": -77.02506083333333}, {"fusion_lat": 0.0, "type": "electric_bike", "name": "51c4284a8cb8547ca81c33cbe1bb1363", "fusion_lon": 0.0, "bike_id": "51c4284a8cb8547ca81c33cbe1bb1363", "is_reserved": 0, "rental_uris": {"android": "https://dc.lft.to/lastmile_qr_scan", "ios": "https://dc.lft.to/lastmile_qr_scan"}, "lat": 38.96133866666667, "is_disabled": 0, "lon": -77.0229155}, {"fusion_lat": 0.0, "type": "electric_scooter", "name": "b7a8d6afd4c56fd092922e278c93c908", "fusion_lon": 0.0, "bike_id": "b7a8d6afd4c56fd092922e278c93c908", "is_reserved": 0, "rental_uris": {"android": "https://dc.lft.to/lastmile_qr_scan", "ios": "https://dc.lft.to/lastmile_qr_scan"}, "lat": 38.887282, "is_disabled": 0, "lon": -77.02827516666666}, {"fusion_lat": 0.0, "type": "electric_scooter", "name": "2b5db6fb9ef7244acfe7920481334eb1", "fusion_lon": 0.0, "bike_id": "2b5db6fb9ef7244acfe7920481334eb1", "is_reserved": 0, "rental_uris": {"android": "https://dc.lft.to/lastmile_qr_scan", "ios": "https://dc.lft.to/lastmile_qr_scan"}, "lat": 38.894159, "is_disabled": 0, "lon": -77.02400616666667}, {"fusion_lat": 0.0, "type": "electric_scooter", "name": "409bef8dd74561716512912743477faf", "fusion_lon": 0.0, "bike_id": "409bef8dd74561716512912743477faf", "is_reserved": 0, "rental_uris": {"android": "https://dc.lft.to/lastmile_qr_scan", "ios": "https://dc.lft.to/lastmile_qr_scan"}, "lat": 38.899927166666664, "is_disabled": 0, "lon": -77.0009755}, {"fusion_lat": 0.0, "type": "electric_bike", "name": "57054c88eccc2df8fb39070d9efe04b3", "fusion_lon": 0.0, "bike_id": "57054c88eccc2df8fb39070d9efe04b3", "is_reserved": 0, "rental_uris": {"android": "https://dc.lft.to/lastmile_qr_scan", "ios": "https://dc.lft.to/lastmile_qr_scan"}, "lat": 38.872756833333334, "is_disabled": 0, "lon": -77.233181}, {"fusion_lat": 0.0, "type": "electric_scooter", "name": "60ba1b4d808d9ab62f2cecd940e7e847", "fusion_lon": 0.0, "bike_id": "60ba1b4d808d9ab62f2cecd940e7e847", "is_reserved": 0, "rental_uris": {"android": "https://dc.lft.to/lastmile_qr_scan", "ios": "https://dc.lft.to/lastmile_qr_scan"}, "lat": 38.8960345, "is_disabled": 0, "lon": -77.0218095}, {"fusion_lat": 0.0, "type": "electric_scooter", "name": "29707ad279257546d320ca0e6aaa6061", "fusion_lon": 0.0, "bike_id": "29707ad279257546d320ca0e6aaa6061", "is_reserved": 0, "rental_uris": {"android": "https://dc.lft.to/lastmile_qr_scan", "ios": "https://dc.lft.to/lastmile_qr_scan"}, "lat": 38.92356866666667, "is_disabled": 0, "lon": -77.04019216666667}, {"fusion_lat": 0.0, "type": "electric_scooter", "name": "146ef7a3c1da89e87f487ad8630cdf04", "fusion_lon": 0.0, "bike_id": "146ef7a3c1da89e87f487ad8630cdf04", "is_reserved": 0, "rental_uris": {"android": "https://dc.lft.to/lastmile_qr_scan", "ios": "https://dc.lft.to/lastmile_qr_scan"}, "lat": 38.906944833333334, "is_disabled": 0, "lon": -77.00148416666667}, {"fusion_lat": 0.0, "type": "electric_bike", "name": "439b3f4c6c8e08406fcb84f7825a138c", "fusion_lon": 0.0, "bike_id": "439b3f4c6c8e08406fcb84f7825a138c", "is_reserved": 0, "rental_uris": {"android": "https://dc.lft.to/lastmile_qr_scan", "ios": "https://dc.lft.to/lastmile_qr_scan"}, "lat": 38.9101705, "is_disabled": 0, "lon": -77.227987}, {"fusion_lat": 0.0, "type": "electric_scooter", "name": "19dd771c29c10ca529cb36b1ea0ce881", "fusion_lon": 0.0, "bike_id": "19dd771c29c10ca529cb36b1ea0ce881", "is_reserved": 0, "rental_uris": {"android": "https://dc.lft.to/lastmile_qr_scan", "ios": "https://dc.lft.to/lastmile_qr_scan"}, "lat": 38.90369183333333, "is_disabled": 0, "lon": -77.04495883333334}, {"fusion_lat": 0.0, "type": "electric_scooter", "name": "ec21aa3c685f880a5fe63c020b4a76d8", "fusion_lon": 0.0, "bike_id": "ec21aa3c685f880a5fe63c020b4a76d8", "is_reserved": 0, "rental_uris": {"android": "https://dc.lft.to/lastmile_qr_scan", "ios": "https://dc.lft.to/lastmile_qr_scan"}, "lat": 38.920389, "is_disabled": 0, "lon": -77.02434816666667}, {"fusion_lat": 0.0, "type": "electric_bike", "name": "6b53216c185ea08a09df866e3a9b35a9", "fusion_lon": 0.0, "bike_id": "6b53216c185ea08a09df866e3a9b35a9", "is_reserved": 0, "rental_uris": {"android": "https://dc.lft.to/lastmile_qr_scan", "ios": "https://dc.lft.to/lastmile_qr_scan"}, "lat": 38.94226183333333, "is_disabled": 0, "lon": -76.96617866666666}, {"fusion_lat": 0.0, "type": "electric_scooter", "name": "7d39cf133db31d5c821059be4ad59b1d", "fusion_lon": 0.0, "bike_id": "7d39cf133db31d5c821059be4ad59b1d", "is_reserved": 0, "rental_uris": {"android": "https://dc.lft.to/lastmile_qr_scan", "ios": "https://dc.lft.to/lastmile_qr_scan"}, "lat": 38.8994395, "is_disabled": 0, "lon": -77.01450916666667}, {"fusion_lat": 0.0, "type": "electric_scooter", "name": "6f4f7beb60702e78a6d2a974c7798444", "fusion_lon": 0.0, "bike_id": "6f4f7beb60702e78a6d2a974c7798444", "is_reserved": 0, "rental_uris": {"android": "https://dc.lft.to/lastmile_qr_scan", "ios": "https://dc.lft.to/lastmile_qr_scan"}, "lat": 38.9044245, "is_disabled": 0, "lon": -77.04344033333334}, {"fusion_lat": 0.0, "type": "electric_scooter", "name": "9a89f5013f77505a62bd924503c33afe", "fusion_lon": 0.0, "bike_id": "9a89f5013f77505a62bd924503c33afe", "is_reserved": 0, "rental_uris": {"android": "https://dc.lft.to/lastmile_qr_scan", "ios": "https://dc.lft.to/lastmile_qr_scan"}, "lat": 38.906391, "is_disabled": 0, "lon": -77.06905083333334}, {"fusion_lat": 0.0, "type": "electric_scooter", "name": "3e5d4d58382251a6f806ce7f07d172c8", "fusion_lon": 0.0, "bike_id": "3e5d4d58382251a6f806ce7f07d172c8", "is_reserved": 0, "rental_uris": {"android": "https://dc.lft.to/lastmile_qr_scan", "ios": "https://dc.lft.to/lastmile_qr_scan"}, "lat": 38.934195833333334, "is_disabled": 0, "lon": -77.0440255}, {"fusion_lat": 0.0, "type": "electric_scooter", "name": "4990ac5a13c7c18526a41257fcbc4150", "fusion_lon": 0.0, "bike_id": "4990ac5a13c7c18526a41257fcbc4150", "is_reserved": 0, "rental_uris": {"android": "https://dc.lft.to/lastmile_qr_scan", "ios": "https://dc.lft.to/lastmile_qr_scan"}, "lat": 38.9005985, "is_disabled": 0, "lon": -77.045362}, {"fusion_lat": 0.0, "type": "electric_scooter", "name": "a99890b798524981a2fc377dcc47eb19", "fusion_lon": 0.0, "bike_id": "a99890b798524981a2fc377dcc47eb19", "is_reserved": 0, "rental_uris": {"android": "https://dc.lft.to/lastmile_qr_scan", "ios": "https://dc.lft.to/lastmile_qr_scan"}, "lat": 38.90145366666667, "is_disabled": 0, "lon": -77.04359533333333}, {"fusion_lat": 0.0, "type": "electric_scooter", "name": "239e290dc5d5c1f3d5dbed126d73efed", "fusion_lon": 0.0, "bike_id": "239e290dc5d5c1f3d5dbed126d73efed", "is_reserved": 0, "rental_uris": {"android": "https://dc.lft.to/lastmile_qr_scan", "ios": "https://dc.lft.to/lastmile_qr_scan"}, "lat": 38.94313233333333, "is_disabled": 0, "lon": -77.01729383333333}, {"fusion_lat": 0.0, "type": "electric_scooter", "name": "cb9021a650b07c6815d555d83093f1fb", "fusion_lon": 0.0, "bike_id": "cb9021a650b07c6815d555d83093f1fb", "is_reserved": 0, "rental_uris": {"android": "https://dc.lft.to/lastmile_qr_scan", "ios": "https://dc.lft.to/lastmile_qr_scan"}, "lat": 38.922353333333334, "is_disabled": 0, "lon": -77.036576}, {"fusion_lat": 0.0, "type": "electric_scooter", "name": "b1e9d882bcafc4ee7057d56470dcd2d0", "fusion_lon": 0.0, "bike_id": "b1e9d882bcafc4ee7057d56470dcd2d0", "is_reserved": 0, "rental_uris": {"android": "https://dc.lft.to/lastmile_qr_scan", "ios": "https://dc.lft.to/lastmile_qr_scan"}, "lat": 38.91710066666667, "is_disabled": 0, "lon": -77.03321683333333}, {"fusion_lat": 0.0, "type": "electric_scooter", "name": "9feffa67970bbeab1efdafc94f3394b7", "fusion_lon": 0.0, "bike_id": "9feffa67970bbeab1efdafc94f3394b7", "is_reserved": 0, "rental_uris": {"android": "https://dc.lft.to/lastmile_qr_scan", "ios": "https://dc.lft.to/lastmile_qr_scan"}, "lat": 38.9207335, "is_disabled": 0, "lon": -77.0239755}, {"fusion_lat": 0.0, "type": "electric_scooter", "name": "354658fd2f1685721ba2b6d8050f07e9", "fusion_lon": 0.0, "bike_id": "354658fd2f1685721ba2b6d8050f07e9", "is_reserved": 0, "rental_uris": {"android": "https://dc.lft.to/lastmile_qr_scan", "ios": "https://dc.lft.to/lastmile_qr_scan"}, "lat": 38.88503166666667, "is_disabled": 0, "lon": -76.99752566666666}, {"fusion_lat": 0.0, "type": "electric_scooter", "name": "bd61773b7b614f2a2eff8407fe360bdd", "fusion_lon": 0.0, "bike_id": "bd61773b7b614f2a2eff8407fe360bdd", "is_reserved": 0, "rental_uris": {"android": "https://dc.lft.to/lastmile_qr_scan", "ios": "https://dc.lft.to/lastmile_qr_scan"}, "lat": 38.892470833333334, "is_disabled": 0, "lon": -77.01722716666667}, {"fusion_lat": 0.0, "type": "electric_scooter", "name": "d4c2b329af2732dc837cdb7b54840484", "fusion_lon": 0.0, "bike_id": "d4c2b329af2732dc837cdb7b54840484", "is_reserved": 0, "rental_uris": {"android": "https://dc.lft.to/lastmile_qr_scan", "ios": "https://dc.lft.to/lastmile_qr_scan"}, "lat": 38.940909, "is_disabled": 0, "lon": -77.027213}, {"fusion_lat": 0.0, "type": "electric_scooter", "name": "33d53ce1f2bbbe6c06ccc9926d5bb9a7", "fusion_lon": 0.0, "bike_id": "33d53ce1f2bbbe6c06ccc9926d5bb9a7", "is_reserved": 0, "rental_uris": {"android": "https://dc.lft.to/lastmile_qr_scan", "ios": "https://dc.lft.to/lastmile_qr_scan"}, "lat": 38.90020066666666, "is_disabled": 0, "lon": -76.99944916666666}, {"fusion_lat": 0.0, "type": "electric_scooter", "name": "e731e7bc2f8490c622203e0d53ce75a1", "fusion_lon": 0.0, "bike_id": "e731e7bc2f8490c622203e0d53ce75a1", "is_reserved": 0, "rental_uris": {"android": "https://dc.lft.to/lastmile_qr_scan", "ios": "https://dc.lft.to/lastmile_qr_scan"}, "lat": 38.91773666666667, "is_disabled": 0, "lon": -77.02312616666667}, {"fusion_lat": 0.0, "type": "electric_scooter", "name": "c197815257c70e002cfaea5fd5636e2f", "fusion_lon": 0.0, "bike_id": "c197815257c70e002cfaea5fd5636e2f", "is_reserved": 0, "rental_uris": {"android": "https://dc.lft.to/lastmile_qr_scan", "ios": "https://dc.lft.to/lastmile_qr_scan"}, "lat": 38.89349716666667, "is_disabled": 0, "lon": -77.0033855}, {"fusion_lat": 0.0, "type": "electric_scooter", "name": "873fcd8374e59da78ba3c93f913e15e6", "fusion_lon": 0.0, "bike_id": "873fcd8374e59da78ba3c93f913e15e6", "is_reserved": 0, "rental_uris": {"android": "https://dc.lft.to/lastmile_qr_scan", "ios": "https://dc.lft.to/lastmile_qr_scan"}, "lat": 38.937378333333335, "is_disabled": 0, "lon": -77.03617183333333}, {"fusion_lat": 0.0, "type": "electric_scooter", "name": "a19cc162915b98a81ce0b11c04deea90", "fusion_lon": 0.0, "bike_id": "a19cc162915b98a81ce0b11c04deea90", "is_reserved": 0, "rental_uris": {"android": "https://dc.lft.to/lastmile_qr_scan", "ios": "https://dc.lft.to/lastmile_qr_scan"}, "lat": 38.9672345, "is_disabled": 0, "lon": -77.01859916666666}, {"fusion_lat": 0.0, "type": "electric_scooter", "name": "18cabf1efb8317b7583840698c82729f", "fusion_lon": 0.0, "bike_id": "18cabf1efb8317b7583840698c82729f", "is_reserved": 0, "rental_uris": {"android": "https://dc.lft.to/lastmile_qr_scan", "ios": "https://dc.lft.to/lastmile_qr_scan"}, "lat": 38.90633733333333, "is_disabled": 0, "lon": -77.048096}, {"fusion_lat": 0.0, "type": "electric_scooter", "name": "16c5f092c0b686a7e4b75691a25f3e36", "fusion_lon": 0.0, "bike_id": "16c5f092c0b686a7e4b75691a25f3e36", "is_reserved": 0, "rental_uris": {"android": "https://dc.lft.to/lastmile_qr_scan", "ios": "https://dc.lft.to/lastmile_qr_scan"}, "lat": 38.90356116666667, "is_disabled": 0, "lon": -77.032905}, {"fusion_lat": 0.0, "type": "electric_scooter", "name": "2793facdd09243c565c9590f19b77e82", "fusion_lon": 0.0, "bike_id": "2793facdd09243c565c9590f19b77e82", "is_reserved": 0, "rental_uris": {"android": "https://dc.lft.to/lastmile_qr_scan", "ios": "https://dc.lft.to/lastmile_qr_scan"}, "lat": 38.8946985, "is_disabled": 0, "lon": -77.00986483333334}, {"fusion_lat": 0.0, "type": "electric_scooter", "name": "40398bca7d1855e81498792edf59e82e", "fusion_lon": 0.0, "bike_id": "40398bca7d1855e81498792edf59e82e", "is_reserved": 0, "rental_uris": {"android": "https://dc.lft.to/lastmile_qr_scan", "ios": "https://dc.lft.to/lastmile_qr_scan"}, "lat": 38.915645833333336, "is_disabled": 0, "lon": -77.038409}, {"fusion_lat": 0.0, "type": "electric_scooter", "name": "d6776c2c3904c36647c1a0093e37e968", "fusion_lon": 0.0, "bike_id": "d6776c2c3904c36647c1a0093e37e968", "is_reserved": 0, "rental_uris": {"android": "https://dc.lft.to/lastmile_qr_scan", "ios": "https://dc.lft.to/lastmile_qr_scan"}, "lat": 38.910996, "is_disabled": 0, "lon": -77.0448815}, {"fusion_lat": 0.0, "type": "electric_scooter", "name": "6773fba9c16ffc1762860d1370305eda", "fusion_lon": 0.0, "bike_id": "6773fba9c16ffc1762860d1370305eda", "is_reserved": 0, "rental_uris": {"android": "https://dc.lft.to/lastmile_qr_scan", "ios": "https://dc.lft.to/lastmile_qr_scan"}, "lat": 38.9036365, "is_disabled": 0, "lon": -77.03182416666667}, {"fusion_lat": 0.0, "type": "electric_scooter", "name": "c737be377de6f290843240f1782c8912", "fusion_lon": 0.0, "bike_id": "c737be377de6f290843240f1782c8912", "is_reserved": 0, "rental_uris": {"android": "https://dc.lft.to/lastmile_qr_scan", "ios": "https://dc.lft.to/lastmile_qr_scan"}, "lat": 38.939515, "is_disabled": 0, "lon": -77.02502833333334}, {"fusion_lat": 0.0, "type": "electric_scooter", "name": "c429e434ee883982488217f1e640b39f", "fusion_lon": 0.0, "bike_id": "c429e434ee883982488217f1e640b39f", "is_reserved": 0, "rental_uris": {"android": "https://dc.lft.to/lastmile_qr_scan", "ios": "https://dc.lft.to/lastmile_qr_scan"}, "lat": 38.88082133333333, "is_disabled": 0, "lon": -77.02581183333334}, {"fusion_lat": 0.0, "type": "electric_scooter", "name": "9a5ff2bdef00f2f92b75af9074e763b4", "fusion_lon": 0.0, "bike_id": "9a5ff2bdef00f2f92b75af9074e763b4", "is_reserved": 0, "rental_uris": {"android": "https://dc.lft.to/lastmile_qr_scan", "ios": "https://dc.lft.to/lastmile_qr_scan"}, "lat": 38.900001833333334, "is_disabled": 0, "lon": -77.00132833333333}, {"fusion_lat": 0.0, "type": "electric_scooter", "name": "719fbb0e070064975ed93a321de7bc76", "fusion_lon": 0.0, "bike_id": "719fbb0e070064975ed93a321de7bc76", "is_reserved": 0, "rental_uris": {"android": "https://dc.lft.to/lastmile_qr_scan", "ios": "https://dc.lft.to/lastmile_qr_scan"}, "lat": 38.911949666666665, "is_disabled": 0, "lon": -77.0346345}, {"fusion_lat": 0.0, "type": "electric_scooter", "name": "c787b8c8f2cce81642144dd0e94317d1", "fusion_lon": 0.0, "bike_id": "c787b8c8f2cce81642144dd0e94317d1", "is_reserved": 0, "rental_uris": {"android": "https://dc.lft.to/lastmile_qr_scan", "ios": "https://dc.lft.to/lastmile_qr_scan"}, "lat": 38.883189333333334, "is_disabled": 0, "lon": -77.01757933333333}, {"fusion_lat": 0.0, "type": "electric_scooter", "name": "4955a6762a3c663ab1e5512c41c86b53", "fusion_lon": 0.0, "bike_id": "4955a6762a3c663ab1e5512c41c86b53", "is_reserved": 0, "rental_uris": {"android": "https://dc.lft.to/lastmile_qr_scan", "ios": "https://dc.lft.to/lastmile_qr_scan"}, "lat": 38.9960755, "is_disabled": 0, "lon": -77.03221716666667}, {"fusion_lat": 0.0, "type": "electric_scooter", "name": "59213949d380889624d70fd88bb7dc87", "fusion_lon": 0.0, "bike_id": "59213949d380889624d70fd88bb7dc87", "is_reserved": 0, "rental_uris": {"android": "https://dc.lft.to/lastmile_qr_scan", "ios": "https://dc.lft.to/lastmile_qr_scan"}, "lat": 38.86234433333333, "is_disabled": 0, "lon": -76.9948515}, {"fusion_lat": 0.0, "type": "electric_scooter", "name": "9cafe5960055b80d260e2973b996853f", "fusion_lon": 0.0, "bike_id": "9cafe5960055b80d260e2973b996853f", "is_reserved": 0, "rental_uris": {"android": "https://dc.lft.to/lastmile_qr_scan", "ios": "https://dc.lft.to/lastmile_qr_scan"}, "lat": 38.89326716666667, "is_disabled": 0, "lon": -77.04675433333334}, {"fusion_lat": 0.0, "type": "electric_scooter", "name": "c7c2649a058ef0f441d0636150cba112", "fusion_lon": 0.0, "bike_id": "c7c2649a058ef0f441d0636150cba112", "is_reserved": 0, "rental_uris": {"android": "https://dc.lft.to/lastmile_qr_scan", "ios": "https://dc.lft.to/lastmile_qr_scan"}, "lat": 38.904725666666664, "is_disabled": 0, "lon": -76.98058883333333}, {"fusion_lat": 0.0, "type": "electric_scooter", "name": "e633b01eef4d69997028abdde5424fba", "fusion_lon": 0.0, "bike_id": "e633b01eef4d69997028abdde5424fba", "is_reserved": 0, "rental_uris": {"android": "https://dc.lft.to/lastmile_qr_scan", "ios": "https://dc.lft.to/lastmile_qr_scan"}, "lat": 38.92820566666666, "is_disabled": 0, "lon": -77.02154233333333}, {"fusion_lat": 0.0, "type": "electric_scooter", "name": "aed4f755a2a1294021f6f263dc3e8ac8", "fusion_lon": 0.0, "bike_id": "aed4f755a2a1294021f6f263dc3e8ac8", "is_reserved": 0, "rental_uris": {"android": "https://dc.lft.to/lastmile_qr_scan", "ios": "https://dc.lft.to/lastmile_qr_scan"}, "lat": 38.89908716666667, "is_disabled": 0, "lon": -76.93351016666666}, {"fusion_lat": 0.0, "type": "electric_scooter", "name": "981c9e0ef0f8c3014cea68613ad89988", "fusion_lon": 0.0, "bike_id": "981c9e0ef0f8c3014cea68613ad89988", "is_reserved": 0, "rental_uris": {"android": "https://dc.lft.to/lastmile_qr_scan", "ios": "https://dc.lft.to/lastmile_qr_scan"}, "lat": 38.91771166666667, "is_disabled": 0, "lon": -77.04281566666667}, {"fusion_lat": 0.0, "type": "electric_scooter", "name": "f8b27ae51a06727384a4199b6d11d3fe", "fusion_lon": 0.0, "bike_id": "f8b27ae51a06727384a4199b6d11d3fe", "is_reserved": 0, "rental_uris": {"android": "https://dc.lft.to/lastmile_qr_scan", "ios": "https://dc.lft.to/lastmile_qr_scan"}, "lat": 38.95628716666667, "is_disabled": 0, "lon": -77.02466383333334}, {"fusion_lat": 0.0, "type": "electric_scooter", "name": "a6bb3b2919355a45c905fade052d5740", "fusion_lon": 0.0, "bike_id": "a6bb3b2919355a45c905fade052d5740", "is_reserved": 0, "rental_uris": {"android": "https://dc.lft.to/lastmile_qr_scan", "ios": "https://dc.lft.to/lastmile_qr_scan"}, "lat": 38.897923166666665, "is_disabled": 0, "lon": -77.04497933333333}, {"fusion_lat": 0.0, "type": "electric_scooter", "name": "7ce65ee9a90fefcbd2e88b585e35148b", "fusion_lon": 0.0, "bike_id": "7ce65ee9a90fefcbd2e88b585e35148b", "is_reserved": 0, "rental_uris": {"android": "https://dc.lft.to/lastmile_qr_scan", "ios": "https://dc.lft.to/lastmile_qr_scan"}, "lat": 38.9357055, "is_disabled": 0, "lon": -77.02118833333333}, {"fusion_lat": 0.0, "type": "electric_scooter", "name": "bae09c4177685092f059c31dd2244da0", "fusion_lon": 0.0, "bike_id": "bae09c4177685092f059c31dd2244da0", "is_reserved": 0, "rental_uris": {"android": "https://dc.lft.to/lastmile_qr_scan", "ios": "https://dc.lft.to/lastmile_qr_scan"}, "lat": 38.88710533333333, "is_disabled": 0, "lon": -77.02197483333333}, {"fusion_lat": 0.0, "type": "electric_scooter", "name": "901f3697185a55e3d9fb73278d5a1934", "fusion_lon": 0.0, "bike_id": "901f3697185a55e3d9fb73278d5a1934", "is_reserved": 0, "rental_uris": {"android": "https://dc.lft.to/lastmile_qr_scan", "ios": "https://dc.lft.to/lastmile_qr_scan"}, "lat": 38.8991315, "is_disabled": 0, "lon": -76.93373483333333}, {"fusion_lat": 0.0, "type": "electric_bike", "name": "7bc1888a6b1a020ab7d78a09f3242697", "fusion_lon": 0.0, "bike_id": "7bc1888a6b1a020ab7d78a09f3242697", "is_reserved": 0, "rental_uris": {"android": "https://dc.lft.to/lastmile_qr_scan", "ios": "https://dc.lft.to/lastmile_qr_scan"}, "lat": 38.94665166666667, "is_disabled": 0, "lon": -76.98307333333334}, {"fusion_lat": 0.0, "type": "electric_scooter", "name": "70c00699c64fa0e0e3c1df9b7e7d0523", "fusion_lon": 0.0, "bike_id": "70c00699c64fa0e0e3c1df9b7e7d0523", "is_reserved": 0, "rental_uris": {"android": "https://dc.lft.to/lastmile_qr_scan", "ios": "https://dc.lft.to/lastmile_qr_scan"}, "lat": 38.90229933333333, "is_disabled": 0, "lon": -77.04336866666667}, {"fusion_lat": 0.0, "type": "electric_scooter", "name": "641e3694768cae3c9d280c754ab107c2", "fusion_lon": 0.0, "bike_id": "641e3694768cae3c9d280c754ab107c2", "is_reserved": 0, "rental_uris": {"android": "https://dc.lft.to/lastmile_qr_scan", "ios": "https://dc.lft.to/lastmile_qr_scan"}, "lat": 38.893606166666665, "is_disabled": 0, "lon": -76.9498975}, {"fusion_lat": 0.0, "type": "electric_bike", "name": "4108db5dd1a2b4c627a57d7ddae73dc8", "fusion_lon": 0.0, "bike_id": "4108db5dd1a2b4c627a57d7ddae73dc8", "is_reserved": 0, "rental_uris": {"android": "https://dc.lft.to/lastmile_qr_scan", "ios": "https://dc.lft.to/lastmile_qr_scan"}, "lat": 38.852070499999996, "is_disabled": 0, "lon": -77.10133066666667}, {"fusion_lat": 0.0, "type": "electric_scooter", "name": "f316280aeded44ffa2f6d1709798d163", "fusion_lon": 0.0, "bike_id": "f316280aeded44ffa2f6d1709798d163", "is_reserved": 0, "rental_uris": {"android": "https://dc.lft.to/lastmile_qr_scan", "ios": "https://dc.lft.to/lastmile_qr_scan"}, "lat": 38.921448833333336, "is_disabled": 0, "lon": -77.03505533333333}, {"fusion_lat": 0.0, "type": "electric_scooter", "name": "36dc9c49b49acf5fced882d39015c5e5", "fusion_lon": 0.0, "bike_id": "36dc9c49b49acf5fced882d39015c5e5", "is_reserved": 0, "rental_uris": {"android": "https://dc.lft.to/lastmile_qr_scan", "ios": "https://dc.lft.to/lastmile_qr_scan"}, "lat": 38.8875465, "is_disabled": 0, "lon": -76.98688966666667}, {"fusion_lat": 0.0, "type": "electric_scooter", "name": "1fa74fad77e628d93bc19882853c62ac", "fusion_lon": 0.0, "bike_id": "1fa74fad77e628d93bc19882853c62ac", "is_reserved": 0, "rental_uris": {"android": "https://dc.lft.to/lastmile_qr_scan", "ios": "https://dc.lft.to/lastmile_qr_scan"}, "lat": 38.918857833333334, "is_disabled": 0, "lon": -77.02970216666667}, {"fusion_lat": 0.0, "type": "electric_scooter", "name": "255bafc6a21bdf5189e4fab00d02ad99", "fusion_lon": 0.0, "bike_id": "255bafc6a21bdf5189e4fab00d02ad99", "is_reserved": 0, "rental_uris": {"android": "https://dc.lft.to/lastmile_qr_scan", "ios": "https://dc.lft.to/lastmile_qr_scan"}, "lat": 38.94507633333333, "is_disabled": 0, "lon": -77.07457266666667}, {"fusion_lat": 0.0, "type": "electric_scooter", "name": "c42b4cfcc969327d04e6fbde199f7ae0", "fusion_lon": 0.0, "bike_id": "c42b4cfcc969327d04e6fbde199f7ae0", "is_reserved": 0, "rental_uris": {"android": "https://dc.lft.to/lastmile_qr_scan", "ios": "https://dc.lft.to/lastmile_qr_scan"}, "lat": 38.843123166666665, "is_disabled": 0, "lon": -76.999289}, {"fusion_lat": 0.0, "type": "electric_scooter", "name": "8363354f21e80260de87544381dbad3b", "fusion_lon": 0.0, "bike_id": "8363354f21e80260de87544381dbad3b", "is_reserved": 0, "rental_uris": {"android": "https://dc.lft.to/lastmile_qr_scan", "ios": "https://dc.lft.to/lastmile_qr_scan"}, "lat": 38.905915, "is_disabled": 0, "lon": -77.02197716666667}, {"fusion_lat": 0.0, "type": "electric_bike", "name": "634b23bf324ccc0b475759efc65144ea", "fusion_lon": 0.0, "bike_id": "634b23bf324ccc0b475759efc65144ea", "is_reserved": 0, "rental_uris": {"android": "https://dc.lft.to/lastmile_qr_scan", "ios": "https://dc.lft.to/lastmile_qr_scan"}, "lat": 39.056320166666666, "is_disabled": 0, "lon": -77.12528233333333}, {"fusion_lat": 0.0, "type": "electric_scooter", "name": "4eff7db28d541f0e4e82419627101424", "fusion_lon": 0.0, "bike_id": "4eff7db28d541f0e4e82419627101424", "is_reserved": 0, "rental_uris": {"android": "https://dc.lft.to/lastmile_qr_scan", "ios": "https://dc.lft.to/lastmile_qr_scan"}, "lat": 38.90508916666667, "is_disabled": 0, "lon": -77.03852316666666}, {"fusion_lat": 0.0, "type": "electric_scooter", "name": "15632e5d5c99d340f2bec5a24358165a", "fusion_lon": 0.0, "bike_id": "15632e5d5c99d340f2bec5a24358165a", "is_reserved": 0, "rental_uris": {"android": "https://dc.lft.to/lastmile_qr_scan", "ios": "https://dc.lft.to/lastmile_qr_scan"}, "lat": 38.92219383333333, "is_disabled": 0, "lon": -77.02219066666666}, {"fusion_lat": 0.0, "type": "electric_scooter", "name": "5db505e8af492b07f6fbd69f3beea3e3", "fusion_lon": 0.0, "bike_id": "5db505e8af492b07f6fbd69f3beea3e3", "is_reserved": 0, "rental_uris": {"android": "https://dc.lft.to/lastmile_qr_scan", "ios": "https://dc.lft.to/lastmile_qr_scan"}, "lat": 38.89499433333334, "is_disabled": 0, "lon": -76.93474316666666}, {"fusion_lat": 0.0, "type": "electric_scooter", "name": "22ec86b369b3a0efc510c721ab61f74a", "fusion_lon": 0.0, "bike_id": "22ec86b369b3a0efc510c721ab61f74a", "is_reserved": 0, "rental_uris": {"android": "https://dc.lft.to/lastmile_qr_scan", "ios": "https://dc.lft.to/lastmile_qr_scan"}, "lat": 38.892456833333334, "is_disabled": 0, "lon": -77.01730583333334}, {"fusion_lat": 0.0, "type": "electric_scooter", "name": "d2e0fa804512cea30a4e583578f741bc", "fusion_lon": 0.0, "bike_id": "d2e0fa804512cea30a4e583578f741bc", "is_reserved": 0, "rental_uris": {"android": "https://dc.lft.to/lastmile_qr_scan", "ios": "https://dc.lft.to/lastmile_qr_scan"}, "lat": 38.90122133333333, "is_disabled": 0, "lon": -77.04991483333333}, {"fusion_lat": 0.0, "type": "electric_scooter", "name": "c96940db0107b50fa776c5aa7a49d684", "fusion_lon": 0.0, "bike_id": "c96940db0107b50fa776c5aa7a49d684", "is_reserved": 0, "rental_uris": {"android": "https://dc.lft.to/lastmile_qr_scan", "ios": "https://dc.lft.to/lastmile_qr_scan"}, "lat": 38.957420166666665, "is_disabled": 0, "lon": -77.0207045}, {"fusion_lat": 0.0, "type": "electric_scooter", "name": "9d54bbf6fd445d6ffb6a7330c8545d87", "fusion_lon": 0.0, "bike_id": "9d54bbf6fd445d6ffb6a7330c8545d87", "is_reserved": 0, "rental_uris": {"android": "https://dc.lft.to/lastmile_qr_scan", "ios": "https://dc.lft.to/lastmile_qr_scan"}, "lat": 38.89723883333333, "is_disabled": 0, "lon": -77.01378866666667}, {"fusion_lat": 0.0, "type": "electric_scooter", "name": "64c4718c0a80bcd234f1c559471f5578", "fusion_lon": 0.0, "bike_id": "64c4718c0a80bcd234f1c559471f5578", "is_reserved": 0, "rental_uris": {"android": "https://dc.lft.to/lastmile_qr_scan", "ios": "https://dc.lft.to/lastmile_qr_scan"}, "lat": 38.87545, "is_disabled": 0, "lon": -77.00604283333334}, {"fusion_lat": 0.0, "type": "electric_scooter", "name": "37541660c51d5d7fa539d8a58e31a5ea", "fusion_lon": 0.0, "bike_id": "37541660c51d5d7fa539d8a58e31a5ea", "is_reserved": 0, "rental_uris": {"android": "https://dc.lft.to/lastmile_qr_scan", "ios": "https://dc.lft.to/lastmile_qr_scan"}, "lat": 38.91536633333333, "is_disabled": 0, "lon": -77.00346083333334}, {"fusion_lat": 0.0, "type": "electric_scooter", "name": "5c142d24270a658c033c8835be823bea", "fusion_lon": 0.0, "bike_id": "5c142d24270a658c033c8835be823bea", "is_reserved": 0, "rental_uris": {"android": "https://dc.lft.to/lastmile_qr_scan", "ios": "https://dc.lft.to/lastmile_qr_scan"}, "lat": 38.87434433333333, "is_disabled": 0, "lon": -77.00047183333334}, {"fusion_lat": 0.0, "type": "electric_scooter", "name": "1c895e0548e7e68ddf9ca46ac0d3ab3f", "fusion_lon": 0.0, "bike_id": "1c895e0548e7e68ddf9ca46ac0d3ab3f", "is_reserved": 0, "rental_uris": {"android": "https://dc.lft.to/lastmile_qr_scan", "ios": "https://dc.lft.to/lastmile_qr_scan"}, "lat": 38.89733066666667, "is_disabled": 0, "lon": -76.97349733333333}, {"fusion_lat": 0.0, "type": "electric_bike", "name": "95a8d4cf59ac00da55000c4fba678b36", "fusion_lon": 0.0, "bike_id": "95a8d4cf59ac00da55000c4fba678b36", "is_reserved": 0, "rental_uris": {"android": "https://dc.lft.to/lastmile_qr_scan", "ios": "https://dc.lft.to/lastmile_qr_scan"}, "lat": 38.98361716666667, "is_disabled": 0, "lon": -76.97224966666667}, {"fusion_lat": 0.0, "type": "electric_scooter", "name": "e63c224b8d46fe2382c82b161b035b74", "fusion_lon": 0.0, "bike_id": "e63c224b8d46fe2382c82b161b035b74", "is_reserved": 0, "rental_uris": {"android": "https://dc.lft.to/lastmile_qr_scan", "ios": "https://dc.lft.to/lastmile_qr_scan"}, "lat": 38.9164205, "is_disabled": 0, "lon": -77.03179966666667}, {"fusion_lat": 0.0, "type": "electric_scooter", "name": "31f72167e25dca592cda9b92649352e0", "fusion_lon": 0.0, "bike_id": "31f72167e25dca592cda9b92649352e0", "is_reserved": 0, "rental_uris": {"android": "https://dc.lft.to/lastmile_qr_scan", "ios": "https://dc.lft.to/lastmile_qr_scan"}, "lat": 38.925684833333335, "is_disabled": 0, "lon": -77.022685}, {"fusion_lat": 0.0, "type": "electric_scooter", "name": "d2991c02b373fa09b0a136b6dc5e11e8", "fusion_lon": 0.0, "bike_id": "d2991c02b373fa09b0a136b6dc5e11e8", "is_reserved": 0, "rental_uris": {"android": "https://dc.lft.to/lastmile_qr_scan", "ios": "https://dc.lft.to/lastmile_qr_scan"}, "lat": 38.86654033333333, "is_disabled": 0, "lon": -76.98886}, {"fusion_lat": 0.0, "type": "electric_scooter", "name": "fd0752b31cb0b6dacf97afd662d8acd7", "fusion_lon": 0.0, "bike_id": "fd0752b31cb0b6dacf97afd662d8acd7", "is_reserved": 0, "rental_uris": {"android": "https://dc.lft.to/lastmile_qr_scan", "ios": "https://dc.lft.to/lastmile_qr_scan"}, "lat": 38.89192166666667, "is_disabled": 0, "lon": -76.98859583333333}, {"fusion_lat": 0.0, "type": "electric_scooter", "name": "bc041ba71de32d83b59790f0301246e4", "fusion_lon": 0.0, "bike_id": "bc041ba71de32d83b59790f0301246e4", "is_reserved": 0, "rental_uris": {"android": "https://dc.lft.to/lastmile_qr_scan", "ios": "https://dc.lft.to/lastmile_qr_scan"}, "lat": 38.9247445, "is_disabled": 0, "lon": -77.022085}, {"fusion_lat": 0.0, "type": "electric_scooter", "name": "0a70f24845ba583e2fd3f5102edae888", "fusion_lon": 0.0, "bike_id": "0a70f24845ba583e2fd3f5102edae888", "is_reserved": 0, "rental_uris": {"android": "https://dc.lft.to/lastmile_qr_scan", "ios": "https://dc.lft.to/lastmile_qr_scan"}, "lat": 38.90361583333333, "is_disabled": 0, "lon": -77.04335566666667}, {"fusion_lat": 0.0, "type": "electric_scooter", "name": "a8308d051f4bda442717c766397b96a1", "fusion_lon": 0.0, "bike_id": "a8308d051f4bda442717c766397b96a1", "is_reserved": 0, "rental_uris": {"android": "https://dc.lft.to/lastmile_qr_scan", "ios": "https://dc.lft.to/lastmile_qr_scan"}, "lat": 38.91529283333333, "is_disabled": 0, "lon": -77.0461115}, {"fusion_lat": 0.0, "type": "electric_scooter", "name": "dcb90b25f7373e9b720f2aa4a1a7452d", "fusion_lon": 0.0, "bike_id": "dcb90b25f7373e9b720f2aa4a1a7452d", "is_reserved": 0, "rental_uris": {"android": "https://dc.lft.to/lastmile_qr_scan", "ios": "https://dc.lft.to/lastmile_qr_scan"}, "lat": 38.920346, "is_disabled": 0, "lon": -76.98489683333334}, {"fusion_lat": 0.0, "type": "electric_scooter", "name": "c3d140add01ce90fa97c4fa4ba522ed9", "fusion_lon": 0.0, "bike_id": "c3d140add01ce90fa97c4fa4ba522ed9", "is_reserved": 0, "rental_uris": {"android": "https://dc.lft.to/lastmile_qr_scan", "ios": "https://dc.lft.to/lastmile_qr_scan"}, "lat": 38.89842766666666, "is_disabled": 0, "lon": -77.0330725}, {"fusion_lat": 0.0, "type": "electric_scooter", "name": "d8cec87dd629517efd06dffa8deb206b", "fusion_lon": 0.0, "bike_id": "d8cec87dd629517efd06dffa8deb206b", "is_reserved": 0, "rental_uris": {"android": "https://dc.lft.to/lastmile_qr_scan", "ios": "https://dc.lft.to/lastmile_qr_scan"}, "lat": 38.892404, "is_disabled": 0, "lon": -77.01728366666667}, {"fusion_lat": 0.0, "type": "electric_scooter", "name": "224fbd5fd26237ae8205f1aa3563b6a0", "fusion_lon": 0.0, "bike_id": "224fbd5fd26237ae8205f1aa3563b6a0", "is_reserved": 0, "rental_uris": {"android": "https://dc.lft.to/lastmile_qr_scan", "ios": "https://dc.lft.to/lastmile_qr_scan"}, "lat": 38.9095155, "is_disabled": 0, "lon": -77.0448295}, {"fusion_lat": 0.0, "type": "electric_scooter", "name": "ad50cfc5b7c47fbb1b06fd2926208e8d", "fusion_lon": 0.0, "bike_id": "ad50cfc5b7c47fbb1b06fd2926208e8d", "is_reserved": 0, "rental_uris": {"android": "https://dc.lft.to/lastmile_qr_scan", "ios": "https://dc.lft.to/lastmile_qr_scan"}, "lat": 38.8722415, "is_disabled": 0, "lon": -77.01187266666666}, {"fusion_lat": 0.0, "type": "electric_scooter", "name": "52dc28793d6dbc399ef408803eb4031b", "fusion_lon": 0.0, "bike_id": "52dc28793d6dbc399ef408803eb4031b", "is_reserved": 0, "rental_uris": {"android": "https://dc.lft.to/lastmile_qr_scan", "ios": "https://dc.lft.to/lastmile_qr_scan"}, "lat": 38.8937325, "is_disabled": 0, "lon": -77.04787833333333}, {"fusion_lat": 0.0, "type": "electric_scooter", "name": "d1851337e8c7e8b55cb39eda2bd00d48", "fusion_lon": 0.0, "bike_id": "d1851337e8c7e8b55cb39eda2bd00d48", "is_reserved": 0, "rental_uris": {"android": "https://dc.lft.to/lastmile_qr_scan", "ios": "https://dc.lft.to/lastmile_qr_scan"}, "lat": 38.912530833333335, "is_disabled": 0, "lon": -77.01115183333333}, {"fusion_lat": 0.0, "type": "electric_scooter", "name": "e0f89bdef0aefb505b5fd817d356612f", "fusion_lon": 0.0, "bike_id": "e0f89bdef0aefb505b5fd817d356612f", "is_reserved": 0, "rental_uris": {"android": "https://dc.lft.to/lastmile_qr_scan", "ios": "https://dc.lft.to/lastmile_qr_scan"}, "lat": 38.92473716666667, "is_disabled": 0, "lon": -77.02272766666667}, {"fusion_lat": 0.0, "type": "electric_scooter", "name": "15853cafd873ee4d062a6905078a1cb1", "fusion_lon": 0.0, "bike_id": "15853cafd873ee4d062a6905078a1cb1", "is_reserved": 0, "rental_uris": {"android": "https://dc.lft.to/lastmile_qr_scan", "ios": "https://dc.lft.to/lastmile_qr_scan"}, "lat": 38.89221716666667, "is_disabled": 0, "lon": -77.023538}, {"fusion_lat": 0.0, "type": "electric_scooter", "name": "b9d10a18835474f71c304fac510e2b60", "fusion_lon": 0.0, "bike_id": "b9d10a18835474f71c304fac510e2b60", "is_reserved": 0, "rental_uris": {"android": "https://dc.lft.to/lastmile_qr_scan", "ios": "https://dc.lft.to/lastmile_qr_scan"}, "lat": 38.957115, "is_disabled": 0, "lon": -77.00278583333333}, {"fusion_lat": 0.0, "type": "electric_scooter", "name": "95dd6147e5619fe4f0a86058709afc34", "fusion_lon": 0.0, "bike_id": "95dd6147e5619fe4f0a86058709afc34", "is_reserved": 0, "rental_uris": {"android": "https://dc.lft.to/lastmile_qr_scan", "ios": "https://dc.lft.to/lastmile_qr_scan"}, "lat": 38.8973635, "is_disabled": 0, "lon": -77.00107266666667}, {"fusion_lat": 0.0, "type": "electric_scooter", "name": "8a0355b510d7078f980bb8bbb7817c55", "fusion_lon": 0.0, "bike_id": "8a0355b510d7078f980bb8bbb7817c55", "is_reserved": 0, "rental_uris": {"android": "https://dc.lft.to/lastmile_qr_scan", "ios": "https://dc.lft.to/lastmile_qr_scan"}, "lat": 38.87194816666667, "is_disabled": 0, "lon": -77.010808}, {"fusion_lat": 0.0, "type": "electric_scooter", "name": "065597bcd2b4b918027482e43befcbe9", "fusion_lon": 0.0, "bike_id": "065597bcd2b4b918027482e43befcbe9", "is_reserved": 0, "rental_uris": {"android": "https://dc.lft.to/lastmile_qr_scan", "ios": "https://dc.lft.to/lastmile_qr_scan"}, "lat": 38.902531333333336, "is_disabled": 0, "lon": -76.9955745}, {"fusion_lat": 0.0, "type": "electric_scooter", "name": "3b13b45137befd8c1fc7d17543b42fd3", "fusion_lon": 0.0, "bike_id": "3b13b45137befd8c1fc7d17543b42fd3", "is_reserved": 0, "rental_uris": {"android": "https://dc.lft.to/lastmile_qr_scan", "ios": "https://dc.lft.to/lastmile_qr_scan"}, "lat": 38.89734766666667, "is_disabled": 0, "lon": -77.04366166666667}, {"fusion_lat": 0.0, "type": "electric_scooter", "name": "7547d7b1dc399466d0845f5a5b7b4339", "fusion_lon": 0.0, "bike_id": "7547d7b1dc399466d0845f5a5b7b4339", "is_reserved": 0, "rental_uris": {"android": "https://dc.lft.to/lastmile_qr_scan", "ios": "https://dc.lft.to/lastmile_qr_scan"}, "lat": 38.92057966666667, "is_disabled": 0, "lon": -77.025081}, {"fusion_lat": 0.0, "type": "electric_scooter", "name": "c17c35cc0a8cbe62943a02004ea415a1", "fusion_lon": 0.0, "bike_id": "c17c35cc0a8cbe62943a02004ea415a1", "is_reserved": 0, "rental_uris": {"android": "https://dc.lft.to/lastmile_qr_scan", "ios": "https://dc.lft.to/lastmile_qr_scan"}, "lat": 38.876839, "is_disabled": 0, "lon": -77.0042575}, {"fusion_lat": 0.0, "type": "electric_scooter", "name": "284b8ee5f93b90f81891cf07b03ff841", "fusion_lon": 0.0, "bike_id": "284b8ee5f93b90f81891cf07b03ff841", "is_reserved": 0, "rental_uris": {"android": "https://dc.lft.to/lastmile_qr_scan", "ios": "https://dc.lft.to/lastmile_qr_scan"}, "lat": 38.878284666666666, "is_disabled": 0, "lon": -76.9631085}, {"fusion_lat": 0.0, "type": "electric_scooter", "name": "4762ed46147ce0518b615ffe399f78f5", "fusion_lon": 0.0, "bike_id": "4762ed46147ce0518b615ffe399f78f5", "is_reserved": 0, "rental_uris": {"android": "https://dc.lft.to/lastmile_qr_scan", "ios": "https://dc.lft.to/lastmile_qr_scan"}, "lat": 38.91109866666667, "is_disabled": 0, "lon": -77.04479733333334}, {"fusion_lat": 0.0, "type": "electric_scooter", "name": "c54ba8e10510c317ab93a27f93cb9df5", "fusion_lon": 0.0, "bike_id": "c54ba8e10510c317ab93a27f93cb9df5", "is_reserved": 0, "rental_uris": {"android": "https://dc.lft.to/lastmile_qr_scan", "ios": "https://dc.lft.to/lastmile_qr_scan"}, "lat": 38.984523833333334, "is_disabled": 0, "lon": -77.02652233333333}, {"fusion_lat": 0.0, "type": "electric_bike", "name": "dc276fa088ca002f33cd4623fd43cb6e", "fusion_lon": 0.0, "bike_id": "dc276fa088ca002f33cd4623fd43cb6e", "is_reserved": 0, "rental_uris": {"android": "https://dc.lft.to/lastmile_qr_scan", "ios": "https://dc.lft.to/lastmile_qr_scan"}, "lat": 39.052789833333335, "is_disabled": 0, "lon": -77.08066066666666}, {"fusion_lat": 0.0, "type": "electric_scooter", "name": "5f5544273418eb8bad048aa30d22c45d", "fusion_lon": 0.0, "bike_id": "5f5544273418eb8bad048aa30d22c45d", "is_reserved": 0, "rental_uris": {"android": "https://dc.lft.to/lastmile_qr_scan", "ios": "https://dc.lft.to/lastmile_qr_scan"}, "lat": 38.908571, "is_disabled": 0, "lon": -77.04573483333333}, {"fusion_lat": 0.0, "type": "electric_scooter", "name": "721ea2a626c71a87e391e97642337da4", "fusion_lon": 0.0, "bike_id": "721ea2a626c71a87e391e97642337da4", "is_reserved": 0, "rental_uris": {"android": "https://dc.lft.to/lastmile_qr_scan", "ios": "https://dc.lft.to/lastmile_qr_scan"}, "lat": 38.88725683333333, "is_disabled": 0, "lon": -77.02831216666667}, {"fusion_lat": 0.0, "type": "electric_bike", "name": "352d874e1632e4632f1e55215baef3a8", "fusion_lon": 0.0, "bike_id": "352d874e1632e4632f1e55215baef3a8", "is_reserved": 0, "rental_uris": {"android": "https://dc.lft.to/lastmile_qr_scan", "ios": "https://dc.lft.to/lastmile_qr_scan"}, "lat": 38.961049, "is_disabled": 0, "lon": -76.92814616666666}, {"fusion_lat": 0.0, "type": "electric_scooter", "name": "ff1e571311eb6d119cfa25c7db55428d", "fusion_lon": 0.0, "bike_id": "ff1e571311eb6d119cfa25c7db55428d", "is_reserved": 0, "rental_uris": {"android": "https://dc.lft.to/lastmile_qr_scan", "ios": "https://dc.lft.to/lastmile_qr_scan"}, "lat": 38.869940166666666, "is_disabled": 0, "lon": -76.97584033333334}, {"fusion_lat": 0.0, "type": "electric_scooter", "name": "f9267c1d444864c58be89ab099d5296e", "fusion_lon": 0.0, "bike_id": "f9267c1d444864c58be89ab099d5296e", "is_reserved": 0, "rental_uris": {"android": "https://dc.lft.to/lastmile_qr_scan", "ios": "https://dc.lft.to/lastmile_qr_scan"}, "lat": 38.930525333333335, "is_disabled": 0, "lon": -77.03245783333334}, {"fusion_lat": 0.0, "type": "electric_scooter", "name": "e45efb8ed6a2d42eca7238bfe0a4a50f", "fusion_lon": 0.0, "bike_id": "e45efb8ed6a2d42eca7238bfe0a4a50f", "is_reserved": 0, "rental_uris": {"android": "https://dc.lft.to/lastmile_qr_scan", "ios": "https://dc.lft.to/lastmile_qr_scan"}, "lat": 38.9232205, "is_disabled": 0, "lon": -77.02134566666666}, {"fusion_lat": 0.0, "type": "electric_scooter", "name": "674c8b08d0f4877cfae01fc6f281780c", "fusion_lon": 0.0, "bike_id": "674c8b08d0f4877cfae01fc6f281780c", "is_reserved": 0, "rental_uris": {"android": "https://dc.lft.to/lastmile_qr_scan", "ios": "https://dc.lft.to/lastmile_qr_scan"}, "lat": 38.90159416666667, "is_disabled": 0, "lon": -77.0317515}, {"fusion_lat": 0.0, "type": "electric_scooter", "name": "abf132486ced120ec1dc5ea4ae3ec80c", "fusion_lon": 0.0, "bike_id": "abf132486ced120ec1dc5ea4ae3ec80c", "is_reserved": 0, "rental_uris": {"android": "https://dc.lft.to/lastmile_qr_scan", "ios": "https://dc.lft.to/lastmile_qr_scan"}, "lat": 38.89228283333333, "is_disabled": 0, "lon": -77.05000783333334}, {"fusion_lat": 0.0, "type": "electric_scooter", "name": "c06e5fbb65a39e2ce914b944bfa58516", "fusion_lon": 0.0, "bike_id": "c06e5fbb65a39e2ce914b944bfa58516", "is_reserved": 0, "rental_uris": {"android": "https://dc.lft.to/lastmile_qr_scan", "ios": "https://dc.lft.to/lastmile_qr_scan"}, "lat": 38.921484166666666, "is_disabled": 0, "lon": -77.01802966666666}, {"fusion_lat": 0.0, "type": "electric_scooter", "name": "202abd35260bf062797f41e572b9f050", "fusion_lon": 0.0, "bike_id": "202abd35260bf062797f41e572b9f050", "is_reserved": 0, "rental_uris": {"android": "https://dc.lft.to/lastmile_qr_scan", "ios": "https://dc.lft.to/lastmile_qr_scan"}, "lat": 38.8923805, "is_disabled": 0, "lon": -77.041551}, {"fusion_lat": 0.0, "type": "electric_scooter", "name": "d4100073847c25869c6f086d6354d765", "fusion_lon": 0.0, "bike_id": "d4100073847c25869c6f086d6354d765", "is_reserved": 0, "rental_uris": {"android": "https://dc.lft.to/lastmile_qr_scan", "ios": "https://dc.lft.to/lastmile_qr_scan"}, "lat": 38.904797333333335, "is_disabled": 0, "lon": -77.03565583333334}, {"fusion_lat": 0.0, "type": "electric_scooter", "name": "37702f959b0ae4932b3c2d2638f45f22", "fusion_lon": 0.0, "bike_id": "37702f959b0ae4932b3c2d2638f45f22", "is_reserved": 0, "rental_uris": {"android": "https://dc.lft.to/lastmile_qr_scan", "ios": "https://dc.lft.to/lastmile_qr_scan"}, "lat": 38.950115833333335, "is_disabled": 0, "lon": -77.0668735}, {"fusion_lat": 0.0, "type": "electric_bike", "name": "61e366ef5a26d0fb06903d905ced86d1", "fusion_lon": 0.0, "bike_id": "61e366ef5a26d0fb06903d905ced86d1", "is_reserved": 0, "rental_uris": {"android": "https://dc.lft.to/lastmile_qr_scan", "ios": "https://dc.lft.to/lastmile_qr_scan"}, "lat": 38.872999666666665, "is_disabled": 0, "lon": -77.13937816666666}, {"fusion_lat": 0.0, "type": "electric_scooter", "name": "0f47790744805b3058cb0612eec2128e", "fusion_lon": 0.0, "bike_id": "0f47790744805b3058cb0612eec2128e", "is_reserved": 0, "rental_uris": {"android": "https://dc.lft.to/lastmile_qr_scan", "ios": "https://dc.lft.to/lastmile_qr_scan"}, "lat": 38.89724, "is_disabled": 0, "lon": -77.02721333333334}, {"fusion_lat": 0.0, "type": "electric_bike", "name": "633eca3040a24faee2c81288ad585d63", "fusion_lon": 0.0, "bike_id": "633eca3040a24faee2c81288ad585d63", "is_reserved": 0, "rental_uris": {"android": "https://dc.lft.to/lastmile_qr_scan", "ios": "https://dc.lft.to/lastmile_qr_scan"}, "lat": 38.853739166666664, "is_disabled": 0, "lon": -77.12471466666666}, {"fusion_lat": 0.0, "type": "electric_scooter", "name": "ceffaaee67dddd2f44eb86c022307d10", "fusion_lon": 0.0, "bike_id": "ceffaaee67dddd2f44eb86c022307d10", "is_reserved": 0, "rental_uris": {"android": "https://dc.lft.to/lastmile_qr_scan", "ios": "https://dc.lft.to/lastmile_qr_scan"}, "lat": 38.925794833333335, "is_disabled": 0, "lon": -77.0364775}, {"fusion_lat": 0.0, "type": "electric_scooter", "name": "071a30369871de7e084372c599810715", "fusion_lon": 0.0, "bike_id": "071a30369871de7e084372c599810715", "is_reserved": 0, "rental_uris": {"android": "https://dc.lft.to/lastmile_qr_scan", "ios": "https://dc.lft.to/lastmile_qr_scan"}, "lat": 38.906669, "is_disabled": 0, "lon": -77.03886}, {"fusion_lat": 0.0, "type": "electric_scooter", "name": "26aa54ccf57a1560731bfeb32d652ce1", "fusion_lon": 0.0, "bike_id": "26aa54ccf57a1560731bfeb32d652ce1", "is_reserved": 0, "rental_uris": {"android": "https://dc.lft.to/lastmile_qr_scan", "ios": "https://dc.lft.to/lastmile_qr_scan"}, "lat": 38.9195845, "is_disabled": 0, "lon": -77.03216233333333}, {"fusion_lat": 0.0, "type": "electric_bike", "name": "1c67a8d87e45d78f879fc899bd277eb7", "fusion_lon": 0.0, "bike_id": "1c67a8d87e45d78f879fc899bd277eb7", "is_reserved": 0, "rental_uris": {"android": "https://dc.lft.to/lastmile_qr_scan", "ios": "https://dc.lft.to/lastmile_qr_scan"}, "lat": 38.8450555, "is_disabled": 0, "lon": -76.9935835}, {"fusion_lat": 0.0, "type": "electric_scooter", "name": "67f9593ac961f5c941fc731adf70dbaf", "fusion_lon": 0.0, "bike_id": "67f9593ac961f5c941fc731adf70dbaf", "is_reserved": 0, "rental_uris": {"android": "https://dc.lft.to/lastmile_qr_scan", "ios": "https://dc.lft.to/lastmile_qr_scan"}, "lat": 38.93265983333333, "is_disabled": 0, "lon": -77.02850933333333}, {"fusion_lat": 0.0, "type": "electric_scooter", "name": "cf3a3a3512f1000ae069d2d2d980b2bb", "fusion_lon": 0.0, "bike_id": "cf3a3a3512f1000ae069d2d2d980b2bb", "is_reserved": 0, "rental_uris": {"android": "https://dc.lft.to/lastmile_qr_scan", "ios": "https://dc.lft.to/lastmile_qr_scan"}, "lat": 38.91066383333333, "is_disabled": 0, "lon": -77.04485033333333}, {"fusion_lat": 0.0, "type": "electric_scooter", "name": "65367b49013cf726284bd2b7ea188b7d", "fusion_lon": 0.0, "bike_id": "65367b49013cf726284bd2b7ea188b7d", "is_reserved": 0, "rental_uris": {"android": "https://dc.lft.to/lastmile_qr_scan", "ios": "https://dc.lft.to/lastmile_qr_scan"}, "lat": 38.924176333333335, "is_disabled": 0, "lon": -77.019678}, {"fusion_lat": 0.0, "type": "electric_bike", "name": "e14685db8fa7e1c6da18b8b6d3ae8f82", "fusion_lon": 0.0, "bike_id": "e14685db8fa7e1c6da18b8b6d3ae8f82", "is_reserved": 0, "rental_uris": {"android": "https://dc.lft.to/lastmile_qr_scan", "ios": "https://dc.lft.to/lastmile_qr_scan"}, "lat": 38.9253635, "is_disabled": 0, "lon": -77.0012055}, {"fusion_lat": 0.0, "type": "electric_scooter", "name": "dc6a66d6c8dea81e33ff9ebea6ef8370", "fusion_lon": 0.0, "bike_id": "dc6a66d6c8dea81e33ff9ebea6ef8370", "is_reserved": 0, "rental_uris": {"android": "https://dc.lft.to/lastmile_qr_scan", "ios": "https://dc.lft.to/lastmile_qr_scan"}, "lat": 38.866529666666665, "is_disabled": 0, "lon": -76.98885916666667}, {"fusion_lat": 0.0, "type": "electric_scooter", "name": "10595512a2a0ba9f01ff6a7f27d12a09", "fusion_lon": 0.0, "bike_id": "10595512a2a0ba9f01ff6a7f27d12a09", "is_reserved": 0, "rental_uris": {"android": "https://dc.lft.to/lastmile_qr_scan", "ios": "https://dc.lft.to/lastmile_qr_scan"}, "lat": 38.904669166666665, "is_disabled": 0, "lon": -77.0379415}, {"fusion_lat": 0.0, "type": "electric_scooter", "name": "5b732d9f33897f0df3d41cd2f34857ed", "fusion_lon": 0.0, "bike_id": "5b732d9f33897f0df3d41cd2f34857ed", "is_reserved": 0, "rental_uris": {"android": "https://dc.lft.to/lastmile_qr_scan", "ios": "https://dc.lft.to/lastmile_qr_scan"}, "lat": 38.9205005, "is_disabled": 0, "lon": -76.9636425}, {"fusion_lat": 0.0, "type": "electric_scooter", "name": "3aee393ff118b0574a5d90fa68348dd0", "fusion_lon": 0.0, "bike_id": "3aee393ff118b0574a5d90fa68348dd0", "is_reserved": 0, "rental_uris": {"android": "https://dc.lft.to/lastmile_qr_scan", "ios": "https://dc.lft.to/lastmile_qr_scan"}, "lat": 38.87128466666667, "is_disabled": 0, "lon": -77.00702116666666}, {"fusion_lat": 0.0, "type": "electric_scooter", "name": "92bd29ad9595223ba4c66520bd282a82", "fusion_lon": 0.0, "bike_id": "92bd29ad9595223ba4c66520bd282a82", "is_reserved": 0, "rental_uris": {"android": "https://dc.lft.to/lastmile_qr_scan", "ios": "https://dc.lft.to/lastmile_qr_scan"}, "lat": 38.9299845, "is_disabled": 0, "lon": -77.01303883333334}, {"fusion_lat": 0.0, "type": "electric_scooter", "name": "482a99b524b121a58df1db054f3dd05d", "fusion_lon": 0.0, "bike_id": "482a99b524b121a58df1db054f3dd05d", "is_reserved": 0, "rental_uris": {"android": "https://dc.lft.to/lastmile_qr_scan", "ios": "https://dc.lft.to/lastmile_qr_scan"}, "lat": 38.914066, "is_disabled": 0, "lon": -77.04495516666667}, {"fusion_lat": 0.0, "type": "electric_scooter", "name": "7ba7b3b2c02e4580afb48a204b03574b", "fusion_lon": 0.0, "bike_id": "7ba7b3b2c02e4580afb48a204b03574b", "is_reserved": 0, "rental_uris": {"android": "https://dc.lft.to/lastmile_qr_scan", "ios": "https://dc.lft.to/lastmile_qr_scan"}, "lat": 38.87456483333333, "is_disabled": 0, "lon": -77.0054755}, {"fusion_lat": 0.0, "type": "electric_scooter", "name": "d7c2c03ccf510c341c69c7896d7faae5", "fusion_lon": 0.0, "bike_id": "d7c2c03ccf510c341c69c7896d7faae5", "is_reserved": 0, "rental_uris": {"android": "https://dc.lft.to/lastmile_qr_scan", "ios": "https://dc.lft.to/lastmile_qr_scan"}, "lat": 38.892203333333335, "is_disabled": 0, "lon": -77.0222055}, {"fusion_lat": 0.0, "type": "electric_scooter", "name": "f258f27f69b0fbf40523d8b4f2117f4c", "fusion_lon": 0.0, "bike_id": "f258f27f69b0fbf40523d8b4f2117f4c", "is_reserved": 0, "rental_uris": {"android": "https://dc.lft.to/lastmile_qr_scan", "ios": "https://dc.lft.to/lastmile_qr_scan"}, "lat": 38.927517333333334, "is_disabled": 0, "lon": -77.032812}, {"fusion_lat": 0.0, "type": "electric_scooter", "name": "2abfce608581ce5bc7a17effaad7cf4b", "fusion_lon": 0.0, "bike_id": "2abfce608581ce5bc7a17effaad7cf4b", "is_reserved": 0, "rental_uris": {"android": "https://dc.lft.to/lastmile_qr_scan", "ios": "https://dc.lft.to/lastmile_qr_scan"}, "lat": 38.92483283333333, "is_disabled": 0, "lon": -77.05758633333333}, {"fusion_lat": 0.0, "type": "electric_scooter", "name": "b6e8a5d717b4b5177ab537ee28024a5a", "fusion_lon": 0.0, "bike_id": "b6e8a5d717b4b5177ab537ee28024a5a", "is_reserved": 0, "rental_uris": {"android": "https://dc.lft.to/lastmile_qr_scan", "ios": "https://dc.lft.to/lastmile_qr_scan"}, "lat": 38.863736833333334, "is_disabled": 0, "lon": -76.99058983333333}, {"fusion_lat": 0.0, "type": "electric_scooter", "name": "703dc3fe2eda019e23876d208ba93faa", "fusion_lon": 0.0, "bike_id": "703dc3fe2eda019e23876d208ba93faa", "is_reserved": 0, "rental_uris": {"android": "https://dc.lft.to/lastmile_qr_scan", "ios": "https://dc.lft.to/lastmile_qr_scan"}, "lat": 38.8664765, "is_disabled": 0, "lon": -76.98512783333334}, {"fusion_lat": 0.0, "type": "electric_scooter", "name": "f4c6190c9e7c52f09ce5560aeb7fd7b2", "fusion_lon": 0.0, "bike_id": "f4c6190c9e7c52f09ce5560aeb7fd7b2", "is_reserved": 0, "rental_uris": {"android": "https://dc.lft.to/lastmile_qr_scan", "ios": "https://dc.lft.to/lastmile_qr_scan"}, "lat": 38.89219383333333, "is_disabled": 0, "lon": -77.0437545}, {"fusion_lat": 0.0, "type": "electric_scooter", "name": "1bf89fba7f82dd0e7a9f42098979b5d4", "fusion_lon": 0.0, "bike_id": "1bf89fba7f82dd0e7a9f42098979b5d4", "is_reserved": 0, "rental_uris": {"android": "https://dc.lft.to/lastmile_qr_scan", "ios": "https://dc.lft.to/lastmile_qr_scan"}, "lat": 38.92099566666667, "is_disabled": 0, "lon": -77.03328783333333}, {"fusion_lat": 0.0, "type": "electric_scooter", "name": "250af81f5d1cbfd8a1b18a699388503a", "fusion_lon": 0.0, "bike_id": "250af81f5d1cbfd8a1b18a699388503a", "is_reserved": 0, "rental_uris": {"android": "https://dc.lft.to/lastmile_qr_scan", "ios": "https://dc.lft.to/lastmile_qr_scan"}, "lat": 38.910514, "is_disabled": 0, "lon": -77.02184033333333}, {"fusion_lat": 0.0, "type": "electric_scooter", "name": "89bc52ca24a75839a2c3fbd68c634a9e", "fusion_lon": 0.0, "bike_id": "89bc52ca24a75839a2c3fbd68c634a9e", "is_reserved": 0, "rental_uris": {"android": "https://dc.lft.to/lastmile_qr_scan", "ios": "https://dc.lft.to/lastmile_qr_scan"}, "lat": 38.934007333333334, "is_disabled": 0, "lon": -77.02211066666666}, {"fusion_lat": 0.0, "type": "electric_scooter", "name": "1910a4a68bd895361289691adac706f5", "fusion_lon": 0.0, "bike_id": "1910a4a68bd895361289691adac706f5", "is_reserved": 0, "rental_uris": {"android": "https://dc.lft.to/lastmile_qr_scan", "ios": "https://dc.lft.to/lastmile_qr_scan"}, "lat": 38.9205765, "is_disabled": 0, "lon": -77.02199333333333}, {"fusion_lat": 0.0, "type": "electric_scooter", "name": "ec309a2082851773e37824b3225dbbc7", "fusion_lon": 0.0, "bike_id": "ec309a2082851773e37824b3225dbbc7", "is_reserved": 0, "rental_uris": {"android": "https://dc.lft.to/lastmile_qr_scan", "ios": "https://dc.lft.to/lastmile_qr_scan"}, "lat": 38.967774666666664, "is_disabled": 0, "lon": -77.0151615}, {"fusion_lat": 0.0, "type": "electric_scooter", "name": "c862c21de6eae3e18038e1e05009c59c", "fusion_lon": 0.0, "bike_id": "c862c21de6eae3e18038e1e05009c59c", "is_reserved": 0, "rental_uris": {"android": "https://dc.lft.to/lastmile_qr_scan", "ios": "https://dc.lft.to/lastmile_qr_scan"}, "lat": 38.895021, "is_disabled": 0, "lon": -77.04660383333334}, {"fusion_lat": 0.0, "type": "electric_bike", "name": "2695cf2b9238bea1109751da4c1d17c7", "fusion_lon": 0.0, "bike_id": "2695cf2b9238bea1109751da4c1d17c7", "is_reserved": 0, "rental_uris": {"android": "https://dc.lft.to/lastmile_qr_scan", "ios": "https://dc.lft.to/lastmile_qr_scan"}, "lat": 38.953267, "is_disabled": 0, "lon": -76.95429316666667}, {"fusion_lat": 0.0, "type": "electric_scooter", "name": "6f844c2755ac1eae673672bf5d651c6e", "fusion_lon": 0.0, "bike_id": "6f844c2755ac1eae673672bf5d651c6e", "is_reserved": 0, "rental_uris": {"android": "https://dc.lft.to/lastmile_qr_scan", "ios": "https://dc.lft.to/lastmile_qr_scan"}, "lat": 38.927564333333336, "is_disabled": 0, "lon": -77.03238416666667}, {"fusion_lat": 0.0, "type": "electric_scooter", "name": "b771ab577ad441ed6e965bce37631f55", "fusion_lon": 0.0, "bike_id": "b771ab577ad441ed6e965bce37631f55", "is_reserved": 0, "rental_uris": {"android": "https://dc.lft.to/lastmile_qr_scan", "ios": "https://dc.lft.to/lastmile_qr_scan"}, "lat": 38.9037695, "is_disabled": 0, "lon": -77.04488483333333}, {"fusion_lat": 0.0, "type": "electric_scooter", "name": "2b14e433790bebd19cc989cdb5356dbd", "fusion_lon": 0.0, "bike_id": "2b14e433790bebd19cc989cdb5356dbd", "is_reserved": 0, "rental_uris": {"android": "https://dc.lft.to/lastmile_qr_scan", "ios": "https://dc.lft.to/lastmile_qr_scan"}, "lat": 38.922141333333336, "is_disabled": 0, "lon": -77.04267066666667}, {"fusion_lat": 0.0, "type": "electric_scooter", "name": "b62c4f014681d03ac7cd5eceacff9fa7", "fusion_lon": 0.0, "bike_id": "b62c4f014681d03ac7cd5eceacff9fa7", "is_reserved": 0, "rental_uris": {"android": "https://dc.lft.to/lastmile_qr_scan", "ios": "https://dc.lft.to/lastmile_qr_scan"}, "lat": 38.89493933333333, "is_disabled": 0, "lon": -77.02737633333334}, {"fusion_lat": 0.0, "type": "electric_scooter", "name": "ef2c0be284f2475b82997995a2b8b335", "fusion_lon": 0.0, "bike_id": "ef2c0be284f2475b82997995a2b8b335", "is_reserved": 0, "rental_uris": {"android": "https://dc.lft.to/lastmile_qr_scan", "ios": "https://dc.lft.to/lastmile_qr_scan"}, "lat": 38.91332716666667, "is_disabled": 0, "lon": -77.04574966666667}, {"fusion_lat": 0.0, "type": "electric_scooter", "name": "10e0f5bc50559cc0149b52a03eaf3ac5", "fusion_lon": 0.0, "bike_id": "10e0f5bc50559cc0149b52a03eaf3ac5", "is_reserved": 0, "rental_uris": {"android": "https://dc.lft.to/lastmile_qr_scan", "ios": "https://dc.lft.to/lastmile_qr_scan"}, "lat": 38.89232466666667, "is_disabled": 0, "lon": -77.03212416666666},