{"data": {"bikes": [{"fusion_lon": 0.0, "bike_id": "a4b97a396a1b4c6ac1b056d7feb261e9", "name": "a4b97a396a1b4c6ac1b056d7feb261e9", "type": "electric_scooter", "lon": -77.04085616666667, "rental_uris": {"android": "https://dc.lft.to/lastmile_qr_scan", "ios": "https://dc.lft.to/lastmile_qr_scan"}, "lat": 38.9169655, "is_reserved": 0, "is_disabled": 0, "fusion_lat": 0.0}, {"fusion_lon": 0.0, "bike_id": "cd4931643e982a166488538f52d12d6c", "name": "cd4931643e982a166488538f52d12d6c", "type": "electric_scooter", "lon": -77.02324516666667, "rental_uris": {"android": "https://dc.lft.to/lastmile_qr_scan", "ios": "https://dc.lft.to/lastmile_qr_scan"}, "lat": 38.92699366666667, "is_reserved": 0, "is_disabled": 0, "fusion_lat": 0.0}, {"fusion_lon": 0.0, "bike_id": "e4f0670df93f5ac06eb34555edf9366b", "name": "e4f0670df93f5ac06eb34555edf9366b", "type": "electric_scooter", "lon": -77.0378455, "rental_uris": {"android": "https://dc.lft.to/lastmile_qr_scan", "ios": "https://dc.lft.to/lastmile_qr_scan"}, "lat": 38.93608833333333, "is_reserved": 0, "is_disabled": 0, "fusion_lat": 0.0}, {"fusion_lon": 0.0, "bike_id": "1e5a28e85129a78e826d53a95803e72a", "name": "1e5a28e85129a78e826d53a95803e72a", "type": "electric_scooter", "lon": -76.98807016666666, "rental_uris": {"android": "https://dc.lft.to/lastmile_qr_scan", "ios": "https://dc.lft.to/lastmile_qr_scan"}, "lat": 38.9081965, "is_reserved": 0, "is_disabled": 0, "fusion_lat": 0.0}, {"fusion_lon": 0.0, "bike_id": "aecfd0727aaf21abc7811d4153946f84", "name": "aecfd0727aaf21abc7811d4153946f84", "type": "electric_scooter", "lon": -77.02203066666667, "rental_uris": {"android": "https://dc.lft.to/lastmile_qr_scan", "ios": "https://dc.lft.to/lastmile_qr_scan"}, "lat": 38.9153225, "is_reserved": 0, "is_disabled": 0, "fusion_lat": 0.0}, {"fusion_lon": 0.0, "bike_id": "c7ecf898aa9b23f99a854c5b742c0a09", "name": "c7ecf898aa9b23f99a854c5b742c0a09", "type": "electric_scooter", "lon": -76.971849, "rental_uris": {"android": "https://dc.lft.to/lastmile_qr_scan", "ios": "https://dc.lft.to/lastmile_qr_scan"}, "lat": 38.91264266666667, "is_reserved": 0, "is_disabled": 0, "fusion_lat": 0.0}, {"fusion_lon": 0.0, "bike_id": "4dfc2b36aaf2dba78bfb254ef44c4a10", "name": "4dfc2b36aaf2dba78bfb254ef44c4a10", "type": "electric_scooter", "lon": -76.9941375, "rental_uris": {"android": "https://dc.lft.to/lastmile_qr_scan", "ios": "https://dc.lft.to/lastmile_qr_scan"}, "lat": 38.8608555, "is_reserved": 0, "is_disabled": 0, "fusion_lat": 0.0}, {"fusion_lon": 0.0, "bike_id": "d0d46ee3f27026375cb0c3b2a3a0e618", "name": "d0d46ee3f27026375cb0c3b2a3a0e618", "type": "electric_scooter", "lon": -76.99863083333334, "rental_uris": {"android": "https://dc.lft.to/lastmile_qr_scan", "ios": "https://dc.lft.to/lastmile_qr_scan"}, "lat": 38.90898116666666, "is_reserved": 0, "is_disabled": 0, "fusion_lat": 0.0}, {"fusion_lon": 0.0, "bike_id": "fc851359b1ea429b1228321075ecc01d", "name": "fc851359b1ea429b1228321075ecc01d", "type": "electric_scooter", "lon": -77.02264133333334, "rental_uris": {"android": "https://dc.lft.to/lastmile_qr_scan", "ios": "https://dc.lft.to/lastmile_qr_scan"}, "lat": 38.91756683333333, "is_reserved": 0, "is_disabled": 0, "fusion_lat": 0.0}, {"fusion_lon": 0.0, "bike_id": "3e28ced218353f889c5798fcd70d5023", "name": "3e28ced218353f889c5798fcd70d5023", "type": "electric_bike", "lon": -77.35310133333333, "rental_uris": {"android": "https://dc.lft.to/lastmile_qr_scan", "ios": "https://dc.lft.to/lastmile_qr_scan"}, "lat": 38.9499785, "is_reserved": 0, "is_disabled": 0, "fusion_lat": 0.0}, {"fusion_lon": 0.0, "bike_id": "7270bd25b95667a8a668c608fbf3d591", "name": "7270bd25b95667a8a668c608fbf3d591", "type": "electric_scooter", "lon": -77.0482505, "rental_uris": {"android": "https://dc.lft.to/lastmile_qr_scan", "ios": "https://dc.lft.to/lastmile_qr_scan"}, "lat": 38.898373, "is_reserved": 0, "is_disabled": 0, "fusion_lat": 0.0}, {"fusion_lon": 0.0, "bike_id": "e42dbfa3bf1f245b486d54b77155c990", "name": "e42dbfa3bf1f245b486d54b77155c990", "type": "electric_scooter", "lon": -77.06338733333334, "rental_uris": {"android": "https://dc.lft.to/lastmile_qr_scan", "ios": "https://dc.lft.to/lastmile_qr_scan"}, "lat": 38.91340233333333, "is_reserved": 0, "is_disabled": 0, "fusion_lat": 0.0}, {"fusion_lon": 0.0, "bike_id": "dfcbc85067a2857968e89b3b1abea6f5", "name": "dfcbc85067a2857968e89b3b1abea6f5", "type": "electric_scooter", "lon": -77.022664, "rental_uris": {"android": "https://dc.lft.to/lastmile_qr_scan", "ios": "https://dc.lft.to/lastmile_qr_scan"}, "lat": 38.927363166666666, "is_reserved": 0, "is_disabled": 0, "fusion_lat": 0.0}, {"fusion_lon": 0.0, "bike_id": "ad8707de65a4690f19c9947b8289685f", "name": "ad8707de65a4690f19c9947b8289685f", "type": "electric_scooter", "lon": -77.03995633333334, "rental_uris": {"android": "https://dc.lft.to/lastmile_qr_scan", "ios": "https://dc.lft.to/lastmile_qr_scan"}, "lat": 38.91414616666667, "is_reserved": 0, "is_disabled": 0, "fusion_lat": 0.0}, {"fusion_lon": 0.0, "bike_id": "cae19856bf8c3d0d1708327fda0b295d", "name": "cae19856bf8c3d0d1708327fda0b295d", "type": "electric_scooter", "lon": -77.04490216666666, "rental_uris": {"android": "https://dc.lft.to/lastmile_qr_scan", "ios": "https://dc.lft.to/lastmile_qr_scan"}, "lat": 38.90678883333333, "is_reserved": 0, "is_disabled": 0, "fusion_lat": 0.0}, {"fusion_lon": 0.0, "bike_id": "deeebadd66f9cfda816d2ce8690b6b91", "name": "deeebadd66f9cfda816d2ce8690b6b91", "type": "electric_scooter", "lon": -77.02468933333333, "rental_uris": {"android": "https://dc.lft.to/lastmile_qr_scan", "ios": "https://dc.lft.to/lastmile_qr_scan"}, "lat": 38.93917583333333, "is_reserved": 0, "is_disabled": 0, "fusion_lat": 0.0}, {"fusion_lon": 0.0, "bike_id": "807cbef3f08b74910b7599433cfc1c73", "name": "807cbef3f08b74910b7599433cfc1c73", "type": "electric_scooter", "lon": -76.94653183333334, "rental_uris": {"android": "https://dc.lft.to/lastmile_qr_scan", "ios": "https://dc.lft.to/lastmile_qr_scan"}, "lat": 38.8982535, "is_reserved": 0, "is_disabled": 0, "fusion_lat": 0.0}, {"fusion_lon": 0.0, "bike_id": "309f7e9917ef807512d3322a98dbbc50", "name": "309f7e9917ef807512d3322a98dbbc50", "type": "electric_bike", "lon": -77.18290616666667, "rental_uris": {"android": "https://dc.lft.to/lastmile_qr_scan", "ios": "https://dc.lft.to/lastmile_qr_scan"}, "lat": 38.8833965, "is_reserved": 0, "is_disabled": 0, "fusion_lat": 0.0}, {"fusion_lon": 0.0, "bike_id": "917fa47caecc689e75454fa0e8ed50cf", "name": "917fa47caecc689e75454fa0e8ed50cf", "type": "electric_scooter", "lon": -77.03278383333334, "rental_uris": {"android": "https://dc.lft.to/lastmile_qr_scan", "ios": "https://dc.lft.to/lastmile_qr_scan"}, "lat": 38.93250866666666, "is_reserved": 0, "is_disabled": 0, "fusion_lat": 0.0}, {"fusion_lon": 0.0, "bike_id": "78d409d847966997e791dad5f35ee478", "name": "78d409d847966997e791dad5f35ee478", "type": "electric_scooter", "lon": -77.02471316666667, "rental_uris": {"android": "https://dc.lft.to/lastmile_qr_scan", "ios": "https://dc.lft.to/lastmile_qr_scan"}, "lat": 38.93920333333333, "is_reserved": 0, "is_disabled": 0, "fusion_lat": 0.0}, {"fusion_lon": 0.0, "bike_id": "e3f3bd50886e0c0f4f18cc886691a85b", "name": "e3f3bd50886e0c0f4f18cc886691a85b", "type": "electric_scooter", "lon": -77.02780416666667, "rental_uris": {"android": "https://dc.lft.to/lastmile_qr_scan", "ios": "https://dc.lft.to/lastmile_qr_scan"}, "lat": 38.89223833333333, "is_reserved": 0, "is_disabled": 0, "fusion_lat": 0.0}, {"fusion_lon": 0.0, "bike_id": "5b076e7105816a1e7fa6416f0b3c6691", "name": "5b076e7105816a1e7fa6416f0b3c6691", "type": "electric_scooter", "lon": -77.038493, "rental_uris": {"android": "https://dc.lft.to/lastmile_qr_scan", "ios": "https://dc.lft.to/lastmile_qr_scan"}, "lat": 38.906669666666666, "is_reserved": 0, "is_disabled": 0, "fusion_lat": 0.0}, {"fusion_lon": 0.0, "bike_id": "72c69a154b1f2367fd1d2119401b832f", "name": "72c69a154b1f2367fd1d2119401b832f", "type": "electric_scooter", "lon": -77.04807416666667, "rental_uris": {"android": "https://dc.lft.to/lastmile_qr_scan", "ios": "https://dc.lft.to/lastmile_qr_scan"}, "lat": 38.920314, "is_reserved": 0, "is_disabled": 0, "fusion_lat": 0.0}, {"fusion_lon": 0.0, "bike_id": "ead338005a80bc4ae253efccf129020d", "name": "ead338005a80bc4ae253efccf129020d", "type": "electric_scooter", "lon": -77.0487195, "rental_uris": {"android": "https://dc.lft.to/lastmile_qr_scan", "ios": "https://dc.lft.to/lastmile_qr_scan"}, "lat": 38.89223166666667, "is_reserved": 0, "is_disabled": 0, "fusion_lat": 0.0}, {"fusion_lon": 0.0, "bike_id": "a243cfaf09d58bd0ea9574309b7bd920", "name": "a243cfaf09d58bd0ea9574309b7bd920", "type": "electric_scooter", "lon": -77.0327415, "rental_uris": {"android": "https://dc.lft.to/lastmile_qr_scan", "ios": "https://dc.lft.to/lastmile_qr_scan"}, "lat": 38.92860833333334, "is_reserved": 0, "is_disabled": 0, "fusion_lat": 0.0}, {"fusion_lon": 0.0, "bike_id": "e674d84da68cc2a23002345e821c0cac", "name": "e674d84da68cc2a23002345e821c0cac", "type": "electric_scooter", "lon": -77.02223683333334, "rental_uris": {"android": "https://dc.lft.to/lastmile_qr_scan", "ios": "https://dc.lft.to/lastmile_qr_scan"}, "lat": 38.892211, "is_reserved": 0, "is_disabled": 0, "fusion_lat": 0.0}, {"fusion_lon": 0.0, "bike_id": "c9838e8ba4a76c27bb2d3158991c6607", "name": "c9838e8ba4a76c27bb2d3158991c6607", "type": "electric_scooter", "lon": -76.98095366666666, "rental_uris": {"android": "https://dc.lft.to/lastmile_qr_scan", "ios": "https://dc.lft.to/lastmile_qr_scan"}, "lat": 38.857148, "is_reserved": 0, "is_disabled": 0, "fusion_lat": 0.0}, {"fusion_lon": 0.0, "bike_id": "42dbfc97d09d7bddf94d459bda22a4f4", "name": "42dbfc97d09d7bddf94d459bda22a4f4", "type": "electric_scooter", "lon": -77.0170815, "rental_uris": {"android": "https://dc.lft.to/lastmile_qr_scan", "ios": "https://dc.lft.to/lastmile_qr_scan"}, "lat": 38.907293, "is_reserved": 0, "is_disabled": 0, "fusion_lat": 0.0}, {"fusion_lon": 0.0, "bike_id": "cf04d787365bce1ce326edf4875dcd1d", "name": "cf04d787365bce1ce326edf4875dcd1d", "type": "electric_scooter", "lon": -77.05929483333334, "rental_uris": {"android": "https://dc.lft.to/lastmile_qr_scan", "ios": "https://dc.lft.to/lastmile_qr_scan"}, "lat": 38.936668166666664, "is_reserved": 0, "is_disabled": 0, "fusion_lat": 0.0}, {"fusion_lon": 0.0, "bike_id": "ed75e46b544bbd2f97193fa12ca5ec52", "name": "ed75e46b544bbd2f97193fa12ca5ec52", "type": "electric_scooter", "lon": -76.9901915, "rental_uris": {"android": "https://dc.lft.to/lastmile_qr_scan", "ios": "https://dc.lft.to/lastmile_qr_scan"}, "lat": 38.85864883333333, "is_reserved": 0, "is_disabled": 0, "fusion_lat": 0.0}, {"fusion_lon": 0.0, "bike_id": "88926fc2309f954a5ab438bd5c2369b1", "name": "88926fc2309f954a5ab438bd5c2369b1", "type": "electric_scooter", "lon": -77.02417183333333, "rental_uris": {"android": "https://dc.lft.to/lastmile_qr_scan", "ios": "https://dc.lft.to/lastmile_qr_scan"}, "lat": 38.921852, "is_reserved": 0, "is_disabled": 0, "fusion_lat": 0.0}, {"fusion_lon": 0.0, "bike_id": "ad90522ddf2b6cb33f8a58131e227f2f", "name": "ad90522ddf2b6cb33f8a58131e227f2f", "type": "electric_scooter", "lon": -76.9964605, "rental_uris": {"android": "https://dc.lft.to/lastmile_qr_scan", "ios": "https://dc.lft.to/lastmile_qr_scan"}, "lat": 38.887181166666664, "is_reserved": 0, "is_disabled": 0, "fusion_lat": 0.0}, {"fusion_lon": 0.0, "bike_id": "943ffd6200515ef8c111e65a784d63ff", "name": "943ffd6200515ef8c111e65a784d63ff", "type": "electric_scooter", "lon": -77.020823, "rental_uris": {"android": "https://dc.lft.to/lastmile_qr_scan", "ios": "https://dc.lft.to/lastmile_qr_scan"}, "lat": 38.89729616666666, "is_reserved": 0, "is_disabled": 0, "fusion_lat": 0.0}, {"fusion_lon": 0.0, "bike_id": "f7e063497254a3609dbc34b441b925f4", "name": "f7e063497254a3609dbc34b441b925f4", "type": "electric_scooter", "lon": -77.040457, "rental_uris": {"android": "https://dc.lft.to/lastmile_qr_scan", "ios": "https://dc.lft.to/lastmile_qr_scan"}, "lat": 38.905567833333336, "is_reserved": 0, "is_disabled": 0, "fusion_lat": 0.0}, {"fusion_lon": 0.0, "bike_id": "82feb5541c00147d82afc18e49257bb3", "name": "82feb5541c00147d82afc18e49257bb3", "type": "electric_scooter", "lon": -77.00812266666667, "rental_uris": {"android": "https://dc.lft.to/lastmile_qr_scan", "ios": "https://dc.lft.to/lastmile_qr_scan"}, "lat": 38.87644016666667, "is_reserved": 0, "is_disabled": 0, "fusion_lat": 0.0}, {"fusion_lon": 0.0, "bike_id": "9f1db6fa9c3c56fea2ee052b7c0d6a9c", "name": "9f1db6fa9c3c56fea2ee052b7c0d6a9c", "type": "electric_scooter", "lon": -77.00936033333333, "rental_uris": {"android": "https://dc.lft.to/lastmile_qr_scan", "ios": "https://dc.lft.to/lastmile_qr_scan"}, "lat": 38.87659716666667, "is_reserved": 0, "is_disabled": 0, "fusion_lat": 0.0}, {"fusion_lon": 0.0, "bike_id": "8b157bc4c8d69c36395e24b41616a8a0", "name": "8b157bc4c8d69c36395e24b41616a8a0", "type": "electric_scooter", "lon": -77.0176265, "rental_uris": {"android": "https://dc.lft.to/lastmile_qr_scan", "ios": "https://dc.lft.to/lastmile_qr_scan"}, "lat": 38.8772045, "is_reserved": 0, "is_disabled": 0, "fusion_lat": 0.0}, {"fusion_lon": 0.0, "bike_id": "584d7f5586777b260ad87f854cf0c472", "name": "584d7f5586777b260ad87f854cf0c472", "type": "electric_scooter", "lon": -77.01764083333333, "rental_uris": {"android": "https://dc.lft.to/lastmile_qr_scan", "ios": "https://dc.lft.to/lastmile_qr_scan"}, "lat": 38.87703416666667, "is_reserved": 0, "is_disabled": 0, "fusion_lat": 0.0}, {"fusion_lon": 0.0, "bike_id": "6d6c89d59c1360ba702936c8c69750ea", "name": "6d6c89d59c1360ba702936c8c69750ea", "type": "electric_scooter", "lon": -77.035243, "rental_uris": {"android": "https://dc.lft.to/lastmile_qr_scan", "ios": "https://dc.lft.to/lastmile_qr_scan"}, "lat": 38.9233515, "is_reserved": 0, "is_disabled": 0, "fusion_lat": 0.0}, {"fusion_lon": 0.0, "bike_id": "aecf2f5c8ce534c99b9a82292a1175be", "name": "aecf2f5c8ce534c99b9a82292a1175be", "type": "electric_bike", "lon": -77.014538, "rental_uris": {"android": "https://dc.lft.to/lastmile_qr_scan", "ios": "https://dc.lft.to/lastmile_qr_scan"}, "lat": 38.86791933333333, "is_reserved": 0, "is_disabled": 0, "fusion_lat": 0.0}, {"fusion_lon": 0.0, "bike_id": "bf485e71ef2d3dc9960a38b01c91d64f", "name": "bf485e71ef2d3dc9960a38b01c91d64f", "type": "electric_scooter", "lon": -77.0770695, "rental_uris": {"android": "https://dc.lft.to/lastmile_qr_scan", "ios": "https://dc.lft.to/lastmile_qr_scan"}, "lat": 38.942887166666665, "is_reserved": 0, "is_disabled": 0, "fusion_lat": 0.0}, {"fusion_lon": 0.0, "bike_id": "df01a772836f627d6266b06220646310", "name": "df01a772836f627d6266b06220646310", "type": "electric_scooter", "lon": -77.04353416666666, "rental_uris": {"android": "https://dc.lft.to/lastmile_qr_scan", "ios": "https://dc.lft.to/lastmile_qr_scan"}, "lat": 38.91869766666667, "is_reserved": 0, "is_disabled": 0, "fusion_lat": 0.0}, {"fusion_lon": 0.0, "bike_id": "cf720b603388e0abc0e0577285780eee", "name": "cf720b603388e0abc0e0577285780eee", "type": "electric_scooter", "lon": -77.0329975, "rental_uris": {"android": "https://dc.lft.to/lastmile_qr_scan", "ios": "https://dc.lft.to/lastmile_qr_scan"}, "lat": 38.91119716666667, "is_reserved": 0, "is_disabled": 0, "fusion_lat": 0.0}, {"fusion_lon": 0.0, "bike_id": "f6122359c21caa4c1e20b03a31a39562", "name": "f6122359c21caa4c1e20b03a31a39562", "type": "electric_scooter", "lon": -77.010834, "rental_uris": {"android": "https://dc.lft.to/lastmile_qr_scan", "ios": "https://dc.lft.to/lastmile_qr_scan"}, "lat": 38.89614816666667, "is_reserved": 0, "is_disabled": 0, "fusion_lat": 0.0}, {"fusion_lon": 0.0, "bike_id": "dab94cad54a578fa0d5d29570444b48d", "name": "dab94cad54a578fa0d5d29570444b48d", "type": "electric_scooter", "lon": -77.048808, "rental_uris": {"android": "https://dc.lft.to/lastmile_qr_scan", "ios": "https://dc.lft.to/lastmile_qr_scan"}, "lat": 38.901936166666665, "is_reserved": 0, "is_disabled": 0, "fusion_lat": 0.0}, {"fusion_lon": 0.0, "bike_id": "41d8d0966caf7374cff99173cebf322b", "name": "41d8d0966caf7374cff99173cebf322b", "type": "electric_scooter", "lon": -77.04161116666667, "rental_uris": {"android": "https://dc.lft.to/lastmile_qr_scan", "ios": "https://dc.lft.to/lastmile_qr_scan"}, "lat": 38.91476933333333, "is_reserved": 0, "is_disabled": 0, "fusion_lat": 0.0}, {"fusion_lon": 0.0, "bike_id": "cb6c9bdbcc7325b3f6651d14bd755fbf", "name": "cb6c9bdbcc7325b3f6651d14bd755fbf", "type": "electric_scooter", "lon": -77.04245016666667, "rental_uris": {"android": "https://dc.lft.to/lastmile_qr_scan", "ios": "https://dc.lft.to/lastmile_qr_scan"}, "lat": 38.9191755, "is_reserved": 0, "is_disabled": 0, "fusion_lat": 0.0}, {"fusion_lon": 0.0, "bike_id": "cbd390adbcdc57b78b4a0a8a0d31db0e", "name": "cbd390adbcdc57b78b4a0a8a0d31db0e", "type": "electric_scooter", "lon": -77.002027, "rental_uris": {"android": "https://dc.lft.to/lastmile_qr_scan", "ios": "https://dc.lft.to/lastmile_qr_scan"}, "lat": 38.91477, "is_reserved": 0, "is_disabled": 0, "fusion_lat": 0.0}, {"fusion_lon": 0.0, "bike_id": "8f08b02a7468419a067ccfab8aacaccb", "name": "8f08b02a7468419a067ccfab8aacaccb", "type": "electric_scooter", "lon": -77.0570335, "rental_uris": {"android": "https://dc.lft.to/lastmile_qr_scan", "ios": "https://dc.lft.to/lastmile_qr_scan"}, "lat": 38.91066416666666, "is_reserved": 0, "is_disabled": 0, "fusion_lat": 0.0}, {"fusion_lon": 0.0, "bike_id": "d029311e0e7437a814f28da8988c65d7", "name": "d029311e0e7437a814f28da8988c65d7", "type": "electric_scooter", "lon": -77.02677066666666, "rental_uris": {"android": "https://dc.lft.to/lastmile_qr_scan", "ios": "https://dc.lft.to/lastmile_qr_scan"}, "lat": 38.9026065, "is_reserved": 0, "is_disabled": 0, "fusion_lat": 0.0}, {"fusion_lon": 0.0, "bike_id": "560e690e0dd838cd659eefea1c59877a", "name": "560e690e0dd838cd659eefea1c59877a", "type": "electric_scooter", "lon": -77.03631583333333, "rental_uris": {"android": "https://dc.lft.to/lastmile_qr_scan", "ios": "https://dc.lft.to/lastmile_qr_scan"}, "lat": 38.92452866666667, "is_reserved": 0, "is_disabled": 0, "fusion_lat": 0.0}, {"fusion_lon": 0.0, "bike_id": "0aedd58986d1cadd0fa6604f0790b163", "name": "0aedd58986d1cadd0fa6604f0790b163", "type": "electric_scooter", "lon": -77.0004705, "rental_uris": {"android": "https://dc.lft.to/lastmile_qr_scan", "ios": "https://dc.lft.to/lastmile_qr_scan"}, "lat": 38.91900733333333, "is_reserved": 0, "is_disabled": 0, "fusion_lat": 0.0}, {"fusion_lon": 0.0, "bike_id": "df5fec1e2b67096e96cc7df9787906e9", "name": "df5fec1e2b67096e96cc7df9787906e9", "type": "electric_scooter", "lon": -77.0819055, "rental_uris": {"android": "https://dc.lft.to/lastmile_qr_scan", "ios": "https://dc.lft.to/lastmile_qr_scan"}, "lat": 38.9356465, "is_reserved": 0, "is_disabled": 0, "fusion_lat": 0.0}, {"fusion_lon": 0.0, "bike_id": "62a96cfdfb9096aca93bdd3f9ef1ce24", "name": "62a96cfdfb9096aca93bdd3f9ef1ce24", "type": "electric_scooter", "lon": -77.03395033333334, "rental_uris": {"android": "https://dc.lft.to/lastmile_qr_scan", "ios": "https://dc.lft.to/lastmile_qr_scan"}, "lat": 38.91915, "is_reserved": 0, "is_disabled": 0, "fusion_lat": 0.0}, {"fusion_lon": 0.0, "bike_id": "823f1592d3e55a0788016c25a5d07fd8", "name": "823f1592d3e55a0788016c25a5d07fd8", "type": "electric_scooter", "lon": -77.04152933333333, "rental_uris": {"android": "https://dc.lft.to/lastmile_qr_scan", "ios": "https://dc.lft.to/lastmile_qr_scan"}, "lat": 38.917167, "is_reserved": 0, "is_disabled": 0, "fusion_lat": 0.0}, {"fusion_lon": 0.0, "bike_id": "4380cea7b3753c2a8c53ac52b61d5b55", "name": "4380cea7b3753c2a8c53ac52b61d5b55", "type": "electric_scooter", "lon": -77.03800483333333, "rental_uris": {"android": "https://dc.lft.to/lastmile_qr_scan", "ios": "https://dc.lft.to/lastmile_qr_scan"}, "lat": 38.910331666666664, "is_reserved": 0, "is_disabled": 0, "fusion_lat": 0.0}, {"fusion_lon": 0.0, "bike_id": "a863b091c4a9d06ef25df7abb340776b", "name": "a863b091c4a9d06ef25df7abb340776b", "type": "electric_scooter", "lon": -77.0231765, "rental_uris": {"android": "https://dc.lft.to/lastmile_qr_scan", "ios": "https://dc.lft.to/lastmile_qr_scan"}, "lat": 38.91765133333333, "is_reserved": 0, "is_disabled": 0, "fusion_lat": 0.0}, {"fusion_lon": 0.0, "bike_id": "93b25821b7fe6408b214018cc00a6d02", "name": "93b25821b7fe6408b214018cc00a6d02", "type": "electric_scooter", "lon": -77.045139, "rental_uris": {"android": "https://dc.lft.to/lastmile_qr_scan", "ios": "https://dc.lft.to/lastmile_qr_scan"}, "lat": 38.88607233333333, "is_reserved": 0, "is_disabled": 0, "fusion_lat": 0.0}, {"fusion_lon": 0.0, "bike_id": "3c16d441727f06fe9113070c1820c084", "name": "3c16d441727f06fe9113070c1820c084", "type": "electric_scooter", "lon": -77.03523883333334, "rental_uris": {"android": "https://dc.lft.to/lastmile_qr_scan", "ios": "https://dc.lft.to/lastmile_qr_scan"}, "lat": 38.93276866666667, "is_reserved": 0, "is_disabled": 0, "fusion_lat": 0.0}, {"fusion_lon": 0.0, "bike_id": "e321c33d2516cbe85ab503cca2c0d9d4", "name": "e321c33d2516cbe85ab503cca2c0d9d4", "type": "electric_scooter", "lon": -77.03867483333333, "rental_uris": {"android": "https://dc.lft.to/lastmile_qr_scan", "ios": "https://dc.lft.to/lastmile_qr_scan"}, "lat": 38.915492, "is_reserved": 0, "is_disabled": 0, "fusion_lat": 0.0}, {"fusion_lon": 0.0, "bike_id": "c1a610a0a27766225cda6fe4f7a6bb2a", "name": "c1a610a0a27766225cda6fe4f7a6bb2a", "type": "electric_bike", "lon": -77.10128766666666, "rental_uris": {"android": "https://dc.lft.to/lastmile_qr_scan", "ios": "https://dc.lft.to/lastmile_qr_scan"}, "lat": 38.852096333333336, "is_reserved": 0, "is_disabled": 0, "fusion_lat": 0.0}, {"fusion_lon": 0.0, "bike_id": "9642a3f78208b19bbfba9075f7c3139a", "name": "9642a3f78208b19bbfba9075f7c3139a", "type": "electric_scooter", "lon": -77.04241766666667, "rental_uris": {"android": "https://dc.lft.to/lastmile_qr_scan", "ios": "https://dc.lft.to/lastmile_qr_scan"}, "lat": 38.91066433333334, "is_reserved": 0, "is_disabled": 0, "fusion_lat": 0.0}, {"fusion_lon": 0.0, "bike_id": "cabaa354f798df89b17b1c38674322c0", "name": "cabaa354f798df89b17b1c38674322c0", "type": "electric_scooter", "lon": -77.02428566666667, "rental_uris": {"android": "https://dc.lft.to/lastmile_qr_scan", "ios": "https://dc.lft.to/lastmile_qr_scan"}, "lat": 38.92288216666667, "is_reserved": 0, "is_disabled": 0, "fusion_lat": 0.0}, {"fusion_lon": 0.0, "bike_id": "df1c2fa94895dd31d2d2d2c7f29c2d4b", "name": "df1c2fa94895dd31d2d2d2c7f29c2d4b", "type": "electric_scooter", "lon": -77.05413, "rental_uris": {"android": "https://dc.lft.to/lastmile_qr_scan", "ios": "https://dc.lft.to/lastmile_qr_scan"}, "lat": 38.89918266666667, "is_reserved": 0, "is_disabled": 0, "fusion_lat": 0.0}, {"fusion_lon": 0.0, "bike_id": "c419d8858e9da1781a997cafb57d687a", "name": "c419d8858e9da1781a997cafb57d687a", "type": "electric_scooter", "lon": -77.04348716666667, "rental_uris": {"android": "https://dc.lft.to/lastmile_qr_scan", "ios": "https://dc.lft.to/lastmile_qr_scan"}, "lat": 38.896727, "is_reserved": 0, "is_disabled": 0, "fusion_lat": 0.0}, {"fusion_lon": 0.0, "bike_id": "8f73ac23e932491882470abc785a81b8", "name": "8f73ac23e932491882470abc785a81b8", "type": "electric_scooter", "lon": -77.029796, "rental_uris": {"android": "https://dc.lft.to/lastmile_qr_scan", "ios": "https://dc.lft.to/lastmile_qr_scan"}, "lat": 38.9274725, "is_reserved": 0, "is_disabled": 0, "fusion_lat": 0.0}, {"fusion_lon": 0.0, "bike_id": "deddd0727b864dd60e5fedbea855e715", "name": "deddd0727b864dd60e5fedbea855e715", "type": "electric_scooter", "lon": -77.04280283333334, "rental_uris": {"android": "https://dc.lft.to/lastmile_qr_scan", "ios": "https://dc.lft.to/lastmile_qr_scan"}, "lat": 38.914055, "is_reserved": 0, "is_disabled": 0, "fusion_lat": 0.0}, {"fusion_lon": 0.0, "bike_id": "7513d105a9ff095c9a551d2d8301e173", "name": "7513d105a9ff095c9a551d2d8301e173", "type": "electric_bike", "lon": -76.95225633333334, "rental_uris": {"android": "https://dc.lft.to/lastmile_qr_scan", "ios": "https://dc.lft.to/lastmile_qr_scan"}, "lat": 38.89237966666666, "is_reserved": 0, "is_disabled": 0, "fusion_lat": 0.0}, {"fusion_lon": 0.0, "bike_id": "1063d0b23a669f15bbfaf71f39116c3c", "name": "1063d0b23a669f15bbfaf71f39116c3c", "type": "electric_scooter", "lon": -77.00826066666667, "rental_uris": {"android": "https://dc.lft.to/lastmile_qr_scan", "ios": "https://dc.lft.to/lastmile_qr_scan"}, "lat": 38.9125735, "is_reserved": 0, "is_disabled": 0, "fusion_lat": 0.0}, {"fusion_lon": 0.0, "bike_id": "8849dd95fc2e6155e06696be7ebee41e", "name": "8849dd95fc2e6155e06696be7ebee41e", "type": "electric_scooter", "lon": -77.00330883333334, "rental_uris": {"android": "https://dc.lft.to/lastmile_qr_scan", "ios": "https://dc.lft.to/lastmile_qr_scan"}, "lat": 38.89355716666667, "is_reserved": 0, "is_disabled": 0, "fusion_lat": 0.0}, {"fusion_lon": 0.0, "bike_id": "395fdabb09b3eb01a17d311a8ff3d725", "name": "395fdabb09b3eb01a17d311a8ff3d725", "type": "electric_bike", "lon": -76.889093, "rental_uris": {"android": "https://dc.lft.to/lastmile_qr_scan", "ios": "https://dc.lft.to/lastmile_qr_scan"}, "lat": 38.92590533333333, "is_reserved": 0, "is_disabled": 0, "fusion_lat": 0.0}, {"fusion_lon": 0.0, "bike_id": "d598c6542edcaa3fd493f8397317f2f8", "name": "d598c6542edcaa3fd493f8397317f2f8", "type": "electric_scooter", "lon": -76.9478635, "rental_uris": {"android": "https://dc.lft.to/lastmile_qr_scan", "ios": "https://dc.lft.to/lastmile_qr_scan"}, "lat": 38.884628666666664, "is_reserved": 0, "is_disabled": 0, "fusion_lat": 0.0}, {"fusion_lon": 0.0, "bike_id": "4257474523af89abf7a4c20189bba5e7", "name": "4257474523af89abf7a4c20189bba5e7", "type": "electric_scooter", "lon": -77.00320216666667, "rental_uris": {"android": "https://dc.lft.to/lastmile_qr_scan", "ios": "https://dc.lft.to/lastmile_qr_scan"}, "lat": 38.84033083333333, "is_reserved": 0, "is_disabled": 0, "fusion_lat": 0.0}, {"fusion_lon": 0.0, "bike_id": "2634446fac6f7ef0ae8e3d88d08500f6", "name": "2634446fac6f7ef0ae8e3d88d08500f6", "type": "electric_scooter", "lon": -76.97383266666667, "rental_uris": {"android": "https://dc.lft.to/lastmile_qr_scan", "ios": "https://dc.lft.to/lastmile_qr_scan"}, "lat": 38.88373566666667, "is_reserved": 0, "is_disabled": 0, "fusion_lat": 0.0}, {"fusion_lon": 0.0, "bike_id": "a8e14e039fd5c581863d8679d2a23450", "name": "a8e14e039fd5c581863d8679d2a23450", "type": "electric_scooter", "lon": -77.017656, "rental_uris": {"android": "https://dc.lft.to/lastmile_qr_scan", "ios": "https://dc.lft.to/lastmile_qr_scan"}, "lat": 38.921045666666664, "is_reserved": 0, "is_disabled": 0, "fusion_lat": 0.0}, {"fusion_lon": 0.0, "bike_id": "a0526f5e45f2e2eb1baa499fc04bdcc0", "name": "a0526f5e45f2e2eb1baa499fc04bdcc0", "type": "electric_scooter", "lon": -77.0406965, "rental_uris": {"android": "https://dc.lft.to/lastmile_qr_scan", "ios": "https://dc.lft.to/lastmile_qr_scan"}, "lat": 38.896137833333334, "is_reserved": 0, "is_disabled": 0, "fusion_lat": 0.0}, {"fusion_lon": 0.0, "bike_id": "d0f5e475bd5447c1d9af464042c38350", "name": "d0f5e475bd5447c1d9af464042c38350", "type": "electric_scooter", "lon": -77.03655666666667, "rental_uris": {"android": "https://dc.lft.to/lastmile_qr_scan", "ios": "https://dc.lft.to/lastmile_qr_scan"}, "lat": 38.92136566666667, "is_reserved": 0, "is_disabled": 0, "fusion_lat": 0.0}, {"fusion_lon": 0.0, "bike_id": "e1c0f571b9aa9547c32a52a8da48ddfd", "name": "e1c0f571b9aa9547c32a52a8da48ddfd", "type": "electric_scooter", "lon": -76.94896216666666, "rental_uris": {"android": "https://dc.lft.to/lastmile_qr_scan", "ios": "https://dc.lft.to/lastmile_qr_scan"}, "lat": 38.895297166666666, "is_reserved": 0, "is_disabled": 0, "fusion_lat": 0.0}, {"fusion_lon": 0.0, "bike_id": "27b17ca1952440fbc7bec6397a83fac5", "name": "27b17ca1952440fbc7bec6397a83fac5", "type": "electric_scooter", "lon": -77.06492966666667, "rental_uris": {"android": "https://dc.lft.to/lastmile_qr_scan", "ios": "https://dc.lft.to/lastmile_qr_scan"}, "lat": 38.964943833333336, "is_reserved": 0, "is_disabled": 0, "fusion_lat": 0.0}, {"fusion_lon": 0.0, "bike_id": "1bbee2c91860cb67efdf85673fe94e0a", "name": "1bbee2c91860cb67efdf85673fe94e0a", "type": "electric_scooter", "lon": -76.98618466666667, "rental_uris": {"android": "https://dc.lft.to/lastmile_qr_scan", "ios": "https://dc.lft.to/lastmile_qr_scan"}, "lat": 38.8546265, "is_reserved": 0, "is_disabled": 0, "fusion_lat": 0.0}, {"fusion_lon": 0.0, "bike_id": "217ed42174e4e5acf7694a8cf5d10688", "name": "217ed42174e4e5acf7694a8cf5d10688", "type": "electric_scooter", "lon": -77.04554516666667, "rental_uris": {"android": "https://dc.lft.to/lastmile_qr_scan", "ios": "https://dc.lft.to/lastmile_qr_scan"}, "lat": 38.92061866666667, "is_reserved": 0, "is_disabled": 0, "fusion_lat": 0.0}, {"fusion_lon": 0.0, "bike_id": "b6c6e9a866a062673ed444f4dfeefe1d", "name": "b6c6e9a866a062673ed444f4dfeefe1d", "type": "electric_scooter", "lon": -77.0071455, "rental_uris": {"android": "https://dc.lft.to/lastmile_qr_scan", "ios": "https://dc.lft.to/lastmile_qr_scan"}, "lat": 38.88487583333333, "is_reserved": 0, "is_disabled": 0, "fusion_lat": 0.0}, {"fusion_lon": 0.0, "bike_id": "8b125688001fb748f9ea663e76cbfec4", "name": "8b125688001fb748f9ea663e76cbfec4", "type": "electric_scooter", "lon": -77.04878683333334, "rental_uris": {"android": "https://dc.lft.to/lastmile_qr_scan", "ios": "https://dc.lft.to/lastmile_qr_scan"}, "lat": 38.903561, "is_reserved": 0, "is_disabled": 0, "fusion_lat": 0.0}, {"fusion_lon": 0.0, "bike_id": "b5d9e29a70dbacc00730b516643efe1a", "name": "b5d9e29a70dbacc00730b516643efe1a", "type": "electric_scooter", "lon": -77.015719, "rental_uris": {"android": "https://dc.lft.to/lastmile_qr_scan", "ios": "https://dc.lft.to/lastmile_qr_scan"}, "lat": 38.87263683333333, "is_reserved": 0, "is_disabled": 0, "fusion_lat": 0.0}, {"fusion_lon": 0.0, "bike_id": "b08e149aa17bce079a5ad9999228449e", "name": "b08e149aa17bce079a5ad9999228449e", "type": "electric_scooter", "lon": -76.97552683333333, "rental_uris": {"android": "https://dc.lft.to/lastmile_qr_scan", "ios": "https://dc.lft.to/lastmile_qr_scan"}, "lat": 38.902553, "is_reserved": 0, "is_disabled": 0, "fusion_lat": 0.0}, {"fusion_lon": 0.0, "bike_id": "f60b0cae422e71bc6aad6250f05004eb", "name": "f60b0cae422e71bc6aad6250f05004eb", "type": "electric_scooter", "lon": -77.03845466666667, "rental_uris": {"android": "https://dc.lft.to/lastmile_qr_scan", "ios": "https://dc.lft.to/lastmile_qr_scan"}, "lat": 38.9119475, "is_reserved": 0, "is_disabled": 0, "fusion_lat": 0.0}, {"fusion_lon": 0.0, "bike_id": "8c50f5d775ec293e1132fc17892556f5", "name": "8c50f5d775ec293e1132fc17892556f5", "type": "electric_bike", "lon": -77.0268965, "rental_uris": {"android": "https://dc.lft.to/lastmile_qr_scan", "ios": "https://dc.lft.to/lastmile_qr_scan"}, "lat": 38.937278166666665, "is_reserved": 0, "is_disabled": 0, "fusion_lat": 0.0}, {"fusion_lon": 0.0, "bike_id": "3567da17202979dd0b516c6fde8561ec", "name": "3567da17202979dd0b516c6fde8561ec", "type": "electric_scooter", "lon": -77.052677, "rental_uris": {"android": "https://dc.lft.to/lastmile_qr_scan", "ios": "https://dc.lft.to/lastmile_qr_scan"}, "lat": 38.925751166666664, "is_reserved": 0, "is_disabled": 0, "fusion_lat": 0.0}, {"fusion_lon": 0.0, "bike_id": "09a449c34db6ca303dd78a0ae0390b66", "name": "09a449c34db6ca303dd78a0ae0390b66", "type": "electric_scooter", "lon": -77.02390516666667, "rental_uris": {"android": "https://dc.lft.to/lastmile_qr_scan", "ios": "https://dc.lft.to/lastmile_qr_scan"}, "lat": 38.90748716666667, "is_reserved": 0, "is_disabled": 0, "fusion_lat": 0.0}, {"fusion_lon": 0.0, "bike_id": "a7e0c0cde225a85539adfc975e69c8be", "name": "a7e0c0cde225a85539adfc975e69c8be", "type": "electric_scooter", "lon": -77.02403116666666, "rental_uris": {"android": "https://dc.lft.to/lastmile_qr_scan", "ios": "https://dc.lft.to/lastmile_qr_scan"}, "lat": 38.93099133333333, "is_reserved": 0, "is_disabled": 0, "fusion_lat": 0.0}, {"fusion_lon": 0.0, "bike_id": "34f42fab8b21c019cfcc80acd7701a2e", "name": "34f42fab8b21c019cfcc80acd7701a2e", "type": "electric_scooter", "lon": -77.0015815, "rental_uris": {"android": "https://dc.lft.to/lastmile_qr_scan", "ios": "https://dc.lft.to/lastmile_qr_scan"}, "lat": 38.907390666666664, "is_reserved": 0, "is_disabled": 0, "fusion_lat": 0.0}, {"fusion_lon": 0.0, "bike_id": "13341dea8a5d6cd5fefdeca64786c51f", "name": "13341dea8a5d6cd5fefdeca64786c51f", "type": "electric_scooter", "lon": -77.04179383333333, "rental_uris": {"android": "https://dc.lft.to/lastmile_qr_scan", "ios": "https://dc.lft.to/lastmile_qr_scan"}, "lat": 38.90727716666667, "is_reserved": 0, "is_disabled": 0, "fusion_lat": 0.0}, {"fusion_lon": 0.0, "bike_id": "bd0adf5092d576ace999882717143efb", "name": "bd0adf5092d576ace999882717143efb", "type": "electric_bike", "lon": -77.03984966666667, "rental_uris": {"android": "https://dc.lft.to/lastmile_qr_scan", "ios": "https://dc.lft.to/lastmile_qr_scan"}, "lat": 38.802907, "is_reserved": 0, "is_disabled": 0, "fusion_lat": 0.0}, {"fusion_lon": 0.0, "bike_id": "aaba74bafb2cb91cc28dae33be684ecc", "name": "aaba74bafb2cb91cc28dae33be684ecc", "type": "electric_bike", "lon": -76.945698, "rental_uris": {"android": "https://dc.lft.to/lastmile_qr_scan", "ios": "https://dc.lft.to/lastmile_qr_scan"}, "lat": 38.8662325, "is_reserved": 0, "is_disabled": 0, "fusion_lat": 0.0}, {"fusion_lon": 0.0, "bike_id": "9d2ad941665769e5975f1c0dc709943e", "name": "9d2ad941665769e5975f1c0dc709943e", "type": "electric_scooter", "lon": -77.06889933333333, "rental_uris": {"android": "https://dc.lft.to/lastmile_qr_scan", "ios": "https://dc.lft.to/lastmile_qr_scan"}, "lat": 38.9051425, "is_reserved": 0, "is_disabled": 0, "fusion_lat": 0.0}, {"fusion_lon": 0.0, "bike_id": "2cba1f9388c6aeb58af9f725421fbb87", "name": "2cba1f9388c6aeb58af9f725421fbb87", "type": "electric_scooter", "lon": -77.03835116666667, "rental_uris": {"android": "https://dc.lft.to/lastmile_qr_scan", "ios": "https://dc.lft.to/lastmile_qr_scan"}, "lat": 38.91563983333333, "is_reserved": 0, "is_disabled": 0, "fusion_lat": 0.0}, {"fusion_lon": 0.0, "bike_id": "31eaf45a71022fa8faea71be41d545e6", "name": "31eaf45a71022fa8faea71be41d545e6", "type": "electric_scooter", "lon": -77.01760816666666, "rental_uris": {"android": "https://dc.lft.to/lastmile_qr_scan", "ios": "https://dc.lft.to/lastmile_qr_scan"}, "lat": 38.87719516666667, "is_reserved": 0, "is_disabled": 0, "fusion_lat": 0.0}, {"fusion_lon": 0.0, "bike_id": "f3125a1b0d944e47bf3d331910b99d83", "name": "f3125a1b0d944e47bf3d331910b99d83", "type": "electric_scooter", "lon": -77.00058833333334, "rental_uris": {"android": "https://dc.lft.to/lastmile_qr_scan", "ios": "https://dc.lft.to/lastmile_qr_scan"}, "lat": 38.8889985, "is_reserved": 0, "is_disabled": 0, "fusion_lat": 0.0}, {"fusion_lon": 0.0, "bike_id": "66a6a8f69b3e25ad8f08a6097246d2fd", "name": "66a6a8f69b3e25ad8f08a6097246d2fd", "type": "electric_scooter", "lon": -77.0621345, "rental_uris": {"android": "https://dc.lft.to/lastmile_qr_scan", "ios": "https://dc.lft.to/lastmile_qr_scan"}, "lat": 38.905256, "is_reserved": 0, "is_disabled": 0, "fusion_lat": 0.0}, {"fusion_lon": 0.0, "bike_id": "188419635bd32037ba451a9884b995d8", "name": "188419635bd32037ba451a9884b995d8", "type": "electric_scooter", "lon": -76.996777, "rental_uris": {"android": "https://dc.lft.to/lastmile_qr_scan", "ios": "https://dc.lft.to/lastmile_qr_scan"}, "lat": 38.8870035, "is_reserved": 0, "is_disabled": 0, "fusion_lat": 0.0}, {"fusion_lon": 0.0, "bike_id": "17cddec13c158300a0aadd47b7e3fa11", "name": "17cddec13c158300a0aadd47b7e3fa11", "type": "electric_bike", "lon": -77.02135033333333, "rental_uris": {"android": "https://dc.lft.to/lastmile_qr_scan", "ios": "https://dc.lft.to/lastmile_qr_scan"}, "lat": 38.90862033333333, "is_reserved": 0, "is_disabled": 0, "fusion_lat": 0.0}, {"fusion_lon": 0.0, "bike_id": "f135588e210d54b738a94a72f1421dfb", "name": "f135588e210d54b738a94a72f1421dfb", "type": "electric_scooter", "lon": -77.02609566666666, "rental_uris": {"android": "https://dc.lft.to/lastmile_qr_scan", "ios": "https://dc.lft.to/lastmile_qr_scan"}, "lat": 38.92439, "is_reserved": 0, "is_disabled": 0, "fusion_lat": 0.0}, {"fusion_lon": 0.0, "bike_id": "fafd0f85da4dca9477761ba6dfaf8f50", "name": "fafd0f85da4dca9477761ba6dfaf8f50", "type": "electric_scooter", "lon": -77.03102416666667, "rental_uris": {"android": "https://dc.lft.to/lastmile_qr_scan", "ios": "https://dc.lft.to/lastmile_qr_scan"}, "lat": 38.929664, "is_reserved": 0, "is_disabled": 0, "fusion_lat": 0.0}, {"fusion_lon": 0.0, "bike_id": "24cad20231651061b8cb22ff89d3a91e", "name": "24cad20231651061b8cb22ff89d3a91e", "type": "electric_scooter", "lon": -77.031955, "rental_uris": {"android": "https://dc.lft.to/lastmile_qr_scan", "ios": "https://dc.lft.to/lastmile_qr_scan"}, "lat": 38.91861933333333, "is_reserved": 0, "is_disabled": 0, "fusion_lat": 0.0}, {"fusion_lon": 0.0, "bike_id": "ccf2377aef22561784d07ab20394b31b", "name": "ccf2377aef22561784d07ab20394b31b", "type": "electric_scooter", "lon": -77.02634983333333, "rental_uris": {"android": "https://dc.lft.to/lastmile_qr_scan", "ios": "https://dc.lft.to/lastmile_qr_scan"}, "lat": 38.98059033333333, "is_reserved": 0, "is_disabled": 0, "fusion_lat": 0.0}, {"fusion_lon": 0.0, "bike_id": "2117f2d481536646270a16c0d7493643", "name": "2117f2d481536646270a16c0d7493643", "type": "electric_scooter", "lon": -76.96526066666667, "rental_uris": {"android": "https://dc.lft.to/lastmile_qr_scan", "ios": "https://dc.lft.to/lastmile_qr_scan"}, "lat": 38.87626616666667, "is_reserved": 0, "is_disabled": 0, "fusion_lat": 0.0}, {"fusion_lon": 0.0, "bike_id": "077600aa3bb8566cdf00c197b564ff1e", "name": "077600aa3bb8566cdf00c197b564ff1e", "type": "electric_scooter", "lon": -77.0179305, "rental_uris": {"android": "https://dc.lft.to/lastmile_qr_scan", "ios": "https://dc.lft.to/lastmile_qr_scan"}, "lat": 38.906398833333334, "is_reserved": 0, "is_disabled": 0, "fusion_lat": 0.0}, {"fusion_lon": 0.0, "bike_id": "23b6215d68c573dcc7abaa3284101c0f", "name": "23b6215d68c573dcc7abaa3284101c0f", "type": "electric_scooter", "lon": -77.03752183333333, "rental_uris": {"android": "https://dc.lft.to/lastmile_qr_scan", "ios": "https://dc.lft.to/lastmile_qr_scan"}, "lat": 38.929065666666666, "is_reserved": 0, "is_disabled": 0, "fusion_lat": 0.0}, {"fusion_lon": 0.0, "bike_id": "59627f908c2a102ff74782b01ed37065", "name": "59627f908c2a102ff74782b01ed37065", "type": "electric_scooter", "lon": -77.03126083333333, "rental_uris": {"android": "https://dc.lft.to/lastmile_qr_scan", "ios": "https://dc.lft.to/lastmile_qr_scan"}, "lat": 38.919195, "is_reserved": 0, "is_disabled": 0, "fusion_lat": 0.0}, {"fusion_lon": 0.0, "bike_id": "b6fce862654f205c0b2ec5c5d5cd6fae", "name": "b6fce862654f205c0b2ec5c5d5cd6fae", "type": "electric_scooter", "lon": -76.9652905, "rental_uris": {"android": "https://dc.lft.to/lastmile_qr_scan", "ios": "https://dc.lft.to/lastmile_qr_scan"}, "lat": 38.874804166666664, "is_reserved": 0, "is_disabled": 0, "fusion_lat": 0.0}, {"fusion_lon": 0.0, "bike_id": "5c822823b15e70d10720f7a6d1551cd6", "name": "5c822823b15e70d10720f7a6d1551cd6", "type": "electric_scooter", "lon": -77.03469716666666, "rental_uris": {"android": "https://dc.lft.to/lastmile_qr_scan", "ios": "https://dc.lft.to/lastmile_qr_scan"}, "lat": 38.91712966666667, "is_reserved": 0, "is_disabled": 0, "fusion_lat": 0.0}, {"fusion_lon": 0.0, "bike_id": "43854f4172442a6a5a1abb903263ce76", "name": "43854f4172442a6a5a1abb903263ce76", "type": "electric_scooter", "lon": -77.039355, "rental_uris": {"android": "https://dc.lft.to/lastmile_qr_scan", "ios": "https://dc.lft.to/lastmile_qr_scan"}, "lat": 38.9249255, "is_reserved": 0, "is_disabled": 0, "fusion_lat": 0.0}, {"fusion_lon": 0.0, "bike_id": "0ddbc222e73d073bafc10ffea4465538", "name": "0ddbc222e73d073bafc10ffea4465538", "type": "electric_scooter", "lon": -77.03833983333334, "rental_uris": {"android": "https://dc.lft.to/lastmile_qr_scan", "ios": "https://dc.lft.to/lastmile_qr_scan"}, "lat": 38.9111725, "is_reserved": 0, "is_disabled": 0, "fusion_lat": 0.0}, {"fusion_lon": 0.0, "bike_id": "a4adc46c44e1a61e0c27af7be46ff379", "name": "a4adc46c44e1a61e0c27af7be46ff379", "type": "electric_scooter", "lon": -77.01966716666666, "rental_uris": {"android": "https://dc.lft.to/lastmile_qr_scan", "ios": "https://dc.lft.to/lastmile_qr_scan"}, "lat": 38.93033533333333, "is_reserved": 0, "is_disabled": 0, "fusion_lat": 0.0}, {"fusion_lon": 0.0, "bike_id": "eb061104b4bd4ee70eaa79fc68834872", "name": "eb061104b4bd4ee70eaa79fc68834872", "type": "electric_scooter", "lon": -77.057932, "rental_uris": {"android": "https://dc.lft.to/lastmile_qr_scan", "ios": "https://dc.lft.to/lastmile_qr_scan"}, "lat": 38.93479716666667, "is_reserved": 0, "is_disabled": 0, "fusion_lat": 0.0}, {"fusion_lon": 0.0, "bike_id": "4558b6d0b05ee29f9a05200db36c9633", "name": "4558b6d0b05ee29f9a05200db36c9633", "type": "electric_bike", "lon": -76.9688315, "rental_uris": {"android": "https://dc.lft.to/lastmile_qr_scan", "ios": "https://dc.lft.to/lastmile_qr_scan"}, "lat": 38.845999666666664, "is_reserved": 0, "is_disabled": 0, "fusion_lat": 0.0}, {"fusion_lon": 0.0, "bike_id": "09ee373db14b411ef7993422c85c58a8", "name": "09ee373db14b411ef7993422c85c58a8", "type": "electric_scooter", "lon": -77.02288966666667, "rental_uris": {"android": "https://dc.lft.to/lastmile_qr_scan", "ios": "https://dc.lft.to/lastmile_qr_scan"}, "lat": 38.908190833333336, "is_reserved": 0, "is_disabled": 0, "fusion_lat": 0.0}, {"fusion_lon": 0.0, "bike_id": "188d181ccd172c53750cf3ee49ebea43", "name": "188d181ccd172c53750cf3ee49ebea43", "type": "electric_scooter", "lon": -77.06159883333333, "rental_uris": {"android": "https://dc.lft.to/lastmile_qr_scan", "ios": "https://dc.lft.to/lastmile_qr_scan"}, "lat": 38.94228716666667, "is_reserved": 0, "is_disabled": 0, "fusion_lat": 0.0}, {"fusion_lon": 0.0, "bike_id": "7a5aa2056818a5ade6295e1f116cf8a6", "name": "7a5aa2056818a5ade6295e1f116cf8a6", "type": "electric_bike", "lon": -77.127386, "rental_uris": {"android": "https://dc.lft.to/lastmile_qr_scan", "ios": "https://dc.lft.to/lastmile_qr_scan"}, "lat": 38.888201333333335, "is_reserved": 0, "is_disabled": 0, "fusion_lat": 0.0}, {"fusion_lon": 0.0, "bike_id": "523208630ffc80f41de5f131890a3664", "name": "523208630ffc80f41de5f131890a3664", "type": "electric_scooter", "lon": -76.98679616666666, "rental_uris": {"android": "https://dc.lft.to/lastmile_qr_scan", "ios": "https://dc.lft.to/lastmile_qr_scan"}, "lat": 38.85562733333333, "is_reserved": 0, "is_disabled": 0, "fusion_lat": 0.0}, {"fusion_lon": 0.0, "bike_id": "dc03ff3a3812b81f01c9880d15742c36", "name": "dc03ff3a3812b81f01c9880d15742c36", "type": "electric_scooter", "lon": -77.0209195, "rental_uris": {"android": "https://dc.lft.to/lastmile_qr_scan", "ios": "https://dc.lft.to/lastmile_qr_scan"}, "lat": 38.897289666666666, "is_reserved": 0, "is_disabled": 0, "fusion_lat": 0.0}, {"fusion_lon": 0.0, "bike_id": "9d7c4a6faa55ba9062757bc8e3091aed", "name": "9d7c4a6faa55ba9062757bc8e3091aed", "type": "electric_scooter", "lon": -77.01259833333333, "rental_uris": {"android": "https://dc.lft.to/lastmile_qr_scan", "ios": "https://dc.lft.to/lastmile_qr_scan"}, "lat": 38.874817, "is_reserved": 0, "is_disabled": 0, "fusion_lat": 0.0}, {"fusion_lon": 0.0, "bike_id": "7aae2fab6eba40256e3623ea68837b29", "name": "7aae2fab6eba40256e3623ea68837b29", "type": "electric_scooter", "lon": -77.01488616666667, "rental_uris": {"android": "https://dc.lft.to/lastmile_qr_scan", "ios": "https://dc.lft.to/lastmile_qr_scan"}, "lat": 38.88481383333333, "is_reserved": 0, "is_disabled": 0, "fusion_lat": 0.0}, {"fusion_lon": 0.0, "bike_id": "797d2ba135c2fa8bda99aeb4cf02c883", "name": "797d2ba135c2fa8bda99aeb4cf02c883", "type": "electric_scooter", "lon": -77.0074225, "rental_uris": {"android": "https://dc.lft.to/lastmile_qr_scan", "ios": "https://dc.lft.to/lastmile_qr_scan"}, "lat": 38.90048633333333, "is_reserved": 0, "is_disabled": 0, "fusion_lat": 0.0}, {"fusion_lon": 0.0, "bike_id": "41b0945060948d832c147f3762db8880", "name": "41b0945060948d832c147f3762db8880", "type": "electric_scooter", "lon": -76.98772883333334, "rental_uris": {"android": "https://dc.lft.to/lastmile_qr_scan", "ios": "https://dc.lft.to/lastmile_qr_scan"}, "lat": 38.911997666666664, "is_reserved": 0, "is_disabled": 0, "fusion_lat": 0.0}, {"fusion_lon": 0.0, "bike_id": "fad41262c3570e98097882ae25135bd0", "name": "fad41262c3570e98097882ae25135bd0", "type": "electric_scooter", "lon": -77.027217, "rental_uris": {"android": "https://dc.lft.to/lastmile_qr_scan", "ios": "https://dc.lft.to/lastmile_qr_scan"}, "lat": 38.92481466666667, "is_reserved": 0, "is_disabled": 0, "fusion_lat": 0.0}, {"fusion_lon": 0.0, "bike_id": "48c1a19553f10cdeaabbfe4c2d4444d9", "name": "48c1a19553f10cdeaabbfe4c2d4444d9", "type": "electric_scooter", "lon": -77.02460533333333, "rental_uris": {"android": "https://dc.lft.to/lastmile_qr_scan", "ios": "https://dc.lft.to/lastmile_qr_scan"}, "lat": 38.90314433333333, "is_reserved": 0, "is_disabled": 0, "fusion_lat": 0.0}, {"fusion_lon": 0.0, "bike_id": "7b3c96998f76152b1ecf5f369e856618", "name": "7b3c96998f76152b1ecf5f369e856618", "type": "electric_scooter", "lon": -76.94124916666667, "rental_uris": {"android": "https://dc.lft.to/lastmile_qr_scan", "ios": "https://dc.lft.to/lastmile_qr_scan"}, "lat": 38.90789316666667, "is_reserved": 0, "is_disabled": 0, "fusion_lat": 0.0}, {"fusion_lon": 0.0, "bike_id": "eb1f9f4d5dd816dce073fb94353d6f66", "name": "eb1f9f4d5dd816dce073fb94353d6f66", "type": "electric_scooter", "lon": -77.00484716666666, "rental_uris": {"android": "https://dc.lft.to/lastmile_qr_scan", "ios": "https://dc.lft.to/lastmile_qr_scan"}, "lat": 38.92593083333333, "is_reserved": 0, "is_disabled": 0, "fusion_lat": 0.0}, {"fusion_lon": 0.0, "bike_id": "4d604bf6f6fef8914d7f9910a4ad78b1", "name": "4d604bf6f6fef8914d7f9910a4ad78b1", "type": "electric_scooter", "lon": -77.03865166666667, "rental_uris": {"android": "https://dc.lft.to/lastmile_qr_scan", "ios": "https://dc.lft.to/lastmile_qr_scan"}, "lat": 38.915560666666664, "is_reserved": 0, "is_disabled": 0, "fusion_lat": 0.0}, {"fusion_lon": 0.0, "bike_id": "1a21f1ef6df164295b691ede5f62c5aa", "name": "1a21f1ef6df164295b691ede5f62c5aa", "type": "electric_scooter", "lon": -77.072302, "rental_uris": {"android": "https://dc.lft.to/lastmile_qr_scan", "ios": "https://dc.lft.to/lastmile_qr_scan"}, "lat": 38.934619166666664, "is_reserved": 0, "is_disabled": 0, "fusion_lat": 0.0}, {"fusion_lon": 0.0, "bike_id": "9b0d19042ee766d01c8b4a7da79fe946", "name": "9b0d19042ee766d01c8b4a7da79fe946", "type": "electric_bike", "lon": -76.9655855, "rental_uris": {"android": "https://dc.lft.to/lastmile_qr_scan", "ios": "https://dc.lft.to/lastmile_qr_scan"}, "lat": 38.950846166666665, "is_reserved": 0, "is_disabled": 0, "fusion_lat": 0.0}, {"fusion_lon": 0.0, "bike_id": "49742f8562d6b49952327b3da74d5203", "name": "49742f8562d6b49952327b3da74d5203", "type": "electric_scooter", "lon": -77.046134, "rental_uris": {"android": "https://dc.lft.to/lastmile_qr_scan", "ios": "https://dc.lft.to/lastmile_qr_scan"}, "lat": 38.91688633333333, "is_reserved": 0, "is_disabled": 0, "fusion_lat": 0.0}, {"fusion_lon": 0.0, "bike_id": "c5d756ac050ed7a8004b1f1aa0e15a12", "name": "c5d756ac050ed7a8004b1f1aa0e15a12", "type": "electric_scooter", "lon": -77.02293983333334, "rental_uris": {"android": "https://dc.lft.to/lastmile_qr_scan", "ios": "https://dc.lft.to/lastmile_qr_scan"}, "lat": 38.917199333333336, "is_reserved": 0, "is_disabled": 0, "fusion_lat": 0.0}, {"fusion_lon": 0.0, "bike_id": "c86ededaa56bb1925bbaf308fea40227", "name": "c86ededaa56bb1925bbaf308fea40227", "type": "electric_scooter", "lon": -77.04386616666666, "rental_uris": {"android": "https://dc.lft.to/lastmile_qr_scan", "ios": "https://dc.lft.to/lastmile_qr_scan"}, "lat": 38.910857666666665, "is_reserved": 0, "is_disabled": 0, "fusion_lat": 0.0}, {"fusion_lon": 0.0, "bike_id": "25fb981844af87ddd8bfb68e3fa43731", "name": "25fb981844af87ddd8bfb68e3fa43731", "type": "electric_scooter", "lon": -77.048942, "rental_uris": {"android": "https://dc.lft.to/lastmile_qr_scan", "ios": "https://dc.lft.to/lastmile_qr_scan"}, "lat": 38.892276, "is_reserved": 0, "is_disabled": 0, "fusion_lat": 0.0}, {"fusion_lon": 0.0, "bike_id": "20ab875c11575fe42583c5da2fb53bf9", "name": "20ab875c11575fe42583c5da2fb53bf9", "type": "electric_scooter", "lon": -77.04098566666667, "rental_uris": {"android": "https://dc.lft.to/lastmile_qr_scan", "ios": "https://dc.lft.to/lastmile_qr_scan"}, "lat": 38.907843666666665, "is_reserved": 0, "is_disabled": 0, "fusion_lat": 0.0}, {"fusion_lon": 0.0, "bike_id": "f3ade65ca210fb41d369b35923097ac2", "name": "f3ade65ca210fb41d369b35923097ac2", "type": "electric_scooter", "lon": -77.0335055, "rental_uris": {"android": "https://dc.lft.to/lastmile_qr_scan", "ios": "https://dc.lft.to/lastmile_qr_scan"}, "lat": 38.90028616666667, "is_reserved": 0, "is_disabled": 0, "fusion_lat": 0.0}, {"fusion_lon": 0.0, "bike_id": "082763d30f68f0dd36e4ec22e1d6dd56", "name": "082763d30f68f0dd36e4ec22e1d6dd56", "type": "electric_scooter", "lon": -77.00738483333333, "rental_uris": {"android": "https://dc.lft.to/lastmile_qr_scan", "ios": "https://dc.lft.to/lastmile_qr_scan"}, "lat": 38.911924166666665, "is_reserved": 0, "is_disabled": 0, "fusion_lat": 0.0}, {"fusion_lon": 0.0, "bike_id": "c56209287dfd0c3d595b8367220b574b", "name": "c56209287dfd0c3d595b8367220b574b", "type": "electric_scooter", "lon": -76.9845995, "rental_uris": {"android": "https://dc.lft.to/lastmile_qr_scan", "ios": "https://dc.lft.to/lastmile_qr_scan"}, "lat": 38.880083166666665, "is_reserved": 0, "is_disabled": 0, "fusion_lat": 0.0}, {"fusion_lon": 0.0, "bike_id": "9ad6458038ea707b6a3b53a25ff8175b", "name": "9ad6458038ea707b6a3b53a25ff8175b", "type": "electric_bike", "lon": -77.00858883333333, "rental_uris": {"android": "https://dc.lft.to/lastmile_qr_scan", "ios": "https://dc.lft.to/lastmile_qr_scan"}, "lat": 38.827292, "is_reserved": 0, "is_disabled": 0, "fusion_lat": 0.0}, {"fusion_lon": 0.0, "bike_id": "6768e66d3dde8a34f6419e0144799596", "name": "6768e66d3dde8a34f6419e0144799596", "type": "electric_scooter", "lon": -77.03464433333333, "rental_uris": {"android": "https://dc.lft.to/lastmile_qr_scan", "ios": "https://dc.lft.to/lastmile_qr_scan"}, "lat": 38.90786333333333, "is_reserved": 0, "is_disabled": 0, "fusion_lat": 0.0}, {"fusion_lon": 0.0, "bike_id": "22f12b252b4f658e14442d65c4528f3c", "name": "22f12b252b4f658e14442d65c4528f3c", "type": "electric_scooter", "lon": -77.02491616666667, "rental_uris": {"android": "https://dc.lft.to/lastmile_qr_scan", "ios": "https://dc.lft.to/lastmile_qr_scan"}, "lat": 38.91749633333333, "is_reserved": 0, "is_disabled": 0, "fusion_lat": 0.0}, {"fusion_lon": 0.0, "bike_id": "099efc9744a23e4c2410a0282c363d02", "name": "099efc9744a23e4c2410a0282c363d02", "type": "electric_scooter", "lon": -76.99078383333334, "rental_uris": {"android": "https://dc.lft.to/lastmile_qr_scan", "ios": "https://dc.lft.to/lastmile_qr_scan"}, "lat": 38.904205166666664, "is_reserved": 0, "is_disabled": 0, "fusion_lat": 0.0}, {"fusion_lon": 0.0, "bike_id": "083531343eef489509950f5252f46eb0", "name": "083531343eef489509950f5252f46eb0", "type": "electric_scooter", "lon": -77.00932966666667, "rental_uris": {"android": "https://dc.lft.to/lastmile_qr_scan", "ios": "https://dc.lft.to/lastmile_qr_scan"}, "lat": 38.87196433333333, "is_reserved": 0, "is_disabled": 0, "fusion_lat": 0.0}, {"fusion_lon": 0.0, "bike_id": "71328932ad8be054da94a2f352f14b9c", "name": "71328932ad8be054da94a2f352f14b9c", "type": "electric_scooter", "lon": -77.04168883333334, "rental_uris": {"android": "https://dc.lft.to/lastmile_qr_scan", "ios": "https://dc.lft.to/lastmile_qr_scan"}, "lat": 38.91620966666667, "is_reserved": 0, "is_disabled": 0, "fusion_lat": 0.0}, {"fusion_lon": 0.0, "bike_id": "038cbdf7676a91308d7b0fad961b6294", "name": "038cbdf7676a91308d7b0fad961b6294", "type": "electric_scooter", "lon": -76.99380766666667, "rental_uris": {"android": "https://dc.lft.to/lastmile_qr_scan", "ios": "https://dc.lft.to/lastmile_qr_scan"}, "lat": 38.92397033333334, "is_reserved": 0, "is_disabled": 0, "fusion_lat": 0.0}, {"fusion_lon": 0.0, "bike_id": "e28bcc586ffc98a8641ba6469444790b", "name": "e28bcc586ffc98a8641ba6469444790b", "type": "electric_scooter", "lon": -77.025137, "rental_uris": {"android": "https://dc.lft.to/lastmile_qr_scan", "ios": "https://dc.lft.to/lastmile_qr_scan"}, "lat": 38.901070833333335, "is_reserved": 0, "is_disabled": 0, "fusion_lat": 0.0}, {"fusion_lon": 0.0, "bike_id": "e85022bb23fe6d973f9ccc2b65ed912f", "name": "e85022bb23fe6d973f9ccc2b65ed912f", "type": "electric_scooter", "lon": -76.9856455, "rental_uris": {"android": "https://dc.lft.to/lastmile_qr_scan", "ios": "https://dc.lft.to/lastmile_qr_scan"}, "lat": 38.855845333333335, "is_reserved": 0, "is_disabled": 0, "fusion_lat": 0.0}, {"fusion_lon": 0.0, "bike_id": "a74e5d25ae67849a0d634bc2a35ef3c3", "name": "a74e5d25ae67849a0d634bc2a35ef3c3", "type": "electric_scooter", "lon": -77.05406866666667, "rental_uris": {"android": "https://dc.lft.to/lastmile_qr_scan", "ios": "https://dc.lft.to/lastmile_qr_scan"}, "lat": 38.868918, "is_reserved": 0, "is_disabled": 0, "fusion_lat": 0.0}, {"fusion_lon": 0.0, "bike_id": "4bab254a168d1c66c1080e3159d68230", "name": "4bab254a168d1c66c1080e3159d68230", "type": "electric_scooter", "lon": -77.03182566666666, "rental_uris": {"android": "https://dc.lft.to/lastmile_qr_scan", "ios": "https://dc.lft.to/lastmile_qr_scan"}, "lat": 38.91927916666667, "is_reserved": 0, "is_disabled": 0, "fusion_lat": 0.0}, {"fusion_lon": 0.0, "bike_id": "819f83e118be3bf3aeeefe9aeedc5afc", "name": "819f83e118be3bf3aeeefe9aeedc5afc", "type": "electric_scooter", "lon": -77.0384775, "rental_uris": {"android": "https://dc.lft.to/lastmile_qr_scan", "ios": "https://dc.lft.to/lastmile_qr_scan"}, "lat": 38.91172816666667, "is_reserved": 0, "is_disabled": 0, "fusion_lat": 0.0}, {"fusion_lon": 0.0, "bike_id": "30ad40c3558a2fcb99c65f3b1f251766", "name": "30ad40c3558a2fcb99c65f3b1f251766", "type": "electric_scooter", "lon": -77.03192183333333, "rental_uris": {"android": "https://dc.lft.to/lastmile_qr_scan", "ios": "https://dc.lft.to/lastmile_qr_scan"}, "lat": 38.907880166666665, "is_reserved": 0, "is_disabled": 0, "fusion_lat": 0.0}, {"fusion_lon": 0.0, "bike_id": "953946788c1f08cd828974d45f008e17", "name": "953946788c1f08cd828974d45f008e17", "type": "electric_scooter", "lon": -77.05014833333334, "rental_uris": {"android": "https://dc.lft.to/lastmile_qr_scan", "ios": "https://dc.lft.to/lastmile_qr_scan"}, "lat": 38.905354833333334, "is_reserved": 0, "is_disabled": 0, "fusion_lat": 0.0}, {"fusion_lon": 0.0, "bike_id": "e5abb696da87ec2f722d2744d61cb1d4", "name": "e5abb696da87ec2f722d2744d61cb1d4", "type": "electric_bike", "lon": -77.0107595, "rental_uris": {"android": "https://dc.lft.to/lastmile_qr_scan", "ios": "https://dc.lft.to/lastmile_qr_scan"}, "lat": 38.962959166666664, "is_reserved": 0, "is_disabled": 0, "fusion_lat": 0.0}, {"fusion_lon": 0.0, "bike_id": "74d0d762325198d86efffc98bfe67811", "name": "74d0d762325198d86efffc98bfe67811", "type": "electric_scooter", "lon": -77.04174116666667, "rental_uris": {"android": "https://dc.lft.to/lastmile_qr_scan", "ios": "https://dc.lft.to/lastmile_qr_scan"}, "lat": 38.920049, "is_reserved": 0, "is_disabled": 0, "fusion_lat": 0.0}, {"fusion_lon": 0.0, "bike_id": "7751b2b39dc54ae0bdc017b7a7920287", "name": "7751b2b39dc54ae0bdc017b7a7920287", "type": "electric_scooter", "lon": -77.02354833333334, "rental_uris": {"android": "https://dc.lft.to/lastmile_qr_scan", "ios": "https://dc.lft.to/lastmile_qr_scan"}, "lat": 38.93529, "is_reserved": 0, "is_disabled": 0, "fusion_lat": 0.0}, {"fusion_lon": 0.0, "bike_id": "e4fc240041e50b3b0bd01b91b84644c1", "name": "e4fc240041e50b3b0bd01b91b84644c1", "type": "electric_scooter", "lon": -77.03114883333333, "rental_uris": {"android": "https://dc.lft.to/lastmile_qr_scan", "ios": "https://dc.lft.to/lastmile_qr_scan"}, "lat": 38.92017716666667, "is_reserved": 0, "is_disabled": 0, "fusion_lat": 0.0}, {"fusion_lon": 0.0, "bike_id": "d76188212b4d5a941b037df293376504", "name": "d76188212b4d5a941b037df293376504", "type": "electric_scooter", "lon": -77.034315, "rental_uris": {"android": "https://dc.lft.to/lastmile_qr_scan", "ios": "https://dc.lft.to/lastmile_qr_scan"}, "lat": 38.90731866666667, "is_reserved": 0, "is_disabled": 0, "fusion_lat": 0.0}, {"fusion_lon": 0.0, "bike_id": "f8245b24c2ac4334a1b218acd074df32", "name": "f8245b24c2ac4334a1b218acd074df32", "type": "electric_scooter", "lon": -77.01997566666667, "rental_uris": {"android": "https://dc.lft.to/lastmile_qr_scan", "ios": "https://dc.lft.to/lastmile_qr_scan"}, "lat": 38.966291166666664, "is_reserved": 0, "is_disabled": 0, "fusion_lat": 0.0}, {"fusion_lon": 0.0, "bike_id": "7e39ef468aab2439d1e55d20bfbce605", "name": "7e39ef468aab2439d1e55d20bfbce605", "type": "electric_scooter", "lon": -77.04574383333333, "rental_uris": {"android": "https://dc.lft.to/lastmile_qr_scan", "ios": "https://dc.lft.to/lastmile_qr_scan"}, "lat": 38.9241535, "is_reserved": 0, "is_disabled": 0, "fusion_lat": 0.0}, {"fusion_lon": 0.0, "bike_id": "b540e820701d8c48d1c93e8a6fd43d04", "name": "b540e820701d8c48d1c93e8a6fd43d04", "type": "electric_scooter", "lon": -77.02803566666667, "rental_uris": {"android": "https://dc.lft.to/lastmile_qr_scan", "ios": "https://dc.lft.to/lastmile_qr_scan"}, "lat": 38.916803333333334, "is_reserved": 0, "is_disabled": 0, "fusion_lat": 0.0}, {"fusion_lon": 0.0, "bike_id": "cb18549410245c3b7db4b3c06c847e7a", "name": "cb18549410245c3b7db4b3c06c847e7a", "type": "electric_scooter", "lon": -77.03866833333333, "rental_uris": {"android": "https://dc.lft.to/lastmile_qr_scan", "ios": "https://dc.lft.to/lastmile_qr_scan"}, "lat": 38.91549633333333, "is_reserved": 0, "is_disabled": 0, "fusion_lat": 0.0}, {"fusion_lon": 0.0, "bike_id": "b1623e7f1e54e608c5e94c7733582f13", "name": "b1623e7f1e54e608c5e94c7733582f13", "type": "electric_scooter", "lon": -77.014456, "rental_uris": {"android": "https://dc.lft.to/lastmile_qr_scan", "ios": "https://dc.lft.to/lastmile_qr_scan"}, "lat": 38.9131345, "is_reserved": 0, "is_disabled": 0, "fusion_lat": 0.0}, {"fusion_lon": 0.0, "bike_id": "244eb4f0004ff83fe92ee2dd4aee413b", "name": "244eb4f0004ff83fe92ee2dd4aee413b", "type": "electric_scooter", "lon": -77.03268683333333, "rental_uris": {"android": "https://dc.lft.to/lastmile_qr_scan", "ios": "https://dc.lft.to/lastmile_qr_scan"}, "lat": 38.932610333333336, "is_reserved": 0, "is_disabled": 0, "fusion_lat": 0.0}, {"fusion_lon": 0.0, "bike_id": "9c1cfe1cf796518711e5e04fbafdeb21", "name": "9c1cfe1cf796518711e5e04fbafdeb21", "type": "electric_bike", "lon": -76.98003266666667, "rental_uris": {"android": "https://dc.lft.to/lastmile_qr_scan", "ios": "https://dc.lft.to/lastmile_qr_scan"}, "lat": 38.853204166666664, "is_reserved": 0, "is_disabled": 0, "fusion_lat": 0.0}, {"fusion_lon": 0.0, "bike_id": "1cadbeb82165816b11efca6e3e3e5342", "name": "1cadbeb82165816b11efca6e3e3e5342", "type": "electric_scooter", "lon": -77.028102, "rental_uris": {"android": "https://dc.lft.to/lastmile_qr_scan", "ios": "https://dc.lft.to/lastmile_qr_scan"}, "lat": 38.90625466666667, "is_reserved": 0, "is_disabled": 0, "fusion_lat": 0.0}, {"fusion_lon": 0.0, "bike_id": "dd63924778ea82b73d285c02bafd4057", "name": "dd63924778ea82b73d285c02bafd4057", "type": "electric_bike", "lon": -77.0265195, "rental_uris": {"android": "https://dc.lft.to/lastmile_qr_scan", "ios": "https://dc.lft.to/lastmile_qr_scan"}, "lat": 38.988057833333336, "is_reserved": 0, "is_disabled": 0, "fusion_lat": 0.0}, {"fusion_lon": 0.0, "bike_id": "ae7deef43739a20e4f0252d7e736eabc", "name": "ae7deef43739a20e4f0252d7e736eabc", "type": "electric_scooter", "lon": -77.01588583333333, "rental_uris": {"android": "https://dc.lft.to/lastmile_qr_scan", "ios": "https://dc.lft.to/lastmile_qr_scan"}, "lat": 38.90112083333333, "is_reserved": 0, "is_disabled": 0, "fusion_lat": 0.0}, {"fusion_lon": 0.0, "bike_id": "16f57d4550866a7ba9b34186a029c4cd", "name": "16f57d4550866a7ba9b34186a029c4cd", "type": "electric_scooter", "lon": -77.039333, "rental_uris": {"android": "https://dc.lft.to/lastmile_qr_scan", "ios": "https://dc.lft.to/lastmile_qr_scan"}, "lat": 38.92492, "is_reserved": 0, "is_disabled": 0, "fusion_lat": 0.0}, {"fusion_lon": 0.0, "bike_id": "8e9ffbdbe4cfe4767630c3e04c107230", "name": "8e9ffbdbe4cfe4767630c3e04c107230", "type": "electric_bike", "lon": -77.1317815, "rental_uris": {"android": "https://dc.lft.to/lastmile_qr_scan", "ios": "https://dc.lft.to/lastmile_qr_scan"}, "lat": 38.8690975, "is_reserved": 0, "is_disabled": 0, "fusion_lat": 0.0}, {"fusion_lon": 0.0, "bike_id": "56b640c7ea39339fe1678df6ec7b3bc5", "name": "56b640c7ea39339fe1678df6ec7b3bc5", "type": "electric_scooter", "lon": -77.03767716666667, "rental_uris": {"android": "https://dc.lft.to/lastmile_qr_scan", "ios": "https://dc.lft.to/lastmile_qr_scan"}, "lat": 38.924648833333336, "is_reserved": 0, "is_disabled": 0, "fusion_lat": 0.0}, {"fusion_lon": 0.0, "bike_id": "56fcaa33f19b3c929b39bc8f878e4ab4", "name": "56fcaa33f19b3c929b39bc8f878e4ab4", "type": "electric_scooter", "lon": -77.01763416666667, "rental_uris": {"android": "https://dc.lft.to/lastmile_qr_scan", "ios": "https://dc.lft.to/lastmile_qr_scan"}, "lat": 38.902599333333335, "is_reserved": 0, "is_disabled": 0, "fusion_lat": 0.0}, {"fusion_lon": 0.0, "bike_id": "021ea60a312be73e69104e14dccc0d88", "name": "021ea60a312be73e69104e14dccc0d88", "type": "electric_scooter", "lon": -77.0328115, "rental_uris": {"android": "https://dc.lft.to/lastmile_qr_scan", "ios": "https://dc.lft.to/lastmile_qr_scan"}, "lat": 38.938765333333336, "is_reserved": 0, "is_disabled": 0, "fusion_lat": 0.0}, {"fusion_lon": 0.0, "bike_id": "ecfae0c0a7b317ac66b9fc6014aa652f", "name": "ecfae0c0a7b317ac66b9fc6014aa652f", "type": "electric_scooter", "lon": -77.03067583333333, "rental_uris": {"android": "https://dc.lft.to/lastmile_qr_scan", "ios": "https://dc.lft.to/lastmile_qr_scan"}, "lat": 38.88044283333333, "is_reserved": 0, "is_disabled": 0, "fusion_lat": 0.0}, {"fusion_lon": 0.0, "bike_id": "17f7d1f2c96903b9075c8e72c2ff2b55", "name": "17f7d1f2c96903b9075c8e72c2ff2b55", "type": "electric_scooter", "lon": -77.03382866666666, "rental_uris": {"android": "https://dc.lft.to/lastmile_qr_scan", "ios": "https://dc.lft.to/lastmile_qr_scan"}, "lat": 38.92538116666667, "is_reserved": 0, "is_disabled": 0, "fusion_lat": 0.0}, {"fusion_lon": 0.0, "bike_id": "f15a36881b069d2ad82159952a853a12", "name": "f15a36881b069d2ad82159952a853a12", "type": "electric_bike", "lon": -77.019264, "rental_uris": {"android": "https://dc.lft.to/lastmile_qr_scan", "ios": "https://dc.lft.to/lastmile_qr_scan"}, "lat": 38.8831115, "is_reserved": 0, "is_disabled": 0, "fusion_lat": 0.0}, {"fusion_lon": 0.0, "bike_id": "a23e507e0697f62539606fb417cd5376", "name": "a23e507e0697f62539606fb417cd5376", "type": "electric_scooter", "lon": -76.98476266666667, "rental_uris": {"android": "https://dc.lft.to/lastmile_qr_scan", "ios": "https://dc.lft.to/lastmile_qr_scan"}, "lat": 38.92895716666666, "is_reserved": 0, "is_disabled": 0, "fusion_lat": 0.0}, {"fusion_lon": 0.0, "bike_id": "c18b52884b3b5580b88936c0e0820ba7", "name": "c18b52884b3b5580b88936c0e0820ba7", "type": "electric_scooter", "lon": -77.02487266666667, "rental_uris": {"android": "https://dc.lft.to/lastmile_qr_scan", "ios": "https://dc.lft.to/lastmile_qr_scan"}, "lat": 38.90407583333333, "is_reserved": 0, "is_disabled": 0, "fusion_lat": 0.0}, {"fusion_lon": 0.0, "bike_id": "e7e75656731985f39ad145a13ba3a0ff", "name": "e7e75656731985f39ad145a13ba3a0ff", "type": "electric_scooter", "lon": -77.01190666666666, "rental_uris": {"android": "https://dc.lft.to/lastmile_qr_scan", "ios": "https://dc.lft.to/lastmile_qr_scan"}, "lat": 38.8714765, "is_reserved": 0, "is_disabled": 0, "fusion_lat": 0.0}, {"fusion_lon": 0.0, "bike_id": "d1d966672898546fb0e880f0b09c3815", "name": "d1d966672898546fb0e880f0b09c3815", "type": "electric_scooter", "lon": -77.02962183333334, "rental_uris": {"android": "https://dc.lft.to/lastmile_qr_scan", "ios": "https://dc.lft.to/lastmile_qr_scan"}, "lat": 38.922697166666666, "is_reserved": 0, "is_disabled": 0, "fusion_lat": 0.0}, {"fusion_lon": 0.0, "bike_id": "503ed621d5565c535e25ae5f89a371e9", "name": "503ed621d5565c535e25ae5f89a371e9", "type": "electric_scooter", "lon": -76.92954666666667, "rental_uris": {"android": "https://dc.lft.to/lastmile_qr_scan", "ios": "https://dc.lft.to/lastmile_qr_scan"}, "lat": 38.898804, "is_reserved": 0, "is_disabled": 0, "fusion_lat": 0.0}, {"fusion_lon": 0.0, "bike_id": "6aca597e05dc2cd1981bd6f64b8ee993", "name": "6aca597e05dc2cd1981bd6f64b8ee993", "type": "electric_scooter", "lon": -77.0386805, "rental_uris": {"android": "https://dc.lft.to/lastmile_qr_scan", "ios": "https://dc.lft.to/lastmile_qr_scan"}, "lat": 38.919844499999996, "is_reserved": 0, "is_disabled": 0, "fusion_lat": 0.0}, {"fusion_lon": 0.0, "bike_id": "4ba6953fa55b2ae39e85d262b7def7c3", "name": "4ba6953fa55b2ae39e85d262b7def7c3", "type": "electric_scooter", "lon": -77.04683566666667, "rental_uris": {"android": "https://dc.lft.to/lastmile_qr_scan", "ios": "https://dc.lft.to/lastmile_qr_scan"}, "lat": 38.9032185, "is_reserved": 0, "is_disabled": 0, "fusion_lat": 0.0}, {"fusion_lon": 0.0, "bike_id": "0fd640221518b829686becfd0d354395", "name": "0fd640221518b829686becfd0d354395", "type": "electric_scooter", "lon": -77.04180233333334, "rental_uris": {"android": "https://dc.lft.to/lastmile_qr_scan", "ios": "https://dc.lft.to/lastmile_qr_scan"}, "lat": 38.91574383333333, "is_reserved": 0, "is_disabled": 0, "fusion_lat": 0.0}, {"fusion_lon": 0.0, "bike_id": "f44bb8059de5e101b460003a63f5c461", "name": "f44bb8059de5e101b460003a63f5c461", "type": "electric_scooter", "lon": -76.99157433333333, "rental_uris": {"android": "https://dc.lft.to/lastmile_qr_scan", "ios": "https://dc.lft.to/lastmile_qr_scan"}, "lat": 38.879112, "is_reserved": 0, "is_disabled": 0, "fusion_lat": 0.0}, {"fusion_lon": 0.0, "bike_id": "2c2ac82fbb3d82130b85cae0c6542a89", "name": "2c2ac82fbb3d82130b85cae0c6542a89", "type": "electric_scooter", "lon": -77.0341795, "rental_uris": {"android": "https://dc.lft.to/lastmile_qr_scan", "ios": "https://dc.lft.to/lastmile_qr_scan"}, "lat": 38.92941, "is_reserved": 0, "is_disabled": 0, "fusion_lat": 0.0}, {"fusion_lon": 0.0, "bike_id": "03b31b74b1be9caac1cd61150845c317", "name": "03b31b74b1be9caac1cd61150845c317", "type": "electric_bike", "lon": -77.00578533333334, "rental_uris": {"android": "https://dc.lft.to/lastmile_qr_scan", "ios": "https://dc.lft.to/lastmile_qr_scan"}, "lat": 38.88611866666667, "is_reserved": 0, "is_disabled": 0, "fusion_lat": 0.0}, {"fusion_lon": 0.0, "bike_id": "e144a0f5dd49d7e6e66058ac36689548", "name": "e144a0f5dd49d7e6e66058ac36689548", "type": "electric_scooter", "lon": -77.02767266666666, "rental_uris": {"android": "https://dc.lft.to/lastmile_qr_scan", "ios": "https://dc.lft.to/lastmile_qr_scan"}, "lat": 38.881449833333335, "is_reserved": 0, "is_disabled": 0, "fusion_lat": 0.0}, {"fusion_lon": 0.0, "bike_id": "01feb9e5f37ad39fb25d8f8b27cdc634", "name": "01feb9e5f37ad39fb25d8f8b27cdc634", "type": "electric_bike", "lon": -76.9976235, "rental_uris": {"android": "https://dc.lft.to/lastmile_qr_scan", "ios": "https://dc.lft.to/lastmile_qr_scan"}, "lat": 39.00594133333333, "is_reserved": 0, "is_disabled": 0, "fusion_lat": 0.0}, {"fusion_lon": 0.0, "bike_id": "aa3dc36f883e80ab6a5db7667ee8ff69", "name": "aa3dc36f883e80ab6a5db7667ee8ff69", "type": "electric_scooter", "lon": -77.02378316666666, "rental_uris": {"android": "https://dc.lft.to/lastmile_qr_scan", "ios": "https://dc.lft.to/lastmile_qr_scan"}, "lat": 38.90729833333333, "is_reserved": 0, "is_disabled": 0, "fusion_lat": 0.0}, {"fusion_lon": 0.0, "bike_id": "80bda3a4dada5b7fdc6d9ccba5926b28", "name": "80bda3a4dada5b7fdc6d9ccba5926b28", "type": "electric_scooter", "lon": -77.0289955, "rental_uris": {"android": "https://dc.lft.to/lastmile_qr_scan", "ios": "https://dc.lft.to/lastmile_qr_scan"}, "lat": 38.904467333333336, "is_reserved": 0, "is_disabled": 0, "fusion_lat": 0.0}, {"fusion_lon": 0.0, "bike_id": "782e6049f3511e018cdcc4ba7b6a4ffa", "name": "782e6049f3511e018cdcc4ba7b6a4ffa", "type": "electric_scooter", "lon": -76.99961133333333, "rental_uris": {"android": "https://dc.lft.to/lastmile_qr_scan", "ios": "https://dc.lft.to/lastmile_qr_scan"}, "lat": 38.903844, "is_reserved": 0, "is_disabled": 0, "fusion_lat": 0.0}, {"fusion_lon": 0.0, "bike_id": "f2ed4b93a867714a056494252bac9065", "name": "f2ed4b93a867714a056494252bac9065", "type": "electric_scooter", "lon": -77.046984, "rental_uris": {"android": "https://dc.lft.to/lastmile_qr_scan", "ios": "https://dc.lft.to/lastmile_qr_scan"}, "lat": 38.91663766666667, "is_reserved": 0, "is_disabled": 0, "fusion_lat": 0.0}, {"fusion_lon": 0.0, "bike_id": "d228bdf8b631ef1c51e63b3964a15b82", "name": "d228bdf8b631ef1c51e63b3964a15b82", "type": "electric_scooter", "lon": -77.035157, "rental_uris": {"android": "https://dc.lft.to/lastmile_qr_scan", "ios": "https://dc.lft.to/lastmile_qr_scan"}, "lat": 38.91831633333334, "is_reserved": 0, "is_disabled": 0, "fusion_lat": 0.0}, {"fusion_lon": 0.0, "bike_id": "bbc86858f845b698c645bf9c4aade8c4", "name": "bbc86858f845b698c645bf9c4aade8c4", "type": "electric_scooter", "lon": -77.05071116666667, "rental_uris": {"android": "https://dc.lft.to/lastmile_qr_scan", "ios": "https://dc.lft.to/lastmile_qr_scan"}, "lat": 38.90502633333333, "is_reserved": 0, "is_disabled": 0, "fusion_lat": 0.0}, {"fusion_lon": 0.0, "bike_id": "4ec26120d0a2e748a20d44e27b1f9565", "name": "4ec26120d0a2e748a20d44e27b1f9565", "type": "electric_scooter", "lon": -77.06041966666666, "rental_uris": {"android": "https://dc.lft.to/lastmile_qr_scan", "ios": "https://dc.lft.to/lastmile_qr_scan"}, "lat": 38.93917483333333, "is_reserved": 0, "is_disabled": 0, "fusion_lat": 0.0}, {"fusion_lon": 0.0, "bike_id": "8b843da6b567e805aca3da242768108a", "name": "8b843da6b567e805aca3da242768108a", "type": "electric_bike", "lon": -77.02106433333333, "rental_uris": {"android": "https://dc.lft.to/lastmile_qr_scan", "ios": "https://dc.lft.to/lastmile_qr_scan"}, "lat": 39.02296716666667, "is_reserved": 0, "is_disabled": 0, "fusion_lat": 0.0}, {"fusion_lon": 0.0, "bike_id": "090b5cc9ac8a95ff9935fd2bd1b16417", "name": "090b5cc9ac8a95ff9935fd2bd1b16417", "type": "electric_scooter", "lon": -77.02722666666666, "rental_uris": {"android": "https://dc.lft.to/lastmile_qr_scan", "ios": "https://dc.lft.to/lastmile_qr_scan"}, "lat": 38.94082216666666, "is_reserved": 0, "is_disabled": 0, "fusion_lat": 0.0}, {"fusion_lon": 0.0, "bike_id": "eae45b0a02eee4a300c45ed557c93491", "name": "eae45b0a02eee4a300c45ed557c93491", "type": "electric_scooter", "lon": -77.03942516666666, "rental_uris": {"android": "https://dc.lft.to/lastmile_qr_scan", "ios": "https://dc.lft.to/lastmile_qr_scan"}, "lat": 38.909575833333335, "is_reserved": 0, "is_disabled": 0, "fusion_lat": 0.0}, {"fusion_lon": 0.0, "bike_id": "c0d9d11d31f04bbec5bd8866ddca5a4c", "name": "c0d9d11d31f04bbec5bd8866ddca5a4c", "type": "electric_scooter", "lon": -77.04777866666667, "rental_uris": {"android": "https://dc.lft.to/lastmile_qr_scan", "ios": "https://dc.lft.to/lastmile_qr_scan"}, "lat": 38.902159833333336, "is_reserved": 0, "is_disabled": 0, "fusion_lat": 0.0}, {"fusion_lon": 0.0, "bike_id": "3f39bdfd9f23044f531da482d9585c04", "name": "3f39bdfd9f23044f531da482d9585c04", "type": "electric_scooter", "lon": -77.07426883333333, "rental_uris": {"android": "https://dc.lft.to/lastmile_qr_scan", "ios": "https://dc.lft.to/lastmile_qr_scan"}, "lat": 38.9109035, "is_reserved": 0, "is_disabled": 0, "fusion_lat": 0.0}, {"fusion_lon": 0.0, "bike_id": "3970d57a265f31a5dd05e6ad4def9eac", "name": "3970d57a265f31a5dd05e6ad4def9eac", "type": "electric_scooter", "lon": -77.03091866666666, "rental_uris": {"android": "https://dc.lft.to/lastmile_qr_scan", "ios": "https://dc.lft.to/lastmile_qr_scan"}, "lat": 38.91690933333334, "is_reserved": 0, "is_disabled": 0, "fusion_lat": 0.0}, {"fusion_lon": 0.0, "bike_id": "2fb7b9496d7f4958abea16ff1e197a1c", "name": "2fb7b9496d7f4958abea16ff1e197a1c", "type": "electric_scooter", "lon": -77.00916816666667, "rental_uris": {"android": "https://dc.lft.to/lastmile_qr_scan", "ios": "https://dc.lft.to/lastmile_qr_scan"}, "lat": 38.95951816666667, "is_reserved": 0, "is_disabled": 0, "fusion_lat": 0.0}, {"fusion_lon": 0.0, "bike_id": "72d786135035842069197f92f831ea86", "name": "72d786135035842069197f92f831ea86", "type": "electric_bike", "lon": -77.1289995, "rental_uris": {"android": "https://dc.lft.to/lastmile_qr_scan", "ios": "https://dc.lft.to/lastmile_qr_scan"}, "lat": 38.86375783333333, "is_reserved": 0, "is_disabled": 0, "fusion_lat": 0.0}, {"fusion_lon": 0.0, "bike_id": "75099f342db47a7fd4e0deaf0f8d05e8", "name": "75099f342db47a7fd4e0deaf0f8d05e8", "type": "electric_scooter", "lon": -77.0093215, "rental_uris": {"android": "https://dc.lft.to/lastmile_qr_scan", "ios": "https://dc.lft.to/lastmile_qr_scan"}, "lat": 38.876792333333334, "is_reserved": 0, "is_disabled": 0, "fusion_lat": 0.0}, {"fusion_lon": 0.0, "bike_id": "a012b836eaf149ca0bb9d0f11e8b4369", "name": "a012b836eaf149ca0bb9d0f11e8b4369", "type": "electric_scooter", "lon": -77.03263283333334, "rental_uris": {"android": "https://dc.lft.to/lastmile_qr_scan", "ios": "https://dc.lft.to/lastmile_qr_scan"}, "lat": 38.93521466666667, "is_reserved": 0, "is_disabled": 0, "fusion_lat": 0.0}, {"fusion_lon": 0.0, "bike_id": "2aa96930aa8d436ff86b489a8d1cf87a", "name": "2aa96930aa8d436ff86b489a8d1cf87a", "type": "electric_scooter", "lon": -77.03239966666666, "rental_uris": {"android": "https://dc.lft.to/lastmile_qr_scan", "ios": "https://dc.lft.to/lastmile_qr_scan"}, "lat": 38.9132485, "is_reserved": 0, "is_disabled": 0, "fusion_lat": 0.0}, {"fusion_lon": 0.0, "bike_id": "f0b56abe98ceff93b7953e759c9809f6", "name": "f0b56abe98ceff93b7953e759c9809f6", "type": "electric_scooter", "lon": -77.003567, "rental_uris": {"android": "https://dc.lft.to/lastmile_qr_scan", "ios": "https://dc.lft.to/lastmile_qr_scan"}, "lat": 38.90595833333333, "is_reserved": 0, "is_disabled": 0, "fusion_lat": 0.0}, {"fusion_lon": 0.0, "bike_id": "eba45ecbbfee89f5ad0d8e1fc786290e", "name": "eba45ecbbfee89f5ad0d8e1fc786290e", "type": "electric_scooter", "lon": -77.00555666666666, "rental_uris": {"android": "https://dc.lft.to/lastmile_qr_scan", "ios": "https://dc.lft.to/lastmile_qr_scan"}, "lat": 38.9057325, "is_reserved": 0, "is_disabled": 0, "fusion_lat": 0.0}, {"fusion_lon": 0.0, "bike_id": "6e68058a431507751611ff5100c4eaf9", "name": "6e68058a431507751611ff5100c4eaf9", "type": "electric_bike", "lon": -76.97618183333333, "rental_uris": {"android": "https://dc.lft.to/lastmile_qr_scan", "ios": "https://dc.lft.to/lastmile_qr_scan"}, "lat": 38.8929005, "is_reserved": 0, "is_disabled": 0, "fusion_lat": 0.0}, {"fusion_lon": 0.0, "bike_id": "fa6ab903183df7b9251be3edd542dc71", "name": "fa6ab903183df7b9251be3edd542dc71", "type": "electric_scooter", "lon": -77.0005765, "rental_uris": {"android": "https://dc.lft.to/lastmile_qr_scan", "ios": "https://dc.lft.to/lastmile_qr_scan"}, "lat": 38.875369666666664, "is_reserved": 0, "is_disabled": 0, "fusion_lat": 0.0}, {"fusion_lon": 0.0, "bike_id": "83f5e50ef16b74f4ee622cf5ab10e66e", "name": "83f5e50ef16b74f4ee622cf5ab10e66e", "type": "electric_scooter", "lon": -77.029934, "rental_uris": {"android": "https://dc.lft.to/lastmile_qr_scan", "ios": "https://dc.lft.to/lastmile_qr_scan"}, "lat": 38.9285515, "is_reserved": 0, "is_disabled": 0, "fusion_lat": 0.0}, {"fusion_lon": 0.0, "bike_id": "b44c6e4fb531d2e20f886186fca40462", "name": "b44c6e4fb531d2e20f886186fca40462", "type": "electric_bike", "lon": -76.92342766666667, "rental_uris": {"android": "https://dc.lft.to/lastmile_qr_scan", "ios": "https://dc.lft.to/lastmile_qr_scan"}, "lat": 38.887883, "is_reserved": 0, "is_disabled": 0, "fusion_lat": 0.0}, {"fusion_lon": 0.0, "bike_id": "3b0b82a27888d1538df110c516df69c8", "name": "3b0b82a27888d1538df110c516df69c8", "type": "electric_scooter", "lon": -77.03084183333333, "rental_uris": {"android": "https://dc.lft.to/lastmile_qr_scan", "ios": "https://dc.lft.to/lastmile_qr_scan"}, "lat": 38.92383, "is_reserved": 0, "is_disabled": 0, "fusion_lat": 0.0}, {"fusion_lon": 0.0, "bike_id": "21fe3f0ff9ab367fad338b117f429590", "name": "21fe3f0ff9ab367fad338b117f429590", "type": "electric_scooter", "lon": -76.99012616666667, "rental_uris": {"android": "https://dc.lft.to/lastmile_qr_scan", "ios": "https://dc.lft.to/lastmile_qr_scan"}, "lat": 38.90037866666667, "is_reserved": 0, "is_disabled": 0, "fusion_lat": 0.0}, {"fusion_lon": 0.0, "bike_id": "06083e87b630892144d3a058a9693e50", "name": "06083e87b630892144d3a058a9693e50", "type": "electric_scooter", "lon": -77.00729816666667, "rental_uris": {"android": "https://dc.lft.to/lastmile_qr_scan", "ios": "https://dc.lft.to/lastmile_qr_scan"}, "lat": 38.87698433333333, "is_reserved": 0, "is_disabled": 0, "fusion_lat": 0.0}, {"fusion_lon": 0.0, "bike_id": "7775559fe77f0d760e4c60b5a620a5d8", "name": "7775559fe77f0d760e4c60b5a620a5d8", "type": "electric_scooter", "lon": -77.03457383333334, "rental_uris": {"android": "https://dc.lft.to/lastmile_qr_scan", "ios": "https://dc.lft.to/lastmile_qr_scan"}, "lat": 38.914903833333334, "is_reserved": 0, "is_disabled": 0, "fusion_lat": 0.0}, {"fusion_lon": 0.0, "bike_id": "484abb07a1bdda287f64412cac2447f8", "name": "484abb07a1bdda287f64412cac2447f8", "type": "electric_scooter", "lon": -77.028036, "rental_uris": {"android": "https://dc.lft.to/lastmile_qr_scan", "ios": "https://dc.lft.to/lastmile_qr_scan"}, "lat": 38.90269166666667, "is_reserved": 0, "is_disabled": 0, "fusion_lat": 0.0}, {"fusion_lon": 0.0, "bike_id": "885d8b185497b31dabfcce8f019113ff", "name": "885d8b185497b31dabfcce8f019113ff", "type": "electric_scooter", "lon": -77.0416265, "rental_uris": {"android": "https://dc.lft.to/lastmile_qr_scan", "ios": "https://dc.lft.to/lastmile_qr_scan"}, "lat": 38.898778166666666, "is_reserved": 0, "is_disabled": 0, "fusion_lat": 0.0}, {"fusion_lon": 0.0, "bike_id": "1e158c94380f0658c4a781a8986c3ae7", "name": "1e158c94380f0658c4a781a8986c3ae7", "type": "electric_bike", "lon": -77.00064116666667, "rental_uris": {"android": "https://dc.lft.to/lastmile_qr_scan", "ios": "https://dc.lft.to/lastmile_qr_scan"}, "lat": 38.876016166666666, "is_reserved": 0, "is_disabled": 0, "fusion_lat": 0.0}, {"fusion_lon": 0.0, "bike_id": "e49b27acc74d2f0608cf819f52db2890", "name": "e49b27acc74d2f0608cf819f52db2890", "type": "electric_scooter", "lon": -77.0543255, "rental_uris": {"android": "https://dc.lft.to/lastmile_qr_scan", "ios": "https://dc.lft.to/lastmile_qr_scan"}, "lat": 38.92824016666667, "is_reserved": 0, "is_disabled": 0, "fusion_lat": 0.0}, {"fusion_lon": 0.0, "bike_id": "1d027dc5384a1d639f8118ac9a17fc97", "name": "1d027dc5384a1d639f8118ac9a17fc97", "type": "electric_scooter", "lon": -77.03638233333334, "rental_uris": {"android": "https://dc.lft.to/lastmile_qr_scan", "ios": "https://dc.lft.to/lastmile_qr_scan"}, "lat": 38.92410916666667, "is_reserved": 0, "is_disabled": 0, "fusion_lat": 0.0}, {"fusion_lon": 0.0, "bike_id": "e50361e487c310ff41ae92f97df8a42b", "name": "e50361e487c310ff41ae92f97df8a42b", "type": "electric_scooter", "lon": -77.00108133333333, "rental_uris": {"android": "https://dc.lft.to/lastmile_qr_scan", "ios": "https://dc.lft.to/lastmile_qr_scan"}, "lat": 38.917071166666666, "is_reserved": 0, "is_disabled": 0, "fusion_lat": 0.0}, {"fusion_lon": 0.0, "bike_id": "1d06df08813eac5cae401f46c025e7ac", "name": "1d06df08813eac5cae401f46c025e7ac", "type": "electric_scooter", "lon": -76.98731116666667, "rental_uris": {"android": "https://dc.lft.to/lastmile_qr_scan", "ios": "https://dc.lft.to/lastmile_qr_scan"}, "lat": 38.86714516666667, "is_reserved": 0, "is_disabled": 0, "fusion_lat": 0.0}, {"fusion_lon": 0.0, "bike_id": "85e3205ce5020cb07bff67e76ed7a4f1", "name": "85e3205ce5020cb07bff67e76ed7a4f1", "type": "electric_bike", "lon": -77.02982666666666, "rental_uris": {"android": "https://dc.lft.to/lastmile_qr_scan", "ios": "https://dc.lft.to/lastmile_qr_scan"}, "lat": 38.93697133333333, "is_reserved": 0, "is_disabled": 0, "fusion_lat": 0.0}, {"fusion_lon": 0.0, "bike_id": "a506b61b0c28f09a59c3b99b039b74a8", "name": "a506b61b0c28f09a59c3b99b039b74a8", "type": "electric_scooter", "lon": -76.97280516666666, "rental_uris": {"android": "https://dc.lft.to/lastmile_qr_scan", "ios": "https://dc.lft.to/lastmile_qr_scan"}, "lat": 38.93081383333333, "is_reserved": 0, "is_disabled": 0, "fusion_lat": 0.0}, {"fusion_lon": 0.0, "bike_id": "46cf9e4b18092ff9a915b3dfd57df75b", "name": "46cf9e4b18092ff9a915b3dfd57df75b", "type": "electric_scooter", "lon": -77.02324983333334, "rental_uris": {"android": "https://dc.lft.to/lastmile_qr_scan", "ios": "https://dc.lft.to/lastmile_qr_scan"}, "lat": 38.92404616666666, "is_reserved": 0, "is_disabled": 0, "fusion_lat": 0.0}, {"fusion_lon": 0.0, "bike_id": "6695ebcdb28e6276ed329f6cc62379c3", "name": "6695ebcdb28e6276ed329f6cc62379c3", "type": "electric_bike", "lon": -77.00598583333333, "rental_uris": {"android": "https://dc.lft.to/lastmile_qr_scan", "ios": "https://dc.lft.to/lastmile_qr_scan"}, "lat": 38.8981735, "is_reserved": 0, "is_disabled": 0, "fusion_lat": 0.0}, {"fusion_lon": 0.0, "bike_id": "16a0c75ca5e9b14682f1aa482e72a18a", "name": "16a0c75ca5e9b14682f1aa482e72a18a", "type": "electric_scooter", "lon": -77.0242195, "rental_uris": {"android": "https://dc.lft.to/lastmile_qr_scan", "ios": "https://dc.lft.to/lastmile_qr_scan"}, "lat": 38.957458333333335, "is_reserved": 0, "is_disabled": 0, "fusion_lat": 0.0}, {"fusion_lon": 0.0, "bike_id": "9f7f63b8990cac0b0d652c887798cbdb", "name": "9f7f63b8990cac0b0d652c887798cbdb", "type": "electric_scooter", "lon": -77.02892633333333, "rental_uris": {"android": "https://dc.lft.to/lastmile_qr_scan", "ios": "https://dc.lft.to/lastmile_qr_scan"}, "lat": 38.90445883333334, "is_reserved": 0, "is_disabled": 0, "fusion_lat": 0.0}, {"fusion_lon": 0.0, "bike_id": "bdbbb41e91ed83fbde4b2226720e28e5", "name": "bdbbb41e91ed83fbde4b2226720e28e5", "type": "electric_scooter", "lon": -77.031173, "rental_uris": {"android": "https://dc.lft.to/lastmile_qr_scan", "ios": "https://dc.lft.to/lastmile_qr_scan"}, "lat": 38.9201525, "is_reserved": 0, "is_disabled": 0, "fusion_lat": 0.0}, {"fusion_lon": 0.0, "bike_id": "794443374cb09e33755239425f8677f7", "name": "794443374cb09e33755239425f8677f7", "type": "electric_scooter", "lon": -76.9415755, "rental_uris": {"android": "https://dc.lft.to/lastmile_qr_scan", "ios": "https://dc.lft.to/lastmile_qr_scan"}, "lat": 38.88364966666666, "is_reserved": 0, "is_disabled": 0, "fusion_lat": 0.0}, {"fusion_lon": 0.0, "bike_id": "2a88ebdfe37f76c8afaaf29b084deb70", "name": "2a88ebdfe37f76c8afaaf29b084deb70", "type": "electric_scooter", "lon": -77.02482883333333, "rental_uris": {"android": "https://dc.lft.to/lastmile_qr_scan", "ios": "https://dc.lft.to/lastmile_qr_scan"}, "lat": 38.880124, "is_reserved": 0, "is_disabled": 0, "fusion_lat": 0.0}, {"fusion_lon": 0.0, "bike_id": "a2252705bc633761803c9247a4b2521b", "name": "a2252705bc633761803c9247a4b2521b", "type": "electric_scooter", "lon": -76.94889666666667, "rental_uris": {"android": "https://dc.lft.to/lastmile_qr_scan", "ios": "https://dc.lft.to/lastmile_qr_scan"}, "lat": 38.89508933333333, "is_reserved": 0, "is_disabled": 0, "fusion_lat": 0.0}, {"fusion_lon": 0.0, "bike_id": "b39bb86a014e04551c7f39f1fbd63075", "name": "b39bb86a014e04551c7f39f1fbd63075", "type": "electric_scooter", "lon": -77.03147533333333, "rental_uris": {"android": "https://dc.lft.to/lastmile_qr_scan", "ios": "https://dc.lft.to/lastmile_qr_scan"}, "lat": 38.9126445, "is_reserved": 0, "is_disabled": 0, "fusion_lat": 0.0}, {"fusion_lon": 0.0, "bike_id": "3fa234ed85e85ae321ef6ca625ae1729", "name": "3fa234ed85e85ae321ef6ca625ae1729", "type": "electric_scooter", "lon": -77.00520366666667, "rental_uris": {"android": "https://dc.lft.to/lastmile_qr_scan", "ios": "https://dc.lft.to/lastmile_qr_scan"}, "lat": 38.874663, "is_reserved": 0, "is_disabled": 0, "fusion_lat": 0.0}, {"fusion_lon": 0.0, "bike_id": "f4787be20148a33e8b9d2be2a29d5d3d", "name": "f4787be20148a33e8b9d2be2a29d5d3d", "type": "electric_scooter", "lon": -77.04714633333333, "rental_uris": {"android": "https://dc.lft.to/lastmile_qr_scan", "ios": "https://dc.lft.to/lastmile_qr_scan"}, "lat": 38.912669333333334, "is_reserved": 0, "is_disabled": 0, "fusion_lat": 0.0}, {"fusion_lon": 0.0, "bike_id": "1a3addaca7d3f75fa17facd845fcd109", "name": "1a3addaca7d3f75fa17facd845fcd109", "type": "electric_scooter", "lon": -77.0144125, "rental_uris": {"android": "https://dc.lft.to/lastmile_qr_scan", "ios": "https://dc.lft.to/lastmile_qr_scan"}, "lat": 38.91249233333333, "is_reserved": 0, "is_disabled": 0, "fusion_lat": 0.0}, {"fusion_lon": 0.0, "bike_id": "f79968145ecce51cccd6a48afb223661", "name": "f79968145ecce51cccd6a48afb223661", "type": "electric_scooter", "lon": -77.01468883333334, "rental_uris": {"android": "https://dc.lft.to/lastmile_qr_scan", "ios": "https://dc.lft.to/lastmile_qr_scan"}, "lat": 38.87630266666667, "is_reserved": 0, "is_disabled": 0, "fusion_lat": 0.0}, {"fusion_lon": 0.0, "bike_id": "57517dc571db60c10b21b481ab99e9d5", "name": "57517dc571db60c10b21b481ab99e9d5", "type": "electric_scooter", "lon": -77.002802, "rental_uris": {"android": "https://dc.lft.to/lastmile_qr_scan", "ios": "https://dc.lft.to/lastmile_qr_scan"}, "lat": 38.93917616666667, "is_reserved": 0, "is_disabled": 0, "fusion_lat": 0.0}, {"fusion_lon": 0.0, "bike_id": "29a6f98578c9f7666faeba6784c2aa82", "name": "29a6f98578c9f7666faeba6784c2aa82", "type": "electric_scooter", "lon": -76.98845333333334, "rental_uris": {"android": "https://dc.lft.to/lastmile_qr_scan", "ios": "https://dc.lft.to/lastmile_qr_scan"}, "lat": 38.900272666666666, "is_reserved": 0, "is_disabled": 0, "fusion_lat": 0.0}, {"fusion_lon": 0.0, "bike_id": "3422471d046100345ceefe6653adee40", "name": "3422471d046100345ceefe6653adee40", "type": "electric_scooter", "lon": -76.929349, "rental_uris": {"android": "https://dc.lft.to/lastmile_qr_scan", "ios": "https://dc.lft.to/lastmile_qr_scan"}, "lat": 38.8875565, "is_reserved": 0, "is_disabled": 0, "fusion_lat": 0.0}, {"fusion_lon": 0.0, "bike_id": "2aa03de12c1b8d283827ac3848dcedcb", "name": "2aa03de12c1b8d283827ac3848dcedcb", "type": "electric_scooter", "lon": -76.99382916666667, "rental_uris": {"android": "https://dc.lft.to/lastmile_qr_scan", "ios": "https://dc.lft.to/lastmile_qr_scan"}, "lat": 38.92097583333333, "is_reserved": 0, "is_disabled": 0, "fusion_lat": 0.0}, {"fusion_lon": 0.0, "bike_id": "160d8d9cc16d5d2555fbc2084f67cfeb", "name": "160d8d9cc16d5d2555fbc2084f67cfeb", "type": "electric_scooter", "lon": -77.02714466666667, "rental_uris": {"android": "https://dc.lft.to/lastmile_qr_scan", "ios": "https://dc.lft.to/lastmile_qr_scan"}, "lat": 38.909807, "is_reserved": 0, "is_disabled": 0, "fusion_lat": 0.0}, {"fusion_lon": 0.0, "bike_id": "8e2f0dbca6f049b243605ce2691dd7c5", "name": "8e2f0dbca6f049b243605ce2691dd7c5", "type": "electric_scooter", "lon": -77.042302, "rental_uris": {"android": "https://dc.lft.to/lastmile_qr_scan", "ios": "https://dc.lft.to/lastmile_qr_scan"}, "lat": 38.9217645, "is_reserved": 0, "is_disabled": 0, "fusion_lat": 0.0}, {"fusion_lon": 0.0, "bike_id": "9679e8e2a83a972ca4958831be00b6b5", "name": "9679e8e2a83a972ca4958831be00b6b5", "type": "electric_scooter", "lon": -77.04149883333334, "rental_uris": {"android": "https://dc.lft.to/lastmile_qr_scan", "ios": "https://dc.lft.to/lastmile_qr_scan"}, "lat": 38.9178395, "is_reserved": 0, "is_disabled": 0, "fusion_lat": 0.0}, {"fusion_lon": 0.0, "bike_id": "80ff743e0ed64775e859aea8bd1835f3", "name": "80ff743e0ed64775e859aea8bd1835f3", "type": "electric_scooter", "lon": -77.02384783333333, "rental_uris": {"android": "https://dc.lft.to/lastmile_qr_scan", "ios": "https://dc.lft.to/lastmile_qr_scan"}, "lat": 38.9058115, "is_reserved": 0, "is_disabled": 0, "fusion_lat": 0.0}, {"fusion_lon": 0.0, "bike_id": "ba6d54eda23049aaefdf7012d5b4b35b", "name": "ba6d54eda23049aaefdf7012d5b4b35b", "type": "electric_scooter", "lon": -77.0248755, "rental_uris": {"android": "https://dc.lft.to/lastmile_qr_scan", "ios": "https://dc.lft.to/lastmile_qr_scan"}, "lat": 38.91927916666667, "is_reserved": 0, "is_disabled": 0, "fusion_lat": 0.0}, {"fusion_lon": 0.0, "bike_id": "24835360713215f883bf36c0a91dafad", "name": "24835360713215f883bf36c0a91dafad", "type": "electric_scooter", "lon": -77.01609816666667, "rental_uris": {"android": "https://dc.lft.to/lastmile_qr_scan", "ios": "https://dc.lft.to/lastmile_qr_scan"}, "lat": 38.877078, "is_reserved": 0, "is_disabled": 0, "fusion_lat": 0.0}, {"fusion_lon": 0.0, "bike_id": "4bde6b1b93f83f8276cdd5136d66c6c7", "name": "4bde6b1b93f83f8276cdd5136d66c6c7", "type": "electric_scooter", "lon": -77.02607183333333, "rental_uris": {"android": "https://dc.lft.to/lastmile_qr_scan", "ios": "https://dc.lft.to/lastmile_qr_scan"}, "lat": 38.927936, "is_reserved": 0, "is_disabled": 0, "fusion_lat": 0.0}, {"fusion_lon": 0.0, "bike_id": "42cdc49776d12499e6934332fca3f207", "name": "42cdc49776d12499e6934332fca3f207", "type": "electric_scooter", "lon": -77.02976633333333, "rental_uris": {"android": "https://dc.lft.to/lastmile_qr_scan", "ios": "https://dc.lft.to/lastmile_qr_scan"}, "lat": 38.916211833333335, "is_reserved": 0, "is_disabled": 0, "fusion_lat": 0.0}, {"fusion_lon": 0.0, "bike_id": "5e1ccdc892cc90a42917a4018d330439", "name": "5e1ccdc892cc90a42917a4018d330439", "type": "electric_scooter", "lon": -77.04358016666667, "rental_uris": {"android": "https://dc.lft.to/lastmile_qr_scan", "ios": "https://dc.lft.to/lastmile_qr_scan"}, "lat": 38.898384166666666, "is_reserved": 0, "is_disabled": 0, "fusion_lat": 0.0}, {"fusion_lon": 0.0, "bike_id": "dca5c108c97cfc177f817dd7d76e6fc7", "name": "dca5c108c97cfc177f817dd7d76e6fc7", "type": "electric_scooter", "lon": -77.042423, "rental_uris": {"android": "https://dc.lft.to/lastmile_qr_scan", "ios": "https://dc.lft.to/lastmile_qr_scan"}, "lat": 38.91776383333333, "is_reserved": 0, "is_disabled": 0, "fusion_lat": 0.0}, {"fusion_lon": 0.0, "bike_id": "d03e85b4e91cfa8a3d38d2d2caea64e9", "name": "d03e85b4e91cfa8a3d38d2d2caea64e9", "type": "electric_scooter", "lon": -77.02852633333333, "rental_uris": {"android": "https://dc.lft.to/lastmile_qr_scan", "ios": "https://dc.lft.to/lastmile_qr_scan"}, "lat": 38.932672833333335, "is_reserved": 0, "is_disabled": 0, "fusion_lat": 0.0}, {"fusion_lon": 0.0, "bike_id": "417c24e2aa6056b9364a9b0859c860f4", "name": "417c24e2aa6056b9364a9b0859c860f4", "type": "electric_scooter", "lon": -77.0656935, "rental_uris": {"android": "https://dc.lft.to/lastmile_qr_scan", "ios": "https://dc.lft.to/lastmile_qr_scan"}, "lat": 38.90357083333333, "is_reserved": 0, "is_disabled": 0, "fusion_lat": 0.0}, {"fusion_lon": 0.0, "bike_id": "b7f831ac3abf16ee2e5299f097f65aa6", "name": "b7f831ac3abf16ee2e5299f097f65aa6", "type": "electric_scooter", "lon": -77.02952683333334, "rental_uris": {"android": "https://dc.lft.to/lastmile_qr_scan", "ios": "https://dc.lft.to/lastmile_qr_scan"}, "lat": 38.90712283333333, "is_reserved": 0, "is_disabled": 0, "fusion_lat": 0.0}, {"fusion_lon": 0.0, "bike_id": "0312c4dde7ae2057490191fbd714f55f", "name": "0312c4dde7ae2057490191fbd714f55f", "type": "electric_scooter", "lon": -77.072729, "rental_uris": {"android": "https://dc.lft.to/lastmile_qr_scan", "ios": "https://dc.lft.to/lastmile_qr_scan"}, "lat": 38.91320983333333, "is_reserved": 0, "is_disabled": 0, "fusion_lat": 0.0}, {"fusion_lon": 0.0, "bike_id": "455c22ef971af2522e3cacc12a5235bc", "name": "455c22ef971af2522e3cacc12a5235bc", "type": "electric_bike", "lon": -77.10505166666667, "rental_uris": {"android": "https://dc.lft.to/lastmile_qr_scan", "ios": "https://dc.lft.to/lastmile_qr_scan"}, "lat": 38.9284905, "is_reserved": 0, "is_disabled": 0, "fusion_lat": 0.0}, {"fusion_lon": 0.0, "bike_id": "569502c77064573c792affdf41544edb", "name": "569502c77064573c792affdf41544edb", "type": "electric_scooter", "lon": -77.04342016666666, "rental_uris": {"android": "https://dc.lft.to/lastmile_qr_scan", "ios": "https://dc.lft.to/lastmile_qr_scan"}, "lat": 38.91056733333333, "is_reserved": 0, "is_disabled": 0, "fusion_lat": 0.0}, {"fusion_lon": 0.0, "bike_id": "161e5a4a7a9dc5c661523fd939263f7c", "name": "161e5a4a7a9dc5c661523fd939263f7c", "type": "electric_scooter", "lon": -77.007169, "rental_uris": {"android": "https://dc.lft.to/lastmile_qr_scan", "ios": "https://dc.lft.to/lastmile_qr_scan"}, "lat": 38.87684566666667, "is_reserved": 0, "is_disabled": 0, "fusion_lat": 0.0}, {"fusion_lon": 0.0, "bike_id": "2fb72f80f97fc997f97a07ca5f667632", "name": "2fb72f80f97fc997f97a07ca5f667632", "type": "electric_scooter", "lon": -76.95211233333333, "rental_uris": {"android": "https://dc.lft.to/lastmile_qr_scan", "ios": "https://dc.lft.to/lastmile_qr_scan"}, "lat": 38.8924715, "is_reserved": 0, "is_disabled": 0, "fusion_lat": 0.0}, {"fusion_lon": 0.0, "bike_id": "43a35943895dacc3e335d0c06ae30fa7", "name": "43a35943895dacc3e335d0c06ae30fa7", "type": "electric_scooter", "lon": -77.03193783333333, "rental_uris": {"android": "https://dc.lft.to/lastmile_qr_scan", "ios": "https://dc.lft.to/lastmile_qr_scan"}, "lat": 38.91606016666667, "is_reserved": 0, "is_disabled": 0, "fusion_lat": 0.0}, {"fusion_lon": 0.0, "bike_id": "bd7caac725e5e6267d27beb31f63a9f6", "name": "bd7caac725e5e6267d27beb31f63a9f6", "type": "electric_bike", "lon": -77.09577466666667, "rental_uris": {"android": "https://dc.lft.to/lastmile_qr_scan", "ios": "https://dc.lft.to/lastmile_qr_scan"}, "lat": 38.837810166666664, "is_reserved": 0, "is_disabled": 0, "fusion_lat": 0.0}, {"fusion_lon": 0.0, "bike_id": "d2cb78e66e21d70b4e5997a451bdb6a7", "name": "d2cb78e66e21d70b4e5997a451bdb6a7", "type": "electric_scooter", "lon": -76.99227116666667, "rental_uris": {"android": "https://dc.lft.to/lastmile_qr_scan", "ios": "https://dc.lft.to/lastmile_qr_scan"}, "lat": 38.89882683333333, "is_reserved": 0, "is_disabled": 0, "fusion_lat": 0.0}, {"fusion_lon": 0.0, "bike_id": "f9a39c8509083e09fa3f28166bd52c65", "name": "f9a39c8509083e09fa3f28166bd52c65", "type": "electric_scooter", "lon": -77.05004133333334, "rental_uris": {"android": "https://dc.lft.to/lastmile_qr_scan", "ios": "https://dc.lft.to/lastmile_qr_scan"}, "lat": 38.892318333333336, "is_reserved": 0, "is_disabled": 0, "fusion_lat": 0.0}, {"fusion_lon": 0.0, "bike_id": "1c58387ecd003a130d0533fdb09cecf0", "name": "1c58387ecd003a130d0533fdb09cecf0", "type": "electric_scooter", "lon": -76.94887116666666, "rental_uris": {"android": "https://dc.lft.to/lastmile_qr_scan", "ios": "https://dc.lft.to/lastmile_qr_scan"}, "lat": 38.895099333333334, "is_reserved": 0, "is_disabled": 0, "fusion_lat": 0.0}, {"fusion_lon": 0.0, "bike_id": "50dd6ac6def8896f2a31d3558dffc080", "name": "50dd6ac6def8896f2a31d3558dffc080", "type": "electric_scooter", "lon": -77.02565683333333, "rental_uris": {"android": "https://dc.lft.to/lastmile_qr_scan", "ios": "https://dc.lft.to/lastmile_qr_scan"}, "lat": 38.8995835, "is_reserved": 0, "is_disabled": 0, "fusion_lat": 0.0}, {"fusion_lon": 0.0, "bike_id": "09ed4c6d1ef53ea8df676b42daea0118", "name": "09ed4c6d1ef53ea8df676b42daea0118", "type": "electric_scooter", "lon": -77.04159816666666, "rental_uris": {"android": "https://dc.lft.to/lastmile_qr_scan", "ios": "https://dc.lft.to/lastmile_qr_scan"}, "lat": 38.910962, "is_reserved": 0, "is_disabled": 0, "fusion_lat": 0.0}, {"fusion_lon": 0.0, "bike_id": "8606af60a21f7938f022bc761b7c0fa9", "name": "8606af60a21f7938f022bc761b7c0fa9", "type": "electric_scooter", "lon": -77.04112866666667, "rental_uris": {"android": "https://dc.lft.to/lastmile_qr_scan", "ios": "https://dc.lft.to/lastmile_qr_scan"}, "lat": 38.92382333333333, "is_reserved": 0, "is_disabled": 0, "fusion_lat": 0.0}, {"fusion_lon": 0.0, "bike_id": "d43f125136d2fd0bb7601e34fc023e73", "name": "d43f125136d2fd0bb7601e34fc023e73", "type": "electric_bike", "lon": -77.0957565, "rental_uris": {"android": "https://dc.lft.to/lastmile_qr_scan", "ios": "https://dc.lft.to/lastmile_qr_scan"}, "lat": 38.83785983333333, "is_reserved": 0, "is_disabled": 0, "fusion_lat": 0.0}, {"fusion_lon": 0.0, "bike_id": "da6e6d6f3592d8fcac60416c3beb7199", "name": "da6e6d6f3592d8fcac60416c3beb7199", "type": "electric_bike", "lon": -77.14780316666666, "rental_uris": {"android": "https://dc.lft.to/lastmile_qr_scan", "ios": "https://dc.lft.to/lastmile_qr_scan"}, "lat": 39.09586083333333, "is_reserved": 0, "is_disabled": 0, "fusion_lat": 0.0}, {"fusion_lon": 0.0, "bike_id": "9e4231a1eed9e82f3cc887f34aeed70b", "name": "9e4231a1eed9e82f3cc887f34aeed70b", "type": "electric_scooter", "lon": -77.046511, "rental_uris": {"android": "https://dc.lft.to/lastmile_qr_scan", "ios": "https://dc.lft.to/lastmile_qr_scan"}, "lat": 38.9042165, "is_reserved": 0, "is_disabled": 0, "fusion_lat": 0.0}, {"fusion_lon": 0.0, "bike_id": "3252da0b398f9c8d8153b963ffa39525", "name": "3252da0b398f9c8d8153b963ffa39525", "type": "electric_scooter", "lon": -77.03867766666667, "rental_uris": {"android": "https://dc.lft.to/lastmile_qr_scan", "ios": "https://dc.lft.to/lastmile_qr_scan"}, "lat": 38.91552766666667, "is_reserved": 0, "is_disabled": 0, "fusion_lat": 0.0}, {"fusion_lon": 0.0, "bike_id": "b80c8e19dacdc0d2144dfa5aa0844548", "name": "b80c8e19dacdc0d2144dfa5aa0844548", "type": "electric_scooter", "lon": -77.03868916666667, "rental_uris": {"android": "https://dc.lft.to/lastmile_qr_scan", "ios": "https://dc.lft.to/lastmile_qr_scan"}, "lat": 38.9155475, "is_reserved": 0, "is_disabled": 0, "fusion_lat": 0.0}, {"fusion_lon": 0.0, "bike_id": "658036cd219fcdcc9336f8ed3222b422", "name": "658036cd219fcdcc9336f8ed3222b422", "type": "electric_scooter", "lon": -77.0221235, "rental_uris": {"android": "https://dc.lft.to/lastmile_qr_scan", "ios": "https://dc.lft.to/lastmile_qr_scan"}, "lat": 38.905706, "is_reserved": 0, "is_disabled": 0, "fusion_lat": 0.0}, {"fusion_lon": 0.0, "bike_id": "18dfbd629390e16ab39083004e74c015", "name": "18dfbd629390e16ab39083004e74c015", "type": "electric_scooter", "lon": -77.052706, "rental_uris": {"android": "https://dc.lft.to/lastmile_qr_scan", "ios": "https://dc.lft.to/lastmile_qr_scan"}, "lat": 38.9035575, "is_reserved": 0, "is_disabled": 0, "fusion_lat": 0.0}, {"fusion_lon": 0.0, "bike_id": "37cad68e0b4018bd9f7836dfa15c020e", "name": "37cad68e0b4018bd9f7836dfa15c020e", "type": "electric_scooter", "lon": -77.05228916666667, "rental_uris": {"android": "https://dc.lft.to/lastmile_qr_scan", "ios": "https://dc.lft.to/lastmile_qr_scan"}, "lat": 38.89809, "is_reserved": 0, "is_disabled": 0, "fusion_lat": 0.0}, {"fusion_lon": 0.0, "bike_id": "44e5106445e0ac6d548e22c5411eb7d0", "name": "44e5106445e0ac6d548e22c5411eb7d0", "type": "electric_scooter", "lon": -77.027804, "rental_uris": {"android": "https://dc.lft.to/lastmile_qr_scan", "ios": "https://dc.lft.to/lastmile_qr_scan"}, "lat": 38.892213166666664, "is_reserved": 0, "is_disabled": 0, "fusion_lat": 0.0}, {"fusion_lon": 0.0, "bike_id": "fbdd218844ce16a757531bb82a66b8ec", "name": "fbdd218844ce16a757531bb82a66b8ec", "type": "electric_scooter", "lon": -76.94997716666667, "rental_uris": {"android": "https://dc.lft.to/lastmile_qr_scan", "ios": "https://dc.lft.to/lastmile_qr_scan"}, "lat": 38.89388683333333, "is_reserved": 0, "is_disabled": 0, "fusion_lat": 0.0}, {"fusion_lon": 0.0, "bike_id": "5e6dae1503cfaeabd26366686e951a2c", "name": "5e6dae1503cfaeabd26366686e951a2c", "type": "electric_bike", "lon": -76.96088316666666, "rental_uris": {"android": "https://dc.lft.to/lastmile_qr_scan", "ios": "https://dc.lft.to/lastmile_qr_scan"}, "lat": 38.91851966666667, "is_reserved": 0, "is_disabled": 0, "fusion_lat": 0.0}, {"fusion_lon": 0.0, "bike_id": "21d6a47b8ad042f05b858039ccb8acbf", "name": "21d6a47b8ad042f05b858039ccb8acbf", "type": "electric_bike", "lon": -77.00209366666667, "rental_uris": {"android": "https://dc.lft.to/lastmile_qr_scan", "ios": "https://dc.lft.to/lastmile_qr_scan"}, "lat": 38.81924216666667, "is_reserved": 0, "is_disabled": 0, "fusion_lat": 0.0},