{"data": {"bikes": [{"rental_uris": {"ios": "https://dc.lft.to/lastmile_qr_scan", "android": "https://dc.lft.to/lastmile_qr_scan"}, "type": "electric_scooter", "name": "ed1a1ae1abe64c6df6b9ec00a4689874", "is_reserved": 0, "lon": -77.06112266666666, "is_disabled": 0, "fusion_lat": 0.0, "lat": 38.912871, "bike_id": "ed1a1ae1abe64c6df6b9ec00a4689874", "fusion_lon": 0.0}, {"rental_uris": {"ios": "https://dc.lft.to/lastmile_qr_scan", "android": "https://dc.lft.to/lastmile_qr_scan"}, "type": "electric_scooter", "name": "d501b76dd6c55ece6b6282a538a6f4ac", "is_reserved": 0, "lon": -76.99595683333334, "is_disabled": 0, "fusion_lat": 0.0, "lat": 38.9002805, "bike_id": "d501b76dd6c55ece6b6282a538a6f4ac", "fusion_lon": 0.0}, {"rental_uris": {"ios": "https://dc.lft.to/lastmile_qr_scan", "android": "https://dc.lft.to/lastmile_qr_scan"}, "type": "electric_scooter", "name": "319f5b058d84281993a07001de939b82", "is_reserved": 0, "lon": -77.02309633333333, "is_disabled": 0, "fusion_lat": 0.0, "lat": 38.909606333333336, "bike_id": "319f5b058d84281993a07001de939b82", "fusion_lon": 0.0}, {"rental_uris": {"ios": "https://dc.lft.to/lastmile_qr_scan", "android": "https://dc.lft.to/lastmile_qr_scan"}, "type": "electric_scooter", "name": "32d785a688b9696cf98d2089af99d3d0", "is_reserved": 0, "lon": -77.03184816666666, "is_disabled": 0, "fusion_lat": 0.0, "lat": 38.91606783333334, "bike_id": "32d785a688b9696cf98d2089af99d3d0", "fusion_lon": 0.0}, {"rental_uris": {"ios": "https://dc.lft.to/lastmile_qr_scan", "android": "https://dc.lft.to/lastmile_qr_scan"}, "type": "electric_scooter", "name": "df484c7c426246f1766fdff3f2dd6ab0", "is_reserved": 0, "lon": -76.929426, "is_disabled": 0, "fusion_lat": 0.0, "lat": 38.903361, "bike_id": "df484c7c426246f1766fdff3f2dd6ab0", "fusion_lon": 0.0}, {"rental_uris": {"ios": "https://dc.lft.to/lastmile_qr_scan", "android": "https://dc.lft.to/lastmile_qr_scan"}, "type": "electric_scooter", "name": "a643721496400bf9f168a2aeb2386e85", "is_reserved": 0, "lon": -77.02972966666667, "is_disabled": 0, "fusion_lat": 0.0, "lat": 38.90732216666667, "bike_id": "a643721496400bf9f168a2aeb2386e85", "fusion_lon": 0.0}, {"rental_uris": {"ios": "https://dc.lft.to/lastmile_qr_scan", "android": "https://dc.lft.to/lastmile_qr_scan"}, "type": "electric_bike", "name": "9d2f3f2c13d1afa11936c714c9e2a067", "is_reserved": 0, "lon": -76.96307366666667, "is_disabled": 0, "fusion_lat": 0.0, "lat": 38.897012833333335, "bike_id": "9d2f3f2c13d1afa11936c714c9e2a067", "fusion_lon": 0.0}, {"rental_uris": {"ios": "https://dc.lft.to/lastmile_qr_scan", "android": "https://dc.lft.to/lastmile_qr_scan"}, "type": "electric_scooter", "name": "abe8a7561b4cd552a20db6d3b6c3986e", "is_reserved": 0, "lon": -76.98496483333334, "is_disabled": 0, "fusion_lat": 0.0, "lat": 38.92009216666667, "bike_id": "abe8a7561b4cd552a20db6d3b6c3986e", "fusion_lon": 0.0}, {"rental_uris": {"ios": "https://dc.lft.to/lastmile_qr_scan", "android": "https://dc.lft.to/lastmile_qr_scan"}, "type": "electric_scooter", "name": "ff17bb258d6ccf9d69cf9bf533be1624", "is_reserved": 0, "lon": -77.02053583333333, "is_disabled": 0, "fusion_lat": 0.0, "lat": 38.9240045, "bike_id": "ff17bb258d6ccf9d69cf9bf533be1624", "fusion_lon": 0.0}, {"rental_uris": {"ios": "https://dc.lft.to/lastmile_qr_scan", "android": "https://dc.lft.to/lastmile_qr_scan"}, "type": "electric_scooter", "name": "5b211c21dd8166140d7b0a2d24aa1e26", "is_reserved": 0, "lon": -77.04342583333333, "is_disabled": 0, "fusion_lat": 0.0, "lat": 38.92155416666667, "bike_id": "5b211c21dd8166140d7b0a2d24aa1e26", "fusion_lon": 0.0}, {"rental_uris": {"ios": "https://dc.lft.to/lastmile_qr_scan", "android": "https://dc.lft.to/lastmile_qr_scan"}, "type": "electric_scooter", "name": "04efea2e1cc6802d86d7f16096fcc755", "is_reserved": 0, "lon": -77.01588983333333, "is_disabled": 0, "fusion_lat": 0.0, "lat": 38.872208666666666, "bike_id": "04efea2e1cc6802d86d7f16096fcc755", "fusion_lon": 0.0}, {"rental_uris": {"ios": "https://dc.lft.to/lastmile_qr_scan", "android": "https://dc.lft.to/lastmile_qr_scan"}, "type": "electric_scooter", "name": "586ab16631eac13046734cd82197ff09", "is_reserved": 0, "lon": -77.0327405, "is_disabled": 0, "fusion_lat": 0.0, "lat": 38.90556083333333, "bike_id": "586ab16631eac13046734cd82197ff09", "fusion_lon": 0.0}, {"rental_uris": {"ios": "https://dc.lft.to/lastmile_qr_scan", "android": "https://dc.lft.to/lastmile_qr_scan"}, "type": "electric_scooter", "name": "8a34753731c0490162f8ee5fc080ba7a", "is_reserved": 0, "lon": -77.01841, "is_disabled": 0, "fusion_lat": 0.0, "lat": 38.9222505, "bike_id": "8a34753731c0490162f8ee5fc080ba7a", "fusion_lon": 0.0}, {"rental_uris": {"ios": "https://dc.lft.to/lastmile_qr_scan", "android": "https://dc.lft.to/lastmile_qr_scan"}, "type": "electric_scooter", "name": "530259f5cb46c6d303cee1a0a4a1ce85", "is_reserved": 0, "lon": -77.02691133333333, "is_disabled": 0, "fusion_lat": 0.0, "lat": 38.972482666666664, "bike_id": "530259f5cb46c6d303cee1a0a4a1ce85", "fusion_lon": 0.0}, {"rental_uris": {"ios": "https://dc.lft.to/lastmile_qr_scan", "android": "https://dc.lft.to/lastmile_qr_scan"}, "type": "electric_scooter", "name": "e0a965fcf4bc274763136a3b27f90979", "is_reserved": 0, "lon": -76.9827815, "is_disabled": 0, "fusion_lat": 0.0, "lat": 38.903414166666664, "bike_id": "e0a965fcf4bc274763136a3b27f90979", "fusion_lon": 0.0}, {"rental_uris": {"ios": "https://dc.lft.to/lastmile_qr_scan", "android": "https://dc.lft.to/lastmile_qr_scan"}, "type": "electric_scooter", "name": "06357e739c4c1b05433d36c5ef2ee28d", "is_reserved": 0, "lon": -77.03199116666667, "is_disabled": 0, "fusion_lat": 0.0, "lat": 38.91717533333333, "bike_id": "06357e739c4c1b05433d36c5ef2ee28d", "fusion_lon": 0.0}, {"rental_uris": {"ios": "https://dc.lft.to/lastmile_qr_scan", "android": "https://dc.lft.to/lastmile_qr_scan"}, "type": "electric_scooter", "name": "e89e5815d6d8381352c82bfbb2d0d849", "is_reserved": 0, "lon": -77.002008, "is_disabled": 0, "fusion_lat": 0.0, "lat": 38.902378666666664, "bike_id": "e89e5815d6d8381352c82bfbb2d0d849", "fusion_lon": 0.0}, {"rental_uris": {"ios": "https://dc.lft.to/lastmile_qr_scan", "android": "https://dc.lft.to/lastmile_qr_scan"}, "type": "electric_scooter", "name": "2da762ffac8b3cd5512987318498a610", "is_reserved": 0, "lon": -76.994707, "is_disabled": 0, "fusion_lat": 0.0, "lat": 38.9054465, "bike_id": "2da762ffac8b3cd5512987318498a610", "fusion_lon": 0.0}, {"rental_uris": {"ios": "https://dc.lft.to/lastmile_qr_scan", "android": "https://dc.lft.to/lastmile_qr_scan"}, "type": "electric_scooter", "name": "8253ca7b0cd50c8b809d8307527eedac", "is_reserved": 0, "lon": -77.02149683333333, "is_disabled": 0, "fusion_lat": 0.0, "lat": 38.90309633333333, "bike_id": "8253ca7b0cd50c8b809d8307527eedac", "fusion_lon": 0.0}, {"rental_uris": {"ios": "https://dc.lft.to/lastmile_qr_scan", "android": "https://dc.lft.to/lastmile_qr_scan"}, "type": "electric_scooter", "name": "37ba5507970fedd9675b180d8de4c33a", "is_reserved": 0, "lon": -77.0417345, "is_disabled": 0, "fusion_lat": 0.0, "lat": 38.91551583333333, "bike_id": "37ba5507970fedd9675b180d8de4c33a", "fusion_lon": 0.0}, {"rental_uris": {"ios": "https://dc.lft.to/lastmile_qr_scan", "android": "https://dc.lft.to/lastmile_qr_scan"}, "type": "electric_scooter", "name": "d5833b82263122b5314cf159a4a099e6", "is_reserved": 0, "lon": -76.94195916666666, "is_disabled": 0, "fusion_lat": 0.0, "lat": 38.902289333333336, "bike_id": "d5833b82263122b5314cf159a4a099e6", "fusion_lon": 0.0}, {"rental_uris": {"ios": "https://dc.lft.to/lastmile_qr_scan", "android": "https://dc.lft.to/lastmile_qr_scan"}, "type": "electric_scooter", "name": "3f8909d9626b04ac4cf6dde99c404222", "is_reserved": 0, "lon": -77.036592, "is_disabled": 0, "fusion_lat": 0.0, "lat": 38.92121433333333, "bike_id": "3f8909d9626b04ac4cf6dde99c404222", "fusion_lon": 0.0}, {"rental_uris": {"ios": "https://dc.lft.to/lastmile_qr_scan", "android": "https://dc.lft.to/lastmile_qr_scan"}, "type": "electric_scooter", "name": "947ef156e762780f7df62f14beb269a3", "is_reserved": 0, "lon": -77.0262035, "is_disabled": 0, "fusion_lat": 0.0, "lat": 38.89603833333334, "bike_id": "947ef156e762780f7df62f14beb269a3", "fusion_lon": 0.0}, {"rental_uris": {"ios": "https://dc.lft.to/lastmile_qr_scan", "android": "https://dc.lft.to/lastmile_qr_scan"}, "type": "electric_scooter", "name": "4ae4e1624aa03585268b7e370fb260be", "is_reserved": 0, "lon": -77.075575, "is_disabled": 0, "fusion_lat": 0.0, "lat": 38.92093283333333, "bike_id": "4ae4e1624aa03585268b7e370fb260be", "fusion_lon": 0.0}, {"rental_uris": {"ios": "https://dc.lft.to/lastmile_qr_scan", "android": "https://dc.lft.to/lastmile_qr_scan"}, "type": "electric_scooter", "name": "eece10529d2857e8c749d8fa9293b8ac", "is_reserved": 0, "lon": -77.0194025, "is_disabled": 0, "fusion_lat": 0.0, "lat": 38.94703783333333, "bike_id": "eece10529d2857e8c749d8fa9293b8ac", "fusion_lon": 0.0}, {"rental_uris": {"ios": "https://dc.lft.to/lastmile_qr_scan", "android": "https://dc.lft.to/lastmile_qr_scan"}, "type": "electric_scooter", "name": "0a4356f300bf31165d4f332aafbcb75c", "is_reserved": 0, "lon": -77.01873416666666, "is_disabled": 0, "fusion_lat": 0.0, "lat": 38.903471333333336, "bike_id": "0a4356f300bf31165d4f332aafbcb75c", "fusion_lon": 0.0}, {"rental_uris": {"ios": "https://dc.lft.to/lastmile_qr_scan", "android": "https://dc.lft.to/lastmile_qr_scan"}, "type": "electric_scooter", "name": "5d3022a03c241800fa70bab408af1faa", "is_reserved": 0, "lon": -77.00155416666666, "is_disabled": 0, "fusion_lat": 0.0, "lat": 38.8213635, "bike_id": "5d3022a03c241800fa70bab408af1faa", "fusion_lon": 0.0}, {"rental_uris": {"ios": "https://dc.lft.to/lastmile_qr_scan", "android": "https://dc.lft.to/lastmile_qr_scan"}, "type": "electric_scooter", "name": "57b84a1ba89075c99da9a2586cbdfdca", "is_reserved": 0, "lon": -77.00777616666667, "is_disabled": 0, "fusion_lat": 0.0, "lat": 38.952444666666665, "bike_id": "57b84a1ba89075c99da9a2586cbdfdca", "fusion_lon": 0.0}, {"rental_uris": {"ios": "https://dc.lft.to/lastmile_qr_scan", "android": "https://dc.lft.to/lastmile_qr_scan"}, "type": "electric_scooter", "name": "7e08b17c6dc290fe26a14695af4554d2", "is_reserved": 0, "lon": -77.020212, "is_disabled": 0, "fusion_lat": 0.0, "lat": 38.89426266666667, "bike_id": "7e08b17c6dc290fe26a14695af4554d2", "fusion_lon": 0.0}, {"rental_uris": {"ios": "https://dc.lft.to/lastmile_qr_scan", "android": "https://dc.lft.to/lastmile_qr_scan"}, "type": "electric_scooter", "name": "d07ba4d03e6b63182df8994d27b88765", "is_reserved": 0, "lon": -77.02196166666667, "is_disabled": 0, "fusion_lat": 0.0, "lat": 38.892809166666666, "bike_id": "d07ba4d03e6b63182df8994d27b88765", "fusion_lon": 0.0}, {"rental_uris": {"ios": "https://dc.lft.to/lastmile_qr_scan", "android": "https://dc.lft.to/lastmile_qr_scan"}, "type": "electric_scooter", "name": "e6e0588b605d48eafacce1d17e78aded", "is_reserved": 0, "lon": -76.93041216666667, "is_disabled": 0, "fusion_lat": 0.0, "lat": 38.884036333333334, "bike_id": "e6e0588b605d48eafacce1d17e78aded", "fusion_lon": 0.0}, {"rental_uris": {"ios": "https://dc.lft.to/lastmile_qr_scan", "android": "https://dc.lft.to/lastmile_qr_scan"}, "type": "electric_bike", "name": "1042de3296a186407a6a60368410d508", "is_reserved": 0, "lon": -76.97541933333333, "is_disabled": 0, "fusion_lat": 0.0, "lat": 38.90435566666667, "bike_id": "1042de3296a186407a6a60368410d508", "fusion_lon": 0.0}, {"rental_uris": {"ios": "https://dc.lft.to/lastmile_qr_scan", "android": "https://dc.lft.to/lastmile_qr_scan"}, "type": "electric_scooter", "name": "3bb9b42ab98c369490a9ddf8c278fbc0", "is_reserved": 0, "lon": -77.02809283333333, "is_disabled": 0, "fusion_lat": 0.0, "lat": 38.89894, "bike_id": "3bb9b42ab98c369490a9ddf8c278fbc0", "fusion_lon": 0.0}, {"rental_uris": {"ios": "https://dc.lft.to/lastmile_qr_scan", "android": "https://dc.lft.to/lastmile_qr_scan"}, "type": "electric_bike", "name": "4c24b3cc99d908ef248eafb571e42c85", "is_reserved": 0, "lon": -76.9516165, "is_disabled": 0, "fusion_lat": 0.0, "lat": 39.08430933333333, "bike_id": "4c24b3cc99d908ef248eafb571e42c85", "fusion_lon": 0.0}, {"rental_uris": {"ios": "https://dc.lft.to/lastmile_qr_scan", "android": "https://dc.lft.to/lastmile_qr_scan"}, "type": "electric_scooter", "name": "0f1610bf35d7f59d1e10c630e39e05b3", "is_reserved": 0, "lon": -77.0348015, "is_disabled": 0, "fusion_lat": 0.0, "lat": 38.9353855, "bike_id": "0f1610bf35d7f59d1e10c630e39e05b3", "fusion_lon": 0.0}, {"rental_uris": {"ios": "https://dc.lft.to/lastmile_qr_scan", "android": "https://dc.lft.to/lastmile_qr_scan"}, "type": "electric_scooter", "name": "8a0144f9d07eb9694dd5b4a27b468983", "is_reserved": 0, "lon": -77.061217, "is_disabled": 0, "fusion_lat": 0.0, "lat": 38.90609166666667, "bike_id": "8a0144f9d07eb9694dd5b4a27b468983", "fusion_lon": 0.0}, {"rental_uris": {"ios": "https://dc.lft.to/lastmile_qr_scan", "android": "https://dc.lft.to/lastmile_qr_scan"}, "type": "electric_scooter", "name": "4344c3026696167d2e490091622740de", "is_reserved": 0, "lon": -76.98512333333333, "is_disabled": 0, "fusion_lat": 0.0, "lat": 38.8799165, "bike_id": "4344c3026696167d2e490091622740de", "fusion_lon": 0.0}, {"rental_uris": {"ios": "https://dc.lft.to/lastmile_qr_scan", "android": "https://dc.lft.to/lastmile_qr_scan"}, "type": "electric_bike", "name": "6e17c037aa5ad519e662a092293d57f9", "is_reserved": 0, "lon": -76.9868195, "is_disabled": 0, "fusion_lat": 0.0, "lat": 38.944722166666665, "bike_id": "6e17c037aa5ad519e662a092293d57f9", "fusion_lon": 0.0}, {"rental_uris": {"ios": "https://dc.lft.to/lastmile_qr_scan", "android": "https://dc.lft.to/lastmile_qr_scan"}, "type": "electric_scooter", "name": "82775502c86129a294d70f328ead2429", "is_reserved": 0, "lon": -77.0384825, "is_disabled": 0, "fusion_lat": 0.0, "lat": 38.93172216666667, "bike_id": "82775502c86129a294d70f328ead2429", "fusion_lon": 0.0}, {"rental_uris": {"ios": "https://dc.lft.to/lastmile_qr_scan", "android": "https://dc.lft.to/lastmile_qr_scan"}, "type": "electric_bike", "name": "ede738df18b24b24ffdb0dbe90468841", "is_reserved": 0, "lon": -77.00834783333333, "is_disabled": 0, "fusion_lat": 0.0, "lat": 38.87519566666667, "bike_id": "ede738df18b24b24ffdb0dbe90468841", "fusion_lon": 0.0}, {"rental_uris": {"ios": "https://dc.lft.to/lastmile_qr_scan", "android": "https://dc.lft.to/lastmile_qr_scan"}, "type": "electric_scooter", "name": "08835e491b666b7516808430de5a88f5", "is_reserved": 0, "lon": -77.02512366666667, "is_disabled": 0, "fusion_lat": 0.0, "lat": 38.91968883333333, "bike_id": "08835e491b666b7516808430de5a88f5", "fusion_lon": 0.0}, {"rental_uris": {"ios": "https://dc.lft.to/lastmile_qr_scan", "android": "https://dc.lft.to/lastmile_qr_scan"}, "type": "electric_scooter", "name": "a58ecd7507267500012bfbe611855837", "is_reserved": 0, "lon": -77.01444066666667, "is_disabled": 0, "fusion_lat": 0.0, "lat": 38.9180355, "bike_id": "a58ecd7507267500012bfbe611855837", "fusion_lon": 0.0}, {"rental_uris": {"ios": "https://dc.lft.to/lastmile_qr_scan", "android": "https://dc.lft.to/lastmile_qr_scan"}, "type": "electric_scooter", "name": "22e4681fbb76ad20646131f93fd79c49", "is_reserved": 0, "lon": -77.015102, "is_disabled": 0, "fusion_lat": 0.0, "lat": 38.8870235, "bike_id": "22e4681fbb76ad20646131f93fd79c49", "fusion_lon": 0.0}, {"rental_uris": {"ios": "https://dc.lft.to/lastmile_qr_scan", "android": "https://dc.lft.to/lastmile_qr_scan"}, "type": "electric_bike", "name": "83a59fa3d04601a4257324dc4cb72127", "is_reserved": 0, "lon": -77.102124, "is_disabled": 0, "fusion_lat": 0.0, "lat": 38.919971333333336, "bike_id": "83a59fa3d04601a4257324dc4cb72127", "fusion_lon": 0.0}, {"rental_uris": {"ios": "https://dc.lft.to/lastmile_qr_scan", "android": "https://dc.lft.to/lastmile_qr_scan"}, "type": "electric_scooter", "name": "ce1ad5fbb026fd0da3474b27b8a1be9a", "is_reserved": 0, "lon": -76.996203, "is_disabled": 0, "fusion_lat": 0.0, "lat": 38.8896945, "bike_id": "ce1ad5fbb026fd0da3474b27b8a1be9a", "fusion_lon": 0.0}, {"rental_uris": {"ios": "https://dc.lft.to/lastmile_qr_scan", "android": "https://dc.lft.to/lastmile_qr_scan"}, "type": "electric_bike", "name": "113cd727c131bbb852d0524fd0560746", "is_reserved": 0, "lon": -76.962656, "is_disabled": 0, "fusion_lat": 0.0, "lat": 38.9678525, "bike_id": "113cd727c131bbb852d0524fd0560746", "fusion_lon": 0.0}, {"rental_uris": {"ios": "https://dc.lft.to/lastmile_qr_scan", "android": "https://dc.lft.to/lastmile_qr_scan"}, "type": "electric_scooter", "name": "ec6e7137707bac4827042b44a8a6a35f", "is_reserved": 0, "lon": -77.02172483333334, "is_disabled": 0, "fusion_lat": 0.0, "lat": 38.894016666666666, "bike_id": "ec6e7137707bac4827042b44a8a6a35f", "fusion_lon": 0.0}, {"rental_uris": {"ios": "https://dc.lft.to/lastmile_qr_scan", "android": "https://dc.lft.to/lastmile_qr_scan"}, "type": "electric_scooter", "name": "417c60f64d9679921908707cdeab6d1a", "is_reserved": 0, "lon": -77.02590916666666, "is_disabled": 0, "fusion_lat": 0.0, "lat": 38.95823383333333, "bike_id": "417c60f64d9679921908707cdeab6d1a", "fusion_lon": 0.0}, {"rental_uris": {"ios": "https://dc.lft.to/lastmile_qr_scan", "android": "https://dc.lft.to/lastmile_qr_scan"}, "type": "electric_scooter", "name": "2faeb3c67e038b6ce319588937c8e1a1", "is_reserved": 0, "lon": -76.92301283333333, "is_disabled": 0, "fusion_lat": 0.0, "lat": 38.89389666666667, "bike_id": "2faeb3c67e038b6ce319588937c8e1a1", "fusion_lon": 0.0}, {"rental_uris": {"ios": "https://dc.lft.to/lastmile_qr_scan", "android": "https://dc.lft.to/lastmile_qr_scan"}, "type": "electric_scooter", "name": "f6f8d3ad134b5b17335ffaf54f472d12", "is_reserved": 0, "lon": -77.04377433333333, "is_disabled": 0, "fusion_lat": 0.0, "lat": 38.916645, "bike_id": "f6f8d3ad134b5b17335ffaf54f472d12", "fusion_lon": 0.0}, {"rental_uris": {"ios": "https://dc.lft.to/lastmile_qr_scan", "android": "https://dc.lft.to/lastmile_qr_scan"}, "type": "electric_scooter", "name": "dc8b52c9ddbe013416c77baf9738793a", "is_reserved": 0, "lon": -77.03413366666666, "is_disabled": 0, "fusion_lat": 0.0, "lat": 38.901262333333335, "bike_id": "dc8b52c9ddbe013416c77baf9738793a", "fusion_lon": 0.0}, {"rental_uris": {"ios": "https://dc.lft.to/lastmile_qr_scan", "android": "https://dc.lft.to/lastmile_qr_scan"}, "type": "electric_scooter", "name": "82e5ee0ae9b51872bc8a5e1b6f97cb4f", "is_reserved": 0, "lon": -77.02760083333334, "is_disabled": 0, "fusion_lat": 0.0, "lat": 38.913443666666666, "bike_id": "82e5ee0ae9b51872bc8a5e1b6f97cb4f", "fusion_lon": 0.0}, {"rental_uris": {"ios": "https://dc.lft.to/lastmile_qr_scan", "android": "https://dc.lft.to/lastmile_qr_scan"}, "type": "electric_bike", "name": "a17afcb4f70017f1980ac6110c68cb1f", "is_reserved": 0, "lon": -77.10290983333333, "is_disabled": 0, "fusion_lat": 0.0, "lat": 38.852549, "bike_id": "a17afcb4f70017f1980ac6110c68cb1f", "fusion_lon": 0.0}, {"rental_uris": {"ios": "https://dc.lft.to/lastmile_qr_scan", "android": "https://dc.lft.to/lastmile_qr_scan"}, "type": "electric_scooter", "name": "ee06f96e41f3eff4540f0a70673687f5", "is_reserved": 0, "lon": -77.04819433333333, "is_disabled": 0, "fusion_lat": 0.0, "lat": 38.90483966666667, "bike_id": "ee06f96e41f3eff4540f0a70673687f5", "fusion_lon": 0.0}, {"rental_uris": {"ios": "https://dc.lft.to/lastmile_qr_scan", "android": "https://dc.lft.to/lastmile_qr_scan"}, "type": "electric_scooter", "name": "a97a2e2c5947d543a332aebc8634a87a", "is_reserved": 0, "lon": -77.02005783333334, "is_disabled": 0, "fusion_lat": 0.0, "lat": 38.9280525, "bike_id": "a97a2e2c5947d543a332aebc8634a87a", "fusion_lon": 0.0}, {"rental_uris": {"ios": "https://dc.lft.to/lastmile_qr_scan", "android": "https://dc.lft.to/lastmile_qr_scan"}, "type": "electric_scooter", "name": "41b6d14629d8aa5cbc4e3fc518dcf543", "is_reserved": 0, "lon": -76.986506, "is_disabled": 0, "fusion_lat": 0.0, "lat": 38.90542283333333, "bike_id": "41b6d14629d8aa5cbc4e3fc518dcf543", "fusion_lon": 0.0}, {"rental_uris": {"ios": "https://dc.lft.to/lastmile_qr_scan", "android": "https://dc.lft.to/lastmile_qr_scan"}, "type": "electric_scooter", "name": "9f53bcc664c982465e4e52ed30b6c3ff", "is_reserved": 0, "lon": -77.00586116666666, "is_disabled": 0, "fusion_lat": 0.0, "lat": 38.8765995, "bike_id": "9f53bcc664c982465e4e52ed30b6c3ff", "fusion_lon": 0.0}, {"rental_uris": {"ios": "https://dc.lft.to/lastmile_qr_scan", "android": "https://dc.lft.to/lastmile_qr_scan"}, "type": "electric_scooter", "name": "bc02f2625a573366cec51f19965e4e26", "is_reserved": 0, "lon": -77.02566683333333, "is_disabled": 0, "fusion_lat": 0.0, "lat": 38.9485125, "bike_id": "bc02f2625a573366cec51f19965e4e26", "fusion_lon": 0.0}, {"rental_uris": {"ios": "https://dc.lft.to/lastmile_qr_scan", "android": "https://dc.lft.to/lastmile_qr_scan"}, "type": "electric_scooter", "name": "cda71a9a1e16df44a7a626961e9b7df2", "is_reserved": 0, "lon": -77.04959483333333, "is_disabled": 0, "fusion_lat": 0.0, "lat": 38.903596666666665, "bike_id": "cda71a9a1e16df44a7a626961e9b7df2", "fusion_lon": 0.0}, {"rental_uris": {"ios": "https://dc.lft.to/lastmile_qr_scan", "android": "https://dc.lft.to/lastmile_qr_scan"}, "type": "electric_bike", "name": "506dce0bcba842efd15f675e65c7cdac", "is_reserved": 0, "lon": -77.06485566666667, "is_disabled": 0, "fusion_lat": 0.0, "lat": 38.9097975, "bike_id": "506dce0bcba842efd15f675e65c7cdac", "fusion_lon": 0.0}, {"rental_uris": {"ios": "https://dc.lft.to/lastmile_qr_scan", "android": "https://dc.lft.to/lastmile_qr_scan"}, "type": "electric_scooter", "name": "0ae781f05beeb8a8c0d9a668265d2107", "is_reserved": 0, "lon": -77.07408383333333, "is_disabled": 0, "fusion_lat": 0.0, "lat": 38.897243333333336, "bike_id": "0ae781f05beeb8a8c0d9a668265d2107", "fusion_lon": 0.0}, {"rental_uris": {"ios": "https://dc.lft.to/lastmile_qr_scan", "android": "https://dc.lft.to/lastmile_qr_scan"}, "type": "electric_scooter", "name": "65170b356f0831ac5d09510554a37567", "is_reserved": 0, "lon": -77.004177, "is_disabled": 0, "fusion_lat": 0.0, "lat": 38.877090833333334, "bike_id": "65170b356f0831ac5d09510554a37567", "fusion_lon": 0.0}, {"rental_uris": {"ios": "https://dc.lft.to/lastmile_qr_scan", "android": "https://dc.lft.to/lastmile_qr_scan"}, "type": "electric_scooter", "name": "d1fadb005971b6bbe18a66d914150d79", "is_reserved": 0, "lon": -76.9950445, "is_disabled": 0, "fusion_lat": 0.0, "lat": 38.862476666666666, "bike_id": "d1fadb005971b6bbe18a66d914150d79", "fusion_lon": 0.0}, {"rental_uris": {"ios": "https://dc.lft.to/lastmile_qr_scan", "android": "https://dc.lft.to/lastmile_qr_scan"}, "type": "electric_scooter", "name": "a39abd8b79f528c363a73f51dfe3a522", "is_reserved": 0, "lon": -77.03194616666667, "is_disabled": 0, "fusion_lat": 0.0, "lat": 38.907131166666666, "bike_id": "a39abd8b79f528c363a73f51dfe3a522", "fusion_lon": 0.0}, {"rental_uris": {"ios": "https://dc.lft.to/lastmile_qr_scan", "android": "https://dc.lft.to/lastmile_qr_scan"}, "type": "electric_bike", "name": "9310faa7d9107ed7f99042575c3b235a", "is_reserved": 0, "lon": -76.99912616666667, "is_disabled": 0, "fusion_lat": 0.0, "lat": 38.864495, "bike_id": "9310faa7d9107ed7f99042575c3b235a", "fusion_lon": 0.0}, {"rental_uris": {"ios": "https://dc.lft.to/lastmile_qr_scan", "android": "https://dc.lft.to/lastmile_qr_scan"}, "type": "electric_scooter", "name": "5d3a98b743d4b7d12b86f8352714586b", "is_reserved": 0, "lon": -77.03392183333334, "is_disabled": 0, "fusion_lat": 0.0, "lat": 38.92867616666667, "bike_id": "5d3a98b743d4b7d12b86f8352714586b", "fusion_lon": 0.0}, {"rental_uris": {"ios": "https://dc.lft.to/lastmile_qr_scan", "android": "https://dc.lft.to/lastmile_qr_scan"}, "type": "electric_scooter", "name": "50dc14137b5056cb42c08117c2beb9aa", "is_reserved": 0, "lon": -77.03281466666667, "is_disabled": 0, "fusion_lat": 0.0, "lat": 38.93117133333333, "bike_id": "50dc14137b5056cb42c08117c2beb9aa", "fusion_lon": 0.0}, {"rental_uris": {"ios": "https://dc.lft.to/lastmile_qr_scan", "android": "https://dc.lft.to/lastmile_qr_scan"}, "type": "electric_scooter", "name": "addc97272c65976b1abe9338a4da4d40", "is_reserved": 0, "lon": -77.032493, "is_disabled": 0, "fusion_lat": 0.0, "lat": 38.896159, "bike_id": "addc97272c65976b1abe9338a4da4d40", "fusion_lon": 0.0}, {"rental_uris": {"ios": "https://dc.lft.to/lastmile_qr_scan", "android": "https://dc.lft.to/lastmile_qr_scan"}, "type": "electric_scooter", "name": "a0a466e40ea2b209a79bf430888dd5c5", "is_reserved": 0, "lon": -77.06124016666666, "is_disabled": 0, "fusion_lat": 0.0, "lat": 38.9023545, "bike_id": "a0a466e40ea2b209a79bf430888dd5c5", "fusion_lon": 0.0}, {"rental_uris": {"ios": "https://dc.lft.to/lastmile_qr_scan", "android": "https://dc.lft.to/lastmile_qr_scan"}, "type": "electric_scooter", "name": "1869f87bf2054b7a70f58854a5d6a58e", "is_reserved": 0, "lon": -77.02413183333333, "is_disabled": 0, "fusion_lat": 0.0, "lat": 38.905655333333335, "bike_id": "1869f87bf2054b7a70f58854a5d6a58e", "fusion_lon": 0.0}, {"rental_uris": {"ios": "https://dc.lft.to/lastmile_qr_scan", "android": "https://dc.lft.to/lastmile_qr_scan"}, "type": "electric_scooter", "name": "cfd2ad5b8ac0b916c3a3ee41a5434451", "is_reserved": 0, "lon": -77.04071616666667, "is_disabled": 0, "fusion_lat": 0.0, "lat": 38.947774333333335, "bike_id": "cfd2ad5b8ac0b916c3a3ee41a5434451", "fusion_lon": 0.0}, {"rental_uris": {"ios": "https://dc.lft.to/lastmile_qr_scan", "android": "https://dc.lft.to/lastmile_qr_scan"}, "type": "electric_scooter", "name": "b23805f135e229a1238493b28c72d9db", "is_reserved": 0, "lon": -77.02673383333334, "is_disabled": 0, "fusion_lat": 0.0, "lat": 38.9169965, "bike_id": "b23805f135e229a1238493b28c72d9db", "fusion_lon": 0.0}, {"rental_uris": {"ios": "https://dc.lft.to/lastmile_qr_scan", "android": "https://dc.lft.to/lastmile_qr_scan"}, "type": "electric_scooter", "name": "b5d772dd3415db06006282f31294969d", "is_reserved": 0, "lon": -77.000551, "is_disabled": 0, "fusion_lat": 0.0, "lat": 38.87691516666667, "bike_id": "b5d772dd3415db06006282f31294969d", "fusion_lon": 0.0}, {"rental_uris": {"ios": "https://dc.lft.to/lastmile_qr_scan", "android": "https://dc.lft.to/lastmile_qr_scan"}, "type": "electric_bike", "name": "3506e9efef1afbd4ff425853822bfcfb", "is_reserved": 0, "lon": -76.96889133333333, "is_disabled": 0, "fusion_lat": 0.0, "lat": 38.86989483333333, "bike_id": "3506e9efef1afbd4ff425853822bfcfb", "fusion_lon": 0.0}, {"rental_uris": {"ios": "https://dc.lft.to/lastmile_qr_scan", "android": "https://dc.lft.to/lastmile_qr_scan"}, "type": "electric_scooter", "name": "0387c8a484f9dbb74d2bc522003878c0", "is_reserved": 0, "lon": -76.99144216666667, "is_disabled": 0, "fusion_lat": 0.0, "lat": 38.873392833333334, "bike_id": "0387c8a484f9dbb74d2bc522003878c0", "fusion_lon": 0.0}, {"rental_uris": {"ios": "https://dc.lft.to/lastmile_qr_scan", "android": "https://dc.lft.to/lastmile_qr_scan"}, "type": "electric_scooter", "name": "89fa58d04e851dd7308dc76837a33a96", "is_reserved": 0, "lon": -77.0270945, "is_disabled": 0, "fusion_lat": 0.0, "lat": 38.920673666666666, "bike_id": "89fa58d04e851dd7308dc76837a33a96", "fusion_lon": 0.0}, {"rental_uris": {"ios": "https://dc.lft.to/lastmile_qr_scan", "android": "https://dc.lft.to/lastmile_qr_scan"}, "type": "electric_scooter", "name": "12bebf10e407b2961d64000268c68bac", "is_reserved": 0, "lon": -77.04474033333334, "is_disabled": 0, "fusion_lat": 0.0, "lat": 38.9108545, "bike_id": "12bebf10e407b2961d64000268c68bac", "fusion_lon": 0.0}, {"rental_uris": {"ios": "https://dc.lft.to/lastmile_qr_scan", "android": "https://dc.lft.to/lastmile_qr_scan"}, "type": "electric_scooter", "name": "735cc902821781c433b96015cbede6b4", "is_reserved": 0, "lon": -77.0641065, "is_disabled": 0, "fusion_lat": 0.0, "lat": 38.90863233333334, "bike_id": "735cc902821781c433b96015cbede6b4", "fusion_lon": 0.0}, {"rental_uris": {"ios": "https://dc.lft.to/lastmile_qr_scan", "android": "https://dc.lft.to/lastmile_qr_scan"}, "type": "electric_scooter", "name": "a82e1bad70eae35492dc0ff4d1c87032", "is_reserved": 0, "lon": -77.038758, "is_disabled": 0, "fusion_lat": 0.0, "lat": 38.90379466666667, "bike_id": "a82e1bad70eae35492dc0ff4d1c87032", "fusion_lon": 0.0}, {"rental_uris": {"ios": "https://dc.lft.to/lastmile_qr_scan", "android": "https://dc.lft.to/lastmile_qr_scan"}, "type": "electric_bike", "name": "1a6798be903b819c4ebf8d90240447a2", "is_reserved": 0, "lon": -77.1289365, "is_disabled": 0, "fusion_lat": 0.0, "lat": 38.906136333333336, "bike_id": "1a6798be903b819c4ebf8d90240447a2", "fusion_lon": 0.0}, {"rental_uris": {"ios": "https://dc.lft.to/lastmile_qr_scan", "android": "https://dc.lft.to/lastmile_qr_scan"}, "type": "electric_scooter", "name": "f0309c7136c15428977c241cf325491a", "is_reserved": 0, "lon": -77.04244483333333, "is_disabled": 0, "fusion_lat": 0.0, "lat": 38.922745, "bike_id": "f0309c7136c15428977c241cf325491a", "fusion_lon": 0.0}, {"rental_uris": {"ios": "https://dc.lft.to/lastmile_qr_scan", "android": "https://dc.lft.to/lastmile_qr_scan"}, "type": "electric_scooter", "name": "424f753b53750174ccb386db48a98ef8", "is_reserved": 0, "lon": -77.0531605, "is_disabled": 0, "fusion_lat": 0.0, "lat": 38.940966, "bike_id": "424f753b53750174ccb386db48a98ef8", "fusion_lon": 0.0}, {"rental_uris": {"ios": "https://dc.lft.to/lastmile_qr_scan", "android": "https://dc.lft.to/lastmile_qr_scan"}, "type": "electric_scooter", "name": "568df481c94b6579dd5dd1e7bddd8174", "is_reserved": 0, "lon": -77.04001816666667, "is_disabled": 0, "fusion_lat": 0.0, "lat": 38.934247166666665, "bike_id": "568df481c94b6579dd5dd1e7bddd8174", "fusion_lon": 0.0}, {"rental_uris": {"ios": "https://dc.lft.to/lastmile_qr_scan", "android": "https://dc.lft.to/lastmile_qr_scan"}, "type": "electric_scooter", "name": "d5410d82f65204aaff8c01b65f315218", "is_reserved": 0, "lon": -77.07156383333333, "is_disabled": 0, "fusion_lat": 0.0, "lat": 38.907836, "bike_id": "d5410d82f65204aaff8c01b65f315218", "fusion_lon": 0.0}, {"rental_uris": {"ios": "https://dc.lft.to/lastmile_qr_scan", "android": "https://dc.lft.to/lastmile_qr_scan"}, "type": "electric_scooter", "name": "0ea9afc8c84e318fada59f178c2d5152", "is_reserved": 0, "lon": -77.01767516666666, "is_disabled": 0, "fusion_lat": 0.0, "lat": 38.9051235, "bike_id": "0ea9afc8c84e318fada59f178c2d5152", "fusion_lon": 0.0}, {"rental_uris": {"ios": "https://dc.lft.to/lastmile_qr_scan", "android": "https://dc.lft.to/lastmile_qr_scan"}, "type": "electric_scooter", "name": "9aea4f9045ecf60b23426fc8337726cf", "is_reserved": 0, "lon": -77.04730533333333, "is_disabled": 0, "fusion_lat": 0.0, "lat": 38.89556916666667, "bike_id": "9aea4f9045ecf60b23426fc8337726cf", "fusion_lon": 0.0}, {"rental_uris": {"ios": "https://dc.lft.to/lastmile_qr_scan", "android": "https://dc.lft.to/lastmile_qr_scan"}, "type": "electric_scooter", "name": "a03d8d041021d889303eea0f0dfa1776", "is_reserved": 0, "lon": -77.03833133333333, "is_disabled": 0, "fusion_lat": 0.0, "lat": 38.9626335, "bike_id": "a03d8d041021d889303eea0f0dfa1776", "fusion_lon": 0.0}, {"rental_uris": {"ios": "https://dc.lft.to/lastmile_qr_scan", "android": "https://dc.lft.to/lastmile_qr_scan"}, "type": "electric_scooter", "name": "c997f3324ca114b702c76fdf0ae9e932", "is_reserved": 0, "lon": -77.02697366666666, "is_disabled": 0, "fusion_lat": 0.0, "lat": 38.90843866666667, "bike_id": "c997f3324ca114b702c76fdf0ae9e932", "fusion_lon": 0.0}, {"rental_uris": {"ios": "https://dc.lft.to/lastmile_qr_scan", "android": "https://dc.lft.to/lastmile_qr_scan"}, "type": "electric_scooter", "name": "57712cf0edf78731e7effa2834ffc6cd", "is_reserved": 0, "lon": -77.0248345, "is_disabled": 0, "fusion_lat": 0.0, "lat": 38.91813783333333, "bike_id": "57712cf0edf78731e7effa2834ffc6cd", "fusion_lon": 0.0}, {"rental_uris": {"ios": "https://dc.lft.to/lastmile_qr_scan", "android": "https://dc.lft.to/lastmile_qr_scan"}, "type": "electric_scooter", "name": "cac53d368f75f62f1363bf2a0c08334c", "is_reserved": 0, "lon": -77.03174266666667, "is_disabled": 0, "fusion_lat": 0.0, "lat": 38.91553916666667, "bike_id": "cac53d368f75f62f1363bf2a0c08334c", "fusion_lon": 0.0}, {"rental_uris": {"ios": "https://dc.lft.to/lastmile_qr_scan", "android": "https://dc.lft.to/lastmile_qr_scan"}, "type": "electric_scooter", "name": "275fb01ed14c23e6ad844eead184ea0e", "is_reserved": 0, "lon": -76.99417216666667, "is_disabled": 0, "fusion_lat": 0.0, "lat": 38.91688966666667, "bike_id": "275fb01ed14c23e6ad844eead184ea0e", "fusion_lon": 0.0}, {"rental_uris": {"ios": "https://dc.lft.to/lastmile_qr_scan", "android": "https://dc.lft.to/lastmile_qr_scan"}, "type": "electric_scooter", "name": "a5c47e23b718a3e433d3953bf1db1401", "is_reserved": 0, "lon": -76.99480066666666, "is_disabled": 0, "fusion_lat": 0.0, "lat": 38.8621275, "bike_id": "a5c47e23b718a3e433d3953bf1db1401", "fusion_lon": 0.0}, {"rental_uris": {"ios": "https://dc.lft.to/lastmile_qr_scan", "android": "https://dc.lft.to/lastmile_qr_scan"}, "type": "electric_scooter", "name": "9bf70496a689bb0d120c6b24dbc6f9ce", "is_reserved": 0, "lon": -77.06142683333333, "is_disabled": 0, "fusion_lat": 0.0, "lat": 38.912961333333335, "bike_id": "9bf70496a689bb0d120c6b24dbc6f9ce", "fusion_lon": 0.0}, {"rental_uris": {"ios": "https://dc.lft.to/lastmile_qr_scan", "android": "https://dc.lft.to/lastmile_qr_scan"}, "type": "electric_scooter", "name": "04030077fe03b8d883f523f559b0f72c", "is_reserved": 0, "lon": -77.03055516666667, "is_disabled": 0, "fusion_lat": 0.0, "lat": 38.90832416666667, "bike_id": "04030077fe03b8d883f523f559b0f72c", "fusion_lon": 0.0}, {"rental_uris": {"ios": "https://dc.lft.to/lastmile_qr_scan", "android": "https://dc.lft.to/lastmile_qr_scan"}, "type": "electric_scooter", "name": "a6046e453bf01123e92470d00200d876", "is_reserved": 0, "lon": -77.00548516666667, "is_disabled": 0, "fusion_lat": 0.0, "lat": 38.875341166666665, "bike_id": "a6046e453bf01123e92470d00200d876", "fusion_lon": 0.0}, {"rental_uris": {"ios": "https://dc.lft.to/lastmile_qr_scan", "android": "https://dc.lft.to/lastmile_qr_scan"}, "type": "electric_bike", "name": "e8a557a6ca9c3735f65a15e0b7471077", "is_reserved": 0, "lon": -77.02366366666666, "is_disabled": 0, "fusion_lat": 0.0, "lat": 38.88481766666666, "bike_id": "e8a557a6ca9c3735f65a15e0b7471077", "fusion_lon": 0.0}, {"rental_uris": {"ios": "https://dc.lft.to/lastmile_qr_scan", "android": "https://dc.lft.to/lastmile_qr_scan"}, "type": "electric_scooter", "name": "14d5cd1291f3721410b27de8c3b67425", "is_reserved": 0, "lon": -77.02395366666667, "is_disabled": 0, "fusion_lat": 0.0, "lat": 38.920832, "bike_id": "14d5cd1291f3721410b27de8c3b67425", "fusion_lon": 0.0}, {"rental_uris": {"ios": "https://dc.lft.to/lastmile_qr_scan", "android": "https://dc.lft.to/lastmile_qr_scan"}, "type": "electric_scooter", "name": "a7df6559fd36c25296975374543bab3a", "is_reserved": 0, "lon": -76.992118, "is_disabled": 0, "fusion_lat": 0.0, "lat": 38.889703833333336, "bike_id": "a7df6559fd36c25296975374543bab3a", "fusion_lon": 0.0}, {"rental_uris": {"ios": "https://dc.lft.to/lastmile_qr_scan", "android": "https://dc.lft.to/lastmile_qr_scan"}, "type": "electric_scooter", "name": "4a08f244470d3bf1695aea30913023d2", "is_reserved": 0, "lon": -77.0184445, "is_disabled": 0, "fusion_lat": 0.0, "lat": 38.9213935, "bike_id": "4a08f244470d3bf1695aea30913023d2", "fusion_lon": 0.0}, {"rental_uris": {"ios": "https://dc.lft.to/lastmile_qr_scan", "android": "https://dc.lft.to/lastmile_qr_scan"}, "type": "electric_scooter", "name": "b581ae88a4764026d8edf75a7a162a9b", "is_reserved": 0, "lon": -77.0403805, "is_disabled": 0, "fusion_lat": 0.0, "lat": 38.905968333333334, "bike_id": "b581ae88a4764026d8edf75a7a162a9b", "fusion_lon": 0.0}, {"rental_uris": {"ios": "https://dc.lft.to/lastmile_qr_scan", "android": "https://dc.lft.to/lastmile_qr_scan"}, "type": "electric_scooter", "name": "739f01cbbf3d180a7668eac60a365bf4", "is_reserved": 0, "lon": -77.04964683333333, "is_disabled": 0, "fusion_lat": 0.0, "lat": 38.913332, "bike_id": "739f01cbbf3d180a7668eac60a365bf4", "fusion_lon": 0.0}, {"rental_uris": {"ios": "https://dc.lft.to/lastmile_qr_scan", "android": "https://dc.lft.to/lastmile_qr_scan"}, "type": "electric_scooter", "name": "3c1edf32a363e6dfbdfbf4cec60327cc", "is_reserved": 0, "lon": -77.0384185, "is_disabled": 0, "fusion_lat": 0.0, "lat": 38.903897666666666, "bike_id": "3c1edf32a363e6dfbdfbf4cec60327cc", "fusion_lon": 0.0}, {"rental_uris": {"ios": "https://dc.lft.to/lastmile_qr_scan", "android": "https://dc.lft.to/lastmile_qr_scan"}, "type": "electric_scooter", "name": "c0ec8f8cd738c263f8add35291e412d5", "is_reserved": 0, "lon": -77.0413135, "is_disabled": 0, "fusion_lat": 0.0, "lat": 38.934065833333335, "bike_id": "c0ec8f8cd738c263f8add35291e412d5", "fusion_lon": 0.0}, {"rental_uris": {"ios": "https://dc.lft.to/lastmile_qr_scan", "android": "https://dc.lft.to/lastmile_qr_scan"}, "type": "electric_bike", "name": "5a36eb0e0128763a12ae87e0ba36b42a", "is_reserved": 0, "lon": -76.94166216666666, "is_disabled": 0, "fusion_lat": 0.0, "lat": 38.865543833333334, "bike_id": "5a36eb0e0128763a12ae87e0ba36b42a", "fusion_lon": 0.0}, {"rental_uris": {"ios": "https://dc.lft.to/lastmile_qr_scan", "android": "https://dc.lft.to/lastmile_qr_scan"}, "type": "electric_scooter", "name": "c0547b9a606bd2f617d01279cfbdfa47", "is_reserved": 0, "lon": -77.03191283333334, "is_disabled": 0, "fusion_lat": 0.0, "lat": 38.91325633333334, "bike_id": "c0547b9a606bd2f617d01279cfbdfa47", "fusion_lon": 0.0}, {"rental_uris": {"ios": "https://dc.lft.to/lastmile_qr_scan", "android": "https://dc.lft.to/lastmile_qr_scan"}, "type": "electric_scooter", "name": "95d9a93ecebf1aa50934b884687e9138", "is_reserved": 0, "lon": -77.0022325, "is_disabled": 0, "fusion_lat": 0.0, "lat": 38.900359, "bike_id": "95d9a93ecebf1aa50934b884687e9138", "fusion_lon": 0.0}, {"rental_uris": {"ios": "https://dc.lft.to/lastmile_qr_scan", "android": "https://dc.lft.to/lastmile_qr_scan"}, "type": "electric_scooter", "name": "5ca5d57c6691d695bcba2ca019bbabfe", "is_reserved": 0, "lon": -76.98029783333334, "is_disabled": 0, "fusion_lat": 0.0, "lat": 38.916838166666665, "bike_id": "5ca5d57c6691d695bcba2ca019bbabfe", "fusion_lon": 0.0}, {"rental_uris": {"ios": "https://dc.lft.to/lastmile_qr_scan", "android": "https://dc.lft.to/lastmile_qr_scan"}, "type": "electric_scooter", "name": "4fb4cdd11f18eb3e00c8c197934a5300", "is_reserved": 0, "lon": -77.03969633333334, "is_disabled": 0, "fusion_lat": 0.0, "lat": 38.892412666666665, "bike_id": "4fb4cdd11f18eb3e00c8c197934a5300", "fusion_lon": 0.0}, {"rental_uris": {"ios": "https://dc.lft.to/lastmile_qr_scan", "android": "https://dc.lft.to/lastmile_qr_scan"}, "type": "electric_scooter", "name": "8420c61002de26c70a422b75eb0befd5", "is_reserved": 0, "lon": -77.02296716666666, "is_disabled": 0, "fusion_lat": 0.0, "lat": 38.92520866666667, "bike_id": "8420c61002de26c70a422b75eb0befd5", "fusion_lon": 0.0}, {"rental_uris": {"ios": "https://dc.lft.to/lastmile_qr_scan", "android": "https://dc.lft.to/lastmile_qr_scan"}, "type": "electric_scooter", "name": "1ce5e9299ac531c7f10b37316a240c28", "is_reserved": 0, "lon": -77.04071766666667, "is_disabled": 0, "fusion_lat": 0.0, "lat": 38.9052195, "bike_id": "1ce5e9299ac531c7f10b37316a240c28", "fusion_lon": 0.0}, {"rental_uris": {"ios": "https://dc.lft.to/lastmile_qr_scan", "android": "https://dc.lft.to/lastmile_qr_scan"}, "type": "electric_scooter", "name": "8ee0640a4718d3afd98fb47b1868ad90", "is_reserved": 0, "lon": -77.0314885, "is_disabled": 0, "fusion_lat": 0.0, "lat": 38.88302566666667, "bike_id": "8ee0640a4718d3afd98fb47b1868ad90", "fusion_lon": 0.0}, {"rental_uris": {"ios": "https://dc.lft.to/lastmile_qr_scan", "android": "https://dc.lft.to/lastmile_qr_scan"}, "type": "electric_bike", "name": "7e3b186013e5a54488ed5a53e3aa1d82", "is_reserved": 0, "lon": -77.12840766666666, "is_disabled": 0, "fusion_lat": 0.0, "lat": 38.8005235, "bike_id": "7e3b186013e5a54488ed5a53e3aa1d82", "fusion_lon": 0.0}, {"rental_uris": {"ios": "https://dc.lft.to/lastmile_qr_scan", "android": "https://dc.lft.to/lastmile_qr_scan"}, "type": "electric_scooter", "name": "814f76f9e887d65b82aad45d1d3c0b5b", "is_reserved": 0, "lon": -77.04839566666666, "is_disabled": 0, "fusion_lat": 0.0, "lat": 38.90486883333333, "bike_id": "814f76f9e887d65b82aad45d1d3c0b5b", "fusion_lon": 0.0}, {"rental_uris": {"ios": "https://dc.lft.to/lastmile_qr_scan", "android": "https://dc.lft.to/lastmile_qr_scan"}, "type": "electric_scooter", "name": "d070bc15a310dadd1854f0f24d2a2846", "is_reserved": 0, "lon": -77.02685566666666, "is_disabled": 0, "fusion_lat": 0.0, "lat": 38.902392, "bike_id": "d070bc15a310dadd1854f0f24d2a2846", "fusion_lon": 0.0}, {"rental_uris": {"ios": "https://dc.lft.to/lastmile_qr_scan", "android": "https://dc.lft.to/lastmile_qr_scan"}, "type": "electric_scooter", "name": "fe733ebeb1b6da51c4c6279bf4aa34ab", "is_reserved": 0, "lon": -76.99707116666667, "is_disabled": 0, "fusion_lat": 0.0, "lat": 38.8998655, "bike_id": "fe733ebeb1b6da51c4c6279bf4aa34ab", "fusion_lon": 0.0}, {"rental_uris": {"ios": "https://dc.lft.to/lastmile_qr_scan", "android": "https://dc.lft.to/lastmile_qr_scan"}, "type": "electric_scooter", "name": "777940109dba733bbd35bef7100f7dbb", "is_reserved": 0, "lon": -77.02704616666666, "is_disabled": 0, "fusion_lat": 0.0, "lat": 38.89726183333333, "bike_id": "777940109dba733bbd35bef7100f7dbb", "fusion_lon": 0.0}, {"rental_uris": {"ios": "https://dc.lft.to/lastmile_qr_scan", "android": "https://dc.lft.to/lastmile_qr_scan"}, "type": "electric_scooter", "name": "32f44cd489e45c5bf5acf6e0b98a0ba5", "is_reserved": 0, "lon": -77.038666, "is_disabled": 0, "fusion_lat": 0.0, "lat": 38.903771, "bike_id": "32f44cd489e45c5bf5acf6e0b98a0ba5", "fusion_lon": 0.0}, {"rental_uris": {"ios": "https://dc.lft.to/lastmile_qr_scan", "android": "https://dc.lft.to/lastmile_qr_scan"}, "type": "electric_scooter", "name": "3a94a62931cc464179dfa120a975df6f", "is_reserved": 0, "lon": -77.05323783333333, "is_disabled": 0, "fusion_lat": 0.0, "lat": 38.906456666666664, "bike_id": "3a94a62931cc464179dfa120a975df6f", "fusion_lon": 0.0}, {"rental_uris": {"ios": "https://dc.lft.to/lastmile_qr_scan", "android": "https://dc.lft.to/lastmile_qr_scan"}, "type": "electric_scooter", "name": "639fdcc77ecdd5bd1bdaa313f2abbed6", "is_reserved": 0, "lon": -76.983719, "is_disabled": 0, "fusion_lat": 0.0, "lat": 38.914765, "bike_id": "639fdcc77ecdd5bd1bdaa313f2abbed6", "fusion_lon": 0.0}, {"rental_uris": {"ios": "https://dc.lft.to/lastmile_qr_scan", "android": "https://dc.lft.to/lastmile_qr_scan"}, "type": "electric_scooter", "name": "b6e256dd212b0a3188f74385b26a3c22", "is_reserved": 0, "lon": -77.0294205, "is_disabled": 0, "fusion_lat": 0.0, "lat": 38.9169895, "bike_id": "b6e256dd212b0a3188f74385b26a3c22", "fusion_lon": 0.0}, {"rental_uris": {"ios": "https://dc.lft.to/lastmile_qr_scan", "android": "https://dc.lft.to/lastmile_qr_scan"}, "type": "electric_scooter", "name": "77ccbe1df89566f6f5949fbfe0abd815", "is_reserved": 0, "lon": -77.03285433333333, "is_disabled": 0, "fusion_lat": 0.0, "lat": 38.94794866666667, "bike_id": "77ccbe1df89566f6f5949fbfe0abd815", "fusion_lon": 0.0}, {"rental_uris": {"ios": "https://dc.lft.to/lastmile_qr_scan", "android": "https://dc.lft.to/lastmile_qr_scan"}, "type": "electric_scooter", "name": "32987a4c7bac74f60cf5672c7ee85150", "is_reserved": 0, "lon": -77.02546366666667, "is_disabled": 0, "fusion_lat": 0.0, "lat": 38.9517755, "bike_id": "32987a4c7bac74f60cf5672c7ee85150", "fusion_lon": 0.0}, {"rental_uris": {"ios": "https://dc.lft.to/lastmile_qr_scan", "android": "https://dc.lft.to/lastmile_qr_scan"}, "type": "electric_scooter", "name": "e74be57147b4b02c5759bed9132e4767", "is_reserved": 0, "lon": -77.04152683333334, "is_disabled": 0, "fusion_lat": 0.0, "lat": 38.90558166666667, "bike_id": "e74be57147b4b02c5759bed9132e4767", "fusion_lon": 0.0}, {"rental_uris": {"ios": "https://dc.lft.to/lastmile_qr_scan", "android": "https://dc.lft.to/lastmile_qr_scan"}, "type": "electric_scooter", "name": "00feb3c91608ca429f206f5c9e966e4e", "is_reserved": 0, "lon": -76.99164466666667, "is_disabled": 0, "fusion_lat": 0.0, "lat": 38.890174333333334, "bike_id": "00feb3c91608ca429f206f5c9e966e4e", "fusion_lon": 0.0}, {"rental_uris": {"ios": "https://dc.lft.to/lastmile_qr_scan", "android": "https://dc.lft.to/lastmile_qr_scan"}, "type": "electric_scooter", "name": "25ab77f669c777ae7f7e19ff049a3bed", "is_reserved": 0, "lon": -77.02718, "is_disabled": 0, "fusion_lat": 0.0, "lat": 38.9182895, "bike_id": "25ab77f669c777ae7f7e19ff049a3bed", "fusion_lon": 0.0}, {"rental_uris": {"ios": "https://dc.lft.to/lastmile_qr_scan", "android": "https://dc.lft.to/lastmile_qr_scan"}, "type": "electric_scooter", "name": "97be1c28bebaa569cc9a59be8db64512", "is_reserved": 0, "lon": -77.0404805, "is_disabled": 0, "fusion_lat": 0.0, "lat": 38.93016883333333, "bike_id": "97be1c28bebaa569cc9a59be8db64512", "fusion_lon": 0.0}, {"rental_uris": {"ios": "https://dc.lft.to/lastmile_qr_scan", "android": "https://dc.lft.to/lastmile_qr_scan"}, "type": "electric_scooter", "name": "60de638c2345cff14a06cf543d18922b", "is_reserved": 0, "lon": -77.04313633333334, "is_disabled": 0, "fusion_lat": 0.0, "lat": 38.93423633333333, "bike_id": "60de638c2345cff14a06cf543d18922b", "fusion_lon": 0.0}, {"rental_uris": {"ios": "https://dc.lft.to/lastmile_qr_scan", "android": "https://dc.lft.to/lastmile_qr_scan"}, "type": "electric_scooter", "name": "bd06d96743e67b2a8a393ae29e0a6b38", "is_reserved": 0, "lon": -77.06002616666666, "is_disabled": 0, "fusion_lat": 0.0, "lat": 38.90512616666667, "bike_id": "bd06d96743e67b2a8a393ae29e0a6b38", "fusion_lon": 0.0}, {"rental_uris": {"ios": "https://dc.lft.to/lastmile_qr_scan", "android": "https://dc.lft.to/lastmile_qr_scan"}, "type": "electric_scooter", "name": "9a28ffc201f64f2e67bf4d38f89fdbac", "is_reserved": 0, "lon": -77.034563, "is_disabled": 0, "fusion_lat": 0.0, "lat": 38.91196733333334, "bike_id": "9a28ffc201f64f2e67bf4d38f89fdbac", "fusion_lon": 0.0}, {"rental_uris": {"ios": "https://dc.lft.to/lastmile_qr_scan", "android": "https://dc.lft.to/lastmile_qr_scan"}, "type": "electric_scooter", "name": "ebfbaa33736034fdde2d3b24bceeb675", "is_reserved": 0, "lon": -77.03721033333333, "is_disabled": 0, "fusion_lat": 0.0, "lat": 38.900306666666665, "bike_id": "ebfbaa33736034fdde2d3b24bceeb675", "fusion_lon": 0.0}, {"rental_uris": {"ios": "https://dc.lft.to/lastmile_qr_scan", "android": "https://dc.lft.to/lastmile_qr_scan"}, "type": "electric_scooter", "name": "78a76b0eb98668d7874f9d715422ae95", "is_reserved": 0, "lon": -77.0522265, "is_disabled": 0, "fusion_lat": 0.0, "lat": 38.909780166666664, "bike_id": "78a76b0eb98668d7874f9d715422ae95", "fusion_lon": 0.0}, {"rental_uris": {"ios": "https://dc.lft.to/lastmile_qr_scan", "android": "https://dc.lft.to/lastmile_qr_scan"}, "type": "electric_scooter", "name": "1df382187931d030f3ddd175fcb33f16", "is_reserved": 0, "lon": -77.0272335, "is_disabled": 0, "fusion_lat": 0.0, "lat": 38.90599533333334, "bike_id": "1df382187931d030f3ddd175fcb33f16", "fusion_lon": 0.0}, {"rental_uris": {"ios": "https://dc.lft.to/lastmile_qr_scan", "android": "https://dc.lft.to/lastmile_qr_scan"}, "type": "electric_scooter", "name": "f08edaf0e556e6c56bd4d24edc739e22", "is_reserved": 0, "lon": -77.048593, "is_disabled": 0, "fusion_lat": 0.0, "lat": 38.89223783333333, "bike_id": "f08edaf0e556e6c56bd4d24edc739e22", "fusion_lon": 0.0}, {"rental_uris": {"ios": "https://dc.lft.to/lastmile_qr_scan", "android": "https://dc.lft.to/lastmile_qr_scan"}, "type": "electric_scooter", "name": "85e295d8fa5245c5d6323907d981b393", "is_reserved": 0, "lon": -77.023228, "is_disabled": 0, "fusion_lat": 0.0, "lat": 38.90280683333334, "bike_id": "85e295d8fa5245c5d6323907d981b393", "fusion_lon": 0.0}, {"rental_uris": {"ios": "https://dc.lft.to/lastmile_qr_scan", "android": "https://dc.lft.to/lastmile_qr_scan"}, "type": "electric_scooter", "name": "4528efc0df3f14ae8382f4f2149f9810", "is_reserved": 0, "lon": -77.0242715, "is_disabled": 0, "fusion_lat": 0.0, "lat": 38.915612333333335, "bike_id": "4528efc0df3f14ae8382f4f2149f9810", "fusion_lon": 0.0}, {"rental_uris": {"ios": "https://dc.lft.to/lastmile_qr_scan", "android": "https://dc.lft.to/lastmile_qr_scan"}, "type": "electric_scooter", "name": "68dd5259bd9628f33c29b3a2ff97b486", "is_reserved": 0, "lon": -77.04465766666667, "is_disabled": 0, "fusion_lat": 0.0, "lat": 38.9241945, "bike_id": "68dd5259bd9628f33c29b3a2ff97b486", "fusion_lon": 0.0}, {"rental_uris": {"ios": "https://dc.lft.to/lastmile_qr_scan", "android": "https://dc.lft.to/lastmile_qr_scan"}, "type": "electric_scooter", "name": "1d4d15dac187631a39ff813652e1eb91", "is_reserved": 0, "lon": -77.02822866666666, "is_disabled": 0, "fusion_lat": 0.0, "lat": 38.9028725, "bike_id": "1d4d15dac187631a39ff813652e1eb91", "fusion_lon": 0.0}, {"rental_uris": {"ios": "https://dc.lft.to/lastmile_qr_scan", "android": "https://dc.lft.to/lastmile_qr_scan"}, "type": "electric_scooter", "name": "fd3af2043613e43baa518facb242a6b6", "is_reserved": 0, "lon": -77.041198, "is_disabled": 0, "fusion_lat": 0.0, "lat": 38.93103133333334, "bike_id": "fd3af2043613e43baa518facb242a6b6", "fusion_lon": 0.0}, {"rental_uris": {"ios": "https://dc.lft.to/lastmile_qr_scan", "android": "https://dc.lft.to/lastmile_qr_scan"}, "type": "electric_scooter", "name": "4f75329a475c27013f1f7e4f16172527", "is_reserved": 0, "lon": -77.0447835, "is_disabled": 0, "fusion_lat": 0.0, "lat": 38.9109665, "bike_id": "4f75329a475c27013f1f7e4f16172527", "fusion_lon": 0.0}, {"rental_uris": {"ios": "https://dc.lft.to/lastmile_qr_scan", "android": "https://dc.lft.to/lastmile_qr_scan"}, "type": "electric_scooter", "name": "537b03e11d023c5bc19e7e006f06d45d", "is_reserved": 0, "lon": -76.98581916666667, "is_disabled": 0, "fusion_lat": 0.0, "lat": 38.85449466666667, "bike_id": "537b03e11d023c5bc19e7e006f06d45d", "fusion_lon": 0.0}, {"rental_uris": {"ios": "https://dc.lft.to/lastmile_qr_scan", "android": "https://dc.lft.to/lastmile_qr_scan"}, "type": "electric_scooter", "name": "a2f2a0f941d1fb1c194ad2429250073e", "is_reserved": 0, "lon": -77.03079783333334, "is_disabled": 0, "fusion_lat": 0.0, "lat": 38.938730666666665, "bike_id": "a2f2a0f941d1fb1c194ad2429250073e", "fusion_lon": 0.0}, {"rental_uris": {"ios": "https://dc.lft.to/lastmile_qr_scan", "android": "https://dc.lft.to/lastmile_qr_scan"}, "type": "electric_bike", "name": "a18ab1edfc30133ac4da44ddbcafcaef", "is_reserved": 0, "lon": -77.01231216666666, "is_disabled": 0, "fusion_lat": 0.0, "lat": 38.950852166666664, "bike_id": "a18ab1edfc30133ac4da44ddbcafcaef", "fusion_lon": 0.0}, {"rental_uris": {"ios": "https://dc.lft.to/lastmile_qr_scan", "android": "https://dc.lft.to/lastmile_qr_scan"}, "type": "electric_bike", "name": "cf5428b50cb4cf7397aaf6dd0b8e11cd", "is_reserved": 0, "lon": -77.00009966666667, "is_disabled": 0, "fusion_lat": 0.0, "lat": 38.92395833333333, "bike_id": "cf5428b50cb4cf7397aaf6dd0b8e11cd", "fusion_lon": 0.0}, {"rental_uris": {"ios": "https://dc.lft.to/lastmile_qr_scan", "android": "https://dc.lft.to/lastmile_qr_scan"}, "type": "electric_scooter", "name": "499f4963ad1afd4acf2abced9b920c3e", "is_reserved": 0, "lon": -77.02709983333334, "is_disabled": 0, "fusion_lat": 0.0, "lat": 38.912251, "bike_id": "499f4963ad1afd4acf2abced9b920c3e", "fusion_lon": 0.0}, {"rental_uris": {"ios": "https://dc.lft.to/lastmile_qr_scan", "android": "https://dc.lft.to/lastmile_qr_scan"}, "type": "electric_bike", "name": "56246e00d74179202aedffed82a1fa8f", "is_reserved": 0, "lon": -77.02070166666667, "is_disabled": 0, "fusion_lat": 0.0, "lat": 38.964433166666666, "bike_id": "56246e00d74179202aedffed82a1fa8f", "fusion_lon": 0.0}, {"rental_uris": {"ios": "https://dc.lft.to/lastmile_qr_scan", "android": "https://dc.lft.to/lastmile_qr_scan"}, "type": "electric_scooter", "name": "86fc37ad42173c22ab8515ef3082e03f", "is_reserved": 0, "lon": -77.0055695, "is_disabled": 0, "fusion_lat": 0.0, "lat": 38.91183266666667, "bike_id": "86fc37ad42173c22ab8515ef3082e03f", "fusion_lon": 0.0}, {"rental_uris": {"ios": "https://dc.lft.to/lastmile_qr_scan", "android": "https://dc.lft.to/lastmile_qr_scan"}, "type": "electric_scooter", "name": "71bc7384e80f58e49ca5e432897fc9b9", "is_reserved": 0, "lon": -77.023954, "is_disabled": 0, "fusion_lat": 0.0, "lat": 38.920834666666664, "bike_id": "71bc7384e80f58e49ca5e432897fc9b9", "fusion_lon": 0.0}, {"rental_uris": {"ios": "https://dc.lft.to/lastmile_qr_scan", "android": "https://dc.lft.to/lastmile_qr_scan"}, "type": "electric_scooter", "name": "d7023dd8800283901dd93cededcb0abb", "is_reserved": 0, "lon": -77.06023866666666, "is_disabled": 0, "fusion_lat": 0.0, "lat": 38.93877916666667, "bike_id": "d7023dd8800283901dd93cededcb0abb", "fusion_lon": 0.0}, {"rental_uris": {"ios": "https://dc.lft.to/lastmile_qr_scan", "android": "https://dc.lft.to/lastmile_qr_scan"}, "type": "electric_scooter", "name": "0791e681fd9bb97b66cc87990a39da68", "is_reserved": 0, "lon": -76.98539616666666, "is_disabled": 0, "fusion_lat": 0.0, "lat": 38.9145365, "bike_id": "0791e681fd9bb97b66cc87990a39da68", "fusion_lon": 0.0}, {"rental_uris": {"ios": "https://dc.lft.to/lastmile_qr_scan", "android": "https://dc.lft.to/lastmile_qr_scan"}, "type": "electric_scooter", "name": "0ca0788a34223e0d6bca311970b9c3ea", "is_reserved": 0, "lon": -76.99156783333333, "is_disabled": 0, "fusion_lat": 0.0, "lat": 38.90039066666667, "bike_id": "0ca0788a34223e0d6bca311970b9c3ea", "fusion_lon": 0.0}, {"rental_uris": {"ios": "https://dc.lft.to/lastmile_qr_scan", "android": "https://dc.lft.to/lastmile_qr_scan"}, "type": "electric_scooter", "name": "2cf3030e5b0c6252b4b84e71217961aa", "is_reserved": 0, "lon": -77.03619316666666, "is_disabled": 0, "fusion_lat": 0.0, "lat": 38.94291116666667, "bike_id": "2cf3030e5b0c6252b4b84e71217961aa", "fusion_lon": 0.0}, {"rental_uris": {"ios": "https://dc.lft.to/lastmile_qr_scan", "android": "https://dc.lft.to/lastmile_qr_scan"}, "type": "electric_scooter", "name": "6d53c3971304439fab894646d8c1c11e", "is_reserved": 0, "lon": -76.999566, "is_disabled": 0, "fusion_lat": 0.0, "lat": 38.9085655, "bike_id": "6d53c3971304439fab894646d8c1c11e", "fusion_lon": 0.0}, {"rental_uris": {"ios": "https://dc.lft.to/lastmile_qr_scan", "android": "https://dc.lft.to/lastmile_qr_scan"}, "type": "electric_scooter", "name": "a88d85ffdf1b50b36362cbd818d5a210", "is_reserved": 0, "lon": -77.02106216666667, "is_disabled": 0, "fusion_lat": 0.0, "lat": 38.9667595, "bike_id": "a88d85ffdf1b50b36362cbd818d5a210", "fusion_lon": 0.0}, {"rental_uris": {"ios": "https://dc.lft.to/lastmile_qr_scan", "android": "https://dc.lft.to/lastmile_qr_scan"}, "type": "electric_scooter", "name": "f9ef57ab644e46ed70d18e4ef71c7f43", "is_reserved": 0, "lon": -77.025203, "is_disabled": 0, "fusion_lat": 0.0, "lat": 38.91812483333333, "bike_id": "f9ef57ab644e46ed70d18e4ef71c7f43", "fusion_lon": 0.0}, {"rental_uris": {"ios": "https://dc.lft.to/lastmile_qr_scan", "android": "https://dc.lft.to/lastmile_qr_scan"}, "type": "electric_bike", "name": "9d25a48885de824c6871ca430eabca6b", "is_reserved": 0, "lon": -77.019089, "is_disabled": 0, "fusion_lat": 0.0, "lat": 38.976643833333334, "bike_id": "9d25a48885de824c6871ca430eabca6b", "fusion_lon": 0.0}, {"rental_uris": {"ios": "https://dc.lft.to/lastmile_qr_scan", "android": "https://dc.lft.to/lastmile_qr_scan"}, "type": "electric_scooter", "name": "3a0fea2cb05dbe2c98c052a1ccdce175", "is_reserved": 0, "lon": -76.99032833333334, "is_disabled": 0, "fusion_lat": 0.0, "lat": 38.888837333333335, "bike_id": "3a0fea2cb05dbe2c98c052a1ccdce175", "fusion_lon": 0.0}, {"rental_uris": {"ios": "https://dc.lft.to/lastmile_qr_scan", "android": "https://dc.lft.to/lastmile_qr_scan"}, "type": "electric_scooter", "name": "7ba6157b185b1c827d29949dd6b35a05", "is_reserved": 0, "lon": -77.0237905, "is_disabled": 0, "fusion_lat": 0.0, "lat": 38.905862666666664, "bike_id": "7ba6157b185b1c827d29949dd6b35a05", "fusion_lon": 0.0}, {"rental_uris": {"ios": "https://dc.lft.to/lastmile_qr_scan", "android": "https://dc.lft.to/lastmile_qr_scan"}, "type": "electric_bike", "name": "4fc5c9595ec8be315d83b1d711ef3658", "is_reserved": 0, "lon": -77.07656283333333, "is_disabled": 0, "fusion_lat": 0.0, "lat": 38.8098375, "bike_id": "4fc5c9595ec8be315d83b1d711ef3658", "fusion_lon": 0.0}, {"rental_uris": {"ios": "https://dc.lft.to/lastmile_qr_scan", "android": "https://dc.lft.to/lastmile_qr_scan"}, "type": "electric_scooter", "name": "3e3b8b334a56833020c9d0a18f42e391", "is_reserved": 0, "lon": -77.03868516666667, "is_disabled": 0, "fusion_lat": 0.0, "lat": 38.9111485, "bike_id": "3e3b8b334a56833020c9d0a18f42e391", "fusion_lon": 0.0}, {"rental_uris": {"ios": "https://dc.lft.to/lastmile_qr_scan", "android": "https://dc.lft.to/lastmile_qr_scan"}, "type": "electric_bike", "name": "7c1273cc0fcf3daface1b84e454dd264", "is_reserved": 0, "lon": -76.957026, "is_disabled": 0, "fusion_lat": 0.0, "lat": 38.850890166666666, "bike_id": "7c1273cc0fcf3daface1b84e454dd264", "fusion_lon": 0.0}, {"rental_uris": {"ios": "https://dc.lft.to/lastmile_qr_scan", "android": "https://dc.lft.to/lastmile_qr_scan"}, "type": "electric_bike", "name": "a13f0876accf09a108fcad64ffebefba", "is_reserved": 0, "lon": -77.0901955, "is_disabled": 0, "fusion_lat": 0.0, "lat": 38.926471666666664, "bike_id": "a13f0876accf09a108fcad64ffebefba", "fusion_lon": 0.0}, {"rental_uris": {"ios": "https://dc.lft.to/lastmile_qr_scan", "android": "https://dc.lft.to/lastmile_qr_scan"}, "type": "electric_scooter", "name": "840d477ef1368c703302806956a18fdb", "is_reserved": 0, "lon": -77.02665766666667, "is_disabled": 0, "fusion_lat": 0.0, "lat": 38.88491066666667, "bike_id": "840d477ef1368c703302806956a18fdb", "fusion_lon": 0.0}, {"rental_uris": {"ios": "https://dc.lft.to/lastmile_qr_scan", "android": "https://dc.lft.to/lastmile_qr_scan"}, "type": "electric_scooter", "name": "8a20663bb672e23888eee2981bd046b0", "is_reserved": 0, "lon": -77.00756583333333, "is_disabled": 0, "fusion_lat": 0.0, "lat": 38.9253165, "bike_id": "8a20663bb672e23888eee2981bd046b0", "fusion_lon": 0.0}, {"rental_uris": {"ios": "https://dc.lft.to/lastmile_qr_scan", "android": "https://dc.lft.to/lastmile_qr_scan"}, "type": "electric_scooter", "name": "bdda16078bb31b150ec7b3c9bf415187", "is_reserved": 0, "lon": -76.958839, "is_disabled": 0, "fusion_lat": 0.0, "lat": 38.85842616666667, "bike_id": "bdda16078bb31b150ec7b3c9bf415187", "fusion_lon": 0.0}, {"rental_uris": {"ios": "https://dc.lft.to/lastmile_qr_scan", "android": "https://dc.lft.to/lastmile_qr_scan"}, "type": "electric_scooter", "name": "618a1ef8efd512eb34986a3c3385e950", "is_reserved": 0, "lon": -76.98613466666667, "is_disabled": 0, "fusion_lat": 0.0, "lat": 38.90346983333333, "bike_id": "618a1ef8efd512eb34986a3c3385e950", "fusion_lon": 0.0}, {"rental_uris": {"ios": "https://dc.lft.to/lastmile_qr_scan", "android": "https://dc.lft.to/lastmile_qr_scan"}, "type": "electric_scooter", "name": "3d7160be96e5970c0d313cc95bcab98b", "is_reserved": 0, "lon": -77.0255865, "is_disabled": 0, "fusion_lat": 0.0, "lat": 38.938669, "bike_id": "3d7160be96e5970c0d313cc95bcab98b", "fusion_lon": 0.0}, {"rental_uris": {"ios": "https://dc.lft.to/lastmile_qr_scan", "android": "https://dc.lft.to/lastmile_qr_scan"}, "type": "electric_scooter", "name": "54aec1278165175a87a48c274b4da900", "is_reserved": 0, "lon": -76.9835755, "is_disabled": 0, "fusion_lat": 0.0, "lat": 38.88745883333333, "bike_id": "54aec1278165175a87a48c274b4da900", "fusion_lon": 0.0}, {"rental_uris": {"ios": "https://dc.lft.to/lastmile_qr_scan", "android": "https://dc.lft.to/lastmile_qr_scan"}, "type": "electric_bike", "name": "3fa140a2e260c380a5f17a1d271a65db", "is_reserved": 0, "lon": -77.12704033333333, "is_disabled": 0, "fusion_lat": 0.0, "lat": 38.895711666666664, "bike_id": "3fa140a2e260c380a5f17a1d271a65db", "fusion_lon": 0.0}, {"rental_uris": {"ios": "https://dc.lft.to/lastmile_qr_scan", "android": "https://dc.lft.to/lastmile_qr_scan"}, "type": "electric_scooter", "name": "c02017f3520525e0a417745632622b2b", "is_reserved": 0, "lon": -77.02811583333333, "is_disabled": 0, "fusion_lat": 0.0, "lat": 38.90739883333333, "bike_id": "c02017f3520525e0a417745632622b2b", "fusion_lon": 0.0}, {"rental_uris": {"ios": "https://dc.lft.to/lastmile_qr_scan", "android": "https://dc.lft.to/lastmile_qr_scan"}, "type": "electric_scooter", "name": "b2aa77ab77dd077c8489dc6e74188092", "is_reserved": 0, "lon": -77.02352066666667, "is_disabled": 0, "fusion_lat": 0.0, "lat": 38.931797333333336, "bike_id": "b2aa77ab77dd077c8489dc6e74188092", "fusion_lon": 0.0}, {"rental_uris": {"ios": "https://dc.lft.to/lastmile_qr_scan", "android": "https://dc.lft.to/lastmile_qr_scan"}, "type": "electric_scooter", "name": "a60b62235f436f36181ed9e1f780eb9c", "is_reserved": 0, "lon": -77.02425383333333, "is_disabled": 0, "fusion_lat": 0.0, "lat": 38.903075666666666, "bike_id": "a60b62235f436f36181ed9e1f780eb9c", "fusion_lon": 0.0}, {"rental_uris": {"ios": "https://dc.lft.to/lastmile_qr_scan", "android": "https://dc.lft.to/lastmile_qr_scan"}, "type": "electric_scooter", "name": "c18e83ad927c36681b1e6e978ae80c83", "is_reserved": 0, "lon": -76.9858165, "is_disabled": 0, "fusion_lat": 0.0, "lat": 38.8618425, "bike_id": "c18e83ad927c36681b1e6e978ae80c83", "fusion_lon": 0.0}, {"rental_uris": {"ios": "https://dc.lft.to/lastmile_qr_scan", "android": "https://dc.lft.to/lastmile_qr_scan"}, "type": "electric_scooter", "name": "90fd71a6af0170f127c56bdfafeab0d2", "is_reserved": 0, "lon": -77.00902016666667, "is_disabled": 0, "fusion_lat": 0.0, "lat": 38.881897, "bike_id": "90fd71a6af0170f127c56bdfafeab0d2", "fusion_lon": 0.0}, {"rental_uris": {"ios": "https://dc.lft.to/lastmile_qr_scan", "android": "https://dc.lft.to/lastmile_qr_scan"}, "type": "electric_scooter", "name": "946767389f011b56d462beba9352c9c5", "is_reserved": 0, "lon": -77.02333466666667, "is_disabled": 0, "fusion_lat": 0.0, "lat": 38.930716833333335, "bike_id": "946767389f011b56d462beba9352c9c5", "fusion_lon": 0.0}, {"rental_uris": {"ios": "https://dc.lft.to/lastmile_qr_scan", "android": "https://dc.lft.to/lastmile_qr_scan"}, "type": "electric_scooter", "name": "b5eb866fed957e93e499fb1158536fdd", "is_reserved": 0, "lon": -77.01929816666667, "is_disabled": 0, "fusion_lat": 0.0, "lat": 38.928783333333335, "bike_id": "b5eb866fed957e93e499fb1158536fdd", "fusion_lon": 0.0}, {"rental_uris": {"ios": "https://dc.lft.to/lastmile_qr_scan", "android": "https://dc.lft.to/lastmile_qr_scan"}, "type": "electric_scooter", "name": "8136895a04e5dae7f37876764384b74f", "is_reserved": 0, "lon": -77.019484, "is_disabled": 0, "fusion_lat": 0.0, "lat": 38.92422883333333, "bike_id": "8136895a04e5dae7f37876764384b74f", "fusion_lon": 0.0}, {"rental_uris": {"ios": "https://dc.lft.to/lastmile_qr_scan", "android": "https://dc.lft.to/lastmile_qr_scan"}, "type": "electric_scooter", "name": "16cc237ceace7c57ce7822e3d503baf6", "is_reserved": 0, "lon": -77.020911, "is_disabled": 0, "fusion_lat": 0.0, "lat": 38.88193666666667, "bike_id": "16cc237ceace7c57ce7822e3d503baf6", "fusion_lon": 0.0}, {"rental_uris": {"ios": "https://dc.lft.to/lastmile_qr_scan", "android": "https://dc.lft.to/lastmile_qr_scan"}, "type": "electric_scooter", "name": "56968664de59bd5042b077c15e8f63f2", "is_reserved": 0, "lon": -77.04357233333333, "is_disabled": 0, "fusion_lat": 0.0, "lat": 38.91055466666667, "bike_id": "56968664de59bd5042b077c15e8f63f2", "fusion_lon": 0.0}, {"rental_uris": {"ios": "https://dc.lft.to/lastmile_qr_scan", "android": "https://dc.lft.to/lastmile_qr_scan"}, "type": "electric_scooter", "name": "449ff307284b58ff79b760c7ebaa06f7", "is_reserved": 0, "lon": -77.01210966666666, "is_disabled": 0, "fusion_lat": 0.0, "lat": 38.92119233333333, "bike_id": "449ff307284b58ff79b760c7ebaa06f7", "fusion_lon": 0.0}, {"rental_uris": {"ios": "https://dc.lft.to/lastmile_qr_scan", "android": "https://dc.lft.to/lastmile_qr_scan"}, "type": "electric_scooter", "name": "8f64c0f858d230217cbf9425a32f8fa3", "is_reserved": 0, "lon": -77.04052166666666, "is_disabled": 0, "fusion_lat": 0.0, "lat": 38.904120666666664, "bike_id": "8f64c0f858d230217cbf9425a32f8fa3", "fusion_lon": 0.0}, {"rental_uris": {"ios": "https://dc.lft.to/lastmile_qr_scan", "android": "https://dc.lft.to/lastmile_qr_scan"}, "type": "electric_scooter", "name": "73e4694964dbfa4066fb83e0904b6b17", "is_reserved": 0, "lon": -77.02853333333333, "is_disabled": 0, "fusion_lat": 0.0, "lat": 38.917541166666666, "bike_id": "73e4694964dbfa4066fb83e0904b6b17", "fusion_lon": 0.0}, {"rental_uris": {"ios": "https://dc.lft.to/lastmile_qr_scan", "android": "https://dc.lft.to/lastmile_qr_scan"}, "type": "electric_scooter", "name": "ad97d01768af27abeb57480ee14f6fbb", "is_reserved": 0, "lon": -77.011608, "is_disabled": 0, "fusion_lat": 0.0, "lat": 38.87658783333333, "bike_id": "ad97d01768af27abeb57480ee14f6fbb", "fusion_lon": 0.0}, {"rental_uris": {"ios": "https://dc.lft.to/lastmile_qr_scan", "android": "https://dc.lft.to/lastmile_qr_scan"}, "type": "electric_scooter", "name": "4c591076fb34e5fc13e6f18f3db3b35e", "is_reserved": 0, "lon": -76.95692466666667, "is_disabled": 0, "fusion_lat": 0.0, "lat": 38.89204766666667, "bike_id": "4c591076fb34e5fc13e6f18f3db3b35e", "fusion_lon": 0.0}, {"rental_uris": {"ios": "https://dc.lft.to/lastmile_qr_scan", "android": "https://dc.lft.to/lastmile_qr_scan"}, "type": "electric_scooter", "name": "d8ceba854f683ec907f983c836688612", "is_reserved": 0, "lon": -77.043656, "is_disabled": 0, "fusion_lat": 0.0, "lat": 38.901231, "bike_id": "d8ceba854f683ec907f983c836688612", "fusion_lon": 0.0}, {"rental_uris": {"ios": "https://dc.lft.to/lastmile_qr_scan", "android": "https://dc.lft.to/lastmile_qr_scan"}, "type": "electric_scooter", "name": "92773c9cb20fca2eea8da7a79e5fb80b", "is_reserved": 0, "lon": -77.03646966666666, "is_disabled": 0, "fusion_lat": 0.0, "lat": 38.90077483333334, "bike_id": "92773c9cb20fca2eea8da7a79e5fb80b", "fusion_lon": 0.0}, {"rental_uris": {"ios": "https://dc.lft.to/lastmile_qr_scan", "android": "https://dc.lft.to/lastmile_qr_scan"}, "type": "electric_scooter", "name": "1a4a00fe0e697699d1c1e5ddf438bd77", "is_reserved": 0, "lon": -76.99035583333334, "is_disabled": 0, "fusion_lat": 0.0, "lat": 38.888756, "bike_id": "1a4a00fe0e697699d1c1e5ddf438bd77", "fusion_lon": 0.0}, {"rental_uris": {"ios": "https://dc.lft.to/lastmile_qr_scan", "android": "https://dc.lft.to/lastmile_qr_scan"}, "type": "electric_scooter", "name": "1fcda2631cc60dbd02e0f8a777874a5f", "is_reserved": 0, "lon": -76.98693083333333, "is_disabled": 0, "fusion_lat": 0.0, "lat": 38.9070305, "bike_id": "1fcda2631cc60dbd02e0f8a777874a5f", "fusion_lon": 0.0}, {"rental_uris": {"ios": "https://dc.lft.to/lastmile_qr_scan", "android": "https://dc.lft.to/lastmile_qr_scan"}, "type": "electric_scooter", "name": "6cd53c9c3275413368a68e0c22b873da", "is_reserved": 0, "lon": -77.01162683333334, "is_disabled": 0, "fusion_lat": 0.0, "lat": 38.91486966666667, "bike_id": "6cd53c9c3275413368a68e0c22b873da", "fusion_lon": 0.0}, {"rental_uris": {"ios": "https://dc.lft.to/lastmile_qr_scan", "android": "https://dc.lft.to/lastmile_qr_scan"}, "type": "electric_scooter", "name": "e218a19fc2473855426b0c23c0854053", "is_reserved": 0, "lon": -77.01907166666666, "is_disabled": 0, "fusion_lat": 0.0, "lat": 38.923419, "bike_id": "e218a19fc2473855426b0c23c0854053", "fusion_lon": 0.0}, {"rental_uris": {"ios": "https://dc.lft.to/lastmile_qr_scan", "android": "https://dc.lft.to/lastmile_qr_scan"}, "type": "electric_scooter", "name": "bb0223dcd8f8d30db04373107736ea61", "is_reserved": 0, "lon": -77.01971916666666, "is_disabled": 0, "fusion_lat": 0.0, "lat": 38.87591033333333, "bike_id": "bb0223dcd8f8d30db04373107736ea61", "fusion_lon": 0.0}, {"rental_uris": {"ios": "https://dc.lft.to/lastmile_qr_scan", "android": "https://dc.lft.to/lastmile_qr_scan"}, "type": "electric_scooter", "name": "cd2dc1db6ccdc29bf9169ed4857cdc9c", "is_reserved": 0, "lon": -77.06805383333334, "is_disabled": 0, "fusion_lat": 0.0, "lat": 38.9051825, "bike_id": "cd2dc1db6ccdc29bf9169ed4857cdc9c", "fusion_lon": 0.0}, {"rental_uris": {"ios": "https://dc.lft.to/lastmile_qr_scan", "android": "https://dc.lft.to/lastmile_qr_scan"}, "type": "electric_scooter", "name": "42048f3a5b0b2ac32d34c061fdcfb1a0", "is_reserved": 0, "lon": -77.018537, "is_disabled": 0, "fusion_lat": 0.0, "lat": 38.91477783333333, "bike_id": "42048f3a5b0b2ac32d34c061fdcfb1a0", "fusion_lon": 0.0}, {"rental_uris": {"ios": "https://dc.lft.to/lastmile_qr_scan", "android": "https://dc.lft.to/lastmile_qr_scan"}, "type": "electric_scooter", "name": "ad0c9b85ab89e1668a003ff841a565fa", "is_reserved": 0, "lon": -77.004101, "is_disabled": 0, "fusion_lat": 0.0, "lat": 38.874473, "bike_id": "ad0c9b85ab89e1668a003ff841a565fa", "fusion_lon": 0.0}, {"rental_uris": {"ios": "https://dc.lft.to/lastmile_qr_scan", "android": "https://dc.lft.to/lastmile_qr_scan"}, "type": "electric_scooter", "name": "1d8642fad96a62f79c6072a148b94ec0", "is_reserved": 0, "lon": -77.0277385, "is_disabled": 0, "fusion_lat": 0.0, "lat": 38.887482166666665, "bike_id": "1d8642fad96a62f79c6072a148b94ec0", "fusion_lon": 0.0}, {"rental_uris": {"ios": "https://dc.lft.to/lastmile_qr_scan", "android": "https://dc.lft.to/lastmile_qr_scan"}, "type": "electric_scooter", "name": "3b7e626f831604eac189232a854f008b", "is_reserved": 0, "lon": -77.016122, "is_disabled": 0, "fusion_lat": 0.0, "lat": 38.88514833333333, "bike_id": "3b7e626f831604eac189232a854f008b", "fusion_lon": 0.0}, {"rental_uris": {"ios": "https://dc.lft.to/lastmile_qr_scan", "android": "https://dc.lft.to/lastmile_qr_scan"}, "type": "electric_bike", "name": "68ea12a1cc43d20c9cf1a8a2e0faea25", "is_reserved": 0, "lon": -76.9366385, "is_disabled": 0, "fusion_lat": 0.0, "lat": 38.894607666666666, "bike_id": "68ea12a1cc43d20c9cf1a8a2e0faea25", "fusion_lon": 0.0}, {"rental_uris": {"ios": "https://dc.lft.to/lastmile_qr_scan", "android": "https://dc.lft.to/lastmile_qr_scan"}, "type": "electric_scooter", "name": "1d7db763b095c3550802e3dd97a35928", "is_reserved": 0, "lon": -77.039692, "is_disabled": 0, "fusion_lat": 0.0, "lat": 38.8935235, "bike_id": "1d7db763b095c3550802e3dd97a35928", "fusion_lon": 0.0}, {"rental_uris": {"ios": "https://dc.lft.to/lastmile_qr_scan", "android": "https://dc.lft.to/lastmile_qr_scan"}, "type": "electric_scooter", "name": "d65718c1dfd3ed1a1a7b39703fdcfd22", "is_reserved": 0, "lon": -76.98373633333334, "is_disabled": 0, "fusion_lat": 0.0, "lat": 38.86034816666667, "bike_id": "d65718c1dfd3ed1a1a7b39703fdcfd22", "fusion_lon": 0.0}, {"rental_uris": {"ios": "https://dc.lft.to/lastmile_qr_scan", "android": "https://dc.lft.to/lastmile_qr_scan"}, "type": "electric_scooter", "name": "aef43c3e8eb1415f7303c4d33dca5643", "is_reserved": 0, "lon": -77.000413, "is_disabled": 0, "fusion_lat": 0.0, "lat": 38.873885333333334, "bike_id": "aef43c3e8eb1415f7303c4d33dca5643", "fusion_lon": 0.0}, {"rental_uris": {"ios": "https://dc.lft.to/lastmile_qr_scan", "android": "https://dc.lft.to/lastmile_qr_scan"}, "type": "electric_scooter", "name": "994e3a8bfb90b3dc085769d32a2e9862", "is_reserved": 0, "lon": -77.016415, "is_disabled": 0, "fusion_lat": 0.0, "lat": 38.900443833333334, "bike_id": "994e3a8bfb90b3dc085769d32a2e9862", "fusion_lon": 0.0}, {"rental_uris": {"ios": "https://dc.lft.to/lastmile_qr_scan", "android": "https://dc.lft.to/lastmile_qr_scan"}, "type": "electric_scooter", "name": "82d13cfe5decb742d99733ed3a154110", "is_reserved": 0, "lon": -77.02368583333333, "is_disabled": 0, "fusion_lat": 0.0, "lat": 38.92066533333333, "bike_id": "82d13cfe5decb742d99733ed3a154110", "fusion_lon": 0.0}, {"rental_uris": {"ios": "https://dc.lft.to/lastmile_qr_scan", "android": "https://dc.lft.to/lastmile_qr_scan"}, "type": "electric_scooter", "name": "07f4c5b4741d323faf768dff50a22835", "is_reserved": 0, "lon": -77.04773983333334, "is_disabled": 0, "fusion_lat": 0.0, "lat": 38.89779816666667, "bike_id": "07f4c5b4741d323faf768dff50a22835", "fusion_lon": 0.0}, {"rental_uris": {"ios": "https://dc.lft.to/lastmile_qr_scan", "android": "https://dc.lft.to/lastmile_qr_scan"}, "type": "electric_scooter", "name": "a85ceea32a50e634fe069ba5ac8807e7", "is_reserved": 0, "lon": -77.030677, "is_disabled": 0, "fusion_lat": 0.0, "lat": 38.9055865, "bike_id": "a85ceea32a50e634fe069ba5ac8807e7", "fusion_lon": 0.0}, {"rental_uris": {"ios": "https://dc.lft.to/lastmile_qr_scan", "android": "https://dc.lft.to/lastmile_qr_scan"}, "type": "electric_scooter", "name": "829671a94905cb5291ca242f5b8c0c6a", "is_reserved": 0, "lon": -77.04245166666666, "is_disabled": 0, "fusion_lat": 0.0, "lat": 38.922395333333334, "bike_id": "829671a94905cb5291ca242f5b8c0c6a", "fusion_lon": 0.0}, {"rental_uris": {"ios": "https://dc.lft.to/lastmile_qr_scan", "android": "https://dc.lft.to/lastmile_qr_scan"}, "type": "electric_scooter", "name": "f9beafe7addd05b9f6bcf24f5b79b62a", "is_reserved": 0, "lon": -77.00747733333333, "is_disabled": 0, "fusion_lat": 0.0, "lat": 38.89882933333333, "bike_id": "f9beafe7addd05b9f6bcf24f5b79b62a", "fusion_lon": 0.0}, {"rental_uris": {"ios": "https://dc.lft.to/lastmile_qr_scan", "android": "https://dc.lft.to/lastmile_qr_scan"}, "type": "electric_bike", "name": "f89959b227dacf3e9ccde9bf3df6bd9c", "is_reserved": 0, "lon": -76.99624033333333, "is_disabled": 0, "fusion_lat": 0.0, "lat": 38.8943665, "bike_id": "f89959b227dacf3e9ccde9bf3df6bd9c", "fusion_lon": 0.0}, {"rental_uris": {"ios": "https://dc.lft.to/lastmile_qr_scan", "android": "https://dc.lft.to/lastmile_qr_scan"}, "type": "electric_scooter", "name": "01da1bb613c7716f8f685774c94661f8", "is_reserved": 0, "lon": -77.05791533333333, "is_disabled": 0, "fusion_lat": 0.0, "lat": 38.93480316666667, "bike_id": "01da1bb613c7716f8f685774c94661f8", "fusion_lon": 0.0}, {"rental_uris": {"ios": "https://dc.lft.to/lastmile_qr_scan", "android": "https://dc.lft.to/lastmile_qr_scan"}, "type": "electric_scooter", "name": "f34df335fc80f1547ec15cc743ff6bcd", "is_reserved": 0, "lon": -77.0136855, "is_disabled": 0, "fusion_lat": 0.0, "lat": 38.8867865, "bike_id": "f34df335fc80f1547ec15cc743ff6bcd", "fusion_lon": 0.0}, {"rental_uris": {"ios": "https://dc.lft.to/lastmile_qr_scan", "android": "https://dc.lft.to/lastmile_qr_scan"}, "type": "electric_scooter", "name": "5b57bb0e62b1d969740c23ac1ed8b718", "is_reserved": 0, "lon": -77.03239816666667, "is_disabled": 0, "fusion_lat": 0.0, "lat": 38.915610666666666, "bike_id": "5b57bb0e62b1d969740c23ac1ed8b718", "fusion_lon": 0.0}, {"rental_uris": {"ios": "https://dc.lft.to/lastmile_qr_scan", "android": "https://dc.lft.to/lastmile_qr_scan"}, "type": "electric_scooter", "name": "5ad55d9a0546d0e9f0463ecf68a79af3", "is_reserved": 0, "lon": -77.0306945, "is_disabled": 0, "fusion_lat": 0.0, "lat": 38.915539833333334, "bike_id": "5ad55d9a0546d0e9f0463ecf68a79af3", "fusion_lon": 0.0}, {"rental_uris": {"ios": "https://dc.lft.to/lastmile_qr_scan", "android": "https://dc.lft.to/lastmile_qr_scan"}, "type": "electric_bike", "name": "904a356a0f6b0b019106d2627c8a1ae2", "is_reserved": 0, "lon": -76.99494133333333, "is_disabled": 0, "fusion_lat": 0.0, "lat": 38.862186, "bike_id": "904a356a0f6b0b019106d2627c8a1ae2", "fusion_lon": 0.0}, {"rental_uris": {"ios": "https://dc.lft.to/lastmile_qr_scan", "android": "https://dc.lft.to/lastmile_qr_scan"}, "type": "electric_scooter", "name": "a8a28ca9b401ef4ac9646698e94c35a3", "is_reserved": 0, "lon": -77.04568633333334, "is_disabled": 0, "fusion_lat": 0.0, "lat": 38.9140675, "bike_id": "a8a28ca9b401ef4ac9646698e94c35a3", "fusion_lon": 0.0}, {"rental_uris": {"ios": "https://dc.lft.to/lastmile_qr_scan", "android": "https://dc.lft.to/lastmile_qr_scan"}, "type": "electric_scooter", "name": "676431001309864e4bae74684ebca5e4", "is_reserved": 0, "lon": -77.04862183333333, "is_disabled": 0, "fusion_lat": 0.0, "lat": 38.8922285, "bike_id": "676431001309864e4bae74684ebca5e4", "fusion_lon": 0.0}, {"rental_uris": {"ios": "https://dc.lft.to/lastmile_qr_scan", "android": "https://dc.lft.to/lastmile_qr_scan"}, "type": "electric_bike", "name": "eaa1194e564f4bc2a1357526fae2d0eb", "is_reserved": 0, "lon": -76.90738766666666, "is_disabled": 0, "fusion_lat": 0.0, "lat": 38.896199833333334, "bike_id": "eaa1194e564f4bc2a1357526fae2d0eb", "fusion_lon": 0.0}, {"rental_uris": {"ios": "https://dc.lft.to/lastmile_qr_scan", "android": "https://dc.lft.to/lastmile_qr_scan"}, "type": "electric_scooter", "name": "9e4a1424fb0a0596647cd699242f7c91", "is_reserved": 0, "lon": -77.03020133333334, "is_disabled": 0, "fusion_lat": 0.0, "lat": 38.878500833333334, "bike_id": "9e4a1424fb0a0596647cd699242f7c91", "fusion_lon": 0.0}, {"rental_uris": {"ios": "https://dc.lft.to/lastmile_qr_scan", "android": "https://dc.lft.to/lastmile_qr_scan"}, "type": "electric_scooter", "name": "21ab161a74da5f5cec803471b8fd54be", "is_reserved": 0, "lon": -77.01265616666667, "is_disabled": 0, "fusion_lat": 0.0, "lat": 38.897198833333334, "bike_id": "21ab161a74da5f5cec803471b8fd54be", "fusion_lon": 0.0}, {"rental_uris": {"ios": "https://dc.lft.to/lastmile_qr_scan", "android": "https://dc.lft.to/lastmile_qr_scan"}, "type": "electric_scooter", "name": "62a05646cddc3d0b03d6ea6b15f1e489", "is_reserved": 0, "lon": -77.04245083333333, "is_disabled": 0, "fusion_lat": 0.0, "lat": 38.9223695, "bike_id": "62a05646cddc3d0b03d6ea6b15f1e489", "fusion_lon": 0.0}, {"rental_uris": {"ios": "https://dc.lft.to/lastmile_qr_scan", "android": "https://dc.lft.to/lastmile_qr_scan"}, "type": "electric_scooter", "name": "1ad84c0d7c4553ef83a436106feb33b1", "is_reserved": 0, "lon": -77.02178033333334, "is_disabled": 0, "fusion_lat": 0.0, "lat": 38.887284, "bike_id": "1ad84c0d7c4553ef83a436106feb33b1", "fusion_lon": 0.0}, {"rental_uris": {"ios": "https://dc.lft.to/lastmile_qr_scan", "android": "https://dc.lft.to/lastmile_qr_scan"}, "type": "electric_scooter", "name": "9089ec81b8fabcdd700bbe6cfdecdb23", "is_reserved": 0, "lon": -76.9960885, "is_disabled": 0, "fusion_lat": 0.0, "lat": 38.90914316666667, "bike_id": "9089ec81b8fabcdd700bbe6cfdecdb23", "fusion_lon": 0.0}, {"rental_uris": {"ios": "https://dc.lft.to/lastmile_qr_scan", "android": "https://dc.lft.to/lastmile_qr_scan"}, "type": "electric_scooter", "name": "78e9aad627553c3d3fd1c268f3639471", "is_reserved": 0, "lon": -77.04154366666667, "is_disabled": 0, "fusion_lat": 0.0, "lat": 38.91680866666667, "bike_id": "78e9aad627553c3d3fd1c268f3639471", "fusion_lon": 0.0}, {"rental_uris": {"ios": "https://dc.lft.to/lastmile_qr_scan", "android": "https://dc.lft.to/lastmile_qr_scan"}, "type": "electric_scooter", "name": "317b63d09551ce223234cebb7939670c", "is_reserved": 0, "lon": -77.04997683333333, "is_disabled": 0, "fusion_lat": 0.0, "lat": 38.907901, "bike_id": "317b63d09551ce223234cebb7939670c", "fusion_lon": 0.0}, {"rental_uris": {"ios": "https://dc.lft.to/lastmile_qr_scan", "android": "https://dc.lft.to/lastmile_qr_scan"}, "type": "electric_scooter", "name": "530b8fc93df2610a41ce6c48fdf4edcb", "is_reserved": 0, "lon": -77.04211816666667, "is_disabled": 0, "fusion_lat": 0.0, "lat": 38.907419, "bike_id": "530b8fc93df2610a41ce6c48fdf4edcb", "fusion_lon": 0.0}, {"rental_uris": {"ios": "https://dc.lft.to/lastmile_qr_scan", "android": "https://dc.lft.to/lastmile_qr_scan"}, "type": "electric_scooter", "name": "21eacd2596de3f4d51075c29b5e5a74f", "is_reserved": 0, "lon": -76.97153216666666, "is_disabled": 0, "fusion_lat": 0.0, "lat": 38.916160166666664, "bike_id": "21eacd2596de3f4d51075c29b5e5a74f", "fusion_lon": 0.0}, {"rental_uris": {"ios": "https://dc.lft.to/lastmile_qr_scan", "android": "https://dc.lft.to/lastmile_qr_scan"}, "type": "electric_scooter", "name": "b600bff7a90a690b8bf3bdf968d29710", "is_reserved": 0, "lon": -77.0734435, "is_disabled": 0, "fusion_lat": 0.0, "lat": 38.94328633333333, "bike_id": "b600bff7a90a690b8bf3bdf968d29710", "fusion_lon": 0.0}, {"rental_uris": {"ios": "https://dc.lft.to/lastmile_qr_scan", "android": "https://dc.lft.to/lastmile_qr_scan"}, "type": "electric_scooter", "name": "423bbc60c37990ceb27c292438a8d274", "is_reserved": 0, "lon": -76.9762675, "is_disabled": 0, "fusion_lat": 0.0, "lat": 38.9057475, "bike_id": "423bbc60c37990ceb27c292438a8d274", "fusion_lon": 0.0}, {"rental_uris": {"ios": "https://dc.lft.to/lastmile_qr_scan", "android": "https://dc.lft.to/lastmile_qr_scan"}, "type": "electric_bike", "name": "798a7dd8ccc1bbdca14828e51c6590d2", "is_reserved": 0, "lon": -77.23410433333333, "is_disabled": 0, "fusion_lat": 0.0, "lat": 38.87580616666666, "bike_id": "798a7dd8ccc1bbdca14828e51c6590d2", "fusion_lon": 0.0}, {"rental_uris": {"ios": "https://dc.lft.to/lastmile_qr_scan", "android": "https://dc.lft.to/lastmile_qr_scan"}, "type": "electric_scooter", "name": "67cb9b67aa240ed9f4e44d760ea21360", "is_reserved": 0, "lon": -77.072958, "is_disabled": 0, "fusion_lat": 0.0, "lat": 38.93025733333333, "bike_id": "67cb9b67aa240ed9f4e44d760ea21360", "fusion_lon": 0.0}, {"rental_uris": {"ios": "https://dc.lft.to/lastmile_qr_scan", "android": "https://dc.lft.to/lastmile_qr_scan"}, "type": "electric_scooter", "name": "58b311717a3617bc0cdff71c8cdad6b1", "is_reserved": 0, "lon": -77.04947416666667, "is_disabled": 0, "fusion_lat": 0.0, "lat": 38.92021066666667, "bike_id": "58b311717a3617bc0cdff71c8cdad6b1", "fusion_lon": 0.0}, {"rental_uris": {"ios": "https://dc.lft.to/lastmile_qr_scan", "android": "https://dc.lft.to/lastmile_qr_scan"}, "type": "electric_scooter", "name": "d971cad36712f37a4a81c920b2215f97", "is_reserved": 0, "lon": -77.02579266666666, "is_disabled": 0, "fusion_lat": 0.0, "lat": 38.898339, "bike_id": "d971cad36712f37a4a81c920b2215f97", "fusion_lon": 0.0}, {"rental_uris": {"ios": "https://dc.lft.to/lastmile_qr_scan", "android": "https://dc.lft.to/lastmile_qr_scan"}, "type": "electric_scooter", "name": "7e5e5c7fd04a234dec3206af129cfaac", "is_reserved": 0, "lon": -77.05822883333333, "is_disabled": 0, "fusion_lat": 0.0, "lat": 38.90515366666666, "bike_id": "7e5e5c7fd04a234dec3206af129cfaac", "fusion_lon": 0.0}, {"rental_uris": {"ios": "https://dc.lft.to/lastmile_qr_scan", "android": "https://dc.lft.to/lastmile_qr_scan"}, "type": "electric_scooter", "name": "246c6bd88f156a513ae5ec3f2360bb35", "is_reserved": 0, "lon": -77.03713666666667, "is_disabled": 0, "fusion_lat": 0.0, "lat": 38.900306666666665, "bike_id": "246c6bd88f156a513ae5ec3f2360bb35", "fusion_lon": 0.0}, {"rental_uris": {"ios": "https://dc.lft.to/lastmile_qr_scan", "android": "https://dc.lft.to/lastmile_qr_scan"}, "type": "electric_scooter", "name": "6408656526ff33520a1fe78ea5f38912", "is_reserved": 0, "lon": -77.0248745, "is_disabled": 0, "fusion_lat": 0.0, "lat": 38.90345083333333, "bike_id": "6408656526ff33520a1fe78ea5f38912", "fusion_lon": 0.0}, {"rental_uris": {"ios": "https://dc.lft.to/lastmile_qr_scan", "android": "https://dc.lft.to/lastmile_qr_scan"}, "type": "electric_scooter", "name": "058b42659afb77592317a1e8b267ec04", "is_reserved": 0, "lon": -77.0279215, "is_disabled": 0, "fusion_lat": 0.0, "lat": 38.930794, "bike_id": "058b42659afb77592317a1e8b267ec04", "fusion_lon": 0.0}, {"rental_uris": {"ios": "https://dc.lft.to/lastmile_qr_scan", "android": "https://dc.lft.to/lastmile_qr_scan"}, "type": "electric_scooter", "name": "ce364b296955f0cc22edf6fb06a01cb4", "is_reserved": 0, "lon": -77.00334, "is_disabled": 0, "fusion_lat": 0.0, "lat": 38.877177333333336, "bike_id": "ce364b296955f0cc22edf6fb06a01cb4", "fusion_lon": 0.0}, {"rental_uris": {"ios": "https://dc.lft.to/lastmile_qr_scan", "android": "https://dc.lft.to/lastmile_qr_scan"}, "type": "electric_bike", "name": "be39b9b9087d0ab7fd156d3bc3aadeb5", "is_reserved": 0, "lon": -76.95242616666667, "is_disabled": 0, "fusion_lat": 0.0, "lat": 38.88468233333333, "bike_id": "be39b9b9087d0ab7fd156d3bc3aadeb5", "fusion_lon": 0.0}, {"rental_uris": {"ios": "https://dc.lft.to/lastmile_qr_scan", "android": "https://dc.lft.to/lastmile_qr_scan"}, "type": "electric_bike", "name": "263d8b4c1a32b4e0dd3c165959b76091", "is_reserved": 0, "lon": -76.9958165, "is_disabled": 0, "fusion_lat": 0.0, "lat": 38.9207195, "bike_id": "263d8b4c1a32b4e0dd3c165959b76091", "fusion_lon": 0.0}, {"rental_uris": {"ios": "https://dc.lft.to/lastmile_qr_scan", "android": "https://dc.lft.to/lastmile_qr_scan"}, "type": "electric_scooter", "name": "f9053061ea278a7069e49932bc5f98bc", "is_reserved": 0, "lon": -77.0145205, "is_disabled": 0, "fusion_lat": 0.0, "lat": 38.91107266666667, "bike_id": "f9053061ea278a7069e49932bc5f98bc", "fusion_lon": 0.0}, {"rental_uris": {"ios": "https://dc.lft.to/lastmile_qr_scan", "android": "https://dc.lft.to/lastmile_qr_scan"}, "type": "electric_scooter", "name": "b1a93bc917bbd397727f67cf4b3471f1", "is_reserved": 0, "lon": -77.04335166666667, "is_disabled": 0, "fusion_lat": 0.0, "lat": 38.917804333333336, "bike_id": "b1a93bc917bbd397727f67cf4b3471f1", "fusion_lon": 0.0}, {"rental_uris": {"ios": "https://dc.lft.to/lastmile_qr_scan", "android": "https://dc.lft.to/lastmile_qr_scan"}, "type": "electric_scooter", "name": "f9ace0083e2bbcd6f22c8467c532e403", "is_reserved": 0, "lon": -77.08395983333334, "is_disabled": 0, "fusion_lat": 0.0, "lat": 38.908062, "bike_id": "f9ace0083e2bbcd6f22c8467c532e403", "fusion_lon": 0.0}, {"rental_uris": {"ios": "https://dc.lft.to/lastmile_qr_scan", "android": "https://dc.lft.to/lastmile_qr_scan"}, "type": "electric_bike", "name": "9018dd7cad40526f01731b01e85ace50", "is_reserved": 0, "lon": -76.94546216666667, "is_disabled": 0, "fusion_lat": 0.0, "lat": 38.9827825, "bike_id": "9018dd7cad40526f01731b01e85ace50", "fusion_lon": 0.0}, {"rental_uris": {"ios": "https://dc.lft.to/lastmile_qr_scan", "android": "https://dc.lft.to/lastmile_qr_scan"}, "type": "electric_scooter", "name": "5073920e8726a5d7968dd340e7636e3f", "is_reserved": 0, "lon": -77.02865316666667, "is_disabled": 0, "fusion_lat": 0.0, "lat": 38.92948916666667, "bike_id": "5073920e8726a5d7968dd340e7636e3f", "fusion_lon": 0.0}, {"rental_uris": {"ios": "https://dc.lft.to/lastmile_qr_scan", "android": "https://dc.lft.to/lastmile_qr_scan"}, "type": "electric_scooter", "name": "66cc08969ed53e96f36a6aa678a85af7", "is_reserved": 0, "lon": -77.04877316666666, "is_disabled": 0, "fusion_lat": 0.0, "lat": 38.899075333333336, "bike_id": "66cc08969ed53e96f36a6aa678a85af7", "fusion_lon": 0.0}, {"rental_uris": {"ios": "https://dc.lft.to/lastmile_qr_scan", "android": "https://dc.lft.to/lastmile_qr_scan"}, "type": "electric_scooter", "name": "688cb7e3bf3be8ffc50b54c796973af9", "is_reserved": 0, "lon": -76.99390733333334, "is_disabled": 0, "fusion_lat": 0.0, "lat": 38.910116333333335, "bike_id": "688cb7e3bf3be8ffc50b54c796973af9", "fusion_lon": 0.0}, {"rental_uris": {"ios": "https://dc.lft.to/lastmile_qr_scan", "android": "https://dc.lft.to/lastmile_qr_scan"}, "type": "electric_scooter", "name": "27cfc2b863c818baf749304acb4641d5", "is_reserved": 0, "lon": -77.007889, "is_disabled": 0, "fusion_lat": 0.0, "lat": 38.8972775, "bike_id": "27cfc2b863c818baf749304acb4641d5", "fusion_lon": 0.0}, {"rental_uris": {"ios": "https://dc.lft.to/lastmile_qr_scan", "android": "https://dc.lft.to/lastmile_qr_scan"}, "type": "electric_bike", "name": "3cd1beda74566f28c4933dfd26460efa", "is_reserved": 0, "lon": -77.11322433333333, "is_disabled": 0, "fusion_lat": 0.0, "lat": 38.85583616666667, "bike_id": "3cd1beda74566f28c4933dfd26460efa", "fusion_lon": 0.0}, {"rental_uris": {"ios": "https://dc.lft.to/lastmile_qr_scan", "android": "https://dc.lft.to/lastmile_qr_scan"}, "type": "electric_scooter", "name": "96fc74df288edc55b67889ac4ca66245", "is_reserved": 0, "lon": -77.0277565, "is_disabled": 0, "fusion_lat": 0.0, "lat": 38.9170965, "bike_id": "96fc74df288edc55b67889ac4ca66245", "fusion_lon": 0.0}, {"rental_uris": {"ios": "https://dc.lft.to/lastmile_qr_scan", "android": "https://dc.lft.to/lastmile_qr_scan"}, "type": "electric_scooter", "name": "18bc25a724a1751d153ba061d9d70dda", "is_reserved": 0, "lon": -77.04814633333334, "is_disabled": 0, "fusion_lat": 0.0, "lat": 38.91634533333333, "bike_id": "18bc25a724a1751d153ba061d9d70dda", "fusion_lon": 0.0}, {"rental_uris": {"ios": "https://dc.lft.to/lastmile_qr_scan", "android": "https://dc.lft.to/lastmile_qr_scan"}, "type": "electric_scooter", "name": "e4785bf6a6fdfe5c4a0fe23d684b541b", "is_reserved": 0, "lon": -77.03709783333333, "is_disabled": 0, "fusion_lat": 0.0, "lat": 38.92656083333333, "bike_id": "e4785bf6a6fdfe5c4a0fe23d684b541b", "fusion_lon": 0.0}, {"rental_uris": {"ios": "https://dc.lft.to/lastmile_qr_scan", "android": "https://dc.lft.to/lastmile_qr_scan"}, "type": "electric_scooter", "name": "f14675c16ab85e6e055bd0764f20ef74", "is_reserved": 0, "lon": -77.02527383333333, "is_disabled": 0, "fusion_lat": 0.0, "lat": 38.916858, "bike_id": "f14675c16ab85e6e055bd0764f20ef74", "fusion_lon": 0.0}, {"rental_uris": {"ios": "https://dc.lft.to/lastmile_qr_scan", "android": "https://dc.lft.to/lastmile_qr_scan"}, "type": "electric_scooter", "name": "6a3c1dc6c8c8e3cf91edd23d1b35f6b5", "is_reserved": 0, "lon": -77.0308425, "is_disabled": 0, "fusion_lat": 0.0, "lat": 38.93877366666667, "bike_id": "6a3c1dc6c8c8e3cf91edd23d1b35f6b5", "fusion_lon": 0.0}, {"rental_uris": {"ios": "https://dc.lft.to/lastmile_qr_scan", "android": "https://dc.lft.to/lastmile_qr_scan"}, "type": "electric_scooter", "name": "ed76607c9afcec18481a9c21d2ee824b", "is_reserved": 0, "lon": -77.04999566666666, "is_disabled": 0, "fusion_lat": 0.0, "lat": 38.892329833333335, "bike_id": "ed76607c9afcec18481a9c21d2ee824b", "fusion_lon": 0.0}, {"rental_uris": {"ios": "https://dc.lft.to/lastmile_qr_scan", "android": "https://dc.lft.to/lastmile_qr_scan"}, "type": "electric_scooter", "name": "4656b99fe85ccfe33fe2a971523f4683", "is_reserved": 0, "lon": -77.03264983333334, "is_disabled": 0, "fusion_lat": 0.0, "lat": 38.938871166666665, "bike_id": "4656b99fe85ccfe33fe2a971523f4683", "fusion_lon": 0.0}, {"rental_uris": {"ios": "https://dc.lft.to/lastmile_qr_scan", "android": "https://dc.lft.to/lastmile_qr_scan"}, "type": "electric_scooter", "name": "4f94c3075719057c19d660fa8194246d", "is_reserved": 0, "lon": -77.02694566666666, "is_disabled": 0, "fusion_lat": 0.0, "lat": 38.91373816666667, "bike_id": "4f94c3075719057c19d660fa8194246d", "fusion_lon": 0.0}, {"rental_uris": {"ios": "https://dc.lft.to/lastmile_qr_scan", "android": "https://dc.lft.to/lastmile_qr_scan"}, "type": "electric_scooter", "name": "5e2189cc2e58749ef0e22b9e76fcd019", "is_reserved": 0, "lon": -77.04339166666666, "is_disabled": 0, "fusion_lat": 0.0, "lat": 38.899786666666664, "bike_id": "5e2189cc2e58749ef0e22b9e76fcd019", "fusion_lon": 0.0}, {"rental_uris": {"ios": "https://dc.lft.to/lastmile_qr_scan", "android": "https://dc.lft.to/lastmile_qr_scan"}, "type": "electric_scooter", "name": "a0b874483245585521e74adc74628e42", "is_reserved": 0, "lon": -77.02136466666667, "is_disabled": 0, "fusion_lat": 0.0, "lat": 38.924890833333336, "bike_id": "a0b874483245585521e74adc74628e42", "fusion_lon": 0.0}, {"rental_uris": {"ios": "https://dc.lft.to/lastmile_qr_scan", "android": "https://dc.lft.to/lastmile_qr_scan"}, "type": "electric_scooter", "name": "3391e4632863896660f4ec6fbda9dd3e", "is_reserved": 0, "lon": -77.07710666666667, "is_disabled": 0, "fusion_lat": 0.0, "lat": 38.942919333333336, "bike_id": "3391e4632863896660f4ec6fbda9dd3e", "fusion_lon": 0.0}, {"rental_uris": {"ios": "https://dc.lft.to/lastmile_qr_scan", "android": "https://dc.lft.to/lastmile_qr_scan"}, "type": "electric_scooter", "name": "95c7c39c66f60d3851cd1e3d34815701", "is_reserved": 0, "lon": -76.99624416666667, "is_disabled": 0, "fusion_lat": 0.0, "lat": 38.9045115, "bike_id": "95c7c39c66f60d3851cd1e3d34815701", "fusion_lon": 0.0}, {"rental_uris": {"ios": "https://dc.lft.to/lastmile_qr_scan", "android": "https://dc.lft.to/lastmile_qr_scan"}, "type": "electric_scooter", "name": "c3d636fcbd52040740e8d4f8b170db47", "is_reserved": 0, "lon": -77.028121, "is_disabled": 0, "fusion_lat": 0.0, "lat": 38.90731266666667, "bike_id": "c3d636fcbd52040740e8d4f8b170db47", "fusion_lon": 0.0}, {"rental_uris": {"ios": "https://dc.lft.to/lastmile_qr_scan", "android": "https://dc.lft.to/lastmile_qr_scan"}, "type": "electric_scooter", "name": "3dfa0e2b1db882192255613ab05941df", "is_reserved": 0, "lon": -77.02828, "is_disabled": 0, "fusion_lat": 0.0, "lat": 38.938846, "bike_id": "3dfa0e2b1db882192255613ab05941df", "fusion_lon": 0.0}, {"rental_uris": {"ios": "https://dc.lft.to/lastmile_qr_scan", "android": "https://dc.lft.to/lastmile_qr_scan"}, "type": "electric_scooter", "name": "c3d6b77a5f0dd340c97ced2db16439f2", "is_reserved": 0, "lon": -77.0660395, "is_disabled": 0, "fusion_lat": 0.0, "lat": 38.91110616666667, "bike_id": "c3d6b77a5f0dd340c97ced2db16439f2", "fusion_lon": 0.0}, {"rental_uris": {"ios": "https://dc.lft.to/lastmile_qr_scan", "android": "https://dc.lft.to/lastmile_qr_scan"}, "type": "electric_scooter", "name": "c8e953884a3b501476087495649e7131", "is_reserved": 0, "lon": -77.02914433333333, "is_disabled": 0, "fusion_lat": 0.0, "lat": 38.94439583333333, "bike_id": "c8e953884a3b501476087495649e7131", "fusion_lon": 0.0}, {"rental_uris": {"ios": "https://dc.lft.to/lastmile_qr_scan", "android": "https://dc.lft.to/lastmile_qr_scan"}, "type": "electric_bike", "name": "b82a09e5472e53b55a1cbb525aa9b8d9", "is_reserved": 0, "lon": -77.05512733333333, "is_disabled": 0, "fusion_lat": 0.0, "lat": 38.94410083333333, "bike_id": "b82a09e5472e53b55a1cbb525aa9b8d9", "fusion_lon": 0.0}, {"rental_uris": {"ios": "https://dc.lft.to/lastmile_qr_scan", "android": "https://dc.lft.to/lastmile_qr_scan"}, "type": "electric_scooter", "name": "ed23c23d0693eb9d0c87d31a959f9cdd", "is_reserved": 0, "lon": -77.04177333333334, "is_disabled": 0, "fusion_lat": 0.0, "lat": 38.910868666666666, "bike_id": "ed23c23d0693eb9d0c87d31a959f9cdd", "fusion_lon": 0.0}, {"rental_uris": {"ios": "https://dc.lft.to/lastmile_qr_scan", "android": "https://dc.lft.to/lastmile_qr_scan"}, "type": "electric_scooter", "name": "38fb0bd12779a1b357fc547d838f1dc9", "is_reserved": 0, "lon": -77.031597, "is_disabled": 0, "fusion_lat": 0.0, "lat": 38.916873833333334, "bike_id": "38fb0bd12779a1b357fc547d838f1dc9", "fusion_lon": 0.0}, {"rental_uris": {"ios": "https://dc.lft.to/lastmile_qr_scan", "android": "https://dc.lft.to/lastmile_qr_scan"}, "type": "electric_scooter", "name": "68ef95e1a14dca710ee0f14be7edc570", "is_reserved": 0, "lon": -77.04673233333334, "is_disabled": 0, "fusion_lat": 0.0, "lat": 38.89281666666667, "bike_id": "68ef95e1a14dca710ee0f14be7edc570", "fusion_lon": 0.0}, {"rental_uris": {"ios": "https://dc.lft.to/lastmile_qr_scan", "android": "https://dc.lft.to/lastmile_qr_scan"}, "type": "electric_scooter", "name": "8a8bed50850413ec046b55f8de121459", "is_reserved": 0, "lon": -77.051238, "is_disabled": 0, "fusion_lat": 0.0, "lat": 38.9252675, "bike_id": "8a8bed50850413ec046b55f8de121459", "fusion_lon": 0.0}, {"rental_uris": {"ios": "https://dc.lft.to/lastmile_qr_scan", "android": "https://dc.lft.to/lastmile_qr_scan"}, "type": "electric_scooter", "name": "5d2d574b9a6a95a858f8cc898ed38b56", "is_reserved": 0, "lon": -77.04463183333333, "is_disabled": 0, "fusion_lat": 0.0, "lat": 38.922894166666666, "bike_id": "5d2d574b9a6a95a858f8cc898ed38b56", "fusion_lon": 0.0}, {"rental_uris": {"ios": "https://dc.lft.to/lastmile_qr_scan", "android": "https://dc.lft.to/lastmile_qr_scan"}, "type": "electric_bike", "name": "9cadb9fd5790b0443c48c575412e16c2", "is_reserved": 0, "lon": -76.99917716666667, "is_disabled": 0, "fusion_lat": 0.0, "lat": 38.99471616666666, "bike_id": "9cadb9fd5790b0443c48c575412e16c2", "fusion_lon": 0.0}, {"rental_uris": {"ios": "https://dc.lft.to/lastmile_qr_scan", "android": "https://dc.lft.to/lastmile_qr_scan"}, "type": "electric_scooter", "name": "26f0a9a4f5084055753e5fdca3962b9a", "is_reserved": 0, "lon": -77.01425666666667, "is_disabled": 0, "fusion_lat": 0.0, "lat": 38.9132955, "bike_id": "26f0a9a4f5084055753e5fdca3962b9a", "fusion_lon": 0.0}, {"rental_uris": {"ios": "https://dc.lft.to/lastmile_qr_scan", "android": "https://dc.lft.to/lastmile_qr_scan"}, "type": "electric_bike", "name": "142f6e4c3b91bb723a7ca1a116756262", "is_reserved": 0, "lon": -76.980609, "is_disabled": 0, "fusion_lat": 0.0, "lat": 38.97253166666667, "bike_id": "142f6e4c3b91bb723a7ca1a116756262", "fusion_lon": 0.0}, {"rental_uris": {"ios": "https://dc.lft.to/lastmile_qr_scan", "android": "https://dc.lft.to/lastmile_qr_scan"}, "type": "electric_scooter", "name": "b752cbc23b97e4052de9d7ad3f7657cf", "is_reserved": 0, "lon": -77.02598616666667, "is_disabled": 0, "fusion_lat": 0.0, "lat": 38.90497233333333, "bike_id": "b752cbc23b97e4052de9d7ad3f7657cf", "fusion_lon": 0.0}, {"rental_uris": {"ios": "https://dc.lft.to/lastmile_qr_scan", "android": "https://dc.lft.to/lastmile_qr_scan"}, "type": "electric_scooter", "name": "763db561bc81cfc155f35c151449e9d0", "is_reserved": 0, "lon": -77.03959666666667, "is_disabled": 0, "fusion_lat": 0.0, "lat": 38.90123716666667, "bike_id": "763db561bc81cfc155f35c151449e9d0", "fusion_lon": 0.0}, {"rental_uris": {"ios": "https://dc.lft.to/lastmile_qr_scan", "android": "https://dc.lft.to/lastmile_qr_scan"}, "type": "electric_bike", "name": "b0294d6e6b55232a4e8ce6399efc3a5b", "is_reserved": 0, "lon": -77.00389083333333, "is_disabled": 0, "fusion_lat": 0.0, "lat": 38.921106, "bike_id": "b0294d6e6b55232a4e8ce6399efc3a5b", "fusion_lon": 0.0}, {"rental_uris": {"ios": "https://dc.lft.to/lastmile_qr_scan", "android": "https://dc.lft.to/lastmile_qr_scan"}, "type": "electric_scooter", "name": "ab3dbfa00a504be57318287e18217f20", "is_reserved": 0, "lon": -77.04421316666667, "is_disabled": 0, "fusion_lat": 0.0, "lat": 38.91130233333333, "bike_id": "ab3dbfa00a504be57318287e18217f20", "fusion_lon": 0.0}, {"rental_uris": {"ios": "https://dc.lft.to/lastmile_qr_scan", "android": "https://dc.lft.to/lastmile_qr_scan"}, "type": "electric_scooter", "name": "38358ca48a25fb4916e940fd327bd42b", "is_reserved": 0, "lon": -77.02406216666667, "is_disabled": 0, "fusion_lat": 0.0, "lat": 38.94509766666667, "bike_id": "38358ca48a25fb4916e940fd327bd42b", "fusion_lon": 0.0}, {"rental_uris": {"ios": "https://dc.lft.to/lastmile_qr_scan", "android": "https://dc.lft.to/lastmile_qr_scan"}, "type": "electric_scooter", "name": "eb76b677e6fbbc6011a38dcc93ef70ba", "is_reserved": 0, "lon": -77.037942, "is_disabled": 0, "fusion_lat": 0.0, "lat": 38.9154305, "bike_id": "eb76b677e6fbbc6011a38dcc93ef70ba", "fusion_lon": 0.0}, {"rental_uris": {"ios": "https://dc.lft.to/lastmile_qr_scan", "android": "https://dc.lft.to/lastmile_qr_scan"}, "type": "electric_scooter", "name": "75a82351f634208839fa1aa168007f30", "is_reserved": 0, "lon": -77.0143335, "is_disabled": 0, "fusion_lat": 0.0, "lat": 38.88747133333333, "bike_id": "75a82351f634208839fa1aa168007f30", "fusion_lon": 0.0}, {"rental_uris": {"ios": "https://dc.lft.to/lastmile_qr_scan", "android": "https://dc.lft.to/lastmile_qr_scan"}, "type": "electric_scooter", "name": "e3399f2870c5fd49695a609df6348123", "is_reserved": 0, "lon": -77.00606966666666, "is_disabled": 0, "fusion_lat": 0.0, "lat": 38.918079, "bike_id": "e3399f2870c5fd49695a609df6348123", "fusion_lon": 0.0}, {"rental_uris": {"ios": "https://dc.lft.to/lastmile_qr_scan", "android": "https://dc.lft.to/lastmile_qr_scan"}, "type": "electric_scooter", "name": "0fd9bc504228a81e51429ac0ba67e50f", "is_reserved": 0, "lon": -76.9953145, "is_disabled": 0, "fusion_lat": 0.0, "lat": 38.86268066666667, "bike_id": "0fd9bc504228a81e51429ac0ba67e50f", "fusion_lon": 0.0}, {"rental_uris": {"ios": "https://dc.lft.to/lastmile_qr_scan", "android": "https://dc.lft.to/lastmile_qr_scan"}, "type": "electric_scooter", "name": "2a8ddba842306e2dcea27b1b694c4661", "is_reserved": 0, "lon": -77.00690816666666, "is_disabled": 0, "fusion_lat": 0.0, "lat": 38.88430816666666, "bike_id": "2a8ddba842306e2dcea27b1b694c4661", "fusion_lon": 0.0}, {"rental_uris": {"ios": "https://dc.lft.to/lastmile_qr_scan", "android": "https://dc.lft.to/lastmile_qr_scan"}, "type": "electric_scooter", "name": "da3fed4167e14f6c99b3b637c12e196b", "is_reserved": 0, "lon": -77.0325665, "is_disabled": 0, "fusion_lat": 0.0, "lat": 38.90964, "bike_id": "da3fed4167e14f6c99b3b637c12e196b", "fusion_lon": 0.0}, {"rental_uris": {"ios": "https://dc.lft.to/lastmile_qr_scan", "android": "https://dc.lft.to/lastmile_qr_scan"}, "type": "electric_scooter", "name": "3d404233a7fae027bc70885173e16fd5", "is_reserved": 0, "lon": -77.02217266666666, "is_disabled": 0, "fusion_lat": 0.0, "lat": 38.89971416666667, "bike_id": "3d404233a7fae027bc70885173e16fd5", "fusion_lon": 0.0}, {"rental_uris": {"ios": "https://dc.lft.to/lastmile_qr_scan", "android": "https://dc.lft.to/lastmile_qr_scan"},