{"data": {"bikes": [{"lat": 38.866268833333336, "fusion_lat": 0.0, "type": "electric_scooter", "name": "a704ae62026f52b3c62904d0f51a6367", "is_disabled": 0, "bike_id": "a704ae62026f52b3c62904d0f51a6367", "lon": -76.98716133333333, "rental_uris": {"android": "https://dc.lft.to/lastmile_qr_scan", "ios": "https://dc.lft.to/lastmile_qr_scan"}, "fusion_lon": 0.0, "is_reserved": 0}, {"lat": 38.897153333333335, "fusion_lat": 0.0, "type": "electric_scooter", "name": "9742fa493d5dfce804f126fbcaba7b7c", "is_disabled": 0, "bike_id": "9742fa493d5dfce804f126fbcaba7b7c", "lon": -77.02708016666666, "rental_uris": {"android": "https://dc.lft.to/lastmile_qr_scan", "ios": "https://dc.lft.to/lastmile_qr_scan"}, "fusion_lon": 0.0, "is_reserved": 0}, {"lat": 38.906809, "fusion_lat": 0.0, "type": "electric_scooter", "name": "4dd5238d0033ad138b52d8d2bee6ac54", "is_disabled": 0, "bike_id": "4dd5238d0033ad138b52d8d2bee6ac54", "lon": -77.0380995, "rental_uris": {"android": "https://dc.lft.to/lastmile_qr_scan", "ios": "https://dc.lft.to/lastmile_qr_scan"}, "fusion_lon": 0.0, "is_reserved": 0}, {"lat": 38.97514366666667, "fusion_lat": 0.0, "type": "electric_scooter", "name": "9cd230341163b1e5b8a687829b43c49e", "is_disabled": 0, "bike_id": "9cd230341163b1e5b8a687829b43c49e", "lon": -77.01643566666667, "rental_uris": {"android": "https://dc.lft.to/lastmile_qr_scan", "ios": "https://dc.lft.to/lastmile_qr_scan"}, "fusion_lon": 0.0, "is_reserved": 0}, {"lat": 38.931592333333334, "fusion_lat": 0.0, "type": "electric_scooter", "name": "05c573d4b699505bd2e3f461a66766b9", "is_disabled": 0, "bike_id": "05c573d4b699505bd2e3f461a66766b9", "lon": -77.04545833333333, "rental_uris": {"android": "https://dc.lft.to/lastmile_qr_scan", "ios": "https://dc.lft.to/lastmile_qr_scan"}, "fusion_lon": 0.0, "is_reserved": 0}, {"lat": 38.896490166666666, "fusion_lat": 0.0, "type": "electric_scooter", "name": "fed94f2207c9a6bb2515ac07cf0451d5", "is_disabled": 0, "bike_id": "fed94f2207c9a6bb2515ac07cf0451d5", "lon": -77.07066483333334, "rental_uris": {"android": "https://dc.lft.to/lastmile_qr_scan", "ios": "https://dc.lft.to/lastmile_qr_scan"}, "fusion_lon": 0.0, "is_reserved": 0}, {"lat": 38.90257483333333, "fusion_lat": 0.0, "type": "electric_scooter", "name": "f9da2355a31d926af410cde953de4e63", "is_disabled": 0, "bike_id": "f9da2355a31d926af410cde953de4e63", "lon": -77.03888916666666, "rental_uris": {"android": "https://dc.lft.to/lastmile_qr_scan", "ios": "https://dc.lft.to/lastmile_qr_scan"}, "fusion_lon": 0.0, "is_reserved": 0}, {"lat": 38.90825616666667, "fusion_lat": 0.0, "type": "electric_scooter", "name": "75030899b996d1deaad02fae1a3810af", "is_disabled": 0, "bike_id": "75030899b996d1deaad02fae1a3810af", "lon": -77.0391735, "rental_uris": {"android": "https://dc.lft.to/lastmile_qr_scan", "ios": "https://dc.lft.to/lastmile_qr_scan"}, "fusion_lon": 0.0, "is_reserved": 0}, {"lat": 38.901739666666664, "fusion_lat": 0.0, "type": "electric_scooter", "name": "a7fca5d298157829ce95b59ed2b39163", "is_disabled": 0, "bike_id": "a7fca5d298157829ce95b59ed2b39163", "lon": -77.03451283333334, "rental_uris": {"android": "https://dc.lft.to/lastmile_qr_scan", "ios": "https://dc.lft.to/lastmile_qr_scan"}, "fusion_lon": 0.0, "is_reserved": 0}, {"lat": 38.87573666666667, "fusion_lat": 0.0, "type": "electric_scooter", "name": "2fc0c1f266f3372aaaf2d26ddd04e968", "is_disabled": 0, "bike_id": "2fc0c1f266f3372aaaf2d26ddd04e968", "lon": -77.00572116666666, "rental_uris": {"android": "https://dc.lft.to/lastmile_qr_scan", "ios": "https://dc.lft.to/lastmile_qr_scan"}, "fusion_lon": 0.0, "is_reserved": 0}, {"lat": 38.9971065, "fusion_lat": 0.0, "type": "electric_bike", "name": "0b12f8e0bc2a2d8fad4252b1a0dd0fc4", "is_disabled": 0, "bike_id": "0b12f8e0bc2a2d8fad4252b1a0dd0fc4", "lon": -77.02559116666667, "rental_uris": {"android": "https://dc.lft.to/lastmile_qr_scan", "ios": "https://dc.lft.to/lastmile_qr_scan"}, "fusion_lon": 0.0, "is_reserved": 0}, {"lat": 38.934731, "fusion_lat": 0.0, "type": "electric_scooter", "name": "99e8d204b8b1145aa328e63a4aa7c88c", "is_disabled": 0, "bike_id": "99e8d204b8b1145aa328e63a4aa7c88c", "lon": -77.07277216666667, "rental_uris": {"android": "https://dc.lft.to/lastmile_qr_scan", "ios": "https://dc.lft.to/lastmile_qr_scan"}, "fusion_lon": 0.0, "is_reserved": 0}, {"lat": 38.94292683333333, "fusion_lat": 0.0, "type": "electric_scooter", "name": "9528a2c9ec6db9d5c4862ce4f3d615b9", "is_disabled": 0, "bike_id": "9528a2c9ec6db9d5c4862ce4f3d615b9", "lon": -77.02169966666666, "rental_uris": {"android": "https://dc.lft.to/lastmile_qr_scan", "ios": "https://dc.lft.to/lastmile_qr_scan"}, "fusion_lon": 0.0, "is_reserved": 0}, {"lat": 38.922242833333335, "fusion_lat": 0.0, "type": "electric_scooter", "name": "9349f43311b1fdbb729a18290ea2b84a", "is_disabled": 0, "bike_id": "9349f43311b1fdbb729a18290ea2b84a", "lon": -77.02114466666667, "rental_uris": {"android": "https://dc.lft.to/lastmile_qr_scan", "ios": "https://dc.lft.to/lastmile_qr_scan"}, "fusion_lon": 0.0, "is_reserved": 0}, {"lat": 38.9023685, "fusion_lat": 0.0, "type": "electric_scooter", "name": "70a1f2b1f433610051fff4c878652c39", "is_disabled": 0, "bike_id": "70a1f2b1f433610051fff4c878652c39", "lon": -77.0150445, "rental_uris": {"android": "https://dc.lft.to/lastmile_qr_scan", "ios": "https://dc.lft.to/lastmile_qr_scan"}, "fusion_lon": 0.0, "is_reserved": 0}, {"lat": 38.968179666666664, "fusion_lat": 0.0, "type": "electric_scooter", "name": "83988a45eacf84e805e74b48e03dfbe7", "is_disabled": 0, "bike_id": "83988a45eacf84e805e74b48e03dfbe7", "lon": -77.0089315, "rental_uris": {"android": "https://dc.lft.to/lastmile_qr_scan", "ios": "https://dc.lft.to/lastmile_qr_scan"}, "fusion_lon": 0.0, "is_reserved": 0}, {"lat": 38.96623983333333, "fusion_lat": 0.0, "type": "electric_bike", "name": "84f91a39d83de88ff87da2ee1136ec4b", "is_disabled": 0, "bike_id": "84f91a39d83de88ff87da2ee1136ec4b", "lon": -77.03424716666666, "rental_uris": {"android": "https://dc.lft.to/lastmile_qr_scan", "ios": "https://dc.lft.to/lastmile_qr_scan"}, "fusion_lon": 0.0, "is_reserved": 0}, {"lat": 38.960493, "fusion_lat": 0.0, "type": "electric_scooter", "name": "ece0a2431f767c5eba6bbb66ed013751", "is_disabled": 0, "bike_id": "ece0a2431f767c5eba6bbb66ed013751", "lon": -77.02794166666666, "rental_uris": {"android": "https://dc.lft.to/lastmile_qr_scan", "ios": "https://dc.lft.to/lastmile_qr_scan"}, "fusion_lon": 0.0, "is_reserved": 0}, {"lat": 38.917214333333334, "fusion_lat": 0.0, "type": "electric_scooter", "name": "2e15b9147015a1bd722df337a8686841", "is_disabled": 0, "bike_id": "2e15b9147015a1bd722df337a8686841", "lon": -77.03192533333333, "rental_uris": {"android": "https://dc.lft.to/lastmile_qr_scan", "ios": "https://dc.lft.to/lastmile_qr_scan"}, "fusion_lon": 0.0, "is_reserved": 0}, {"lat": 38.910675, "fusion_lat": 0.0, "type": "electric_scooter", "name": "3bb38cfa7b766c4bd6d6acd6c7784d8e", "is_disabled": 0, "bike_id": "3bb38cfa7b766c4bd6d6acd6c7784d8e", "lon": -77.05310016666667, "rental_uris": {"android": "https://dc.lft.to/lastmile_qr_scan", "ios": "https://dc.lft.to/lastmile_qr_scan"}, "fusion_lon": 0.0, "is_reserved": 0}, {"lat": 38.92359283333333, "fusion_lat": 0.0, "type": "electric_scooter", "name": "c7b1856b56c93e9b58f8ad0bc810983d", "is_disabled": 0, "bike_id": "c7b1856b56c93e9b58f8ad0bc810983d", "lon": -77.03368633333334, "rental_uris": {"android": "https://dc.lft.to/lastmile_qr_scan", "ios": "https://dc.lft.to/lastmile_qr_scan"}, "fusion_lon": 0.0, "is_reserved": 0}, {"lat": 38.90551966666666, "fusion_lat": 0.0, "type": "electric_scooter", "name": "f96f1398c9a7ea0797b0ab2b037d3321", "is_disabled": 0, "bike_id": "f96f1398c9a7ea0797b0ab2b037d3321", "lon": -77.00704333333333, "rental_uris": {"android": "https://dc.lft.to/lastmile_qr_scan", "ios": "https://dc.lft.to/lastmile_qr_scan"}, "fusion_lon": 0.0, "is_reserved": 0}, {"lat": 38.887692, "fusion_lat": 0.0, "type": "electric_scooter", "name": "660a3a4cfaf57cb19f8c8c842e5807a3", "is_disabled": 0, "bike_id": "660a3a4cfaf57cb19f8c8c842e5807a3", "lon": -77.02227, "rental_uris": {"android": "https://dc.lft.to/lastmile_qr_scan", "ios": "https://dc.lft.to/lastmile_qr_scan"}, "fusion_lon": 0.0, "is_reserved": 0}, {"lat": 38.87237483333333, "fusion_lat": 0.0, "type": "electric_bike", "name": "54b7d46ec6ba5c086936a3568a2583f7", "is_disabled": 0, "bike_id": "54b7d46ec6ba5c086936a3568a2583f7", "lon": -77.108552, "rental_uris": {"android": "https://dc.lft.to/lastmile_qr_scan", "ios": "https://dc.lft.to/lastmile_qr_scan"}, "fusion_lon": 0.0, "is_reserved": 0}, {"lat": 38.89582166666667, "fusion_lat": 0.0, "type": "electric_scooter", "name": "3ba2e357b51865d53ebe8110d9ba3fb1", "is_disabled": 0, "bike_id": "3ba2e357b51865d53ebe8110d9ba3fb1", "lon": -77.02195916666666, "rental_uris": {"android": "https://dc.lft.to/lastmile_qr_scan", "ios": "https://dc.lft.to/lastmile_qr_scan"}, "fusion_lon": 0.0, "is_reserved": 0}, {"lat": 38.89218116666667, "fusion_lat": 0.0, "type": "electric_scooter", "name": "d88603335957a5a014e323e6bb90c0f8", "is_disabled": 0, "bike_id": "d88603335957a5a014e323e6bb90c0f8", "lon": -77.02228466666666, "rental_uris": {"android": "https://dc.lft.to/lastmile_qr_scan", "ios": "https://dc.lft.to/lastmile_qr_scan"}, "fusion_lon": 0.0, "is_reserved": 0}, {"lat": 38.924486333333334, "fusion_lat": 0.0, "type": "electric_scooter", "name": "9b3910da349b66a67ac8a70fdf97ef12", "is_disabled": 0, "bike_id": "9b3910da349b66a67ac8a70fdf97ef12", "lon": -77.03409066666667, "rental_uris": {"android": "https://dc.lft.to/lastmile_qr_scan", "ios": "https://dc.lft.to/lastmile_qr_scan"}, "fusion_lon": 0.0, "is_reserved": 0}, {"lat": 38.88732816666667, "fusion_lat": 0.0, "type": "electric_scooter", "name": "cf24537f161fea2ca7eef0d2edc6e49e", "is_disabled": 0, "bike_id": "cf24537f161fea2ca7eef0d2edc6e49e", "lon": -77.02829833333334, "rental_uris": {"android": "https://dc.lft.to/lastmile_qr_scan", "ios": "https://dc.lft.to/lastmile_qr_scan"}, "fusion_lon": 0.0, "is_reserved": 0}, {"lat": 38.88693716666667, "fusion_lat": 0.0, "type": "electric_scooter", "name": "36f13af1d1e291a6c0331bb75d00e080", "is_disabled": 0, "bike_id": "36f13af1d1e291a6c0331bb75d00e080", "lon": -77.0336405, "rental_uris": {"android": "https://dc.lft.to/lastmile_qr_scan", "ios": "https://dc.lft.to/lastmile_qr_scan"}, "fusion_lon": 0.0, "is_reserved": 0}, {"lat": 38.9377025, "fusion_lat": 0.0, "type": "electric_scooter", "name": "ff51d0f037d6e19acf5d3ed8dc553480", "is_disabled": 0, "bike_id": "ff51d0f037d6e19acf5d3ed8dc553480", "lon": -77.03263433333333, "rental_uris": {"android": "https://dc.lft.to/lastmile_qr_scan", "ios": "https://dc.lft.to/lastmile_qr_scan"}, "fusion_lon": 0.0, "is_reserved": 0}, {"lat": 38.905615833333336, "fusion_lat": 0.0, "type": "electric_scooter", "name": "4f6e2130402abc41aa50126007a33b64", "is_disabled": 0, "bike_id": "4f6e2130402abc41aa50126007a33b64", "lon": -77.039754, "rental_uris": {"android": "https://dc.lft.to/lastmile_qr_scan", "ios": "https://dc.lft.to/lastmile_qr_scan"}, "fusion_lon": 0.0, "is_reserved": 0}, {"lat": 38.923604833333336, "fusion_lat": 0.0, "type": "electric_scooter", "name": "3a9fa41977f134bef694657ce430db33", "is_disabled": 0, "bike_id": "3a9fa41977f134bef694657ce430db33", "lon": -77.05105083333333, "rental_uris": {"android": "https://dc.lft.to/lastmile_qr_scan", "ios": "https://dc.lft.to/lastmile_qr_scan"}, "fusion_lon": 0.0, "is_reserved": 0}, {"lat": 38.949815666666666, "fusion_lat": 0.0, "type": "electric_scooter", "name": "20a5508ff6e70dfbb7775b86953ef8f3", "is_disabled": 0, "bike_id": "20a5508ff6e70dfbb7775b86953ef8f3", "lon": -77.02697016666667, "rental_uris": {"android": "https://dc.lft.to/lastmile_qr_scan", "ios": "https://dc.lft.to/lastmile_qr_scan"}, "fusion_lon": 0.0, "is_reserved": 0}, {"lat": 38.924643833333334, "fusion_lat": 0.0, "type": "electric_scooter", "name": "d8c39b22c29bc6030eb06e8acc0b065b", "is_disabled": 0, "bike_id": "d8c39b22c29bc6030eb06e8acc0b065b", "lon": -77.0522755, "rental_uris": {"android": "https://dc.lft.to/lastmile_qr_scan", "ios": "https://dc.lft.to/lastmile_qr_scan"}, "fusion_lon": 0.0, "is_reserved": 0}, {"lat": 38.835533166666664, "fusion_lat": 0.0, "type": "electric_bike", "name": "efee0008b94c0ead4749ecac54defb3d", "is_disabled": 0, "bike_id": "efee0008b94c0ead4749ecac54defb3d", "lon": -76.987267, "rental_uris": {"android": "https://dc.lft.to/lastmile_qr_scan", "ios": "https://dc.lft.to/lastmile_qr_scan"}, "fusion_lon": 0.0, "is_reserved": 0}, {"lat": 38.9085825, "fusion_lat": 0.0, "type": "electric_scooter", "name": "32bc75794ac075ed96f5b42eea8f20fa", "is_disabled": 0, "bike_id": "32bc75794ac075ed96f5b42eea8f20fa", "lon": -76.99962966666666, "rental_uris": {"android": "https://dc.lft.to/lastmile_qr_scan", "ios": "https://dc.lft.to/lastmile_qr_scan"}, "fusion_lon": 0.0, "is_reserved": 0}, {"lat": 38.89728, "fusion_lat": 0.0, "type": "electric_scooter", "name": "3cb0302d89b573d70150040b8dd73e3d", "is_disabled": 0, "bike_id": "3cb0302d89b573d70150040b8dd73e3d", "lon": -77.02277016666666, "rental_uris": {"android": "https://dc.lft.to/lastmile_qr_scan", "ios": "https://dc.lft.to/lastmile_qr_scan"}, "fusion_lon": 0.0, "is_reserved": 0}, {"lat": 38.892287333333336, "fusion_lat": 0.0, "type": "electric_scooter", "name": "c81c5e502f5e750f4151aede59563d68", "is_disabled": 0, "bike_id": "c81c5e502f5e750f4151aede59563d68", "lon": -77.0419595, "rental_uris": {"android": "https://dc.lft.to/lastmile_qr_scan", "ios": "https://dc.lft.to/lastmile_qr_scan"}, "fusion_lon": 0.0, "is_reserved": 0}, {"lat": 38.911204833333336, "fusion_lat": 0.0, "type": "electric_scooter", "name": "1f0e7e1c8cbe677ce10006b15086f51b", "is_disabled": 0, "bike_id": "1f0e7e1c8cbe677ce10006b15086f51b", "lon": -77.03919566666667, "rental_uris": {"android": "https://dc.lft.to/lastmile_qr_scan", "ios": "https://dc.lft.to/lastmile_qr_scan"}, "fusion_lon": 0.0, "is_reserved": 0}, {"lat": 38.94618966666667, "fusion_lat": 0.0, "type": "electric_bike", "name": "4b08110874d8ef45f633cf86c6bdf015", "is_disabled": 0, "bike_id": "4b08110874d8ef45f633cf86c6bdf015", "lon": -77.09671666666667, "rental_uris": {"android": "https://dc.lft.to/lastmile_qr_scan", "ios": "https://dc.lft.to/lastmile_qr_scan"}, "fusion_lon": 0.0, "is_reserved": 0}, {"lat": 38.887147166666665, "fusion_lat": 0.0, "type": "electric_scooter", "name": "c78438fb7af273a03305a70c01f7a2c2", "is_disabled": 0, "bike_id": "c78438fb7af273a03305a70c01f7a2c2", "lon": -77.017765, "rental_uris": {"android": "https://dc.lft.to/lastmile_qr_scan", "ios": "https://dc.lft.to/lastmile_qr_scan"}, "fusion_lon": 0.0, "is_reserved": 0}, {"lat": 38.933642166666665, "fusion_lat": 0.0, "type": "electric_scooter", "name": "9b563ea1e383ddc82627f5843a45a7ff", "is_disabled": 0, "bike_id": "9b563ea1e383ddc82627f5843a45a7ff", "lon": -77.05726816666666, "rental_uris": {"android": "https://dc.lft.to/lastmile_qr_scan", "ios": "https://dc.lft.to/lastmile_qr_scan"}, "fusion_lon": 0.0, "is_reserved": 0}, {"lat": 38.901018666666666, "fusion_lat": 0.0, "type": "electric_scooter", "name": "b879a730b15e3a3ebc51ee982b558eb5", "is_disabled": 0, "bike_id": "b879a730b15e3a3ebc51ee982b558eb5", "lon": -77.03946666666667, "rental_uris": {"android": "https://dc.lft.to/lastmile_qr_scan", "ios": "https://dc.lft.to/lastmile_qr_scan"}, "fusion_lon": 0.0, "is_reserved": 0}, {"lat": 38.8922655, "fusion_lat": 0.0, "type": "electric_scooter", "name": "e62948f2af59830bb8f0df492a7f3375", "is_disabled": 0, "bike_id": "e62948f2af59830bb8f0df492a7f3375", "lon": -77.02380383333333, "rental_uris": {"android": "https://dc.lft.to/lastmile_qr_scan", "ios": "https://dc.lft.to/lastmile_qr_scan"}, "fusion_lon": 0.0, "is_reserved": 0}, {"lat": 38.896927166666664, "fusion_lat": 0.0, "type": "electric_scooter", "name": "51e1eb7780a0dbd7b5221fc259b349f0", "is_disabled": 0, "bike_id": "51e1eb7780a0dbd7b5221fc259b349f0", "lon": -77.05104833333333, "rental_uris": {"android": "https://dc.lft.to/lastmile_qr_scan", "ios": "https://dc.lft.to/lastmile_qr_scan"}, "fusion_lon": 0.0, "is_reserved": 0}, {"lat": 38.92331866666667, "fusion_lat": 0.0, "type": "electric_scooter", "name": "1ccf9ae6ef5011d8c7115f6989021fa6", "is_disabled": 0, "bike_id": "1ccf9ae6ef5011d8c7115f6989021fa6", "lon": -77.01950416666666, "rental_uris": {"android": "https://dc.lft.to/lastmile_qr_scan", "ios": "https://dc.lft.to/lastmile_qr_scan"}, "fusion_lon": 0.0, "is_reserved": 0}, {"lat": 38.90033416666667, "fusion_lat": 0.0, "type": "electric_scooter", "name": "496260d92fe629506017140056e52846", "is_disabled": 0, "bike_id": "496260d92fe629506017140056e52846", "lon": -76.98841983333334, "rental_uris": {"android": "https://dc.lft.to/lastmile_qr_scan", "ios": "https://dc.lft.to/lastmile_qr_scan"}, "fusion_lon": 0.0, "is_reserved": 0}, {"lat": 38.90864933333334, "fusion_lat": 0.0, "type": "electric_scooter", "name": "94f8d2aa36f9d3895903f2fbc4f0c4f1", "is_disabled": 0, "bike_id": "94f8d2aa36f9d3895903f2fbc4f0c4f1", "lon": -77.06912633333333, "rental_uris": {"android": "https://dc.lft.to/lastmile_qr_scan", "ios": "https://dc.lft.to/lastmile_qr_scan"}, "fusion_lon": 0.0, "is_reserved": 0}, {"lat": 38.860149, "fusion_lat": 0.0, "type": "electric_scooter", "name": "35b273007b872709194766cb027c3a4a", "is_disabled": 0, "bike_id": "35b273007b872709194766cb027c3a4a", "lon": -76.9860505, "rental_uris": {"android": "https://dc.lft.to/lastmile_qr_scan", "ios": "https://dc.lft.to/lastmile_qr_scan"}, "fusion_lon": 0.0, "is_reserved": 0}, {"lat": 38.89530766666667, "fusion_lat": 0.0, "type": "electric_scooter", "name": "f5837bf4ba7ee4ec4a3f58444bcbcc76", "is_disabled": 0, "bike_id": "f5837bf4ba7ee4ec4a3f58444bcbcc76", "lon": -77.02811716666666, "rental_uris": {"android": "https://dc.lft.to/lastmile_qr_scan", "ios": "https://dc.lft.to/lastmile_qr_scan"}, "fusion_lon": 0.0, "is_reserved": 0}, {"lat": 38.90608783333333, "fusion_lat": 0.0, "type": "electric_scooter", "name": "435fbe79eb62543ae08b363b3b2ad659", "is_disabled": 0, "bike_id": "435fbe79eb62543ae08b363b3b2ad659", "lon": -77.039824, "rental_uris": {"android": "https://dc.lft.to/lastmile_qr_scan", "ios": "https://dc.lft.to/lastmile_qr_scan"}, "fusion_lon": 0.0, "is_reserved": 0}, {"lat": 38.8922805, "fusion_lat": 0.0, "type": "electric_scooter", "name": "1c6eeba279d941b0befe68edaeaa1b7c", "is_disabled": 0, "bike_id": "1c6eeba279d941b0befe68edaeaa1b7c", "lon": -77.04989166666667, "rental_uris": {"android": "https://dc.lft.to/lastmile_qr_scan", "ios": "https://dc.lft.to/lastmile_qr_scan"}, "fusion_lon": 0.0, "is_reserved": 0}, {"lat": 38.91122433333334, "fusion_lat": 0.0, "type": "electric_scooter", "name": "d29b95f6b0d21fb42a99e13975fbf020", "is_disabled": 0, "bike_id": "d29b95f6b0d21fb42a99e13975fbf020", "lon": -77.02179183333334, "rental_uris": {"android": "https://dc.lft.to/lastmile_qr_scan", "ios": "https://dc.lft.to/lastmile_qr_scan"}, "fusion_lon": 0.0, "is_reserved": 0}, {"lat": 38.905239333333334, "fusion_lat": 0.0, "type": "electric_scooter", "name": "d6eabf5b6dc67957bf8620c991ef3dcf", "is_disabled": 0, "bike_id": "d6eabf5b6dc67957bf8620c991ef3dcf", "lon": -77.06601516666667, "rental_uris": {"android": "https://dc.lft.to/lastmile_qr_scan", "ios": "https://dc.lft.to/lastmile_qr_scan"}, "fusion_lon": 0.0, "is_reserved": 0}, {"lat": 38.9233785, "fusion_lat": 0.0, "type": "electric_scooter", "name": "43cbeb279af2de9b1af8b43e7021c839", "is_disabled": 0, "bike_id": "43cbeb279af2de9b1af8b43e7021c839", "lon": -77.04192933333333, "rental_uris": {"android": "https://dc.lft.to/lastmile_qr_scan", "ios": "https://dc.lft.to/lastmile_qr_scan"}, "fusion_lon": 0.0, "is_reserved": 0}, {"lat": 38.90865566666667, "fusion_lat": 0.0, "type": "electric_scooter", "name": "a38a06460c731ef80b3423454b2ed2d5", "is_disabled": 0, "bike_id": "a38a06460c731ef80b3423454b2ed2d5", "lon": -76.93342216666667, "rental_uris": {"android": "https://dc.lft.to/lastmile_qr_scan", "ios": "https://dc.lft.to/lastmile_qr_scan"}, "fusion_lon": 0.0, "is_reserved": 0}, {"lat": 38.914064, "fusion_lat": 0.0, "type": "electric_scooter", "name": "97ecec544f0abf99c98570faaaa34f6d", "is_disabled": 0, "bike_id": "97ecec544f0abf99c98570faaaa34f6d", "lon": -77.0287385, "rental_uris": {"android": "https://dc.lft.to/lastmile_qr_scan", "ios": "https://dc.lft.to/lastmile_qr_scan"}, "fusion_lon": 0.0, "is_reserved": 0}, {"lat": 38.90135133333333, "fusion_lat": 0.0, "type": "electric_scooter", "name": "571e5a755c610f94d054d690565b1b5a", "is_disabled": 0, "bike_id": "571e5a755c610f94d054d690565b1b5a", "lon": -77.053946, "rental_uris": {"android": "https://dc.lft.to/lastmile_qr_scan", "ios": "https://dc.lft.to/lastmile_qr_scan"}, "fusion_lon": 0.0, "is_reserved": 0}, {"lat": 38.8921805, "fusion_lat": 0.0, "type": "electric_scooter", "name": "b223ab466d1c95b6de846018efe3bd7e", "is_disabled": 0, "bike_id": "b223ab466d1c95b6de846018efe3bd7e", "lon": -77.022268, "rental_uris": {"android": "https://dc.lft.to/lastmile_qr_scan", "ios": "https://dc.lft.to/lastmile_qr_scan"}, "fusion_lon": 0.0, "is_reserved": 0}, {"lat": 38.8922795, "fusion_lat": 0.0, "type": "electric_scooter", "name": "f3d8a84c8ea9bbc3fb306a9634cab567", "is_disabled": 0, "bike_id": "f3d8a84c8ea9bbc3fb306a9634cab567", "lon": -77.02380816666667, "rental_uris": {"android": "https://dc.lft.to/lastmile_qr_scan", "ios": "https://dc.lft.to/lastmile_qr_scan"}, "fusion_lon": 0.0, "is_reserved": 0}, {"lat": 38.87783966666667, "fusion_lat": 0.0, "type": "electric_scooter", "name": "3a825fc5f8880888846e2c0720e2329f", "is_disabled": 0, "bike_id": "3a825fc5f8880888846e2c0720e2329f", "lon": -77.01767383333333, "rental_uris": {"android": "https://dc.lft.to/lastmile_qr_scan", "ios": "https://dc.lft.to/lastmile_qr_scan"}, "fusion_lon": 0.0, "is_reserved": 0}, {"lat": 38.90569833333333, "fusion_lat": 0.0, "type": "electric_scooter", "name": "a300b6c40904287ff5c3264b36938f41", "is_disabled": 0, "bike_id": "a300b6c40904287ff5c3264b36938f41", "lon": -77.02172933333334, "rental_uris": {"android": "https://dc.lft.to/lastmile_qr_scan", "ios": "https://dc.lft.to/lastmile_qr_scan"}, "fusion_lon": 0.0, "is_reserved": 0}, {"lat": 38.878902333333336, "fusion_lat": 0.0, "type": "electric_scooter", "name": "aa50d870b7b1f470f99287dc2a8218f2", "is_disabled": 0, "bike_id": "aa50d870b7b1f470f99287dc2a8218f2", "lon": -77.0013395, "rental_uris": {"android": "https://dc.lft.to/lastmile_qr_scan", "ios": "https://dc.lft.to/lastmile_qr_scan"}, "fusion_lon": 0.0, "is_reserved": 0}, {"lat": 38.9027755, "fusion_lat": 0.0, "type": "electric_scooter", "name": "77f313b6bd982aba1416cf0e3f95d307", "is_disabled": 0, "bike_id": "77f313b6bd982aba1416cf0e3f95d307", "lon": -77.03840133333334, "rental_uris": {"android": "https://dc.lft.to/lastmile_qr_scan", "ios": "https://dc.lft.to/lastmile_qr_scan"}, "fusion_lon": 0.0, "is_reserved": 0}, {"lat": 38.89868116666667, "fusion_lat": 0.0, "type": "electric_scooter", "name": "9f1dd4c5cfb261a7ba185d1ab039a80e", "is_disabled": 0, "bike_id": "9f1dd4c5cfb261a7ba185d1ab039a80e", "lon": -76.946415, "rental_uris": {"android": "https://dc.lft.to/lastmile_qr_scan", "ios": "https://dc.lft.to/lastmile_qr_scan"}, "fusion_lon": 0.0, "is_reserved": 0}, {"lat": 38.89503883333333, "fusion_lat": 0.0, "type": "electric_scooter", "name": "e466ebcf6d2c6814ab5091ff448866ee", "is_disabled": 0, "bike_id": "e466ebcf6d2c6814ab5091ff448866ee", "lon": -76.9347425, "rental_uris": {"android": "https://dc.lft.to/lastmile_qr_scan", "ios": "https://dc.lft.to/lastmile_qr_scan"}, "fusion_lon": 0.0, "is_reserved": 0}, {"lat": 38.9361195, "fusion_lat": 0.0, "type": "electric_scooter", "name": "bfe0904047db14c73c7cac3047d3625c", "is_disabled": 0, "bike_id": "bfe0904047db14c73c7cac3047d3625c", "lon": -77.058576, "rental_uris": {"android": "https://dc.lft.to/lastmile_qr_scan", "ios": "https://dc.lft.to/lastmile_qr_scan"}, "fusion_lon": 0.0, "is_reserved": 0}, {"lat": 38.9163765, "fusion_lat": 0.0, "type": "electric_scooter", "name": "5e3033b91adfd3f4399f5f7e2f5e7462", "is_disabled": 0, "bike_id": "5e3033b91adfd3f4399f5f7e2f5e7462", "lon": -77.02550066666667, "rental_uris": {"android": "https://dc.lft.to/lastmile_qr_scan", "ios": "https://dc.lft.to/lastmile_qr_scan"}, "fusion_lon": 0.0, "is_reserved": 0}, {"lat": 38.92072366666667, "fusion_lat": 0.0, "type": "electric_scooter", "name": "f218c6d5001cfb6502a1f2e6b72f6165", "is_disabled": 0, "bike_id": "f218c6d5001cfb6502a1f2e6b72f6165", "lon": -77.03800166666667, "rental_uris": {"android": "https://dc.lft.to/lastmile_qr_scan", "ios": "https://dc.lft.to/lastmile_qr_scan"}, "fusion_lon": 0.0, "is_reserved": 0}, {"lat": 38.88745866666667, "fusion_lat": 0.0, "type": "electric_scooter", "name": "74cf9c9fca7dc32ea3ec1254c292c50c", "is_disabled": 0, "bike_id": "74cf9c9fca7dc32ea3ec1254c292c50c", "lon": -77.02569, "rental_uris": {"android": "https://dc.lft.to/lastmile_qr_scan", "ios": "https://dc.lft.to/lastmile_qr_scan"}, "fusion_lon": 0.0, "is_reserved": 0}, {"lat": 38.9311955, "fusion_lat": 0.0, "type": "electric_scooter", "name": "d1e2850608d2be21757dc75577e161d1", "is_disabled": 0, "bike_id": "d1e2850608d2be21757dc75577e161d1", "lon": -77.03009483333334, "rental_uris": {"android": "https://dc.lft.to/lastmile_qr_scan", "ios": "https://dc.lft.to/lastmile_qr_scan"}, "fusion_lon": 0.0, "is_reserved": 0}, {"lat": 38.90248283333333, "fusion_lat": 0.0, "type": "electric_scooter", "name": "67142c53412f0bb0963384e6451870ae", "is_disabled": 0, "bike_id": "67142c53412f0bb0963384e6451870ae", "lon": -77.04060516666667, "rental_uris": {"android": "https://dc.lft.to/lastmile_qr_scan", "ios": "https://dc.lft.to/lastmile_qr_scan"}, "fusion_lon": 0.0, "is_reserved": 0}, {"lat": 38.906789333333336, "fusion_lat": 0.0, "type": "electric_scooter", "name": "7c86913fdea1be177cf8594716083949", "is_disabled": 0, "bike_id": "7c86913fdea1be177cf8594716083949", "lon": -77.03805083333333, "rental_uris": {"android": "https://dc.lft.to/lastmile_qr_scan", "ios": "https://dc.lft.to/lastmile_qr_scan"}, "fusion_lon": 0.0, "is_reserved": 0}, {"lat": 38.9064175, "fusion_lat": 0.0, "type": "electric_scooter", "name": "19f6aa8fc06aa4588528e93b8e3080d6", "is_disabled": 0, "bike_id": "19f6aa8fc06aa4588528e93b8e3080d6", "lon": -77.038642, "rental_uris": {"android": "https://dc.lft.to/lastmile_qr_scan", "ios": "https://dc.lft.to/lastmile_qr_scan"}, "fusion_lon": 0.0, "is_reserved": 0}, {"lat": 38.909660833333334, "fusion_lat": 0.0, "type": "electric_scooter", "name": "80e84293bd8f91d2351ddbffdfdbb49e", "is_disabled": 0, "bike_id": "80e84293bd8f91d2351ddbffdfdbb49e", "lon": -77.02557116666667, "rental_uris": {"android": "https://dc.lft.to/lastmile_qr_scan", "ios": "https://dc.lft.to/lastmile_qr_scan"}, "fusion_lon": 0.0, "is_reserved": 0}, {"lat": 38.903752, "fusion_lat": 0.0, "type": "electric_scooter", "name": "e295e1e81e86910a709476edc2309ac3", "is_disabled": 0, "bike_id": "e295e1e81e86910a709476edc2309ac3", "lon": -77.03854083333333, "rental_uris": {"android": "https://dc.lft.to/lastmile_qr_scan", "ios": "https://dc.lft.to/lastmile_qr_scan"}, "fusion_lon": 0.0, "is_reserved": 0}, {"lat": 38.89468566666667, "fusion_lat": 0.0, "type": "electric_scooter", "name": "8be2b6a111b6624838a8af1e161d81e5", "is_disabled": 0, "bike_id": "8be2b6a111b6624838a8af1e161d81e5", "lon": -77.0034445, "rental_uris": {"android": "https://dc.lft.to/lastmile_qr_scan", "ios": "https://dc.lft.to/lastmile_qr_scan"}, "fusion_lon": 0.0, "is_reserved": 0}, {"lat": 38.87663, "fusion_lat": 0.0, "type": "electric_scooter", "name": "2a1298232ddea433e59c81a946802dac", "is_disabled": 0, "bike_id": "2a1298232ddea433e59c81a946802dac", "lon": -77.0054595, "rental_uris": {"android": "https://dc.lft.to/lastmile_qr_scan", "ios": "https://dc.lft.to/lastmile_qr_scan"}, "fusion_lon": 0.0, "is_reserved": 0}, {"lat": 38.8446915, "fusion_lat": 0.0, "type": "electric_bike", "name": "2d6bea9f2b9ec2781646d3962f7de2c0", "is_disabled": 0, "bike_id": "2d6bea9f2b9ec2781646d3962f7de2c0", "lon": -76.9785505, "rental_uris": {"android": "https://dc.lft.to/lastmile_qr_scan", "ios": "https://dc.lft.to/lastmile_qr_scan"}, "fusion_lon": 0.0, "is_reserved": 0}, {"lat": 38.87926133333333, "fusion_lat": 0.0, "type": "electric_bike", "name": "b7285c61ba9da1818c8d7589edd52533", "is_disabled": 0, "bike_id": "b7285c61ba9da1818c8d7589edd52533", "lon": -77.023694, "rental_uris": {"android": "https://dc.lft.to/lastmile_qr_scan", "ios": "https://dc.lft.to/lastmile_qr_scan"}, "fusion_lon": 0.0, "is_reserved": 0}, {"lat": 38.8792615, "fusion_lat": 0.0, "type": "electric_scooter", "name": "ce582def7cac8b03575f6c62ecf7f8fb", "is_disabled": 0, "bike_id": "ce582def7cac8b03575f6c62ecf7f8fb", "lon": -76.99518883333333, "rental_uris": {"android": "https://dc.lft.to/lastmile_qr_scan", "ios": "https://dc.lft.to/lastmile_qr_scan"}, "fusion_lon": 0.0, "is_reserved": 0}, {"lat": 38.896941166666664, "fusion_lat": 0.0, "type": "electric_scooter", "name": "d3e02e8cb832388b5c048e0d9c776f22", "is_disabled": 0, "bike_id": "d3e02e8cb832388b5c048e0d9c776f22", "lon": -77.0119145, "rental_uris": {"android": "https://dc.lft.to/lastmile_qr_scan", "ios": "https://dc.lft.to/lastmile_qr_scan"}, "fusion_lon": 0.0, "is_reserved": 0}, {"lat": 38.89708366666667, "fusion_lat": 0.0, "type": "electric_scooter", "name": "cb869f2768f3370ee07be7115f04d462", "is_disabled": 0, "bike_id": "cb869f2768f3370ee07be7115f04d462", "lon": -77.02288916666667, "rental_uris": {"android": "https://dc.lft.to/lastmile_qr_scan", "ios": "https://dc.lft.to/lastmile_qr_scan"}, "fusion_lon": 0.0, "is_reserved": 0}, {"lat": 38.931185166666666, "fusion_lat": 0.0, "type": "electric_scooter", "name": "72d51382de6acc1ee83f872bfd2ea764", "is_disabled": 0, "bike_id": "72d51382de6acc1ee83f872bfd2ea764", "lon": -77.030273, "rental_uris": {"android": "https://dc.lft.to/lastmile_qr_scan", "ios": "https://dc.lft.to/lastmile_qr_scan"}, "fusion_lon": 0.0, "is_reserved": 0}, {"lat": 38.8563265, "fusion_lat": 0.0, "type": "electric_scooter", "name": "09ae2b0a5d2608d8b1eba2cdbf3ad92b", "is_disabled": 0, "bike_id": "09ae2b0a5d2608d8b1eba2cdbf3ad92b", "lon": -76.96687666666666, "rental_uris": {"android": "https://dc.lft.to/lastmile_qr_scan", "ios": "https://dc.lft.to/lastmile_qr_scan"}, "fusion_lon": 0.0, "is_reserved": 0}, {"lat": 38.90160616666667, "fusion_lat": 0.0, "type": "electric_scooter", "name": "d9fd79a3fb1984d3f74cf69f0ebdf223", "is_disabled": 0, "bike_id": "d9fd79a3fb1984d3f74cf69f0ebdf223", "lon": -77.05064016666667, "rental_uris": {"android": "https://dc.lft.to/lastmile_qr_scan", "ios": "https://dc.lft.to/lastmile_qr_scan"}, "fusion_lon": 0.0, "is_reserved": 0}, {"lat": 38.87640483333333, "fusion_lat": 0.0, "type": "electric_scooter", "name": "3ecb75c60a9870084b9648c35164064e", "is_disabled": 0, "bike_id": "3ecb75c60a9870084b9648c35164064e", "lon": -77.00370983333333, "rental_uris": {"android": "https://dc.lft.to/lastmile_qr_scan", "ios": "https://dc.lft.to/lastmile_qr_scan"}, "fusion_lon": 0.0, "is_reserved": 0}, {"lat": 38.907849166666665, "fusion_lat": 0.0, "type": "electric_scooter", "name": "01624dc9d232952e875619278bffac39", "is_disabled": 0, "bike_id": "01624dc9d232952e875619278bffac39", "lon": -77.0271645, "rental_uris": {"android": "https://dc.lft.to/lastmile_qr_scan", "ios": "https://dc.lft.to/lastmile_qr_scan"}, "fusion_lon": 0.0, "is_reserved": 0}, {"lat": 38.951922333333336, "fusion_lat": 0.0, "type": "electric_scooter", "name": "074bc8ceb615447c88b011efb49f2dac", "is_disabled": 0, "bike_id": "074bc8ceb615447c88b011efb49f2dac", "lon": -77.02718233333333, "rental_uris": {"android": "https://dc.lft.to/lastmile_qr_scan", "ios": "https://dc.lft.to/lastmile_qr_scan"}, "fusion_lon": 0.0, "is_reserved": 0}, {"lat": 38.9227315, "fusion_lat": 0.0, "type": "electric_scooter", "name": "708fb00f77c4f73315ccdc65c3535cb4", "is_disabled": 0, "bike_id": "708fb00f77c4f73315ccdc65c3535cb4", "lon": -77.04242416666666, "rental_uris": {"android": "https://dc.lft.to/lastmile_qr_scan", "ios": "https://dc.lft.to/lastmile_qr_scan"}, "fusion_lon": 0.0, "is_reserved": 0}, {"lat": 38.9176135, "fusion_lat": 0.0, "type": "electric_scooter", "name": "e9e2a1fd33f95ff901b3ac049434cb4b", "is_disabled": 0, "bike_id": "e9e2a1fd33f95ff901b3ac049434cb4b", "lon": -77.0248865, "rental_uris": {"android": "https://dc.lft.to/lastmile_qr_scan", "ios": "https://dc.lft.to/lastmile_qr_scan"}, "fusion_lon": 0.0, "is_reserved": 0}, {"lat": 38.884894833333334, "fusion_lat": 0.0, "type": "electric_scooter", "name": "3b27f922be39dd95172f2997d706b793", "is_disabled": 0, "bike_id": "3b27f922be39dd95172f2997d706b793", "lon": -77.007113, "rental_uris": {"android": "https://dc.lft.to/lastmile_qr_scan", "ios": "https://dc.lft.to/lastmile_qr_scan"}, "fusion_lon": 0.0, "is_reserved": 0}, {"lat": 38.86034766666667, "fusion_lat": 0.0, "type": "electric_scooter", "name": "0da5ee042695c244d2d2a735a68e80a2", "is_disabled": 0, "bike_id": "0da5ee042695c244d2d2a735a68e80a2", "lon": -76.967098, "rental_uris": {"android": "https://dc.lft.to/lastmile_qr_scan", "ios": "https://dc.lft.to/lastmile_qr_scan"}, "fusion_lon": 0.0, "is_reserved": 0}, {"lat": 38.906929833333336, "fusion_lat": 0.0, "type": "electric_scooter", "name": "4a2dd939a273068e10417bd4d6b3c3a1", "is_disabled": 0, "bike_id": "4a2dd939a273068e10417bd4d6b3c3a1", "lon": -77.02373966666667, "rental_uris": {"android": "https://dc.lft.to/lastmile_qr_scan", "ios": "https://dc.lft.to/lastmile_qr_scan"}, "fusion_lon": 0.0, "is_reserved": 0}, {"lat": 38.89900983333333, "fusion_lat": 0.0, "type": "electric_scooter", "name": "2e8e61b1a784f96a1ff5be5c8f212edf", "is_disabled": 0, "bike_id": "2e8e61b1a784f96a1ff5be5c8f212edf", "lon": -77.0466925, "rental_uris": {"android": "https://dc.lft.to/lastmile_qr_scan", "ios": "https://dc.lft.to/lastmile_qr_scan"}, "fusion_lon": 0.0, "is_reserved": 0}, {"lat": 38.932834666666665, "fusion_lat": 0.0, "type": "electric_scooter", "name": "0f2d3e9ce88a9e5124bf3e9967b6d9df", "is_disabled": 0, "bike_id": "0f2d3e9ce88a9e5124bf3e9967b6d9df", "lon": -77.04083333333334, "rental_uris": {"android": "https://dc.lft.to/lastmile_qr_scan", "ios": "https://dc.lft.to/lastmile_qr_scan"}, "fusion_lon": 0.0, "is_reserved": 0}, {"lat": 38.918391, "fusion_lat": 0.0, "type": "electric_scooter", "name": "0d61709a7ac31e1bd5d045279c1191a8", "is_disabled": 0, "bike_id": "0d61709a7ac31e1bd5d045279c1191a8", "lon": -77.03516016666667, "rental_uris": {"android": "https://dc.lft.to/lastmile_qr_scan", "ios": "https://dc.lft.to/lastmile_qr_scan"}, "fusion_lon": 0.0, "is_reserved": 0}, {"lat": 38.923610333333336, "fusion_lat": 0.0, "type": "electric_scooter", "name": "07e4398a42399db034cc76ce330cf108", "is_disabled": 0, "bike_id": "07e4398a42399db034cc76ce330cf108", "lon": -77.0504305, "rental_uris": {"android": "https://dc.lft.to/lastmile_qr_scan", "ios": "https://dc.lft.to/lastmile_qr_scan"}, "fusion_lon": 0.0, "is_reserved": 0}, {"lat": 38.9171745, "fusion_lat": 0.0, "type": "electric_scooter", "name": "480852d4fb668dbf2d227902fe8da08b", "is_disabled": 0, "bike_id": "480852d4fb668dbf2d227902fe8da08b", "lon": -77.03857483333333, "rental_uris": {"android": "https://dc.lft.to/lastmile_qr_scan", "ios": "https://dc.lft.to/lastmile_qr_scan"}, "fusion_lon": 0.0, "is_reserved": 0}, {"lat": 38.902011, "fusion_lat": 0.0, "type": "electric_scooter", "name": "a2f90f42375d41fdb6e5a694ed5c4eaf", "is_disabled": 0, "bike_id": "a2f90f42375d41fdb6e5a694ed5c4eaf", "lon": -77.0487495, "rental_uris": {"android": "https://dc.lft.to/lastmile_qr_scan", "ios": "https://dc.lft.to/lastmile_qr_scan"}, "fusion_lon": 0.0, "is_reserved": 0}, {"lat": 38.907793833333336, "fusion_lat": 0.0, "type": "electric_scooter", "name": "62ba79126b490acffe4cc77b85f34374", "is_disabled": 0, "bike_id": "62ba79126b490acffe4cc77b85f34374", "lon": -77.07164333333333, "rental_uris": {"android": "https://dc.lft.to/lastmile_qr_scan", "ios": "https://dc.lft.to/lastmile_qr_scan"}, "fusion_lon": 0.0, "is_reserved": 0}, {"lat": 38.98502166666667, "fusion_lat": 0.0, "type": "electric_bike", "name": "4065d4f1d891d2fc6e91211b8f7021a6", "is_disabled": 0, "bike_id": "4065d4f1d891d2fc6e91211b8f7021a6", "lon": -76.98192733333333, "rental_uris": {"android": "https://dc.lft.to/lastmile_qr_scan", "ios": "https://dc.lft.to/lastmile_qr_scan"}, "fusion_lon": 0.0, "is_reserved": 0}, {"lat": 38.951002833333334, "fusion_lat": 0.0, "type": "electric_scooter", "name": "efe37306fbce8842e0f005d106d0fa7a", "is_disabled": 0, "bike_id": "efe37306fbce8842e0f005d106d0fa7a", "lon": -77.0971315, "rental_uris": {"android": "https://dc.lft.to/lastmile_qr_scan", "ios": "https://dc.lft.to/lastmile_qr_scan"}, "fusion_lon": 0.0, "is_reserved": 0}, {"lat": 38.92477266666667, "fusion_lat": 0.0, "type": "electric_scooter", "name": "6ad348f1136c8b1bbc7c8f0cc0b4bbbe", "is_disabled": 0, "bike_id": "6ad348f1136c8b1bbc7c8f0cc0b4bbbe", "lon": -77.022158, "rental_uris": {"android": "https://dc.lft.to/lastmile_qr_scan", "ios": "https://dc.lft.to/lastmile_qr_scan"}, "fusion_lon": 0.0, "is_reserved": 0}, {"lat": 38.904224166666665, "fusion_lat": 0.0, "type": "electric_scooter", "name": "12706a0b71868ac3d8bd2f5503c6e69c", "is_disabled": 0, "bike_id": "12706a0b71868ac3d8bd2f5503c6e69c", "lon": -77.05002133333333, "rental_uris": {"android": "https://dc.lft.to/lastmile_qr_scan", "ios": "https://dc.lft.to/lastmile_qr_scan"}, "fusion_lon": 0.0, "is_reserved": 0}, {"lat": 38.90271966666667, "fusion_lat": 0.0, "type": "electric_scooter", "name": "eecd1b8643a2e829d587d3695eca4305", "is_disabled": 0, "bike_id": "eecd1b8643a2e829d587d3695eca4305", "lon": -77.02998033333333, "rental_uris": {"android": "https://dc.lft.to/lastmile_qr_scan", "ios": "https://dc.lft.to/lastmile_qr_scan"}, "fusion_lon": 0.0, "is_reserved": 0}, {"lat": 38.872859166666665, "fusion_lat": 0.0, "type": "electric_scooter", "name": "38c1000351c7373708264d9289795ada", "is_disabled": 0, "bike_id": "38c1000351c7373708264d9289795ada", "lon": -77.0098935, "rental_uris": {"android": "https://dc.lft.to/lastmile_qr_scan", "ios": "https://dc.lft.to/lastmile_qr_scan"}, "fusion_lon": 0.0, "is_reserved": 0}, {"lat": 38.92625, "fusion_lat": 0.0, "type": "electric_scooter", "name": "1677bda1803053bfb13bb5d06483eadc", "is_disabled": 0, "bike_id": "1677bda1803053bfb13bb5d06483eadc", "lon": -77.04328516666666, "rental_uris": {"android": "https://dc.lft.to/lastmile_qr_scan", "ios": "https://dc.lft.to/lastmile_qr_scan"}, "fusion_lon": 0.0, "is_reserved": 0}, {"lat": 38.914186, "fusion_lat": 0.0, "type": "electric_scooter", "name": "b16f28702af15cdf79509434f87027d4", "is_disabled": 0, "bike_id": "b16f28702af15cdf79509434f87027d4", "lon": -77.022141, "rental_uris": {"android": "https://dc.lft.to/lastmile_qr_scan", "ios": "https://dc.lft.to/lastmile_qr_scan"}, "fusion_lon": 0.0, "is_reserved": 0}, {"lat": 38.875818333333335, "fusion_lat": 0.0, "type": "electric_bike", "name": "310216d30e933fb6672fd0603620bebe", "is_disabled": 0, "bike_id": "310216d30e933fb6672fd0603620bebe", "lon": -77.2340805, "rental_uris": {"android": "https://dc.lft.to/lastmile_qr_scan", "ios": "https://dc.lft.to/lastmile_qr_scan"}, "fusion_lon": 0.0, "is_reserved": 0}, {"lat": 38.911176166666664, "fusion_lat": 0.0, "type": "electric_scooter", "name": "937060c50bc661d8f20805e008880f4a", "is_disabled": 0, "bike_id": "937060c50bc661d8f20805e008880f4a", "lon": -77.04373616666666, "rental_uris": {"android": "https://dc.lft.to/lastmile_qr_scan", "ios": "https://dc.lft.to/lastmile_qr_scan"}, "fusion_lon": 0.0, "is_reserved": 0}, {"lat": 38.910559, "fusion_lat": 0.0, "type": "electric_scooter", "name": "6167fbf1175cb5a27e9609ed88396fd3", "is_disabled": 0, "bike_id": "6167fbf1175cb5a27e9609ed88396fd3", "lon": -77.04348233333333, "rental_uris": {"android": "https://dc.lft.to/lastmile_qr_scan", "ios": "https://dc.lft.to/lastmile_qr_scan"}, "fusion_lon": 0.0, "is_reserved": 0}, {"lat": 38.91609316666667, "fusion_lat": 0.0, "type": "electric_scooter", "name": "076c930e56c34c342f103c31d399c562", "is_disabled": 0, "bike_id": "076c930e56c34c342f103c31d399c562", "lon": -77.03118883333333, "rental_uris": {"android": "https://dc.lft.to/lastmile_qr_scan", "ios": "https://dc.lft.to/lastmile_qr_scan"}, "fusion_lon": 0.0, "is_reserved": 0}, {"lat": 38.893662666666664, "fusion_lat": 0.0, "type": "electric_scooter", "name": "9b43d2daa2348017dc313ae62b06797b", "is_disabled": 0, "bike_id": "9b43d2daa2348017dc313ae62b06797b", "lon": -76.94702616666666, "rental_uris": {"android": "https://dc.lft.to/lastmile_qr_scan", "ios": "https://dc.lft.to/lastmile_qr_scan"}, "fusion_lon": 0.0, "is_reserved": 0}, {"lat": 38.860591666666664, "fusion_lat": 0.0, "type": "electric_scooter", "name": "9db63afe5268e89f6d1d02b53621c88a", "is_disabled": 0, "bike_id": "9db63afe5268e89f6d1d02b53621c88a", "lon": -76.98505366666667, "rental_uris": {"android": "https://dc.lft.to/lastmile_qr_scan", "ios": "https://dc.lft.to/lastmile_qr_scan"}, "fusion_lon": 0.0, "is_reserved": 0}, {"lat": 38.923405333333335, "fusion_lat": 0.0, "type": "electric_scooter", "name": "0cdb7e0550f6c650eb477fdf4eefb976", "is_disabled": 0, "bike_id": "0cdb7e0550f6c650eb477fdf4eefb976", "lon": -77.01911266666667, "rental_uris": {"android": "https://dc.lft.to/lastmile_qr_scan", "ios": "https://dc.lft.to/lastmile_qr_scan"}, "fusion_lon": 0.0, "is_reserved": 0}, {"lat": 38.897462166666664, "fusion_lat": 0.0, "type": "electric_scooter", "name": "daad16108fb73e775153c9d7942ad800", "is_disabled": 0, "bike_id": "daad16108fb73e775153c9d7942ad800", "lon": -77.0296855, "rental_uris": {"android": "https://dc.lft.to/lastmile_qr_scan", "ios": "https://dc.lft.to/lastmile_qr_scan"}, "fusion_lon": 0.0, "is_reserved": 0}, {"lat": 38.89806516666667, "fusion_lat": 0.0, "type": "electric_bike", "name": "858d13fe612ebaaed94ab35b18f6c67b", "is_disabled": 0, "bike_id": "858d13fe612ebaaed94ab35b18f6c67b", "lon": -77.04189516666666, "rental_uris": {"android": "https://dc.lft.to/lastmile_qr_scan", "ios": "https://dc.lft.to/lastmile_qr_scan"}, "fusion_lon": 0.0, "is_reserved": 0}, {"lat": 38.897988833333336, "fusion_lat": 0.0, "type": "electric_scooter", "name": "f254b6d8479510c78fce4e4dbb55470f", "is_disabled": 0, "bike_id": "f254b6d8479510c78fce4e4dbb55470f", "lon": -77.00677083333333, "rental_uris": {"android": "https://dc.lft.to/lastmile_qr_scan", "ios": "https://dc.lft.to/lastmile_qr_scan"}, "fusion_lon": 0.0, "is_reserved": 0}, {"lat": 38.956259833333334, "fusion_lat": 0.0, "type": "electric_bike", "name": "64eab460b2779f4361ec79ff93b5a1ea", "is_disabled": 0, "bike_id": "64eab460b2779f4361ec79ff93b5a1ea", "lon": -76.938714, "rental_uris": {"android": "https://dc.lft.to/lastmile_qr_scan", "ios": "https://dc.lft.to/lastmile_qr_scan"}, "fusion_lon": 0.0, "is_reserved": 0}, {"lat": 38.91412433333333, "fusion_lat": 0.0, "type": "electric_scooter", "name": "4fdb8e2435d6f69ae8837fbb6b1e0f50", "is_disabled": 0, "bike_id": "4fdb8e2435d6f69ae8837fbb6b1e0f50", "lon": -77.04495766666666, "rental_uris": {"android": "https://dc.lft.to/lastmile_qr_scan", "ios": "https://dc.lft.to/lastmile_qr_scan"}, "fusion_lon": 0.0, "is_reserved": 0}, {"lat": 38.91527466666667, "fusion_lat": 0.0, "type": "electric_scooter", "name": "500782ff223ea8ff8d54dabbb81a0db6", "is_disabled": 0, "bike_id": "500782ff223ea8ff8d54dabbb81a0db6", "lon": -77.02707866666667, "rental_uris": {"android": "https://dc.lft.to/lastmile_qr_scan", "ios": "https://dc.lft.to/lastmile_qr_scan"}, "fusion_lon": 0.0, "is_reserved": 0}, {"lat": 38.931575333333335, "fusion_lat": 0.0, "type": "electric_scooter", "name": "53fb1cf083e96f8b124aa56101db6ea5", "is_disabled": 0, "bike_id": "53fb1cf083e96f8b124aa56101db6ea5", "lon": -77.03608, "rental_uris": {"android": "https://dc.lft.to/lastmile_qr_scan", "ios": "https://dc.lft.to/lastmile_qr_scan"}, "fusion_lon": 0.0, "is_reserved": 0}, {"lat": 38.860067666666666, "fusion_lat": 0.0, "type": "electric_scooter", "name": "04e675bb50f0c4aaf75d2938fa224e14", "is_disabled": 0, "bike_id": "04e675bb50f0c4aaf75d2938fa224e14", "lon": -76.985172, "rental_uris": {"android": "https://dc.lft.to/lastmile_qr_scan", "ios": "https://dc.lft.to/lastmile_qr_scan"}, "fusion_lon": 0.0, "is_reserved": 0}, {"lat": 38.89290166666667, "fusion_lat": 0.0, "type": "electric_bike", "name": "7baa373034b234eb4ff64177c8f0f199", "is_disabled": 0, "bike_id": "7baa373034b234eb4ff64177c8f0f199", "lon": -76.97618283333334, "rental_uris": {"android": "https://dc.lft.to/lastmile_qr_scan", "ios": "https://dc.lft.to/lastmile_qr_scan"}, "fusion_lon": 0.0, "is_reserved": 0}, {"lat": 38.903236166666666, "fusion_lat": 0.0, "type": "electric_scooter", "name": "c1b2d58a570f9a0685ff3e9cb960d12e", "is_disabled": 0, "bike_id": "c1b2d58a570f9a0685ff3e9cb960d12e", "lon": -77.02413016666667, "rental_uris": {"android": "https://dc.lft.to/lastmile_qr_scan", "ios": "https://dc.lft.to/lastmile_qr_scan"}, "fusion_lon": 0.0, "is_reserved": 0}, {"lat": 38.88732533333334, "fusion_lat": 0.0, "type": "electric_scooter", "name": "e2e4935dfe40bd89e3940d471e068d46", "is_disabled": 0, "bike_id": "e2e4935dfe40bd89e3940d471e068d46", "lon": -77.02829766666666, "rental_uris": {"android": "https://dc.lft.to/lastmile_qr_scan", "ios": "https://dc.lft.to/lastmile_qr_scan"}, "fusion_lon": 0.0, "is_reserved": 0}, {"lat": 38.90255166666667, "fusion_lat": 0.0, "type": "electric_scooter", "name": "e86bed7d61370c2094603259c716e4ed", "is_disabled": 0, "bike_id": "e86bed7d61370c2094603259c716e4ed", "lon": -77.04212266666667, "rental_uris": {"android": "https://dc.lft.to/lastmile_qr_scan", "ios": "https://dc.lft.to/lastmile_qr_scan"}, "fusion_lon": 0.0, "is_reserved": 0}, {"lat": 38.921857333333335, "fusion_lat": 0.0, "type": "electric_scooter", "name": "7235b558e74c7c3b137b97964b758121", "is_disabled": 0, "bike_id": "7235b558e74c7c3b137b97964b758121", "lon": -77.03918216666666, "rental_uris": {"android": "https://dc.lft.to/lastmile_qr_scan", "ios": "https://dc.lft.to/lastmile_qr_scan"}, "fusion_lon": 0.0, "is_reserved": 0}, {"lat": 38.88422583333333, "fusion_lat": 0.0, "type": "electric_scooter", "name": "f26149662a01f4215cf48b9743a0120d", "is_disabled": 0, "bike_id": "f26149662a01f4215cf48b9743a0120d", "lon": -76.99695916666667, "rental_uris": {"android": "https://dc.lft.to/lastmile_qr_scan", "ios": "https://dc.lft.to/lastmile_qr_scan"}, "fusion_lon": 0.0, "is_reserved": 0}, {"lat": 38.92048033333333, "fusion_lat": 0.0, "type": "electric_scooter", "name": "792ad6e04154b480d36aeb2fde372094", "is_disabled": 0, "bike_id": "792ad6e04154b480d36aeb2fde372094", "lon": -77.016667, "rental_uris": {"android": "https://dc.lft.to/lastmile_qr_scan", "ios": "https://dc.lft.to/lastmile_qr_scan"}, "fusion_lon": 0.0, "is_reserved": 0}, {"lat": 38.92156033333333, "fusion_lat": 0.0, "type": "electric_scooter", "name": "fd66541030f6c4b97191e882c837bd54", "is_disabled": 0, "bike_id": "fd66541030f6c4b97191e882c837bd54", "lon": -77.02083566666667, "rental_uris": {"android": "https://dc.lft.to/lastmile_qr_scan", "ios": "https://dc.lft.to/lastmile_qr_scan"}, "fusion_lon": 0.0, "is_reserved": 0}, {"lat": 38.86691416666667, "fusion_lat": 0.0, "type": "electric_scooter", "name": "70dee1b391d004aafd1a79bf46801068", "is_disabled": 0, "bike_id": "70dee1b391d004aafd1a79bf46801068", "lon": -76.98543966666666, "rental_uris": {"android": "https://dc.lft.to/lastmile_qr_scan", "ios": "https://dc.lft.to/lastmile_qr_scan"}, "fusion_lon": 0.0, "is_reserved": 0}, {"lat": 38.941657, "fusion_lat": 0.0, "type": "electric_scooter", "name": "3fb8d61ca39d9ce30f06f4ebb95ad88b", "is_disabled": 0, "bike_id": "3fb8d61ca39d9ce30f06f4ebb95ad88b", "lon": -77.02553933333333, "rental_uris": {"android": "https://dc.lft.to/lastmile_qr_scan", "ios": "https://dc.lft.to/lastmile_qr_scan"}, "fusion_lon": 0.0, "is_reserved": 0}, {"lat": 38.917773, "fusion_lat": 0.0, "type": "electric_scooter", "name": "5c682bfa5cb36a8e5f01263f07eae511", "is_disabled": 0, "bike_id": "5c682bfa5cb36a8e5f01263f07eae511", "lon": -77.03219783333333, "rental_uris": {"android": "https://dc.lft.to/lastmile_qr_scan", "ios": "https://dc.lft.to/lastmile_qr_scan"}, "fusion_lon": 0.0, "is_reserved": 0}, {"lat": 38.91809466666667, "fusion_lat": 0.0, "type": "electric_scooter", "name": "10ecc8e2c003127e5ea2480aadd3fd58", "is_disabled": 0, "bike_id": "10ecc8e2c003127e5ea2480aadd3fd58", "lon": -77.03692383333333, "rental_uris": {"android": "https://dc.lft.to/lastmile_qr_scan", "ios": "https://dc.lft.to/lastmile_qr_scan"}, "fusion_lon": 0.0, "is_reserved": 0}, {"lat": 38.880782333333336, "fusion_lat": 0.0, "type": "electric_scooter", "name": "b4642c8e9ced7578c5a42c67ab0bdf22", "is_disabled": 0, "bike_id": "b4642c8e9ced7578c5a42c67ab0bdf22", "lon": -77.02570866666667, "rental_uris": {"android": "https://dc.lft.to/lastmile_qr_scan", "ios": "https://dc.lft.to/lastmile_qr_scan"}, "fusion_lon": 0.0, "is_reserved": 0}, {"lat": 38.846436, "fusion_lat": 0.0, "type": "electric_scooter", "name": "21cf4d516e65ca9d3cfeb36a5356e55a", "is_disabled": 0, "bike_id": "21cf4d516e65ca9d3cfeb36a5356e55a", "lon": -76.9912725, "rental_uris": {"android": "https://dc.lft.to/lastmile_qr_scan", "ios": "https://dc.lft.to/lastmile_qr_scan"}, "fusion_lon": 0.0, "is_reserved": 0}, {"lat": 38.90938766666667, "fusion_lat": 0.0, "type": "electric_scooter", "name": "cfd4a8f5dd63ff8fbb38c70cae79956c", "is_disabled": 0, "bike_id": "cfd4a8f5dd63ff8fbb38c70cae79956c", "lon": -77.0474825, "rental_uris": {"android": "https://dc.lft.to/lastmile_qr_scan", "ios": "https://dc.lft.to/lastmile_qr_scan"}, "fusion_lon": 0.0, "is_reserved": 0}, {"lat": 38.899351833333334, "fusion_lat": 0.0, "type": "electric_scooter", "name": "f001f50f3b9ecbe517c7313e86928997", "is_disabled": 0, "bike_id": "f001f50f3b9ecbe517c7313e86928997", "lon": -76.99736066666667, "rental_uris": {"android": "https://dc.lft.to/lastmile_qr_scan", "ios": "https://dc.lft.to/lastmile_qr_scan"}, "fusion_lon": 0.0, "is_reserved": 0}, {"lat": 38.85250216666667, "fusion_lat": 0.0, "type": "electric_bike", "name": "87577abad951d46d0cd47887e0d2ad3b", "is_disabled": 0, "bike_id": "87577abad951d46d0cd47887e0d2ad3b", "lon": -77.10780283333334, "rental_uris": {"android": "https://dc.lft.to/lastmile_qr_scan", "ios": "https://dc.lft.to/lastmile_qr_scan"}, "fusion_lon": 0.0, "is_reserved": 0}, {"lat": 38.898288666666666, "fusion_lat": 0.0, "type": "electric_scooter", "name": "86467a12ed9d359eaf11ba55936daeda", "is_disabled": 0, "bike_id": "86467a12ed9d359eaf11ba55936daeda", "lon": -76.94627816666667, "rental_uris": {"android": "https://dc.lft.to/lastmile_qr_scan", "ios": "https://dc.lft.to/lastmile_qr_scan"}, "fusion_lon": 0.0, "is_reserved": 0}, {"lat": 38.90425883333333, "fusion_lat": 0.0, "type": "electric_scooter", "name": "37f595b920633496898b8d43737dc37b", "is_disabled": 0, "bike_id": "37f595b920633496898b8d43737dc37b", "lon": -77.02636766666667, "rental_uris": {"android": "https://dc.lft.to/lastmile_qr_scan", "ios": "https://dc.lft.to/lastmile_qr_scan"}, "fusion_lon": 0.0, "is_reserved": 0}, {"lat": 38.90892916666667, "fusion_lat": 0.0, "type": "electric_scooter", "name": "202c4f2b48b9adf1b2f8e6f76ff92871", "is_disabled": 0, "bike_id": "202c4f2b48b9adf1b2f8e6f76ff92871", "lon": -76.997679, "rental_uris": {"android": "https://dc.lft.to/lastmile_qr_scan", "ios": "https://dc.lft.to/lastmile_qr_scan"}, "fusion_lon": 0.0, "is_reserved": 0}, {"lat": 38.8772185, "fusion_lat": 0.0, "type": "electric_scooter", "name": "201deed7b3b9e8518b84df6028425e95", "is_disabled": 0, "bike_id": "201deed7b3b9e8518b84df6028425e95", "lon": -77.01767933333333, "rental_uris": {"android": "https://dc.lft.to/lastmile_qr_scan", "ios": "https://dc.lft.to/lastmile_qr_scan"}, "fusion_lon": 0.0, "is_reserved": 0}, {"lat": 38.821749, "fusion_lat": 0.0, "type": "electric_bike", "name": "3195fcbf5ec084e1b81826059cc57675", "is_disabled": 0, "bike_id": "3195fcbf5ec084e1b81826059cc57675", "lon": -76.99503133333333, "rental_uris": {"android": "https://dc.lft.to/lastmile_qr_scan", "ios": "https://dc.lft.to/lastmile_qr_scan"}, "fusion_lon": 0.0, "is_reserved": 0}, {"lat": 38.9212595, "fusion_lat": 0.0, "type": "electric_scooter", "name": "d355f4b9f4f3d1333540e7ec9c7b7a6b", "is_disabled": 0, "bike_id": "d355f4b9f4f3d1333540e7ec9c7b7a6b", "lon": -77.043485, "rental_uris": {"android": "https://dc.lft.to/lastmile_qr_scan", "ios": "https://dc.lft.to/lastmile_qr_scan"}, "fusion_lon": 0.0, "is_reserved": 0}, {"lat": 38.915751666666665, "fusion_lat": 0.0, "type": "electric_scooter", "name": "192ec67f03a039072d4ef4b883e114cf", "is_disabled": 0, "bike_id": "192ec67f03a039072d4ef4b883e114cf", "lon": -77.01997066666667, "rental_uris": {"android": "https://dc.lft.to/lastmile_qr_scan", "ios": "https://dc.lft.to/lastmile_qr_scan"}, "fusion_lon": 0.0, "is_reserved": 0}, {"lat": 38.942918, "fusion_lat": 0.0, "type": "electric_scooter", "name": "6ed4902ddaf4a2b238cce9740980d1f0", "is_disabled": 0, "bike_id": "6ed4902ddaf4a2b238cce9740980d1f0", "lon": -77.0217015, "rental_uris": {"android": "https://dc.lft.to/lastmile_qr_scan", "ios": "https://dc.lft.to/lastmile_qr_scan"}, "fusion_lon": 0.0, "is_reserved": 0}, {"lat": 38.89917166666667, "fusion_lat": 0.0, "type": "electric_bike", "name": "d2c73bd17769edaad0f21659196c9b37", "is_disabled": 0, "bike_id": "d2c73bd17769edaad0f21659196c9b37", "lon": -77.0447655, "rental_uris": {"android": "https://dc.lft.to/lastmile_qr_scan", "ios": "https://dc.lft.to/lastmile_qr_scan"}, "fusion_lon": 0.0, "is_reserved": 0}, {"lat": 38.91961883333333, "fusion_lat": 0.0, "type": "electric_scooter", "name": "991eb489985ad18e9d8e931f03c59d0e", "is_disabled": 0, "bike_id": "991eb489985ad18e9d8e931f03c59d0e", "lon": -77.02338033333334, "rental_uris": {"android": "https://dc.lft.to/lastmile_qr_scan", "ios": "https://dc.lft.to/lastmile_qr_scan"}, "fusion_lon": 0.0, "is_reserved": 0}, {"lat": 38.923598166666665, "fusion_lat": 0.0, "type": "electric_scooter", "name": "5dc1f3cea887cc04f2ee88f2029db6b8", "is_disabled": 0, "bike_id": "5dc1f3cea887cc04f2ee88f2029db6b8", "lon": -77.052243, "rental_uris": {"android": "https://dc.lft.to/lastmile_qr_scan", "ios": "https://dc.lft.to/lastmile_qr_scan"}, "fusion_lon": 0.0, "is_reserved": 0}, {"lat": 38.899487666666666, "fusion_lat": 0.0, "type": "electric_scooter", "name": "3151f0208349b5be8dcfb57f86083e24", "is_disabled": 0, "bike_id": "3151f0208349b5be8dcfb57f86083e24", "lon": -77.04495216666666, "rental_uris": {"android": "https://dc.lft.to/lastmile_qr_scan", "ios": "https://dc.lft.to/lastmile_qr_scan"}, "fusion_lon": 0.0, "is_reserved": 0}, {"lat": 38.94895616666667, "fusion_lat": 0.0, "type": "electric_bike", "name": "c171ff53757559c909b1bf5a2c5d7824", "is_disabled": 0, "bike_id": "c171ff53757559c909b1bf5a2c5d7824", "lon": -76.96377150000001, "rental_uris": {"android": "https://dc.lft.to/lastmile_qr_scan", "ios": "https://dc.lft.to/lastmile_qr_scan"}, "fusion_lon": 0.0, "is_reserved": 0}, {"lat": 38.900128333333335, "fusion_lat": 0.0, "type": "electric_scooter", "name": "bdb9de07d7bb8dcc416314e29c624c99", "is_disabled": 0, "bike_id": "bdb9de07d7bb8dcc416314e29c624c99", "lon": -77.032671, "rental_uris": {"android": "https://dc.lft.to/lastmile_qr_scan", "ios": "https://dc.lft.to/lastmile_qr_scan"}, "fusion_lon": 0.0, "is_reserved": 0}, {"lat": 38.948967333333336, "fusion_lat": 0.0, "type": "electric_bike", "name": "e12070411312fbad0689fc1d176c3891", "is_disabled": 0, "bike_id": "e12070411312fbad0689fc1d176c3891", "lon": -76.96370683333333, "rental_uris": {"android": "https://dc.lft.to/lastmile_qr_scan", "ios": "https://dc.lft.to/lastmile_qr_scan"}, "fusion_lon": 0.0, "is_reserved": 0}, {"lat": 38.89229533333334, "fusion_lat": 0.0, "type": "electric_scooter", "name": "7298e7a8717993bc3db99db70eb950df", "is_disabled": 0, "bike_id": "7298e7a8717993bc3db99db70eb950df", "lon": -77.04194116666666, "rental_uris": {"android": "https://dc.lft.to/lastmile_qr_scan", "ios": "https://dc.lft.to/lastmile_qr_scan"}, "fusion_lon": 0.0, "is_reserved": 0}, {"lat": 38.90228966666667, "fusion_lat": 0.0, "type": "electric_scooter", "name": "32949fde5ab2853cdfd1cec169d59a3f", "is_disabled": 0, "bike_id": "32949fde5ab2853cdfd1cec169d59a3f", "lon": -77.03133466666667, "rental_uris": {"android": "https://dc.lft.to/lastmile_qr_scan", "ios": "https://dc.lft.to/lastmile_qr_scan"}, "fusion_lon": 0.0, "is_reserved": 0}, {"lat": 38.917195, "fusion_lat": 0.0, "type": "electric_scooter", "name": "966874f6785d46a8ed147dfe1eabc939", "is_disabled": 0, "bike_id": "966874f6785d46a8ed147dfe1eabc939", "lon": -77.03852933333333, "rental_uris": {"android": "https://dc.lft.to/lastmile_qr_scan", "ios": "https://dc.lft.to/lastmile_qr_scan"}, "fusion_lon": 0.0, "is_reserved": 0}, {"lat": 38.9268355, "fusion_lat": 0.0, "type": "electric_scooter", "name": "e9e122358df3b20a1c72c3972306fc8a", "is_disabled": 0, "bike_id": "e9e122358df3b20a1c72c3972306fc8a", "lon": -77.007022, "rental_uris": {"android": "https://dc.lft.to/lastmile_qr_scan", "ios": "https://dc.lft.to/lastmile_qr_scan"}, "fusion_lon": 0.0, "is_reserved": 0}, {"lat": 38.99679066666667, "fusion_lat": 0.0, "type": "electric_bike", "name": "0dd97bc8772a04661271bc8b11e704a6", "is_disabled": 0, "bike_id": "0dd97bc8772a04661271bc8b11e704a6", "lon": -77.03795083333333, "rental_uris": {"android": "https://dc.lft.to/lastmile_qr_scan", "ios": "https://dc.lft.to/lastmile_qr_scan"}, "fusion_lon": 0.0, "is_reserved": 0}, {"lat": 38.924736833333334, "fusion_lat": 0.0, "type": "electric_scooter", "name": "31ca20cea9b943c0103a3ea47f22fada", "is_disabled": 0, "bike_id": "31ca20cea9b943c0103a3ea47f22fada", "lon": -77.02890566666666, "rental_uris": {"android": "https://dc.lft.to/lastmile_qr_scan", "ios": "https://dc.lft.to/lastmile_qr_scan"}, "fusion_lon": 0.0, "is_reserved": 0}, {"lat": 38.901255666666664, "fusion_lat": 0.0, "type": "electric_scooter", "name": "0abf34a39d9789d55d04050cdbf5a1b2", "is_disabled": 0, "bike_id": "0abf34a39d9789d55d04050cdbf5a1b2", "lon": -77.0416045, "rental_uris": {"android": "https://dc.lft.to/lastmile_qr_scan", "ios": "https://dc.lft.to/lastmile_qr_scan"}, "fusion_lon": 0.0, "is_reserved": 0}, {"lat": 38.930539, "fusion_lat": 0.0, "type": "electric_scooter", "name": "0314a7d012c9eb7dafe26da200650306", "is_disabled": 0, "bike_id": "0314a7d012c9eb7dafe26da200650306", "lon": -77.02350933333334, "rental_uris": {"android": "https://dc.lft.to/lastmile_qr_scan", "ios": "https://dc.lft.to/lastmile_qr_scan"}, "fusion_lon": 0.0, "is_reserved": 0}, {"lat": 38.923039833333334, "fusion_lat": 0.0, "type": "electric_scooter", "name": "da1a2ecf67b12f932602f73dc267853c", "is_disabled": 0, "bike_id": "da1a2ecf67b12f932602f73dc267853c", "lon": -77.0420165, "rental_uris": {"android": "https://dc.lft.to/lastmile_qr_scan", "ios": "https://dc.lft.to/lastmile_qr_scan"}, "fusion_lon": 0.0, "is_reserved": 0}, {"lat": 38.896544166666665, "fusion_lat": 0.0, "type": "electric_scooter", "name": "b9ab8d1dc0f493f89a49976a35962e1a", "is_disabled": 0, "bike_id": "b9ab8d1dc0f493f89a49976a35962e1a", "lon": -77.0502275, "rental_uris": {"android": "https://dc.lft.to/lastmile_qr_scan", "ios": "https://dc.lft.to/lastmile_qr_scan"}, "fusion_lon": 0.0, "is_reserved": 0}, {"lat": 38.90876633333333, "fusion_lat": 0.0, "type": "electric_scooter", "name": "fd6c477bf5a600b3cda8f9c49a339f3c", "is_disabled": 0, "bike_id": "fd6c477bf5a600b3cda8f9c49a339f3c", "lon": -77.04494516666666, "rental_uris": {"android": "https://dc.lft.to/lastmile_qr_scan", "ios": "https://dc.lft.to/lastmile_qr_scan"}, "fusion_lon": 0.0, "is_reserved": 0}, {"lat": 38.918456, "fusion_lat": 0.0, "type": "electric_scooter", "name": "0d5844073d7526f9f4d3e99407a05bd5", "is_disabled": 0, "bike_id": "0d5844073d7526f9f4d3e99407a05bd5", "lon": -77.04824066666667, "rental_uris": {"android": "https://dc.lft.to/lastmile_qr_scan", "ios": "https://dc.lft.to/lastmile_qr_scan"}, "fusion_lon": 0.0, "is_reserved": 0}, {"lat": 38.8899875, "fusion_lat": 0.0, "type": "electric_scooter", "name": "85362c1f7820548225347d5475d29fcf", "is_disabled": 0, "bike_id": "85362c1f7820548225347d5475d29fcf", "lon": -76.95417716666667, "rental_uris": {"android": "https://dc.lft.to/lastmile_qr_scan", "ios": "https://dc.lft.to/lastmile_qr_scan"}, "fusion_lon": 0.0, "is_reserved": 0}, {"lat": 38.857702333333336, "fusion_lat": 0.0, "type": "electric_bike", "name": "464e3a50eb1433d9d971ef1867066910", "is_disabled": 0, "bike_id": "464e3a50eb1433d9d971ef1867066910", "lon": -76.98760016666667, "rental_uris": {"android": "https://dc.lft.to/lastmile_qr_scan", "ios": "https://dc.lft.to/lastmile_qr_scan"}, "fusion_lon": 0.0, "is_reserved": 0}, {"lat": 38.8956245, "fusion_lat": 0.0, "type": "electric_scooter", "name": "b4483da7f60d2bcdba4a8fc4fb7fe50e", "is_disabled": 0, "bike_id": "b4483da7f60d2bcdba4a8fc4fb7fe50e", "lon": -77.04673416666667, "rental_uris": {"android": "https://dc.lft.to/lastmile_qr_scan", "ios": "https://dc.lft.to/lastmile_qr_scan"}, "fusion_lon": 0.0, "is_reserved": 0}, {"lat": 38.931053, "fusion_lat": 0.0, "type": "electric_scooter", "name": "8ac4213918a03f25c20c937fd98a175b", "is_disabled": 0, "bike_id": "8ac4213918a03f25c20c937fd98a175b", "lon": -77.02486083333334, "rental_uris": {"android": "https://dc.lft.to/lastmile_qr_scan", "ios": "https://dc.lft.to/lastmile_qr_scan"}, "fusion_lon": 0.0, "is_reserved": 0}, {"lat": 38.904764166666666, "fusion_lat": 0.0, "type": "electric_scooter", "name": "238e6c69434fffe67240e5f8500dfc9f", "is_disabled": 0, "bike_id": "238e6c69434fffe67240e5f8500dfc9f", "lon": -77.04345316666667, "rental_uris": {"android": "https://dc.lft.to/lastmile_qr_scan", "ios": "https://dc.lft.to/lastmile_qr_scan"}, "fusion_lon": 0.0, "is_reserved": 0}, {"lat": 38.913283, "fusion_lat": 0.0, "type": "electric_scooter", "name": "3c6725e02e0a3b3a1f7f1258321dc124", "is_disabled": 0, "bike_id": "3c6725e02e0a3b3a1f7f1258321dc124", "lon": -77.03184133333333, "rental_uris": {"android": "https://dc.lft.to/lastmile_qr_scan", "ios": "https://dc.lft.to/lastmile_qr_scan"}, "fusion_lon": 0.0, "is_reserved": 0}, {"lat": 38.92085683333333, "fusion_lat": 0.0, "type": "electric_scooter", "name": "6075e1bad9da1a0904bf3de7063d25f5", "is_disabled": 0, "bike_id": "6075e1bad9da1a0904bf3de7063d25f5", "lon": -77.02442083333334, "rental_uris": {"android": "https://dc.lft.to/lastmile_qr_scan", "ios": "https://dc.lft.to/lastmile_qr_scan"}, "fusion_lon": 0.0, "is_reserved": 0}, {"lat": 38.94230916666667, "fusion_lat": 0.0, "type": "electric_scooter", "name": "a9baad0942ffa785060869d4c1baf9d7", "is_disabled": 0, "bike_id": "a9baad0942ffa785060869d4c1baf9d7", "lon": -77.01390433333333, "rental_uris": {"android": "https://dc.lft.to/lastmile_qr_scan", "ios": "https://dc.lft.to/lastmile_qr_scan"}, "fusion_lon": 0.0, "is_reserved": 0}, {"lat": 38.924551, "fusion_lat": 0.0, "type": "electric_scooter", "name": "db8002e44977af6473a9d1b078b50757", "is_disabled": 0, "bike_id": "db8002e44977af6473a9d1b078b50757", "lon": -77.0329885, "rental_uris": {"android": "https://dc.lft.to/lastmile_qr_scan", "ios": "https://dc.lft.to/lastmile_qr_scan"}, "fusion_lon": 0.0, "is_reserved": 0}, {"lat": 38.90727716666667, "fusion_lat": 0.0, "type": "electric_scooter", "name": "21117824969768415fb78765e099635f", "is_disabled": 0, "bike_id": "21117824969768415fb78765e099635f", "lon": -77.04261783333334, "rental_uris": {"android": "https://dc.lft.to/lastmile_qr_scan", "ios": "https://dc.lft.to/lastmile_qr_scan"}, "fusion_lon": 0.0, "is_reserved": 0}, {"lat": 38.927453666666665, "fusion_lat": 0.0, "type": "electric_scooter", "name": "1d1a6306930dc55179dc1d57be6839f7", "is_disabled": 0, "bike_id": "1d1a6306930dc55179dc1d57be6839f7", "lon": -77.034247, "rental_uris": {"android": "https://dc.lft.to/lastmile_qr_scan", "ios": "https://dc.lft.to/lastmile_qr_scan"}, "fusion_lon": 0.0, "is_reserved": 0}, {"lat": 38.9078845, "fusion_lat": 0.0, "type": "electric_scooter", "name": "9cc35dfaa2a453df50b6f962896c2c5f", "is_disabled": 0, "bike_id": "9cc35dfaa2a453df50b6f962896c2c5f", "lon": -77.029604, "rental_uris": {"android": "https://dc.lft.to/lastmile_qr_scan", "ios": "https://dc.lft.to/lastmile_qr_scan"}, "fusion_lon": 0.0, "is_reserved": 0}, {"lat": 38.8869595, "fusion_lat": 0.0, "type": "electric_scooter", "name": "b1382630918d24ab0bec8c12dcc9c330", "is_disabled": 0, "bike_id": "b1382630918d24ab0bec8c12dcc9c330", "lon": -77.033574, "rental_uris": {"android": "https://dc.lft.to/lastmile_qr_scan", "ios": "https://dc.lft.to/lastmile_qr_scan"}, "fusion_lon": 0.0, "is_reserved": 0}, {"lat": 38.89227566666667, "fusion_lat": 0.0, "type": "electric_scooter", "name": "b86771e308deb2e2914b487486170ba0", "is_disabled": 0, "bike_id": "b86771e308deb2e2914b487486170ba0", "lon": -77.02207066666666, "rental_uris": {"android": "https://dc.lft.to/lastmile_qr_scan", "ios": "https://dc.lft.to/lastmile_qr_scan"}, "fusion_lon": 0.0, "is_reserved": 0}, {"lat": 38.9017235, "fusion_lat": 0.0, "type": "electric_scooter", "name": "bd1a6b226f9ea423065ce41801f467d9", "is_disabled": 0, "bike_id": "bd1a6b226f9ea423065ce41801f467d9", "lon": -77.04743883333333, "rental_uris": {"android": "https://dc.lft.to/lastmile_qr_scan", "ios": "https://dc.lft.to/lastmile_qr_scan"}, "fusion_lon": 0.0, "is_reserved": 0}, {"lat": 38.91706166666667, "fusion_lat": 0.0, "type": "electric_scooter", "name": "55ff3ee5ea2092a45b9964fce25f47f7", "is_disabled": 0, "bike_id": "55ff3ee5ea2092a45b9964fce25f47f7", "lon": -77.03474116666666, "rental_uris": {"android": "https://dc.lft.to/lastmile_qr_scan", "ios": "https://dc.lft.to/lastmile_qr_scan"}, "fusion_lon": 0.0, "is_reserved": 0}, {"lat": 38.8966855, "fusion_lat": 0.0, "type": "electric_scooter", "name": "76a7542fbd161c873bdc7114b40ce661", "is_disabled": 0, "bike_id": "76a7542fbd161c873bdc7114b40ce661", "lon": -76.9320845, "rental_uris": {"android": "https://dc.lft.to/lastmile_qr_scan", "ios": "https://dc.lft.to/lastmile_qr_scan"}, "fusion_lon": 0.0, "is_reserved": 0}, {"lat": 38.938635833333336, "fusion_lat": 0.0, "type": "electric_scooter", "name": "e7ac84f2681200ed141ae57dfd17c0be", "is_disabled": 0, "bike_id": "e7ac84f2681200ed141ae57dfd17c0be", "lon": -77.02449383333334, "rental_uris": {"android": "https://dc.lft.to/lastmile_qr_scan", "ios": "https://dc.lft.to/lastmile_qr_scan"}, "fusion_lon": 0.0, "is_reserved": 0}, {"lat": 38.91809283333333, "fusion_lat": 0.0, "type": "electric_scooter", "name": "39db0530e28f919816cdcc2886124261", "is_disabled": 0, "bike_id": "39db0530e28f919816cdcc2886124261", "lon": -77.02507433333334, "rental_uris": {"android": "https://dc.lft.to/lastmile_qr_scan", "ios": "https://dc.lft.to/lastmile_qr_scan"}, "fusion_lon": 0.0, "is_reserved": 0}, {"lat": 38.9072785, "fusion_lat": 0.0, "type": "electric_scooter", "name": "1cc6f8a251320af067ee1bbb6aabbc06", "is_disabled": 0, "bike_id": "1cc6f8a251320af067ee1bbb6aabbc06", "lon": -77.02319516666667, "rental_uris": {"android": "https://dc.lft.to/lastmile_qr_scan", "ios": "https://dc.lft.to/lastmile_qr_scan"}, "fusion_lon": 0.0, "is_reserved": 0}, {"lat": 38.9006245, "fusion_lat": 0.0, "type": "electric_scooter", "name": "04997ed17e96c3af10f6d520a410d632", "is_disabled": 0, "bike_id": "04997ed17e96c3af10f6d520a410d632", "lon": -76.99618616666666, "rental_uris": {"android": "https://dc.lft.to/lastmile_qr_scan", "ios": "https://dc.lft.to/lastmile_qr_scan"}, "fusion_lon": 0.0, "is_reserved": 0}, {"lat": 38.921928, "fusion_lat": 0.0, "type": "electric_scooter", "name": "a2ebf10879caf3b731c04a56cedacb2b", "is_disabled": 0, "bike_id": "a2ebf10879caf3b731c04a56cedacb2b", "lon": -77.04020783333333, "rental_uris": {"android": "https://dc.lft.to/lastmile_qr_scan", "ios": "https://dc.lft.to/lastmile_qr_scan"}, "fusion_lon": 0.0, "is_reserved": 0}, {"lat": 38.874735666666666, "fusion_lat": 0.0, "type": "electric_scooter", "name": "ccbff0b9928b3c5c8de6e18eada63ec2", "is_disabled": 0, "bike_id": "ccbff0b9928b3c5c8de6e18eada63ec2", "lon": -77.00515533333333, "rental_uris": {"android": "https://dc.lft.to/lastmile_qr_scan", "ios": "https://dc.lft.to/lastmile_qr_scan"}, "fusion_lon": 0.0, "is_reserved": 0}, {"lat": 38.9032645, "fusion_lat": 0.0, "type": "electric_scooter", "name": "beb291b63d58a2c9bfb1b1c475db31b5", "is_disabled": 0, "bike_id": "beb291b63d58a2c9bfb1b1c475db31b5", "lon": -77.03432933333333, "rental_uris": {"android": "https://dc.lft.to/lastmile_qr_scan", "ios": "https://dc.lft.to/lastmile_qr_scan"}, "fusion_lon": 0.0, "is_reserved": 0}, {"lat": 38.89345, "fusion_lat": 0.0, "type": "electric_scooter", "name": "bddbb98777fbdcc51ae4456d5d76fb60", "is_disabled": 0, "bike_id": "bddbb98777fbdcc51ae4456d5d76fb60", "lon": -76.93969416666667, "rental_uris": {"android": "https://dc.lft.to/lastmile_qr_scan", "ios": "https://dc.lft.to/lastmile_qr_scan"}, "fusion_lon": 0.0, "is_reserved": 0}, {"lat": 38.957548833333334, "fusion_lat": 0.0, "type": "electric_scooter", "name": "96031de05048bb54b6472ed7926b21d1", "is_disabled": 0, "bike_id": "96031de05048bb54b6472ed7926b21d1", "lon": -77.02207466666667, "rental_uris": {"android": "https://dc.lft.to/lastmile_qr_scan", "ios": "https://dc.lft.to/lastmile_qr_scan"}, "fusion_lon": 0.0, "is_reserved": 0}, {"lat": 38.88455533333333, "fusion_lat": 0.0, "type": "electric_scooter", "name": "dbfb60a16102db039ce3f9a4a93990f7", "is_disabled": 0, "bike_id": "dbfb60a16102db039ce3f9a4a93990f7", "lon": -77.023911, "rental_uris": {"android": "https://dc.lft.to/lastmile_qr_scan", "ios": "https://dc.lft.to/lastmile_qr_scan"}, "fusion_lon": 0.0, "is_reserved": 0}, {"lat": 38.871709833333334, "fusion_lat": 0.0, "type": "electric_scooter", "name": "98388af86fef7cf7702f860e09594d49", "is_disabled": 0, "bike_id": "98388af86fef7cf7702f860e09594d49", "lon": -77.00679983333333, "rental_uris": {"android": "https://dc.lft.to/lastmile_qr_scan", "ios": "https://dc.lft.to/lastmile_qr_scan"}, "fusion_lon": 0.0, "is_reserved": 0}, {"lat": 38.89730183333333, "fusion_lat": 0.0, "type": "electric_scooter", "name": "33ed87e4a823014ab34e269ed7163a90", "is_disabled": 0, "bike_id": "33ed87e4a823014ab34e269ed7163a90", "lon": -77.02164616666667, "rental_uris": {"android": "https://dc.lft.to/lastmile_qr_scan", "ios": "https://dc.lft.to/lastmile_qr_scan"}, "fusion_lon": 0.0, "is_reserved": 0}, {"lat": 38.91498633333333, "fusion_lat": 0.0, "type": "electric_scooter", "name": "909718c3141737f539e1c5ab336809a2", "is_disabled": 0, "bike_id": "909718c3141737f539e1c5ab336809a2", "lon": -76.98360883333334, "rental_uris": {"android": "https://dc.lft.to/lastmile_qr_scan", "ios": "https://dc.lft.to/lastmile_qr_scan"}, "fusion_lon": 0.0, "is_reserved": 0}, {"lat": 38.897290166666664, "fusion_lat": 0.0, "type": "electric_bike", "name": "5f4a8d408ee1a593039f4f42234deb6f", "is_disabled": 0, "bike_id": "5f4a8d408ee1a593039f4f42234deb6f", "lon": -77.02092566666667, "rental_uris": {"android": "https://dc.lft.to/lastmile_qr_scan", "ios": "https://dc.lft.to/lastmile_qr_scan"}, "fusion_lon": 0.0, "is_reserved": 0}, {"lat": 38.907953166666665, "fusion_lat": 0.0, "type": "electric_scooter", "name": "d686275d8dee36d459dadf2accdaa671", "is_disabled": 0, "bike_id": "d686275d8dee36d459dadf2accdaa671", "lon": -77.04284083333333, "rental_uris": {"android": "https://dc.lft.to/lastmile_qr_scan", "ios": "https://dc.lft.to/lastmile_qr_scan"}, "fusion_lon": 0.0, "is_reserved": 0}, {"lat": 38.913243333333334, "fusion_lat": 0.0, "type": "electric_scooter", "name": "061197ee69bcb1df45f09ecd524ded3a", "is_disabled": 0, "bike_id": "061197ee69bcb1df45f09ecd524ded3a", "lon": -77.0150455, "rental_uris": {"android": "https://dc.lft.to/lastmile_qr_scan", "ios": "https://dc.lft.to/lastmile_qr_scan"}, "fusion_lon": 0.0, "is_reserved": 0}, {"lat": 38.89225833333333, "fusion_lat": 0.0, "type": "electric_scooter", "name": "f901c45c0741e42852a00164728381a3", "is_disabled": 0, "bike_id": "f901c45c0741e42852a00164728381a3", "lon": -77.02407616666666, "rental_uris": {"android": "https://dc.lft.to/lastmile_qr_scan", "ios": "https://dc.lft.to/lastmile_qr_scan"}, "fusion_lon": 0.0, "is_reserved": 0}, {"lat": 38.90478066666667, "fusion_lat": 0.0, "type": "electric_scooter", "name": "bb711ac28179ea737e9770876afc3611", "is_disabled": 0, "bike_id": "bb711ac28179ea737e9770876afc3611", "lon": -77.038242, "rental_uris": {"android": "https://dc.lft.to/lastmile_qr_scan", "ios": "https://dc.lft.to/lastmile_qr_scan"}, "fusion_lon": 0.0, "is_reserved": 0}, {"lat": 38.922688, "fusion_lat": 0.0, "type": "electric_scooter", "name": "b41472dcc32bbdb043f38499cc1d9213", "is_disabled": 0, "bike_id": "b41472dcc32bbdb043f38499cc1d9213", "lon": -77.03404016666667, "rental_uris": {"android": "https://dc.lft.to/lastmile_qr_scan", "ios": "https://dc.lft.to/lastmile_qr_scan"}, "fusion_lon": 0.0, "is_reserved": 0}, {"lat": 39.0000345, "fusion_lat": 0.0, "type": "electric_bike", "name": "ab33f28a14e29608f6c9e0b5592ca91d", "is_disabled": 0, "bike_id": "ab33f28a14e29608f6c9e0b5592ca91d", "lon": -76.91802583333333, "rental_uris": {"android": "https://dc.lft.to/lastmile_qr_scan", "ios": "https://dc.lft.to/lastmile_qr_scan"}, "fusion_lon": 0.0, "is_reserved": 0}, {"lat": 38.8922345, "fusion_lat": 0.0, "type": "electric_scooter", "name": "71ea9f7d00d5e811d7ec42bd7b3224c2", "is_disabled": 0, "bike_id": "71ea9f7d00d5e811d7ec42bd7b3224c2", "lon": -77.02622983333333, "rental_uris": {"android": "https://dc.lft.to/lastmile_qr_scan", "ios": "https://dc.lft.to/lastmile_qr_scan"}, "fusion_lon": 0.0, "is_reserved": 0}, {"lat": 38.920863833333335, "fusion_lat": 0.0, "type": "electric_scooter", "name": "613fd37b8323f8391c343c53879178db", "is_disabled": 0, "bike_id": "613fd37b8323f8391c343c53879178db", "lon": -77.022947, "rental_uris": {"android": "https://dc.lft.to/lastmile_qr_scan", "ios": "https://dc.lft.to/lastmile_qr_scan"}, "fusion_lon": 0.0, "is_reserved": 0}, {"lat": 38.86563616666667, "fusion_lat": 0.0, "type": "electric_scooter", "name": "1eb3670e8ad65573e45c5f5f82505c22", "is_disabled": 0, "bike_id": "1eb3670e8ad65573e45c5f5f82505c22", "lon": -76.98332833333333, "rental_uris": {"android": "https://dc.lft.to/lastmile_qr_scan", "ios": "https://dc.lft.to/lastmile_qr_scan"}, "fusion_lon": 0.0, "is_reserved": 0}, {"lat": 38.903172833333336, "fusion_lat": 0.0, "type": "electric_scooter", "name": "08239d64c149e40db3e36927a71105a6", "is_disabled": 0, "bike_id": "08239d64c149e40db3e36927a71105a6", "lon": -77.03424116666666, "rental_uris": {"android": "https://dc.lft.to/lastmile_qr_scan", "ios": "https://dc.lft.to/lastmile_qr_scan"}, "fusion_lon": 0.0, "is_reserved": 0}, {"lat": 38.9047675, "fusion_lat": 0.0, "type": "electric_bike", "name": "c0630ef4931ac326026edd5a657b34ed", "is_disabled": 0, "bike_id": "c0630ef4931ac326026edd5a657b34ed", "lon": -77.05489133333333, "rental_uris": {"android": "https://dc.lft.to/lastmile_qr_scan", "ios": "https://dc.lft.to/lastmile_qr_scan"}, "fusion_lon": 0.0, "is_reserved": 0}, {"lat": 38.91474483333333, "fusion_lat": 0.0, "type": "electric_scooter", "name": "3d30711254f0868173a7b7baf65aa20a", "is_disabled": 0, "bike_id": "3d30711254f0868173a7b7baf65aa20a", "lon": -77.0143245, "rental_uris": {"android": "https://dc.lft.to/lastmile_qr_scan", "ios": "https://dc.lft.to/lastmile_qr_scan"}, "fusion_lon": 0.0, "is_reserved": 0}, {"lat": 38.892222, "fusion_lat": 0.0, "type": "electric_scooter", "name": "b9e89faef2d8fba517bd7308b91d7491", "is_disabled": 0, "bike_id": "b9e89faef2d8fba517bd7308b91d7491", "lon": -77.04514783333333, "rental_uris": {"android": "https://dc.lft.to/lastmile_qr_scan", "ios": "https://dc.lft.to/lastmile_qr_scan"}, "fusion_lon": 0.0, "is_reserved": 0}, {"lat": 38.89226166666667, "fusion_lat": 0.0, "type": "electric_scooter", "name": "0aa4cf44a96b449f77e90aded7e0ad62", "is_disabled": 0, "bike_id": "0aa4cf44a96b449f77e90aded7e0ad62", "lon": -77.04693983333334, "rental_uris": {"android": "https://dc.lft.to/lastmile_qr_scan", "ios": "https://dc.lft.to/lastmile_qr_scan"}, "fusion_lon": 0.0, "is_reserved": 0}, {"lat": 38.911112333333335, "fusion_lat": 0.0, "type": "electric_scooter", "name": "5af7757a8676cd1ce97eb57a803d39aa", "is_disabled": 0, "bike_id": "5af7757a8676cd1ce97eb57a803d39aa", "lon": -77.03831266666667, "rental_uris": {"android": "https://dc.lft.to/lastmile_qr_scan", "ios": "https://dc.lft.to/lastmile_qr_scan"}, "fusion_lon": 0.0, "is_reserved": 0}, {"lat": 38.9229735, "fusion_lat": 0.0, "type": "electric_scooter", "name": "5adf9c4a643d84161beb260d0524b321", "is_disabled": 0, "bike_id": "5adf9c4a643d84161beb260d0524b321", "lon": -77.02523633333334, "rental_uris": {"android": "https://dc.lft.to/lastmile_qr_scan", "ios": "https://dc.lft.to/lastmile_qr_scan"}, "fusion_lon": 0.0, "is_reserved": 0}, {"lat": 38.9003605, "fusion_lat": 0.0, "type": "electric_scooter", "name": "172e1d97c90d787f1303b8ea937719e4", "is_disabled": 0, "bike_id": "172e1d97c90d787f1303b8ea937719e4", "lon": -76.98834816666667, "rental_uris": {"android": "https://dc.lft.to/lastmile_qr_scan", "ios": "https://dc.lft.to/lastmile_qr_scan"}, "fusion_lon": 0.0, "is_reserved": 0}, {"lat": 38.9247085, "fusion_lat": 0.0, "type": "electric_scooter", "name": "a9d870ea513caba26e8ce30a47efe9de", "is_disabled": 0, "bike_id": "a9d870ea513caba26e8ce30a47efe9de", "lon": -77.02268483333333, "rental_uris": {"android": "https://dc.lft.to/lastmile_qr_scan", "ios": "https://dc.lft.to/lastmile_qr_scan"}, "fusion_lon": 0.0, "is_reserved": 0}, {"lat": 38.90021983333333, "fusion_lat": 0.0, "type": "electric_scooter", "name": "b8831906b1127c440752a80f2fc83e8a", "is_disabled": 0, "bike_id": "b8831906b1127c440752a80f2fc83e8a", "lon": -77.00711966666667, "rental_uris": {"android": "https://dc.lft.to/lastmile_qr_scan", "ios": "https://dc.lft.to/lastmile_qr_scan"}, "fusion_lon": 0.0, "is_reserved": 0}, {"lat": 38.87497483333333, "fusion_lat": 0.0, "type": "electric_scooter", "name": "bf0935e1549f69ecd417b80ef8efc049", "is_disabled": 0, "bike_id": "bf0935e1549f69ecd417b80ef8efc049", "lon": -76.99988083333334, "rental_uris": {"android": "https://dc.lft.to/lastmile_qr_scan", "ios": "https://dc.lft.to/lastmile_qr_scan"}, "fusion_lon": 0.0, "is_reserved": 0}, {"lat": 38.914010833333336, "fusion_lat": 0.0, "type": "electric_scooter", "name": "c809f89c51fc8ac089292f9fb0db1ee0", "is_disabled": 0, "bike_id": "c809f89c51fc8ac089292f9fb0db1ee0", "lon": -77.0179835, "rental_uris": {"android": "https://dc.lft.to/lastmile_qr_scan", "ios": "https://dc.lft.to/lastmile_qr_scan"}, "fusion_lon": 0.0, "is_reserved": 0}, {"lat": 38.909741833333335, "fusion_lat": 0.0, "type": "electric_scooter", "name": "a47a05b3e8cf15741091b54affd0e067", "is_disabled": 0, "bike_id": "a47a05b3e8cf15741091b54affd0e067", "lon": -77.03486083333334, "rental_uris": {"android": "https://dc.lft.to/lastmile_qr_scan", "ios": "https://dc.lft.to/lastmile_qr_scan"}, "fusion_lon": 0.0, "is_reserved": 0}, {"lat": 38.901303, "fusion_lat": 0.0, "type": "electric_scooter", "name": "30af24a03e9a9bc3a1e4861037c82c5b", "is_disabled": 0, "bike_id": "30af24a03e9a9bc3a1e4861037c82c5b", "lon": -77.05023366666667, "rental_uris": {"android": "https://dc.lft.to/lastmile_qr_scan", "ios": "https://dc.lft.to/lastmile_qr_scan"}, "fusion_lon": 0.0, "is_reserved": 0}, {"lat": 38.91871283333333, "fusion_lat": 0.0, "type": "electric_scooter", "name": "95621e025b3366e4eef1af9545e224f4", "is_disabled": 0, "bike_id": "95621e025b3366e4eef1af9545e224f4", "lon": -77.02206933333333, "rental_uris": {"android": "https://dc.lft.to/lastmile_qr_scan", "ios": "https://dc.lft.to/lastmile_qr_scan"}, "fusion_lon": 0.0, "is_reserved": 0}, {"lat": 38.90165733333333, "fusion_lat": 0.0, "type": "electric_scooter", "name": "2845e71b8235d7989343a7c7a8db0720", "is_disabled": 0, "bike_id": "2845e71b8235d7989343a7c7a8db0720", "lon": -76.980738, "rental_uris": {"android": "https://dc.lft.to/lastmile_qr_scan", "ios": "https://dc.lft.to/lastmile_qr_scan"}, "fusion_lon": 0.0, "is_reserved": 0}, {"lat": 38.941656333333334, "fusion_lat": 0.0, "type": "electric_scooter", "name": "f9bfd357f4e32d7be4f186f04cbcce51", "is_disabled": 0, "bike_id": "f9bfd357f4e32d7be4f186f04cbcce51", "lon": -77.02555833333334, "rental_uris": {"android": "https://dc.lft.to/lastmile_qr_scan", "ios": "https://dc.lft.to/lastmile_qr_scan"}, "fusion_lon": 0.0, "is_reserved": 0}, {"lat": 38.90282333333333, "fusion_lat": 0.0, "type": "electric_scooter", "name": "f6bd816612144ffa2ba08a79eadfd3d5", "is_disabled": 0, "bike_id": "f6bd816612144ffa2ba08a79eadfd3d5", "lon": -77.03837233333333, "rental_uris": {"android": "https://dc.lft.to/lastmile_qr_scan", "ios": "https://dc.lft.to/lastmile_qr_scan"}, "fusion_lon": 0.0, "is_reserved": 0}, {"lat": 38.912825833333336, "fusion_lat": 0.0, "type": "electric_scooter", "name": "ee9c01dc26e628f1c705b7c836ced3eb", "is_disabled": 0, "bike_id": "ee9c01dc26e628f1c705b7c836ced3eb", "lon": -77.04478683333333, "rental_uris": {"android": "https://dc.lft.to/lastmile_qr_scan", "ios": "https://dc.lft.to/lastmile_qr_scan"}, "fusion_lon": 0.0, "is_reserved": 0}, {"lat": 38.863919833333334, "fusion_lat": 0.0, "type": "electric_scooter", "name": "ffc3026c548099710cc69e24ae3e0eac", "is_disabled": 0, "bike_id": "ffc3026c548099710cc69e24ae3e0eac", "lon": -76.99038716666666, "rental_uris": {"android": "https://dc.lft.to/lastmile_qr_scan", "ios": "https://dc.lft.to/lastmile_qr_scan"}, "fusion_lon": 0.0, "is_reserved": 0}, {"lat": 38.86240466666667, "fusion_lat": 0.0, "type": "electric_scooter", "name": "dd2e378060a9305caf74bad379d8c75e", "is_disabled": 0, "bike_id": "dd2e378060a9305caf74bad379d8c75e", "lon": -76.99483016666667, "rental_uris": {"android": "https://dc.lft.to/lastmile_qr_scan", "ios": "https://dc.lft.to/lastmile_qr_scan"}, "fusion_lon": 0.0, "is_reserved": 0}, {"lat": 38.898126166666664, "fusion_lat": 0.0, "type": "electric_scooter", "name": "5613fd45d712cffe9fea9b2f7202e87a", "is_disabled": 0, "bike_id": "5613fd45d712cffe9fea9b2f7202e87a", "lon": -76.992522, "rental_uris": {"android": "https://dc.lft.to/lastmile_qr_scan", "ios": "https://dc.lft.to/lastmile_qr_scan"}, "fusion_lon": 0.0, "is_reserved": 0}, {"lat": 38.9236065, "fusion_lat": 0.0, "type": "electric_scooter", "name": "94e9da20ce20fbbb723292f99fbc3f82", "is_disabled": 0, "bike_id": "94e9da20ce20fbbb723292f99fbc3f82", "lon": -77.00048766666667, "rental_uris": {"android": "https://dc.lft.to/lastmile_qr_scan", "ios": "https://dc.lft.to/lastmile_qr_scan"}, "fusion_lon": 0.0, "is_reserved": 0}, {"lat": 38.90236816666667, "fusion_lat": 0.0, "type": "electric_scooter", "name": "6e0f3c1c80462ecdb406b47866541f95", "is_disabled": 0, "bike_id": "6e0f3c1c80462ecdb406b47866541f95", "lon": -77.0468835, "rental_uris": {"android": "https://dc.lft.to/lastmile_qr_scan", "ios": "https://dc.lft.to/lastmile_qr_scan"}, "fusion_lon": 0.0, "is_reserved": 0}, {"lat": 38.911149333333334, "fusion_lat": 0.0, "type": "electric_scooter", "name": "bd75ec2b162b4e7b8cb93b2c4375b88c", "is_disabled": 0, "bike_id": "bd75ec2b162b4e7b8cb93b2c4375b88c", "lon": -77.0200965, "rental_uris": {"android": "https://dc.lft.to/lastmile_qr_scan", "ios": "https://dc.lft.to/lastmile_qr_scan"}, "fusion_lon": 0.0, "is_reserved": 0}, {"lat": 38.89633366666666, "fusion_lat": 0.0, "type": "electric_scooter", "name": "b0fc42340fa81bfd6aa5c09994fa0982", "is_disabled": 0, "bike_id": "b0fc42340fa81bfd6aa5c09994fa0982", "lon": -77.0400715, "rental_uris": {"android": "https://dc.lft.to/lastmile_qr_scan", "ios": "https://dc.lft.to/lastmile_qr_scan"}, "fusion_lon": 0.0, "is_reserved": 0}, {"lat": 38.956363, "fusion_lat": 0.0, "type": "electric_scooter", "name": "9f9e42543a5f8e841eed7957a4c01b80", "is_disabled": 0, "bike_id": "9f9e42543a5f8e841eed7957a4c01b80", "lon": -77.03301916666666, "rental_uris": {"android": "https://dc.lft.to/lastmile_qr_scan", "ios": "https://dc.lft.to/lastmile_qr_scan"}, "fusion_lon": 0.0, "is_reserved": 0}, {"lat": 38.92944133333334, "fusion_lat": 0.0, "type": "electric_scooter", "name": "72bc342520bc9ab2e77fd0f7947e8068", "is_disabled": 0, "bike_id": "72bc342520bc9ab2e77fd0f7947e8068", "lon": -77.0057665, "rental_uris": {"android": "https://dc.lft.to/lastmile_qr_scan", "ios": "https://dc.lft.to/lastmile_qr_scan"}, "fusion_lon": 0.0, "is_reserved": 0}, {"lat": 38.898284833333335, "fusion_lat": 0.0, "type": "electric_scooter", "name": "8246a3dc07181238db18acd3c2eaec37", "is_disabled": 0, "bike_id": "8246a3dc07181238db18acd3c2eaec37", "lon": -76.94650483333334, "rental_uris": {"android": "https://dc.lft.to/lastmile_qr_scan", "ios": "https://dc.lft.to/lastmile_qr_scan"}, "fusion_lon": 0.0, "is_reserved": 0}, {"lat": 38.92267566666666, "fusion_lat": 0.0, "type": "electric_scooter", "name": "240946c6682dada4c8e0682b8b023c12", "is_disabled": 0, "bike_id": "240946c6682dada4c8e0682b8b023c12", "lon": -77.02974083333334, "rental_uris": {"android": "https://dc.lft.to/lastmile_qr_scan", "ios": "https://dc.lft.to/lastmile_qr_scan"}, "fusion_lon": 0.0, "is_reserved": 0}, {"lat": 38.91974166666667, "fusion_lat": 0.0, "type": "electric_scooter", "name": "c7690c056242232dd4214f200eb96ef6", "is_disabled": 0, "bike_id": "c7690c056242232dd4214f200eb96ef6", "lon": -77.04144466666666, "rental_uris": {"android": "https://dc.lft.to/lastmile_qr_scan", "ios": "https://dc.lft.to/lastmile_qr_scan"}, "fusion_lon": 0.0, "is_reserved": 0}, {"lat": 38.8842955, "fusion_lat": 0.0, "type": "electric_scooter", "name": "90ee6689e5bcaa4850be1ed6694bfd24", "is_disabled": 0, "bike_id": "90ee6689e5bcaa4850be1ed6694bfd24", "lon": -76.957509, "rental_uris": {"android": "https://dc.lft.to/lastmile_qr_scan", "ios": "https://dc.lft.to/lastmile_qr_scan"}, "fusion_lon": 0.0, "is_reserved": 0}, {"lat": 38.96461883333333, "fusion_lat": 0.0, "type": "electric_bike", "name": "fed1335b70a71ae6f2fb9c0c665ad4c9", "is_disabled": 0, "bike_id": "fed1335b70a71ae6f2fb9c0c665ad4c9", "lon": -77.00864166666666, "rental_uris": {"android": "https://dc.lft.to/lastmile_qr_scan", "ios": "https://dc.lft.to/lastmile_qr_scan"}, "fusion_lon": 0.0, "is_reserved": 0}, {"lat": 38.90023033333333, "fusion_lat": 0.0, "type": "electric_scooter", "name": "296d5a189e1ed4a7b8ccfa7563e0d223", "is_disabled": 0, "bike_id": "296d5a189e1ed4a7b8ccfa7563e0d223", "lon": -77.04354083333334, "rental_uris": {"android": "https://dc.lft.to/lastmile_qr_scan", "ios": "https://dc.lft.to/lastmile_qr_scan"}, "fusion_lon": 0.0, "is_reserved": 0}, {"lat": 38.90972333333333, "fusion_lat": 0.0, "type": "electric_scooter", "name": "a7a9a65f2fa3683b36f616c37074edda", "is_disabled": 0, "bike_id": "a7a9a65f2fa3683b36f616c37074edda", "lon": -77.0216425, "rental_uris": {"android": "https://dc.lft.to/lastmile_qr_scan", "ios": "https://dc.lft.to/lastmile_qr_scan"}, "fusion_lon": 0.0, "is_reserved": 0}, {"lat": 38.922395, "fusion_lat": 0.0, "type": "electric_scooter", "name": "6e0e1de0fe7e4ab9989d6efe786d3c70", "is_disabled": 0, "bike_id": "6e0e1de0fe7e4ab9989d6efe786d3c70", "lon": -77.02121833333334, "rental_uris": {"android": "https://dc.lft.to/lastmile_qr_scan", "ios": "https://dc.lft.to/lastmile_qr_scan"}, "fusion_lon": 0.0, "is_reserved": 0}, {"lat": 38.92832766666667, "fusion_lat": 0.0, "type": "electric_scooter", "name": "be63229fdd2ceee64f5e704c33b2117b", "is_disabled": 0, "bike_id": "be63229fdd2ceee64f5e704c33b2117b", "lon": -77.03281833333334, "rental_uris": {"android": "https://dc.lft.to/lastmile_qr_scan", "ios": "https://dc.lft.to/lastmile_qr_scan"}, "fusion_lon": 0.0, "is_reserved": 0}, {"lat": 38.8767305, "fusion_lat": 0.0, "type": "electric_scooter", "name": "8dcab0f41d6baab42529ac74e865e850", "is_disabled": 0, "bike_id": "8dcab0f41d6baab42529ac74e865e850", "lon": -77.00177166666667, "rental_uris": {"android": "https://dc.lft.to/lastmile_qr_scan", "ios": "https://dc.lft.to/lastmile_qr_scan"}, "fusion_lon": 0.0, "is_reserved": 0}, {"lat": 38.8633785, "fusion_lat": 0.0, "type": "electric_bike", "name": "f448950543585df215cadddcb64effdc", "is_disabled": 0, "bike_id": "f448950543585df215cadddcb64effdc", "lon": -77.08919783333333, "rental_uris": {"android": "https://dc.lft.to/lastmile_qr_scan", "ios": "https://dc.lft.to/lastmile_qr_scan"}, "fusion_lon": 0.0, "is_reserved": 0}, {"lat": 38.9319135, "fusion_lat": 0.0, "type": "electric_scooter", "name": "0241eca42e9870e5d14560795f9d0499", "is_disabled": 0, "bike_id": "0241eca42e9870e5d14560795f9d0499", "lon": -77.028246, "rental_uris": {"android": "https://dc.lft.to/lastmile_qr_scan", "ios": "https://dc.lft.to/lastmile_qr_scan"}, "fusion_lon": 0.0, "is_reserved": 0}, {"lat": 38.92449466666667, "fusion_lat": 0.0, "type": "electric_scooter", "name": "2eddb6516d101afcbcf2d0360ead7faa", "is_disabled": 0, "bike_id": "2eddb6516d101afcbcf2d0360ead7faa", "lon": -77.04023233333334, "rental_uris": {"android": "https://dc.lft.to/lastmile_qr_scan", "ios": "https://dc.lft.to/lastmile_qr_scan"}, "fusion_lon": 0.0, "is_reserved": 0}, {"lat": 38.92124316666667, "fusion_lat": 0.0, "type": "electric_scooter", "name": "cc88dcf80b06811b0e481e31250fadf9", "is_disabled": 0, "bike_id": "cc88dcf80b06811b0e481e31250fadf9", "lon": -77.04350233333334, "rental_uris": {"android": "https://dc.lft.to/lastmile_qr_scan", "ios": "https://dc.lft.to/lastmile_qr_scan"}, "fusion_lon": 0.0, "is_reserved": 0}, {"lat": 38.82073533333333, "fusion_lat": 0.0, "type": "electric_bike", "name": "81da128dbe908dab641d38967a4f2a33", "is_disabled": 0, "bike_id": "81da128dbe908dab641d38967a4f2a33", "lon": -77.053764, "rental_uris": {"android": "https://dc.lft.to/lastmile_qr_scan", "ios": "https://dc.lft.to/lastmile_qr_scan"}, "fusion_lon": 0.0, "is_reserved": 0}, {"lat": 38.925225, "fusion_lat": 0.0, "type": "electric_scooter", "name": "5276beaa6b38cd5cd9eb737a8e0e9cc8", "is_disabled": 0, "bike_id": "5276beaa6b38cd5cd9eb737a8e0e9cc8", "lon": -77.02277916666667, "rental_uris": {"android": "https://dc.lft.to/lastmile_qr_scan", "ios": "https://dc.lft.to/lastmile_qr_scan"}, "fusion_lon": 0.0, "is_reserved": 0}, {"lat": 38.91617933333333, "fusion_lat": 0.0, "type": "electric_scooter", "name": "28a84b2f48ae4396ec14b6cce9fdfc82", "is_disabled": 0, "bike_id": "28a84b2f48ae4396ec14b6cce9fdfc82", "lon": -77.0374105, "rental_uris": {"android": "https://dc.lft.to/lastmile_qr_scan", "ios": "https://dc.lft.to/lastmile_qr_scan"}, "fusion_lon": 0.0, "is_reserved": 0}, {"lat": 38.901594833333334, "fusion_lat": 0.0, "type": "electric_scooter", "name": "bdc1e1cb8505987ac9a92093a43ef726", "is_disabled": 0, "bike_id": "bdc1e1cb8505987ac9a92093a43ef726", "lon": -76.976282, "rental_uris": {"android": "https://dc.lft.to/lastmile_qr_scan", "ios": "https://dc.lft.to/lastmile_qr_scan"}, "fusion_lon": 0.0, "is_reserved": 0}, {"lat": 38.9338265, "fusion_lat": 0.0, "type": "electric_scooter", "name": "340250e374ad1f2ae4ab9056de30d1f4", "is_disabled": 0, "bike_id": "340250e374ad1f2ae4ab9056de30d1f4", "lon": -77.03252216666667, "rental_uris": {"android": "https://dc.lft.to/lastmile_qr_scan", "ios": "https://dc.lft.to/lastmile_qr_scan"}, "fusion_lon": 0.0, "is_reserved": 0}, {"lat": 38.875074833333336, "fusion_lat": 0.0, "type": "electric_scooter", "name": "efc5cc3b70e06680c35bddf64f3dc876", "is_disabled": 0, "bike_id": "efc5cc3b70e06680c35bddf64f3dc876", "lon": -77.00932633333333, "rental_uris": {"android": "https://dc.lft.to/lastmile_qr_scan", "ios": "https://dc.lft.to/lastmile_qr_scan"}, "fusion_lon": 0.0, "is_reserved": 0}, {"lat": 38.91024783333334, "fusion_lat": 0.0, "type": "electric_scooter", "name": "e2ea3de47c0460410a35b4a52d1efcd1", "is_disabled": 0, "bike_id": "e2ea3de47c0460410a35b4a52d1efcd1", "lon": -77.03190166666667, "rental_uris": {"android": "https://dc.lft.to/lastmile_qr_scan", "ios": "https://dc.lft.to/lastmile_qr_scan"}, "fusion_lon": 0.0, "is_reserved": 0}, {"lat": 38.9208595, "fusion_lat": 0.0, "type": "electric_scooter", "name": "b58903fda1339f36106164f679244af4", "is_disabled": 0, "bike_id": "b58903fda1339f36106164f679244af4", "lon": -77.025229, "rental_uris": {"android": "https://dc.lft.to/lastmile_qr_scan", "ios": "https://dc.lft.to/lastmile_qr_scan"}, "fusion_lon": 0.0, "is_reserved": 0}, {"lat": 38.88471, "fusion_lat": 0.0, "type": "electric_scooter", "name": "5a15a5c0fd7ed609236abd26476ce6b7", "is_disabled": 0, "bike_id": "5a15a5c0fd7ed609236abd26476ce6b7", "lon": -77.03201216666666, "rental_uris": {"android": "https://dc.lft.to/lastmile_qr_scan", "ios": "https://dc.lft.to/lastmile_qr_scan"}, "fusion_lon": 0.0, "is_reserved": 0}, {"lat": 38.92964533333333, "fusion_lat": 0.0, "type": "electric_scooter", "name": "b95a98d06224e3c62f27796bf8476fc4", "is_disabled": 0, "bike_id": "b95a98d06224e3c62f27796bf8476fc4", "lon": -77.011445, "rental_uris": {"android": "https://dc.lft.to/lastmile_qr_scan", "ios": "https://dc.lft.to/lastmile_qr_scan"}, "fusion_lon": 0.0, "is_reserved": 0}, {"lat": 38.87658966666667, "fusion_lat": 0.0, "type": "electric_scooter", "name": "0c54f1c8019e927f66dbf8b1e2a3c551", "is_disabled": 0, "bike_id": "0c54f1c8019e927f66dbf8b1e2a3c551", "lon": -77.00850733333333, "rental_uris": {"android": "https://dc.lft.to/lastmile_qr_scan", "ios": "https://dc.lft.to/lastmile_qr_scan"}, "fusion_lon": 0.0, "is_reserved": 0}, {"lat": 38.898394833333334, "fusion_lat": 0.0, "type": "electric_scooter", "name": "0d8343f7ac81bc860d20be8d5ebb1279", "is_disabled": 0, "bike_id": "0d8343f7ac81bc860d20be8d5ebb1279", "lon": -77.04986983333333, "rental_uris": {"android": "https://dc.lft.to/lastmile_qr_scan", "ios": "https://dc.lft.to/lastmile_qr_scan"}, "fusion_lon": 0.0, "is_reserved": 0}, {"lat": 38.8730975, "fusion_lat": 0.0, "type": "electric_scooter", "name": "568d1275c3d1085cf2024244bdd2327f", "is_disabled": 0, "bike_id": "568d1275c3d1085cf2024244bdd2327f", "lon": -76.96901916666667, "rental_uris": {"android": "https://dc.lft.to/lastmile_qr_scan", "ios": "https://dc.lft.to/lastmile_qr_scan"}, "fusion_lon": 0.0, "is_reserved": 0}, {"lat": 38.92024883333333, "fusion_lat": 0.0, "type": "electric_scooter", "name": "839337624b98487b90ed9e15c16f1a0a", "is_disabled": 0, "bike_id": "839337624b98487b90ed9e15c16f1a0a", "lon": -77.03123366666667, "rental_uris": {"android": "https://dc.lft.to/lastmile_qr_scan", "ios": "https://dc.lft.to/lastmile_qr_scan"}, "fusion_lon": 0.0, "is_reserved": 0}, {"lat": 38.895202166666664, "fusion_lat": 0.0, "type": "electric_scooter", "name": "9ea03e37192f247ec720425a2928f315", "is_disabled": 0, "bike_id": "9ea03e37192f247ec720425a2928f315", "lon": -77.02286333333333, "rental_uris": {"android": "https://dc.lft.to/lastmile_qr_scan", "ios": "https://dc.lft.to/lastmile_qr_scan"}, "fusion_lon": 0.0, "is_reserved": 0}, {"lat": 38.87725416666667, "fusion_lat": 0.0, "type": "electric_scooter", "name": "5f57c31bbf6be88eb13694886f16b8d2", "is_disabled": 0, "bike_id": "5f57c31bbf6be88eb13694886f16b8d2", "lon": -77.00328283333333, "rental_uris": {"android": "https://dc.lft.to/lastmile_qr_scan", "ios": "https://dc.lft.to/lastmile_qr_scan"}, "fusion_lon": 0.0, "is_reserved": 0}, {"lat": 38.9048525, "fusion_lat": 0.0, "type": "electric_scooter", "name": "c3534586607552c9359f9eb802fc94af", "is_disabled": 0, "bike_id": "c3534586607552c9359f9eb802fc94af", "lon": -77.0433905, "rental_uris": {"android": "https://dc.lft.to/lastmile_qr_scan", "ios": "https://dc.lft.to/lastmile_qr_scan"}, "fusion_lon": 0.0, "is_reserved": 0}, {"lat": 38.892325, "fusion_lat": 0.0, "type": "electric_scooter", "name": "f09ad0aa1689660db325b72aa9b83418", "is_disabled": 0, "bike_id": "f09ad0aa1689660db325b72aa9b83418", "lon": -77.0500125, "rental_uris": {"android": "https://dc.lft.to/lastmile_qr_scan", "ios": "https://dc.lft.to/lastmile_qr_scan"}, "fusion_lon": 0.0, "is_reserved": 0}, {"lat": 38.90364833333334, "fusion_lat": 0.0, "type": "electric_scooter", "name": "960c42f4f7a08ee7d8cf9634adf4c285", "is_disabled": 0, "bike_id": "960c42f4f7a08ee7d8cf9634adf4c285", "lon": -77.04347316666667, "rental_uris": {"android": "https://dc.lft.to/lastmile_qr_scan", "ios": "https://dc.lft.to/lastmile_qr_scan"}, "fusion_lon": 0.0, "is_reserved": 0}, {"lat": 38.912660333333335, "fusion_lat": 0.0, "type": "electric_scooter", "name": "ef1cfe2384bd0519470f34378f98dc77", "is_disabled": 0, "bike_id": "ef1cfe2384bd0519470f34378f98dc77", "lon": -77.02261333333334, "rental_uris": {"android": "https://dc.lft.to/lastmile_qr_scan", "ios": "https://dc.lft.to/lastmile_qr_scan"}, "fusion_lon": 0.0, "is_reserved": 0}, {"lat": 38.91851716666667, "fusion_lat": 0.0, "type": "electric_scooter", "name": "e0877393911ab170d4776938d4fe5d28", "is_disabled": 0, "bike_id": "e0877393911ab170d4776938d4fe5d28", "lon": -77.03188883333333, "rental_uris": {"android": "https://dc.lft.to/lastmile_qr_scan", "ios": "https://dc.lft.to/lastmile_qr_scan"}, "fusion_lon": 0.0, "is_reserved": 0}, {"lat": 38.86725333333333, "fusion_lat": 0.0, "type": "electric_scooter", "name": "575087104c97a83c5a73626e598b4fe0", "is_disabled": 0, "bike_id": "575087104c97a83c5a73626e598b4fe0", "lon": -76.986976, "rental_uris": {"android": "https://dc.lft.to/lastmile_qr_scan", "ios": "https://dc.lft.to/lastmile_qr_scan"}, "fusion_lon": 0.0, "is_reserved": 0}, {"lat": 38.938630833333335, "fusion_lat": 0.0, "type": "electric_scooter", "name": "671e3f58912974234a52b0d23775d7d7", "is_disabled": 0, "bike_id": "671e3f58912974234a52b0d23775d7d7", "lon": -77.02485216666666, "rental_uris": {"android": "https://dc.lft.to/lastmile_qr_scan", "ios": "https://dc.lft.to/lastmile_qr_scan"}, "fusion_lon": 0.0, "is_reserved": 0}, {"lat": 38.906960833333336, "fusion_lat": 0.0, "type": "electric_scooter", "name": "e8c98a3a006e161fe4da07ef644a58a5", "is_disabled": 0, "bike_id": "e8c98a3a006e161fe4da07ef644a58a5", "lon": -77.03721516666667, "rental_uris": {"android": "https://dc.lft.to/lastmile_qr_scan", "ios": "https://dc.lft.to/lastmile_qr_scan"}, "fusion_lon": 0.0, "is_reserved": 0}, {"lat": 38.9225705, "fusion_lat": 0.0, "type": "electric_scooter", "name": "da8db62ffd3a62776d368e9419e8695d", "is_disabled": 0, "bike_id": "da8db62ffd3a62776d368e9419e8695d", "lon": -77.0413155, "rental_uris": {"android": "https://dc.lft.to/lastmile_qr_scan", "ios": "https://dc.lft.to/lastmile_qr_scan"}, "fusion_lon": 0.0, "is_reserved": 0}, {"lat": 38.89775483333333, "fusion_lat": 0.0, "type": "electric_scooter", "name": "7c0dc721dead4f3b49accc7d476351e7", "is_disabled": 0, "bike_id": "7c0dc721dead4f3b49accc7d476351e7", "lon": -77.02021416666666, "rental_uris": {"android": "https://dc.lft.to/lastmile_qr_scan", "ios": "https://dc.lft.to/lastmile_qr_scan"}, "fusion_lon": 0.0, "is_reserved": 0}, {"lat": 38.903575333333336, "fusion_lat": 0.0, "type": "electric_scooter", "name": "b11485f9265814dece8e833d0cb406da", "is_disabled": 0, "bike_id": "b11485f9265814dece8e833d0cb406da", "lon": -77.00736033333334, "rental_uris": {"android": "https://dc.lft.to/lastmile_qr_scan", "ios": "https://dc.lft.to/lastmile_qr_scan"}, "fusion_lon": 0.0, "is_reserved": 0}, {"lat": 38.9003365, "fusion_lat": 0.0, "type": "electric_scooter", "name": "ec1fcfb7529532e7b7a724835e5db6c3", "is_disabled": 0, "bike_id": "ec1fcfb7529532e7b7a724835e5db6c3", "lon": -77.0019505, "rental_uris": {"android": "https://dc.lft.to/lastmile_qr_scan", "ios": "https://dc.lft.to/lastmile_qr_scan"}, "fusion_lon": 0.0, "is_reserved": 0}, {"lat": 38.92862316666667, "fusion_lat": 0.0, "type": "electric_scooter", "name": "6f92cd338a4517621ec98c6507d4dc0e", "is_disabled": 0, "bike_id": "6f92cd338a4517621ec98c6507d4dc0e", "lon": -77.03440716666667, "rental_uris": {"android": "https://dc.lft.to/lastmile_qr_scan", "ios": "https://dc.lft.to/lastmile_qr_scan"}, "fusion_lon": 0.0, "is_reserved": 0}, {"lat": 38.921105833333336, "fusion_lat": 0.0, "type": "electric_scooter", "name": "67c1d8d328d82a3c346f382c1e5ca810", "is_disabled": 0, "bike_id": "67c1d8d328d82a3c346f382c1e5ca810", "lon": -77.06330233333334, "rental_uris": {"android": "https://dc.lft.to/lastmile_qr_scan", "ios": "https://dc.lft.to/lastmile_qr_scan"}, "fusion_lon": 0.0, "is_reserved": 0}, {"lat": 38.895317, "fusion_lat": 0.0, "type": "electric_scooter", "name": "122b7e67cc394d3ccbd9792b0c3efade", "is_disabled": 0, "bike_id": "122b7e67cc394d3ccbd9792b0c3efade", "lon": -77.02183983333333, "rental_uris": {"android": "https://dc.lft.to/lastmile_qr_scan", "ios": "https://dc.lft.to/lastmile_qr_scan"}, "fusion_lon": 0.0, "is_reserved": 0}, {"lat": 38.922748, "fusion_lat": 0.0, "type": "electric_scooter", "name": "b40c69a3a8f6c9403f125cfb2942f16d", "is_disabled": 0, "bike_id": "b40c69a3a8f6c9403f125cfb2942f16d", "lon": -77.009095, "rental_uris": {"android": "https://dc.lft.to/lastmile_qr_scan", "ios": "https://dc.lft.to/lastmile_qr_scan"}, "fusion_lon": 0.0, "is_reserved": 0},