{"data": {"bikes": [{"rental_uris": {"ios": "https://dc.lft.to/lastmile_qr_scan", "android": "https://dc.lft.to/lastmile_qr_scan"}, "fusion_lat": 0.0, "name": "ad219513535ec87d8e066bd09eddd409", "bike_id": "ad219513535ec87d8e066bd09eddd409", "is_disabled": 0, "type": "electric_scooter", "lat": 38.92323566666666, "lon": -77.02126633333333, "is_reserved": 0, "fusion_lon": 0.0}, {"rental_uris": {"ios": "https://dc.lft.to/lastmile_qr_scan", "android": "https://dc.lft.to/lastmile_qr_scan"}, "fusion_lat": 0.0, "name": "9ec4af7a53e4cad4f32e826f04e8da53", "bike_id": "9ec4af7a53e4cad4f32e826f04e8da53", "is_disabled": 0, "type": "electric_scooter", "lat": 38.892324333333335, "lon": -77.0499875, "is_reserved": 0, "fusion_lon": 0.0}, {"rental_uris": {"ios": "https://dc.lft.to/lastmile_qr_scan", "android": "https://dc.lft.to/lastmile_qr_scan"}, "fusion_lat": 0.0, "name": "4c48e9d06814c500eba69efe238f55db", "bike_id": "4c48e9d06814c500eba69efe238f55db", "is_disabled": 0, "type": "electric_scooter", "lat": 38.9110905, "lon": -77.04357233333333, "is_reserved": 0, "fusion_lon": 0.0}, {"rental_uris": {"ios": "https://dc.lft.to/lastmile_qr_scan", "android": "https://dc.lft.to/lastmile_qr_scan"}, "fusion_lat": 0.0, "name": "973a7cd1cf9b9d7921d8ae01a4d39146", "bike_id": "973a7cd1cf9b9d7921d8ae01a4d39146", "is_disabled": 0, "type": "electric_scooter", "lat": 38.92352916666667, "lon": -77.05325783333333, "is_reserved": 0, "fusion_lon": 0.0}, {"rental_uris": {"ios": "https://dc.lft.to/lastmile_qr_scan", "android": "https://dc.lft.to/lastmile_qr_scan"}, "fusion_lat": 0.0, "name": "ad6590bbdb2955646c08e25eeee54382", "bike_id": "ad6590bbdb2955646c08e25eeee54382", "is_disabled": 0, "type": "electric_scooter", "lat": 38.93887483333334, "lon": -77.0248745, "is_reserved": 0, "fusion_lon": 0.0}, {"rental_uris": {"ios": "https://dc.lft.to/lastmile_qr_scan", "android": "https://dc.lft.to/lastmile_qr_scan"}, "fusion_lat": 0.0, "name": "6306b603af09a001a870f2bdac186ff9", "bike_id": "6306b603af09a001a870f2bdac186ff9", "is_disabled": 0, "type": "electric_scooter", "lat": 38.8824945, "lon": -76.99504083333333, "is_reserved": 0, "fusion_lon": 0.0}, {"rental_uris": {"ios": "https://dc.lft.to/lastmile_qr_scan", "android": "https://dc.lft.to/lastmile_qr_scan"}, "fusion_lat": 0.0, "name": "34a6574b5d408e728bec334ea36e1ffa", "bike_id": "34a6574b5d408e728bec334ea36e1ffa", "is_disabled": 0, "type": "electric_scooter", "lat": 38.91928983333333, "lon": -77.03187466666667, "is_reserved": 0, "fusion_lon": 0.0}, {"rental_uris": {"ios": "https://dc.lft.to/lastmile_qr_scan", "android": "https://dc.lft.to/lastmile_qr_scan"}, "fusion_lat": 0.0, "name": "75c22e978e0dd10384ceefb2cd7bd4bf", "bike_id": "75c22e978e0dd10384ceefb2cd7bd4bf", "is_disabled": 0, "type": "electric_scooter", "lat": 38.9187785, "lon": -77.02204916666666, "is_reserved": 0, "fusion_lon": 0.0}, {"rental_uris": {"ios": "https://dc.lft.to/lastmile_qr_scan", "android": "https://dc.lft.to/lastmile_qr_scan"}, "fusion_lat": 0.0, "name": "94833f9651cdbd1c5050cc7a02e939b9", "bike_id": "94833f9651cdbd1c5050cc7a02e939b9", "is_disabled": 0, "type": "electric_scooter", "lat": 38.863596, "lon": -76.99048333333333, "is_reserved": 0, "fusion_lon": 0.0}, {"rental_uris": {"ios": "https://dc.lft.to/lastmile_qr_scan", "android": "https://dc.lft.to/lastmile_qr_scan"}, "fusion_lat": 0.0, "name": "43558e66564a4ad5b6fea8c55e002b29", "bike_id": "43558e66564a4ad5b6fea8c55e002b29", "is_disabled": 0, "type": "electric_bike", "lat": 38.879716, "lon": -76.99500216666667, "is_reserved": 0, "fusion_lon": 0.0}, {"rental_uris": {"ios": "https://dc.lft.to/lastmile_qr_scan", "android": "https://dc.lft.to/lastmile_qr_scan"}, "fusion_lat": 0.0, "name": "1e623fc2f24bcabdef85f8cd6b560931", "bike_id": "1e623fc2f24bcabdef85f8cd6b560931", "is_disabled": 0, "type": "electric_scooter", "lat": 38.902484, "lon": -77.01797383333333, "is_reserved": 0, "fusion_lon": 0.0}, {"rental_uris": {"ios": "https://dc.lft.to/lastmile_qr_scan", "android": "https://dc.lft.to/lastmile_qr_scan"}, "fusion_lat": 0.0, "name": "add5d88089395d55a3de6ccda9155106", "bike_id": "add5d88089395d55a3de6ccda9155106", "is_disabled": 0, "type": "electric_scooter", "lat": 38.95421366666667, "lon": -77.02770166666667, "is_reserved": 0, "fusion_lon": 0.0}, {"rental_uris": {"ios": "https://dc.lft.to/lastmile_qr_scan", "android": "https://dc.lft.to/lastmile_qr_scan"}, "fusion_lat": 0.0, "name": "e7264dbb44517f0ee5cdf07e75742f5e", "bike_id": "e7264dbb44517f0ee5cdf07e75742f5e", "is_disabled": 0, "type": "electric_bike", "lat": 38.8067795, "lon": -77.08123266666666, "is_reserved": 0, "fusion_lon": 0.0}, {"rental_uris": {"ios": "https://dc.lft.to/lastmile_qr_scan", "android": "https://dc.lft.to/lastmile_qr_scan"}, "fusion_lat": 0.0, "name": "1347d687fd63655a53f4046c62fe6614", "bike_id": "1347d687fd63655a53f4046c62fe6614", "is_disabled": 0, "type": "electric_scooter", "lat": 38.91687133333333, "lon": -77.026818, "is_reserved": 0, "fusion_lon": 0.0}, {"rental_uris": {"ios": "https://dc.lft.to/lastmile_qr_scan", "android": "https://dc.lft.to/lastmile_qr_scan"}, "fusion_lat": 0.0, "name": "675b65176da326dd02e3f01b1bb73f82", "bike_id": "675b65176da326dd02e3f01b1bb73f82", "is_disabled": 0, "type": "electric_scooter", "lat": 38.93605016666667, "lon": -77.05860233333334, "is_reserved": 0, "fusion_lon": 0.0}, {"rental_uris": {"ios": "https://dc.lft.to/lastmile_qr_scan", "android": "https://dc.lft.to/lastmile_qr_scan"}, "fusion_lat": 0.0, "name": "dc0186a406da175515ddb2c7fe3a30ce", "bike_id": "dc0186a406da175515ddb2c7fe3a30ce", "is_disabled": 0, "type": "electric_scooter", "lat": 38.9096115, "lon": -77.03273383333334, "is_reserved": 0, "fusion_lon": 0.0}, {"rental_uris": {"ios": "https://dc.lft.to/lastmile_qr_scan", "android": "https://dc.lft.to/lastmile_qr_scan"}, "fusion_lat": 0.0, "name": "9050d355b036cbbbf8916e17678b2250", "bike_id": "9050d355b036cbbbf8916e17678b2250", "is_disabled": 0, "type": "electric_scooter", "lat": 38.899300333333336, "lon": -77.03295783333333, "is_reserved": 0, "fusion_lon": 0.0}, {"rental_uris": {"ios": "https://dc.lft.to/lastmile_qr_scan", "android": "https://dc.lft.to/lastmile_qr_scan"}, "fusion_lat": 0.0, "name": "c2e6d50d226f668c6a903179cd0e1f2b", "bike_id": "c2e6d50d226f668c6a903179cd0e1f2b", "is_disabled": 0, "type": "electric_scooter", "lat": 38.909611166666664, "lon": -77.04484433333333, "is_reserved": 0, "fusion_lon": 0.0}, {"rental_uris": {"ios": "https://dc.lft.to/lastmile_qr_scan", "android": "https://dc.lft.to/lastmile_qr_scan"}, "fusion_lat": 0.0, "name": "9d1077377b711760460a3e44d3229b48", "bike_id": "9d1077377b711760460a3e44d3229b48", "is_disabled": 0, "type": "electric_scooter", "lat": 38.88128966666667, "lon": -77.01318916666666, "is_reserved": 0, "fusion_lon": 0.0}, {"rental_uris": {"ios": "https://dc.lft.to/lastmile_qr_scan", "android": "https://dc.lft.to/lastmile_qr_scan"}, "fusion_lat": 0.0, "name": "2e0e2b66bc9d694ce08137d6042a7222", "bike_id": "2e0e2b66bc9d694ce08137d6042a7222", "is_disabled": 0, "type": "electric_scooter", "lat": 38.91719233333333, "lon": -77.03651883333333, "is_reserved": 0, "fusion_lon": 0.0}, {"rental_uris": {"ios": "https://dc.lft.to/lastmile_qr_scan", "android": "https://dc.lft.to/lastmile_qr_scan"}, "fusion_lat": 0.0, "name": "a56a88196140078ba9c99b0c3249b472", "bike_id": "a56a88196140078ba9c99b0c3249b472", "is_disabled": 0, "type": "electric_scooter", "lat": 38.93250233333333, "lon": -77.0385825, "is_reserved": 0, "fusion_lon": 0.0}, {"rental_uris": {"ios": "https://dc.lft.to/lastmile_qr_scan", "android": "https://dc.lft.to/lastmile_qr_scan"}, "fusion_lat": 0.0, "name": "5693aea453744054f09dfd34516320d3", "bike_id": "5693aea453744054f09dfd34516320d3", "is_disabled": 0, "type": "electric_bike", "lat": 39.015705, "lon": -77.04418066666666, "is_reserved": 0, "fusion_lon": 0.0}, {"rental_uris": {"ios": "https://dc.lft.to/lastmile_qr_scan", "android": "https://dc.lft.to/lastmile_qr_scan"}, "fusion_lat": 0.0, "name": "929d4e1292bf1a3c934a598a8e2ec557", "bike_id": "929d4e1292bf1a3c934a598a8e2ec557", "is_disabled": 0, "type": "electric_scooter", "lat": 38.91558116666667, "lon": -77.03866116666667, "is_reserved": 0, "fusion_lon": 0.0}, {"rental_uris": {"ios": "https://dc.lft.to/lastmile_qr_scan", "android": "https://dc.lft.to/lastmile_qr_scan"}, "fusion_lat": 0.0, "name": "4f784690165bbe35577c6fc041d2be6d", "bike_id": "4f784690165bbe35577c6fc041d2be6d", "is_disabled": 0, "type": "electric_scooter", "lat": 38.8922155, "lon": -77.04371133333333, "is_reserved": 0, "fusion_lon": 0.0}, {"rental_uris": {"ios": "https://dc.lft.to/lastmile_qr_scan", "android": "https://dc.lft.to/lastmile_qr_scan"}, "fusion_lat": 0.0, "name": "ae597eca31e52a83ecfad3dd3a4f526f", "bike_id": "ae597eca31e52a83ecfad3dd3a4f526f", "is_disabled": 0, "type": "electric_scooter", "lat": 38.90019066666667, "lon": -77.03209033333333, "is_reserved": 0, "fusion_lon": 0.0}, {"rental_uris": {"ios": "https://dc.lft.to/lastmile_qr_scan", "android": "https://dc.lft.to/lastmile_qr_scan"}, "fusion_lat": 0.0, "name": "f199cb79d8ecad9531f9c6259c6b13b5", "bike_id": "f199cb79d8ecad9531f9c6259c6b13b5", "is_disabled": 0, "type": "electric_scooter", "lat": 38.91755533333333, "lon": -77.023344, "is_reserved": 0, "fusion_lon": 0.0}, {"rental_uris": {"ios": "https://dc.lft.to/lastmile_qr_scan", "android": "https://dc.lft.to/lastmile_qr_scan"}, "fusion_lat": 0.0, "name": "200b9d1ef5f66217f52429365672c628", "bike_id": "200b9d1ef5f66217f52429365672c628", "is_disabled": 0, "type": "electric_scooter", "lat": 38.9192985, "lon": -77.031838, "is_reserved": 0, "fusion_lon": 0.0}, {"rental_uris": {"ios": "https://dc.lft.to/lastmile_qr_scan", "android": "https://dc.lft.to/lastmile_qr_scan"}, "fusion_lat": 0.0, "name": "940d9c1c4da8b7495ae29cb501735ecf", "bike_id": "940d9c1c4da8b7495ae29cb501735ecf", "is_disabled": 0, "type": "electric_scooter", "lat": 38.9076525, "lon": -77.04262366666667, "is_reserved": 0, "fusion_lon": 0.0}, {"rental_uris": {"ios": "https://dc.lft.to/lastmile_qr_scan", "android": "https://dc.lft.to/lastmile_qr_scan"}, "fusion_lat": 0.0, "name": "bdcc4cf96f78b1cad52bc81e3f573f3f", "bike_id": "bdcc4cf96f78b1cad52bc81e3f573f3f", "is_disabled": 0, "type": "electric_scooter", "lat": 38.898395, "lon": -76.94637133333333, "is_reserved": 0, "fusion_lon": 0.0}, {"rental_uris": {"ios": "https://dc.lft.to/lastmile_qr_scan", "android": "https://dc.lft.to/lastmile_qr_scan"}, "fusion_lat": 0.0, "name": "c5250cbf4bc2999976c4e61560446be3", "bike_id": "c5250cbf4bc2999976c4e61560446be3", "is_disabled": 0, "type": "electric_bike", "lat": 38.893527666666664, "lon": -77.187424, "is_reserved": 0, "fusion_lon": 0.0}, {"rental_uris": {"ios": "https://dc.lft.to/lastmile_qr_scan", "android": "https://dc.lft.to/lastmile_qr_scan"}, "fusion_lat": 0.0, "name": "3d41960b81249250a0165793e2fe4a36", "bike_id": "3d41960b81249250a0165793e2fe4a36", "is_disabled": 0, "type": "electric_scooter", "lat": 38.88431716666667, "lon": -77.0304355, "is_reserved": 0, "fusion_lon": 0.0}, {"rental_uris": {"ios": "https://dc.lft.to/lastmile_qr_scan", "android": "https://dc.lft.to/lastmile_qr_scan"}, "fusion_lat": 0.0, "name": "83c756408df300042ac7a3b550078b54", "bike_id": "83c756408df300042ac7a3b550078b54", "is_disabled": 0, "type": "electric_bike", "lat": 39.030497, "lon": -77.09487183333333, "is_reserved": 0, "fusion_lon": 0.0}, {"rental_uris": {"ios": "https://dc.lft.to/lastmile_qr_scan", "android": "https://dc.lft.to/lastmile_qr_scan"}, "fusion_lat": 0.0, "name": "e2311bbd2b5d509d20d872f8a0d9937a", "bike_id": "e2311bbd2b5d509d20d872f8a0d9937a", "is_disabled": 0, "type": "electric_scooter", "lat": 38.918146, "lon": -77.02716383333333, "is_reserved": 0, "fusion_lon": 0.0}, {"rental_uris": {"ios": "https://dc.lft.to/lastmile_qr_scan", "android": "https://dc.lft.to/lastmile_qr_scan"}, "fusion_lat": 0.0, "name": "08afd34e6e8fd6769b68c7804bfdc733", "bike_id": "08afd34e6e8fd6769b68c7804bfdc733", "is_disabled": 0, "type": "electric_scooter", "lat": 38.9039315, "lon": -76.9894325, "is_reserved": 0, "fusion_lon": 0.0}, {"rental_uris": {"ios": "https://dc.lft.to/lastmile_qr_scan", "android": "https://dc.lft.to/lastmile_qr_scan"}, "fusion_lat": 0.0, "name": "e772af8059892ea173b6468314c2eaa4", "bike_id": "e772af8059892ea173b6468314c2eaa4", "is_disabled": 0, "type": "electric_scooter", "lat": 38.920700833333335, "lon": -76.99525316666667, "is_reserved": 0, "fusion_lon": 0.0}, {"rental_uris": {"ios": "https://dc.lft.to/lastmile_qr_scan", "android": "https://dc.lft.to/lastmile_qr_scan"}, "fusion_lat": 0.0, "name": "890e1d31f647bb3e046c35638bb7b33c", "bike_id": "890e1d31f647bb3e046c35638bb7b33c", "is_disabled": 0, "type": "electric_scooter", "lat": 38.916831333333334, "lon": -77.02977783333333, "is_reserved": 0, "fusion_lon": 0.0}, {"rental_uris": {"ios": "https://dc.lft.to/lastmile_qr_scan", "android": "https://dc.lft.to/lastmile_qr_scan"}, "fusion_lat": 0.0, "name": "bcc451fb87b9506d163822440d74ec28", "bike_id": "bcc451fb87b9506d163822440d74ec28", "is_disabled": 0, "type": "electric_scooter", "lat": 38.893946, "lon": -77.05000416666667, "is_reserved": 0, "fusion_lon": 0.0}, {"rental_uris": {"ios": "https://dc.lft.to/lastmile_qr_scan", "android": "https://dc.lft.to/lastmile_qr_scan"}, "fusion_lat": 0.0, "name": "817cb0b976f6c705fa17719c82a423a9", "bike_id": "817cb0b976f6c705fa17719c82a423a9", "is_disabled": 0, "type": "electric_scooter", "lat": 38.87794316666667, "lon": -77.00124466666666, "is_reserved": 0, "fusion_lon": 0.0}, {"rental_uris": {"ios": "https://dc.lft.to/lastmile_qr_scan", "android": "https://dc.lft.to/lastmile_qr_scan"}, "fusion_lat": 0.0, "name": "ea55cecc1b3f10e2222b0a19ba7ec9c0", "bike_id": "ea55cecc1b3f10e2222b0a19ba7ec9c0", "is_disabled": 0, "type": "electric_scooter", "lat": 38.92141816666667, "lon": -77.07297733333333, "is_reserved": 0, "fusion_lon": 0.0}, {"rental_uris": {"ios": "https://dc.lft.to/lastmile_qr_scan", "android": "https://dc.lft.to/lastmile_qr_scan"}, "fusion_lat": 0.0, "name": "8ff085e17c7212056899bb94cfe42ad1", "bike_id": "8ff085e17c7212056899bb94cfe42ad1", "is_disabled": 0, "type": "electric_scooter", "lat": 38.90356416666667, "lon": -77.04665933333334, "is_reserved": 0, "fusion_lon": 0.0}, {"rental_uris": {"ios": "https://dc.lft.to/lastmile_qr_scan", "android": "https://dc.lft.to/lastmile_qr_scan"}, "fusion_lat": 0.0, "name": "8d6ce97a9ae1a468204325be7bc2420c", "bike_id": "8d6ce97a9ae1a468204325be7bc2420c", "is_disabled": 0, "type": "electric_scooter", "lat": 38.91739583333333, "lon": -77.023809, "is_reserved": 0, "fusion_lon": 0.0}, {"rental_uris": {"ios": "https://dc.lft.to/lastmile_qr_scan", "android": "https://dc.lft.to/lastmile_qr_scan"}, "fusion_lat": 0.0, "name": "c91811c3b511a03d017045d2919153df", "bike_id": "c91811c3b511a03d017045d2919153df", "is_disabled": 0, "type": "electric_scooter", "lat": 38.90405366666667, "lon": -76.97329566666667, "is_reserved": 0, "fusion_lon": 0.0}, {"rental_uris": {"ios": "https://dc.lft.to/lastmile_qr_scan", "android": "https://dc.lft.to/lastmile_qr_scan"}, "fusion_lat": 0.0, "name": "30a393580c7281725f0efa227c49ed6a", "bike_id": "30a393580c7281725f0efa227c49ed6a", "is_disabled": 0, "type": "electric_scooter", "lat": 38.924760166666665, "lon": -77.03557283333333, "is_reserved": 0, "fusion_lon": 0.0}, {"rental_uris": {"ios": "https://dc.lft.to/lastmile_qr_scan", "android": "https://dc.lft.to/lastmile_qr_scan"}, "fusion_lat": 0.0, "name": "52d77f39ddad4c76cbed6a5e477ecd30", "bike_id": "52d77f39ddad4c76cbed6a5e477ecd30", "is_disabled": 0, "type": "electric_scooter", "lat": 38.87569583333333, "lon": -77.02073116666666, "is_reserved": 0, "fusion_lon": 0.0}, {"rental_uris": {"ios": "https://dc.lft.to/lastmile_qr_scan", "android": "https://dc.lft.to/lastmile_qr_scan"}, "fusion_lat": 0.0, "name": "e2a54f505aa756319f2f05a538fe4669", "bike_id": "e2a54f505aa756319f2f05a538fe4669", "is_disabled": 0, "type": "electric_scooter", "lat": 38.913401, "lon": -77.04887933333333, "is_reserved": 0, "fusion_lon": 0.0}, {"rental_uris": {"ios": "https://dc.lft.to/lastmile_qr_scan", "android": "https://dc.lft.to/lastmile_qr_scan"}, "fusion_lat": 0.0, "name": "92f6bebe46540a4e9e26092d7f494bb9", "bike_id": "92f6bebe46540a4e9e26092d7f494bb9", "is_disabled": 0, "type": "electric_scooter", "lat": 38.906804, "lon": -77.02693766666667, "is_reserved": 0, "fusion_lon": 0.0}, {"rental_uris": {"ios": "https://dc.lft.to/lastmile_qr_scan", "android": "https://dc.lft.to/lastmile_qr_scan"}, "fusion_lat": 0.0, "name": "d70065e536e74a5f758eb98898214bcf", "bike_id": "d70065e536e74a5f758eb98898214bcf", "is_disabled": 0, "type": "electric_scooter", "lat": 38.935516166666666, "lon": -77.02224033333333, "is_reserved": 0, "fusion_lon": 0.0}, {"rental_uris": {"ios": "https://dc.lft.to/lastmile_qr_scan", "android": "https://dc.lft.to/lastmile_qr_scan"}, "fusion_lat": 0.0, "name": "4101121508648af3009fdb588c036f9c", "bike_id": "4101121508648af3009fdb588c036f9c", "is_disabled": 0, "type": "electric_bike", "lat": 38.96281366666667, "lon": -76.98294883333334, "is_reserved": 0, "fusion_lon": 0.0}, {"rental_uris": {"ios": "https://dc.lft.to/lastmile_qr_scan", "android": "https://dc.lft.to/lastmile_qr_scan"}, "fusion_lat": 0.0, "name": "8cada2038f724bb9a9f3598e582082f2", "bike_id": "8cada2038f724bb9a9f3598e582082f2", "is_disabled": 0, "type": "electric_scooter", "lat": 38.936054166666665, "lon": -77.0585635, "is_reserved": 0, "fusion_lon": 0.0}, {"rental_uris": {"ios": "https://dc.lft.to/lastmile_qr_scan", "android": "https://dc.lft.to/lastmile_qr_scan"}, "fusion_lat": 0.0, "name": "23d6065777a9b00f657dbe89de2b6062", "bike_id": "23d6065777a9b00f657dbe89de2b6062", "is_disabled": 0, "type": "electric_scooter", "lat": 38.86957, "lon": -76.96681416666667, "is_reserved": 0, "fusion_lon": 0.0}, {"rental_uris": {"ios": "https://dc.lft.to/lastmile_qr_scan", "android": "https://dc.lft.to/lastmile_qr_scan"}, "fusion_lat": 0.0, "name": "f7008fc1f5b343fb9a8e3f4f26452a08", "bike_id": "f7008fc1f5b343fb9a8e3f4f26452a08", "is_disabled": 0, "type": "electric_scooter", "lat": 38.930118666666665, "lon": -77.0553075, "is_reserved": 0, "fusion_lon": 0.0}, {"rental_uris": {"ios": "https://dc.lft.to/lastmile_qr_scan", "android": "https://dc.lft.to/lastmile_qr_scan"}, "fusion_lat": 0.0, "name": "76762d4afa437883cabf7f0eebd9bb92", "bike_id": "76762d4afa437883cabf7f0eebd9bb92", "is_disabled": 0, "type": "electric_bike", "lat": 38.8638685, "lon": -76.989921, "is_reserved": 0, "fusion_lon": 0.0}, {"rental_uris": {"ios": "https://dc.lft.to/lastmile_qr_scan", "android": "https://dc.lft.to/lastmile_qr_scan"}, "fusion_lat": 0.0, "name": "5e3e6bf414960ca744eb9d6b8141009a", "bike_id": "5e3e6bf414960ca744eb9d6b8141009a", "is_disabled": 0, "type": "electric_scooter", "lat": 38.95423816666667, "lon": -77.0276465, "is_reserved": 0, "fusion_lon": 0.0}, {"rental_uris": {"ios": "https://dc.lft.to/lastmile_qr_scan", "android": "https://dc.lft.to/lastmile_qr_scan"}, "fusion_lat": 0.0, "name": "8572714b7f8d9dcd83809e378b603419", "bike_id": "8572714b7f8d9dcd83809e378b603419", "is_disabled": 0, "type": "electric_scooter", "lat": 38.93194666666667, "lon": -77.0330535, "is_reserved": 0, "fusion_lon": 0.0}, {"rental_uris": {"ios": "https://dc.lft.to/lastmile_qr_scan", "android": "https://dc.lft.to/lastmile_qr_scan"}, "fusion_lat": 0.0, "name": "84b0d04ca76d012210b1862fea84eceb", "bike_id": "84b0d04ca76d012210b1862fea84eceb", "is_disabled": 0, "type": "electric_scooter", "lat": 38.88732266666667, "lon": -77.02826183333333, "is_reserved": 0, "fusion_lon": 0.0}, {"rental_uris": {"ios": "https://dc.lft.to/lastmile_qr_scan", "android": "https://dc.lft.to/lastmile_qr_scan"}, "fusion_lat": 0.0, "name": "e049218db6ae1cf22173300ab0990264", "bike_id": "e049218db6ae1cf22173300ab0990264", "is_disabled": 0, "type": "electric_scooter", "lat": 38.902692333333334, "lon": -77.03443, "is_reserved": 0, "fusion_lon": 0.0}, {"rental_uris": {"ios": "https://dc.lft.to/lastmile_qr_scan", "android": "https://dc.lft.to/lastmile_qr_scan"}, "fusion_lat": 0.0, "name": "19035d166cbdb23501ebfac485c04681", "bike_id": "19035d166cbdb23501ebfac485c04681", "is_disabled": 0, "type": "electric_scooter", "lat": 38.92444166666667, "lon": -77.04104283333334, "is_reserved": 0, "fusion_lon": 0.0}, {"rental_uris": {"ios": "https://dc.lft.to/lastmile_qr_scan", "android": "https://dc.lft.to/lastmile_qr_scan"}, "fusion_lat": 0.0, "name": "d2493b23f17c91a222397378c8f5a517", "bike_id": "d2493b23f17c91a222397378c8f5a517", "is_disabled": 0, "type": "electric_scooter", "lat": 38.918685333333336, "lon": -76.96543283333334, "is_reserved": 0, "fusion_lon": 0.0}, {"rental_uris": {"ios": "https://dc.lft.to/lastmile_qr_scan", "android": "https://dc.lft.to/lastmile_qr_scan"}, "fusion_lat": 0.0, "name": "7aee4f4328a9578e76cdd82abaabe407", "bike_id": "7aee4f4328a9578e76cdd82abaabe407", "is_disabled": 0, "type": "electric_scooter", "lat": 38.902647, "lon": -77.044975, "is_reserved": 0, "fusion_lon": 0.0}, {"rental_uris": {"ios": "https://dc.lft.to/lastmile_qr_scan", "android": "https://dc.lft.to/lastmile_qr_scan"}, "fusion_lat": 0.0, "name": "fc625d05760c9461353c7144e7369bcb", "bike_id": "fc625d05760c9461353c7144e7369bcb", "is_disabled": 0, "type": "electric_scooter", "lat": 38.86364583333334, "lon": -76.99033533333333, "is_reserved": 0, "fusion_lon": 0.0}, {"rental_uris": {"ios": "https://dc.lft.to/lastmile_qr_scan", "android": "https://dc.lft.to/lastmile_qr_scan"}, "fusion_lat": 0.0, "name": "87dca4993423c4bbdd65a86e3cb0aa48", "bike_id": "87dca4993423c4bbdd65a86e3cb0aa48", "is_disabled": 0, "type": "electric_scooter", "lat": 38.88408483333333, "lon": -77.0176135, "is_reserved": 0, "fusion_lon": 0.0}, {"rental_uris": {"ios": "https://dc.lft.to/lastmile_qr_scan", "android": "https://dc.lft.to/lastmile_qr_scan"}, "fusion_lat": 0.0, "name": "83de3294674731b4d83ada4219d7aa31", "bike_id": "83de3294674731b4d83ada4219d7aa31", "is_disabled": 0, "type": "electric_scooter", "lat": 38.9022745, "lon": -77.04346866666667, "is_reserved": 0, "fusion_lon": 0.0}, {"rental_uris": {"ios": "https://dc.lft.to/lastmile_qr_scan", "android": "https://dc.lft.to/lastmile_qr_scan"}, "fusion_lat": 0.0, "name": "243a18f9c376a0273928b41f9c08e5bb", "bike_id": "243a18f9c376a0273928b41f9c08e5bb", "is_disabled": 0, "type": "electric_scooter", "lat": 38.91847933333333, "lon": -77.00915183333333, "is_reserved": 0, "fusion_lon": 0.0}, {"rental_uris": {"ios": "https://dc.lft.to/lastmile_qr_scan", "android": "https://dc.lft.to/lastmile_qr_scan"}, "fusion_lat": 0.0, "name": "99b5ad6ffb30a48c58630ba9d8ab2625", "bike_id": "99b5ad6ffb30a48c58630ba9d8ab2625", "is_disabled": 0, "type": "electric_bike", "lat": 38.80225383333333, "lon": -77.0791725, "is_reserved": 0, "fusion_lon": 0.0}, {"rental_uris": {"ios": "https://dc.lft.to/lastmile_qr_scan", "android": "https://dc.lft.to/lastmile_qr_scan"}, "fusion_lat": 0.0, "name": "a05b55258cab3d80e4ef4f287fa59374", "bike_id": "a05b55258cab3d80e4ef4f287fa59374", "is_disabled": 0, "type": "electric_bike", "lat": 38.84273816666666, "lon": -76.9884315, "is_reserved": 0, "fusion_lon": 0.0}, {"rental_uris": {"ios": "https://dc.lft.to/lastmile_qr_scan", "android": "https://dc.lft.to/lastmile_qr_scan"}, "fusion_lat": 0.0, "name": "44d81bb01f344c9c31d7bde3b1ced12e", "bike_id": "44d81bb01f344c9c31d7bde3b1ced12e", "is_disabled": 0, "type": "electric_scooter", "lat": 38.930564333333336, "lon": -77.02324483333334, "is_reserved": 0, "fusion_lon": 0.0}, {"rental_uris": {"ios": "https://dc.lft.to/lastmile_qr_scan", "android": "https://dc.lft.to/lastmile_qr_scan"}, "fusion_lat": 0.0, "name": "4cbe876b8f0d557957e97ddf995385c5", "bike_id": "4cbe876b8f0d557957e97ddf995385c5", "is_disabled": 0, "type": "electric_scooter", "lat": 38.917048, "lon": -77.03884183333334, "is_reserved": 0, "fusion_lon": 0.0}, {"rental_uris": {"ios": "https://dc.lft.to/lastmile_qr_scan", "android": "https://dc.lft.to/lastmile_qr_scan"}, "fusion_lat": 0.0, "name": "254c174305d6645f47dfafa2819adc9f", "bike_id": "254c174305d6645f47dfafa2819adc9f", "is_disabled": 0, "type": "electric_scooter", "lat": 38.9040985, "lon": -77.0434295, "is_reserved": 0, "fusion_lon": 0.0}, {"rental_uris": {"ios": "https://dc.lft.to/lastmile_qr_scan", "android": "https://dc.lft.to/lastmile_qr_scan"}, "fusion_lat": 0.0, "name": "039995590816544601ce80729f80b8b6", "bike_id": "039995590816544601ce80729f80b8b6", "is_disabled": 0, "type": "electric_scooter", "lat": 38.89344583333333, "lon": -77.0116785, "is_reserved": 0, "fusion_lon": 0.0}, {"rental_uris": {"ios": "https://dc.lft.to/lastmile_qr_scan", "android": "https://dc.lft.to/lastmile_qr_scan"}, "fusion_lat": 0.0, "name": "fd92938b26b11cb8439f971ad22c0518", "bike_id": "fd92938b26b11cb8439f971ad22c0518", "is_disabled": 0, "type": "electric_scooter", "lat": 38.93292783333333, "lon": -77.04531983333334, "is_reserved": 0, "fusion_lon": 0.0}, {"rental_uris": {"ios": "https://dc.lft.to/lastmile_qr_scan", "android": "https://dc.lft.to/lastmile_qr_scan"}, "fusion_lat": 0.0, "name": "1f137ff40f4c364ca9a80f8068107990", "bike_id": "1f137ff40f4c364ca9a80f8068107990", "is_disabled": 0, "type": "electric_scooter", "lat": 38.95400466666667, "lon": -77.02794483333334, "is_reserved": 0, "fusion_lon": 0.0}, {"rental_uris": {"ios": "https://dc.lft.to/lastmile_qr_scan", "android": "https://dc.lft.to/lastmile_qr_scan"}, "fusion_lat": 0.0, "name": "18ddbf85772549f53383ca6532aedea2", "bike_id": "18ddbf85772549f53383ca6532aedea2", "is_disabled": 0, "type": "electric_scooter", "lat": 38.9577685, "lon": -77.02746483333334, "is_reserved": 0, "fusion_lon": 0.0}, {"rental_uris": {"ios": "https://dc.lft.to/lastmile_qr_scan", "android": "https://dc.lft.to/lastmile_qr_scan"}, "fusion_lat": 0.0, "name": "4bc28eec80d0ea939f03f1ad944124ca", "bike_id": "4bc28eec80d0ea939f03f1ad944124ca", "is_disabled": 0, "type": "electric_scooter", "lat": 38.923456333333334, "lon": -77.05124833333333, "is_reserved": 0, "fusion_lon": 0.0}, {"rental_uris": {"ios": "https://dc.lft.to/lastmile_qr_scan", "android": "https://dc.lft.to/lastmile_qr_scan"}, "fusion_lat": 0.0, "name": "42f0cf6245dcc99a7ac1228cf91d700e", "bike_id": "42f0cf6245dcc99a7ac1228cf91d700e", "is_disabled": 0, "type": "electric_scooter", "lat": 38.91554, "lon": -77.02219316666667, "is_reserved": 0, "fusion_lon": 0.0}, {"rental_uris": {"ios": "https://dc.lft.to/lastmile_qr_scan", "android": "https://dc.lft.to/lastmile_qr_scan"}, "fusion_lat": 0.0, "name": "2fe5f2acba2f5b3b0143c40d6eb8ec80", "bike_id": "2fe5f2acba2f5b3b0143c40d6eb8ec80", "is_disabled": 0, "type": "electric_scooter", "lat": 38.916806333333334, "lon": -77.02968616666666, "is_reserved": 0, "fusion_lon": 0.0}, {"rental_uris": {"ios": "https://dc.lft.to/lastmile_qr_scan", "android": "https://dc.lft.to/lastmile_qr_scan"}, "fusion_lat": 0.0, "name": "bdeb4e7402eee679772c4078d3f03059", "bike_id": "bdeb4e7402eee679772c4078d3f03059", "is_disabled": 0, "type": "electric_scooter", "lat": 38.906735166666664, "lon": -77.03804183333334, "is_reserved": 0, "fusion_lon": 0.0}, {"rental_uris": {"ios": "https://dc.lft.to/lastmile_qr_scan", "android": "https://dc.lft.to/lastmile_qr_scan"}, "fusion_lat": 0.0, "name": "568efb28d90a667e77fbdaf77debe683", "bike_id": "568efb28d90a667e77fbdaf77debe683", "is_disabled": 0, "type": "electric_scooter", "lat": 38.9126965, "lon": -77.03646366666666, "is_reserved": 0, "fusion_lon": 0.0}, {"rental_uris": {"ios": "https://dc.lft.to/lastmile_qr_scan", "android": "https://dc.lft.to/lastmile_qr_scan"}, "fusion_lat": 0.0, "name": "afa5867c8040773933db577d4e41d172", "bike_id": "afa5867c8040773933db577d4e41d172", "is_disabled": 0, "type": "electric_scooter", "lat": 38.93825416666667, "lon": -76.98614616666667, "is_reserved": 0, "fusion_lon": 0.0}, {"rental_uris": {"ios": "https://dc.lft.to/lastmile_qr_scan", "android": "https://dc.lft.to/lastmile_qr_scan"}, "fusion_lat": 0.0, "name": "43188845cb4ffcdf03f0fffabc500746", "bike_id": "43188845cb4ffcdf03f0fffabc500746", "is_disabled": 0, "type": "electric_scooter", "lat": 38.910537166666664, "lon": -77.04333533333333, "is_reserved": 0, "fusion_lon": 0.0}, {"rental_uris": {"ios": "https://dc.lft.to/lastmile_qr_scan", "android": "https://dc.lft.to/lastmile_qr_scan"}, "fusion_lat": 0.0, "name": "efa9761867a584b59c3fb7f7a25d0a1a", "bike_id": "efa9761867a584b59c3fb7f7a25d0a1a", "is_disabled": 0, "type": "electric_scooter", "lat": 38.9152265, "lon": -77.018426, "is_reserved": 0, "fusion_lon": 0.0}, {"rental_uris": {"ios": "https://dc.lft.to/lastmile_qr_scan", "android": "https://dc.lft.to/lastmile_qr_scan"}, "fusion_lat": 0.0, "name": "8eb1ff45dad8d65b0b48a891c4ac979e", "bike_id": "8eb1ff45dad8d65b0b48a891c4ac979e", "is_disabled": 0, "type": "electric_scooter", "lat": 38.89220533333334, "lon": -77.04800616666667, "is_reserved": 0, "fusion_lon": 0.0}, {"rental_uris": {"ios": "https://dc.lft.to/lastmile_qr_scan", "android": "https://dc.lft.to/lastmile_qr_scan"}, "fusion_lat": 0.0, "name": "23fcca849db78e4e31af252443552754", "bike_id": "23fcca849db78e4e31af252443552754", "is_disabled": 0, "type": "electric_scooter", "lat": 38.9023215, "lon": -77.01764166666666, "is_reserved": 0, "fusion_lon": 0.0}, {"rental_uris": {"ios": "https://dc.lft.to/lastmile_qr_scan", "android": "https://dc.lft.to/lastmile_qr_scan"}, "fusion_lat": 0.0, "name": "f96b87e438e2e3250ff763a1ecf1ae71", "bike_id": "f96b87e438e2e3250ff763a1ecf1ae71", "is_disabled": 0, "type": "electric_scooter", "lat": 38.915605, "lon": -77.02514766666667, "is_reserved": 0, "fusion_lon": 0.0}, {"rental_uris": {"ios": "https://dc.lft.to/lastmile_qr_scan", "android": "https://dc.lft.to/lastmile_qr_scan"}, "fusion_lat": 0.0, "name": "cbd659289cca492b11f2edd0192a8c48", "bike_id": "cbd659289cca492b11f2edd0192a8c48", "is_disabled": 0, "type": "electric_scooter", "lat": 38.9168555, "lon": -77.02674483333334, "is_reserved": 0, "fusion_lon": 0.0}, {"rental_uris": {"ios": "https://dc.lft.to/lastmile_qr_scan", "android": "https://dc.lft.to/lastmile_qr_scan"}, "fusion_lat": 0.0, "name": "c8919ec3448dfc361a84547515cacda2", "bike_id": "c8919ec3448dfc361a84547515cacda2", "is_disabled": 0, "type": "electric_scooter", "lat": 38.90665333333333, "lon": -77.02698833333334, "is_reserved": 0, "fusion_lon": 0.0}, {"rental_uris": {"ios": "https://dc.lft.to/lastmile_qr_scan", "android": "https://dc.lft.to/lastmile_qr_scan"}, "fusion_lat": 0.0, "name": "5f6006e4bdcc249d6751e9cf8485bb28", "bike_id": "5f6006e4bdcc249d6751e9cf8485bb28", "is_disabled": 0, "type": "electric_scooter", "lat": 38.94958466666667, "lon": -77.02721733333334, "is_reserved": 0, "fusion_lon": 0.0}, {"rental_uris": {"ios": "https://dc.lft.to/lastmile_qr_scan", "android": "https://dc.lft.to/lastmile_qr_scan"}, "fusion_lat": 0.0, "name": "ce1c37995b8fb6a0266682b6199412d6", "bike_id": "ce1c37995b8fb6a0266682b6199412d6", "is_disabled": 0, "type": "electric_scooter", "lat": 38.88571983333333, "lon": -76.91906866666666, "is_reserved": 0, "fusion_lon": 0.0}, {"rental_uris": {"ios": "https://dc.lft.to/lastmile_qr_scan", "android": "https://dc.lft.to/lastmile_qr_scan"}, "fusion_lat": 0.0, "name": "2ce51aa1b77fc4e40e4931371a8931d5", "bike_id": "2ce51aa1b77fc4e40e4931371a8931d5", "is_disabled": 0, "type": "electric_scooter", "lat": 38.909095, "lon": -76.99777616666667, "is_reserved": 0, "fusion_lon": 0.0}, {"rental_uris": {"ios": "https://dc.lft.to/lastmile_qr_scan", "android": "https://dc.lft.to/lastmile_qr_scan"}, "fusion_lat": 0.0, "name": "17b4bc21fb26eebf91d08de6cc230825", "bike_id": "17b4bc21fb26eebf91d08de6cc230825", "is_disabled": 0, "type": "electric_scooter", "lat": 38.898897833333336, "lon": -77.04068783333334, "is_reserved": 0, "fusion_lon": 0.0}, {"rental_uris": {"ios": "https://dc.lft.to/lastmile_qr_scan", "android": "https://dc.lft.to/lastmile_qr_scan"}, "fusion_lat": 0.0, "name": "8d920eb024bafa51ff00aa0078bcb68a", "bike_id": "8d920eb024bafa51ff00aa0078bcb68a", "is_disabled": 0, "type": "electric_scooter", "lat": 38.95164366666667, "lon": -77.02744083333333, "is_reserved": 0, "fusion_lon": 0.0}, {"rental_uris": {"ios": "https://dc.lft.to/lastmile_qr_scan", "android": "https://dc.lft.to/lastmile_qr_scan"}, "fusion_lat": 0.0, "name": "093d331af7709d7ae2e4b2d2367f1701", "bike_id": "093d331af7709d7ae2e4b2d2367f1701", "is_disabled": 0, "type": "electric_scooter", "lat": 38.91818083333333, "lon": -77.038658, "is_reserved": 0, "fusion_lon": 0.0}, {"rental_uris": {"ios": "https://dc.lft.to/lastmile_qr_scan", "android": "https://dc.lft.to/lastmile_qr_scan"}, "fusion_lat": 0.0, "name": "db393be41410b37cac9cc34da9c0e07e", "bike_id": "db393be41410b37cac9cc34da9c0e07e", "is_disabled": 0, "type": "electric_scooter", "lat": 38.9360585, "lon": -77.05859566666666, "is_reserved": 0, "fusion_lon": 0.0}, {"rental_uris": {"ios": "https://dc.lft.to/lastmile_qr_scan", "android": "https://dc.lft.to/lastmile_qr_scan"}, "fusion_lat": 0.0, "name": "6674d227afeae2f346c58278e5f51ade", "bike_id": "6674d227afeae2f346c58278e5f51ade", "is_disabled": 0, "type": "electric_scooter", "lat": 38.923384, "lon": -77.0507615, "is_reserved": 0, "fusion_lon": 0.0}, {"rental_uris": {"ios": "https://dc.lft.to/lastmile_qr_scan", "android": "https://dc.lft.to/lastmile_qr_scan"}, "fusion_lat": 0.0, "name": "7cdf4b3550093946df2feed1f1b2246a", "bike_id": "7cdf4b3550093946df2feed1f1b2246a", "is_disabled": 0, "type": "electric_scooter", "lat": 38.916836, "lon": -77.02810483333333, "is_reserved": 0, "fusion_lon": 0.0}, {"rental_uris": {"ios": "https://dc.lft.to/lastmile_qr_scan", "android": "https://dc.lft.to/lastmile_qr_scan"}, "fusion_lat": 0.0, "name": "06c58fc6f56e74b5ddde2a0581767ecd", "bike_id": "06c58fc6f56e74b5ddde2a0581767ecd", "is_disabled": 0, "type": "electric_scooter", "lat": 38.9014995, "lon": -77.025516, "is_reserved": 0, "fusion_lon": 0.0}, {"rental_uris": {"ios": "https://dc.lft.to/lastmile_qr_scan", "android": "https://dc.lft.to/lastmile_qr_scan"}, "fusion_lat": 0.0, "name": "08b26d1b8386e6348e3adc07020ed46b", "bike_id": "08b26d1b8386e6348e3adc07020ed46b", "is_disabled": 0, "type": "electric_scooter", "lat": 38.9132635, "lon": -77.0383755, "is_reserved": 0, "fusion_lon": 0.0}, {"rental_uris": {"ios": "https://dc.lft.to/lastmile_qr_scan", "android": "https://dc.lft.to/lastmile_qr_scan"}, "fusion_lat": 0.0, "name": "2d6b6d78bd4165c7df7904fd6e854b60", "bike_id": "2d6b6d78bd4165c7df7904fd6e854b60", "is_disabled": 0, "type": "electric_scooter", "lat": 38.9043045, "lon": -77.00209533333333, "is_reserved": 0, "fusion_lon": 0.0}, {"rental_uris": {"ios": "https://dc.lft.to/lastmile_qr_scan", "android": "https://dc.lft.to/lastmile_qr_scan"}, "fusion_lat": 0.0, "name": "c559454f142f757e526f29478758e6ed", "bike_id": "c559454f142f757e526f29478758e6ed", "is_disabled": 0, "type": "electric_scooter", "lat": 38.900165666666666, "lon": -76.99818016666667, "is_reserved": 0, "fusion_lon": 0.0}, {"rental_uris": {"ios": "https://dc.lft.to/lastmile_qr_scan", "android": "https://dc.lft.to/lastmile_qr_scan"}, "fusion_lat": 0.0, "name": "7cc18c2523152417ae0fcd4a664623cf", "bike_id": "7cc18c2523152417ae0fcd4a664623cf", "is_disabled": 0, "type": "electric_scooter", "lat": 38.903944, "lon": -77.04149933333333, "is_reserved": 0, "fusion_lon": 0.0}, {"rental_uris": {"ios": "https://dc.lft.to/lastmile_qr_scan", "android": "https://dc.lft.to/lastmile_qr_scan"}, "fusion_lat": 0.0, "name": "7cb8d55cf2471946118c8371ddbe30dd", "bike_id": "7cb8d55cf2471946118c8371ddbe30dd", "is_disabled": 0, "type": "electric_scooter", "lat": 38.912251166666664, "lon": -77.02794033333333, "is_reserved": 0, "fusion_lon": 0.0}, {"rental_uris": {"ios": "https://dc.lft.to/lastmile_qr_scan", "android": "https://dc.lft.to/lastmile_qr_scan"}, "fusion_lat": 0.0, "name": "0fb0f072760b58bd34e52ce3ca51e132", "bike_id": "0fb0f072760b58bd34e52ce3ca51e132", "is_disabled": 0, "type": "electric_bike", "lat": 38.96201666666666, "lon": -77.03513766666667, "is_reserved": 0, "fusion_lon": 0.0}, {"rental_uris": {"ios": "https://dc.lft.to/lastmile_qr_scan", "android": "https://dc.lft.to/lastmile_qr_scan"}, "fusion_lat": 0.0, "name": "74d21285d6cdc94a1fd084c0b3779dde", "bike_id": "74d21285d6cdc94a1fd084c0b3779dde", "is_disabled": 0, "type": "electric_scooter", "lat": 38.92967683333333, "lon": -77.0300075, "is_reserved": 0, "fusion_lon": 0.0}, {"rental_uris": {"ios": "https://dc.lft.to/lastmile_qr_scan", "android": "https://dc.lft.to/lastmile_qr_scan"}, "fusion_lat": 0.0, "name": "d4a2fa9bea0d6a105901e03f106ec1c1", "bike_id": "d4a2fa9bea0d6a105901e03f106ec1c1", "is_disabled": 0, "type": "electric_scooter", "lat": 38.9173905, "lon": -77.0238475, "is_reserved": 0, "fusion_lon": 0.0}, {"rental_uris": {"ios": "https://dc.lft.to/lastmile_qr_scan", "android": "https://dc.lft.to/lastmile_qr_scan"}, "fusion_lat": 0.0, "name": "f273a2adec4e4e377ab30c83385c7a8b", "bike_id": "f273a2adec4e4e377ab30c83385c7a8b", "is_disabled": 0, "type": "electric_bike", "lat": 38.813488, "lon": -77.049217, "is_reserved": 0, "fusion_lon": 0.0}, {"rental_uris": {"ios": "https://dc.lft.to/lastmile_qr_scan", "android": "https://dc.lft.to/lastmile_qr_scan"}, "fusion_lat": 0.0, "name": "7b68f8f3f3c57c5362da5d787a3daa3c", "bike_id": "7b68f8f3f3c57c5362da5d787a3daa3c", "is_disabled": 0, "type": "electric_scooter", "lat": 38.9083545, "lon": -77.035462, "is_reserved": 0, "fusion_lon": 0.0}, {"rental_uris": {"ios": "https://dc.lft.to/lastmile_qr_scan", "android": "https://dc.lft.to/lastmile_qr_scan"}, "fusion_lat": 0.0, "name": "4d755fdcbafa5e49a16aff1766eee52a", "bike_id": "4d755fdcbafa5e49a16aff1766eee52a", "is_disabled": 0, "type": "electric_scooter", "lat": 38.89922716666667, "lon": -77.0035835, "is_reserved": 0, "fusion_lon": 0.0}, {"rental_uris": {"ios": "https://dc.lft.to/lastmile_qr_scan", "android": "https://dc.lft.to/lastmile_qr_scan"}, "fusion_lat": 0.0, "name": "ce4fbe28f12950f04d52f021e5a7609b", "bike_id": "ce4fbe28f12950f04d52f021e5a7609b", "is_disabled": 0, "type": "electric_scooter", "lat": 38.921487166666665, "lon": -77.03507966666666, "is_reserved": 0, "fusion_lon": 0.0}, {"rental_uris": {"ios": "https://dc.lft.to/lastmile_qr_scan", "android": "https://dc.lft.to/lastmile_qr_scan"}, "fusion_lat": 0.0, "name": "11c457c119e7eeda8fd038d3b1dbd585", "bike_id": "11c457c119e7eeda8fd038d3b1dbd585", "is_disabled": 0, "type": "electric_scooter", "lat": 38.930181833333336, "lon": -77.04452933333333, "is_reserved": 0, "fusion_lon": 0.0}, {"rental_uris": {"ios": "https://dc.lft.to/lastmile_qr_scan", "android": "https://dc.lft.to/lastmile_qr_scan"}, "fusion_lat": 0.0, "name": "d625638345f19337ac02e709c9dd38ef", "bike_id": "d625638345f19337ac02e709c9dd38ef", "is_disabled": 0, "type": "electric_scooter", "lat": 38.89515, "lon": -76.977305, "is_reserved": 0, "fusion_lon": 0.0}, {"rental_uris": {"ios": "https://dc.lft.to/lastmile_qr_scan", "android": "https://dc.lft.to/lastmile_qr_scan"}, "fusion_lat": 0.0, "name": "5e933485f1f7ef19a7d1b569b1c83659", "bike_id": "5e933485f1f7ef19a7d1b569b1c83659", "is_disabled": 0, "type": "electric_scooter", "lat": 38.86495566666667, "lon": -76.989873, "is_reserved": 0, "fusion_lon": 0.0}, {"rental_uris": {"ios": "https://dc.lft.to/lastmile_qr_scan", "android": "https://dc.lft.to/lastmile_qr_scan"}, "fusion_lat": 0.0, "name": "4e7add970ee19b153df8ece492d5df85", "bike_id": "4e7add970ee19b153df8ece492d5df85", "is_disabled": 0, "type": "electric_scooter", "lat": 38.89223966666667, "lon": -77.03162116666667, "is_reserved": 0, "fusion_lon": 0.0}, {"rental_uris": {"ios": "https://dc.lft.to/lastmile_qr_scan", "android": "https://dc.lft.to/lastmile_qr_scan"}, "fusion_lat": 0.0, "name": "a1999208c9f064cce0b63b00dce93797", "bike_id": "a1999208c9f064cce0b63b00dce93797", "is_disabled": 0, "type": "electric_scooter", "lat": 38.895377, "lon": -77.015854, "is_reserved": 0, "fusion_lon": 0.0}, {"rental_uris": {"ios": "https://dc.lft.to/lastmile_qr_scan", "android": "https://dc.lft.to/lastmile_qr_scan"}, "fusion_lat": 0.0, "name": "787a1a000fbb39a265d8982355ddd607", "bike_id": "787a1a000fbb39a265d8982355ddd607", "is_disabled": 0, "type": "electric_scooter", "lat": 38.954214666666665, "lon": -77.0276125, "is_reserved": 0, "fusion_lon": 0.0}, {"rental_uris": {"ios": "https://dc.lft.to/lastmile_qr_scan", "android": "https://dc.lft.to/lastmile_qr_scan"}, "fusion_lat": 0.0, "name": "eed8cdc59593728584f79d910fdb3854", "bike_id": "eed8cdc59593728584f79d910fdb3854", "is_disabled": 0, "type": "electric_scooter", "lat": 38.9445045, "lon": -77.063522, "is_reserved": 0, "fusion_lon": 0.0}, {"rental_uris": {"ios": "https://dc.lft.to/lastmile_qr_scan", "android": "https://dc.lft.to/lastmile_qr_scan"}, "fusion_lat": 0.0, "name": "d3f31489b0d5596917a5abd9b24749bd", "bike_id": "d3f31489b0d5596917a5abd9b24749bd", "is_disabled": 0, "type": "electric_scooter", "lat": 38.8997645, "lon": -76.93993433333333, "is_reserved": 0, "fusion_lon": 0.0}, {"rental_uris": {"ios": "https://dc.lft.to/lastmile_qr_scan", "android": "https://dc.lft.to/lastmile_qr_scan"}, "fusion_lat": 0.0, "name": "c00538911e4637c0a444a5947e011e55", "bike_id": "c00538911e4637c0a444a5947e011e55", "is_disabled": 0, "type": "electric_scooter", "lat": 38.91032283333333, "lon": -77.04260566666666, "is_reserved": 0, "fusion_lon": 0.0}, {"rental_uris": {"ios": "https://dc.lft.to/lastmile_qr_scan", "android": "https://dc.lft.to/lastmile_qr_scan"}, "fusion_lat": 0.0, "name": "1a1905df66d66564e11bc61a38445856", "bike_id": "1a1905df66d66564e11bc61a38445856", "is_disabled": 0, "type": "electric_scooter", "lat": 38.9495885, "lon": -77.02725366666667, "is_reserved": 0, "fusion_lon": 0.0}, {"rental_uris": {"ios": "https://dc.lft.to/lastmile_qr_scan", "android": "https://dc.lft.to/lastmile_qr_scan"}, "fusion_lat": 0.0, "name": "f5ecfcb5416a0fe2cb3913cbdb87eda4", "bike_id": "f5ecfcb5416a0fe2cb3913cbdb87eda4", "is_disabled": 0, "type": "electric_scooter", "lat": 38.90734883333333, "lon": -77.02709583333333, "is_reserved": 0, "fusion_lon": 0.0}, {"rental_uris": {"ios": "https://dc.lft.to/lastmile_qr_scan", "android": "https://dc.lft.to/lastmile_qr_scan"}, "fusion_lat": 0.0, "name": "b32bbaf13c187622ac7f2bbe76b12480", "bike_id": "b32bbaf13c187622ac7f2bbe76b12480", "is_disabled": 0, "type": "electric_scooter", "lat": 38.9516525, "lon": -77.02751433333333, "is_reserved": 0, "fusion_lon": 0.0}, {"rental_uris": {"ios": "https://dc.lft.to/lastmile_qr_scan", "android": "https://dc.lft.to/lastmile_qr_scan"}, "fusion_lat": 0.0, "name": "287c41b6e7a019a70627df4f99e01b86", "bike_id": "287c41b6e7a019a70627df4f99e01b86", "is_disabled": 0, "type": "electric_scooter", "lat": 38.919062833333335, "lon": -77.02478916666666, "is_reserved": 0, "fusion_lon": 0.0}, {"rental_uris": {"ios": "https://dc.lft.to/lastmile_qr_scan", "android": "https://dc.lft.to/lastmile_qr_scan"}, "fusion_lat": 0.0, "name": "09eeb186ad309d8d2ea496728ceb63e0", "bike_id": "09eeb186ad309d8d2ea496728ceb63e0", "is_disabled": 0, "type": "electric_scooter", "lat": 38.926966666666665, "lon": -77.02582683333333, "is_reserved": 0, "fusion_lon": 0.0}, {"rental_uris": {"ios": "https://dc.lft.to/lastmile_qr_scan", "android": "https://dc.lft.to/lastmile_qr_scan"}, "fusion_lat": 0.0, "name": "39874caa473afa594ff2383fef4f9133", "bike_id": "39874caa473afa594ff2383fef4f9133", "is_disabled": 0, "type": "electric_scooter", "lat": 38.9156715, "lon": -77.020021, "is_reserved": 0, "fusion_lon": 0.0}, {"rental_uris": {"ios": "https://dc.lft.to/lastmile_qr_scan", "android": "https://dc.lft.to/lastmile_qr_scan"}, "fusion_lat": 0.0, "name": "7611b569294cadcc490af2b166693fb3", "bike_id": "7611b569294cadcc490af2b166693fb3", "is_disabled": 0, "type": "electric_scooter", "lat": 38.89578566666667, "lon": -77.02967416666667, "is_reserved": 0, "fusion_lon": 0.0}, {"rental_uris": {"ios": "https://dc.lft.to/lastmile_qr_scan", "android": "https://dc.lft.to/lastmile_qr_scan"}, "fusion_lat": 0.0, "name": "bc0d5791879f92f5f1efadf9fac1ccca", "bike_id": "bc0d5791879f92f5f1efadf9fac1ccca", "is_disabled": 0, "type": "electric_scooter", "lat": 38.912206166666664, "lon": -77.041124, "is_reserved": 0, "fusion_lon": 0.0}, {"rental_uris": {"ios": "https://dc.lft.to/lastmile_qr_scan", "android": "https://dc.lft.to/lastmile_qr_scan"}, "fusion_lat": 0.0, "name": "47065fc8162c0f61800926650dd0a821", "bike_id": "47065fc8162c0f61800926650dd0a821", "is_disabled": 0, "type": "electric_scooter", "lat": 38.901178333333334, "lon": -77.0336525, "is_reserved": 0, "fusion_lon": 0.0}, {"rental_uris": {"ios": "https://dc.lft.to/lastmile_qr_scan", "android": "https://dc.lft.to/lastmile_qr_scan"}, "fusion_lat": 0.0, "name": "a7683239022d432a2a3e0d95a811d201", "bike_id": "a7683239022d432a2a3e0d95a811d201", "is_disabled": 0, "type": "electric_scooter", "lat": 38.86689166666667, "lon": -76.98547, "is_reserved": 0, "fusion_lon": 0.0}, {"rental_uris": {"ios": "https://dc.lft.to/lastmile_qr_scan", "android": "https://dc.lft.to/lastmile_qr_scan"}, "fusion_lat": 0.0, "name": "c89da11753f3877b49642368070da962", "bike_id": "c89da11753f3877b49642368070da962", "is_disabled": 0, "type": "electric_scooter", "lat": 38.84075133333333, "lon": -76.98927566666667, "is_reserved": 0, "fusion_lon": 0.0}, {"rental_uris": {"ios": "https://dc.lft.to/lastmile_qr_scan", "android": "https://dc.lft.to/lastmile_qr_scan"}, "fusion_lat": 0.0, "name": "dcc9da7ffe7df49009237d0bb7cedab2", "bike_id": "dcc9da7ffe7df49009237d0bb7cedab2", "is_disabled": 0, "type": "electric_scooter", "lat": 38.89222383333333, "lon": -77.04323916666667, "is_reserved": 0, "fusion_lon": 0.0}, {"rental_uris": {"ios": "https://dc.lft.to/lastmile_qr_scan", "android": "https://dc.lft.to/lastmile_qr_scan"}, "fusion_lat": 0.0, "name": "b7b9f8e8cc3c02091aa43917c938a3cd", "bike_id": "b7b9f8e8cc3c02091aa43917c938a3cd", "is_disabled": 0, "type": "electric_scooter", "lat": 38.89227983333333, "lon": -77.028047, "is_reserved": 0, "fusion_lon": 0.0}, {"rental_uris": {"ios": "https://dc.lft.to/lastmile_qr_scan", "android": "https://dc.lft.to/lastmile_qr_scan"}, "fusion_lat": 0.0, "name": "62a422b825230c0f0be125735297fc79", "bike_id": "62a422b825230c0f0be125735297fc79", "is_disabled": 0, "type": "electric_scooter", "lat": 38.91563716666667, "lon": -77.03865733333333, "is_reserved": 0, "fusion_lon": 0.0}, {"rental_uris": {"ios": "https://dc.lft.to/lastmile_qr_scan", "android": "https://dc.lft.to/lastmile_qr_scan"}, "fusion_lat": 0.0, "name": "aee812d7803132f0f1fb5f76b4e6a8aa", "bike_id": "aee812d7803132f0f1fb5f76b4e6a8aa", "is_disabled": 0, "type": "electric_scooter", "lat": 38.91709683333333, "lon": -77.03886383333334, "is_reserved": 0, "fusion_lon": 0.0}, {"rental_uris": {"ios": "https://dc.lft.to/lastmile_qr_scan", "android": "https://dc.lft.to/lastmile_qr_scan"}, "fusion_lat": 0.0, "name": "1e00b100ce5f912dea23ba3ab5bc24f7", "bike_id": "1e00b100ce5f912dea23ba3ab5bc24f7", "is_disabled": 0, "type": "electric_scooter", "lat": 38.8922925, "lon": -77.033789, "is_reserved": 0, "fusion_lon": 0.0}, {"rental_uris": {"ios": "https://dc.lft.to/lastmile_qr_scan", "android": "https://dc.lft.to/lastmile_qr_scan"}, "fusion_lat": 0.0, "name": "c2c92297f0422c4041108450285099cb", "bike_id": "c2c92297f0422c4041108450285099cb", "is_disabled": 0, "type": "electric_scooter", "lat": 38.914139166666665, "lon": -77.047433, "is_reserved": 0, "fusion_lon": 0.0}, {"rental_uris": {"ios": "https://dc.lft.to/lastmile_qr_scan", "android": "https://dc.lft.to/lastmile_qr_scan"}, "fusion_lat": 0.0, "name": "69821c9d5a9e55fb43ed6b36612aee17", "bike_id": "69821c9d5a9e55fb43ed6b36612aee17", "is_disabled": 0, "type": "electric_scooter", "lat": 38.91171683333334, "lon": -77.031896, "is_reserved": 0, "fusion_lon": 0.0}, {"rental_uris": {"ios": "https://dc.lft.to/lastmile_qr_scan", "android": "https://dc.lft.to/lastmile_qr_scan"}, "fusion_lat": 0.0, "name": "79fe0b8988d2851d25b660ebb49f1f0a", "bike_id": "79fe0b8988d2851d25b660ebb49f1f0a", "is_disabled": 0, "type": "electric_scooter", "lat": 38.88412816666667, "lon": -76.942052, "is_reserved": 0, "fusion_lon": 0.0}, {"rental_uris": {"ios": "https://dc.lft.to/lastmile_qr_scan", "android": "https://dc.lft.to/lastmile_qr_scan"}, "fusion_lat": 0.0, "name": "d6b202321cabd784c19bb4f67be7b01f", "bike_id": "d6b202321cabd784c19bb4f67be7b01f", "is_disabled": 0, "type": "electric_scooter", "lat": 38.9185505, "lon": -77.038961, "is_reserved": 0, "fusion_lon": 0.0}, {"rental_uris": {"ios": "https://dc.lft.to/lastmile_qr_scan", "android": "https://dc.lft.to/lastmile_qr_scan"}, "fusion_lat": 0.0, "name": "c52bbc0d0e5fb71af69446e12ceb94c5", "bike_id": "c52bbc0d0e5fb71af69446e12ceb94c5", "is_disabled": 0, "type": "electric_scooter", "lat": 38.91106633333333, "lon": -77.04476183333334, "is_reserved": 0, "fusion_lon": 0.0}, {"rental_uris": {"ios": "https://dc.lft.to/lastmile_qr_scan", "android": "https://dc.lft.to/lastmile_qr_scan"}, "fusion_lat": 0.0, "name": "276d38b5b58b4e373e1f02f4b0890dba", "bike_id": "276d38b5b58b4e373e1f02f4b0890dba", "is_disabled": 0, "type": "electric_scooter", "lat": 38.87628983333333, "lon": -76.96521233333333, "is_reserved": 0, "fusion_lon": 0.0}, {"rental_uris": {"ios": "https://dc.lft.to/lastmile_qr_scan", "android": "https://dc.lft.to/lastmile_qr_scan"}, "fusion_lat": 0.0, "name": "a04b6823de61538c99316d337f6486ac", "bike_id": "a04b6823de61538c99316d337f6486ac", "is_disabled": 0, "type": "electric_bike", "lat": 38.87373516666667, "lon": -77.1179995, "is_reserved": 0, "fusion_lon": 0.0}, {"rental_uris": {"ios": "https://dc.lft.to/lastmile_qr_scan", "android": "https://dc.lft.to/lastmile_qr_scan"}, "fusion_lat": 0.0, "name": "da4b8cdb71759b144a479311247f4cc0", "bike_id": "da4b8cdb71759b144a479311247f4cc0", "is_disabled": 0, "type": "electric_scooter", "lat": 38.926763666666666, "lon": -77.0155475, "is_reserved": 0, "fusion_lon": 0.0}, {"rental_uris": {"ios": "https://dc.lft.to/lastmile_qr_scan", "android": "https://dc.lft.to/lastmile_qr_scan"}, "fusion_lat": 0.0, "name": "d825dbb760d04adbb6d017020ab7bda4", "bike_id": "d825dbb760d04adbb6d017020ab7bda4", "is_disabled": 0, "type": "electric_bike", "lat": 38.969279, "lon": -77.02619966666667, "is_reserved": 0, "fusion_lon": 0.0}, {"rental_uris": {"ios": "https://dc.lft.to/lastmile_qr_scan", "android": "https://dc.lft.to/lastmile_qr_scan"}, "fusion_lat": 0.0, "name": "ec42277638fcbda74a7e4a139cfc53a0", "bike_id": "ec42277638fcbda74a7e4a139cfc53a0", "is_disabled": 0, "type": "electric_bike", "lat": 38.91490116666667, "lon": -77.02805533333333, "is_reserved": 0, "fusion_lon": 0.0}, {"rental_uris": {"ios": "https://dc.lft.to/lastmile_qr_scan", "android": "https://dc.lft.to/lastmile_qr_scan"}, "fusion_lat": 0.0, "name": "8b6087316dcbac162002704f1b0d907a", "bike_id": "8b6087316dcbac162002704f1b0d907a", "is_disabled": 0, "type": "electric_scooter", "lat": 38.916915833333334, "lon": -77.03527366666667, "is_reserved": 0, "fusion_lon": 0.0}, {"rental_uris": {"ios": "https://dc.lft.to/lastmile_qr_scan", "android": "https://dc.lft.to/lastmile_qr_scan"}, "fusion_lat": 0.0, "name": "c1eb4ece18e77276141467d0b0cfebe7", "bike_id": "c1eb4ece18e77276141467d0b0cfebe7", "is_disabled": 0, "type": "electric_scooter", "lat": 38.9064585, "lon": -77.03861216666667, "is_reserved": 0, "fusion_lon": 0.0}, {"rental_uris": {"ios": "https://dc.lft.to/lastmile_qr_scan", "android": "https://dc.lft.to/lastmile_qr_scan"}, "fusion_lat": 0.0, "name": "e39a033d71069bff662037952b3de0df", "bike_id": "e39a033d71069bff662037952b3de0df", "is_disabled": 0, "type": "electric_scooter", "lat": 38.876266333333334, "lon": -76.96527733333333, "is_reserved": 0, "fusion_lon": 0.0}, {"rental_uris": {"ios": "https://dc.lft.to/lastmile_qr_scan", "android": "https://dc.lft.to/lastmile_qr_scan"}, "fusion_lat": 0.0, "name": "6a693ddb335d11591295f51ad84c2d17", "bike_id": "6a693ddb335d11591295f51ad84c2d17", "is_disabled": 0, "type": "electric_scooter", "lat": 38.93608566666666, "lon": -77.05857683333333, "is_reserved": 0, "fusion_lon": 0.0}, {"rental_uris": {"ios": "https://dc.lft.to/lastmile_qr_scan", "android": "https://dc.lft.to/lastmile_qr_scan"}, "fusion_lat": 0.0, "name": "d3e274f9c5c8b1283226348574b6bf15", "bike_id": "d3e274f9c5c8b1283226348574b6bf15", "is_disabled": 0, "type": "electric_scooter", "lat": 38.91681116666667, "lon": -77.02284383333334, "is_reserved": 0, "fusion_lon": 0.0}, {"rental_uris": {"ios": "https://dc.lft.to/lastmile_qr_scan", "android": "https://dc.lft.to/lastmile_qr_scan"}, "fusion_lat": 0.0, "name": "d0d3337376882a602c55605fa53c381e", "bike_id": "d0d3337376882a602c55605fa53c381e", "is_disabled": 0, "type": "electric_scooter", "lat": 38.937153333333335, "lon": -77.02419233333333, "is_reserved": 0, "fusion_lon": 0.0}, {"rental_uris": {"ios": "https://dc.lft.to/lastmile_qr_scan", "android": "https://dc.lft.to/lastmile_qr_scan"}, "fusion_lat": 0.0, "name": "24cd0c6fa07634e97c7860fe02215dac", "bike_id": "24cd0c6fa07634e97c7860fe02215dac", "is_disabled": 0, "type": "electric_scooter", "lat": 38.91708783333333, "lon": -77.03501966666667, "is_reserved": 0, "fusion_lon": 0.0}, {"rental_uris": {"ios": "https://dc.lft.to/lastmile_qr_scan", "android": "https://dc.lft.to/lastmile_qr_scan"}, "fusion_lat": 0.0, "name": "511349bd75ed8046692bfd1c0e57d80a", "bike_id": "511349bd75ed8046692bfd1c0e57d80a", "is_disabled": 0, "type": "electric_scooter", "lat": 38.915541166666664, "lon": -77.02413766666666, "is_reserved": 0, "fusion_lon": 0.0}, {"rental_uris": {"ios": "https://dc.lft.to/lastmile_qr_scan", "android": "https://dc.lft.to/lastmile_qr_scan"}, "fusion_lat": 0.0, "name": "169f1bbfeaf614151fd8bf3508e3b444", "bike_id": "169f1bbfeaf614151fd8bf3508e3b444", "is_disabled": 0, "type": "electric_scooter", "lat": 38.94958883333334, "lon": -77.02722416666667, "is_reserved": 0, "fusion_lon": 0.0}, {"rental_uris": {"ios": "https://dc.lft.to/lastmile_qr_scan", "android": "https://dc.lft.to/lastmile_qr_scan"}, "fusion_lat": 0.0, "name": "c5dd6ad14bbc0c756bb5ffd656a7e2fb", "bike_id": "c5dd6ad14bbc0c756bb5ffd656a7e2fb", "is_disabled": 0, "type": "electric_bike", "lat": 38.877284, "lon": -76.98105683333333, "is_reserved": 0, "fusion_lon": 0.0}, {"rental_uris": {"ios": "https://dc.lft.to/lastmile_qr_scan", "android": "https://dc.lft.to/lastmile_qr_scan"}, "fusion_lat": 0.0, "name": "03b879b0cdacdb09ee3cc51e19f9d40b", "bike_id": "03b879b0cdacdb09ee3cc51e19f9d40b", "is_disabled": 0, "type": "electric_scooter", "lat": 38.94958533333333, "lon": -77.02721466666667, "is_reserved": 0, "fusion_lon": 0.0}, {"rental_uris": {"ios": "https://dc.lft.to/lastmile_qr_scan", "android": "https://dc.lft.to/lastmile_qr_scan"}, "fusion_lat": 0.0, "name": "544ca72c056190e3babcf59aa7bb5248", "bike_id": "544ca72c056190e3babcf59aa7bb5248", "is_disabled": 0, "type": "electric_scooter", "lat": 38.8922375, "lon": -77.03162583333334, "is_reserved": 0, "fusion_lon": 0.0}, {"rental_uris": {"ios": "https://dc.lft.to/lastmile_qr_scan", "android": "https://dc.lft.to/lastmile_qr_scan"}, "fusion_lat": 0.0, "name": "1d82efec8ead8ac0db1517b54e420183", "bike_id": "1d82efec8ead8ac0db1517b54e420183", "is_disabled": 0, "type": "electric_scooter", "lat": 38.9301555, "lon": -77.0552505, "is_reserved": 0, "fusion_lon": 0.0}, {"rental_uris": {"ios": "https://dc.lft.to/lastmile_qr_scan", "android": "https://dc.lft.to/lastmile_qr_scan"}, "fusion_lat": 0.0, "name": "c74b117fcebc7c4486f19128d7792b57", "bike_id": "c74b117fcebc7c4486f19128d7792b57", "is_disabled": 0, "type": "electric_scooter", "lat": 38.90970733333333, "lon": -77.0347105, "is_reserved": 0, "fusion_lon": 0.0}, {"rental_uris": {"ios": "https://dc.lft.to/lastmile_qr_scan", "android": "https://dc.lft.to/lastmile_qr_scan"}, "fusion_lat": 0.0, "name": "ec47e194c8cad2987efd17a8ffed27f5", "bike_id": "ec47e194c8cad2987efd17a8ffed27f5", "is_disabled": 0, "type": "electric_scooter", "lat": 38.914588, "lon": -77.018058, "is_reserved": 0, "fusion_lon": 0.0}, {"rental_uris": {"ios": "https://dc.lft.to/lastmile_qr_scan", "android": "https://dc.lft.to/lastmile_qr_scan"}, "fusion_lat": 0.0, "name": "75add1143dcd11b8f59c47463844412d", "bike_id": "75add1143dcd11b8f59c47463844412d", "is_disabled": 0, "type": "electric_scooter", "lat": 38.93358383333333, "lon": -77.02737033333334, "is_reserved": 0, "fusion_lon": 0.0}, {"rental_uris": {"ios": "https://dc.lft.to/lastmile_qr_scan", "android": "https://dc.lft.to/lastmile_qr_scan"}, "fusion_lat": 0.0, "name": "6f20e39a2d047608aba35a71757ca10c", "bike_id": "6f20e39a2d047608aba35a71757ca10c", "is_disabled": 0, "type": "electric_scooter", "lat": 38.923667333333334, "lon": -77.05147066666666, "is_reserved": 0, "fusion_lon": 0.0}, {"rental_uris": {"ios": "https://dc.lft.to/lastmile_qr_scan", "android": "https://dc.lft.to/lastmile_qr_scan"}, "fusion_lat": 0.0, "name": "707a61be8120dcad122f61df6e685325", "bike_id": "707a61be8120dcad122f61df6e685325", "is_disabled": 0, "type": "electric_scooter", "lat": 38.9057685, "lon": -77.00602783333333, "is_reserved": 0, "fusion_lon": 0.0}, {"rental_uris": {"ios": "https://dc.lft.to/lastmile_qr_scan", "android": "https://dc.lft.to/lastmile_qr_scan"}, "fusion_lat": 0.0, "name": "7e0315e37a5278c20cc4df7f2e998164", "bike_id": "7e0315e37a5278c20cc4df7f2e998164", "is_disabled": 0, "type": "electric_scooter", "lat": 38.89238783333333, "lon": -77.04658116666667, "is_reserved": 0, "fusion_lon": 0.0}, {"rental_uris": {"ios": "https://dc.lft.to/lastmile_qr_scan", "android": "https://dc.lft.to/lastmile_qr_scan"}, "fusion_lat": 0.0, "name": "453bf8bb8bee8a9f59e845f3b5912fe9", "bike_id": "453bf8bb8bee8a9f59e845f3b5912fe9", "is_disabled": 0, "type": "electric_scooter", "lat": 38.9262905, "lon": -77.03534533333334, "is_reserved": 0, "fusion_lon": 0.0}, {"rental_uris": {"ios": "https://dc.lft.to/lastmile_qr_scan", "android": "https://dc.lft.to/lastmile_qr_scan"}, "fusion_lat": 0.0, "name": "1dbb487844518b68660b9867e4e288f6", "bike_id": "1dbb487844518b68660b9867e4e288f6", "is_disabled": 0, "type": "electric_scooter", "lat": 38.923564999999996, "lon": -77.05131883333334, "is_reserved": 0, "fusion_lon": 0.0}, {"rental_uris": {"ios": "https://dc.lft.to/lastmile_qr_scan", "android": "https://dc.lft.to/lastmile_qr_scan"}, "fusion_lat": 0.0, "name": "883d0b584149fcfb61b2e431fbf1a642", "bike_id": "883d0b584149fcfb61b2e431fbf1a642", "is_disabled": 0, "type": "electric_scooter", "lat": 38.89218483333333, "lon": -77.03162833333333, "is_reserved": 0, "fusion_lon": 0.0}, {"rental_uris": {"ios": "https://dc.lft.to/lastmile_qr_scan", "android": "https://dc.lft.to/lastmile_qr_scan"}, "fusion_lat": 0.0, "name": "04c3810a221de9bd0ba8f2014d2f8ec9", "bike_id": "04c3810a221de9bd0ba8f2014d2f8ec9", "is_disabled": 0, "type": "electric_scooter", "lat": 38.86253466666667, "lon": -76.99514633333334, "is_reserved": 0, "fusion_lon": 0.0}, {"rental_uris": {"ios": "https://dc.lft.to/lastmile_qr_scan", "android": "https://dc.lft.to/lastmile_qr_scan"}, "fusion_lat": 0.0, "name": "d6cc298b4dea1bb6cd063adf181996ac", "bike_id": "d6cc298b4dea1bb6cd063adf181996ac", "is_disabled": 0, "type": "electric_scooter", "lat": 38.9054095, "lon": -77.04554216666666, "is_reserved": 0, "fusion_lon": 0.0}, {"rental_uris": {"ios": "https://dc.lft.to/lastmile_qr_scan", "android": "https://dc.lft.to/lastmile_qr_scan"}, "fusion_lat": 0.0, "name": "108cc843b65c9f1431a4e1a0fd5d2c82", "bike_id": "108cc843b65c9f1431a4e1a0fd5d2c82", "is_disabled": 0, "type": "electric_scooter", "lat": 38.91405616666667, "lon": -77.04356283333334, "is_reserved": 0, "fusion_lon": 0.0}, {"rental_uris": {"ios": "https://dc.lft.to/lastmile_qr_scan", "android": "https://dc.lft.to/lastmile_qr_scan"}, "fusion_lat": 0.0, "name": "97c9f81453c63f0b89d5ab6bb5f8c992", "bike_id": "97c9f81453c63f0b89d5ab6bb5f8c992", "is_disabled": 0, "type": "electric_scooter", "lat": 38.9168985, "lon": -77.02368333333334, "is_reserved": 0, "fusion_lon": 0.0}, {"rental_uris": {"ios": "https://dc.lft.to/lastmile_qr_scan", "android": "https://dc.lft.to/lastmile_qr_scan"}, "fusion_lat": 0.0, "name": "e9b46d8d12a51d9f5c7c0209873c81a7", "bike_id": "e9b46d8d12a51d9f5c7c0209873c81a7", "is_disabled": 0, "type": "electric_scooter", "lat": 38.9037975, "lon": -77.03297783333333, "is_reserved": 0, "fusion_lon": 0.0}, {"rental_uris": {"ios": "https://dc.lft.to/lastmile_qr_scan", "android": "https://dc.lft.to/lastmile_qr_scan"}, "fusion_lat": 0.0, "name": "52d8d4458d7fee4479b4551673598199", "bike_id": "52d8d4458d7fee4479b4551673598199", "is_disabled": 0, "type": "electric_scooter", "lat": 38.899834166666665, "lon": -77.031827, "is_reserved": 0, "fusion_lon": 0.0}, {"rental_uris": {"ios": "https://dc.lft.to/lastmile_qr_scan", "android": "https://dc.lft.to/lastmile_qr_scan"}, "fusion_lat": 0.0, "name": "696283cbbbc18348ed7e58c70627fc11", "bike_id": "696283cbbbc18348ed7e58c70627fc11", "is_disabled": 0, "type": "electric_scooter", "lat": 38.921494333333335, "lon": -77.04231283333333, "is_reserved": 0, "fusion_lon": 0.0}, {"rental_uris": {"ios": "https://dc.lft.to/lastmile_qr_scan", "android": "https://dc.lft.to/lastmile_qr_scan"}, "fusion_lat": 0.0, "name": "b193d1ae144e392ac35e8450a948b01a", "bike_id": "b193d1ae144e392ac35e8450a948b01a", "is_disabled": 0, "type": "electric_scooter", "lat": 38.86730566666667, "lon": -76.9865705, "is_reserved": 0, "fusion_lon": 0.0}, {"rental_uris": {"ios": "https://dc.lft.to/lastmile_qr_scan", "android": "https://dc.lft.to/lastmile_qr_scan"}, "fusion_lat": 0.0, "name": "c8828139ea45b16fffd985c4b15e47fb", "bike_id": "c8828139ea45b16fffd985c4b15e47fb", "is_disabled": 0, "type": "electric_scooter", "lat": 38.917095833333335, "lon": -77.041243, "is_reserved": 0, "fusion_lon": 0.0}, {"rental_uris": {"ios": "https://dc.lft.to/lastmile_qr_scan", "android": "https://dc.lft.to/lastmile_qr_scan"}, "fusion_lat": 0.0, "name": "42bebf469cfa15aa282458deb913df5b", "bike_id": "42bebf469cfa15aa282458deb913df5b", "is_disabled": 0, "type": "electric_scooter", "lat": 38.86244466666667, "lon": -76.9949585, "is_reserved": 0, "fusion_lon": 0.0}, {"rental_uris": {"ios": "https://dc.lft.to/lastmile_qr_scan", "android": "https://dc.lft.to/lastmile_qr_scan"}, "fusion_lat": 0.0, "name": "c27f1a71808b901ab20e5dfb1a94a364", "bike_id": "c27f1a71808b901ab20e5dfb1a94a364", "is_disabled": 0, "type": "electric_scooter", "lat": 38.8922775, "lon": -77.03182383333333, "is_reserved": 0, "fusion_lon": 0.0}, {"rental_uris": {"ios": "https://dc.lft.to/lastmile_qr_scan", "android": "https://dc.lft.to/lastmile_qr_scan"}, "fusion_lat": 0.0, "name": "a5f08e21b05b22d1de70f1bb36804b73", "bike_id": "a5f08e21b05b22d1de70f1bb36804b73", "is_disabled": 0, "type": "electric_scooter", "lat": 38.9174755, "lon": -77.03182766666667, "is_reserved": 0, "fusion_lon": 0.0}, {"rental_uris": {"ios": "https://dc.lft.to/lastmile_qr_scan", "android": "https://dc.lft.to/lastmile_qr_scan"}, "fusion_lat": 0.0, "name": "a8824935a5d19e2e350a330b136d5928", "bike_id": "a8824935a5d19e2e350a330b136d5928", "is_disabled": 0, "type": "electric_scooter", "lat": 38.899039, "lon": -76.93354666666667, "is_reserved": 0, "fusion_lon": 0.0}, {"rental_uris": {"ios": "https://dc.lft.to/lastmile_qr_scan", "android": "https://dc.lft.to/lastmile_qr_scan"}, "fusion_lat": 0.0, "name": "31b78f1b230fea132448d85f503103d9", "bike_id": "31b78f1b230fea132448d85f503103d9", "is_disabled": 0, "type": "electric_scooter", "lat": 38.842911666666666, "lon": -76.9994455, "is_reserved": 0, "fusion_lon": 0.0}, {"rental_uris": {"ios": "https://dc.lft.to/lastmile_qr_scan", "android": "https://dc.lft.to/lastmile_qr_scan"}, "fusion_lat": 0.0, "name": "f8f99ada7019fd6dd4590557d1f81080", "bike_id": "f8f99ada7019fd6dd4590557d1f81080", "is_disabled": 0, "type": "electric_scooter", "lat": 38.93890566666666, "lon": -77.024843, "is_reserved": 0, "fusion_lon": 0.0}, {"rental_uris": {"ios": "https://dc.lft.to/lastmile_qr_scan", "android": "https://dc.lft.to/lastmile_qr_scan"}, "fusion_lat": 0.0, "name": "320f8622087b140f5e0f7422586f3758", "bike_id": "320f8622087b140f5e0f7422586f3758", "is_disabled": 0, "type": "electric_scooter", "lat": 38.86659016666667, "lon": -76.98884866666667, "is_reserved": 0, "fusion_lon": 0.0}, {"rental_uris": {"ios": "https://dc.lft.to/lastmile_qr_scan", "android": "https://dc.lft.to/lastmile_qr_scan"}, "fusion_lat": 0.0, "name": "41151027ad423f0b871864b5d238e720", "bike_id": "41151027ad423f0b871864b5d238e720", "is_disabled": 0, "type": "electric_scooter", "lat": 38.91678733333333, "lon": -77.02801383333333, "is_reserved": 0, "fusion_lon": 0.0}, {"rental_uris": {"ios": "https://dc.lft.to/lastmile_qr_scan", "android": "https://dc.lft.to/lastmile_qr_scan"}, "fusion_lat": 0.0, "name": "08cbbe92cbeb8a33036e18fbf73e78ae", "bike_id": "08cbbe92cbeb8a33036e18fbf73e78ae", "is_disabled": 0, "type": "electric_scooter", "lat": 38.912984333333334, "lon": -77.04353416666666, "is_reserved": 0, "fusion_lon": 0.0}, {"rental_uris": {"ios": "https://dc.lft.to/lastmile_qr_scan", "android": "https://dc.lft.to/lastmile_qr_scan"}, "fusion_lat": 0.0, "name": "a85bcd1f229e5c0f6095fbc23ea00538", "bike_id": "a85bcd1f229e5c0f6095fbc23ea00538", "is_disabled": 0, "type": "electric_scooter", "lat": 38.90577783333333, "lon": -77.00600383333334, "is_reserved": 0, "fusion_lon": 0.0}, {"rental_uris": {"ios": "https://dc.lft.to/lastmile_qr_scan", "android": "https://dc.lft.to/lastmile_qr_scan"}, "fusion_lat": 0.0, "name": "821627cdc46d3fd0a2344d3583638daa", "bike_id": "821627cdc46d3fd0a2344d3583638daa", "is_disabled": 0, "type": "electric_scooter", "lat": 38.8952225, "lon": -77.04335883333333, "is_reserved": 0, "fusion_lon": 0.0}, {"rental_uris": {"ios": "https://dc.lft.to/lastmile_qr_scan", "android": "https://dc.lft.to/lastmile_qr_scan"}, "fusion_lat": 0.0, "name": "95908e2ee7836fa8ec049fca6159594a", "bike_id": "95908e2ee7836fa8ec049fca6159594a", "is_disabled": 0, "type": "electric_scooter", "lat": 38.9180795, "lon": -77.02248166666666, "is_reserved": 0, "fusion_lon": 0.0}, {"rental_uris": {"ios": "https://dc.lft.to/lastmile_qr_scan", "android": "https://dc.lft.to/lastmile_qr_scan"}, "fusion_lat": 0.0, "name": "c3608bcd68c73b2d856dfee374e26ce8", "bike_id": "c3608bcd68c73b2d856dfee374e26ce8", "is_disabled": 0, "type": "electric_scooter", "lat": 38.91558933333334, "lon": -77.02210616666666, "is_reserved": 0, "fusion_lon": 0.0}, {"rental_uris": {"ios": "https://dc.lft.to/lastmile_qr_scan", "android": "https://dc.lft.to/lastmile_qr_scan"}, "fusion_lat": 0.0, "name": "c95749bf203f8b64b82e707de766cfe2", "bike_id": "c95749bf203f8b64b82e707de766cfe2", "is_disabled": 0, "type": "electric_scooter", "lat": 38.911818833333335, "lon": -77.04450816666666, "is_reserved": 0, "fusion_lon": 0.0}, {"rental_uris": {"ios": "https://dc.lft.to/lastmile_qr_scan", "android": "https://dc.lft.to/lastmile_qr_scan"}, "fusion_lat": 0.0, "name": "b7f9fafb8663eadb3cd65e853b94e9fb", "bike_id": "b7f9fafb8663eadb3cd65e853b94e9fb", "is_disabled": 0, "type": "electric_scooter", "lat": 38.928783833333334, "lon": -77.07304183333333, "is_reserved": 0, "fusion_lon": 0.0}, {"rental_uris": {"ios": "https://dc.lft.to/lastmile_qr_scan", "android": "https://dc.lft.to/lastmile_qr_scan"}, "fusion_lat": 0.0, "name": "75a37001d54b46012b89a8fb5697a58d", "bike_id": "75a37001d54b46012b89a8fb5697a58d", "is_disabled": 0, "type": "electric_scooter", "lat": 38.89728133333333, "lon": -77.0216585, "is_reserved": 0, "fusion_lon": 0.0}, {"rental_uris": {"ios": "https://dc.lft.to/lastmile_qr_scan", "android": "https://dc.lft.to/lastmile_qr_scan"}, "fusion_lat": 0.0, "name": "56e2b2bed9e157168cde3252a99f3007", "bike_id": "56e2b2bed9e157168cde3252a99f3007", "is_disabled": 0, "type": "electric_scooter", "lat": 38.90389716666667, "lon": -77.03314316666666, "is_reserved": 0, "fusion_lon": 0.0}, {"rental_uris": {"ios": "https://dc.lft.to/lastmile_qr_scan", "android": "https://dc.lft.to/lastmile_qr_scan"}, "fusion_lat": 0.0, "name": "165fb9d82f016d367e29e9db4fcbd2f9", "bike_id": "165fb9d82f016d367e29e9db4fcbd2f9", "is_disabled": 0, "type": "electric_scooter", "lat": 38.91406216666667, "lon": -77.02420683333334, "is_reserved": 0, "fusion_lon": 0.0}, {"rental_uris": {"ios": "https://dc.lft.to/lastmile_qr_scan", "android": "https://dc.lft.to/lastmile_qr_scan"}, "fusion_lat": 0.0, "name": "51361326acece3e46d4ac40a54aaf7bd", "bike_id": "51361326acece3e46d4ac40a54aaf7bd", "is_disabled": 0, "type": "electric_bike", "lat": 38.928592333333334, "lon": -77.22186533333333, "is_reserved": 0, "fusion_lon": 0.0}, {"rental_uris": {"ios": "https://dc.lft.to/lastmile_qr_scan", "android": "https://dc.lft.to/lastmile_qr_scan"}, "fusion_lat": 0.0, "name": "ec8d973d24d8f291eccb27722db25af2", "bike_id": "ec8d973d24d8f291eccb27722db25af2", "is_disabled": 0, "type": "electric_scooter", "lat": 38.9232825, "lon": -77.03683133333334, "is_reserved": 0, "fusion_lon": 0.0}, {"rental_uris": {"ios": "https://dc.lft.to/lastmile_qr_scan", "android": "https://dc.lft.to/lastmile_qr_scan"}, "fusion_lat": 0.0, "name": "95978c5a6b6078ed778a6e5db18a2d18", "bike_id": "95978c5a6b6078ed778a6e5db18a2d18", "is_disabled": 0, "type": "electric_bike", "lat": 38.915865833333335, "lon": -76.97886233333334, "is_reserved": 0, "fusion_lon": 0.0}, {"rental_uris": {"ios": "https://dc.lft.to/lastmile_qr_scan", "android": "https://dc.lft.to/lastmile_qr_scan"}, "fusion_lat": 0.0, "name": "2b719b7016919f4fd2c4d334a661930b", "bike_id": "2b719b7016919f4fd2c4d334a661930b", "is_disabled": 0, "type": "electric_bike", "lat": 39.0885895, "lon": -77.17840833333334, "is_reserved": 0, "fusion_lon": 0.0}, {"rental_uris": {"ios": "https://dc.lft.to/lastmile_qr_scan", "android": "https://dc.lft.to/lastmile_qr_scan"}, "fusion_lat": 0.0, "name": "8fa8f67189a2ff704c59473a3ac7e394", "bike_id": "8fa8f67189a2ff704c59473a3ac7e394", "is_disabled": 0, "type": "electric_scooter", "lat": 38.90678583333333, "lon": -77.0268885, "is_reserved": 0, "fusion_lon": 0.0}, {"rental_uris": {"ios": "https://dc.lft.to/lastmile_qr_scan", "android": "https://dc.lft.to/lastmile_qr_scan"}, "fusion_lat": 0.0, "name": "3c318e1623eef9dee5a94745717d7c25", "bike_id": "3c318e1623eef9dee5a94745717d7c25", "is_disabled": 0, "type": "electric_scooter", "lat": 38.899766, "lon": -76.9398905, "is_reserved": 0, "fusion_lon": 0.0}, {"rental_uris": {"ios": "https://dc.lft.to/lastmile_qr_scan", "android": "https://dc.lft.to/lastmile_qr_scan"}, "fusion_lat": 0.0, "name": "dd9c422e0cac626199df5959832dc603", "bike_id": "dd9c422e0cac626199df5959832dc603", "is_disabled": 0, "type": "electric_scooter", "lat": 38.918147833333336, "lon": -77.03215216666666, "is_reserved": 0, "fusion_lon": 0.0}, {"rental_uris": {"ios": "https://dc.lft.to/lastmile_qr_scan", "android": "https://dc.lft.to/lastmile_qr_scan"}, "fusion_lat": 0.0, "name": "1107cf92660113bd2a8326b1d558c93a", "bike_id": "1107cf92660113bd2a8326b1d558c93a", "is_disabled": 0, "type": "electric_scooter", "lat": 38.922537166666665, "lon": -77.01935233333333, "is_reserved": 0, "fusion_lon": 0.0}, {"rental_uris": {"ios": "https://dc.lft.to/lastmile_qr_scan", "android": "https://dc.lft.to/lastmile_qr_scan"}, "fusion_lat": 0.0, "name": "326c9763f259b331e30a380c022e099f", "bike_id": "326c9763f259b331e30a380c022e099f", "is_disabled": 0, "type": "electric_bike", "lat": 38.874770166666664, "lon": -76.96527633333334, "is_reserved": 0, "fusion_lon": 0.0}, {"rental_uris": {"ios": "https://dc.lft.to/lastmile_qr_scan", "android": "https://dc.lft.to/lastmile_qr_scan"}, "fusion_lat": 0.0, "name": "20c8cdcc7b77fa7cc6a73924225bf5ec", "bike_id": "20c8cdcc7b77fa7cc6a73924225bf5ec", "is_disabled": 0, "type": "electric_scooter", "lat": 38.90306266666666, "lon": -77.06531033333333, "is_reserved": 0, "fusion_lon": 0.0}, {"rental_uris": {"ios": "https://dc.lft.to/lastmile_qr_scan", "android": "https://dc.lft.to/lastmile_qr_scan"}, "fusion_lat": 0.0, "name": "8bb7ce419715ba3c071144008166e2d4", "bike_id": "8bb7ce419715ba3c071144008166e2d4", "is_disabled": 0, "type": "electric_scooter", "lat": 38.941828666666666, "lon": -77.024915, "is_reserved": 0, "fusion_lon": 0.0}, {"rental_uris": {"ios": "https://dc.lft.to/lastmile_qr_scan", "android": "https://dc.lft.to/lastmile_qr_scan"}, "fusion_lat": 0.0, "name": "f7b2a4029df3146d04d7ba9b269f8fc9", "bike_id": "f7b2a4029df3146d04d7ba9b269f8fc9", "is_disabled": 0, "type": "electric_scooter", "lat": 38.92059283333333, "lon": -77.04284633333333, "is_reserved": 0, "fusion_lon": 0.0}, {"rental_uris": {"ios": "https://dc.lft.to/lastmile_qr_scan", "android": "https://dc.lft.to/lastmile_qr_scan"}, "fusion_lat": 0.0, "name": "2a9a511b5255176041707f55e57be5dd", "bike_id": "2a9a511b5255176041707f55e57be5dd", "is_disabled": 0, "type": "electric_scooter", "lat": 38.877024, "lon": -77.01746783333333, "is_reserved": 0, "fusion_lon": 0.0}, {"rental_uris": {"ios": "https://dc.lft.to/lastmile_qr_scan", "android": "https://dc.lft.to/lastmile_qr_scan"}, "fusion_lat": 0.0, "name": "956fafff864e2c22332f79760f3c23a5", "bike_id": "956fafff864e2c22332f79760f3c23a5", "is_disabled": 0, "type": "electric_scooter", "lat": 38.88746666666667, "lon": -77.02207233333333, "is_reserved": 0, "fusion_lon": 0.0}, {"rental_uris": {"ios": "https://dc.lft.to/lastmile_qr_scan", "android": "https://dc.lft.to/lastmile_qr_scan"}, "fusion_lat": 0.0, "name": "5e6ec44ce6a7a39adbc3bfc3b98b9137", "bike_id": "5e6ec44ce6a7a39adbc3bfc3b98b9137", "is_disabled": 0, "type": "electric_scooter", "lat": 38.8997485, "lon": -77.02641616666666, "is_reserved": 0, "fusion_lon": 0.0}, {"rental_uris": {"ios": "https://dc.lft.to/lastmile_qr_scan", "android": "https://dc.lft.to/lastmile_qr_scan"}, "fusion_lat": 0.0, "name": "60d1f2ae38aae2e6d58a1110d69143b7", "bike_id": "60d1f2ae38aae2e6d58a1110d69143b7", "is_disabled": 0, "type": "electric_scooter", "lat": 38.94713733333333, "lon": -77.03294416666667, "is_reserved": 0, "fusion_lon": 0.0}, {"rental_uris": {"ios": "https://dc.lft.to/lastmile_qr_scan", "android": "https://dc.lft.to/lastmile_qr_scan"}, "fusion_lat": 0.0, "name": "ac72b5ea3f6f61b0d3491f4e910e4856", "bike_id": "ac72b5ea3f6f61b0d3491f4e910e4856", "is_disabled": 0, "type": "electric_scooter", "lat": 38.8725035, "lon": -77.0057375, "is_reserved": 0, "fusion_lon": 0.0}, {"rental_uris": {"ios": "https://dc.lft.to/lastmile_qr_scan", "android": "https://dc.lft.to/lastmile_qr_scan"}, "fusion_lat": 0.0, "name": "d892f6efbc85180917b23a836089dd8e", "bike_id": "d892f6efbc85180917b23a836089dd8e", "is_disabled": 0, "type": "electric_scooter", "lat": 38.92602383333333, "lon": -77.02154133333333, "is_reserved": 0, "fusion_lon": 0.0}, {"rental_uris": {"ios": "https://dc.lft.to/lastmile_qr_scan", "android": "https://dc.lft.to/lastmile_qr_scan"}, "fusion_lat": 0.0, "name": "4e93902bf32141ac0975cd7fffda2c12", "bike_id": "4e93902bf32141ac0975cd7fffda2c12", "is_disabled": 0, "type": "electric_scooter", "lat": 38.8928725, "lon": -77.0418415, "is_reserved": 0, "fusion_lon": 0.0}, {"rental_uris": {"ios": "https://dc.lft.to/lastmile_qr_scan", "android": "https://dc.lft.to/lastmile_qr_scan"}, "fusion_lat": 0.0, "name": "4ee9531824851e26adb7d7aa0e67af2a", "bike_id": "4ee9531824851e26adb7d7aa0e67af2a", "is_disabled": 0, "type": "electric_scooter", "lat": 38.89219083333333, "lon": -77.01371833333333, "is_reserved": 0, "fusion_lon": 0.0}, {"rental_uris": {"ios": "https://dc.lft.to/lastmile_qr_scan", "android": "https://dc.lft.to/lastmile_qr_scan"}, "fusion_lat": 0.0, "name": "e66a62e232fcd61baf9e734e1c6d4060", "bike_id": "e66a62e232fcd61baf9e734e1c6d4060", "is_disabled": 0, "type": "electric_scooter", "lat": 38.91351, "lon": -77.03364066666667, "is_reserved": 0, "fusion_lon": 0.0}, {"rental_uris": {"ios": "https://dc.lft.to/lastmile_qr_scan", "android": "https://dc.lft.to/lastmile_qr_scan"}, "fusion_lat": 0.0, "name": "425f0d6592afdb2e318f540ca0dbc0ac", "bike_id": "425f0d6592afdb2e318f540ca0dbc0ac", "is_disabled": 0, "type": "electric_scooter", "lat": 38.923119, "lon": -77.03518866666667, "is_reserved": 0, "fusion_lon": 0.0}, {"rental_uris": {"ios": "https://dc.lft.to/lastmile_qr_scan", "android": "https://dc.lft.to/lastmile_qr_scan"}, "fusion_lat": 0.0, "name": "de3a3dd3deed86727b3d3b803f9801d1", "bike_id": "de3a3dd3deed86727b3d3b803f9801d1", "is_disabled": 0, "type": "electric_scooter", "lat": 38.896240166666665, "lon": -77.05029466666667, "is_reserved": 0, "fusion_lon": 0.0}, {"rental_uris": {"ios": "https://dc.lft.to/lastmile_qr_scan", "android": "https://dc.lft.to/lastmile_qr_scan"}, "fusion_lat": 0.0, "name": "64c67deca996bb88e40e2655b5f50887", "bike_id": "64c67deca996bb88e40e2655b5f50887", "is_disabled": 0, "type": "electric_scooter", "lat": 38.894988, "lon": -76.94874616666667, "is_reserved": 0, "fusion_lon": 0.0}, {"rental_uris": {"ios": "https://dc.lft.to/lastmile_qr_scan", "android": "https://dc.lft.to/lastmile_qr_scan"}, "fusion_lat": 0.0, "name": "027376d2a20e50181e61c61c76516ff0", "bike_id": "027376d2a20e50181e61c61c76516ff0", "is_disabled": 0, "type": "electric_scooter", "lat": 38.93470816666667, "lon": -77.0728365, "is_reserved": 0, "fusion_lon": 0.0}, {"rental_uris": {"ios": "https://dc.lft.to/lastmile_qr_scan", "android": "https://dc.lft.to/lastmile_qr_scan"}, "fusion_lat": 0.0, "name": "cd6cae60a7cf686302243b91fde249e7", "bike_id": "cd6cae60a7cf686302243b91fde249e7", "is_disabled": 0, "type": "electric_scooter", "lat": 38.92134133333333, "lon": -77.00847866666666, "is_reserved": 0, "fusion_lon": 0.0}, {"rental_uris": {"ios": "https://dc.lft.to/lastmile_qr_scan", "android": "https://dc.lft.to/lastmile_qr_scan"}, "fusion_lat": 0.0, "name": "c7b41c5cfe1f4cd30d8b3d236327a16c", "bike_id": "c7b41c5cfe1f4cd30d8b3d236327a16c", "is_disabled": 0, "type": "electric_bike", "lat": 38.83862466666667, "lon": -76.99690566666666, "is_reserved": 0, "fusion_lon": 0.0}, {"rental_uris": {"ios": "https://dc.lft.to/lastmile_qr_scan", "android": "https://dc.lft.to/lastmile_qr_scan"}, "fusion_lat": 0.0, "name": "47a2ae5cd5e081ae6abafde1a1c3cc96", "bike_id": "47a2ae5cd5e081ae6abafde1a1c3cc96", "is_disabled": 0, "type": "electric_scooter", "lat": 38.92924266666667, "lon": -77.037602, "is_reserved": 0, "fusion_lon": 0.0}, {"rental_uris": {"ios": "https://dc.lft.to/lastmile_qr_scan", "android": "https://dc.lft.to/lastmile_qr_scan"}, "fusion_lat": 0.0, "name": "c0dac465e82820db609e672b3cd70d08", "bike_id": "c0dac465e82820db609e672b3cd70d08", "is_disabled": 0, "type": "electric_scooter", "lat": 38.85669766666667, "lon": -76.98179116666667, "is_reserved": 0, "fusion_lon": 0.0}, {"rental_uris": {"ios": "https://dc.lft.to/lastmile_qr_scan", "android": "https://dc.lft.to/lastmile_qr_scan"}, "fusion_lat": 0.0, "name": "6f5fea39a1f1b05fd326b92377751129", "bike_id": "6f5fea39a1f1b05fd326b92377751129", "is_disabled": 0, "type": "electric_scooter", "lat": 38.92039333333334, "lon": -77.04184566666666, "is_reserved": 0, "fusion_lon": 0.0}, {"rental_uris": {"ios": "https://dc.lft.to/lastmile_qr_scan", "android": "https://dc.lft.to/lastmile_qr_scan"}, "fusion_lat": 0.0, "name": "a3b92ffaeba858502ae9bed352b2cf98", "bike_id": "a3b92ffaeba858502ae9bed352b2cf98", "is_disabled": 0, "type": "electric_scooter", "lat": 38.892191833333335, "lon": -77.02225883333334, "is_reserved": 0, "fusion_lon": 0.0}, {"rental_uris": {"ios": "https://dc.lft.to/lastmile_qr_scan", "android": "https://dc.lft.to/lastmile_qr_scan"}, "fusion_lat": 0.0, "name": "fad7715e757ad48583b11441ae0d3f26", "bike_id": "fad7715e757ad48583b11441ae0d3f26", "is_disabled": 0, "type": "electric_scooter", "lat": 38.921350333333336, "lon": -77.01912883333334, "is_reserved": 0, "fusion_lon": 0.0}, {"rental_uris": {"ios": "https://dc.lft.to/lastmile_qr_scan", "android": "https://dc.lft.to/lastmile_qr_scan"}, "fusion_lat": 0.0, "name": "96f05480be2f498c6e119501835ce82e", "bike_id": "96f05480be2f498c6e119501835ce82e", "is_disabled": 0, "type": "electric_scooter", "lat": 38.906823833333334, "lon": -77.02716866666667, "is_reserved": 0, "fusion_lon": 0.0}, {"rental_uris": {"ios": "https://dc.lft.to/lastmile_qr_scan", "android": "https://dc.lft.to/lastmile_qr_scan"}, "fusion_lat": 0.0, "name": "9355b7c581f58c9598d1a6204558891e", "bike_id": "9355b7c581f58c9598d1a6204558891e", "is_disabled": 0, "type": "electric_scooter", "lat": 38.928718333333336, "lon": -77.0345845, "is_reserved": 0, "fusion_lon": 0.0}, {"rental_uris": {"ios": "https://dc.lft.to/lastmile_qr_scan", "android": "https://dc.lft.to/lastmile_qr_scan"}, "fusion_lat": 0.0, "name": "5c40c991cea13571ae49c72e39ad9f7a", "bike_id": "5c40c991cea13571ae49c72e39ad9f7a", "is_disabled": 0, "type": "electric_scooter", "lat": 38.917423, "lon": -77.02394816666667, "is_reserved": 0, "fusion_lon": 0.0}, {"rental_uris": {"ios": "https://dc.lft.to/lastmile_qr_scan", "android": "https://dc.lft.to/lastmile_qr_scan"}, "fusion_lat": 0.0, "name": "f0c5a8a215a01de9426caabf846f6e0b", "bike_id": "f0c5a8a215a01de9426caabf846f6e0b", "is_disabled": 0, "type": "electric_scooter", "lat": 38.9012905, "lon": -77.04310066666666, "is_reserved": 0, "fusion_lon": 0.0}, {"rental_uris": {"ios": "https://dc.lft.to/lastmile_qr_scan", "android": "https://dc.lft.to/lastmile_qr_scan"}, "fusion_lat": 0.0, "name": "3433c528e319ae46e17e396e6e678f2f", "bike_id": "3433c528e319ae46e17e396e6e678f2f", "is_disabled": 0, "type": "electric_scooter", "lat": 38.915662833333336, "lon": -77.012009, "is_reserved": 0, "fusion_lon": 0.0}, {"rental_uris": {"ios": "https://dc.lft.to/lastmile_qr_scan", "android": "https://dc.lft.to/lastmile_qr_scan"}, "fusion_lat": 0.0, "name": "09fd39070e242a1e41080e94df53fdbb", "bike_id": "09fd39070e242a1e41080e94df53fdbb", "is_disabled": 0, "type": "electric_scooter", "lat": 38.93425516666667, "lon": -77.0400125, "is_reserved": 0, "fusion_lon": 0.0}, {"rental_uris": {"ios": "https://dc.lft.to/lastmile_qr_scan", "android": "https://dc.lft.to/lastmile_qr_scan"}, "fusion_lat": 0.0, "name": "08b4f9b2938caf34642448bc00775ef6", "bike_id": "08b4f9b2938caf34642448bc00775ef6", "is_disabled": 0, "type": "electric_scooter", "lat": 38.931682333333335, "lon": -77.03634966666667, "is_reserved": 0, "fusion_lon": 0.0}, {"rental_uris": {"ios": "https://dc.lft.to/lastmile_qr_scan", "android": "https://dc.lft.to/lastmile_qr_scan"}, "fusion_lat": 0.0, "name": "c5de5d805c5c0f4c2c017d36eb552caa", "bike_id": "c5de5d805c5c0f4c2c017d36eb552caa", "is_disabled": 0, "type": "electric_scooter", "lat": 38.9198655, "lon": -77.032888, "is_reserved": 0, "fusion_lon": 0.0}, {"rental_uris": {"ios": "https://dc.lft.to/lastmile_qr_scan", "android": "https://dc.lft.to/lastmile_qr_scan"}, "fusion_lat": 0.0, "name": "a19d5d17d5dfdc000043d938623e0a05", "bike_id": "a19d5d17d5dfdc000043d938623e0a05", "is_disabled": 0, "type": "electric_scooter", "lat": 38.917086, "lon": -77.03887366666666, "is_reserved": 0, "fusion_lon": 0.0}, {"rental_uris": {"ios": "https://dc.lft.to/lastmile_qr_scan", "android": "https://dc.lft.to/lastmile_qr_scan"}, "fusion_lat": 0.0, "name": "01fdb04e49ad68dc39d570e0ec7dbbfe", "bike_id": "01fdb04e49ad68dc39d570e0ec7dbbfe", "is_disabled": 0, "type": "electric_scooter", "lat": 38.91811883333333, "lon": -77.03122516666667, "is_reserved": 0, "fusion_lon": 0.0}, {"rental_uris": {"ios": "https://dc.lft.to/lastmile_qr_scan", "android": "https://dc.lft.to/lastmile_qr_scan"}, "fusion_lat": 0.0, "name": "6f3806cbfaa858b12793a840b5a64f89", "bike_id": "6f3806cbfaa858b12793a840b5a64f89", "is_disabled": 0, "type": "electric_scooter", "lat": 38.9093735, "lon": -77.05941383333334, "is_reserved": 0, "fusion_lon": 0.0}, {"rental_uris": {"ios": "https://dc.lft.to/lastmile_qr_scan", "android": "https://dc.lft.to/lastmile_qr_scan"}, "fusion_lat": 0.0, "name": "8362417e67fb4bbaf093a959508c101c", "bike_id": "8362417e67fb4bbaf093a959508c101c", "is_disabled": 0, "type": "electric_scooter", "lat": 38.932006, "lon": -77.0385525, "is_reserved": 0, "fusion_lon": 0.0}, {"rental_uris": {"ios": "https://dc.lft.to/lastmile_qr_scan", "android": "https://dc.lft.to/lastmile_qr_scan"}, "fusion_lat": 0.0, "name": "dbfbf79a8c8a3be1c1ce04cc58d9c722", "bike_id": "dbfbf79a8c8a3be1c1ce04cc58d9c722", "is_disabled": 0, "type": "electric_scooter", "lat": 38.92806, "lon": -77.05394183333334, "is_reserved": 0, "fusion_lon": 0.0}, {"rental_uris": {"ios": "https://dc.lft.to/lastmile_qr_scan", "android": "https://dc.lft.to/lastmile_qr_scan"}, "fusion_lat": 0.0, "name": "8df6d1ae217b4c868a172473a61fa846", "bike_id": "8df6d1ae217b4c868a172473a61fa846", "is_disabled": 0, "type": "electric_scooter", "lat": 38.86251466666667, "lon": -76.99516816666667, "is_reserved": 0, "fusion_lon": 0.0}, {"rental_uris": {"ios": "https://dc.lft.to/lastmile_qr_scan", "android": "https://dc.lft.to/lastmile_qr_scan"}, "fusion_lat": 0.0, "name": "e8143cf76bf17ee2c8d60dc1456534dd", "bike_id": "e8143cf76bf17ee2c8d60dc1456534dd", "is_disabled": 0, "type": "electric_scooter", "lat": 38.9111895, "lon": -77.03921533333333, "is_reserved": 0, "fusion_lon": 0.0}, {"rental_uris": {"ios": "https://dc.lft.to/lastmile_qr_scan", "android": "https://dc.lft.to/lastmile_qr_scan"}, "fusion_lat": 0.0, "name": "d2230fdf6f1465e67380c58221221e9e", "bike_id": "d2230fdf6f1465e67380c58221221e9e", "is_disabled": 0, "type": "electric_scooter", "lat": 38.92046966666667, "lon": -77.00210133333333, "is_reserved": 0, "fusion_lon": 0.0}, {"rental_uris": {"ios": "https://dc.lft.to/lastmile_qr_scan", "android": "https://dc.lft.to/lastmile_qr_scan"}, "fusion_lat": 0.0, "name": "dff52d1b89ab45ad2b7553086b284469", "bike_id": "dff52d1b89ab45ad2b7553086b284469", "is_disabled": 0, "type": "electric_scooter", "lat": 38.894944, "lon": -77.01102266666666, "is_reserved": 0, "fusion_lon": 0.0}, {"rental_uris": {"ios": "https://dc.lft.to/lastmile_qr_scan", "android": "https://dc.lft.to/lastmile_qr_scan"}, "fusion_lat": 0.0, "name": "ffefa1d15ca92f42098c89bbb3015963", "bike_id": "ffefa1d15ca92f42098c89bbb3015963", "is_disabled": 0, "type": "electric_scooter", "lat": 38.91851666666667, "lon": -77.03897283333333, "is_reserved": 0, "fusion_lon": 0.0}, {"rental_uris": {"ios": "https://dc.lft.to/lastmile_qr_scan", "android": "https://dc.lft.to/lastmile_qr_scan"}, "fusion_lat": 0.0, "name": "40c69c67963460d200a3481bb9eb788b", "bike_id": "40c69c67963460d200a3481bb9eb788b", "is_disabled": 0, "type": "electric_bike", "lat": 38.83219416666667, "lon": -77.04975066666667, "is_reserved": 0, "fusion_lon": 0.0}, {"rental_uris": {"ios": "https://dc.lft.to/lastmile_qr_scan", "android": "https://dc.lft.to/lastmile_qr_scan"}, "fusion_lat": 0.0, "name": "8e332aa91c0632e1e047d8950a24303e", "bike_id": "8e332aa91c0632e1e047d8950a24303e", "is_disabled": 0, "type": "electric_scooter", "lat": 38.93473933333333, "lon": -77.03579933333333, "is_reserved": 0, "fusion_lon": 0.0}, {"rental_uris": {"ios": "https://dc.lft.to/lastmile_qr_scan", "android": "https://dc.lft.to/lastmile_qr_scan"}, "fusion_lat": 0.0, "name": "ed203f2cd5ad0437f880faf1b08f1193", "bike_id": "ed203f2cd5ad0437f880faf1b08f1193", "is_disabled": 0, "type": "electric_scooter", "lat": 38.92465383333333, "lon": -77.05234533333334, "is_reserved": 0, "fusion_lon": 0.0}, {"rental_uris": {"ios": "https://dc.lft.to/lastmile_qr_scan", "android": "https://dc.lft.to/lastmile_qr_scan"}, "fusion_lat": 0.0, "name": "38df48770ee610d021f3b1056fd171c6", "bike_id": "38df48770ee610d021f3b1056fd171c6", "is_disabled": 0, "type": "electric_scooter", "lat": 38.90955316666667, "lon": -77.02283066666666, "is_reserved": 0, "fusion_lon": 0.0}, {"rental_uris": {"ios": "https://dc.lft.to/lastmile_qr_scan", "android": "https://dc.lft.to/lastmile_qr_scan"}, "fusion_lat": 0.0, "name": "f06f914ea9ba3d12a64a9937a5a59d8d", "bike_id": "f06f914ea9ba3d12a64a9937a5a59d8d", "is_disabled": 0, "type": "electric_scooter", "lat": 38.893822, "lon": -77.02821016666667, "is_reserved": 0, "fusion_lon": 0.0}, {"rental_uris": {"ios": "https://dc.lft.to/lastmile_qr_scan", "android": "https://dc.lft.to/lastmile_qr_scan"}, "fusion_lat": 0.0, "name": "659ed68647c91af4a8c1d63e6c7d92b5", "bike_id": "659ed68647c91af4a8c1d63e6c7d92b5", "is_disabled": 0, "type": "electric_scooter", "lat": 38.876928666666664, "lon": -77.00742116666666, "is_reserved": 0, "fusion_lon": 0.0}, {"rental_uris": {"ios": "https://dc.lft.to/lastmile_qr_scan", "android": "https://dc.lft.to/lastmile_qr_scan"}, "fusion_lat": 0.0, "name": "069569dd90b9a62b7a8ca3e6c59b1fca", "bike_id": "069569dd90b9a62b7a8ca3e6c59b1fca", "is_disabled": 0, "type": "electric_scooter", "lat": 38.864947, "lon": -76.98989383333333, "is_reserved": 0, "fusion_lon": 0.0}, {"rental_uris": {"ios": "https://dc.lft.to/lastmile_qr_scan", "android": "https://dc.lft.to/lastmile_qr_scan"}, "fusion_lat": 0.0, "name": "8ab8ab9908214faaa6016ac37544496e", "bike_id": "8ab8ab9908214faaa6016ac37544496e", "is_disabled": 0, "type": "electric_scooter", "lat": 38.93059816666667, "lon": -77.03813783333334, "is_reserved": 0, "fusion_lon": 0.0}, {"rental_uris": {"ios": "https://dc.lft.to/lastmile_qr_scan", "android": "https://dc.lft.to/lastmile_qr_scan"}, "fusion_lat": 0.0, "name": "9b8288f3c621a89a4b8f11bd82dba408", "bike_id": "9b8288f3c621a89a4b8f11bd82dba408", "is_disabled": 0, "type": "electric_scooter", "lat": 38.9206025, "lon": -77.04224433333333, "is_reserved": 0, "fusion_lon": 0.0}, {"rental_uris": {"ios": "https://dc.lft.to/lastmile_qr_scan", "android": "https://dc.lft.to/lastmile_qr_scan"}, "fusion_lat": 0.0, "name": "6d3897da39b80511d9dfa89c65e2a3ce", "bike_id": "6d3897da39b80511d9dfa89c65e2a3ce", "is_disabled": 0, "type": "electric_scooter", "lat": 38.90723916666666, "lon": -77.03461316666667, "is_reserved": 0, "fusion_lon": 0.0}, {"rental_uris": {"ios": "https://dc.lft.to/lastmile_qr_scan", "android": "https://dc.lft.to/lastmile_qr_scan"}, "fusion_lat": 0.0, "name": "14746e6a665b9a6645893bde81ba91cf", "bike_id": "14746e6a665b9a6645893bde81ba91cf", "is_disabled": 0, "type": "electric_scooter", "lat": 38.895151, "lon": -76.93042566666666, "is_reserved": 0, "fusion_lon": 0.0}, {"rental_uris": {"ios": "https://dc.lft.to/lastmile_qr_scan", "android": "https://dc.lft.to/lastmile_qr_scan"}, "fusion_lat": 0.0, "name": "8f91df76033d2ede95bc5a00213c1873", "bike_id": "8f91df76033d2ede95bc5a00213c1873", "is_disabled": 0, "type": "electric_scooter", "lat": 38.903459833333336, "lon": -77.01104733333334, "is_reserved": 0, "fusion_lon": 0.0}, {"rental_uris": {"ios": "https://dc.lft.to/lastmile_qr_scan", "android": "https://dc.lft.to/lastmile_qr_scan"}, "fusion_lat": 0.0, "name": "6eb445eebfc90ff1917661507c007fdf", "bike_id": "6eb445eebfc90ff1917661507c007fdf", "is_disabled": 0, "type": "electric_scooter", "lat": 38.902752166666666, "lon": -77.05808783333333, "is_reserved": 0, "fusion_lon": 0.0}, {"rental_uris": {"ios": "https://dc.lft.to/lastmile_qr_scan", "android": "https://dc.lft.to/lastmile_qr_scan"}, "fusion_lat": 0.0, "name": "5821351360a5622806d92777f08f26b9", "bike_id": "5821351360a5622806d92777f08f26b9", "is_disabled": 0, "type": "electric_scooter", "lat": 38.93530783333333, "lon": -77.07290866666666, "is_reserved": 0, "fusion_lon": 0.0}, {"rental_uris": {"ios": "https://dc.lft.to/lastmile_qr_scan", "android": "https://dc.lft.to/lastmile_qr_scan"}, "fusion_lat": 0.0, "name": "cafef6dd365c4f7d25e7b4e3b67a0acc", "bike_id": "cafef6dd365c4f7d25e7b4e3b67a0acc", "is_disabled": 0, "type": "electric_bike", "lat": 38.840279, "lon": -76.97587466666667, "is_reserved": 0, "fusion_lon": 0.0}, {"rental_uris": {"ios": "https://dc.lft.to/lastmile_qr_scan", "android": "https://dc.lft.to/lastmile_qr_scan"}, "fusion_lat": 0.0, "name": "a9a1eb3bc2441c56343e675bf18309df", "bike_id": "a9a1eb3bc2441c56343e675bf18309df", "is_disabled": 0, "type": "electric_scooter", "lat": 38.904533666666666, "lon": -77.032329, "is_reserved": 0, "fusion_lon": 0.0}, {"rental_uris": {"ios": "https://dc.lft.to/lastmile_qr_scan", "android": "https://dc.lft.to/lastmile_qr_scan"}, "fusion_lat": 0.0, "name": "99a9b27031deacd9af4f89918c29133e", "bike_id": "99a9b27031deacd9af4f89918c29133e", "is_disabled": 0, "type": "electric_scooter", "lat": 38.924370833333334, "lon": -77.04023383333333, "is_reserved": 0, "fusion_lon": 0.0}, {"rental_uris": {"ios": "https://dc.lft.to/lastmile_qr_scan", "android": "https://dc.lft.to/lastmile_qr_scan"}, "fusion_lat": 0.0, "name": "750ed9fb9d4c6c129d8ff1a2166b369e", "bike_id": "750ed9fb9d4c6c129d8ff1a2166b369e", "is_disabled": 0, "type": "electric_scooter", "lat": 38.891965666666664, "lon": -77.00307783333334, "is_reserved": 0, "fusion_lon": 0.0}, {"rental_uris": {"ios": "https://dc.lft.to/lastmile_qr_scan", "android": "https://dc.lft.to/lastmile_qr_scan"}, "fusion_lat": 0.0, "name": "1582100a9063edbeda555b75422ba1e6", "bike_id": "1582100a9063edbeda555b75422ba1e6", "is_disabled": 0, "type": "electric_scooter", "lat": 38.87687066666667, "lon": -77.0175555, "is_reserved": 0, "fusion_lon": 0.0}, {"rental_uris": {"ios": "https://dc.lft.to/lastmile_qr_scan", "android": "https://dc.lft.to/lastmile_qr_scan"}, "fusion_lat": 0.0, "name": "69d9088037307b5b55513df2225e567e", "bike_id": "69d9088037307b5b55513df2225e567e", "is_disabled": 0, "type": "electric_bike", "lat": 38.95320733333333, "lon": -77.015801, "is_reserved": 0, "fusion_lon": 0.0}, {"rental_uris": {"ios": "https://dc.lft.to/lastmile_qr_scan", "android": "https://dc.lft.to/lastmile_qr_scan"}, "fusion_lat": 0.0, "name": "1f9d0f1a9fe07ef59a7deab28bebed67", "bike_id": "1f9d0f1a9fe07ef59a7deab28bebed67", "is_disabled": 0, "type": "electric_scooter", "lat": 38.92148566666667, "lon": -77.03510583333333, "is_reserved": 0, "fusion_lon": 0.0}, {"rental_uris": {"ios": "https://dc.lft.to/lastmile_qr_scan", "android": "https://dc.lft.to/lastmile_qr_scan"}, "fusion_lat": 0.0, "name": "8fe1a5bdb8b56d98d47e735dc922507c", "bike_id": "8fe1a5bdb8b56d98d47e735dc922507c", "is_disabled": 0, "type": "electric_scooter", "lat": 38.920396, "lon": -77.02988933333333, "is_reserved": 0, "fusion_lon": 0.0}, {"rental_uris": {"ios": "https://dc.lft.to/lastmile_qr_scan", "android": "https://dc.lft.to/lastmile_qr_scan"}, "fusion_lat": 0.0, "name": "44131e067354d6b566de8fd3cd7255df", "bike_id": "44131e067354d6b566de8fd3cd7255df", "is_disabled": 0, "type": "electric_bike", "lat": 38.827864166666664, "lon": -77.00913383333334, "is_reserved": 0, "fusion_lon": 0.0}, {"rental_uris": {"ios": "https://dc.lft.to/lastmile_qr_scan", "android": "https://dc.lft.to/lastmile_qr_scan"}, "fusion_lat": 0.0, "name": "4cfa3fa972cca92521b31bd0f590076b", "bike_id": "4cfa3fa972cca92521b31bd0f590076b", "is_disabled": 0, "type": "electric_scooter", "lat": 38.92362133333334, "lon": -77.05129583333333, "is_reserved": 0, "fusion_lon": 0.0}, {"rental_uris": {"ios": "https://dc.lft.to/lastmile_qr_scan", "android": "https://dc.lft.to/lastmile_qr_scan"}, "fusion_lat": 0.0, "name": "fd30dea758b9124cb042e404a606eb7d", "bike_id": "fd30dea758b9124cb042e404a606eb7d", "is_disabled": 0, "type": "electric_scooter", "lat": 38.895138, "lon": -76.992132, "is_reserved": 0, "fusion_lon": 0.0}, {"rental_uris": {"ios": "https://dc.lft.to/lastmile_qr_scan", "android": "https://dc.lft.to/lastmile_qr_scan"}, "fusion_lat": 0.0, "name": "336c561327026f26a94b4c791d98d055", "bike_id": "336c561327026f26a94b4c791d98d055", "is_disabled": 0, "type": "electric_scooter", "lat": 38.95610416666667, "lon": -77.02760766666667, "is_reserved": 0, "fusion_lon": 0.0}, {"rental_uris": {"ios": "https://dc.lft.to/lastmile_qr_scan", "android": "https://dc.lft.to/lastmile_qr_scan"}, "fusion_lat": 0.0, "name": "1192629d196c5d791546b4c76b384138", "bike_id": "1192629d196c5d791546b4c76b384138", "is_disabled": 0, "type": "electric_scooter", "lat": 38.921544, "lon": -77.02089166666667, "is_reserved": 0, "fusion_lon": 0.0}, {"rental_uris": {"ios": "https://dc.lft.to/lastmile_qr_scan", "android": "https://dc.lft.to/lastmile_qr_scan"}, "fusion_lat": 0.0, "name": "ad4fca7f78e8dfa9715746cc8d1cb49c", "bike_id": "ad4fca7f78e8dfa9715746cc8d1cb49c", "is_disabled": 0, "type": "electric_scooter", "lat": 38.866644666666666, "lon": -76.98510683333333, "is_reserved": 0, "fusion_lon": 0.0}, {"rental_uris": {"ios": "https://dc.lft.to/lastmile_qr_scan", "android": "https://dc.lft.to/lastmile_qr_scan"}, "fusion_lat": 0.0, "name": "e941aca06210826577e5dc2a8b5b7677", "bike_id": "e941aca06210826577e5dc2a8b5b7677", "is_disabled": 0, "type": "electric_scooter", "lat": 38.92468433333333, "lon": -77.03156466666667, "is_reserved": 0, "fusion_lon": 0.0}, {"rental_uris": {"ios": "https://dc.lft.to/lastmile_qr_scan", "android": "https://dc.lft.to/lastmile_qr_scan"}, "fusion_lat": 0.0, "name": "4ed41d5b9cb01dd7f9a7aa9e5e4c979c", "bike_id": "4ed41d5b9cb01dd7f9a7aa9e5e4c979c", "is_disabled": 0, "type": "electric_scooter", "lat": 38.921484166666666, "lon": -77.04340366666666, "is_reserved": 0, "fusion_lon": 0.0}, {"rental_uris": {"ios": "https://dc.lft.to/lastmile_qr_scan", "android": "https://dc.lft.to/lastmile_qr_scan"}, "fusion_lat": 0.0, "name": "a7aed70660d94618c618e5d37b1f0229", "bike_id": "a7aed70660d94618c618e5d37b1f0229", "is_disabled": 0, "type": "electric_scooter", "lat": 38.89882866666667, "lon": -76.93174916666666, "is_reserved": 0, "fusion_lon": 0.0}, {"rental_uris": {"ios": "https://dc.lft.to/lastmile_qr_scan", "android": "https://dc.lft.to/lastmile_qr_scan"}, "fusion_lat": 0.0, "name": "64ca272607805ca912d1e745aa24d31e", "bike_id": "64ca272607805ca912d1e745aa24d31e", "is_disabled": 0, "type": "electric_scooter", "lat": 38.88731633333333, "lon": -77.02825583333333, "is_reserved": 0, "fusion_lon": 0.0}, {"rental_uris": {"ios": "https://dc.lft.to/lastmile_qr_scan", "android": "https://dc.lft.to/lastmile_qr_scan"}, "fusion_lat": 0.0, "name": "3b770123d179f4b56e3b617ee4d06749", "bike_id": "3b770123d179f4b56e3b617ee4d06749", "is_disabled": 0, "type": "electric_scooter", "lat": 38.873897, "lon": -77.00041633333333, "is_reserved": 0, "fusion_lon": 0.0}, {"rental_uris": {"ios": "https://dc.lft.to/lastmile_qr_scan", "android": "https://dc.lft.to/lastmile_qr_scan"}, "fusion_lat": 0.0, "name": "116ee7f49e35204c482a2f1a032711f1", "bike_id": "116ee7f49e35204c482a2f1a032711f1", "is_disabled": 0, "type": "electric_scooter", "lat": 38.86886466666667, "lon": -76.9831445, "is_reserved": 0, "fusion_lon": 0.0}, {"rental_uris": {"ios": "https://dc.lft.to/lastmile_qr_scan", "android": "https://dc.lft.to/lastmile_qr_scan"}, "fusion_lat": 0.0, "name": "1888ffdd61749ada85a217ee6e934c80", "bike_id": "1888ffdd61749ada85a217ee6e934c80", "is_disabled": 0, "type": "electric_scooter", "lat": 38.84428616666667, "lon": -76.997786, "is_reserved": 0, "fusion_lon": 0.0}, {"rental_uris": {"ios": "https://dc.lft.to/lastmile_qr_scan", "android": "https://dc.lft.to/lastmile_qr_scan"}, "fusion_lat": 0.0, "name": "31e9819822d6206e575fae22f4e6d86c", "bike_id": "31e9819822d6206e575fae22f4e6d86c", "is_disabled": 0, "type": "electric_scooter", "lat": 38.89347133333333, "lon": -77.01103133333334, "is_reserved": 0, "fusion_lon": 0.0}, {"rental_uris": {"ios": "https://dc.lft.to/lastmile_qr_scan", "android": "https://dc.lft.to/lastmile_qr_scan"}, "fusion_lat": 0.0, "name": "ff219a831a774336affab368ac1cfc94", "bike_id": "ff219a831a774336affab368ac1cfc94", "is_disabled": 0, "type": "electric_bike", "lat": 38.973439166666665, "lon": -77.01793466666666, "is_reserved": 0, "fusion_lon": 0.0}, {"rental_uris": {"ios": "https://dc.lft.to/lastmile_qr_scan", "android": "https://dc.lft.to/lastmile_qr_scan"}, "fusion_lat": 0.0, "name": "8f96475b6aae88d0e960f6ca7c809e97", "bike_id": "8f96475b6aae88d0e960f6ca7c809e97", "is_disabled": 0, "type": "electric_scooter", "lat": 38.878700333333335, "lon": -76.9413955, "is_reserved": 0, "fusion_lon": 0.0}, {"rental_uris": {"ios": "https://dc.lft.to/lastmile_qr_scan", "android": "https://dc.lft.to/lastmile_qr_scan"}, "fusion_lat": 0.0, "name": "badcc903967b5c558afc371265efa1cf", "bike_id": "badcc903967b5c558afc371265efa1cf", "is_disabled": 0, "type": "electric_bike", "lat": 38.958807166666666, "lon": -76.92484766666666, "is_reserved": 0, "fusion_lon": 0.0}, {"rental_uris": {"ios": "https://dc.lft.to/lastmile_qr_scan", "android": "https://dc.lft.to/lastmile_qr_scan"}, "fusion_lat": 0.0, "name": "31944187691c83cc7a3c8443fcd270f4", "bike_id": "31944187691c83cc7a3c8443fcd270f4", "is_disabled": 0, "type": "electric_scooter", "lat": 38.92531783333333, "lon": -77.02632233333334, "is_reserved": 0, "fusion_lon": 0.0}, {"rental_uris": {"ios": "https://dc.lft.to/lastmile_qr_scan", "android": "https://dc.lft.to/lastmile_qr_scan"}, "fusion_lat": 0.0, "name": "e083e0363cde7021ced547dbf16437b9", "bike_id": "e083e0363cde7021ced547dbf16437b9", "is_disabled": 0, "type": "electric_scooter", "lat": 38.9177445, "lon": -77.043385, "is_reserved": 0, "fusion_lon": 0.0},