{"data": {"bikes": [{"is_reserved": 0, "type": "electric_scooter", "fusion_lat": 0.0, "is_disabled": 0, "rental_uris": {"ios": "https://dc.lft.to/lastmile_qr_scan", "android": "https://dc.lft.to/lastmile_qr_scan"}, "bike_id": "992829d8672e7f9e9656948965069776", "lat": 38.94009366666667, "name": "992829d8672e7f9e9656948965069776", "lon": -77.07730733333334, "fusion_lon": 0.0}, {"is_reserved": 0, "type": "electric_scooter", "fusion_lat": 0.0, "is_disabled": 0, "rental_uris": {"ios": "https://dc.lft.to/lastmile_qr_scan", "android": "https://dc.lft.to/lastmile_qr_scan"}, "bike_id": "261f783e9a6af4aff439b051252697e3", "lat": 38.93001, "name": "261f783e9a6af4aff439b051252697e3", "lon": -77.02116733333334, "fusion_lon": 0.0}, {"is_reserved": 0, "type": "electric_scooter", "fusion_lat": 0.0, "is_disabled": 0, "rental_uris": {"ios": "https://dc.lft.to/lastmile_qr_scan", "android": "https://dc.lft.to/lastmile_qr_scan"}, "bike_id": "cc0d85f0679f00a55b9e89f9ad75c835", "lat": 38.952177166666665, "name": "cc0d85f0679f00a55b9e89f9ad75c835", "lon": -77.0688695, "fusion_lon": 0.0}, {"is_reserved": 0, "type": "electric_scooter", "fusion_lat": 0.0, "is_disabled": 0, "rental_uris": {"ios": "https://dc.lft.to/lastmile_qr_scan", "android": "https://dc.lft.to/lastmile_qr_scan"}, "bike_id": "389f2e5189f5f6d85e9949e5b62ef567", "lat": 38.8788405, "name": "389f2e5189f5f6d85e9949e5b62ef567", "lon": -76.96540866666666, "fusion_lon": 0.0}, {"is_reserved": 0, "type": "electric_scooter", "fusion_lat": 0.0, "is_disabled": 0, "rental_uris": {"ios": "https://dc.lft.to/lastmile_qr_scan", "android": "https://dc.lft.to/lastmile_qr_scan"}, "bike_id": "ed501956a7704b161207401695caad26", "lat": 38.89939566666666, "name": "ed501956a7704b161207401695caad26", "lon": -76.93758383333333, "fusion_lon": 0.0}, {"is_reserved": 0, "type": "electric_scooter", "fusion_lat": 0.0, "is_disabled": 0, "rental_uris": {"ios": "https://dc.lft.to/lastmile_qr_scan", "android": "https://dc.lft.to/lastmile_qr_scan"}, "bike_id": "6c399b7d96995df2e01b2a68873b5d79", "lat": 38.90185433333333, "name": "6c399b7d96995df2e01b2a68873b5d79", "lon": -76.976797, "fusion_lon": 0.0}, {"is_reserved": 0, "type": "electric_scooter", "fusion_lat": 0.0, "is_disabled": 0, "rental_uris": {"ios": "https://dc.lft.to/lastmile_qr_scan", "android": "https://dc.lft.to/lastmile_qr_scan"}, "bike_id": "9797d9b3acbe942605f173ba32ce8cfb", "lat": 38.92819816666667, "name": "9797d9b3acbe942605f173ba32ce8cfb", "lon": -77.01405583333333, "fusion_lon": 0.0}, {"is_reserved": 0, "type": "electric_scooter", "fusion_lat": 0.0, "is_disabled": 0, "rental_uris": {"ios": "https://dc.lft.to/lastmile_qr_scan", "android": "https://dc.lft.to/lastmile_qr_scan"}, "bike_id": "aab741709fb4fa95667b1c447cf4146a", "lat": 38.910052, "name": "aab741709fb4fa95667b1c447cf4146a", "lon": -77.04423433333334, "fusion_lon": 0.0}, {"is_reserved": 0, "type": "electric_bike", "fusion_lat": 0.0, "is_disabled": 0, "rental_uris": {"ios": "https://dc.lft.to/lastmile_qr_scan", "android": "https://dc.lft.to/lastmile_qr_scan"}, "bike_id": "4b650fa1b0e221e0db3cc07cceb82014", "lat": 39.034761833333334, "name": "4b650fa1b0e221e0db3cc07cceb82014", "lon": -77.04105533333333, "fusion_lon": 0.0}, {"is_reserved": 0, "type": "electric_scooter", "fusion_lat": 0.0, "is_disabled": 0, "rental_uris": {"ios": "https://dc.lft.to/lastmile_qr_scan", "android": "https://dc.lft.to/lastmile_qr_scan"}, "bike_id": "4c468f7700cc11cd661749282b2ca09d", "lat": 38.907620333333334, "name": "4c468f7700cc11cd661749282b2ca09d", "lon": -77.02398416666666, "fusion_lon": 0.0}, {"is_reserved": 0, "type": "electric_scooter", "fusion_lat": 0.0, "is_disabled": 0, "rental_uris": {"ios": "https://dc.lft.to/lastmile_qr_scan", "android": "https://dc.lft.to/lastmile_qr_scan"}, "bike_id": "63b27f36ec5aab57dfd289943aca9a9c", "lat": 38.92069083333333, "name": "63b27f36ec5aab57dfd289943aca9a9c", "lon": -77.04378366666667, "fusion_lon": 0.0}, {"is_reserved": 0, "type": "electric_scooter", "fusion_lat": 0.0, "is_disabled": 0, "rental_uris": {"ios": "https://dc.lft.to/lastmile_qr_scan", "android": "https://dc.lft.to/lastmile_qr_scan"}, "bike_id": "da571ad4b7fb938ca7501fadc5eec768", "lat": 38.90299916666667, "name": "da571ad4b7fb938ca7501fadc5eec768", "lon": -76.99841666666667, "fusion_lon": 0.0}, {"is_reserved": 0, "type": "electric_scooter", "fusion_lat": 0.0, "is_disabled": 0, "rental_uris": {"ios": "https://dc.lft.to/lastmile_qr_scan", "android": "https://dc.lft.to/lastmile_qr_scan"}, "bike_id": "e2a685585844e184d495c6e0828dbdb1", "lat": 38.92486433333333, "name": "e2a685585844e184d495c6e0828dbdb1", "lon": -77.02549583333334, "fusion_lon": 0.0}, {"is_reserved": 0, "type": "electric_scooter", "fusion_lat": 0.0, "is_disabled": 0, "rental_uris": {"ios": "https://dc.lft.to/lastmile_qr_scan", "android": "https://dc.lft.to/lastmile_qr_scan"}, "bike_id": "5ee9d964e4fd24a49fb8095663c848b1", "lat": 38.88007833333333, "name": "5ee9d964e4fd24a49fb8095663c848b1", "lon": -76.99834233333333, "fusion_lon": 0.0}, {"is_reserved": 0, "type": "electric_scooter", "fusion_lat": 0.0, "is_disabled": 0, "rental_uris": {"ios": "https://dc.lft.to/lastmile_qr_scan", "android": "https://dc.lft.to/lastmile_qr_scan"}, "bike_id": "19a429730175197b995bcb1581f5060c", "lat": 38.8950765, "name": "19a429730175197b995bcb1581f5060c", "lon": -76.948878, "fusion_lon": 0.0}, {"is_reserved": 0, "type": "electric_scooter", "fusion_lat": 0.0, "is_disabled": 0, "rental_uris": {"ios": "https://dc.lft.to/lastmile_qr_scan", "android": "https://dc.lft.to/lastmile_qr_scan"}, "bike_id": "71cf4806f0cdf8976d48849790b9781c", "lat": 38.903640833333334, "name": "71cf4806f0cdf8976d48849790b9781c", "lon": -76.97815366666667, "fusion_lon": 0.0}, {"is_reserved": 0, "type": "electric_scooter", "fusion_lat": 0.0, "is_disabled": 0, "rental_uris": {"ios": "https://dc.lft.to/lastmile_qr_scan", "android": "https://dc.lft.to/lastmile_qr_scan"}, "bike_id": "296df3486c54869d1faf72f1fbf3ee22", "lat": 38.9104735, "name": "296df3486c54869d1faf72f1fbf3ee22", "lon": -76.99794933333334, "fusion_lon": 0.0}, {"is_reserved": 0, "type": "electric_scooter", "fusion_lat": 0.0, "is_disabled": 0, "rental_uris": {"ios": "https://dc.lft.to/lastmile_qr_scan", "android": "https://dc.lft.to/lastmile_qr_scan"}, "bike_id": "d1ae00f170b0df3edf02ad76ed3f0e72", "lat": 38.902437166666665, "name": "d1ae00f170b0df3edf02ad76ed3f0e72", "lon": -77.02647166666667, "fusion_lon": 0.0}, {"is_reserved": 0, "type": "electric_bike", "fusion_lat": 0.0, "is_disabled": 0, "rental_uris": {"ios": "https://dc.lft.to/lastmile_qr_scan", "android": "https://dc.lft.to/lastmile_qr_scan"}, "bike_id": "31fabd32cbccdf79885921960d1a7417", "lat": 38.9228205, "name": "31fabd32cbccdf79885921960d1a7417", "lon": -76.9977135, "fusion_lon": 0.0}, {"is_reserved": 0, "type": "electric_scooter", "fusion_lat": 0.0, "is_disabled": 0, "rental_uris": {"ios": "https://dc.lft.to/lastmile_qr_scan", "android": "https://dc.lft.to/lastmile_qr_scan"}, "bike_id": "58b028b76abff84731942be6d5bb5b81", "lat": 38.9183025, "name": "58b028b76abff84731942be6d5bb5b81", "lon": -77.0452835, "fusion_lon": 0.0}, {"is_reserved": 0, "type": "electric_scooter", "fusion_lat": 0.0, "is_disabled": 0, "rental_uris": {"ios": "https://dc.lft.to/lastmile_qr_scan", "android": "https://dc.lft.to/lastmile_qr_scan"}, "bike_id": "164c5824b07621ae06dc6a1262f60c4a", "lat": 38.923347666666665, "name": "164c5824b07621ae06dc6a1262f60c4a", "lon": -77.00891516666667, "fusion_lon": 0.0}, {"is_reserved": 0, "type": "electric_scooter", "fusion_lat": 0.0, "is_disabled": 0, "rental_uris": {"ios": "https://dc.lft.to/lastmile_qr_scan", "android": "https://dc.lft.to/lastmile_qr_scan"}, "bike_id": "4fea862e4a44de5132579f07936f391e", "lat": 38.91106216666667, "name": "4fea862e4a44de5132579f07936f391e", "lon": -77.01106383333334, "fusion_lon": 0.0}, {"is_reserved": 0, "type": "electric_scooter", "fusion_lat": 0.0, "is_disabled": 0, "rental_uris": {"ios": "https://dc.lft.to/lastmile_qr_scan", "android": "https://dc.lft.to/lastmile_qr_scan"}, "bike_id": "d8d0dae6e178431b70c6f4a497aeb7f0", "lat": 38.91821783333333, "name": "d8d0dae6e178431b70c6f4a497aeb7f0", "lon": -77.027035, "fusion_lon": 0.0}, {"is_reserved": 0, "type": "electric_scooter", "fusion_lat": 0.0, "is_disabled": 0, "rental_uris": {"ios": "https://dc.lft.to/lastmile_qr_scan", "android": "https://dc.lft.to/lastmile_qr_scan"}, "bike_id": "8e86b823d9b9d8d63411aee920038c4f", "lat": 38.909075666666666, "name": "8e86b823d9b9d8d63411aee920038c4f", "lon": -77.00295183333333, "fusion_lon": 0.0}, {"is_reserved": 0, "type": "electric_scooter", "fusion_lat": 0.0, "is_disabled": 0, "rental_uris": {"ios": "https://dc.lft.to/lastmile_qr_scan", "android": "https://dc.lft.to/lastmile_qr_scan"}, "bike_id": "3bf32ed2df64df7f302b358d5ebe676e", "lat": 38.89527316666667, "name": "3bf32ed2df64df7f302b358d5ebe676e", "lon": -76.97721483333333, "fusion_lon": 0.0}, {"is_reserved": 0, "type": "electric_scooter", "fusion_lat": 0.0, "is_disabled": 0, "rental_uris": {"ios": "https://dc.lft.to/lastmile_qr_scan", "android": "https://dc.lft.to/lastmile_qr_scan"}, "bike_id": "8fbcafda1f85e9d0751bf4342f11a878", "lat": 38.88106766666667, "name": "8fbcafda1f85e9d0751bf4342f11a878", "lon": -77.02638233333333, "fusion_lon": 0.0}, {"is_reserved": 0, "type": "electric_scooter", "fusion_lat": 0.0, "is_disabled": 0, "rental_uris": {"ios": "https://dc.lft.to/lastmile_qr_scan", "android": "https://dc.lft.to/lastmile_qr_scan"}, "bike_id": "5e5f648156ed74cd2dee8ac46af7fcbd", "lat": 38.92322883333333, "name": "5e5f648156ed74cd2dee8ac46af7fcbd", "lon": -77.03525583333334, "fusion_lon": 0.0}, {"is_reserved": 0, "type": "electric_bike", "fusion_lat": 0.0, "is_disabled": 0, "rental_uris": {"ios": "https://dc.lft.to/lastmile_qr_scan", "android": "https://dc.lft.to/lastmile_qr_scan"}, "bike_id": "b9a3290d7723565e21e19245e5a94622", "lat": 38.91049183333333, "name": "b9a3290d7723565e21e19245e5a94622", "lon": -77.02176383333334, "fusion_lon": 0.0}, {"is_reserved": 0, "type": "electric_scooter", "fusion_lat": 0.0, "is_disabled": 0, "rental_uris": {"ios": "https://dc.lft.to/lastmile_qr_scan", "android": "https://dc.lft.to/lastmile_qr_scan"}, "bike_id": "a6a453c597fd92ff6bd94ed29fff039b", "lat": 38.89969116666666, "name": "a6a453c597fd92ff6bd94ed29fff039b", "lon": -77.04190866666667, "fusion_lon": 0.0}, {"is_reserved": 0, "type": "electric_scooter", "fusion_lat": 0.0, "is_disabled": 0, "rental_uris": {"ios": "https://dc.lft.to/lastmile_qr_scan", "android": "https://dc.lft.to/lastmile_qr_scan"}, "bike_id": "3e74e9c804c803493362be64f1171764", "lat": 38.9038745, "name": "3e74e9c804c803493362be64f1171764", "lon": -77.051346, "fusion_lon": 0.0}, {"is_reserved": 0, "type": "electric_scooter", "fusion_lat": 0.0, "is_disabled": 0, "rental_uris": {"ios": "https://dc.lft.to/lastmile_qr_scan", "android": "https://dc.lft.to/lastmile_qr_scan"}, "bike_id": "1ee4eec23d936ecf30625bef68b8e803", "lat": 38.919465333333335, "name": "1ee4eec23d936ecf30625bef68b8e803", "lon": -77.002178, "fusion_lon": 0.0}, {"is_reserved": 0, "type": "electric_scooter", "fusion_lat": 0.0, "is_disabled": 0, "rental_uris": {"ios": "https://dc.lft.to/lastmile_qr_scan", "android": "https://dc.lft.to/lastmile_qr_scan"}, "bike_id": "0e94d99baf5f620c45d7f9c441e5e549", "lat": 38.93973016666666, "name": "0e94d99baf5f620c45d7f9c441e5e549", "lon": -77.03429033333333, "fusion_lon": 0.0}, {"is_reserved": 0, "type": "electric_scooter", "fusion_lat": 0.0, "is_disabled": 0, "rental_uris": {"ios": "https://dc.lft.to/lastmile_qr_scan", "android": "https://dc.lft.to/lastmile_qr_scan"}, "bike_id": "a3e3721d5cb7d4f72751fcdc8d67523f", "lat": 38.897339, "name": "a3e3721d5cb7d4f72751fcdc8d67523f", "lon": -77.04370916666667, "fusion_lon": 0.0}, {"is_reserved": 0, "type": "electric_scooter", "fusion_lat": 0.0, "is_disabled": 0, "rental_uris": {"ios": "https://dc.lft.to/lastmile_qr_scan", "android": "https://dc.lft.to/lastmile_qr_scan"}, "bike_id": "d0064836c59873f0293f8f0b6598f1f7", "lat": 38.917186, "name": "d0064836c59873f0293f8f0b6598f1f7", "lon": -77.09208, "fusion_lon": 0.0}, {"is_reserved": 0, "type": "electric_scooter", "fusion_lat": 0.0, "is_disabled": 0, "rental_uris": {"ios": "https://dc.lft.to/lastmile_qr_scan", "android": "https://dc.lft.to/lastmile_qr_scan"}, "bike_id": "61638575b33f6f7bd83daea613bdc942", "lat": 38.885779166666666, "name": "61638575b33f6f7bd83daea613bdc942", "lon": -77.00034866666667, "fusion_lon": 0.0}, {"is_reserved": 0, "type": "electric_scooter", "fusion_lat": 0.0, "is_disabled": 0, "rental_uris": {"ios": "https://dc.lft.to/lastmile_qr_scan", "android": "https://dc.lft.to/lastmile_qr_scan"}, "bike_id": "ab82cdaeff20cdf3aff928441f647bf7", "lat": 38.91057033333333, "name": "ab82cdaeff20cdf3aff928441f647bf7", "lon": -77.026568, "fusion_lon": 0.0}, {"is_reserved": 0, "type": "electric_bike", "fusion_lat": 0.0, "is_disabled": 0, "rental_uris": {"ios": "https://dc.lft.to/lastmile_qr_scan", "android": "https://dc.lft.to/lastmile_qr_scan"}, "bike_id": "ecfdda3d60985cd334cf001386506846", "lat": 38.945115, "name": "ecfdda3d60985cd334cf001386506846", "lon": -76.9680655, "fusion_lon": 0.0}, {"is_reserved": 0, "type": "electric_scooter", "fusion_lat": 0.0, "is_disabled": 0, "rental_uris": {"ios": "https://dc.lft.to/lastmile_qr_scan", "android": "https://dc.lft.to/lastmile_qr_scan"}, "bike_id": "63073f030c3242f5fb957245e17d6d7f", "lat": 38.90782866666667, "name": "63073f030c3242f5fb957245e17d6d7f", "lon": -77.07248833333334, "fusion_lon": 0.0}, {"is_reserved": 0, "type": "electric_scooter", "fusion_lat": 0.0, "is_disabled": 0, "rental_uris": {"ios": "https://dc.lft.to/lastmile_qr_scan", "android": "https://dc.lft.to/lastmile_qr_scan"}, "bike_id": "f21d6cb27ee668ab5a7ae5f5b2eaa3bf", "lat": 38.915463833333334, "name": "f21d6cb27ee668ab5a7ae5f5b2eaa3bf", "lon": -77.02972316666667, "fusion_lon": 0.0}, {"is_reserved": 0, "type": "electric_scooter", "fusion_lat": 0.0, "is_disabled": 0, "rental_uris": {"ios": "https://dc.lft.to/lastmile_qr_scan", "android": "https://dc.lft.to/lastmile_qr_scan"}, "bike_id": "9d8fff67eb7110ea928a02ea91bc7cb3", "lat": 38.9050315, "name": "9d8fff67eb7110ea928a02ea91bc7cb3", "lon": -77.0433765, "fusion_lon": 0.0}, {"is_reserved": 0, "type": "electric_scooter", "fusion_lat": 0.0, "is_disabled": 0, "rental_uris": {"ios": "https://dc.lft.to/lastmile_qr_scan", "android": "https://dc.lft.to/lastmile_qr_scan"}, "bike_id": "ee1dcb2ff78e3d922ec203521c70cbf1", "lat": 38.873748666666664, "name": "ee1dcb2ff78e3d922ec203521c70cbf1", "lon": -77.00136766666667, "fusion_lon": 0.0}, {"is_reserved": 0, "type": "electric_scooter", "fusion_lat": 0.0, "is_disabled": 0, "rental_uris": {"ios": "https://dc.lft.to/lastmile_qr_scan", "android": "https://dc.lft.to/lastmile_qr_scan"}, "bike_id": "64afaba6dfe6de82d8ae0552f0843fa9", "lat": 38.94463183333333, "name": "64afaba6dfe6de82d8ae0552f0843fa9", "lon": -77.00657616666666, "fusion_lon": 0.0}, {"is_reserved": 0, "type": "electric_scooter", "fusion_lat": 0.0, "is_disabled": 0, "rental_uris": {"ios": "https://dc.lft.to/lastmile_qr_scan", "android": "https://dc.lft.to/lastmile_qr_scan"}, "bike_id": "cf2ca0ecd688d9467204351909fc68ef", "lat": 38.93373866666667, "name": "cf2ca0ecd688d9467204351909fc68ef", "lon": -77.07241966666666, "fusion_lon": 0.0}, {"is_reserved": 0, "type": "electric_scooter", "fusion_lat": 0.0, "is_disabled": 0, "rental_uris": {"ios": "https://dc.lft.to/lastmile_qr_scan", "android": "https://dc.lft.to/lastmile_qr_scan"}, "bike_id": "6b13c8ccee74c31c90626fe90e408de4", "lat": 38.920465166666666, "name": "6b13c8ccee74c31c90626fe90e408de4", "lon": -77.033959, "fusion_lon": 0.0}, {"is_reserved": 0, "type": "electric_scooter", "fusion_lat": 0.0, "is_disabled": 0, "rental_uris": {"ios": "https://dc.lft.to/lastmile_qr_scan", "android": "https://dc.lft.to/lastmile_qr_scan"}, "bike_id": "b59871e8d072069e82e5bdc5ee382da1", "lat": 38.912151, "name": "b59871e8d072069e82e5bdc5ee382da1", "lon": -77.00665516666666, "fusion_lon": 0.0}, {"is_reserved": 0, "type": "electric_scooter", "fusion_lat": 0.0, "is_disabled": 0, "rental_uris": {"ios": "https://dc.lft.to/lastmile_qr_scan", "android": "https://dc.lft.to/lastmile_qr_scan"}, "bike_id": "2813addb40dbf9be98878f9373864151", "lat": 38.902650666666666, "name": "2813addb40dbf9be98878f9373864151", "lon": -76.98979016666667, "fusion_lon": 0.0}, {"is_reserved": 0, "type": "electric_bike", "fusion_lat": 0.0, "is_disabled": 0, "rental_uris": {"ios": "https://dc.lft.to/lastmile_qr_scan", "android": "https://dc.lft.to/lastmile_qr_scan"}, "bike_id": "2657c1e241a2d44719c1853a6ab4b7e5", "lat": 38.883743833333334, "name": "2657c1e241a2d44719c1853a6ab4b7e5", "lon": -76.9237405, "fusion_lon": 0.0}, {"is_reserved": 0, "type": "electric_scooter", "fusion_lat": 0.0, "is_disabled": 0, "rental_uris": {"ios": "https://dc.lft.to/lastmile_qr_scan", "android": "https://dc.lft.to/lastmile_qr_scan"}, "bike_id": "8e6eed672ed94cc59d55f7ed7fa8c11d", "lat": 38.901212, "name": "8e6eed672ed94cc59d55f7ed7fa8c11d", "lon": -77.05149666666667, "fusion_lon": 0.0}, {"is_reserved": 0, "type": "electric_bike", "fusion_lat": 0.0, "is_disabled": 0, "rental_uris": {"ios": "https://dc.lft.to/lastmile_qr_scan", "android": "https://dc.lft.to/lastmile_qr_scan"}, "bike_id": "e33be456bbf4f98689eb42caa29f6ee2", "lat": 39.0843375, "name": "e33be456bbf4f98689eb42caa29f6ee2", "lon": -76.95141316666667, "fusion_lon": 0.0}, {"is_reserved": 0, "type": "electric_scooter", "fusion_lat": 0.0, "is_disabled": 0, "rental_uris": {"ios": "https://dc.lft.to/lastmile_qr_scan", "android": "https://dc.lft.to/lastmile_qr_scan"}, "bike_id": "0014aa5f2b32306847ae8ae12b6d3907", "lat": 38.92681616666667, "name": "0014aa5f2b32306847ae8ae12b6d3907", "lon": -77.00882, "fusion_lon": 0.0}, {"is_reserved": 0, "type": "electric_scooter", "fusion_lat": 0.0, "is_disabled": 0, "rental_uris": {"ios": "https://dc.lft.to/lastmile_qr_scan", "android": "https://dc.lft.to/lastmile_qr_scan"}, "bike_id": "0e2efb8aa5589a19103d77ab7457bacf", "lat": 38.9241795, "name": "0e2efb8aa5589a19103d77ab7457bacf", "lon": -77.01949233333333, "fusion_lon": 0.0}, {"is_reserved": 0, "type": "electric_scooter", "fusion_lat": 0.0, "is_disabled": 0, "rental_uris": {"ios": "https://dc.lft.to/lastmile_qr_scan", "android": "https://dc.lft.to/lastmile_qr_scan"}, "bike_id": "c427d44763073e8f1541a11c4a74ea59", "lat": 38.931623333333334, "name": "c427d44763073e8f1541a11c4a74ea59", "lon": -77.05608816666667, "fusion_lon": 0.0}, {"is_reserved": 0, "type": "electric_scooter", "fusion_lat": 0.0, "is_disabled": 0, "rental_uris": {"ios": "https://dc.lft.to/lastmile_qr_scan", "android": "https://dc.lft.to/lastmile_qr_scan"}, "bike_id": "db1ebb935c14b0fb976b9d54ba0db67a", "lat": 38.907332333333336, "name": "db1ebb935c14b0fb976b9d54ba0db67a", "lon": -77.04528116666667, "fusion_lon": 0.0}, {"is_reserved": 0, "type": "electric_scooter", "fusion_lat": 0.0, "is_disabled": 0, "rental_uris": {"ios": "https://dc.lft.to/lastmile_qr_scan", "android": "https://dc.lft.to/lastmile_qr_scan"}, "bike_id": "aabe07c19eceaed9c34a4a4061c5ea9b", "lat": 38.88397033333333, "name": "aabe07c19eceaed9c34a4a4061c5ea9b", "lon": -76.93041233333334, "fusion_lon": 0.0}, {"is_reserved": 0, "type": "electric_scooter", "fusion_lat": 0.0, "is_disabled": 0, "rental_uris": {"ios": "https://dc.lft.to/lastmile_qr_scan", "android": "https://dc.lft.to/lastmile_qr_scan"}, "bike_id": "90fcde4828821bfae24428f5d299f8b9", "lat": 38.903814, "name": "90fcde4828821bfae24428f5d299f8b9", "lon": -77.05077033333333, "fusion_lon": 0.0}, {"is_reserved": 0, "type": "electric_scooter", "fusion_lat": 0.0, "is_disabled": 0, "rental_uris": {"ios": "https://dc.lft.to/lastmile_qr_scan", "android": "https://dc.lft.to/lastmile_qr_scan"}, "bike_id": "d0b429ad8e6ce6be2ac7740fde0cbd3d", "lat": 38.923612, "name": "d0b429ad8e6ce6be2ac7740fde0cbd3d", "lon": -77.0297825, "fusion_lon": 0.0}, {"is_reserved": 0, "type": "electric_scooter", "fusion_lat": 0.0, "is_disabled": 0, "rental_uris": {"ios": "https://dc.lft.to/lastmile_qr_scan", "android": "https://dc.lft.to/lastmile_qr_scan"}, "bike_id": "daa9aab429132e768083033861a20df6", "lat": 38.9036065, "name": "daa9aab429132e768083033861a20df6", "lon": -77.0057105, "fusion_lon": 0.0}, {"is_reserved": 0, "type": "electric_scooter", "fusion_lat": 0.0, "is_disabled": 0, "rental_uris": {"ios": "https://dc.lft.to/lastmile_qr_scan", "android": "https://dc.lft.to/lastmile_qr_scan"}, "bike_id": "a8797765669b827c04240b236adb060e", "lat": 38.906784333333334, "name": "a8797765669b827c04240b236adb060e", "lon": -77.027069, "fusion_lon": 0.0}, {"is_reserved": 0, "type": "electric_bike", "fusion_lat": 0.0, "is_disabled": 0, "rental_uris": {"ios": "https://dc.lft.to/lastmile_qr_scan", "android": "https://dc.lft.to/lastmile_qr_scan"}, "bike_id": "6e47429b7cb2dd06f19cf664e5ee93be", "lat": 38.85789316666666, "name": "6e47429b7cb2dd06f19cf664e5ee93be", "lon": -77.099682, "fusion_lon": 0.0}, {"is_reserved": 0, "type": "electric_scooter", "fusion_lat": 0.0, "is_disabled": 0, "rental_uris": {"ios": "https://dc.lft.to/lastmile_qr_scan", "android": "https://dc.lft.to/lastmile_qr_scan"}, "bike_id": "209fdc415fea6c74ad04d02785bcd329", "lat": 38.89848633333333, "name": "209fdc415fea6c74ad04d02785bcd329", "lon": -76.9903485, "fusion_lon": 0.0}, {"is_reserved": 0, "type": "electric_scooter", "fusion_lat": 0.0, "is_disabled": 0, "rental_uris": {"ios": "https://dc.lft.to/lastmile_qr_scan", "android": "https://dc.lft.to/lastmile_qr_scan"}, "bike_id": "55aa4358a9cf7a96fac0c37c06c19ab5", "lat": 38.9280145, "name": "55aa4358a9cf7a96fac0c37c06c19ab5", "lon": -77.02390516666667, "fusion_lon": 0.0}, {"is_reserved": 0, "type": "electric_scooter", "fusion_lat": 0.0, "is_disabled": 0, "rental_uris": {"ios": "https://dc.lft.to/lastmile_qr_scan", "android": "https://dc.lft.to/lastmile_qr_scan"}, "bike_id": "b229f30806ad2cefae098a42f2c34919", "lat": 38.91728033333333, "name": "b229f30806ad2cefae098a42f2c34919", "lon": -77.04583966666667, "fusion_lon": 0.0}, {"is_reserved": 0, "type": "electric_scooter", "fusion_lat": 0.0, "is_disabled": 0, "rental_uris": {"ios": "https://dc.lft.to/lastmile_qr_scan", "android": "https://dc.lft.to/lastmile_qr_scan"}, "bike_id": "94c36c8f6b6ea8562b6931f76e51436d", "lat": 38.9295795, "name": "94c36c8f6b6ea8562b6931f76e51436d", "lon": -77.03279016666667, "fusion_lon": 0.0}, {"is_reserved": 0, "type": "electric_bike", "fusion_lat": 0.0, "is_disabled": 0, "rental_uris": {"ios": "https://dc.lft.to/lastmile_qr_scan", "android": "https://dc.lft.to/lastmile_qr_scan"}, "bike_id": "23beb0ffca26806e889dc6d6c51c35ed", "lat": 38.822068, "name": "23beb0ffca26806e889dc6d6c51c35ed", "lon": -76.97706816666667, "fusion_lon": 0.0}, {"is_reserved": 0, "type": "electric_scooter", "fusion_lat": 0.0, "is_disabled": 0, "rental_uris": {"ios": "https://dc.lft.to/lastmile_qr_scan", "android": "https://dc.lft.to/lastmile_qr_scan"}, "bike_id": "2fbb1f6d197dafca87c41e0aec5a7aa9", "lat": 38.9147015, "name": "2fbb1f6d197dafca87c41e0aec5a7aa9", "lon": -77.00206316666667, "fusion_lon": 0.0}, {"is_reserved": 0, "type": "electric_bike", "fusion_lat": 0.0, "is_disabled": 0, "rental_uris": {"ios": "https://dc.lft.to/lastmile_qr_scan", "android": "https://dc.lft.to/lastmile_qr_scan"}, "bike_id": "1f63e3e8bd828b38a72f7f441f5aa049", "lat": 38.880239, "name": "1f63e3e8bd828b38a72f7f441f5aa049", "lon": -76.98615666666667, "fusion_lon": 0.0}, {"is_reserved": 0, "type": "electric_scooter", "fusion_lat": 0.0, "is_disabled": 0, "rental_uris": {"ios": "https://dc.lft.to/lastmile_qr_scan", "android": "https://dc.lft.to/lastmile_qr_scan"}, "bike_id": "603777fd13362e7d4139304b3dbd5853", "lat": 38.916969, "name": "603777fd13362e7d4139304b3dbd5853", "lon": -77.05301066666667, "fusion_lon": 0.0}, {"is_reserved": 0, "type": "electric_scooter", "fusion_lat": 0.0, "is_disabled": 0, "rental_uris": {"ios": "https://dc.lft.to/lastmile_qr_scan", "android": "https://dc.lft.to/lastmile_qr_scan"}, "bike_id": "d26d3f108f803bf2bb4e764f304059ef", "lat": 38.9173555, "name": "d26d3f108f803bf2bb4e764f304059ef", "lon": -77.0684265, "fusion_lon": 0.0}, {"is_reserved": 0, "type": "electric_scooter", "fusion_lat": 0.0, "is_disabled": 0, "rental_uris": {"ios": "https://dc.lft.to/lastmile_qr_scan", "android": "https://dc.lft.to/lastmile_qr_scan"}, "bike_id": "bf31bc767ae72027e69bce238471a906", "lat": 38.91962733333333, "name": "bf31bc767ae72027e69bce238471a906", "lon": -77.02386266666667, "fusion_lon": 0.0}, {"is_reserved": 0, "type": "electric_scooter", "fusion_lat": 0.0, "is_disabled": 0, "rental_uris": {"ios": "https://dc.lft.to/lastmile_qr_scan", "android": "https://dc.lft.to/lastmile_qr_scan"}, "bike_id": "c54c9a90dfbc4e1ffaca84823b786109", "lat": 38.89662916666666, "name": "c54c9a90dfbc4e1ffaca84823b786109", "lon": -77.043397, "fusion_lon": 0.0}, {"is_reserved": 0, "type": "electric_scooter", "fusion_lat": 0.0, "is_disabled": 0, "rental_uris": {"ios": "https://dc.lft.to/lastmile_qr_scan", "android": "https://dc.lft.to/lastmile_qr_scan"}, "bike_id": "5b0c6bf5898db5a94214a0d4ee92fda0", "lat": 38.90502466666667, "name": "5b0c6bf5898db5a94214a0d4ee92fda0", "lon": -77.01714783333334, "fusion_lon": 0.0}, {"is_reserved": 0, "type": "electric_bike", "fusion_lat": 0.0, "is_disabled": 0, "rental_uris": {"ios": "https://dc.lft.to/lastmile_qr_scan", "android": "https://dc.lft.to/lastmile_qr_scan"}, "bike_id": "65fb17376e85ac2a2d7a10338f93329f", "lat": 38.8524245, "name": "65fb17376e85ac2a2d7a10338f93329f", "lon": -77.1141365, "fusion_lon": 0.0}, {"is_reserved": 0, "type": "electric_scooter", "fusion_lat": 0.0, "is_disabled": 0, "rental_uris": {"ios": "https://dc.lft.to/lastmile_qr_scan", "android": "https://dc.lft.to/lastmile_qr_scan"}, "bike_id": "756a8da7d5a71f5af1703e941acd1011", "lat": 38.897348666666666, "name": "756a8da7d5a71f5af1703e941acd1011", "lon": -77.05130733333333, "fusion_lon": 0.0}, {"is_reserved": 0, "type": "electric_scooter", "fusion_lat": 0.0, "is_disabled": 0, "rental_uris": {"ios": "https://dc.lft.to/lastmile_qr_scan", "android": "https://dc.lft.to/lastmile_qr_scan"}, "bike_id": "0328f912024a417538f1d6645141da06", "lat": 38.90143466666667, "name": "0328f912024a417538f1d6645141da06", "lon": -76.929825, "fusion_lon": 0.0}, {"is_reserved": 0, "type": "electric_bike", "fusion_lat": 0.0, "is_disabled": 0, "rental_uris": {"ios": "https://dc.lft.to/lastmile_qr_scan", "android": "https://dc.lft.to/lastmile_qr_scan"}, "bike_id": "3cdc36a8a769fb8e1d9b223aa4353296", "lat": 39.006440833333336, "name": "3cdc36a8a769fb8e1d9b223aa4353296", "lon": -76.90023116666667, "fusion_lon": 0.0}, {"is_reserved": 0, "type": "electric_scooter", "fusion_lat": 0.0, "is_disabled": 0, "rental_uris": {"ios": "https://dc.lft.to/lastmile_qr_scan", "android": "https://dc.lft.to/lastmile_qr_scan"}, "bike_id": "b90f089b0a879c036f0a16dd6306c903", "lat": 38.8427625, "name": "b90f089b0a879c036f0a16dd6306c903", "lon": -76.9884175, "fusion_lon": 0.0}, {"is_reserved": 0, "type": "electric_scooter", "fusion_lat": 0.0, "is_disabled": 0, "rental_uris": {"ios": "https://dc.lft.to/lastmile_qr_scan", "android": "https://dc.lft.to/lastmile_qr_scan"}, "bike_id": "6d1a6aebb1ee8858ba7c6c8a38e79168", "lat": 38.9232775, "name": "6d1a6aebb1ee8858ba7c6c8a38e79168", "lon": -77.02901333333334, "fusion_lon": 0.0}, {"is_reserved": 0, "type": "electric_scooter", "fusion_lat": 0.0, "is_disabled": 0, "rental_uris": {"ios": "https://dc.lft.to/lastmile_qr_scan", "android": "https://dc.lft.to/lastmile_qr_scan"}, "bike_id": "ba1290c1acdbacd5e0ad6752b6c3812a", "lat": 38.92423266666667, "name": "ba1290c1acdbacd5e0ad6752b6c3812a", "lon": -77.0448215, "fusion_lon": 0.0}, {"is_reserved": 0, "type": "electric_scooter", "fusion_lat": 0.0, "is_disabled": 0, "rental_uris": {"ios": "https://dc.lft.to/lastmile_qr_scan", "android": "https://dc.lft.to/lastmile_qr_scan"}, "bike_id": "78da82d31a9e5c722b9c49b32be03e18", "lat": 38.916956166666665, "name": "78da82d31a9e5c722b9c49b32be03e18", "lon": -77.0259865, "fusion_lon": 0.0}, {"is_reserved": 0, "type": "electric_scooter", "fusion_lat": 0.0, "is_disabled": 0, "rental_uris": {"ios": "https://dc.lft.to/lastmile_qr_scan", "android": "https://dc.lft.to/lastmile_qr_scan"}, "bike_id": "f8e1617472556669c906786b1f3a9ffa", "lat": 38.9521895, "name": "f8e1617472556669c906786b1f3a9ffa", "lon": -77.0886505, "fusion_lon": 0.0}, {"is_reserved": 0, "type": "electric_scooter", "fusion_lat": 0.0, "is_disabled": 0, "rental_uris": {"ios": "https://dc.lft.to/lastmile_qr_scan", "android": "https://dc.lft.to/lastmile_qr_scan"}, "bike_id": "3fcdfa85502afe3724034e4f44b065fd", "lat": 38.91043583333333, "name": "3fcdfa85502afe3724034e4f44b065fd", "lon": -76.9980305, "fusion_lon": 0.0}, {"is_reserved": 0, "type": "electric_scooter", "fusion_lat": 0.0, "is_disabled": 0, "rental_uris": {"ios": "https://dc.lft.to/lastmile_qr_scan", "android": "https://dc.lft.to/lastmile_qr_scan"}, "bike_id": "a1fe5082a622ae7bd19ca4a7192e251e", "lat": 38.93127416666667, "name": "a1fe5082a622ae7bd19ca4a7192e251e", "lon": -77.03852383333333, "fusion_lon": 0.0}, {"is_reserved": 0, "type": "electric_scooter", "fusion_lat": 0.0, "is_disabled": 0, "rental_uris": {"ios": "https://dc.lft.to/lastmile_qr_scan", "android": "https://dc.lft.to/lastmile_qr_scan"}, "bike_id": "21d73fdd0aa6df93340f2315e6bb97be", "lat": 38.88300233333333, "name": "21d73fdd0aa6df93340f2315e6bb97be", "lon": -76.93487516666667, "fusion_lon": 0.0}, {"is_reserved": 0, "type": "electric_scooter", "fusion_lat": 0.0, "is_disabled": 0, "rental_uris": {"ios": "https://dc.lft.to/lastmile_qr_scan", "android": "https://dc.lft.to/lastmile_qr_scan"}, "bike_id": "9f376356d8e3ebf9bd22a888aca8980a", "lat": 38.924214, "name": "9f376356d8e3ebf9bd22a888aca8980a", "lon": -77.02014633333333, "fusion_lon": 0.0}, {"is_reserved": 0, "type": "electric_scooter", "fusion_lat": 0.0, "is_disabled": 0, "rental_uris": {"ios": "https://dc.lft.to/lastmile_qr_scan", "android": "https://dc.lft.to/lastmile_qr_scan"}, "bike_id": "8a77047945f77e4ce5773ed8f9772137", "lat": 38.9276595, "name": "8a77047945f77e4ce5773ed8f9772137", "lon": -77.023185, "fusion_lon": 0.0}, {"is_reserved": 0, "type": "electric_bike", "fusion_lat": 0.0, "is_disabled": 0, "rental_uris": {"ios": "https://dc.lft.to/lastmile_qr_scan", "android": "https://dc.lft.to/lastmile_qr_scan"}, "bike_id": "6c497d728e5cfa12889fb3cc2626f504", "lat": 38.91029433333333, "name": "6c497d728e5cfa12889fb3cc2626f504", "lon": -76.92335983333334, "fusion_lon": 0.0}, {"is_reserved": 0, "type": "electric_scooter", "fusion_lat": 0.0, "is_disabled": 0, "rental_uris": {"ios": "https://dc.lft.to/lastmile_qr_scan", "android": "https://dc.lft.to/lastmile_qr_scan"}, "bike_id": "20336d12c293da488f926eebcb9d851a", "lat": 38.921539, "name": "20336d12c293da488f926eebcb9d851a", "lon": -77.04358333333333, "fusion_lon": 0.0}, {"is_reserved": 0, "type": "electric_scooter", "fusion_lat": 0.0, "is_disabled": 0, "rental_uris": {"ios": "https://dc.lft.to/lastmile_qr_scan", "android": "https://dc.lft.to/lastmile_qr_scan"}, "bike_id": "b00c331a04fa64d87678d9757d2f8c54", "lat": 38.929992666666664, "name": "b00c331a04fa64d87678d9757d2f8c54", "lon": -77.03775566666667, "fusion_lon": 0.0}, {"is_reserved": 0, "type": "electric_scooter", "fusion_lat": 0.0, "is_disabled": 0, "rental_uris": {"ios": "https://dc.lft.to/lastmile_qr_scan", "android": "https://dc.lft.to/lastmile_qr_scan"}, "bike_id": "ddbda3d39f1bf945052348212da56794", "lat": 38.914713, "name": "ddbda3d39f1bf945052348212da56794", "lon": -77.021774, "fusion_lon": 0.0}, {"is_reserved": 0, "type": "electric_scooter", "fusion_lat": 0.0, "is_disabled": 0, "rental_uris": {"ios": "https://dc.lft.to/lastmile_qr_scan", "android": "https://dc.lft.to/lastmile_qr_scan"}, "bike_id": "10ef5d2e50dcd2888a41e30270a7b085", "lat": 38.9188685, "name": "10ef5d2e50dcd2888a41e30270a7b085", "lon": -77.03733666666666, "fusion_lon": 0.0}, {"is_reserved": 0, "type": "electric_scooter", "fusion_lat": 0.0, "is_disabled": 0, "rental_uris": {"ios": "https://dc.lft.to/lastmile_qr_scan", "android": "https://dc.lft.to/lastmile_qr_scan"}, "bike_id": "e6007a176f09a445456000f5612cbf27", "lat": 38.941100666666664, "name": "e6007a176f09a445456000f5612cbf27", "lon": -77.025458, "fusion_lon": 0.0}, {"is_reserved": 0, "type": "electric_scooter", "fusion_lat": 0.0, "is_disabled": 0, "rental_uris": {"ios": "https://dc.lft.to/lastmile_qr_scan", "android": "https://dc.lft.to/lastmile_qr_scan"}, "bike_id": "3052a4ff581300fd0f58a75866d01b2a", "lat": 38.92415116666667, "name": "3052a4ff581300fd0f58a75866d01b2a", "lon": -77.02008466666666, "fusion_lon": 0.0}, {"is_reserved": 0, "type": "electric_scooter", "fusion_lat": 0.0, "is_disabled": 0, "rental_uris": {"ios": "https://dc.lft.to/lastmile_qr_scan", "android": "https://dc.lft.to/lastmile_qr_scan"}, "bike_id": "a376cba197bf8283a3f02adc03fca309", "lat": 38.907194, "name": "a376cba197bf8283a3f02adc03fca309", "lon": -77.0250655, "fusion_lon": 0.0}, {"is_reserved": 0, "type": "electric_scooter", "fusion_lat": 0.0, "is_disabled": 0, "rental_uris": {"ios": "https://dc.lft.to/lastmile_qr_scan", "android": "https://dc.lft.to/lastmile_qr_scan"}, "bike_id": "6b50fcb10a585385d29312ff002b02a1", "lat": 38.89249866666667, "name": "6b50fcb10a585385d29312ff002b02a1", "lon": -77.0261195, "fusion_lon": 0.0}, {"is_reserved": 0, "type": "electric_scooter", "fusion_lat": 0.0, "is_disabled": 0, "rental_uris": {"ios": "https://dc.lft.to/lastmile_qr_scan", "android": "https://dc.lft.to/lastmile_qr_scan"}, "bike_id": "6220a3ce45fe4b9e1b12b3c17418f98e", "lat": 38.91349666666667, "name": "6220a3ce45fe4b9e1b12b3c17418f98e", "lon": -76.97141483333333, "fusion_lon": 0.0}, {"is_reserved": 0, "type": "electric_scooter", "fusion_lat": 0.0, "is_disabled": 0, "rental_uris": {"ios": "https://dc.lft.to/lastmile_qr_scan", "android": "https://dc.lft.to/lastmile_qr_scan"}, "bike_id": "ccf863f3cd5367de17849af03c382751", "lat": 38.909695, "name": "ccf863f3cd5367de17849af03c382751", "lon": -77.048752, "fusion_lon": 0.0}, {"is_reserved": 0, "type": "electric_scooter", "fusion_lat": 0.0, "is_disabled": 0, "rental_uris": {"ios": "https://dc.lft.to/lastmile_qr_scan", "android": "https://dc.lft.to/lastmile_qr_scan"}, "bike_id": "548a089f01d645f8f499cbe19458f42e", "lat": 38.90006916666667, "name": "548a089f01d645f8f499cbe19458f42e", "lon": -77.00676883333334, "fusion_lon": 0.0}, {"is_reserved": 0, "type": "electric_scooter", "fusion_lat": 0.0, "is_disabled": 0, "rental_uris": {"ios": "https://dc.lft.to/lastmile_qr_scan", "android": "https://dc.lft.to/lastmile_qr_scan"}, "bike_id": "18ec829d3b63058166cd6f69c950c9d5", "lat": 38.934052333333334, "name": "18ec829d3b63058166cd6f69c950c9d5", "lon": -77.04547866666667, "fusion_lon": 0.0}, {"is_reserved": 0, "type": "electric_scooter", "fusion_lat": 0.0, "is_disabled": 0, "rental_uris": {"ios": "https://dc.lft.to/lastmile_qr_scan", "android": "https://dc.lft.to/lastmile_qr_scan"}, "bike_id": "a44c7209699cc263c40fa117970d9004", "lat": 38.902585, "name": "a44c7209699cc263c40fa117970d9004", "lon": -77.03973766666667, "fusion_lon": 0.0}, {"is_reserved": 0, "type": "electric_scooter", "fusion_lat": 0.0, "is_disabled": 0, "rental_uris": {"ios": "https://dc.lft.to/lastmile_qr_scan", "android": "https://dc.lft.to/lastmile_qr_scan"}, "bike_id": "5e63beb0c71aa30f75c67efccd690cf1", "lat": 38.9238505, "name": "5e63beb0c71aa30f75c67efccd690cf1", "lon": -77.036509, "fusion_lon": 0.0}, {"is_reserved": 0, "type": "electric_scooter", "fusion_lat": 0.0, "is_disabled": 0, "rental_uris": {"ios": "https://dc.lft.to/lastmile_qr_scan", "android": "https://dc.lft.to/lastmile_qr_scan"}, "bike_id": "b11d61a234be18b8cac7b9ab51913199", "lat": 38.88451833333333, "name": "b11d61a234be18b8cac7b9ab51913199", "lon": -77.02905183333333, "fusion_lon": 0.0}, {"is_reserved": 0, "type": "electric_scooter", "fusion_lat": 0.0, "is_disabled": 0, "rental_uris": {"ios": "https://dc.lft.to/lastmile_qr_scan", "android": "https://dc.lft.to/lastmile_qr_scan"}, "bike_id": "8ceeda525fd7b028a31b03b1864565fc", "lat": 38.920969, "name": "8ceeda525fd7b028a31b03b1864565fc", "lon": -77.0470625, "fusion_lon": 0.0}, {"is_reserved": 0, "type": "electric_scooter", "fusion_lat": 0.0, "is_disabled": 0, "rental_uris": {"ios": "https://dc.lft.to/lastmile_qr_scan", "android": "https://dc.lft.to/lastmile_qr_scan"}, "bike_id": "68403d5ba666f45e90780a151b9a7afa", "lat": 38.93086066666667, "name": "68403d5ba666f45e90780a151b9a7afa", "lon": -77.026783, "fusion_lon": 0.0}, {"is_reserved": 0, "type": "electric_scooter", "fusion_lat": 0.0, "is_disabled": 0, "rental_uris": {"ios": "https://dc.lft.to/lastmile_qr_scan", "android": "https://dc.lft.to/lastmile_qr_scan"}, "bike_id": "f7d0f973fa9d00621fa7bdf32c56330f", "lat": 38.91546683333333, "name": "f7d0f973fa9d00621fa7bdf32c56330f", "lon": -77.0384925, "fusion_lon": 0.0}, {"is_reserved": 0, "type": "electric_bike", "fusion_lat": 0.0, "is_disabled": 0, "rental_uris": {"ios": "https://dc.lft.to/lastmile_qr_scan", "android": "https://dc.lft.to/lastmile_qr_scan"}, "bike_id": "8996e5847150d3d38ed1cad6d4ca5630", "lat": 38.90891083333333, "name": "8996e5847150d3d38ed1cad6d4ca5630", "lon": -77.02296216666667, "fusion_lon": 0.0}, {"is_reserved": 0, "type": "electric_scooter", "fusion_lat": 0.0, "is_disabled": 0, "rental_uris": {"ios": "https://dc.lft.to/lastmile_qr_scan", "android": "https://dc.lft.to/lastmile_qr_scan"}, "bike_id": "88b4ef720145447e877038066b907e8e", "lat": 38.93254666666667, "name": "88b4ef720145447e877038066b907e8e", "lon": -77.03278733333333, "fusion_lon": 0.0}, {"is_reserved": 0, "type": "electric_scooter", "fusion_lat": 0.0, "is_disabled": 0, "rental_uris": {"ios": "https://dc.lft.to/lastmile_qr_scan", "android": "https://dc.lft.to/lastmile_qr_scan"}, "bike_id": "6b8baa39297f687ad0b921d0ca0cac4f", "lat": 38.87370216666667, "name": "6b8baa39297f687ad0b921d0ca0cac4f", "lon": -77.001351, "fusion_lon": 0.0}, {"is_reserved": 0, "type": "electric_scooter", "fusion_lat": 0.0, "is_disabled": 0, "rental_uris": {"ios": "https://dc.lft.to/lastmile_qr_scan", "android": "https://dc.lft.to/lastmile_qr_scan"}, "bike_id": "81a3c7ad150b150e479a32f0fb2ef67c", "lat": 38.87922533333333, "name": "81a3c7ad150b150e479a32f0fb2ef67c", "lon": -77.017005, "fusion_lon": 0.0}, {"is_reserved": 0, "type": "electric_scooter", "fusion_lat": 0.0, "is_disabled": 0, "rental_uris": {"ios": "https://dc.lft.to/lastmile_qr_scan", "android": "https://dc.lft.to/lastmile_qr_scan"}, "bike_id": "2e92e104bf0eac684d58cdb05e7cb3fd", "lat": 38.928154666666664, "name": "2e92e104bf0eac684d58cdb05e7cb3fd", "lon": -77.01413666666667, "fusion_lon": 0.0}, {"is_reserved": 0, "type": "electric_scooter", "fusion_lat": 0.0, "is_disabled": 0, "rental_uris": {"ios": "https://dc.lft.to/lastmile_qr_scan", "android": "https://dc.lft.to/lastmile_qr_scan"}, "bike_id": "77bf66f7bd1f9e0ab83a4320dd77d05e", "lat": 38.916942166666665, "name": "77bf66f7bd1f9e0ab83a4320dd77d05e", "lon": -77.00495533333333, "fusion_lon": 0.0}, {"is_reserved": 0, "type": "electric_bike", "fusion_lat": 0.0, "is_disabled": 0, "rental_uris": {"ios": "https://dc.lft.to/lastmile_qr_scan", "android": "https://dc.lft.to/lastmile_qr_scan"}, "bike_id": "f377ba5d43dbbb6d5398bc9d44cd3e5d", "lat": 38.864412333333334, "name": "f377ba5d43dbbb6d5398bc9d44cd3e5d", "lon": -76.96989316666667, "fusion_lon": 0.0}, {"is_reserved": 0, "type": "electric_scooter", "fusion_lat": 0.0, "is_disabled": 0, "rental_uris": {"ios": "https://dc.lft.to/lastmile_qr_scan", "android": "https://dc.lft.to/lastmile_qr_scan"}, "bike_id": "9b6748884e9bbe3faa0fca5185ab5b39", "lat": 38.90569716666667, "name": "9b6748884e9bbe3faa0fca5185ab5b39", "lon": -77.00649983333334, "fusion_lon": 0.0}, {"is_reserved": 0, "type": "electric_scooter", "fusion_lat": 0.0, "is_disabled": 0, "rental_uris": {"ios": "https://dc.lft.to/lastmile_qr_scan", "android": "https://dc.lft.to/lastmile_qr_scan"}, "bike_id": "33534d7627ef4a11012f46bebce58f88", "lat": 38.878441, "name": "33534d7627ef4a11012f46bebce58f88", "lon": -77.006925, "fusion_lon": 0.0}, {"is_reserved": 0, "type": "electric_bike", "fusion_lat": 0.0, "is_disabled": 0, "rental_uris": {"ios": "https://dc.lft.to/lastmile_qr_scan", "android": "https://dc.lft.to/lastmile_qr_scan"}, "bike_id": "49e156974593d6cdc00e08139407245a", "lat": 38.880534833333336, "name": "49e156974593d6cdc00e08139407245a", "lon": -76.9853135, "fusion_lon": 0.0}, {"is_reserved": 0, "type": "electric_scooter", "fusion_lat": 0.0, "is_disabled": 0, "rental_uris": {"ios": "https://dc.lft.to/lastmile_qr_scan", "android": "https://dc.lft.to/lastmile_qr_scan"}, "bike_id": "28a1c04907e80d17b94915817816ee8d", "lat": 38.908775166666665, "name": "28a1c04907e80d17b94915817816ee8d", "lon": -77.04489166666667, "fusion_lon": 0.0}, {"is_reserved": 0, "type": "electric_bike", "fusion_lat": 0.0, "is_disabled": 0, "rental_uris": {"ios": "https://dc.lft.to/lastmile_qr_scan", "android": "https://dc.lft.to/lastmile_qr_scan"}, "bike_id": "f2576ba3916d7c3cc801cea851e2d59f", "lat": 38.95624383333333, "name": "f2576ba3916d7c3cc801cea851e2d59f", "lon": -76.93878633333334, "fusion_lon": 0.0}, {"is_reserved": 0, "type": "electric_bike", "fusion_lat": 0.0, "is_disabled": 0, "rental_uris": {"ios": "https://dc.lft.to/lastmile_qr_scan", "android": "https://dc.lft.to/lastmile_qr_scan"}, "bike_id": "1f0db18217454d150eacd783189a1d94", "lat": 38.857958333333336, "name": "1f0db18217454d150eacd783189a1d94", "lon": -76.98751633333333, "fusion_lon": 0.0}, {"is_reserved": 0, "type": "electric_scooter", "fusion_lat": 0.0, "is_disabled": 0, "rental_uris": {"ios": "https://dc.lft.to/lastmile_qr_scan", "android": "https://dc.lft.to/lastmile_qr_scan"}, "bike_id": "474796d4ff0b82563c965f6212e43f6b", "lat": 38.927117, "name": "474796d4ff0b82563c965f6212e43f6b", "lon": -77.0599345, "fusion_lon": 0.0}, {"is_reserved": 0, "type": "electric_bike", "fusion_lat": 0.0, "is_disabled": 0, "rental_uris": {"ios": "https://dc.lft.to/lastmile_qr_scan", "android": "https://dc.lft.to/lastmile_qr_scan"}, "bike_id": "8355893fc6625fee3331adc3d6a7614f", "lat": 39.0262195, "name": "8355893fc6625fee3331adc3d6a7614f", "lon": -77.038787, "fusion_lon": 0.0}, {"is_reserved": 0, "type": "electric_scooter", "fusion_lat": 0.0, "is_disabled": 0, "rental_uris": {"ios": "https://dc.lft.to/lastmile_qr_scan", "android": "https://dc.lft.to/lastmile_qr_scan"}, "bike_id": "31d6f49cd3ba16b27cc616f1bf50cb55", "lat": 38.890397666666665, "name": "31d6f49cd3ba16b27cc616f1bf50cb55", "lon": -76.98836383333334, "fusion_lon": 0.0}, {"is_reserved": 0, "type": "electric_scooter", "fusion_lat": 0.0, "is_disabled": 0, "rental_uris": {"ios": "https://dc.lft.to/lastmile_qr_scan", "android": "https://dc.lft.to/lastmile_qr_scan"}, "bike_id": "d4c7729dda896bcbd20c089d95ba6bcb", "lat": 38.93879883333334, "name": "d4c7729dda896bcbd20c089d95ba6bcb", "lon": -77.02830133333333, "fusion_lon": 0.0}, {"is_reserved": 0, "type": "electric_scooter", "fusion_lat": 0.0, "is_disabled": 0, "rental_uris": {"ios": "https://dc.lft.to/lastmile_qr_scan", "android": "https://dc.lft.to/lastmile_qr_scan"}, "bike_id": "2ac2197940d42957055365cd336e68d2", "lat": 38.9065755, "name": "2ac2197940d42957055365cd336e68d2", "lon": -77.00925666666667, "fusion_lon": 0.0}, {"is_reserved": 0, "type": "electric_scooter", "fusion_lat": 0.0, "is_disabled": 0, "rental_uris": {"ios": "https://dc.lft.to/lastmile_qr_scan", "android": "https://dc.lft.to/lastmile_qr_scan"}, "bike_id": "77a39dc7bf4e281874a6df658b32c01a", "lat": 38.909108833333335, "name": "77a39dc7bf4e281874a6df658b32c01a", "lon": -77.04949816666667, "fusion_lon": 0.0}, {"is_reserved": 0, "type": "electric_scooter", "fusion_lat": 0.0, "is_disabled": 0, "rental_uris": {"ios": "https://dc.lft.to/lastmile_qr_scan", "android": "https://dc.lft.to/lastmile_qr_scan"}, "bike_id": "439002c9f4f41b6869c68b13775fbc9e", "lat": 38.947021166666666, "name": "439002c9f4f41b6869c68b13775fbc9e", "lon": -77.01936833333333, "fusion_lon": 0.0}, {"is_reserved": 0, "type": "electric_scooter", "fusion_lat": 0.0, "is_disabled": 0, "rental_uris": {"ios": "https://dc.lft.to/lastmile_qr_scan", "android": "https://dc.lft.to/lastmile_qr_scan"}, "bike_id": "c2c00071eb8070c67132bb7d25aae1ea", "lat": 38.91874633333333, "name": "c2c00071eb8070c67132bb7d25aae1ea", "lon": -77.07308333333333, "fusion_lon": 0.0}, {"is_reserved": 0, "type": "electric_scooter", "fusion_lat": 0.0, "is_disabled": 0, "rental_uris": {"ios": "https://dc.lft.to/lastmile_qr_scan", "android": "https://dc.lft.to/lastmile_qr_scan"}, "bike_id": "8006d2bf257c6195fb4f19dc084d86b3", "lat": 38.88765766666667, "name": "8006d2bf257c6195fb4f19dc084d86b3", "lon": -76.9773535, "fusion_lon": 0.0}, {"is_reserved": 0, "type": "electric_scooter", "fusion_lat": 0.0, "is_disabled": 0, "rental_uris": {"ios": "https://dc.lft.to/lastmile_qr_scan", "android": "https://dc.lft.to/lastmile_qr_scan"}, "bike_id": "b14418fdfa9dd9acb4ed6bb129b52501", "lat": 38.914212, "name": "b14418fdfa9dd9acb4ed6bb129b52501", "lon": -77.06929083333333, "fusion_lon": 0.0}, {"is_reserved": 0, "type": "electric_scooter", "fusion_lat": 0.0, "is_disabled": 0, "rental_uris": {"ios": "https://dc.lft.to/lastmile_qr_scan", "android": "https://dc.lft.to/lastmile_qr_scan"}, "bike_id": "ef208b612a60a18f86c120ef7fcbc4a6", "lat": 38.924301166666666, "name": "ef208b612a60a18f86c120ef7fcbc4a6", "lon": -77.0194405, "fusion_lon": 0.0}, {"is_reserved": 0, "type": "electric_scooter", "fusion_lat": 0.0, "is_disabled": 0, "rental_uris": {"ios": "https://dc.lft.to/lastmile_qr_scan", "android": "https://dc.lft.to/lastmile_qr_scan"}, "bike_id": "0f9e7da67e85203d5dc58b6d469a947b", "lat": 38.873484833333336, "name": "0f9e7da67e85203d5dc58b6d469a947b", "lon": -77.00196433333333, "fusion_lon": 0.0}, {"is_reserved": 0, "type": "electric_scooter", "fusion_lat": 0.0, "is_disabled": 0, "rental_uris": {"ios": "https://dc.lft.to/lastmile_qr_scan", "android": "https://dc.lft.to/lastmile_qr_scan"}, "bike_id": "9a33c7871c00378a443dec3b947c20a7", "lat": 38.917432166666664, "name": "9a33c7871c00378a443dec3b947c20a7", "lon": -77.01088333333334, "fusion_lon": 0.0}, {"is_reserved": 0, "type": "electric_scooter", "fusion_lat": 0.0, "is_disabled": 0, "rental_uris": {"ios": "https://dc.lft.to/lastmile_qr_scan", "android": "https://dc.lft.to/lastmile_qr_scan"}, "bike_id": "b4fe7fc14871b741dcb6e40bf5c42d7d", "lat": 38.89932066666667, "name": "b4fe7fc14871b741dcb6e40bf5c42d7d", "lon": -76.93760166666667, "fusion_lon": 0.0}, {"is_reserved": 0, "type": "electric_scooter", "fusion_lat": 0.0, "is_disabled": 0, "rental_uris": {"ios": "https://dc.lft.to/lastmile_qr_scan", "android": "https://dc.lft.to/lastmile_qr_scan"}, "bike_id": "659e3e8acb2b5ceb8e05f7c366f22521", "lat": 38.912627, "name": "659e3e8acb2b5ceb8e05f7c366f22521", "lon": -77.04766533333333, "fusion_lon": 0.0}, {"is_reserved": 0, "type": "electric_scooter", "fusion_lat": 0.0, "is_disabled": 0, "rental_uris": {"ios": "https://dc.lft.to/lastmile_qr_scan", "android": "https://dc.lft.to/lastmile_qr_scan"}, "bike_id": "cceb92096022445da534976957cfd76d", "lat": 38.887652, "name": "cceb92096022445da534976957cfd76d", "lon": -76.97736383333333, "fusion_lon": 0.0}, {"is_reserved": 0, "type": "electric_scooter", "fusion_lat": 0.0, "is_disabled": 0, "rental_uris": {"ios": "https://dc.lft.to/lastmile_qr_scan", "android": "https://dc.lft.to/lastmile_qr_scan"}, "bike_id": "2e42a322736d4d5b29b5bdb12945c11f", "lat": 38.8762135, "name": "2e42a322736d4d5b29b5bdb12945c11f", "lon": -77.00211516666667, "fusion_lon": 0.0}, {"is_reserved": 0, "type": "electric_scooter", "fusion_lat": 0.0, "is_disabled": 0, "rental_uris": {"ios": "https://dc.lft.to/lastmile_qr_scan", "android": "https://dc.lft.to/lastmile_qr_scan"}, "bike_id": "84b473ab5df6f0f2a5de44d48a592ac0", "lat": 38.8922205, "name": "84b473ab5df6f0f2a5de44d48a592ac0", "lon": -77.0464735, "fusion_lon": 0.0}, {"is_reserved": 0, "type": "electric_scooter", "fusion_lat": 0.0, "is_disabled": 0, "rental_uris": {"ios": "https://dc.lft.to/lastmile_qr_scan", "android": "https://dc.lft.to/lastmile_qr_scan"}, "bike_id": "572dc53169b41045cc7be27658397eb0", "lat": 38.96620716666666, "name": "572dc53169b41045cc7be27658397eb0", "lon": -77.02001333333334, "fusion_lon": 0.0}, {"is_reserved": 0, "type": "electric_scooter", "fusion_lat": 0.0, "is_disabled": 0, "rental_uris": {"ios": "https://dc.lft.to/lastmile_qr_scan", "android": "https://dc.lft.to/lastmile_qr_scan"}, "bike_id": "af41433b08ab9f51cdd20a3faa7561eb", "lat": 38.917343, "name": "af41433b08ab9f51cdd20a3faa7561eb", "lon": -77.03609566666667, "fusion_lon": 0.0}, {"is_reserved": 0, "type": "electric_scooter", "fusion_lat": 0.0, "is_disabled": 0, "rental_uris": {"ios": "https://dc.lft.to/lastmile_qr_scan", "android": "https://dc.lft.to/lastmile_qr_scan"}, "bike_id": "95b5e2427e2b07717c9725675478ec4d", "lat": 38.89770083333333, "name": "95b5e2427e2b07717c9725675478ec4d", "lon": -77.04789716666667, "fusion_lon": 0.0}, {"is_reserved": 0, "type": "electric_scooter", "fusion_lat": 0.0, "is_disabled": 0, "rental_uris": {"ios": "https://dc.lft.to/lastmile_qr_scan", "android": "https://dc.lft.to/lastmile_qr_scan"}, "bike_id": "d55927754a46607ddcefa234c4ddeb09", "lat": 38.91248683333333, "name": "d55927754a46607ddcefa234c4ddeb09", "lon": -76.98657683333333, "fusion_lon": 0.0}, {"is_reserved": 0, "type": "electric_scooter", "fusion_lat": 0.0, "is_disabled": 0, "rental_uris": {"ios": "https://dc.lft.to/lastmile_qr_scan", "android": "https://dc.lft.to/lastmile_qr_scan"}, "bike_id": "0314b063356ae58a301e3b5c2cadb2c9", "lat": 38.92171666666667, "name": "0314b063356ae58a301e3b5c2cadb2c9", "lon": -77.0460295, "fusion_lon": 0.0}, {"is_reserved": 0, "type": "electric_scooter", "fusion_lat": 0.0, "is_disabled": 0, "rental_uris": {"ios": "https://dc.lft.to/lastmile_qr_scan", "android": "https://dc.lft.to/lastmile_qr_scan"}, "bike_id": "928c19b2dc4949e69f246063f1dd480b", "lat": 38.91072466666667, "name": "928c19b2dc4949e69f246063f1dd480b", "lon": -77.01609, "fusion_lon": 0.0}, {"is_reserved": 0, "type": "electric_bike", "fusion_lat": 0.0, "is_disabled": 0, "rental_uris": {"ios": "https://dc.lft.to/lastmile_qr_scan", "android": "https://dc.lft.to/lastmile_qr_scan"}, "bike_id": "5917af477086c893ebab1524e652ea38", "lat": 38.90691266666666, "name": "5917af477086c893ebab1524e652ea38", "lon": -76.95257166666667, "fusion_lon": 0.0}, {"is_reserved": 0, "type": "electric_scooter", "fusion_lat": 0.0, "is_disabled": 0, "rental_uris": {"ios": "https://dc.lft.to/lastmile_qr_scan", "android": "https://dc.lft.to/lastmile_qr_scan"}, "bike_id": "e7c4694f5f9a398e706a22b8651f2048", "lat": 38.93177566666667, "name": "e7c4694f5f9a398e706a22b8651f2048", "lon": -77.03155916666667, "fusion_lon": 0.0}, {"is_reserved": 0, "type": "electric_scooter", "fusion_lat": 0.0, "is_disabled": 0, "rental_uris": {"ios": "https://dc.lft.to/lastmile_qr_scan", "android": "https://dc.lft.to/lastmile_qr_scan"}, "bike_id": "0910da8f8aec877c6d3e73af98a5a796", "lat": 38.90141883333333, "name": "0910da8f8aec877c6d3e73af98a5a796", "lon": -76.93156233333333, "fusion_lon": 0.0}, {"is_reserved": 0, "type": "electric_bike", "fusion_lat": 0.0, "is_disabled": 0, "rental_uris": {"ios": "https://dc.lft.to/lastmile_qr_scan", "android": "https://dc.lft.to/lastmile_qr_scan"}, "bike_id": "9656c75859830b43878e9b1066aa11f3", "lat": 38.86553116666666, "name": "9656c75859830b43878e9b1066aa11f3", "lon": -76.941494, "fusion_lon": 0.0}, {"is_reserved": 0, "type": "electric_scooter", "fusion_lat": 0.0, "is_disabled": 0, "rental_uris": {"ios": "https://dc.lft.to/lastmile_qr_scan", "android": "https://dc.lft.to/lastmile_qr_scan"}, "bike_id": "07b38be81ab01d95796e9917608eefef", "lat": 38.921808666666664, "name": "07b38be81ab01d95796e9917608eefef", "lon": -77.03842316666666, "fusion_lon": 0.0}, {"is_reserved": 0, "type": "electric_bike", "fusion_lat": 0.0, "is_disabled": 0, "rental_uris": {"ios": "https://dc.lft.to/lastmile_qr_scan", "android": "https://dc.lft.to/lastmile_qr_scan"}, "bike_id": "8ec5cc531ddc73ba0ed05eddea9682a1", "lat": 38.813309833333335, "name": "8ec5cc531ddc73ba0ed05eddea9682a1", "lon": -77.050868, "fusion_lon": 0.0}, {"is_reserved": 0, "type": "electric_scooter", "fusion_lat": 0.0, "is_disabled": 0, "rental_uris": {"ios": "https://dc.lft.to/lastmile_qr_scan", "android": "https://dc.lft.to/lastmile_qr_scan"}, "bike_id": "5ead67069c1f3441024b79f8fce55dca", "lat": 38.901051, "name": "5ead67069c1f3441024b79f8fce55dca", "lon": -77.01809966666667, "fusion_lon": 0.0}, {"is_reserved": 0, "type": "electric_scooter", "fusion_lat": 0.0, "is_disabled": 0, "rental_uris": {"ios": "https://dc.lft.to/lastmile_qr_scan", "android": "https://dc.lft.to/lastmile_qr_scan"}, "bike_id": "d03a8200c2dc0fe45d029aa53687286f", "lat": 38.939013333333335, "name": "d03a8200c2dc0fe45d029aa53687286f", "lon": -77.03284166666667, "fusion_lon": 0.0}, {"is_reserved": 0, "type": "electric_scooter", "fusion_lat": 0.0, "is_disabled": 0, "rental_uris": {"ios": "https://dc.lft.to/lastmile_qr_scan", "android": "https://dc.lft.to/lastmile_qr_scan"}, "bike_id": "b59c197e8668f5155f1ca40ddf74b5ce", "lat": 38.946817, "name": "b59c197e8668f5155f1ca40ddf74b5ce", "lon": -77.03282066666667, "fusion_lon": 0.0}, {"is_reserved": 0, "type": "electric_scooter", "fusion_lat": 0.0, "is_disabled": 0, "rental_uris": {"ios": "https://dc.lft.to/lastmile_qr_scan", "android": "https://dc.lft.to/lastmile_qr_scan"}, "bike_id": "b06437bd00046cd8b9a718769f688992", "lat": 38.93196833333333, "name": "b06437bd00046cd8b9a718769f688992", "lon": -77.032671, "fusion_lon": 0.0}, {"is_reserved": 0, "type": "electric_scooter", "fusion_lat": 0.0, "is_disabled": 0, "rental_uris": {"ios": "https://dc.lft.to/lastmile_qr_scan", "android": "https://dc.lft.to/lastmile_qr_scan"}, "bike_id": "999da75d8b233b0fbd6060796d2d6486", "lat": 38.88448733333333, "name": "999da75d8b233b0fbd6060796d2d6486", "lon": -76.9509635, "fusion_lon": 0.0}, {"is_reserved": 0, "type": "electric_scooter", "fusion_lat": 0.0, "is_disabled": 0, "rental_uris": {"ios": "https://dc.lft.to/lastmile_qr_scan", "android": "https://dc.lft.to/lastmile_qr_scan"}, "bike_id": "3872d29630d30c61ad81e88f9d46bbf2", "lat": 38.90958, "name": "3872d29630d30c61ad81e88f9d46bbf2", "lon": -77.021237, "fusion_lon": 0.0}, {"is_reserved": 0, "type": "electric_scooter", "fusion_lat": 0.0, "is_disabled": 0, "rental_uris": {"ios": "https://dc.lft.to/lastmile_qr_scan", "android": "https://dc.lft.to/lastmile_qr_scan"}, "bike_id": "4ccbf91630c73429ed6eb8628e057d90", "lat": 38.9052455, "name": "4ccbf91630c73429ed6eb8628e057d90", "lon": -77.03093466666667, "fusion_lon": 0.0}, {"is_reserved": 0, "type": "electric_bike", "fusion_lat": 0.0, "is_disabled": 0, "rental_uris": {"ios": "https://dc.lft.to/lastmile_qr_scan", "android": "https://dc.lft.to/lastmile_qr_scan"}, "bike_id": "083043a44146700fb4564ce2412c5168", "lat": 38.813324333333334, "name": "083043a44146700fb4564ce2412c5168", "lon": -77.05089183333334, "fusion_lon": 0.0}, {"is_reserved": 0, "type": "electric_scooter", "fusion_lat": 0.0, "is_disabled": 0, "rental_uris": {"ios": "https://dc.lft.to/lastmile_qr_scan", "android": "https://dc.lft.to/lastmile_qr_scan"}, "bike_id": "55d19e6eedea4b8e907fb7ad49e93026", "lat": 38.92294033333334, "name": "55d19e6eedea4b8e907fb7ad49e93026", "lon": -77.02066866666667, "fusion_lon": 0.0}, {"is_reserved": 0, "type": "electric_scooter", "fusion_lat": 0.0, "is_disabled": 0, "rental_uris": {"ios": "https://dc.lft.to/lastmile_qr_scan", "android": "https://dc.lft.to/lastmile_qr_scan"}, "bike_id": "98d7f0efd658b1dcd9a091af281df3dd", "lat": 38.8773985, "name": "98d7f0efd658b1dcd9a091af281df3dd", "lon": -77.00595, "fusion_lon": 0.0}, {"is_reserved": 0, "type": "electric_bike", "fusion_lat": 0.0, "is_disabled": 0, "rental_uris": {"ios": "https://dc.lft.to/lastmile_qr_scan", "android": "https://dc.lft.to/lastmile_qr_scan"}, "bike_id": "457f7b335af044bdad0998bdac457180", "lat": 38.961263833333334, "name": "457f7b335af044bdad0998bdac457180", "lon": -77.03277, "fusion_lon": 0.0}, {"is_reserved": 0, "type": "electric_scooter", "fusion_lat": 0.0, "is_disabled": 0, "rental_uris": {"ios": "https://dc.lft.to/lastmile_qr_scan", "android": "https://dc.lft.to/lastmile_qr_scan"}, "bike_id": "3ff44df129bcfc5c8917c74c7bff07df", "lat": 38.898203333333335, "name": "3ff44df129bcfc5c8917c74c7bff07df", "lon": -76.930082, "fusion_lon": 0.0}, {"is_reserved": 0, "type": "electric_scooter", "fusion_lat": 0.0, "is_disabled": 0, "rental_uris": {"ios": "https://dc.lft.to/lastmile_qr_scan", "android": "https://dc.lft.to/lastmile_qr_scan"}, "bike_id": "d3cc3be5a0a5c881562961e4c2566e13", "lat": 38.892203333333335, "name": "d3cc3be5a0a5c881562961e4c2566e13", "lon": -77.04641383333333, "fusion_lon": 0.0}, {"is_reserved": 0, "type": "electric_scooter", "fusion_lat": 0.0, "is_disabled": 0, "rental_uris": {"ios": "https://dc.lft.to/lastmile_qr_scan", "android": "https://dc.lft.to/lastmile_qr_scan"}, "bike_id": "83c3b4438e70d78065dbadb6e0afc487", "lat": 38.922119333333335, "name": "83c3b4438e70d78065dbadb6e0afc487", "lon": -77.042384, "fusion_lon": 0.0}, {"is_reserved": 0, "type": "electric_bike", "fusion_lat": 0.0, "is_disabled": 0, "rental_uris": {"ios": "https://dc.lft.to/lastmile_qr_scan", "android": "https://dc.lft.to/lastmile_qr_scan"}, "bike_id": "3818457cf32db70bb3f4f9ce0bc78067", "lat": 38.8830045, "name": "3818457cf32db70bb3f4f9ce0bc78067", "lon": -77.00202583333333, "fusion_lon": 0.0}, {"is_reserved": 0, "type": "electric_scooter", "fusion_lat": 0.0, "is_disabled": 0, "rental_uris": {"ios": "https://dc.lft.to/lastmile_qr_scan", "android": "https://dc.lft.to/lastmile_qr_scan"}, "bike_id": "c971a91b36dc051d60ed66308cb44cfb", "lat": 38.8976815, "name": "c971a91b36dc051d60ed66308cb44cfb", "lon": -77.04789683333334, "fusion_lon": 0.0}, {"is_reserved": 0, "type": "electric_scooter", "fusion_lat": 0.0, "is_disabled": 0, "rental_uris": {"ios": "https://dc.lft.to/lastmile_qr_scan", "android": "https://dc.lft.to/lastmile_qr_scan"}, "bike_id": "c1f9a1395a3e651c39dacb23a4bb8f09", "lat": 38.9073785, "name": "c1f9a1395a3e651c39dacb23a4bb8f09", "lon": -77.00769233333334, "fusion_lon": 0.0}, {"is_reserved": 0, "type": "electric_bike", "fusion_lat": 0.0, "is_disabled": 0, "rental_uris": {"ios": "https://dc.lft.to/lastmile_qr_scan", "android": "https://dc.lft.to/lastmile_qr_scan"}, "bike_id": "750719d8ce03bb1382f37e39bc1c3a2c", "lat": 38.80977466666667, "name": "750719d8ce03bb1382f37e39bc1c3a2c", "lon": -77.07661833333333, "fusion_lon": 0.0}, {"is_reserved": 0, "type": "electric_scooter", "fusion_lat": 0.0, "is_disabled": 0, "rental_uris": {"ios": "https://dc.lft.to/lastmile_qr_scan", "android": "https://dc.lft.to/lastmile_qr_scan"}, "bike_id": "ece6d66278c454a48c47330bc6099fdd", "lat": 38.92665383333333, "name": "ece6d66278c454a48c47330bc6099fdd", "lon": -76.995422, "fusion_lon": 0.0}, {"is_reserved": 0, "type": "electric_bike", "fusion_lat": 0.0, "is_disabled": 0, "rental_uris": {"ios": "https://dc.lft.to/lastmile_qr_scan", "android": "https://dc.lft.to/lastmile_qr_scan"}, "bike_id": "3e2374b21051f8adc2aeb076776fb465", "lat": 38.92016983333333, "name": "3e2374b21051f8adc2aeb076776fb465", "lon": -77.00332983333334, "fusion_lon": 0.0}, {"is_reserved": 0, "type": "electric_scooter", "fusion_lat": 0.0, "is_disabled": 0, "rental_uris": {"ios": "https://dc.lft.to/lastmile_qr_scan", "android": "https://dc.lft.to/lastmile_qr_scan"}, "bike_id": "08eaae8c9053b09a0721453ea76d31fd", "lat": 38.894456, "name": "08eaae8c9053b09a0721453ea76d31fd", "lon": -76.98085183333333, "fusion_lon": 0.0}, {"is_reserved": 0, "type": "electric_scooter", "fusion_lat": 0.0, "is_disabled": 0, "rental_uris": {"ios": "https://dc.lft.to/lastmile_qr_scan", "android": "https://dc.lft.to/lastmile_qr_scan"}, "bike_id": "c5c6a110df7641575ee1532d4654737a", "lat": 38.93590316666667, "name": "c5c6a110df7641575ee1532d4654737a", "lon": -77.03758166666667, "fusion_lon": 0.0}, {"is_reserved": 0, "type": "electric_scooter", "fusion_lat": 0.0, "is_disabled": 0, "rental_uris": {"ios": "https://dc.lft.to/lastmile_qr_scan", "android": "https://dc.lft.to/lastmile_qr_scan"}, "bike_id": "62b256e3e1045a35f6a33c9ef520e0ba", "lat": 38.92463383333333, "name": "62b256e3e1045a35f6a33c9ef520e0ba", "lon": -77.02242333333334, "fusion_lon": 0.0}, {"is_reserved": 0, "type": "electric_bike", "fusion_lat": 0.0, "is_disabled": 0, "rental_uris": {"ios": "https://dc.lft.to/lastmile_qr_scan", "android": "https://dc.lft.to/lastmile_qr_scan"}, "bike_id": "8e7b7320981378a20f157253caed4fe2", "lat": 38.936410333333335, "name": "8e7b7320981378a20f157253caed4fe2", "lon": -76.9545485, "fusion_lon": 0.0}, {"is_reserved": 0, "type": "electric_scooter", "fusion_lat": 0.0, "is_disabled": 0, "rental_uris": {"ios": "https://dc.lft.to/lastmile_qr_scan", "android": "https://dc.lft.to/lastmile_qr_scan"}, "bike_id": "970b67f17b779f873d2bce3ac4d1a126", "lat": 38.896281, "name": "970b67f17b779f873d2bce3ac4d1a126", "lon": -77.02848683333333, "fusion_lon": 0.0}, {"is_reserved": 0, "type": "electric_scooter", "fusion_lat": 0.0, "is_disabled": 0, "rental_uris": {"ios": "https://dc.lft.to/lastmile_qr_scan", "android": "https://dc.lft.to/lastmile_qr_scan"}, "bike_id": "4d8f3e106634765933a3d25daf520c75", "lat": 38.9187705, "name": "4d8f3e106634765933a3d25daf520c75", "lon": -77.03508916666667, "fusion_lon": 0.0}, {"is_reserved": 0, "type": "electric_scooter", "fusion_lat": 0.0, "is_disabled": 0, "rental_uris": {"ios": "https://dc.lft.to/lastmile_qr_scan", "android": "https://dc.lft.to/lastmile_qr_scan"}, "bike_id": "ce033094d8f1db5f6a6c5b857e077a07", "lat": 38.92157316666667, "name": "ce033094d8f1db5f6a6c5b857e077a07", "lon": -77.03384916666667, "fusion_lon": 0.0}, {"is_reserved": 0, "type": "electric_scooter", "fusion_lat": 0.0, "is_disabled": 0, "rental_uris": {"ios": "https://dc.lft.to/lastmile_qr_scan", "android": "https://dc.lft.to/lastmile_qr_scan"}, "bike_id": "2e3c32416383853d3b980474eca16cc9", "lat": 38.916545166666666, "name": "2e3c32416383853d3b980474eca16cc9", "lon": -77.010254, "fusion_lon": 0.0}, {"is_reserved": 0, "type": "electric_scooter", "fusion_lat": 0.0, "is_disabled": 0, "rental_uris": {"ios": "https://dc.lft.to/lastmile_qr_scan", "android": "https://dc.lft.to/lastmile_qr_scan"}, "bike_id": "5c944460214466bee73d02111beead4f", "lat": 38.94480183333334, "name": "5c944460214466bee73d02111beead4f", "lon": -77.09508183333334, "fusion_lon": 0.0}, {"is_reserved": 0, "type": "electric_scooter", "fusion_lat": 0.0, "is_disabled": 0, "rental_uris": {"ios": "https://dc.lft.to/lastmile_qr_scan", "android": "https://dc.lft.to/lastmile_qr_scan"}, "bike_id": "039a9660158de80361301562a967b63e", "lat": 38.90142766666666, "name": "039a9660158de80361301562a967b63e", "lon": -77.01517016666666, "fusion_lon": 0.0}, {"is_reserved": 0, "type": "electric_bike", "fusion_lat": 0.0, "is_disabled": 0, "rental_uris": {"ios": "https://dc.lft.to/lastmile_qr_scan", "android": "https://dc.lft.to/lastmile_qr_scan"}, "bike_id": "7b996cc9eca3ec83767e61bae0621767", "lat": 38.95242183333333, "name": "7b996cc9eca3ec83767e61bae0621767", "lon": -76.98244983333333, "fusion_lon": 0.0}, {"is_reserved": 0, "type": "electric_scooter", "fusion_lat": 0.0, "is_disabled": 0, "rental_uris": {"ios": "https://dc.lft.to/lastmile_qr_scan", "android": "https://dc.lft.to/lastmile_qr_scan"}, "bike_id": "a3760057441e848eca5e1a9262f06244", "lat": 38.9065045, "name": "a3760057441e848eca5e1a9262f06244", "lon": -77.02482333333333, "fusion_lon": 0.0}, {"is_reserved": 0, "type": "electric_bike", "fusion_lat": 0.0, "is_disabled": 0, "rental_uris": {"ios": "https://dc.lft.to/lastmile_qr_scan", "android": "https://dc.lft.to/lastmile_qr_scan"}, "bike_id": "a656d5e01a975b5a64af93fae203545d", "lat": 38.958806333333335, "name": "a656d5e01a975b5a64af93fae203545d", "lon": -76.97056966666666, "fusion_lon": 0.0}, {"is_reserved": 0, "type": "electric_scooter", "fusion_lat": 0.0, "is_disabled": 0, "rental_uris": {"ios": "https://dc.lft.to/lastmile_qr_scan", "android": "https://dc.lft.to/lastmile_qr_scan"}, "bike_id": "5f2e88c9bb72fe997f9d92cc78ea5c88", "lat": 38.903911, "name": "5f2e88c9bb72fe997f9d92cc78ea5c88", "lon": -76.99008316666666, "fusion_lon": 0.0}, {"is_reserved": 0, "type": "electric_scooter", "fusion_lat": 0.0, "is_disabled": 0, "rental_uris": {"ios": "https://dc.lft.to/lastmile_qr_scan", "android": "https://dc.lft.to/lastmile_qr_scan"}, "bike_id": "f67153da663390e38d88fc4c4052a4b7", "lat": 38.92053633333333, "name": "f67153da663390e38d88fc4c4052a4b7", "lon": -77.02306566666667, "fusion_lon": 0.0}, {"is_reserved": 0, "type": "electric_scooter", "fusion_lat": 0.0, "is_disabled": 0, "rental_uris": {"ios": "https://dc.lft.to/lastmile_qr_scan", "android": "https://dc.lft.to/lastmile_qr_scan"}, "bike_id": "44d92900aa6f4ce2d38e37160af76c42", "lat": 38.92789533333333, "name": "44d92900aa6f4ce2d38e37160af76c42", "lon": -77.021345, "fusion_lon": 0.0}, {"is_reserved": 0, "type": "electric_scooter", "fusion_lat": 0.0, "is_disabled": 0, "rental_uris": {"ios": "https://dc.lft.to/lastmile_qr_scan", "android": "https://dc.lft.to/lastmile_qr_scan"}, "bike_id": "db050e7689deec5b3a88232ef4ca1637", "lat": 38.921316833333336, "name": "db050e7689deec5b3a88232ef4ca1637", "lon": -77.00403616666667, "fusion_lon": 0.0}, {"is_reserved": 0, "type": "electric_scooter", "fusion_lat": 0.0, "is_disabled": 0, "rental_uris": {"ios": "https://dc.lft.to/lastmile_qr_scan", "android": "https://dc.lft.to/lastmile_qr_scan"}, "bike_id": "512d7330280316cb57608cf61365ccd0", "lat": 38.905962833333334, "name": "512d7330280316cb57608cf61365ccd0", "lon": -77.06303366666667, "fusion_lon": 0.0}, {"is_reserved": 0, "type": "electric_scooter", "fusion_lat": 0.0, "is_disabled": 0, "rental_uris": {"ios": "https://dc.lft.to/lastmile_qr_scan", "android": "https://dc.lft.to/lastmile_qr_scan"}, "bike_id": "c6a8cfa44c35257a8f53d20d31faa90d", "lat": 38.89222933333333, "name": "c6a8cfa44c35257a8f53d20d31faa90d", "lon": -77.0257785, "fusion_lon": 0.0}, {"is_reserved": 0, "type": "electric_scooter", "fusion_lat": 0.0, "is_disabled": 0, "rental_uris": {"ios": "https://dc.lft.to/lastmile_qr_scan", "android": "https://dc.lft.to/lastmile_qr_scan"}, "bike_id": "388d78d2f7e778c35a7913c0dc95ea1e", "lat": 38.899847333333334, "name": "388d78d2f7e778c35a7913c0dc95ea1e", "lon": -77.00930216666667, "fusion_lon": 0.0}, {"is_reserved": 0, "type": "electric_scooter", "fusion_lat": 0.0, "is_disabled": 0, "rental_uris": {"ios": "https://dc.lft.to/lastmile_qr_scan", "android": "https://dc.lft.to/lastmile_qr_scan"}, "bike_id": "67527a711d2543d91a98b220d2b9ac5b", "lat": 38.92824233333333, "name": "67527a711d2543d91a98b220d2b9ac5b", "lon": -77.02254333333333, "fusion_lon": 0.0}, {"is_reserved": 0, "type": "electric_scooter", "fusion_lat": 0.0, "is_disabled": 0, "rental_uris": {"ios": "https://dc.lft.to/lastmile_qr_scan", "android": "https://dc.lft.to/lastmile_qr_scan"}, "bike_id": "06114a64c496db8e4b77f30736eddc9d", "lat": 38.93642116666667, "name": "06114a64c496db8e4b77f30736eddc9d", "lon": -77.036332, "fusion_lon": 0.0}, {"is_reserved": 0, "type": "electric_scooter", "fusion_lat": 0.0, "is_disabled": 0, "rental_uris": {"ios": "https://dc.lft.to/lastmile_qr_scan", "android": "https://dc.lft.to/lastmile_qr_scan"}, "bike_id": "aa80185192504efa6fb45fb31f299574", "lat": 38.897537666666665, "name": "aa80185192504efa6fb45fb31f299574", "lon": -77.00951633333334, "fusion_lon": 0.0}, {"is_reserved": 0, "type": "electric_scooter", "fusion_lat": 0.0, "is_disabled": 0, "rental_uris": {"ios": "https://dc.lft.to/lastmile_qr_scan", "android": "https://dc.lft.to/lastmile_qr_scan"}, "bike_id": "4a255c232cb32636502badc0839c7e76", "lat": 38.8985085, "name": "4a255c232cb32636502badc0839c7e76", "lon": -77.03365883333333, "fusion_lon": 0.0}, {"is_reserved": 0, "type": "electric_scooter", "fusion_lat": 0.0, "is_disabled": 0, "rental_uris": {"ios": "https://dc.lft.to/lastmile_qr_scan", "android": "https://dc.lft.to/lastmile_qr_scan"}, "bike_id": "c27d8055639a151acf0af36a53f6ad34", "lat": 38.9101115, "name": "c27d8055639a151acf0af36a53f6ad34", "lon": -76.9938815, "fusion_lon": 0.0}, {"is_reserved": 0, "type": "electric_scooter", "fusion_lat": 0.0, "is_disabled": 0, "rental_uris": {"ios": "https://dc.lft.to/lastmile_qr_scan", "android": "https://dc.lft.to/lastmile_qr_scan"}, "bike_id": "f46e6c3fde417524fefdd2fb33be40e0", "lat": 38.904529, "name": "f46e6c3fde417524fefdd2fb33be40e0", "lon": -77.01882933333333, "fusion_lon": 0.0}, {"is_reserved": 0, "type": "electric_scooter", "fusion_lat": 0.0, "is_disabled": 0, "rental_uris": {"ios": "https://dc.lft.to/lastmile_qr_scan", "android": "https://dc.lft.to/lastmile_qr_scan"}, "bike_id": "9bec67bab6483af676cddf0dd26b517e", "lat": 38.91923466666667, "name": "9bec67bab6483af676cddf0dd26b517e", "lon": -77.0097745, "fusion_lon": 0.0}, {"is_reserved": 0, "type": "electric_scooter", "fusion_lat": 0.0, "is_disabled": 0, "rental_uris": {"ios": "https://dc.lft.to/lastmile_qr_scan", "android": "https://dc.lft.to/lastmile_qr_scan"}, "bike_id": "85f3d07a5b198fbb17c3a3deb7a54bb0", "lat": 38.902933, "name": "85f3d07a5b198fbb17c3a3deb7a54bb0", "lon": -77.02120416666666, "fusion_lon": 0.0}, {"is_reserved": 0, "type": "electric_scooter", "fusion_lat": 0.0, "is_disabled": 0, "rental_uris": {"ios": "https://dc.lft.to/lastmile_qr_scan", "android": "https://dc.lft.to/lastmile_qr_scan"}, "bike_id": "8f03683a1d0be82607352f0e4fa247c8", "lat": 38.9008015, "name": "8f03683a1d0be82607352f0e4fa247c8", "lon": -77.0176575, "fusion_lon": 0.0}, {"is_reserved": 0, "type": "electric_scooter", "fusion_lat": 0.0, "is_disabled": 0, "rental_uris": {"ios": "https://dc.lft.to/lastmile_qr_scan", "android": "https://dc.lft.to/lastmile_qr_scan"}, "bike_id": "9302bf49fad4842eca08d2f9d2aa97a6", "lat": 38.918072, "name": "9302bf49fad4842eca08d2f9d2aa97a6", "lon": -77.03439133333333, "fusion_lon": 0.0}, {"is_reserved": 0, "type": "electric_scooter", "fusion_lat": 0.0, "is_disabled": 0, "rental_uris": {"ios": "https://dc.lft.to/lastmile_qr_scan", "android": "https://dc.lft.to/lastmile_qr_scan"}, "bike_id": "26e61e46b2e1b30369eb01e14c8f2175", "lat": 38.943134, "name": "26e61e46b2e1b30369eb01e14c8f2175", "lon": -77.0172985, "fusion_lon": 0.0}, {"is_reserved": 0, "type": "electric_scooter", "fusion_lat": 0.0, "is_disabled": 0, "rental_uris": {"ios": "https://dc.lft.to/lastmile_qr_scan", "android": "https://dc.lft.to/lastmile_qr_scan"}, "bike_id": "2430c0cb49dc0f68b3bd516a1f0dd95e", "lat": 38.8804155, "name": "2430c0cb49dc0f68b3bd516a1f0dd95e", "lon": -76.92724983333333, "fusion_lon": 0.0}, {"is_reserved": 0, "type": "electric_scooter", "fusion_lat": 0.0, "is_disabled": 0, "rental_uris": {"ios": "https://dc.lft.to/lastmile_qr_scan", "android": "https://dc.lft.to/lastmile_qr_scan"}, "bike_id": "3ab9d27f220ce98ab03062660ae277d6", "lat": 38.902488166666664, "name": "3ab9d27f220ce98ab03062660ae277d6", "lon": -77.02779316666667, "fusion_lon": 0.0}, {"is_reserved": 0, "type": "electric_bike", "fusion_lat": 0.0, "is_disabled": 0, "rental_uris": {"ios": "https://dc.lft.to/lastmile_qr_scan", "android": "https://dc.lft.to/lastmile_qr_scan"}, "bike_id": "41ce2f707c5520f027888ba2482d884d", "lat": 38.924344, "name": "41ce2f707c5520f027888ba2482d884d", "lon": -77.02500433333333, "fusion_lon": 0.0}, {"is_reserved": 0, "type": "electric_scooter", "fusion_lat": 0.0, "is_disabled": 0, "rental_uris": {"ios": "https://dc.lft.to/lastmile_qr_scan", "android": "https://dc.lft.to/lastmile_qr_scan"}, "bike_id": "ca5e48e220f721e2c4f06dec2bff7032", "lat": 38.94173683333333, "name": "ca5e48e220f721e2c4f06dec2bff7032", "lon": -77.02536066666667, "fusion_lon": 0.0}, {"is_reserved": 0, "type": "electric_scooter", "fusion_lat": 0.0, "is_disabled": 0, "rental_uris": {"ios": "https://dc.lft.to/lastmile_qr_scan", "android": "https://dc.lft.to/lastmile_qr_scan"}, "bike_id": "5d2b6aec95924ffbd9648e4fc44b2057", "lat": 38.9068565, "name": "5d2b6aec95924ffbd9648e4fc44b2057", "lon": -77.02717866666667, "fusion_lon": 0.0}, {"is_reserved": 0, "type": "electric_scooter", "fusion_lat": 0.0, "is_disabled": 0, "rental_uris": {"ios": "https://dc.lft.to/lastmile_qr_scan", "android": "https://dc.lft.to/lastmile_qr_scan"}, "bike_id": "703c9e620d532dab4785003a6b10d2a5", "lat": 38.9096425, "name": "703c9e620d532dab4785003a6b10d2a5", "lon": -77.04838316666667, "fusion_lon": 0.0}, {"is_reserved": 0, "type": "electric_scooter", "fusion_lat": 0.0, "is_disabled": 0, "rental_uris": {"ios": "https://dc.lft.to/lastmile_qr_scan", "android": "https://dc.lft.to/lastmile_qr_scan"}, "bike_id": "f2652ef0aa604d6fa440df54822f027d", "lat": 38.91613266666667, "name": "f2652ef0aa604d6fa440df54822f027d", "lon": -77.04632516666666, "fusion_lon": 0.0}, {"is_reserved": 0, "type": "electric_scooter", "fusion_lat": 0.0, "is_disabled": 0, "rental_uris": {"ios": "https://dc.lft.to/lastmile_qr_scan", "android": "https://dc.lft.to/lastmile_qr_scan"}, "bike_id": "b024101114d704b34f04e0a4789ad6d8", "lat": 38.91478583333333, "name": "b024101114d704b34f04e0a4789ad6d8", "lon": -77.01454966666667, "fusion_lon": 0.0}, {"is_reserved": 0, "type": "electric_scooter", "fusion_lat": 0.0, "is_disabled": 0, "rental_uris": {"ios": "https://dc.lft.to/lastmile_qr_scan", "android": "https://dc.lft.to/lastmile_qr_scan"}, "bike_id": "2438e2074663b058873826c085ea6eaa", "lat": 38.899115333333334, "name": "2438e2074663b058873826c085ea6eaa", "lon": -76.9339315, "fusion_lon": 0.0}, {"is_reserved": 0, "type": "electric_bike", "fusion_lat": 0.0, "is_disabled": 0, "rental_uris": {"ios": "https://dc.lft.to/lastmile_qr_scan", "android": "https://dc.lft.to/lastmile_qr_scan"}, "bike_id": "71ab5354e29105d5b433a47e7cb8e13a", "lat": 38.829300833333335, "name": "71ab5354e29105d5b433a47e7cb8e13a", "lon": -77.06882833333333, "fusion_lon": 0.0}, {"is_reserved": 0, "type": "electric_scooter", "fusion_lat": 0.0, "is_disabled": 0, "rental_uris": {"ios": "https://dc.lft.to/lastmile_qr_scan", "android": "https://dc.lft.to/lastmile_qr_scan"}, "bike_id": "3b96c75fad87568cd404a011ed15398d", "lat": 38.923844333333335, "name": "3b96c75fad87568cd404a011ed15398d", "lon": -77.02609916666667, "fusion_lon": 0.0}, {"is_reserved": 0, "type": "electric_scooter", "fusion_lat": 0.0, "is_disabled": 0, "rental_uris": {"ios": "https://dc.lft.to/lastmile_qr_scan", "android": "https://dc.lft.to/lastmile_qr_scan"}, "bike_id": "4d3fb2a430cfd0874ac8955b93ac60c4", "lat": 38.9353265, "name": "4d3fb2a430cfd0874ac8955b93ac60c4", "lon": -77.02352533333334, "fusion_lon": 0.0}, {"is_reserved": 0, "type": "electric_scooter", "fusion_lat": 0.0, "is_disabled": 0, "rental_uris": {"ios": "https://dc.lft.to/lastmile_qr_scan", "android": "https://dc.lft.to/lastmile_qr_scan"}, "bike_id": "7459630ccb18032e9bf67d211fb11cc9", "lat": 38.9295855, "name": "7459630ccb18032e9bf67d211fb11cc9", "lon": -77.0317105, "fusion_lon": 0.0}, {"is_reserved": 0, "type": "electric_scooter", "fusion_lat": 0.0, "is_disabled": 0, "rental_uris": {"ios": "https://dc.lft.to/lastmile_qr_scan", "android": "https://dc.lft.to/lastmile_qr_scan"}, "bike_id": "a3a0fee00d968a25cc46b20997327d3b", "lat": 38.94448833333333, "name": "a3a0fee00d968a25cc46b20997327d3b", "lon": -77.0328405, "fusion_lon": 0.0}, {"is_reserved": 0, "type": "electric_scooter", "fusion_lat": 0.0, "is_disabled": 0, "rental_uris": {"ios": "https://dc.lft.to/lastmile_qr_scan", "android": "https://dc.lft.to/lastmile_qr_scan"}, "bike_id": "563a988daf33e1c6805c8d0ee6dd1c67", "lat": 38.912664666666664, "name": "563a988daf33e1c6805c8d0ee6dd1c67", "lon": -77.0143665, "fusion_lon": 0.0}, {"is_reserved": 0, "type": "electric_scooter", "fusion_lat": 0.0, "is_disabled": 0, "rental_uris": {"ios": "https://dc.lft.to/lastmile_qr_scan", "android": "https://dc.lft.to/lastmile_qr_scan"}, "bike_id": "b5de0e8dc19c14a109bd3a001e882a5b", "lat": 38.928745666666664, "name": "b5de0e8dc19c14a109bd3a001e882a5b", "lon": -77.039967, "fusion_lon": 0.0}, {"is_reserved": 0, "type": "electric_scooter", "fusion_lat": 0.0, "is_disabled": 0, "rental_uris": {"ios": "https://dc.lft.to/lastmile_qr_scan", "android": "https://dc.lft.to/lastmile_qr_scan"}, "bike_id": "95404312d5db5e9b92aae6633da0fe82", "lat": 38.89314983333333, "name": "95404312d5db5e9b92aae6633da0fe82", "lon": -77.020093, "fusion_lon": 0.0}, {"is_reserved": 0, "type": "electric_scooter", "fusion_lat": 0.0, "is_disabled": 0, "rental_uris": {"ios": "https://dc.lft.to/lastmile_qr_scan", "android": "https://dc.lft.to/lastmile_qr_scan"}, "bike_id": "f72a58bbc789a477d3a7ea1c380cb2d3", "lat": 38.90482866666667, "name": "f72a58bbc789a477d3a7ea1c380cb2d3", "lon": -77.027199, "fusion_lon": 0.0}, {"is_reserved": 0, "type": "electric_scooter", "fusion_lat": 0.0, "is_disabled": 0, "rental_uris": {"ios": "https://dc.lft.to/lastmile_qr_scan", "android": "https://dc.lft.to/lastmile_qr_scan"}, "bike_id": "c7e347ff4b76a3e0ac77d6b58489d7cb", "lat": 38.89223916666667, "name": "c7e347ff4b76a3e0ac77d6b58489d7cb", "lon": -77.04486016666667, "fusion_lon": 0.0}, {"is_reserved": 0, "type": "electric_bike", "fusion_lat": 0.0, "is_disabled": 0, "rental_uris": {"ios": "https://dc.lft.to/lastmile_qr_scan", "android": "https://dc.lft.to/lastmile_qr_scan"}, "bike_id": "68e9492dcc7e801654471381d8bcd250", "lat": 38.8681965, "name": "68e9492dcc7e801654471381d8bcd250", "lon": -76.980223, "fusion_lon": 0.0}, {"is_reserved": 0, "type": "electric_scooter", "fusion_lat": 0.0, "is_disabled": 0, "rental_uris": {"ios": "https://dc.lft.to/lastmile_qr_scan", "android": "https://dc.lft.to/lastmile_qr_scan"}, "bike_id": "c89f6387d55eebd2949ff464aadd2a39", "lat": 38.951543666666666, "name": "c89f6387d55eebd2949ff464aadd2a39", "lon": -77.01863516666667, "fusion_lon": 0.0}, {"is_reserved": 0, "type": "electric_scooter", "fusion_lat": 0.0, "is_disabled": 0, "rental_uris": {"ios": "https://dc.lft.to/lastmile_qr_scan", "android": "https://dc.lft.to/lastmile_qr_scan"}, "bike_id": "ce894ab3e93ed6819c414b3e580c98f2", "lat": 38.91953266666667, "name": "ce894ab3e93ed6819c414b3e580c98f2", "lon": -77.023073, "fusion_lon": 0.0}, {"is_reserved": 0, "type": "electric_scooter", "fusion_lat": 0.0, "is_disabled": 0, "rental_uris": {"ios": "https://dc.lft.to/lastmile_qr_scan", "android": "https://dc.lft.to/lastmile_qr_scan"}, "bike_id": "f9d94513aca5dcd7b69b95897341de0b", "lat": 38.9036415, "name": "f9d94513aca5dcd7b69b95897341de0b", "lon": -77.00987066666667, "fusion_lon": 0.0}, {"is_reserved": 0, "type": "electric_scooter", "fusion_lat": 0.0, "is_disabled": 0, "rental_uris": {"ios": "https://dc.lft.to/lastmile_qr_scan", "android": "https://dc.lft.to/lastmile_qr_scan"}, "bike_id": "893b2979aed52f66f2e1f036f0abbf04", "lat": 38.902671166666664, "name": "893b2979aed52f66f2e1f036f0abbf04", "lon": -77.0201025, "fusion_lon": 0.0}, {"is_reserved": 0, "type": "electric_scooter", "fusion_lat": 0.0, "is_disabled": 0, "rental_uris": {"ios": "https://dc.lft.to/lastmile_qr_scan", "android": "https://dc.lft.to/lastmile_qr_scan"}, "bike_id": "c394063c5261f0294291f5bccfe4e843", "lat": 38.91770566666667, "name": "c394063c5261f0294291f5bccfe4e843", "lon": -77.047585, "fusion_lon": 0.0}, {"is_reserved": 0, "type": "electric_scooter", "fusion_lat": 0.0, "is_disabled": 0, "rental_uris": {"ios": "https://dc.lft.to/lastmile_qr_scan", "android": "https://dc.lft.to/lastmile_qr_scan"}, "bike_id": "a421429c64881c55c45ad4af1f9cca1a", "lat": 38.90757116666666, "name": "a421429c64881c55c45ad4af1f9cca1a", "lon": -77.01910416666666, "fusion_lon": 0.0}, {"is_reserved": 0, "type": "electric_scooter", "fusion_lat": 0.0, "is_disabled": 0, "rental_uris": {"ios": "https://dc.lft.to/lastmile_qr_scan", "android": "https://dc.lft.to/lastmile_qr_scan"}, "bike_id": "f61187a778f2c6d858b27a2aec1ec583", "lat": 38.917148166666664, "name": "f61187a778f2c6d858b27a2aec1ec583", "lon": -77.03458816666667, "fusion_lon": 0.0}, {"is_reserved": 0, "type": "electric_scooter", "fusion_lat": 0.0, "is_disabled": 0, "rental_uris": {"ios": "https://dc.lft.to/lastmile_qr_scan", "android": "https://dc.lft.to/lastmile_qr_scan"}, "bike_id": "361c8331aba90c7e4d59ae8586ae2f4e", "lat": 38.923551833333335, "name": "361c8331aba90c7e4d59ae8586ae2f4e", "lon": -77.03306833333333, "fusion_lon": 0.0}, {"is_reserved": 0, "type": "electric_scooter", "fusion_lat": 0.0, "is_disabled": 0, "rental_uris": {"ios": "https://dc.lft.to/lastmile_qr_scan", "android": "https://dc.lft.to/lastmile_qr_scan"}, "bike_id": "5ed3f52d66d81d1fa6d91dec02df201c", "lat": 38.905764, "name": "5ed3f52d66d81d1fa6d91dec02df201c", "lon": -77.02989233333334, "fusion_lon": 0.0}, {"is_reserved": 0, "type": "electric_scooter", "fusion_lat": 0.0, "is_disabled": 0, "rental_uris": {"ios": "https://dc.lft.to/lastmile_qr_scan", "android": "https://dc.lft.to/lastmile_qr_scan"}, "bike_id": "a5ae57da9aa539240f551f3336dcfb57", "lat": 38.9027915, "name": "a5ae57da9aa539240f551f3336dcfb57", "lon": -77.04177166666666, "fusion_lon": 0.0}, {"is_reserved": 0, "type": "electric_scooter", "fusion_lat": 0.0, "is_disabled": 0, "rental_uris": {"ios": "https://dc.lft.to/lastmile_qr_scan", "android": "https://dc.lft.to/lastmile_qr_scan"}, "bike_id": "c92bd5e1664582fce32aa925249a17ec", "lat": 38.91364333333333, "name": "c92bd5e1664582fce32aa925249a17ec", "lon": -77.04493666666667, "fusion_lon": 0.0}, {"is_reserved": 0, "type": "electric_scooter", "fusion_lat": 0.0, "is_disabled": 0, "rental_uris": {"ios": "https://dc.lft.to/lastmile_qr_scan", "android": "https://dc.lft.to/lastmile_qr_scan"}, "bike_id": "b0188c2e634ce9021e6f2b4f2f0a9d76", "lat": 38.953765833333335, "name": "b0188c2e634ce9021e6f2b4f2f0a9d76", "lon": -77.0018805, "fusion_lon": 0.0}, {"is_reserved": 0, "type": "electric_scooter", "fusion_lat": 0.0, "is_disabled": 0, "rental_uris": {"ios": "https://dc.lft.to/lastmile_qr_scan", "android": "https://dc.lft.to/lastmile_qr_scan"}, "bike_id": "3a9cc5ffd57b5eb1710262a5c77b1269", "lat": 38.94820033333333, "name": "3a9cc5ffd57b5eb1710262a5c77b1269", "lon": -77.026175, "fusion_lon": 0.0}, {"is_reserved": 0, "type": "electric_scooter", "fusion_lat": 0.0, "is_disabled": 0, "rental_uris": {"ios": "https://dc.lft.to/lastmile_qr_scan", "android": "https://dc.lft.to/lastmile_qr_scan"}, "bike_id": "88b2e3a21a156b4df9dfddaac310c936", "lat": 38.876567666666666, "name": "88b2e3a21a156b4df9dfddaac310c936", "lon": -77.000735, "fusion_lon": 0.0}, {"is_reserved": 0, "type": "electric_scooter", "fusion_lat": 0.0, "is_disabled": 0, "rental_uris": {"ios": "https://dc.lft.to/lastmile_qr_scan", "android": "https://dc.lft.to/lastmile_qr_scan"}, "bike_id": "14f404fffc3306d78cf66a4f88f2d513", "lat": 38.881326333333334, "name": "14f404fffc3306d78cf66a4f88f2d513", "lon": -77.02004883333333, "fusion_lon": 0.0}, {"is_reserved": 0, "type": "electric_scooter", "fusion_lat": 0.0, "is_disabled": 0, "rental_uris": {"ios": "https://dc.lft.to/lastmile_qr_scan", "android": "https://dc.lft.to/lastmile_qr_scan"}, "bike_id": "69affbb190811190955548ac22d9dbfc", "lat": 38.891989833333334, "name": "69affbb190811190955548ac22d9dbfc", "lon": -77.0154795, "fusion_lon": 0.0}, {"is_reserved": 0, "type": "electric_bike", "fusion_lat": 0.0, "is_disabled": 0, "rental_uris": {"ios": "https://dc.lft.to/lastmile_qr_scan", "android": "https://dc.lft.to/lastmile_qr_scan"}, "bike_id": "ea2658e551667d09dc764a8a63c60b11", "lat": 38.813311, "name": "ea2658e551667d09dc764a8a63c60b11", "lon": -77.051144, "fusion_lon": 0.0}, {"is_reserved": 0, "type": "electric_scooter", "fusion_lat": 0.0, "is_disabled": 0, "rental_uris": {"ios": "https://dc.lft.to/lastmile_qr_scan", "android": "https://dc.lft.to/lastmile_qr_scan"}, "bike_id": "03b0c7366c4c791364fc63f37696121c", "lat": 38.9179625, "name": "03b0c7366c4c791364fc63f37696121c", "lon": -77.044386, "fusion_lon": 0.0}, {"is_reserved": 0, "type": "electric_scooter", "fusion_lat": 0.0, "is_disabled": 0, "rental_uris": {"ios": "https://dc.lft.to/lastmile_qr_scan", "android": "https://dc.lft.to/lastmile_qr_scan"}, "bike_id": "c59109bbcd1cf12f79d6bae7d5b046cc", "lat": 38.902364666666664, "name": "c59109bbcd1cf12f79d6bae7d5b046cc", "lon": -77.00058866666667, "fusion_lon": 0.0}, {"is_reserved": 0, "type": "electric_scooter", "fusion_lat": 0.0, "is_disabled": 0, "rental_uris": {"ios": "https://dc.lft.to/lastmile_qr_scan", "android": "https://dc.lft.to/lastmile_qr_scan"}, "bike_id": "eae51365a93f6cbb97779d2a7df686ef", "lat": 38.92412733333333, "name": "eae51365a93f6cbb97779d2a7df686ef", "lon": -77.02129133333334, "fusion_lon": 0.0}, {"is_reserved": 0, "type": "electric_scooter", "fusion_lat": 0.0, "is_disabled": 0, "rental_uris": {"ios": "https://dc.lft.to/lastmile_qr_scan", "android": "https://dc.lft.to/lastmile_qr_scan"}, "bike_id": "1075d1506e100643c278815ce66e293e", "lat": 38.8998275, "name": "1075d1506e100643c278815ce66e293e", "lon": -77.044826, "fusion_lon": 0.0}, {"is_reserved": 0, "type": "electric_scooter", "fusion_lat": 0.0, "is_disabled": 0, "rental_uris": {"ios": "https://dc.lft.to/lastmile_qr_scan", "android": "https://dc.lft.to/lastmile_qr_scan"}, "bike_id": "d378ce331ae841fbbe0f0f4d14550e50", "lat": 38.9194795, "name": "d378ce331ae841fbbe0f0f4d14550e50", "lon": -77.01399866666667, "fusion_lon": 0.0}, {"is_reserved": 0, "type": "electric_scooter", "fusion_lat": 0.0, "is_disabled": 0, "rental_uris": {"ios": "https://dc.lft.to/lastmile_qr_scan", "android": "https://dc.lft.to/lastmile_qr_scan"}, "bike_id": "6caf88766a572f614b7660f8d35dcd4a", "lat": 38.902673166666666, "name": "6caf88766a572f614b7660f8d35dcd4a", "lon": -77.02013833333334, "fusion_lon": 0.0}, {"is_reserved": 0, "type": "electric_scooter", "fusion_lat": 0.0, "is_disabled": 0, "rental_uris": {"ios": "https://dc.lft.to/lastmile_qr_scan", "android": "https://dc.lft.to/lastmile_qr_scan"}, "bike_id": "0eda00f1997355c29d6d1f8231588144", "lat": 38.88299683333334, "name": "0eda00f1997355c29d6d1f8231588144", "lon": -76.9937385, "fusion_lon": 0.0}, {"is_reserved": 0, "type": "electric_scooter", "fusion_lat": 0.0, "is_disabled": 0, "rental_uris": {"ios": "https://dc.lft.to/lastmile_qr_scan", "android": "https://dc.lft.to/lastmile_qr_scan"}, "bike_id": "d583a3030590dc7ad2514afda4443b3d", "lat": 38.938389, "name": "d583a3030590dc7ad2514afda4443b3d", "lon": -77.01952083333333, "fusion_lon": 0.0}, {"is_reserved": 0, "type": "electric_scooter", "fusion_lat": 0.0, "is_disabled": 0, "rental_uris": {"ios": "https://dc.lft.to/lastmile_qr_scan", "android": "https://dc.lft.to/lastmile_qr_scan"}, "bike_id": "d77fc93d51726e78044281691dedaef3", "lat": 38.89729416666667, "name": "d77fc93d51726e78044281691dedaef3", "lon": -77.01915783333334, "fusion_lon": 0.0}, {"is_reserved": 0, "type": "electric_scooter", "fusion_lat": 0.0, "is_disabled": 0, "rental_uris": {"ios": "https://dc.lft.to/lastmile_qr_scan", "android": "https://dc.lft.to/lastmile_qr_scan"}, "bike_id": "ea5a5e98454fa79531ce18b5a1ea3168", "lat": 38.880816333333335, "name": "ea5a5e98454fa79531ce18b5a1ea3168", "lon": -76.9851485, "fusion_lon": 0.0}, {"is_reserved": 0, "type": "electric_bike", "fusion_lat": 0.0, "is_disabled": 0, "rental_uris": {"ios": "https://dc.lft.to/lastmile_qr_scan", "android": "https://dc.lft.to/lastmile_qr_scan"}, "bike_id": "2bc7f415df4195b00a078f212e4ecfb4", "lat": 38.86013366666667, "name": "2bc7f415df4195b00a078f212e4ecfb4", "lon": -77.06533433333334, "fusion_lon": 0.0}, {"is_reserved": 0, "type": "electric_scooter", "fusion_lat": 0.0, "is_disabled": 0, "rental_uris": {"ios": "https://dc.lft.to/lastmile_qr_scan", "android": "https://dc.lft.to/lastmile_qr_scan"}, "bike_id": "b19ab5646c0e03506303f9a21aefd558", "lat": 38.896668166666664, "name": "b19ab5646c0e03506303f9a21aefd558", "lon": -76.93212683333333, "fusion_lon": 0.0}, {"is_reserved": 0, "type": "electric_scooter", "fusion_lat": 0.0, "is_disabled": 0, "rental_uris": {"ios": "https://dc.lft.to/lastmile_qr_scan", "android": "https://dc.lft.to/lastmile_qr_scan"}, "bike_id": "0fcad96de21d3dc1c6a807ea71dbe267", "lat": 38.90509633333333, "name": "0fcad96de21d3dc1c6a807ea71dbe267", "lon": -76.951996, "fusion_lon": 0.0}, {"is_reserved": 0, "type": "electric_scooter", "fusion_lat": 0.0, "is_disabled": 0, "rental_uris": {"ios": "https://dc.lft.to/lastmile_qr_scan", "android": "https://dc.lft.to/lastmile_qr_scan"}, "bike_id": "d2d6f98ce3fb9d5521379127f4da318b", "lat": 38.883592666666665, "name": "d2d6f98ce3fb9d5521379127f4da318b", "lon": -76.95760516666667, "fusion_lon": 0.0}, {"is_reserved": 0, "type": "electric_scooter", "fusion_lat": 0.0, "is_disabled": 0, "rental_uris": {"ios": "https://dc.lft.to/lastmile_qr_scan", "android": "https://dc.lft.to/lastmile_qr_scan"}, "bike_id": "0163f7786db491b87cf91c7595a36d5b", "lat": 38.88317933333333, "name": "0163f7786db491b87cf91c7595a36d5b", "lon": -76.93153649999999, "fusion_lon": 0.0}, {"is_reserved": 0, "type": "electric_scooter", "fusion_lat": 0.0, "is_disabled": 0, "rental_uris": {"ios": "https://dc.lft.to/lastmile_qr_scan", "android": "https://dc.lft.to/lastmile_qr_scan"}, "bike_id": "1822a91c838c33c88802b27b53a5125b", "lat": 38.903389, "name": "1822a91c838c33c88802b27b53a5125b", "lon": -77.011106, "fusion_lon": 0.0}, {"is_reserved": 0, "type": "electric_scooter", "fusion_lat": 0.0, "is_disabled": 0, "rental_uris": {"ios": "https://dc.lft.to/lastmile_qr_scan", "android": "https://dc.lft.to/lastmile_qr_scan"}, "bike_id": "04ba021c21d9faea4fa03511a3791085", "lat": 38.93269383333333, "name": "04ba021c21d9faea4fa03511a3791085", "lon": -77.03078, "fusion_lon": 0.0}, {"is_reserved": 0, "type": "electric_bike", "fusion_lat": 0.0, "is_disabled": 0, "rental_uris": {"ios": "https://dc.lft.to/lastmile_qr_scan", "android": "https://dc.lft.to/lastmile_qr_scan"}, "bike_id": "0c06ed89562ba22442d1131c0aaa9290", "lat": 38.84635766666667, "name": "0c06ed89562ba22442d1131c0aaa9290", "lon": -77.0693245, "fusion_lon": 0.0}, {"is_reserved": 0, "type": "electric_scooter", "fusion_lat": 0.0, "is_disabled": 0, "rental_uris": {"ios": "https://dc.lft.to/lastmile_qr_scan", "android": "https://dc.lft.to/lastmile_qr_scan"}, "bike_id": "e270ca3ccebef7928ffb62a2265fe659", "lat": 38.903194166666665, "name": "e270ca3ccebef7928ffb62a2265fe659", "lon": -77.01094116666667, "fusion_lon": 0.0}, {"is_reserved": 0, "type": "electric_scooter", "fusion_lat": 0.0, "is_disabled": 0, "rental_uris": {"ios": "https://dc.lft.to/lastmile_qr_scan", "android": "https://dc.lft.to/lastmile_qr_scan"}, "bike_id": "8c5583efd1b3cf6a075db680d169cec8", "lat": 38.93530633333334, "name": "8c5583efd1b3cf6a075db680d169cec8", "lon": -77.02353466666666, "fusion_lon": 0.0}, {"is_reserved": 0, "type": "electric_scooter", "fusion_lat": 0.0, "is_disabled": 0, "rental_uris": {"ios": "https://dc.lft.to/lastmile_qr_scan", "android": "https://dc.lft.to/lastmile_qr_scan"}, "bike_id": "2aada1acf22b20aca1107c4f92f7a444", "lat": 38.905239333333334, "name": "2aada1acf22b20aca1107c4f92f7a444", "lon": -77.06785233333333, "fusion_lon": 0.0}, {"is_reserved": 0, "type": "electric_scooter", "fusion_lat": 0.0, "is_disabled": 0, "rental_uris": {"ios": "https://dc.lft.to/lastmile_qr_scan", "android": "https://dc.lft.to/lastmile_qr_scan"}, "bike_id": "b29c249b70d8c1c6707ff2ef666be614", "lat": 38.89196233333333, "name": "b29c249b70d8c1c6707ff2ef666be614", "lon": -77.022221, "fusion_lon": 0.0}, {"is_reserved": 0, "type": "electric_scooter", "fusion_lat": 0.0, "is_disabled": 0, "rental_uris": {"ios": "https://dc.lft.to/lastmile_qr_scan", "android": "https://dc.lft.to/lastmile_qr_scan"}, "bike_id": "a2e78ea82ed711dfd26d4f7f1ccb468e", "lat": 38.8996465, "name": "a2e78ea82ed711dfd26d4f7f1ccb468e", "lon": -76.9376145, "fusion_lon": 0.0}, {"is_reserved": 0, "type": "electric_scooter", "fusion_lat": 0.0, "is_disabled": 0, "rental_uris": {"ios": "https://dc.lft.to/lastmile_qr_scan", "android": "https://dc.lft.to/lastmile_qr_scan"}, "bike_id": "44a88f02f1a006d965bf64d88a01c18c", "lat": 38.91607166666667, "name": "44a88f02f1a006d965bf64d88a01c18c", "lon": -77.03191616666666, "fusion_lon": 0.0}, {"is_reserved": 0, "type": "electric_bike", "fusion_lat": 0.0, "is_disabled": 0, "rental_uris": {"ios": "https://dc.lft.to/lastmile_qr_scan", "android": "https://dc.lft.to/lastmile_qr_scan"}, "bike_id": "8125798f0930750cfb41a55c1932da9e", "lat": 38.830466666666666, "name": "8125798f0930750cfb41a55c1932da9e", "lon": -77.0082365, "fusion_lon": 0.0}, {"is_reserved": 0, "type": "electric_scooter", "fusion_lat": 0.0, "is_disabled": 0, "rental_uris": {"ios": "https://dc.lft.to/lastmile_qr_scan", "android": "https://dc.lft.to/lastmile_qr_scan"}, "bike_id": "9c35b42e3c179b48d3007fdfc3c517a3", "lat": 38.886416, "name": "9c35b42e3c179b48d3007fdfc3c517a3", "lon": -77.01222683333333, "fusion_lon": 0.0}, {"is_reserved": 0, "type": "electric_scooter", "fusion_lat": 0.0, "is_disabled": 0, "rental_uris": {"ios": "https://dc.lft.to/lastmile_qr_scan", "android": "https://dc.lft.to/lastmile_qr_scan"}, "bike_id": "ea278a890eba94e5d54bcc7e914916ba", "lat": 38.917144, "name": "ea278a890eba94e5d54bcc7e914916ba", "lon": -77.03856333333333, "fusion_lon": 0.0}, {"is_reserved": 0, "type": "electric_scooter", "fusion_lat": 0.0, "is_disabled": 0, "rental_uris": {"ios": "https://dc.lft.to/lastmile_qr_scan", "android": "https://dc.lft.to/lastmile_qr_scan"}, "bike_id": "c1d2db053b8ac15d4545f97a21fd7a3f", "lat": 38.89955366666667, "name": "c1d2db053b8ac15d4545f97a21fd7a3f", "lon": -77.0471375, "fusion_lon": 0.0}, {"is_reserved": 0, "type": "electric_scooter", "fusion_lat": 0.0, "is_disabled": 0, "rental_uris": {"ios": "https://dc.lft.to/lastmile_qr_scan", "android": "https://dc.lft.to/lastmile_qr_scan"}, "bike_id": "b925150b5b4caaa996077034d81764d9", "lat": 38.898434, "name": "b925150b5b4caaa996077034d81764d9", "lon": -77.02855083333333, "fusion_lon": 0.0}, {"is_reserved": 0, "type": "electric_scooter", "fusion_lat": 0.0, "is_disabled": 0, "rental_uris": {"ios": "https://dc.lft.to/lastmile_qr_scan", "android": "https://dc.lft.to/lastmile_qr_scan"}, "bike_id": "3686f019cfd8755b4048be0f27ecbd16", "lat": 38.876451333333335, "name": "3686f019cfd8755b4048be0f27ecbd16", "lon": -77.00078116666667, "fusion_lon": 0.0}, {"is_reserved": 0, "type": "electric_scooter", "fusion_lat": 0.0, "is_disabled": 0, "rental_uris": {"ios": "https://dc.lft.to/lastmile_qr_scan", "android": "https://dc.lft.to/lastmile_qr_scan"}, "bike_id": "22ad431d5d33e184e7ebd8ee5555265d", "lat": 38.91621933333333, "name": "22ad431d5d33e184e7ebd8ee5555265d", "lon": -77.03184866666666, "fusion_lon": 0.0}, {"is_reserved": 0, "type": "electric_scooter", "fusion_lat": 0.0, "is_disabled": 0, "rental_uris": {"ios": "https://dc.lft.to/lastmile_qr_scan", "android": "https://dc.lft.to/lastmile_qr_scan"}, "bike_id": "d0c36030dde4b964c24a45ea0b2b5c0b", "lat": 38.945918166666665, "name": "d0c36030dde4b964c24a45ea0b2b5c0b", "lon": -77.02030766666667, "fusion_lon": 0.0}, {"is_reserved": 0, "type": "electric_bike", "fusion_lat": 0.0, "is_disabled": 0, "rental_uris": {"ios": "https://dc.lft.to/lastmile_qr_scan", "android": "https://dc.lft.to/lastmile_qr_scan"}, "bike_id": "19443fd88fea553cd6ac2c05151fe605", "lat": 38.8430195, "name": "19443fd88fea553cd6ac2c05151fe605", "lon": -76.98842583333334, "fusion_lon": 0.0}, {"is_reserved": 0, "type": "electric_scooter", "fusion_lat": 0.0, "is_disabled": 0, "rental_uris": {"ios": "https://dc.lft.to/lastmile_qr_scan", "android": "https://dc.lft.to/lastmile_qr_scan"}, "bike_id": "cfe3114e798a0c30caa0261225cbd1c6", "lat": 38.8975545, "name": "cfe3114e798a0c30caa0261225cbd1c6", "lon": -77.051481, "fusion_lon": 0.0}, {"is_reserved": 0, "type": "electric_scooter", "fusion_lat": 0.0, "is_disabled": 0, "rental_uris": {"ios": "https://dc.lft.to/lastmile_qr_scan", "android": "https://dc.lft.to/lastmile_qr_scan"}, "bike_id": "71153aaaac854ab09004baf200548746", "lat": 38.90203966666667, "name": "71153aaaac854ab09004baf200548746", "lon": -76.986977, "fusion_lon": 0.0}, {"is_reserved": 0, "type": "electric_scooter", "fusion_lat": 0.0, "is_disabled": 0, "rental_uris": {"ios": "https://dc.lft.to/lastmile_qr_scan", "android": "https://dc.lft.to/lastmile_qr_scan"}, "bike_id": "28f0cf25c06c56724772e98a1eb1ff5a", "lat": 38.91256283333333, "name": "28f0cf25c06c56724772e98a1eb1ff5a", "lon": -77.045966, "fusion_lon": 0.0}, {"is_reserved": 0, "type": "electric_scooter", "fusion_lat": 0.0, "is_disabled": 0, "rental_uris": {"ios": "https://dc.lft.to/lastmile_qr_scan", "android": "https://dc.lft.to/lastmile_qr_scan"}, "bike_id": "a6bb35185c6f39729ebcb0243f8d1afa", "lat": 38.918144, "name": "a6bb35185c6f39729ebcb0243f8d1afa", "lon": -77.02475566666666, "fusion_lon": 0.0}, {"is_reserved": 0, "type": "electric_scooter", "fusion_lat": 0.0, "is_disabled": 0, "rental_uris": {"ios": "https://dc.lft.to/lastmile_qr_scan", "android": "https://dc.lft.to/lastmile_qr_scan"}, "bike_id": "7955bf056ba27cb751cf9d85f3a563bb", "lat": 38.919164, "name": "7955bf056ba27cb751cf9d85f3a563bb", "lon": -77.03310583333334, "fusion_lon": 0.0}, {"is_reserved": 0, "type": "electric_scooter", "fusion_lat": 0.0, "is_disabled": 0, "rental_uris": {"ios": "https://dc.lft.to/lastmile_qr_scan", "android": "https://dc.lft.to/lastmile_qr_scan"}, "bike_id": "7f5dd7524ea726b19cfa8df49e5ca2cb", "lat": 38.905589666666664, "name": "7f5dd7524ea726b19cfa8df49e5ca2cb", "lon": -77.01719716666666, "fusion_lon": 0.0}, {"is_reserved": 0, "type": "electric_scooter", "fusion_lat": 0.0, "is_disabled": 0, "rental_uris": {"ios": "https://dc.lft.to/lastmile_qr_scan", "android": "https://dc.lft.to/lastmile_qr_scan"}, "bike_id": "d6770db62bf3b4d3b22e59b429fa77c3", "lat": 38.91237366666667, "name": "d6770db62bf3b4d3b22e59b429fa77c3", "lon": -77.009171, "fusion_lon": 0.0}, {"is_reserved": 0, "type": "electric_scooter", "fusion_lat": 0.0, "is_disabled": 0, "rental_uris": {"ios": "https://dc.lft.to/lastmile_qr_scan", "android": "https://dc.lft.to/lastmile_qr_scan"}, "bike_id": "bebcca7eea01c511b1a02e2b9c5ab9fc", "lat": 38.91988116666667, "name": "bebcca7eea01c511b1a02e2b9c5ab9fc", "lon": -76.9730265, "fusion_lon": 0.0}, {"is_reserved": 0, "type": "electric_scooter", "fusion_lat": 0.0, "is_disabled": 0, "rental_uris": {"ios": "https://dc.lft.to/lastmile_qr_scan", "android": "https://dc.lft.to/lastmile_qr_scan"}, "bike_id": "fb71a2561449781df1d3e7ae469bd104", "lat": 38.90214266666667, "name": "fb71a2561449781df1d3e7ae469bd104", "lon": -77.0156855, "fusion_lon": 0.0}, {"is_reserved": 0, "type": "electric_bike", "fusion_lat": 0.0, "is_disabled": 0, "rental_uris": {"ios": "https://dc.lft.to/lastmile_qr_scan", "android": "https://dc.lft.to/lastmile_qr_scan"}, "bike_id": "05b8187130e25deeb5e722e5010a4a38", "lat": 38.877307, "name": "05b8187130e25deeb5e722e5010a4a38", "lon": -77.11849983333333, "fusion_lon": 0.0}, {"is_reserved": 0, "type": "electric_scooter", "fusion_lat": 0.0, "is_disabled": 0, "rental_uris": {"ios": "https://dc.lft.to/lastmile_qr_scan", "android": "https://dc.lft.to/lastmile_qr_scan"}, "bike_id": "a0196db1865da445ed1c04ee1e642a0f", "lat": 38.930896, "name": "a0196db1865da445ed1c04ee1e642a0f", "lon": -77.03440533333334, "fusion_lon": 0.0}, {"is_reserved": 0, "type": "electric_scooter", "fusion_lat": 0.0, "is_disabled": 0, "rental_uris": {"ios": "https://dc.lft.to/lastmile_qr_scan", "android": "https://dc.lft.to/lastmile_qr_scan"}, "bike_id": "a9dc6dbbd720bc195aff420db5703549", "lat": 38.916013, "name": "a9dc6dbbd720bc195aff420db5703549", "lon": -77.03211616666667, "fusion_lon": 0.0}, {"is_reserved": 0, "type": "electric_scooter", "fusion_lat": 0.0, "is_disabled": 0, "rental_uris": {"ios": "https://dc.lft.to/lastmile_qr_scan", "android": "https://dc.lft.to/lastmile_qr_scan"}, "bike_id": "af5cc371fd2a7f177af146e0c81f89f0", "lat": 38.92179933333333, "name": "af5cc371fd2a7f177af146e0c81f89f0", "lon": -77.0402485, "fusion_lon": 0.0}, {"is_reserved": 0, "type": "electric_scooter", "fusion_lat": 0.0, "is_disabled": 0, "rental_uris": {"ios": "https://dc.lft.to/lastmile_qr_scan", "android": "https://dc.lft.to/lastmile_qr_scan"}, "bike_id": "d8d19d27292015e6189e6529e3dad4f4", "lat": 38.902410333333336, "name": "d8d19d27292015e6189e6529e3dad4f4", "lon": -77.02004, "fusion_lon": 0.0}, {"is_reserved": 0, "type": "electric_scooter", "fusion_lat": 0.0, "is_disabled": 0, "rental_uris": {"ios": "https://dc.lft.to/lastmile_qr_scan", "android": "https://dc.lft.to/lastmile_qr_scan"},