{"data": {"bikes": [{"is_reserved": 0, "fusion_lon": 0.0, "fusion_lat": 0.0, "name": "b107e99b139c369328c58a3f22cf3e8c", "type": "electric_scooter", "is_disabled": 0, "lat": 38.91676016666667, "rental_uris": {"android": "https://dc.lft.to/lastmile_qr_scan", "ios": "https://dc.lft.to/lastmile_qr_scan"}, "bike_id": "b107e99b139c369328c58a3f22cf3e8c", "lon": -77.02987283333333}, {"is_reserved": 0, "fusion_lon": 0.0, "fusion_lat": 0.0, "name": "e665336de2493c804b1b5394f1eeb755", "type": "electric_scooter", "is_disabled": 0, "lat": 38.874614333333334, "rental_uris": {"android": "https://dc.lft.to/lastmile_qr_scan", "ios": "https://dc.lft.to/lastmile_qr_scan"}, "bike_id": "e665336de2493c804b1b5394f1eeb755", "lon": -77.0054505}, {"is_reserved": 0, "fusion_lon": 0.0, "fusion_lat": 0.0, "name": "9e929b50b5ac154920ca2ef2c0be3196", "type": "electric_scooter", "is_disabled": 0, "lat": 38.866596333333334, "rental_uris": {"android": "https://dc.lft.to/lastmile_qr_scan", "ios": "https://dc.lft.to/lastmile_qr_scan"}, "bike_id": "9e929b50b5ac154920ca2ef2c0be3196", "lon": -76.98883883333333}, {"is_reserved": 0, "fusion_lon": 0.0, "fusion_lat": 0.0, "name": "0c4b23c2ee5f0aef37db23754ea82674", "type": "electric_scooter", "is_disabled": 0, "lat": 38.9238445, "rental_uris": {"android": "https://dc.lft.to/lastmile_qr_scan", "ios": "https://dc.lft.to/lastmile_qr_scan"}, "bike_id": "0c4b23c2ee5f0aef37db23754ea82674", "lon": -77.027438}, {"is_reserved": 0, "fusion_lon": 0.0, "fusion_lat": 0.0, "name": "5c3dcd7a6aca8850e6d35ac9c31f7f9f", "type": "electric_scooter", "is_disabled": 0, "lat": 38.892277166666666, "rental_uris": {"android": "https://dc.lft.to/lastmile_qr_scan", "ios": "https://dc.lft.to/lastmile_qr_scan"}, "bike_id": "5c3dcd7a6aca8850e6d35ac9c31f7f9f", "lon": -77.0437855}, {"is_reserved": 0, "fusion_lon": 0.0, "fusion_lat": 0.0, "name": "04dbea06ff9a624de6f104ca5f02821f", "type": "electric_scooter", "is_disabled": 0, "lat": 38.907856833333334, "rental_uris": {"android": "https://dc.lft.to/lastmile_qr_scan", "ios": "https://dc.lft.to/lastmile_qr_scan"}, "bike_id": "04dbea06ff9a624de6f104ca5f02821f", "lon": -77.03832183333333}, {"is_reserved": 0, "fusion_lon": 0.0, "fusion_lat": 0.0, "name": "fb916f6b371575217e2996a8eede0395", "type": "electric_scooter", "is_disabled": 0, "lat": 38.9196465, "rental_uris": {"android": "https://dc.lft.to/lastmile_qr_scan", "ios": "https://dc.lft.to/lastmile_qr_scan"}, "bike_id": "fb916f6b371575217e2996a8eede0395", "lon": -77.0238935}, {"is_reserved": 0, "fusion_lon": 0.0, "fusion_lat": 0.0, "name": "7952237a4d4d0631806fca3eccb856fd", "type": "electric_scooter", "is_disabled": 0, "lat": 38.91196083333333, "rental_uris": {"android": "https://dc.lft.to/lastmile_qr_scan", "ios": "https://dc.lft.to/lastmile_qr_scan"}, "bike_id": "7952237a4d4d0631806fca3eccb856fd", "lon": -77.03832766666666}, {"is_reserved": 0, "fusion_lon": 0.0, "fusion_lat": 0.0, "name": "579a5d85e8f8d0ecf32579de302f4e14", "type": "electric_scooter", "is_disabled": 0, "lat": 38.91914883333333, "rental_uris": {"android": "https://dc.lft.to/lastmile_qr_scan", "ios": "https://dc.lft.to/lastmile_qr_scan"}, "bike_id": "579a5d85e8f8d0ecf32579de302f4e14", "lon": -77.04466183333334}, {"is_reserved": 0, "fusion_lon": 0.0, "fusion_lat": 0.0, "name": "764dbe8b783e46d015c7736571d43cdf", "type": "electric_scooter", "is_disabled": 0, "lat": 38.917921, "rental_uris": {"android": "https://dc.lft.to/lastmile_qr_scan", "ios": "https://dc.lft.to/lastmile_qr_scan"}, "bike_id": "764dbe8b783e46d015c7736571d43cdf", "lon": -77.031789}, {"is_reserved": 0, "fusion_lon": 0.0, "fusion_lat": 0.0, "name": "1478d94f1d0cfd6afae37bfe9092381a", "type": "electric_scooter", "is_disabled": 0, "lat": 38.9300595, "rental_uris": {"android": "https://dc.lft.to/lastmile_qr_scan", "ios": "https://dc.lft.to/lastmile_qr_scan"}, "bike_id": "1478d94f1d0cfd6afae37bfe9092381a", "lon": -77.01303666666666}, {"is_reserved": 0, "fusion_lon": 0.0, "fusion_lat": 0.0, "name": "485e8086a2412a9bf6189e6554b60b4a", "type": "electric_scooter", "is_disabled": 0, "lat": 38.9166085, "rental_uris": {"android": "https://dc.lft.to/lastmile_qr_scan", "ios": "https://dc.lft.to/lastmile_qr_scan"}, "bike_id": "485e8086a2412a9bf6189e6554b60b4a", "lon": -77.01919583333333}, {"is_reserved": 0, "fusion_lon": 0.0, "fusion_lat": 0.0, "name": "65a2cf344699d6ee69ddf0a8a0321d01", "type": "electric_scooter", "is_disabled": 0, "lat": 38.909763, "rental_uris": {"android": "https://dc.lft.to/lastmile_qr_scan", "ios": "https://dc.lft.to/lastmile_qr_scan"}, "bike_id": "65a2cf344699d6ee69ddf0a8a0321d01", "lon": -77.03842016666667}, {"is_reserved": 0, "fusion_lon": 0.0, "fusion_lat": 0.0, "name": "79f3b1b7357db2985f60b430f9192db5", "type": "electric_scooter", "is_disabled": 0, "lat": 38.90382016666667, "rental_uris": {"android": "https://dc.lft.to/lastmile_qr_scan", "ios": "https://dc.lft.to/lastmile_qr_scan"}, "bike_id": "79f3b1b7357db2985f60b430f9192db5", "lon": -77.0406175}, {"is_reserved": 0, "fusion_lon": 0.0, "fusion_lat": 0.0, "name": "c1864809e0af6d1c7739bb52db2942ae", "type": "electric_scooter", "is_disabled": 0, "lat": 38.86657666666667, "rental_uris": {"android": "https://dc.lft.to/lastmile_qr_scan", "ios": "https://dc.lft.to/lastmile_qr_scan"}, "bike_id": "c1864809e0af6d1c7739bb52db2942ae", "lon": -76.98516033333334}, {"is_reserved": 0, "fusion_lon": 0.0, "fusion_lat": 0.0, "name": "378e4c48086822804b0ef9b9e86db551", "type": "electric_scooter", "is_disabled": 0, "lat": 38.9211515, "rental_uris": {"android": "https://dc.lft.to/lastmile_qr_scan", "ios": "https://dc.lft.to/lastmile_qr_scan"}, "bike_id": "378e4c48086822804b0ef9b9e86db551", "lon": -77.03328383333333}, {"is_reserved": 0, "fusion_lon": 0.0, "fusion_lat": 0.0, "name": "75cbef71fe41373e4a51b67ef9299ba8", "type": "electric_scooter", "is_disabled": 0, "lat": 38.9293275, "rental_uris": {"android": "https://dc.lft.to/lastmile_qr_scan", "ios": "https://dc.lft.to/lastmile_qr_scan"}, "bike_id": "75cbef71fe41373e4a51b67ef9299ba8", "lon": -77.02335783333334}, {"is_reserved": 0, "fusion_lon": 0.0, "fusion_lat": 0.0, "name": "70581b71af6919bb349e432cd9b67da0", "type": "electric_scooter", "is_disabled": 0, "lat": 38.900133833333335, "rental_uris": {"android": "https://dc.lft.to/lastmile_qr_scan", "ios": "https://dc.lft.to/lastmile_qr_scan"}, "bike_id": "70581b71af6919bb349e432cd9b67da0", "lon": -77.0413765}, {"is_reserved": 0, "fusion_lon": 0.0, "fusion_lat": 0.0, "name": "b30f05084ec7669136dd3d67a4ecbef8", "type": "electric_scooter", "is_disabled": 0, "lat": 38.9231805, "rental_uris": {"android": "https://dc.lft.to/lastmile_qr_scan", "ios": "https://dc.lft.to/lastmile_qr_scan"}, "bike_id": "b30f05084ec7669136dd3d67a4ecbef8", "lon": -77.05642916666666}, {"is_reserved": 0, "fusion_lon": 0.0, "fusion_lat": 0.0, "name": "49dbb395ceefb3decc45da574108d846", "type": "electric_scooter", "is_disabled": 0, "lat": 38.911818, "rental_uris": {"android": "https://dc.lft.to/lastmile_qr_scan", "ios": "https://dc.lft.to/lastmile_qr_scan"}, "bike_id": "49dbb395ceefb3decc45da574108d846", "lon": -77.04344066666667}, {"is_reserved": 0, "fusion_lon": 0.0, "fusion_lat": 0.0, "name": "15ff607f5b73553e7f82cbcf85a92be1", "type": "electric_scooter", "is_disabled": 0, "lat": 38.94205516666667, "rental_uris": {"android": "https://dc.lft.to/lastmile_qr_scan", "ios": "https://dc.lft.to/lastmile_qr_scan"}, "bike_id": "15ff607f5b73553e7f82cbcf85a92be1", "lon": -77.025173}, {"is_reserved": 0, "fusion_lon": 0.0, "fusion_lat": 0.0, "name": "360ee3741f0992bfaaaf41d5d62794f9", "type": "electric_scooter", "is_disabled": 0, "lat": 38.884791166666666, "rental_uris": {"android": "https://dc.lft.to/lastmile_qr_scan", "ios": "https://dc.lft.to/lastmile_qr_scan"}, "bike_id": "360ee3741f0992bfaaaf41d5d62794f9", "lon": -77.02005883333334}, {"is_reserved": 0, "fusion_lon": 0.0, "fusion_lat": 0.0, "name": "781fb08204dd5b518043eb10a438e5ca", "type": "electric_scooter", "is_disabled": 0, "lat": 38.900305, "rental_uris": {"android": "https://dc.lft.to/lastmile_qr_scan", "ios": "https://dc.lft.to/lastmile_qr_scan"}, "bike_id": "781fb08204dd5b518043eb10a438e5ca", "lon": -76.98857516666666}, {"is_reserved": 0, "fusion_lon": 0.0, "fusion_lat": 0.0, "name": "46b18ceed60c1f1a640280c010ad918c", "type": "electric_scooter", "is_disabled": 0, "lat": 38.874926, "rental_uris": {"android": "https://dc.lft.to/lastmile_qr_scan", "ios": "https://dc.lft.to/lastmile_qr_scan"}, "bike_id": "46b18ceed60c1f1a640280c010ad918c", "lon": -77.00239466666666}, {"is_reserved": 0, "fusion_lon": 0.0, "fusion_lat": 0.0, "name": "f3bdf456c8415d8b67663cef313d6d50", "type": "electric_scooter", "is_disabled": 0, "lat": 38.909823333333335, "rental_uris": {"android": "https://dc.lft.to/lastmile_qr_scan", "ios": "https://dc.lft.to/lastmile_qr_scan"}, "bike_id": "f3bdf456c8415d8b67663cef313d6d50", "lon": -77.03180216666667}, {"is_reserved": 0, "fusion_lon": 0.0, "fusion_lat": 0.0, "name": "258322b0bf552ab278e189de085082bc", "type": "electric_scooter", "is_disabled": 0, "lat": 38.921075, "rental_uris": {"android": "https://dc.lft.to/lastmile_qr_scan", "ios": "https://dc.lft.to/lastmile_qr_scan"}, "bike_id": "258322b0bf552ab278e189de085082bc", "lon": -77.01805966666667}, {"is_reserved": 0, "fusion_lon": 0.0, "fusion_lat": 0.0, "name": "849ca1f3877021f9d4fe133cd8cd7fb1", "type": "electric_scooter", "is_disabled": 0, "lat": 38.917596833333334, "rental_uris": {"android": "https://dc.lft.to/lastmile_qr_scan", "ios": "https://dc.lft.to/lastmile_qr_scan"}, "bike_id": "849ca1f3877021f9d4fe133cd8cd7fb1", "lon": -77.01219883333333}, {"is_reserved": 0, "fusion_lon": 0.0, "fusion_lat": 0.0, "name": "756c53b477e904c4aff1fede280d6b16", "type": "electric_scooter", "is_disabled": 0, "lat": 38.892379166666665, "rental_uris": {"android": "https://dc.lft.to/lastmile_qr_scan", "ios": "https://dc.lft.to/lastmile_qr_scan"}, "bike_id": "756c53b477e904c4aff1fede280d6b16", "lon": -77.031818}, {"is_reserved": 0, "fusion_lon": 0.0, "fusion_lat": 0.0, "name": "b409227d4911d3b69e52dc2df59844f0", "type": "electric_scooter", "is_disabled": 0, "lat": 38.904694166666665, "rental_uris": {"android": "https://dc.lft.to/lastmile_qr_scan", "ios": "https://dc.lft.to/lastmile_qr_scan"}, "bike_id": "b409227d4911d3b69e52dc2df59844f0", "lon": -77.017209}, {"is_reserved": 0, "fusion_lon": 0.0, "fusion_lat": 0.0, "name": "ea8f43d6d01f3c2e268fd29e2fcfbcdf", "type": "electric_scooter", "is_disabled": 0, "lat": 38.86645633333333, "rental_uris": {"android": "https://dc.lft.to/lastmile_qr_scan", "ios": "https://dc.lft.to/lastmile_qr_scan"}, "bike_id": "ea8f43d6d01f3c2e268fd29e2fcfbcdf", "lon": -76.98263433333334}, {"is_reserved": 0, "fusion_lon": 0.0, "fusion_lat": 0.0, "name": "211019a65e990d98b42932e459099eae", "type": "electric_scooter", "is_disabled": 0, "lat": 38.90871116666667, "rental_uris": {"android": "https://dc.lft.to/lastmile_qr_scan", "ios": "https://dc.lft.to/lastmile_qr_scan"}, "bike_id": "211019a65e990d98b42932e459099eae", "lon": -77.08592866666666}, {"is_reserved": 0, "fusion_lon": 0.0, "fusion_lat": 0.0, "name": "98ba062a9d19f4541e01e9a2623e07cc", "type": "electric_bike", "is_disabled": 0, "lat": 38.86266416666667, "rental_uris": {"android": "https://dc.lft.to/lastmile_qr_scan", "ios": "https://dc.lft.to/lastmile_qr_scan"}, "bike_id": "98ba062a9d19f4541e01e9a2623e07cc", "lon": -76.983529}, {"is_reserved": 0, "fusion_lon": 0.0, "fusion_lat": 0.0, "name": "7875cac9fae8d195b6fbc96ba74ebed1", "type": "electric_scooter", "is_disabled": 0, "lat": 38.9173735, "rental_uris": {"android": "https://dc.lft.to/lastmile_qr_scan", "ios": "https://dc.lft.to/lastmile_qr_scan"}, "bike_id": "7875cac9fae8d195b6fbc96ba74ebed1", "lon": -77.026928}, {"is_reserved": 0, "fusion_lon": 0.0, "fusion_lat": 0.0, "name": "b05177779c00d49133acda477ebe6462", "type": "electric_bike", "is_disabled": 0, "lat": 38.969166, "rental_uris": {"android": "https://dc.lft.to/lastmile_qr_scan", "ios": "https://dc.lft.to/lastmile_qr_scan"}, "bike_id": "b05177779c00d49133acda477ebe6462", "lon": -76.99494266666666}, {"is_reserved": 0, "fusion_lon": 0.0, "fusion_lat": 0.0, "name": "1454a52e2a49e444a11f7d58c9825abb", "type": "electric_scooter", "is_disabled": 0, "lat": 38.9360485, "rental_uris": {"android": "https://dc.lft.to/lastmile_qr_scan", "ios": "https://dc.lft.to/lastmile_qr_scan"}, "bike_id": "1454a52e2a49e444a11f7d58c9825abb", "lon": -77.03783083333333}, {"is_reserved": 0, "fusion_lon": 0.0, "fusion_lat": 0.0, "name": "050810833f6c5bd231e4af24ae9822ce", "type": "electric_bike", "is_disabled": 0, "lat": 38.9632355, "rental_uris": {"android": "https://dc.lft.to/lastmile_qr_scan", "ios": "https://dc.lft.to/lastmile_qr_scan"}, "bike_id": "050810833f6c5bd231e4af24ae9822ce", "lon": -76.97359416666667}, {"is_reserved": 0, "fusion_lon": 0.0, "fusion_lat": 0.0, "name": "89210ee0929b5b91fc593e0c589a38f0", "type": "electric_scooter", "is_disabled": 0, "lat": 38.9304355, "rental_uris": {"android": "https://dc.lft.to/lastmile_qr_scan", "ios": "https://dc.lft.to/lastmile_qr_scan"}, "bike_id": "89210ee0929b5b91fc593e0c589a38f0", "lon": -77.0122755}, {"is_reserved": 0, "fusion_lon": 0.0, "fusion_lat": 0.0, "name": "e3432259eed5b65dc3541ee1adeb02d9", "type": "electric_scooter", "is_disabled": 0, "lat": 38.923331166666664, "rental_uris": {"android": "https://dc.lft.to/lastmile_qr_scan", "ios": "https://dc.lft.to/lastmile_qr_scan"}, "bike_id": "e3432259eed5b65dc3541ee1adeb02d9", "lon": -77.00047433333333}, {"is_reserved": 0, "fusion_lon": 0.0, "fusion_lat": 0.0, "name": "0ffd2cc9253489155ce27a2c08642463", "type": "electric_scooter", "is_disabled": 0, "lat": 38.9126855, "rental_uris": {"android": "https://dc.lft.to/lastmile_qr_scan", "ios": "https://dc.lft.to/lastmile_qr_scan"}, "bike_id": "0ffd2cc9253489155ce27a2c08642463", "lon": -77.03112283333333}, {"is_reserved": 0, "fusion_lon": 0.0, "fusion_lat": 0.0, "name": "7d29dbc97925801b54863c5e0e0ed9aa", "type": "electric_scooter", "is_disabled": 0, "lat": 38.9287905, "rental_uris": {"android": "https://dc.lft.to/lastmile_qr_scan", "ios": "https://dc.lft.to/lastmile_qr_scan"}, "bike_id": "7d29dbc97925801b54863c5e0e0ed9aa", "lon": -77.03654}, {"is_reserved": 0, "fusion_lon": 0.0, "fusion_lat": 0.0, "name": "feea04a51f8be63a7792ac59eb6c29b7", "type": "electric_scooter", "is_disabled": 0, "lat": 38.91819266666667, "rental_uris": {"android": "https://dc.lft.to/lastmile_qr_scan", "ios": "https://dc.lft.to/lastmile_qr_scan"}, "bike_id": "feea04a51f8be63a7792ac59eb6c29b7", "lon": -77.08960266666666}, {"is_reserved": 0, "fusion_lon": 0.0, "fusion_lat": 0.0, "name": "dc36c464b14a9e6b08db1ff70451f261", "type": "electric_scooter", "is_disabled": 0, "lat": 38.92493133333333, "rental_uris": {"android": "https://dc.lft.to/lastmile_qr_scan", "ios": "https://dc.lft.to/lastmile_qr_scan"}, "bike_id": "dc36c464b14a9e6b08db1ff70451f261", "lon": -77.0268915}, {"is_reserved": 0, "fusion_lon": 0.0, "fusion_lat": 0.0, "name": "a1eaf9f56b4cf4c79faea2945dece4df", "type": "electric_scooter", "is_disabled": 0, "lat": 38.9169695, "rental_uris": {"android": "https://dc.lft.to/lastmile_qr_scan", "ios": "https://dc.lft.to/lastmile_qr_scan"}, "bike_id": "a1eaf9f56b4cf4c79faea2945dece4df", "lon": -77.032141}, {"is_reserved": 0, "fusion_lon": 0.0, "fusion_lat": 0.0, "name": "55d222c515f7ca44be1906ec1ca780b5", "type": "electric_scooter", "is_disabled": 0, "lat": 38.88047616666667, "rental_uris": {"android": "https://dc.lft.to/lastmile_qr_scan", "ios": "https://dc.lft.to/lastmile_qr_scan"}, "bike_id": "55d222c515f7ca44be1906ec1ca780b5", "lon": -76.986293}, {"is_reserved": 0, "fusion_lon": 0.0, "fusion_lat": 0.0, "name": "2137afb2d207b8a4a728aaf636eaa3f4", "type": "electric_bike", "is_disabled": 0, "lat": 38.8295235, "rental_uris": {"android": "https://dc.lft.to/lastmile_qr_scan", "ios": "https://dc.lft.to/lastmile_qr_scan"}, "bike_id": "2137afb2d207b8a4a728aaf636eaa3f4", "lon": -77.12355366666667}, {"is_reserved": 0, "fusion_lon": 0.0, "fusion_lat": 0.0, "name": "f90524ca02ba60e6a3986af7915abd75", "type": "electric_scooter", "is_disabled": 0, "lat": 38.851795, "rental_uris": {"android": "https://dc.lft.to/lastmile_qr_scan", "ios": "https://dc.lft.to/lastmile_qr_scan"}, "bike_id": "f90524ca02ba60e6a3986af7915abd75", "lon": -76.99579483333333}, {"is_reserved": 0, "fusion_lon": 0.0, "fusion_lat": 0.0, "name": "ae53e6a87200eb691615d9ba886d5406", "type": "electric_scooter", "is_disabled": 0, "lat": 38.920715, "rental_uris": {"android": "https://dc.lft.to/lastmile_qr_scan", "ios": "https://dc.lft.to/lastmile_qr_scan"}, "bike_id": "ae53e6a87200eb691615d9ba886d5406", "lon": -77.04376816666667}, {"is_reserved": 0, "fusion_lon": 0.0, "fusion_lat": 0.0, "name": "754c7147ad5a2e67d49b520a4c9d1c22", "type": "electric_scooter", "is_disabled": 0, "lat": 38.905981833333335, "rental_uris": {"android": "https://dc.lft.to/lastmile_qr_scan", "ios": "https://dc.lft.to/lastmile_qr_scan"}, "bike_id": "754c7147ad5a2e67d49b520a4c9d1c22", "lon": -77.03463016666667}, {"is_reserved": 0, "fusion_lon": 0.0, "fusion_lat": 0.0, "name": "992ed921f58217184bf06bf73f90a221", "type": "electric_scooter", "is_disabled": 0, "lat": 38.936036, "rental_uris": {"android": "https://dc.lft.to/lastmile_qr_scan", "ios": "https://dc.lft.to/lastmile_qr_scan"}, "bike_id": "992ed921f58217184bf06bf73f90a221", "lon": -77.037905}, {"is_reserved": 0, "fusion_lon": 0.0, "fusion_lat": 0.0, "name": "7b63bab7f48ff250af7379d938bf1e47", "type": "electric_scooter", "is_disabled": 0, "lat": 38.90975133333333, "rental_uris": {"android": "https://dc.lft.to/lastmile_qr_scan", "ios": "https://dc.lft.to/lastmile_qr_scan"}, "bike_id": "7b63bab7f48ff250af7379d938bf1e47", "lon": -77.0269005}, {"is_reserved": 0, "fusion_lon": 0.0, "fusion_lat": 0.0, "name": "74017494a8cda010cc30f850d64abe23", "type": "electric_scooter", "is_disabled": 0, "lat": 38.9353515, "rental_uris": {"android": "https://dc.lft.to/lastmile_qr_scan", "ios": "https://dc.lft.to/lastmile_qr_scan"}, "bike_id": "74017494a8cda010cc30f850d64abe23", "lon": -77.02348316666667}, {"is_reserved": 0, "fusion_lon": 0.0, "fusion_lat": 0.0, "name": "ea828231ddec9bd8ef946540c8e6de59", "type": "electric_scooter", "is_disabled": 0, "lat": 38.918058, "rental_uris": {"android": "https://dc.lft.to/lastmile_qr_scan", "ios": "https://dc.lft.to/lastmile_qr_scan"}, "bike_id": "ea828231ddec9bd8ef946540c8e6de59", "lon": -77.034639}, {"is_reserved": 0, "fusion_lon": 0.0, "fusion_lat": 0.0, "name": "7227e4fc8da3017712cf70c1dc2b466b", "type": "electric_scooter", "is_disabled": 0, "lat": 38.90053783333333, "rental_uris": {"android": "https://dc.lft.to/lastmile_qr_scan", "ios": "https://dc.lft.to/lastmile_qr_scan"}, "bike_id": "7227e4fc8da3017712cf70c1dc2b466b", "lon": -77.03964516666667}, {"is_reserved": 0, "fusion_lon": 0.0, "fusion_lat": 0.0, "name": "c39784a75bd78fdb139958239b70aab5", "type": "electric_bike", "is_disabled": 0, "lat": 38.94562533333333, "rental_uris": {"android": "https://dc.lft.to/lastmile_qr_scan", "ios": "https://dc.lft.to/lastmile_qr_scan"}, "bike_id": "c39784a75bd78fdb139958239b70aab5", "lon": -76.96686266666667}, {"is_reserved": 0, "fusion_lon": 0.0, "fusion_lat": 0.0, "name": "de61031cbff625178a846cf1018198cf", "type": "electric_scooter", "is_disabled": 0, "lat": 38.9209175, "rental_uris": {"android": "https://dc.lft.to/lastmile_qr_scan", "ios": "https://dc.lft.to/lastmile_qr_scan"}, "bike_id": "de61031cbff625178a846cf1018198cf", "lon": -77.021915}, {"is_reserved": 0, "fusion_lon": 0.0, "fusion_lat": 0.0, "name": "67ebc6d1061efb552700007122e4b2d0", "type": "electric_scooter", "is_disabled": 0, "lat": 38.927484166666666, "rental_uris": {"android": "https://dc.lft.to/lastmile_qr_scan", "ios": "https://dc.lft.to/lastmile_qr_scan"}, "bike_id": "67ebc6d1061efb552700007122e4b2d0", "lon": -77.02153683333333}, {"is_reserved": 0, "fusion_lon": 0.0, "fusion_lat": 0.0, "name": "129a317e12b06a4be21671e38c885d67", "type": "electric_scooter", "is_disabled": 0, "lat": 38.920496, "rental_uris": {"android": "https://dc.lft.to/lastmile_qr_scan", "ios": "https://dc.lft.to/lastmile_qr_scan"}, "bike_id": "129a317e12b06a4be21671e38c885d67", "lon": -76.98944533333334}, {"is_reserved": 0, "fusion_lon": 0.0, "fusion_lat": 0.0, "name": "9b22909507f4530b61c5b588660d3081", "type": "electric_scooter", "is_disabled": 0, "lat": 38.92118283333333, "rental_uris": {"android": "https://dc.lft.to/lastmile_qr_scan", "ios": "https://dc.lft.to/lastmile_qr_scan"}, "bike_id": "9b22909507f4530b61c5b588660d3081", "lon": -77.04382316666667}, {"is_reserved": 0, "fusion_lon": 0.0, "fusion_lat": 0.0, "name": "eaf415bd33e0e71353f000e183e0bb17", "type": "electric_scooter", "is_disabled": 0, "lat": 38.92652316666667, "rental_uris": {"android": "https://dc.lft.to/lastmile_qr_scan", "ios": "https://dc.lft.to/lastmile_qr_scan"}, "bike_id": "eaf415bd33e0e71353f000e183e0bb17", "lon": -77.02500433333333}, {"is_reserved": 0, "fusion_lon": 0.0, "fusion_lat": 0.0, "name": "3f054c803da7ed69f28544f0aebf7382", "type": "electric_scooter", "is_disabled": 0, "lat": 38.95934883333334, "rental_uris": {"android": "https://dc.lft.to/lastmile_qr_scan", "ios": "https://dc.lft.to/lastmile_qr_scan"}, "bike_id": "3f054c803da7ed69f28544f0aebf7382", "lon": -77.03124783333334}, {"is_reserved": 0, "fusion_lon": 0.0, "fusion_lat": 0.0, "name": "49b536d596f07b509a60331251102556", "type": "electric_scooter", "is_disabled": 0, "lat": 38.8736655, "rental_uris": {"android": "https://dc.lft.to/lastmile_qr_scan", "ios": "https://dc.lft.to/lastmile_qr_scan"}, "bike_id": "49b536d596f07b509a60331251102556", "lon": -76.97011683333334}, {"is_reserved": 0, "fusion_lon": 0.0, "fusion_lat": 0.0, "name": "8cdebf4c42e2031b4e78ac5a789a53aa", "type": "electric_scooter", "is_disabled": 0, "lat": 38.907753666666665, "rental_uris": {"android": "https://dc.lft.to/lastmile_qr_scan", "ios": "https://dc.lft.to/lastmile_qr_scan"}, "bike_id": "8cdebf4c42e2031b4e78ac5a789a53aa", "lon": -77.03830866666667}, {"is_reserved": 0, "fusion_lon": 0.0, "fusion_lat": 0.0, "name": "abb3a5388976d3791def6e6012bea61e", "type": "electric_scooter", "is_disabled": 0, "lat": 38.89550966666667, "rental_uris": {"android": "https://dc.lft.to/lastmile_qr_scan", "ios": "https://dc.lft.to/lastmile_qr_scan"}, "bike_id": "abb3a5388976d3791def6e6012bea61e", "lon": -76.99841216666667}, {"is_reserved": 0, "fusion_lon": 0.0, "fusion_lat": 0.0, "name": "2167f1a879d5d4e8099186a493db94dd", "type": "electric_scooter", "is_disabled": 0, "lat": 38.91121033333334, "rental_uris": {"android": "https://dc.lft.to/lastmile_qr_scan", "ios": "https://dc.lft.to/lastmile_qr_scan"}, "bike_id": "2167f1a879d5d4e8099186a493db94dd", "lon": -77.01027633333334}, {"is_reserved": 0, "fusion_lon": 0.0, "fusion_lat": 0.0, "name": "d86f50f86cdf08ba51dcbcfae9b656c2", "type": "electric_scooter", "is_disabled": 0, "lat": 38.942935166666665, "rental_uris": {"android": "https://dc.lft.to/lastmile_qr_scan", "ios": "https://dc.lft.to/lastmile_qr_scan"}, "bike_id": "d86f50f86cdf08ba51dcbcfae9b656c2", "lon": -77.02170416666667}, {"is_reserved": 0, "fusion_lon": 0.0, "fusion_lat": 0.0, "name": "b3c260e29bfe5011e9296cbcb5084b71", "type": "electric_scooter", "is_disabled": 0, "lat": 38.89494766666667, "rental_uris": {"android": "https://dc.lft.to/lastmile_qr_scan", "ios": "https://dc.lft.to/lastmile_qr_scan"}, "bike_id": "b3c260e29bfe5011e9296cbcb5084b71", "lon": -77.00213433333333}, {"is_reserved": 0, "fusion_lon": 0.0, "fusion_lat": 0.0, "name": "afffa9e767265d27fbb558fdaf466d71", "type": "electric_scooter", "is_disabled": 0, "lat": 38.9345265, "rental_uris": {"android": "https://dc.lft.to/lastmile_qr_scan", "ios": "https://dc.lft.to/lastmile_qr_scan"}, "bike_id": "afffa9e767265d27fbb558fdaf466d71", "lon": -77.03078066666667}, {"is_reserved": 0, "fusion_lon": 0.0, "fusion_lat": 0.0, "name": "de6d0ae0b7dfbba38d62dac10229fc9d", "type": "electric_bike", "is_disabled": 0, "lat": 38.91272633333333, "rental_uris": {"android": "https://dc.lft.to/lastmile_qr_scan", "ios": "https://dc.lft.to/lastmile_qr_scan"}, "bike_id": "de6d0ae0b7dfbba38d62dac10229fc9d", "lon": -77.01221933333333}, {"is_reserved": 0, "fusion_lon": 0.0, "fusion_lat": 0.0, "name": "3f88ff63e24d3250c2c284251c867444", "type": "electric_scooter", "is_disabled": 0, "lat": 38.899032166666665, "rental_uris": {"android": "https://dc.lft.to/lastmile_qr_scan", "ios": "https://dc.lft.to/lastmile_qr_scan"}, "bike_id": "3f88ff63e24d3250c2c284251c867444", "lon": -77.03156733333333}, {"is_reserved": 0, "fusion_lon": 0.0, "fusion_lat": 0.0, "name": "0357b8a3d4be88fc6af73cbd8673fc7d", "type": "electric_scooter", "is_disabled": 0, "lat": 38.91436316666667, "rental_uris": {"android": "https://dc.lft.to/lastmile_qr_scan", "ios": "https://dc.lft.to/lastmile_qr_scan"}, "bike_id": "0357b8a3d4be88fc6af73cbd8673fc7d", "lon": -77.02049633333333}, {"is_reserved": 0, "fusion_lon": 0.0, "fusion_lat": 0.0, "name": "706a86ab9e9476a16f6edb0daf768186", "type": "electric_bike", "is_disabled": 0, "lat": 38.932354833333335, "rental_uris": {"android": "https://dc.lft.to/lastmile_qr_scan", "ios": "https://dc.lft.to/lastmile_qr_scan"}, "bike_id": "706a86ab9e9476a16f6edb0daf768186", "lon": -76.97425333333334}, {"is_reserved": 0, "fusion_lon": 0.0, "fusion_lat": 0.0, "name": "3fb74727834896cd051c251c6b78eb49", "type": "electric_bike", "is_disabled": 0, "lat": 38.955089, "rental_uris": {"android": "https://dc.lft.to/lastmile_qr_scan", "ios": "https://dc.lft.to/lastmile_qr_scan"}, "bike_id": "3fb74727834896cd051c251c6b78eb49", "lon": -76.99355916666667}, {"is_reserved": 0, "fusion_lon": 0.0, "fusion_lat": 0.0, "name": "9bc707d444b84843917653b2410c4937", "type": "electric_scooter", "is_disabled": 0, "lat": 38.913636833333335, "rental_uris": {"android": "https://dc.lft.to/lastmile_qr_scan", "ios": "https://dc.lft.to/lastmile_qr_scan"}, "bike_id": "9bc707d444b84843917653b2410c4937", "lon": -77.02048216666667}, {"is_reserved": 0, "fusion_lon": 0.0, "fusion_lat": 0.0, "name": "10ace38a7c203c9dc220be5e62b0b846", "type": "electric_bike", "is_disabled": 0, "lat": 39.042353, "rental_uris": {"android": "https://dc.lft.to/lastmile_qr_scan", "ios": "https://dc.lft.to/lastmile_qr_scan"}, "bike_id": "10ace38a7c203c9dc220be5e62b0b846", "lon": -77.030709}, {"is_reserved": 0, "fusion_lon": 0.0, "fusion_lat": 0.0, "name": "d101cc5ca68a743d9be25981f7c097ad", "type": "electric_scooter", "is_disabled": 0, "lat": 38.9310245, "rental_uris": {"android": "https://dc.lft.to/lastmile_qr_scan", "ios": "https://dc.lft.to/lastmile_qr_scan"}, "bike_id": "d101cc5ca68a743d9be25981f7c097ad", "lon": -77.02795183333333}, {"is_reserved": 0, "fusion_lon": 0.0, "fusion_lat": 0.0, "name": "1a067b5d549adb3477033cab6298c383", "type": "electric_scooter", "is_disabled": 0, "lat": 38.86973483333333, "rental_uris": {"android": "https://dc.lft.to/lastmile_qr_scan", "ios": "https://dc.lft.to/lastmile_qr_scan"}, "bike_id": "1a067b5d549adb3477033cab6298c383", "lon": -77.0122835}, {"is_reserved": 0, "fusion_lon": 0.0, "fusion_lat": 0.0, "name": "de33d73316ba40f1416bda03af035fd5", "type": "electric_scooter", "is_disabled": 0, "lat": 38.942062666666665, "rental_uris": {"android": "https://dc.lft.to/lastmile_qr_scan", "ios": "https://dc.lft.to/lastmile_qr_scan"}, "bike_id": "de33d73316ba40f1416bda03af035fd5", "lon": -77.02515166666667}, {"is_reserved": 0, "fusion_lon": 0.0, "fusion_lat": 0.0, "name": "d3136767a246d2c529da40bf83ae172e", "type": "electric_scooter", "is_disabled": 0, "lat": 38.929381166666666, "rental_uris": {"android": "https://dc.lft.to/lastmile_qr_scan", "ios": "https://dc.lft.to/lastmile_qr_scan"}, "bike_id": "d3136767a246d2c529da40bf83ae172e", "lon": -77.03658233333333}, {"is_reserved": 0, "fusion_lon": 0.0, "fusion_lat": 0.0, "name": "da0b45805f744769c5b40ff17784a9ed", "type": "electric_scooter", "is_disabled": 0, "lat": 38.920564, "rental_uris": {"android": "https://dc.lft.to/lastmile_qr_scan", "ios": "https://dc.lft.to/lastmile_qr_scan"}, "bike_id": "da0b45805f744769c5b40ff17784a9ed", "lon": -77.04617433333334}, {"is_reserved": 0, "fusion_lon": 0.0, "fusion_lat": 0.0, "name": "be1e61c6ff91f3c9ad770b9119070a53", "type": "electric_scooter", "is_disabled": 0, "lat": 38.892221, "rental_uris": {"android": "https://dc.lft.to/lastmile_qr_scan", "ios": "https://dc.lft.to/lastmile_qr_scan"}, "bike_id": "be1e61c6ff91f3c9ad770b9119070a53", "lon": -77.04306816666667}, {"is_reserved": 0, "fusion_lon": 0.0, "fusion_lat": 0.0, "name": "4c65f317159a0005cd43ec642bf78c76", "type": "electric_scooter", "is_disabled": 0, "lat": 38.93269766666667, "rental_uris": {"android": "https://dc.lft.to/lastmile_qr_scan", "ios": "https://dc.lft.to/lastmile_qr_scan"}, "bike_id": "4c65f317159a0005cd43ec642bf78c76", "lon": -77.0210855}, {"is_reserved": 0, "fusion_lon": 0.0, "fusion_lat": 0.0, "name": "dd4f94df4e6b9d48ee79f7f88bb89989", "type": "electric_scooter", "is_disabled": 0, "lat": 38.9583605, "rental_uris": {"android": "https://dc.lft.to/lastmile_qr_scan", "ios": "https://dc.lft.to/lastmile_qr_scan"}, "bike_id": "dd4f94df4e6b9d48ee79f7f88bb89989", "lon": -77.01512666666666}, {"is_reserved": 0, "fusion_lon": 0.0, "fusion_lat": 0.0, "name": "8ded95a176f7608e21a876cfe530fe64", "type": "electric_scooter", "is_disabled": 0, "lat": 38.925393666666665, "rental_uris": {"android": "https://dc.lft.to/lastmile_qr_scan", "ios": "https://dc.lft.to/lastmile_qr_scan"}, "bike_id": "8ded95a176f7608e21a876cfe530fe64", "lon": -77.0385585}, {"is_reserved": 0, "fusion_lon": 0.0, "fusion_lat": 0.0, "name": "1e59595121ebc25ce7071fc3b7d25e73", "type": "electric_scooter", "is_disabled": 0, "lat": 38.87648183333334, "rental_uris": {"android": "https://dc.lft.to/lastmile_qr_scan", "ios": "https://dc.lft.to/lastmile_qr_scan"}, "bike_id": "1e59595121ebc25ce7071fc3b7d25e73", "lon": -76.96506366666667}, {"is_reserved": 0, "fusion_lon": 0.0, "fusion_lat": 0.0, "name": "1aa49a59ce960da94d1cbc78470f4550", "type": "electric_scooter", "is_disabled": 0, "lat": 38.91996733333333, "rental_uris": {"android": "https://dc.lft.to/lastmile_qr_scan", "ios": "https://dc.lft.to/lastmile_qr_scan"}, "bike_id": "1aa49a59ce960da94d1cbc78470f4550", "lon": -77.02888133333333}, {"is_reserved": 0, "fusion_lon": 0.0, "fusion_lat": 0.0, "name": "42807c3eaf5c70bbfedf0959f585f6bf", "type": "electric_scooter", "is_disabled": 0, "lat": 38.9098035, "rental_uris": {"android": "https://dc.lft.to/lastmile_qr_scan", "ios": "https://dc.lft.to/lastmile_qr_scan"}, "bike_id": "42807c3eaf5c70bbfedf0959f585f6bf", "lon": -77.0318065}, {"is_reserved": 0, "fusion_lon": 0.0, "fusion_lat": 0.0, "name": "f829820dda7c81c0a3b16fbaa65ed142", "type": "electric_scooter", "is_disabled": 0, "lat": 38.92849316666667, "rental_uris": {"android": "https://dc.lft.to/lastmile_qr_scan", "ios": "https://dc.lft.to/lastmile_qr_scan"}, "bike_id": "f829820dda7c81c0a3b16fbaa65ed142", "lon": -77.037371}, {"is_reserved": 0, "fusion_lon": 0.0, "fusion_lat": 0.0, "name": "a7c659f8e5fd35a9c64f5ace1f5ebfde", "type": "electric_scooter", "is_disabled": 0, "lat": 38.905990333333335, "rental_uris": {"android": "https://dc.lft.to/lastmile_qr_scan", "ios": "https://dc.lft.to/lastmile_qr_scan"}, "bike_id": "a7c659f8e5fd35a9c64f5ace1f5ebfde", "lon": -77.03467666666667}, {"is_reserved": 0, "fusion_lon": 0.0, "fusion_lat": 0.0, "name": "fe0e6f048383cd61cdeda16ef2c8becc", "type": "electric_scooter", "is_disabled": 0, "lat": 38.90625633333333, "rental_uris": {"android": "https://dc.lft.to/lastmile_qr_scan", "ios": "https://dc.lft.to/lastmile_qr_scan"}, "bike_id": "fe0e6f048383cd61cdeda16ef2c8becc", "lon": -77.0412505}, {"is_reserved": 0, "fusion_lon": 0.0, "fusion_lat": 0.0, "name": "c5c5f0d19c8222efb215abf3a670f402", "type": "electric_scooter", "is_disabled": 0, "lat": 38.908237, "rental_uris": {"android": "https://dc.lft.to/lastmile_qr_scan", "ios": "https://dc.lft.to/lastmile_qr_scan"}, "bike_id": "c5c5f0d19c8222efb215abf3a670f402", "lon": -77.04334316666667}, {"is_reserved": 0, "fusion_lon": 0.0, "fusion_lat": 0.0, "name": "99767b5950aed8228c90a4e8241aa68c", "type": "electric_scooter", "is_disabled": 0, "lat": 38.90013616666667, "rental_uris": {"android": "https://dc.lft.to/lastmile_qr_scan", "ios": "https://dc.lft.to/lastmile_qr_scan"}, "bike_id": "99767b5950aed8228c90a4e8241aa68c", "lon": -76.9302965}, {"is_reserved": 0, "fusion_lon": 0.0, "fusion_lat": 0.0, "name": "2434662a807d842932c051ac3677b2be", "type": "electric_scooter", "is_disabled": 0, "lat": 38.91812933333333, "rental_uris": {"android": "https://dc.lft.to/lastmile_qr_scan", "ios": "https://dc.lft.to/lastmile_qr_scan"}, "bike_id": "2434662a807d842932c051ac3677b2be", "lon": -77.034594}, {"is_reserved": 0, "fusion_lon": 0.0, "fusion_lat": 0.0, "name": "1e0470c7aa3497891161d88e6b3a6cfa", "type": "electric_scooter", "is_disabled": 0, "lat": 38.932522666666664, "rental_uris": {"android": "https://dc.lft.to/lastmile_qr_scan", "ios": "https://dc.lft.to/lastmile_qr_scan"}, "bike_id": "1e0470c7aa3497891161d88e6b3a6cfa", "lon": -77.032816}, {"is_reserved": 0, "fusion_lon": 0.0, "fusion_lat": 0.0, "name": "5a298e52732a26aba7f147124752c425", "type": "electric_scooter", "is_disabled": 0, "lat": 38.866995333333335, "rental_uris": {"android": "https://dc.lft.to/lastmile_qr_scan", "ios": "https://dc.lft.to/lastmile_qr_scan"}, "bike_id": "5a298e52732a26aba7f147124752c425", "lon": -76.985902}, {"is_reserved": 0, "fusion_lon": 0.0, "fusion_lat": 0.0, "name": "38f62341cbe2a679f9146da35b1acd3c", "type": "electric_scooter", "is_disabled": 0, "lat": 38.89231616666667, "rental_uris": {"android": "https://dc.lft.to/lastmile_qr_scan", "ios": "https://dc.lft.to/lastmile_qr_scan"}, "bike_id": "38f62341cbe2a679f9146da35b1acd3c", "lon": -77.02381133333333}, {"is_reserved": 0, "fusion_lon": 0.0, "fusion_lat": 0.0, "name": "9ba0dc8d303562fdeed2ea72e8b458c9", "type": "electric_scooter", "is_disabled": 0, "lat": 38.9254055, "rental_uris": {"android": "https://dc.lft.to/lastmile_qr_scan", "ios": "https://dc.lft.to/lastmile_qr_scan"}, "bike_id": "9ba0dc8d303562fdeed2ea72e8b458c9", "lon": -76.97212783333333}, {"is_reserved": 0, "fusion_lon": 0.0, "fusion_lat": 0.0, "name": "07708f152057556ae019c18c8be8208e", "type": "electric_scooter", "is_disabled": 0, "lat": 38.900736333333334, "rental_uris": {"android": "https://dc.lft.to/lastmile_qr_scan", "ios": "https://dc.lft.to/lastmile_qr_scan"}, "bike_id": "07708f152057556ae019c18c8be8208e", "lon": -77.00206666666666}, {"is_reserved": 0, "fusion_lon": 0.0, "fusion_lat": 0.0, "name": "8e973db1ae00d5b031667ba27a34026d", "type": "electric_scooter", "is_disabled": 0, "lat": 38.90031783333333, "rental_uris": {"android": "https://dc.lft.to/lastmile_qr_scan", "ios": "https://dc.lft.to/lastmile_qr_scan"}, "bike_id": "8e973db1ae00d5b031667ba27a34026d", "lon": -76.9885705}, {"is_reserved": 0, "fusion_lon": 0.0, "fusion_lat": 0.0, "name": "3d277a60aa4f8ee6ca9450c97982f689", "type": "electric_scooter", "is_disabled": 0, "lat": 38.894914, "rental_uris": {"android": "https://dc.lft.to/lastmile_qr_scan", "ios": "https://dc.lft.to/lastmile_qr_scan"}, "bike_id": "3d277a60aa4f8ee6ca9450c97982f689", "lon": -77.02762833333334}, {"is_reserved": 0, "fusion_lon": 0.0, "fusion_lat": 0.0, "name": "e75cccbdfc4e66b757abc9ff08ad54b5", "type": "electric_scooter", "is_disabled": 0, "lat": 38.918891, "rental_uris": {"android": "https://dc.lft.to/lastmile_qr_scan", "ios": "https://dc.lft.to/lastmile_qr_scan"}, "bike_id": "e75cccbdfc4e66b757abc9ff08ad54b5", "lon": -77.04835466666667}, {"is_reserved": 0, "fusion_lon": 0.0, "fusion_lat": 0.0, "name": "cd8fddfd7fcf92e8e2a805d623ab4bf9", "type": "electric_scooter", "is_disabled": 0, "lat": 38.921219666666666, "rental_uris": {"android": "https://dc.lft.to/lastmile_qr_scan", "ios": "https://dc.lft.to/lastmile_qr_scan"}, "bike_id": "cd8fddfd7fcf92e8e2a805d623ab4bf9", "lon": -77.01208966666667}, {"is_reserved": 0, "fusion_lon": 0.0, "fusion_lat": 0.0, "name": "87800e5bb63f02a51eca4a34e9096a2e", "type": "electric_scooter", "is_disabled": 0, "lat": 38.9678105, "rental_uris": {"android": "https://dc.lft.to/lastmile_qr_scan", "ios": "https://dc.lft.to/lastmile_qr_scan"}, "bike_id": "87800e5bb63f02a51eca4a34e9096a2e", "lon": -77.01514316666666}, {"is_reserved": 0, "fusion_lon": 0.0, "fusion_lat": 0.0, "name": "92be0ba4cca6e74d0904f1051d2e90ab", "type": "electric_bike", "is_disabled": 0, "lat": 38.95359083333334, "rental_uris": {"android": "https://dc.lft.to/lastmile_qr_scan", "ios": "https://dc.lft.to/lastmile_qr_scan"}, "bike_id": "92be0ba4cca6e74d0904f1051d2e90ab", "lon": -76.98091233333334}, {"is_reserved": 0, "fusion_lon": 0.0, "fusion_lat": 0.0, "name": "102f8232b226670c4444bf6900f9f601", "type": "electric_scooter", "is_disabled": 0, "lat": 38.892356, "rental_uris": {"android": "https://dc.lft.to/lastmile_qr_scan", "ios": "https://dc.lft.to/lastmile_qr_scan"}, "bike_id": "102f8232b226670c4444bf6900f9f601", "lon": -77.03207916666666}, {"is_reserved": 0, "fusion_lon": 0.0, "fusion_lat": 0.0, "name": "a90c8894c7915934701ad3d7252c3718", "type": "electric_bike", "is_disabled": 0, "lat": 38.922358333333335, "rental_uris": {"android": "https://dc.lft.to/lastmile_qr_scan", "ios": "https://dc.lft.to/lastmile_qr_scan"}, "bike_id": "a90c8894c7915934701ad3d7252c3718", "lon": -77.042536}, {"is_reserved": 0, "fusion_lon": 0.0, "fusion_lat": 0.0, "name": "ef0af30c354756f36bfc74cd551f1454", "type": "electric_scooter", "is_disabled": 0, "lat": 38.920454666666664, "rental_uris": {"android": "https://dc.lft.to/lastmile_qr_scan", "ios": "https://dc.lft.to/lastmile_qr_scan"}, "bike_id": "ef0af30c354756f36bfc74cd551f1454", "lon": -77.021972}, {"is_reserved": 0, "fusion_lon": 0.0, "fusion_lat": 0.0, "name": "fdc896e20d70cd7a5e747b3d010ba67d", "type": "electric_scooter", "is_disabled": 0, "lat": 38.885170333333335, "rental_uris": {"android": "https://dc.lft.to/lastmile_qr_scan", "ios": "https://dc.lft.to/lastmile_qr_scan"}, "bike_id": "fdc896e20d70cd7a5e747b3d010ba67d", "lon": -76.996237}, {"is_reserved": 0, "fusion_lon": 0.0, "fusion_lat": 0.0, "name": "b6cdc7d3410e1651f585fcff1dfd1d73", "type": "electric_scooter", "is_disabled": 0, "lat": 38.923398166666665, "rental_uris": {"android": "https://dc.lft.to/lastmile_qr_scan", "ios": "https://dc.lft.to/lastmile_qr_scan"}, "bike_id": "b6cdc7d3410e1651f585fcff1dfd1d73", "lon": -77.0350065}, {"is_reserved": 0, "fusion_lon": 0.0, "fusion_lat": 0.0, "name": "aadc474a555002e0d5b8fc4015cbf983", "type": "electric_scooter", "is_disabled": 0, "lat": 38.872871333333336, "rental_uris": {"android": "https://dc.lft.to/lastmile_qr_scan", "ios": "https://dc.lft.to/lastmile_qr_scan"}, "bike_id": "aadc474a555002e0d5b8fc4015cbf983", "lon": -77.0098405}, {"is_reserved": 0, "fusion_lon": 0.0, "fusion_lat": 0.0, "name": "f6802f032439a28b76f8b37acf36f5ae", "type": "electric_scooter", "is_disabled": 0, "lat": 38.88459966666667, "rental_uris": {"android": "https://dc.lft.to/lastmile_qr_scan", "ios": "https://dc.lft.to/lastmile_qr_scan"}, "bike_id": "f6802f032439a28b76f8b37acf36f5ae", "lon": -76.92623433333333}, {"is_reserved": 0, "fusion_lon": 0.0, "fusion_lat": 0.0, "name": "ccbfc4f7320a0c5a2bddbd371633be72", "type": "electric_scooter", "is_disabled": 0, "lat": 38.9303985, "rental_uris": {"android": "https://dc.lft.to/lastmile_qr_scan", "ios": "https://dc.lft.to/lastmile_qr_scan"}, "bike_id": "ccbfc4f7320a0c5a2bddbd371633be72", "lon": -77.03297633333334}, {"is_reserved": 0, "fusion_lon": 0.0, "fusion_lat": 0.0, "name": "534be90758044fd90aa1beff7945e9cd", "type": "electric_bike", "is_disabled": 0, "lat": 38.962273333333336, "rental_uris": {"android": "https://dc.lft.to/lastmile_qr_scan", "ios": "https://dc.lft.to/lastmile_qr_scan"}, "bike_id": "534be90758044fd90aa1beff7945e9cd", "lon": -77.02633666666667}, {"is_reserved": 0, "fusion_lon": 0.0, "fusion_lat": 0.0, "name": "edbd3dcee94b694f7737318e1c32c83c", "type": "electric_scooter", "is_disabled": 0, "lat": 38.90523833333334, "rental_uris": {"android": "https://dc.lft.to/lastmile_qr_scan", "ios": "https://dc.lft.to/lastmile_qr_scan"}, "bike_id": "edbd3dcee94b694f7737318e1c32c83c", "lon": -77.05093633333334}, {"is_reserved": 0, "fusion_lon": 0.0, "fusion_lat": 0.0, "name": "4773f78badc977fe34da2df918690912", "type": "electric_scooter", "is_disabled": 0, "lat": 38.92750816666667, "rental_uris": {"android": "https://dc.lft.to/lastmile_qr_scan", "ios": "https://dc.lft.to/lastmile_qr_scan"}, "bike_id": "4773f78badc977fe34da2df918690912", "lon": -77.02961966666666}, {"is_reserved": 0, "fusion_lon": 0.0, "fusion_lat": 0.0, "name": "da613d0f100c0185b91ce722c100f295", "type": "electric_scooter", "is_disabled": 0, "lat": 38.876381, "rental_uris": {"android": "https://dc.lft.to/lastmile_qr_scan", "ios": "https://dc.lft.to/lastmile_qr_scan"}, "bike_id": "da613d0f100c0185b91ce722c100f295", "lon": -77.0157385}, {"is_reserved": 0, "fusion_lon": 0.0, "fusion_lat": 0.0, "name": "bc4bec426d0a7703399aa8a92ee030c3", "type": "electric_scooter", "is_disabled": 0, "lat": 38.90031916666667, "rental_uris": {"android": "https://dc.lft.to/lastmile_qr_scan", "ios": "https://dc.lft.to/lastmile_qr_scan"}, "bike_id": "bc4bec426d0a7703399aa8a92ee030c3", "lon": -76.98856733333334}, {"is_reserved": 0, "fusion_lon": 0.0, "fusion_lat": 0.0, "name": "a4175217efc95dac9bf91110d4cb6d9b", "type": "electric_scooter", "is_disabled": 0, "lat": 38.908304, "rental_uris": {"android": "https://dc.lft.to/lastmile_qr_scan", "ios": "https://dc.lft.to/lastmile_qr_scan"}, "bike_id": "a4175217efc95dac9bf91110d4cb6d9b", "lon": -77.0431995}, {"is_reserved": 0, "fusion_lon": 0.0, "fusion_lat": 0.0, "name": "b9bf75fd6196a27c7c636e72f3f89368", "type": "electric_bike", "is_disabled": 0, "lat": 38.812021666666666, "rental_uris": {"android": "https://dc.lft.to/lastmile_qr_scan", "ios": "https://dc.lft.to/lastmile_qr_scan"}, "bike_id": "b9bf75fd6196a27c7c636e72f3f89368", "lon": -77.10835683333333}, {"is_reserved": 0, "fusion_lon": 0.0, "fusion_lat": 0.0, "name": "b7a425cc28bfce7074694876a3085772", "type": "electric_scooter", "is_disabled": 0, "lat": 38.911043, "rental_uris": {"android": "https://dc.lft.to/lastmile_qr_scan", "ios": "https://dc.lft.to/lastmile_qr_scan"}, "bike_id": "b7a425cc28bfce7074694876a3085772", "lon": -77.04460883333333}, {"is_reserved": 0, "fusion_lon": 0.0, "fusion_lat": 0.0, "name": "95e7feb1be10640bad47bf610f8393e9", "type": "electric_scooter", "is_disabled": 0, "lat": 38.88610383333334, "rental_uris": {"android": "https://dc.lft.to/lastmile_qr_scan", "ios": "https://dc.lft.to/lastmile_qr_scan"}, "bike_id": "95e7feb1be10640bad47bf610f8393e9", "lon": -76.99512483333334}, {"is_reserved": 0, "fusion_lon": 0.0, "fusion_lat": 0.0, "name": "e4c5e1f5a08d220dff43dddb8123899e", "type": "electric_scooter", "is_disabled": 0, "lat": 38.90017433333333, "rental_uris": {"android": "https://dc.lft.to/lastmile_qr_scan", "ios": "https://dc.lft.to/lastmile_qr_scan"}, "bike_id": "e4c5e1f5a08d220dff43dddb8123899e", "lon": -77.0120255}, {"is_reserved": 0, "fusion_lon": 0.0, "fusion_lat": 0.0, "name": "534c5f9d2283e8f17c6d34c5a57a75b3", "type": "electric_bike", "is_disabled": 0, "lat": 38.938683166666664, "rental_uris": {"android": "https://dc.lft.to/lastmile_qr_scan", "ios": "https://dc.lft.to/lastmile_qr_scan"}, "bike_id": "534c5f9d2283e8f17c6d34c5a57a75b3", "lon": -76.94292683333333}, {"is_reserved": 0, "fusion_lon": 0.0, "fusion_lat": 0.0, "name": "c14e39809097b4542b684cc06c358a8f", "type": "electric_scooter", "is_disabled": 0, "lat": 38.91462583333333, "rental_uris": {"android": "https://dc.lft.to/lastmile_qr_scan", "ios": "https://dc.lft.to/lastmile_qr_scan"}, "bike_id": "c14e39809097b4542b684cc06c358a8f", "lon": -77.02284933333334}, {"is_reserved": 0, "fusion_lon": 0.0, "fusion_lat": 0.0, "name": "9a0e8009d02d382c306b991387e72612", "type": "electric_scooter", "is_disabled": 0, "lat": 38.907231, "rental_uris": {"android": "https://dc.lft.to/lastmile_qr_scan", "ios": "https://dc.lft.to/lastmile_qr_scan"}, "bike_id": "9a0e8009d02d382c306b991387e72612", "lon": -77.03823166666666}, {"is_reserved": 0, "fusion_lon": 0.0, "fusion_lat": 0.0, "name": "b4e42e7476c911739c94bed6546a6712", "type": "electric_scooter", "is_disabled": 0, "lat": 38.892373666666664, "rental_uris": {"android": "https://dc.lft.to/lastmile_qr_scan", "ios": "https://dc.lft.to/lastmile_qr_scan"}, "bike_id": "b4e42e7476c911739c94bed6546a6712", "lon": -77.03184616666667}, {"is_reserved": 0, "fusion_lon": 0.0, "fusion_lat": 0.0, "name": "5ad49e26848736dbcbb43a7e242688f4", "type": "electric_scooter", "is_disabled": 0, "lat": 38.922526, "rental_uris": {"android": "https://dc.lft.to/lastmile_qr_scan", "ios": "https://dc.lft.to/lastmile_qr_scan"}, "bike_id": "5ad49e26848736dbcbb43a7e242688f4", "lon": -77.03068933333333}, {"is_reserved": 0, "fusion_lon": 0.0, "fusion_lat": 0.0, "name": "5a51568becca149b5971e183a2552f4d", "type": "electric_scooter", "is_disabled": 0, "lat": 38.945145833333335, "rental_uris": {"android": "https://dc.lft.to/lastmile_qr_scan", "ios": "https://dc.lft.to/lastmile_qr_scan"}, "bike_id": "5a51568becca149b5971e183a2552f4d", "lon": -77.033219}, {"is_reserved": 0, "fusion_lon": 0.0, "fusion_lat": 0.0, "name": "63a6fe6b33462185b0c3c2e8772efcb1", "type": "electric_scooter", "is_disabled": 0, "lat": 38.908173833333336, "rental_uris": {"android": "https://dc.lft.to/lastmile_qr_scan", "ios": "https://dc.lft.to/lastmile_qr_scan"}, "bike_id": "63a6fe6b33462185b0c3c2e8772efcb1", "lon": -77.04333516666667}, {"is_reserved": 0, "fusion_lon": 0.0, "fusion_lat": 0.0, "name": "4b9bda43a9d89265588fdce6ac9fe2f1", "type": "electric_scooter", "is_disabled": 0, "lat": 38.92872583333333, "rental_uris": {"android": "https://dc.lft.to/lastmile_qr_scan", "ios": "https://dc.lft.to/lastmile_qr_scan"}, "bike_id": "4b9bda43a9d89265588fdce6ac9fe2f1", "lon": -77.03320766666667}, {"is_reserved": 0, "fusion_lon": 0.0, "fusion_lat": 0.0, "name": "ec891df9edfc857841a442ca81024d50", "type": "electric_scooter", "is_disabled": 0, "lat": 38.91128233333333, "rental_uris": {"android": "https://dc.lft.to/lastmile_qr_scan", "ios": "https://dc.lft.to/lastmile_qr_scan"}, "bike_id": "ec891df9edfc857841a442ca81024d50", "lon": -77.03159783333334}, {"is_reserved": 0, "fusion_lon": 0.0, "fusion_lat": 0.0, "name": "81dae71f202f99937834a091655ce103", "type": "electric_scooter", "is_disabled": 0, "lat": 38.921531, "rental_uris": {"android": "https://dc.lft.to/lastmile_qr_scan", "ios": "https://dc.lft.to/lastmile_qr_scan"}, "bike_id": "81dae71f202f99937834a091655ce103", "lon": -77.03509866666667}, {"is_reserved": 0, "fusion_lon": 0.0, "fusion_lat": 0.0, "name": "fefc5210060e58ef3e4ab8879a778ecc", "type": "electric_bike", "is_disabled": 0, "lat": 38.858914166666665, "rental_uris": {"android": "https://dc.lft.to/lastmile_qr_scan", "ios": "https://dc.lft.to/lastmile_qr_scan"}, "bike_id": "fefc5210060e58ef3e4ab8879a778ecc", "lon": -77.11862883333333}, {"is_reserved": 0, "fusion_lon": 0.0, "fusion_lat": 0.0, "name": "6195657e9fc25fcf3ccc04bc5632b0cf", "type": "electric_scooter", "is_disabled": 0, "lat": 38.92163633333333, "rental_uris": {"android": "https://dc.lft.to/lastmile_qr_scan", "ios": "https://dc.lft.to/lastmile_qr_scan"}, "bike_id": "6195657e9fc25fcf3ccc04bc5632b0cf", "lon": -77.03335516666667}, {"is_reserved": 0, "fusion_lon": 0.0, "fusion_lat": 0.0, "name": "89c4b43c2be59350238d5a0408526ac1", "type": "electric_scooter", "is_disabled": 0, "lat": 38.908211666666666, "rental_uris": {"android": "https://dc.lft.to/lastmile_qr_scan", "ios": "https://dc.lft.to/lastmile_qr_scan"}, "bike_id": "89c4b43c2be59350238d5a0408526ac1", "lon": -76.99206283333334}, {"is_reserved": 0, "fusion_lon": 0.0, "fusion_lat": 0.0, "name": "f2dcc0a3d2c7489720bfc8b94528f71c", "type": "electric_scooter", "is_disabled": 0, "lat": 38.917716666666664, "rental_uris": {"android": "https://dc.lft.to/lastmile_qr_scan", "ios": "https://dc.lft.to/lastmile_qr_scan"}, "bike_id": "f2dcc0a3d2c7489720bfc8b94528f71c", "lon": -77.02310433333334}, {"is_reserved": 0, "fusion_lon": 0.0, "fusion_lat": 0.0, "name": "8a0786abf1fe75ea317483c0a37624c3", "type": "electric_scooter", "is_disabled": 0, "lat": 38.907905666666665, "rental_uris": {"android": "https://dc.lft.to/lastmile_qr_scan", "ios": "https://dc.lft.to/lastmile_qr_scan"}, "bike_id": "8a0786abf1fe75ea317483c0a37624c3", "lon": -77.038654}, {"is_reserved": 0, "fusion_lon": 0.0, "fusion_lat": 0.0, "name": "859fe6ac8be89743821dc2c04fd764a3", "type": "electric_scooter", "is_disabled": 0, "lat": 38.9181925, "rental_uris": {"android": "https://dc.lft.to/lastmile_qr_scan", "ios": "https://dc.lft.to/lastmile_qr_scan"}, "bike_id": "859fe6ac8be89743821dc2c04fd764a3", "lon": -77.0297925}, {"is_reserved": 0, "fusion_lon": 0.0, "fusion_lat": 0.0, "name": "d8194d2cd4a329c600cae03643652400", "type": "electric_scooter", "is_disabled": 0, "lat": 38.909625166666665, "rental_uris": {"android": "https://dc.lft.to/lastmile_qr_scan", "ios": "https://dc.lft.to/lastmile_qr_scan"}, "bike_id": "d8194d2cd4a329c600cae03643652400", "lon": -77.038619}, {"is_reserved": 0, "fusion_lon": 0.0, "fusion_lat": 0.0, "name": "e3a36972c281f28281b07bfa9bb2f7ba", "type": "electric_scooter", "is_disabled": 0, "lat": 38.908351, "rental_uris": {"android": "https://dc.lft.to/lastmile_qr_scan", "ios": "https://dc.lft.to/lastmile_qr_scan"}, "bike_id": "e3a36972c281f28281b07bfa9bb2f7ba", "lon": -77.03318183333333}, {"is_reserved": 0, "fusion_lon": 0.0, "fusion_lat": 0.0, "name": "646e27a6e60d0733adb49896837ac603", "type": "electric_scooter", "is_disabled": 0, "lat": 38.880816333333335, "rental_uris": {"android": "https://dc.lft.to/lastmile_qr_scan", "ios": "https://dc.lft.to/lastmile_qr_scan"}, "bike_id": "646e27a6e60d0733adb49896837ac603", "lon": -76.98506116666667}, {"is_reserved": 0, "fusion_lon": 0.0, "fusion_lat": 0.0, "name": "3eb4340b68974ae3af6bf31038fb7b87", "type": "electric_scooter", "is_disabled": 0, "lat": 38.9265165, "rental_uris": {"android": "https://dc.lft.to/lastmile_qr_scan", "ios": "https://dc.lft.to/lastmile_qr_scan"}, "bike_id": "3eb4340b68974ae3af6bf31038fb7b87", "lon": -77.04123916666667}, {"is_reserved": 0, "fusion_lon": 0.0, "fusion_lat": 0.0, "name": "f20e7eaf83af9cea123f54524d0bd37c", "type": "electric_scooter", "is_disabled": 0, "lat": 38.9073275, "rental_uris": {"android": "https://dc.lft.to/lastmile_qr_scan", "ios": "https://dc.lft.to/lastmile_qr_scan"}, "bike_id": "f20e7eaf83af9cea123f54524d0bd37c", "lon": -77.04353866666666}, {"is_reserved": 0, "fusion_lon": 0.0, "fusion_lat": 0.0, "name": "767eeda1b001bce65aa611e83700bfbb", "type": "electric_scooter", "is_disabled": 0, "lat": 38.90362183333333, "rental_uris": {"android": "https://dc.lft.to/lastmile_qr_scan", "ios": "https://dc.lft.to/lastmile_qr_scan"}, "bike_id": "767eeda1b001bce65aa611e83700bfbb", "lon": -77.04330583333333}, {"is_reserved": 0, "fusion_lon": 0.0, "fusion_lat": 0.0, "name": "bea28af14dd23b90d19f91f3089d8a56", "type": "electric_scooter", "is_disabled": 0, "lat": 38.931147, "rental_uris": {"android": "https://dc.lft.to/lastmile_qr_scan", "ios": "https://dc.lft.to/lastmile_qr_scan"}, "bike_id": "bea28af14dd23b90d19f91f3089d8a56", "lon": -77.02366683333334}, {"is_reserved": 0, "fusion_lon": 0.0, "fusion_lat": 0.0, "name": "e49bac81a7b750436b011ec7b35f8bb2", "type": "electric_scooter", "is_disabled": 0, "lat": 38.922314, "rental_uris": {"android": "https://dc.lft.to/lastmile_qr_scan", "ios": "https://dc.lft.to/lastmile_qr_scan"}, "bike_id": "e49bac81a7b750436b011ec7b35f8bb2", "lon": -77.04502116666667}, {"is_reserved": 0, "fusion_lon": 0.0, "fusion_lat": 0.0, "name": "e202d39a2c655ce98af1b2d30292fe0b", "type": "electric_scooter", "is_disabled": 0, "lat": 38.905065, "rental_uris": {"android": "https://dc.lft.to/lastmile_qr_scan", "ios": "https://dc.lft.to/lastmile_qr_scan"}, "bike_id": "e202d39a2c655ce98af1b2d30292fe0b", "lon": -77.0294255}, {"is_reserved": 0, "fusion_lon": 0.0, "fusion_lat": 0.0, "name": "a84e2c37907fd88e29fe541a641689e7", "type": "electric_scooter", "is_disabled": 0, "lat": 38.9203005, "rental_uris": {"android": "https://dc.lft.to/lastmile_qr_scan", "ios": "https://dc.lft.to/lastmile_qr_scan"}, "bike_id": "a84e2c37907fd88e29fe541a641689e7", "lon": -76.98484216666667}, {"is_reserved": 0, "fusion_lon": 0.0, "fusion_lat": 0.0, "name": "880e8ad1dc7b1c7d73ce82a5ff6c6e53", "type": "electric_scooter", "is_disabled": 0, "lat": 38.892242, "rental_uris": {"android": "https://dc.lft.to/lastmile_qr_scan", "ios": "https://dc.lft.to/lastmile_qr_scan"}, "bike_id": "880e8ad1dc7b1c7d73ce82a5ff6c6e53", "lon": -77.04866333333334}, {"is_reserved": 0, "fusion_lon": 0.0, "fusion_lat": 0.0, "name": "310c379c2303cd4ef3fcbc2ef155186a", "type": "electric_scooter", "is_disabled": 0, "lat": 38.883031833333334, "rental_uris": {"android": "https://dc.lft.to/lastmile_qr_scan", "ios": "https://dc.lft.to/lastmile_qr_scan"}, "bike_id": "310c379c2303cd4ef3fcbc2ef155186a", "lon": -77.031414}, {"is_reserved": 0, "fusion_lon": 0.0, "fusion_lat": 0.0, "name": "3125581cf6277cca3b19dac982b5589e", "type": "electric_scooter", "is_disabled": 0, "lat": 38.938243, "rental_uris": {"android": "https://dc.lft.to/lastmile_qr_scan", "ios": "https://dc.lft.to/lastmile_qr_scan"}, "bike_id": "3125581cf6277cca3b19dac982b5589e", "lon": -77.0338255}, {"is_reserved": 0, "fusion_lon": 0.0, "fusion_lat": 0.0, "name": "0731e3e1f74748db969b8c2a6cc5ca8f", "type": "electric_scooter", "is_disabled": 0, "lat": 38.911155, "rental_uris": {"android": "https://dc.lft.to/lastmile_qr_scan", "ios": "https://dc.lft.to/lastmile_qr_scan"}, "bike_id": "0731e3e1f74748db969b8c2a6cc5ca8f", "lon": -77.02279416666667}, {"is_reserved": 0, "fusion_lon": 0.0, "fusion_lat": 0.0, "name": "70b5414dae34cf7300fa8d2a39d8afe8", "type": "electric_scooter", "is_disabled": 0, "lat": 38.89379666666667, "rental_uris": {"android": "https://dc.lft.to/lastmile_qr_scan", "ios": "https://dc.lft.to/lastmile_qr_scan"}, "bike_id": "70b5414dae34cf7300fa8d2a39d8afe8", "lon": -77.047903}, {"is_reserved": 0, "fusion_lon": 0.0, "fusion_lat": 0.0, "name": "6cae841388111d0659aea1c70b1b1b90", "type": "electric_scooter", "is_disabled": 0, "lat": 38.92605483333333, "rental_uris": {"android": "https://dc.lft.to/lastmile_qr_scan", "ios": "https://dc.lft.to/lastmile_qr_scan"}, "bike_id": "6cae841388111d0659aea1c70b1b1b90", "lon": -77.02156616666667}, {"is_reserved": 0, "fusion_lon": 0.0, "fusion_lat": 0.0, "name": "e785d2c7c7550105d7ed7d54b8abe8b3", "type": "electric_scooter", "is_disabled": 0, "lat": 38.89222266666667, "rental_uris": {"android": "https://dc.lft.to/lastmile_qr_scan", "ios": "https://dc.lft.to/lastmile_qr_scan"}, "bike_id": "e785d2c7c7550105d7ed7d54b8abe8b3", "lon": -77.02347516666667}, {"is_reserved": 0, "fusion_lon": 0.0, "fusion_lat": 0.0, "name": "a5333db590530ead2cff765607e12619", "type": "electric_scooter", "is_disabled": 0, "lat": 38.91471716666667, "rental_uris": {"android": "https://dc.lft.to/lastmile_qr_scan", "ios": "https://dc.lft.to/lastmile_qr_scan"}, "bike_id": "a5333db590530ead2cff765607e12619", "lon": -77.0384255}, {"is_reserved": 0, "fusion_lon": 0.0, "fusion_lat": 0.0, "name": "db6b5e679e6d34cb246544e42db6287a", "type": "electric_scooter", "is_disabled": 0, "lat": 38.90838, "rental_uris": {"android": "https://dc.lft.to/lastmile_qr_scan", "ios": "https://dc.lft.to/lastmile_qr_scan"}, "bike_id": "db6b5e679e6d34cb246544e42db6287a", "lon": -77.03314416666667}, {"is_reserved": 0, "fusion_lon": 0.0, "fusion_lat": 0.0, "name": "3376ba962fe506ca2a522d556d2169fe", "type": "electric_scooter", "is_disabled": 0, "lat": 38.9083435, "rental_uris": {"android": "https://dc.lft.to/lastmile_qr_scan", "ios": "https://dc.lft.to/lastmile_qr_scan"}, "bike_id": "3376ba962fe506ca2a522d556d2169fe", "lon": -77.07412766666667}, {"is_reserved": 0, "fusion_lon": 0.0, "fusion_lat": 0.0, "name": "4616a7a87595df3284232c54c50a0be2", "type": "electric_scooter", "is_disabled": 0, "lat": 38.91546983333333, "rental_uris": {"android": "https://dc.lft.to/lastmile_qr_scan", "ios": "https://dc.lft.to/lastmile_qr_scan"}, "bike_id": "4616a7a87595df3284232c54c50a0be2", "lon": -77.0385795}, {"is_reserved": 0, "fusion_lon": 0.0, "fusion_lat": 0.0, "name": "2149d4fc30280783e37b7cb2cda9b816", "type": "electric_scooter", "is_disabled": 0, "lat": 38.9507115, "rental_uris": {"android": "https://dc.lft.to/lastmile_qr_scan", "ios": "https://dc.lft.to/lastmile_qr_scan"}, "bike_id": "2149d4fc30280783e37b7cb2cda9b816", "lon": -76.99565516666667}, {"is_reserved": 0, "fusion_lon": 0.0, "fusion_lat": 0.0, "name": "89934d28a01ff0be0f09c9603471618d", "type": "electric_bike", "is_disabled": 0, "lat": 38.956895833333334, "rental_uris": {"android": "https://dc.lft.to/lastmile_qr_scan", "ios": "https://dc.lft.to/lastmile_qr_scan"}, "bike_id": "89934d28a01ff0be0f09c9603471618d", "lon": -77.02227816666667}, {"is_reserved": 0, "fusion_lon": 0.0, "fusion_lat": 0.0, "name": "e77c93763ba01cb998b66f68235530c8", "type": "electric_scooter", "is_disabled": 0, "lat": 38.90360883333334, "rental_uris": {"android": "https://dc.lft.to/lastmile_qr_scan", "ios": "https://dc.lft.to/lastmile_qr_scan"}, "bike_id": "e77c93763ba01cb998b66f68235530c8", "lon": -77.03924766666667}, {"is_reserved": 0, "fusion_lon": 0.0, "fusion_lat": 0.0, "name": "e05524c29361d2fb7f36d86665862649", "type": "electric_bike", "is_disabled": 0, "lat": 38.87678283333333, "rental_uris": {"android": "https://dc.lft.to/lastmile_qr_scan", "ios": "https://dc.lft.to/lastmile_qr_scan"}, "bike_id": "e05524c29361d2fb7f36d86665862649", "lon": -77.01446866666667}, {"is_reserved": 0, "fusion_lon": 0.0, "fusion_lat": 0.0, "name": "c644999a62d7de4feced6ded85f64deb", "type": "electric_scooter", "is_disabled": 0, "lat": 38.9008165, "rental_uris": {"android": "https://dc.lft.to/lastmile_qr_scan", "ios": "https://dc.lft.to/lastmile_qr_scan"}, "bike_id": "c644999a62d7de4feced6ded85f64deb", "lon": -76.99372666666666}, {"is_reserved": 0, "fusion_lon": 0.0, "fusion_lat": 0.0, "name": "ac1ab4e0b0541d51a428490819109918", "type": "electric_scooter", "is_disabled": 0, "lat": 38.9076345, "rental_uris": {"android": "https://dc.lft.to/lastmile_qr_scan", "ios": "https://dc.lft.to/lastmile_qr_scan"}, "bike_id": "ac1ab4e0b0541d51a428490819109918", "lon": -77.03464366666667}, {"is_reserved": 0, "fusion_lon": 0.0, "fusion_lat": 0.0, "name": "98366d1a0f833f8434a9f22ef94c004f", "type": "electric_scooter", "is_disabled": 0, "lat": 38.917123, "rental_uris": {"android": "https://dc.lft.to/lastmile_qr_scan", "ios": "https://dc.lft.to/lastmile_qr_scan"}, "bike_id": "98366d1a0f833f8434a9f22ef94c004f", "lon": -77.0385945}, {"is_reserved": 0, "fusion_lon": 0.0, "fusion_lat": 0.0, "name": "7698672f92a894e09305ff7944cffa8e", "type": "electric_scooter", "is_disabled": 0, "lat": 38.920681, "rental_uris": {"android": "https://dc.lft.to/lastmile_qr_scan", "ios": "https://dc.lft.to/lastmile_qr_scan"}, "bike_id": "7698672f92a894e09305ff7944cffa8e", "lon": -77.02245783333333}, {"is_reserved": 0, "fusion_lon": 0.0, "fusion_lat": 0.0, "name": "7588bd6970443cc2fdfd0aa795890c84", "type": "electric_scooter", "is_disabled": 0, "lat": 38.94709733333333, "rental_uris": {"android": "https://dc.lft.to/lastmile_qr_scan", "ios": "https://dc.lft.to/lastmile_qr_scan"}, "bike_id": "7588bd6970443cc2fdfd0aa795890c84", "lon": -77.019386}, {"is_reserved": 0, "fusion_lon": 0.0, "fusion_lat": 0.0, "name": "060124cc17ae8024bc62bb387d7c6947", "type": "electric_scooter", "is_disabled": 0, "lat": 38.92156333333333, "rental_uris": {"android": "https://dc.lft.to/lastmile_qr_scan", "ios": "https://dc.lft.to/lastmile_qr_scan"}, "bike_id": "060124cc17ae8024bc62bb387d7c6947", "lon": -77.03386183333333}, {"is_reserved": 0, "fusion_lon": 0.0, "fusion_lat": 0.0, "name": "7eb6e846ab246842a486c9f134f553ab", "type": "electric_scooter", "is_disabled": 0, "lat": 38.88919416666667, "rental_uris": {"android": "https://dc.lft.to/lastmile_qr_scan", "ios": "https://dc.lft.to/lastmile_qr_scan"}, "bike_id": "7eb6e846ab246842a486c9f134f553ab", "lon": -76.99187266666667}, {"is_reserved": 0, "fusion_lon": 0.0, "fusion_lat": 0.0, "name": "c191408b3ecae767b6b587f4ea834815", "type": "electric_scooter", "is_disabled": 0, "lat": 38.9003355, "rental_uris": {"android": "https://dc.lft.to/lastmile_qr_scan", "ios": "https://dc.lft.to/lastmile_qr_scan"}, "bike_id": "c191408b3ecae767b6b587f4ea834815", "lon": -77.04346883333334}, {"is_reserved": 0, "fusion_lon": 0.0, "fusion_lat": 0.0, "name": "7923e4d7dc3e09663da347cf334d0ea3", "type": "electric_scooter", "is_disabled": 0, "lat": 38.88572466666667, "rental_uris": {"android": "https://dc.lft.to/lastmile_qr_scan", "ios": "https://dc.lft.to/lastmile_qr_scan"}, "bike_id": "7923e4d7dc3e09663da347cf334d0ea3", "lon": -77.01988116666666}, {"is_reserved": 0, "fusion_lon": 0.0, "fusion_lat": 0.0, "name": "1ceb0af58acf55a02c82eafc2969f288", "type": "electric_bike", "is_disabled": 0, "lat": 38.95050366666667, "rental_uris": {"android": "https://dc.lft.to/lastmile_qr_scan", "ios": "https://dc.lft.to/lastmile_qr_scan"}, "bike_id": "1ceb0af58acf55a02c82eafc2969f288", "lon": -77.01972566666667}, {"is_reserved": 0, "fusion_lon": 0.0, "fusion_lat": 0.0, "name": "f3d4aa500faf81faf1e4f663bfdb949a", "type": "electric_scooter", "is_disabled": 0, "lat": 38.917024, "rental_uris": {"android": "https://dc.lft.to/lastmile_qr_scan", "ios": "https://dc.lft.to/lastmile_qr_scan"}, "bike_id": "f3d4aa500faf81faf1e4f663bfdb949a", "lon": -77.011743}, {"is_reserved": 0, "fusion_lon": 0.0, "fusion_lat": 0.0, "name": "ba7e979a0a99c8e2ccbf76a36f2f514c", "type": "electric_scooter", "is_disabled": 0, "lat": 38.89867116666667, "rental_uris": {"android": "https://dc.lft.to/lastmile_qr_scan", "ios": "https://dc.lft.to/lastmile_qr_scan"}, "bike_id": "ba7e979a0a99c8e2ccbf76a36f2f514c", "lon": -76.94661216666667}, {"is_reserved": 0, "fusion_lon": 0.0, "fusion_lat": 0.0, "name": "86881e95406d102644be3cfb4eee03b0", "type": "electric_scooter", "is_disabled": 0, "lat": 38.909090666666664, "rental_uris": {"android": "https://dc.lft.to/lastmile_qr_scan", "ios": "https://dc.lft.to/lastmile_qr_scan"}, "bike_id": "86881e95406d102644be3cfb4eee03b0", "lon": -77.0413225}, {"is_reserved": 0, "fusion_lon": 0.0, "fusion_lat": 0.0, "name": "f584fb6ba63f1c43d2648b2bbc983c28", "type": "electric_scooter", "is_disabled": 0, "lat": 38.93611933333333, "rental_uris": {"android": "https://dc.lft.to/lastmile_qr_scan", "ios": "https://dc.lft.to/lastmile_qr_scan"}, "bike_id": "f584fb6ba63f1c43d2648b2bbc983c28", "lon": -77.0292085}, {"is_reserved": 0, "fusion_lon": 0.0, "fusion_lat": 0.0, "name": "2af481e1ae0a7a5cce2d2bbcd5fe0445", "type": "electric_scooter", "is_disabled": 0, "lat": 38.83702366666667, "rental_uris": {"android": "https://dc.lft.to/lastmile_qr_scan", "ios": "https://dc.lft.to/lastmile_qr_scan"}, "bike_id": "2af481e1ae0a7a5cce2d2bbcd5fe0445", "lon": -77.00568616666666}, {"is_reserved": 0, "fusion_lon": 0.0, "fusion_lat": 0.0, "name": "6b12e7f8d898b1a49e3098c27990cc0b", "type": "electric_scooter", "is_disabled": 0, "lat": 38.901183333333336, "rental_uris": {"android": "https://dc.lft.to/lastmile_qr_scan", "ios": "https://dc.lft.to/lastmile_qr_scan"}, "bike_id": "6b12e7f8d898b1a49e3098c27990cc0b", "lon": -77.0600515}, {"is_reserved": 0, "fusion_lon": 0.0, "fusion_lat": 0.0, "name": "bb45c91eb0ebae7a8aea3d11ff320e32", "type": "electric_scooter", "is_disabled": 0, "lat": 38.88570266666667, "rental_uris": {"android": "https://dc.lft.to/lastmile_qr_scan", "ios": "https://dc.lft.to/lastmile_qr_scan"}, "bike_id": "bb45c91eb0ebae7a8aea3d11ff320e32", "lon": -77.0199575}, {"is_reserved": 0, "fusion_lon": 0.0, "fusion_lat": 0.0, "name": "70d1f1c41b513bbd594b3f64cce52e92", "type": "electric_scooter", "is_disabled": 0, "lat": 38.91801483333333, "rental_uris": {"android": "https://dc.lft.to/lastmile_qr_scan", "ios": "https://dc.lft.to/lastmile_qr_scan"}, "bike_id": "70d1f1c41b513bbd594b3f64cce52e92", "lon": -77.032011}, {"is_reserved": 0, "fusion_lon": 0.0, "fusion_lat": 0.0, "name": "a9d7e012e301fb31fc447a59d7e92441", "type": "electric_scooter", "is_disabled": 0, "lat": 38.8443625, "rental_uris": {"android": "https://dc.lft.to/lastmile_qr_scan", "ios": "https://dc.lft.to/lastmile_qr_scan"}, "bike_id": "a9d7e012e301fb31fc447a59d7e92441", "lon": -76.99717733333334}, {"is_reserved": 0, "fusion_lon": 0.0, "fusion_lat": 0.0, "name": "b467e113d7da21608cf8ace6c3e8baa0", "type": "electric_scooter", "is_disabled": 0, "lat": 38.94121116666667, "rental_uris": {"android": "https://dc.lft.to/lastmile_qr_scan", "ios": "https://dc.lft.to/lastmile_qr_scan"}, "bike_id": "b467e113d7da21608cf8ace6c3e8baa0", "lon": -77.01536316666666}, {"is_reserved": 0, "fusion_lon": 0.0, "fusion_lat": 0.0, "name": "36a92e72cf2804699e7eccb695c67619", "type": "electric_scooter", "is_disabled": 0, "lat": 38.906463333333335, "rental_uris": {"android": "https://dc.lft.to/lastmile_qr_scan", "ios": "https://dc.lft.to/lastmile_qr_scan"}, "bike_id": "36a92e72cf2804699e7eccb695c67619", "lon": -77.02702833333333}, {"is_reserved": 0, "fusion_lon": 0.0, "fusion_lat": 0.0, "name": "99a0a2486152e4f7aa646d2689dea38b", "type": "electric_scooter", "is_disabled": 0, "lat": 38.9083465, "rental_uris": {"android": "https://dc.lft.to/lastmile_qr_scan", "ios": "https://dc.lft.to/lastmile_qr_scan"}, "bike_id": "99a0a2486152e4f7aa646d2689dea38b", "lon": -77.03311716666667}, {"is_reserved": 0, "fusion_lon": 0.0, "fusion_lat": 0.0, "name": "7f09b3b3dcad7d3e66cbacde19a85fb0", "type": "electric_scooter", "is_disabled": 0, "lat": 38.8707285, "rental_uris": {"android": "https://dc.lft.to/lastmile_qr_scan", "ios": "https://dc.lft.to/lastmile_qr_scan"}, "bike_id": "7f09b3b3dcad7d3e66cbacde19a85fb0", "lon": -76.98918033333334}, {"is_reserved": 0, "fusion_lon": 0.0, "fusion_lat": 0.0, "name": "81e9fe379e2aef129c28dd1e25e021eb", "type": "electric_scooter", "is_disabled": 0, "lat": 38.892260666666665, "rental_uris": {"android": "https://dc.lft.to/lastmile_qr_scan", "ios": "https://dc.lft.to/lastmile_qr_scan"}, "bike_id": "81e9fe379e2aef129c28dd1e25e021eb", "lon": -77.02342816666666}, {"is_reserved": 0, "fusion_lon": 0.0, "fusion_lat": 0.0, "name": "a82ebe47b9232350befb7d01b85d68c7", "type": "electric_scooter", "is_disabled": 0, "lat": 38.9170645, "rental_uris": {"android": "https://dc.lft.to/lastmile_qr_scan", "ios": "https://dc.lft.to/lastmile_qr_scan"}, "bike_id": "a82ebe47b9232350befb7d01b85d68c7", "lon": -77.02281216666667}, {"is_reserved": 0, "fusion_lon": 0.0, "fusion_lat": 0.0, "name": "aacec43a680a77dc8c0f476ede551bc8", "type": "electric_scooter", "is_disabled": 0, "lat": 38.91561166666666, "rental_uris": {"android": "https://dc.lft.to/lastmile_qr_scan", "ios": "https://dc.lft.to/lastmile_qr_scan"}, "bike_id": "aacec43a680a77dc8c0f476ede551bc8", "lon": -77.03808333333333}, {"is_reserved": 0, "fusion_lon": 0.0, "fusion_lat": 0.0, "name": "89cde72bed0fc2a5afb20cc14d0fe470", "type": "electric_scooter", "is_disabled": 0, "lat": 38.9118865, "rental_uris": {"android": "https://dc.lft.to/lastmile_qr_scan", "ios": "https://dc.lft.to/lastmile_qr_scan"}, "bike_id": "89cde72bed0fc2a5afb20cc14d0fe470", "lon": -77.03462633333334}, {"is_reserved": 0, "fusion_lon": 0.0, "fusion_lat": 0.0, "name": "acba73d984f96e4c4cb01d8b93ff1e49", "type": "electric_scooter", "is_disabled": 0, "lat": 38.91950383333333, "rental_uris": {"android": "https://dc.lft.to/lastmile_qr_scan", "ios": "https://dc.lft.to/lastmile_qr_scan"}, "bike_id": "acba73d984f96e4c4cb01d8b93ff1e49", "lon": -77.01398816666666}, {"is_reserved": 0, "fusion_lon": 0.0, "fusion_lat": 0.0, "name": "e8618b609536bb0241e62dd06872f588", "type": "electric_scooter", "is_disabled": 0, "lat": 38.902649833333335, "rental_uris": {"android": "https://dc.lft.to/lastmile_qr_scan", "ios": "https://dc.lft.to/lastmile_qr_scan"}, "bike_id": "e8618b609536bb0241e62dd06872f588", "lon": -77.039443}, {"is_reserved": 0, "fusion_lon": 0.0, "fusion_lat": 0.0, "name": "4f9d978cb4a58668e33f8fcc1945d81c", "type": "electric_scooter", "is_disabled": 0, "lat": 38.935196, "rental_uris": {"android": "https://dc.lft.to/lastmile_qr_scan", "ios": "https://dc.lft.to/lastmile_qr_scan"}, "bike_id": "4f9d978cb4a58668e33f8fcc1945d81c", "lon": -77.0328755}, {"is_reserved": 0, "fusion_lon": 0.0, "fusion_lat": 0.0, "name": "2b16ce8605885f7067bbf66ec86c1eb8", "type": "electric_scooter", "is_disabled": 0, "lat": 38.92445683333333, "rental_uris": {"android": "https://dc.lft.to/lastmile_qr_scan", "ios": "https://dc.lft.to/lastmile_qr_scan"}, "bike_id": "2b16ce8605885f7067bbf66ec86c1eb8", "lon": -77.034017}, {"is_reserved": 0, "fusion_lon": 0.0, "fusion_lat": 0.0, "name": "2810980e9e5e7132144ce8d5a24d3984", "type": "electric_scooter", "is_disabled": 0, "lat": 38.898636333333336, "rental_uris": {"android": "https://dc.lft.to/lastmile_qr_scan", "ios": "https://dc.lft.to/lastmile_qr_scan"}, "bike_id": "2810980e9e5e7132144ce8d5a24d3984", "lon": -77.01381566666667}, {"is_reserved": 0, "fusion_lon": 0.0, "fusion_lat": 0.0, "name": "88397c4bbdb2e6a0f2ba3b78ec193726", "type": "electric_scooter", "is_disabled": 0, "lat": 38.924013, "rental_uris": {"android": "https://dc.lft.to/lastmile_qr_scan", "ios": "https://dc.lft.to/lastmile_qr_scan"}, "bike_id": "88397c4bbdb2e6a0f2ba3b78ec193726", "lon": -77.02714783333333}, {"is_reserved": 0, "fusion_lon": 0.0, "fusion_lat": 0.0, "name": "37b1a173efe6cb0937eb42e2930451b3", "type": "electric_scooter", "is_disabled": 0, "lat": 38.91819666666667, "rental_uris": {"android": "https://dc.lft.to/lastmile_qr_scan", "ios": "https://dc.lft.to/lastmile_qr_scan"}, "bike_id": "37b1a173efe6cb0937eb42e2930451b3", "lon": -77.03253466666666}, {"is_reserved": 0, "fusion_lon": 0.0, "fusion_lat": 0.0, "name": "48a9aef718910f0b98f5568eaadf3f2f", "type": "electric_bike", "is_disabled": 0, "lat": 39.06294466666667, "rental_uris": {"android": "https://dc.lft.to/lastmile_qr_scan", "ios": "https://dc.lft.to/lastmile_qr_scan"}, "bike_id": "48a9aef718910f0b98f5568eaadf3f2f", "lon": -77.049778}, {"is_reserved": 0, "fusion_lon": 0.0, "fusion_lat": 0.0, "name": "e6157df1eeb59bd8764464c0bc313c9b", "type": "electric_scooter", "is_disabled": 0, "lat": 38.892211833333334, "rental_uris": {"android": "https://dc.lft.to/lastmile_qr_scan", "ios": "https://dc.lft.to/lastmile_qr_scan"}, "bike_id": "e6157df1eeb59bd8764464c0bc313c9b", "lon": -77.0234835}, {"is_reserved": 0, "fusion_lon": 0.0, "fusion_lat": 0.0, "name": "ab9c78082dc91efd6749d3be5d7b2b59", "type": "electric_scooter", "is_disabled": 0, "lat": 38.906478166666666, "rental_uris": {"android": "https://dc.lft.to/lastmile_qr_scan", "ios": "https://dc.lft.to/lastmile_qr_scan"}, "bike_id": "ab9c78082dc91efd6749d3be5d7b2b59", "lon": -77.04802033333333}, {"is_reserved": 0, "fusion_lon": 0.0, "fusion_lat": 0.0, "name": "620615e735e1e05c3b8e552230673f3f", "type": "electric_scooter", "is_disabled": 0, "lat": 38.88307366666667, "rental_uris": {"android": "https://dc.lft.to/lastmile_qr_scan", "ios": "https://dc.lft.to/lastmile_qr_scan"}, "bike_id": "620615e735e1e05c3b8e552230673f3f", "lon": -76.97862133333334}, {"is_reserved": 0, "fusion_lon": 0.0, "fusion_lat": 0.0, "name": "49cfccb064351e7618bf73fe885f6840", "type": "electric_scooter", "is_disabled": 0, "lat": 38.89912233333333, "rental_uris": {"android": "https://dc.lft.to/lastmile_qr_scan", "ios": "https://dc.lft.to/lastmile_qr_scan"}, "bike_id": "49cfccb064351e7618bf73fe885f6840", "lon": -76.93389}, {"is_reserved": 0, "fusion_lon": 0.0, "fusion_lat": 0.0, "name": "ec65ca962cd235601f2bbb68f9bca032", "type": "electric_scooter", "is_disabled": 0, "lat": 38.89319033333334, "rental_uris": {"android": "https://dc.lft.to/lastmile_qr_scan", "ios": "https://dc.lft.to/lastmile_qr_scan"}, "bike_id": "ec65ca962cd235601f2bbb68f9bca032", "lon": -76.94315116666667}, {"is_reserved": 0, "fusion_lon": 0.0, "fusion_lat": 0.0, "name": "09f52495ac1a70c942dc3b1bcbdf0f5d", "type": "electric_scooter", "is_disabled": 0, "lat": 38.9268145, "rental_uris": {"android": "https://dc.lft.to/lastmile_qr_scan", "ios": "https://dc.lft.to/lastmile_qr_scan"}, "bike_id": "09f52495ac1a70c942dc3b1bcbdf0f5d", "lon": -77.02993266666667}, {"is_reserved": 0, "fusion_lon": 0.0, "fusion_lat": 0.0, "name": "4868b8b41b864ef2ae484170ffd6c83b", "type": "electric_scooter", "is_disabled": 0, "lat": 38.90741383333334, "rental_uris": {"android": "https://dc.lft.to/lastmile_qr_scan", "ios": "https://dc.lft.to/lastmile_qr_scan"}, "bike_id": "4868b8b41b864ef2ae484170ffd6c83b", "lon": -77.026941}, {"is_reserved": 0, "fusion_lon": 0.0, "fusion_lat": 0.0, "name": "38401b8e1547238452ff536294819de7", "type": "electric_scooter", "is_disabled": 0, "lat": 38.91775033333333, "rental_uris": {"android": "https://dc.lft.to/lastmile_qr_scan", "ios": "https://dc.lft.to/lastmile_qr_scan"}, "bike_id": "38401b8e1547238452ff536294819de7", "lon": -77.0456765}, {"is_reserved": 0, "fusion_lon": 0.0, "fusion_lat": 0.0, "name": "b70412fbac52c2e1e47a1c42b35b3eac", "type": "electric_bike", "is_disabled": 0, "lat": 38.914400666666666, "rental_uris": {"android": "https://dc.lft.to/lastmile_qr_scan", "ios": "https://dc.lft.to/lastmile_qr_scan"}, "bike_id": "b70412fbac52c2e1e47a1c42b35b3eac", "lon": -77.01701783333333}, {"is_reserved": 0, "fusion_lon": 0.0, "fusion_lat": 0.0, "name": "6a76814a02f98e8e1d834f8b7412e648", "type": "electric_scooter", "is_disabled": 0, "lat": 38.91573233333333, "rental_uris": {"android": "https://dc.lft.to/lastmile_qr_scan", "ios": "https://dc.lft.to/lastmile_qr_scan"}, "bike_id": "6a76814a02f98e8e1d834f8b7412e648", "lon": -77.0198965}, {"is_reserved": 0, "fusion_lon": 0.0, "fusion_lat": 0.0, "name": "44cdca646beb199ba0317a7e37ed7ca7", "type": "electric_scooter", "is_disabled": 0, "lat": 38.90565266666667, "rental_uris": {"android": "https://dc.lft.to/lastmile_qr_scan", "ios": "https://dc.lft.to/lastmile_qr_scan"}, "bike_id": "44cdca646beb199ba0317a7e37ed7ca7", "lon": -77.03469066666666}, {"is_reserved": 0, "fusion_lon": 0.0, "fusion_lat": 0.0, "name": "cafd7f862164454b704ce511bd8fdaf0", "type": "electric_bike", "is_disabled": 0, "lat": 38.9564375, "rental_uris": {"android": "https://dc.lft.to/lastmile_qr_scan", "ios": "https://dc.lft.to/lastmile_qr_scan"}, "bike_id": "cafd7f862164454b704ce511bd8fdaf0", "lon": -77.0225865}, {"is_reserved": 0, "fusion_lon": 0.0, "fusion_lat": 0.0, "name": "df03059079abbdc604fa391fe04b6b57", "type": "electric_scooter", "is_disabled": 0, "lat": 38.87782883333333, "rental_uris": {"android": "https://dc.lft.to/lastmile_qr_scan", "ios": "https://dc.lft.to/lastmile_qr_scan"}, "bike_id": "df03059079abbdc604fa391fe04b6b57", "lon": -76.99409666666666}, {"is_reserved": 0, "fusion_lon": 0.0, "fusion_lat": 0.0, "name": "5aecd0bda07080145c24128af9e11007", "type": "electric_scooter", "is_disabled": 0, "lat": 38.90372216666667, "rental_uris": {"android": "https://dc.lft.to/lastmile_qr_scan", "ios": "https://dc.lft.to/lastmile_qr_scan"}, "bike_id": "5aecd0bda07080145c24128af9e11007", "lon": -77.04191183333333}, {"is_reserved": 0, "fusion_lon": 0.0, "fusion_lat": 0.0, "name": "abc60fd27c2b34f4eb4b32383bd3c374", "type": "electric_bike", "is_disabled": 0, "lat": 38.806541833333334, "rental_uris": {"android": "https://dc.lft.to/lastmile_qr_scan", "ios": "https://dc.lft.to/lastmile_qr_scan"}, "bike_id": "abc60fd27c2b34f4eb4b32383bd3c374", "lon": -77.08760416666667}, {"is_reserved": 0, "fusion_lon": 0.0, "fusion_lat": 0.0, "name": "b942f3ce76723ed8393191f6bea0bea6", "type": "electric_bike", "is_disabled": 0, "lat": 38.796719833333334, "rental_uris": {"android": "https://dc.lft.to/lastmile_qr_scan", "ios": "https://dc.lft.to/lastmile_qr_scan"}, "bike_id": "b942f3ce76723ed8393191f6bea0bea6", "lon": -76.99318616666666}, {"is_reserved": 0, "fusion_lon": 0.0, "fusion_lat": 0.0, "name": "2cc2deb117eb5fbfea0dba4ac728ec97", "type": "electric_scooter", "is_disabled": 0, "lat": 38.88743133333333, "rental_uris": {"android": "https://dc.lft.to/lastmile_qr_scan", "ios": "https://dc.lft.to/lastmile_qr_scan"}, "bike_id": "2cc2deb117eb5fbfea0dba4ac728ec97", "lon": -77.02208533333334}, {"is_reserved": 0, "fusion_lon": 0.0, "fusion_lat": 0.0, "name": "3ae8f3098f5720ba69fd69d388ae5015", "type": "electric_scooter", "is_disabled": 0, "lat": 38.893143333333335, "rental_uris": {"android": "https://dc.lft.to/lastmile_qr_scan", "ios": "https://dc.lft.to/lastmile_qr_scan"}, "bike_id": "3ae8f3098f5720ba69fd69d388ae5015", "lon": -77.01808033333333}, {"is_reserved": 0, "fusion_lon": 0.0, "fusion_lat": 0.0, "name": "ead8734da5ffa29182abc6a5e9211f3e", "type": "electric_scooter", "is_disabled": 0, "lat": 38.891715166666664, "rental_uris": {"android": "https://dc.lft.to/lastmile_qr_scan", "ios": "https://dc.lft.to/lastmile_qr_scan"}, "bike_id": "ead8734da5ffa29182abc6a5e9211f3e", "lon": -76.95182616666666}, {"is_reserved": 0, "fusion_lon": 0.0, "fusion_lat": 0.0, "name": "870ba854314c2dcf3098d5ceb7147ea5", "type": "electric_scooter", "is_disabled": 0, "lat": 38.9023415, "rental_uris": {"android": "https://dc.lft.to/lastmile_qr_scan", "ios": "https://dc.lft.to/lastmile_qr_scan"}, "bike_id": "870ba854314c2dcf3098d5ceb7147ea5", "lon": -77.05340783333334}, {"is_reserved": 0, "fusion_lon": 0.0, "fusion_lat": 0.0, "name": "7b996bceb2ab9d5be1c9fc5a4ca4cc79", "type": "electric_scooter", "is_disabled": 0, "lat": 38.91406166666667, "rental_uris": {"android": "https://dc.lft.to/lastmile_qr_scan", "ios": "https://dc.lft.to/lastmile_qr_scan"}, "bike_id": "7b996bceb2ab9d5be1c9fc5a4ca4cc79", "lon": -77.0395255}, {"is_reserved": 0, "fusion_lon": 0.0, "fusion_lat": 0.0, "name": "663eead22f06a427ef8fc9cd386c51c9", "type": "electric_scooter", "is_disabled": 0, "lat": 38.9176445, "rental_uris": {"android": "https://dc.lft.to/lastmile_qr_scan", "ios": "https://dc.lft.to/lastmile_qr_scan"}, "bike_id": "663eead22f06a427ef8fc9cd386c51c9", "lon": -77.0192445}, {"is_reserved": 0, "fusion_lon": 0.0, "fusion_lat": 0.0, "name": "943f4f7b917965e2eda665e6154cddaf", "type": "electric_scooter", "is_disabled": 0, "lat": 38.916789666666666, "rental_uris": {"android": "https://dc.lft.to/lastmile_qr_scan", "ios": "https://dc.lft.to/lastmile_qr_scan"}, "bike_id": "943f4f7b917965e2eda665e6154cddaf", "lon": -77.029755}, {"is_reserved": 0, "fusion_lon": 0.0, "fusion_lat": 0.0, "name": "b83164b6bcadbdaba71c11643d286cfb", "type": "electric_scooter", "is_disabled": 0, "lat": 38.909769, "rental_uris": {"android": "https://dc.lft.to/lastmile_qr_scan", "ios": "https://dc.lft.to/lastmile_qr_scan"}, "bike_id": "b83164b6bcadbdaba71c11643d286cfb", "lon": -77.0268995}, {"is_reserved": 0, "fusion_lon": 0.0, "fusion_lat": 0.0, "name": "e222400deea7987043d3304e97fdca0e", "type": "electric_scooter", "is_disabled": 0, "lat": 38.908136, "rental_uris": {"android": "https://dc.lft.to/lastmile_qr_scan", "ios": "https://dc.lft.to/lastmile_qr_scan"}, "bike_id": "e222400deea7987043d3304e97fdca0e", "lon": -77.0344705}, {"is_reserved": 0, "fusion_lon": 0.0, "fusion_lat": 0.0, "name": "b56f2d47ccf8b9d373a2eabd5a751e06", "type": "electric_scooter", "is_disabled": 0, "lat": 38.905349, "rental_uris": {"android": "https://dc.lft.to/lastmile_qr_scan", "ios": "https://dc.lft.to/lastmile_qr_scan"}, "bike_id": "b56f2d47ccf8b9d373a2eabd5a751e06", "lon": -77.03141166666667}, {"is_reserved": 0, "fusion_lon": 0.0, "fusion_lat": 0.0, "name": "8e57f4e9842e44510e138165edfa7078", "type": "electric_scooter", "is_disabled": 0, "lat": 38.931064, "rental_uris": {"android": "https://dc.lft.to/lastmile_qr_scan", "ios": "https://dc.lft.to/lastmile_qr_scan"}, "bike_id": "8e57f4e9842e44510e138165edfa7078", "lon": -77.0302815}, {"is_reserved": 0, "fusion_lon": 0.0, "fusion_lat": 0.0, "name": "31da9d8c783904d15aaa701239cdb54a", "type": "electric_scooter", "is_disabled": 0, "lat": 38.957323, "rental_uris": {"android": "https://dc.lft.to/lastmile_qr_scan", "ios": "https://dc.lft.to/lastmile_qr_scan"}, "bike_id": "31da9d8c783904d15aaa701239cdb54a", "lon": -77.0240525}, {"is_reserved": 0, "fusion_lon": 0.0, "fusion_lat": 0.0, "name": "7a0d8791fe0b96edf59da2d377a0ee79", "type": "electric_scooter", "is_disabled": 0, "lat": 38.90978616666666, "rental_uris": {"android": "https://dc.lft.to/lastmile_qr_scan", "ios": "https://dc.lft.to/lastmile_qr_scan"}, "bike_id": "7a0d8791fe0b96edf59da2d377a0ee79", "lon": -77.026933}, {"is_reserved": 0, "fusion_lon": 0.0, "fusion_lat": 0.0, "name": "81779e543e4a013d3a19c2862e3d3a88", "type": "electric_scooter", "is_disabled": 0, "lat": 38.903408666666664, "rental_uris": {"android": "https://dc.lft.to/lastmile_qr_scan", "ios": "https://dc.lft.to/lastmile_qr_scan"}, "bike_id": "81779e543e4a013d3a19c2862e3d3a88", "lon": -76.982723}, {"is_reserved": 0, "fusion_lon": 0.0, "fusion_lat": 0.0, "name": "85ed9bf0974611e045a9b7a935b9642b", "type": "electric_scooter", "is_disabled": 0, "lat": 38.91510983333333, "rental_uris": {"android": "https://dc.lft.to/lastmile_qr_scan", "ios": "https://dc.lft.to/lastmile_qr_scan"}, "bike_id": "85ed9bf0974611e045a9b7a935b9642b", "lon": -77.02003783333333}, {"is_reserved": 0, "fusion_lon": 0.0, "fusion_lat": 0.0, "name": "ada78a1be7e705fdd6a6fcad7e636480", "type": "electric_scooter", "is_disabled": 0, "lat": 38.907331, "rental_uris": {"android": "https://dc.lft.to/lastmile_qr_scan", "ios": "https://dc.lft.to/lastmile_qr_scan"}, "bike_id": "ada78a1be7e705fdd6a6fcad7e636480", "lon": -76.98630483333334}, {"is_reserved": 0, "fusion_lon": 0.0, "fusion_lat": 0.0, "name": "8fba3b986cc1bbdae74fa11566a0a157", "type": "electric_scooter", "is_disabled": 0, "lat": 38.90384916666667, "rental_uris": {"android": "https://dc.lft.to/lastmile_qr_scan", "ios": "https://dc.lft.to/lastmile_qr_scan"}, "bike_id": "8fba3b986cc1bbdae74fa11566a0a157", "lon": -77.0427605}, {"is_reserved": 0, "fusion_lon": 0.0, "fusion_lat": 0.0, "name": "b6da0485ba10f49483400d760ddd8de4", "type": "electric_scooter", "is_disabled": 0, "lat": 38.8771045, "rental_uris": {"android": "https://dc.lft.to/lastmile_qr_scan", "ios": "https://dc.lft.to/lastmile_qr_scan"}, "bike_id": "b6da0485ba10f49483400d760ddd8de4", "lon": -77.01731566666666}, {"is_reserved": 0, "fusion_lon": 0.0, "fusion_lat": 0.0, "name": "105f90c652cf313d889a61ab6d922373", "type": "electric_scooter", "is_disabled": 0, "lat": 38.919211833333335, "rental_uris": {"android": "https://dc.lft.to/lastmile_qr_scan", "ios": "https://dc.lft.to/lastmile_qr_scan"}, "bike_id": "105f90c652cf313d889a61ab6d922373", "lon": -77.03188483333334}, {"is_reserved": 0, "fusion_lon": 0.0, "fusion_lat": 0.0, "name": "248e17c39f62d59d7e4a6e4603964d06", "type": "electric_scooter", "is_disabled": 0, "lat": 38.90516933333333, "rental_uris": {"android": "https://dc.lft.to/lastmile_qr_scan", "ios": "https://dc.lft.to/lastmile_qr_scan"}, "bike_id": "248e17c39f62d59d7e4a6e4603964d06", "lon": -77.04789383333333}, {"is_reserved": 0, "fusion_lon": 0.0, "fusion_lat": 0.0, "name": "849a78df756617344f3f44f3cfb418dc", "type": "electric_scooter", "is_disabled": 0, "lat": 38.893657, "rental_uris": {"android": "https://dc.lft.to/lastmile_qr_scan", "ios": "https://dc.lft.to/lastmile_qr_scan"}, "bike_id": "849a78df756617344f3f44f3cfb418dc", "lon": -76.98637916666667}, {"is_reserved": 0, "fusion_lon": 0.0, "fusion_lat": 0.0, "name": "b5ce99e2056b6e1880d412b23db36459", "type": "electric_scooter", "is_disabled": 0, "lat": 38.906545, "rental_uris": {"android": "https://dc.lft.to/lastmile_qr_scan", "ios": "https://dc.lft.to/lastmile_qr_scan"}, "bike_id": "b5ce99e2056b6e1880d412b23db36459", "lon": -77.04881983333334}, {"is_reserved": 0, "fusion_lon": 0.0, "fusion_lat": 0.0, "name": "05d61f5572c27f222bf3c5dafa2a1e40", "type": "electric_scooter", "is_disabled": 0, "lat": 38.90352633333333, "rental_uris": {"android": "https://dc.lft.to/lastmile_qr_scan", "ios": "https://dc.lft.to/lastmile_qr_scan"}, "bike_id": "05d61f5572c27f222bf3c5dafa2a1e40", "lon": -77.04204016666667}, {"is_reserved": 0, "fusion_lon": 0.0, "fusion_lat": 0.0, "name": "a93a5c7138dc86d677fb4c1949bc36ea", "type": "electric_scooter", "is_disabled": 0, "lat": 38.90522983333334, "rental_uris": {"android": "https://dc.lft.to/lastmile_qr_scan", "ios": "https://dc.lft.to/lastmile_qr_scan"}, "bike_id": "a93a5c7138dc86d677fb4c1949bc36ea", "lon": -77.06380516666667}, {"is_reserved": 0, "fusion_lon": 0.0, "fusion_lat": 0.0, "name": "26a09cbf72b2cdc8731d75f10ec92191", "type": "electric_scooter", "is_disabled": 0, "lat": 38.90408133333333, "rental_uris": {"android": "https://dc.lft.to/lastmile_qr_scan", "ios": "https://dc.lft.to/lastmile_qr_scan"}, "bike_id": "26a09cbf72b2cdc8731d75f10ec92191", "lon": -77.02957483333333}, {"is_reserved": 0, "fusion_lon": 0.0, "fusion_lat": 0.0, "name": "6b462ed2b903c1de16aca7e100b9a614", "type": "electric_scooter", "is_disabled": 0, "lat": 38.96113366666667, "rental_uris": {"android": "https://dc.lft.to/lastmile_qr_scan", "ios": "https://dc.lft.to/lastmile_qr_scan"}, "bike_id": "6b462ed2b903c1de16aca7e100b9a614", "lon": -77.00944133333333}, {"is_reserved": 0, "fusion_lon": 0.0, "fusion_lat": 0.0, "name": "579cbe52ed1fc45102264f971ab73a43", "type": "electric_scooter", "is_disabled": 0, "lat": 38.916972666666666, "rental_uris": {"android": "https://dc.lft.to/lastmile_qr_scan", "ios": "https://dc.lft.to/lastmile_qr_scan"}, "bike_id": "579cbe52ed1fc45102264f971ab73a43", "lon": -77.04194}, {"is_reserved": 0, "fusion_lon": 0.0, "fusion_lat": 0.0, "name": "8ea10ffa0be503798eb93ee518ad294a", "type": "electric_scooter", "is_disabled": 0, "lat": 38.900795, "rental_uris": {"android": "https://dc.lft.to/lastmile_qr_scan", "ios": "https://dc.lft.to/lastmile_qr_scan"}, "bike_id": "8ea10ffa0be503798eb93ee518ad294a", "lon": -77.04835916666667}, {"is_reserved": 0, "fusion_lon": 0.0, "fusion_lat": 0.0, "name": "e3344d96a76ebcdb11988d38586c5d09", "type": "electric_scooter", "is_disabled": 0, "lat": 38.936757666666665, "rental_uris": {"android": "https://dc.lft.to/lastmile_qr_scan", "ios": "https://dc.lft.to/lastmile_qr_scan"}, "bike_id": "e3344d96a76ebcdb11988d38586c5d09", "lon": -77.0363345}, {"is_reserved": 0, "fusion_lon": 0.0, "fusion_lat": 0.0, "name": "9b3341a93a4f288bb490988e2008b655", "type": "electric_scooter", "is_disabled": 0, "lat": 38.919192333333335, "rental_uris": {"android": "https://dc.lft.to/lastmile_qr_scan", "ios": "https://dc.lft.to/lastmile_qr_scan"}, "bike_id": "9b3341a93a4f288bb490988e2008b655", "lon": -77.0480745}, {"is_reserved": 0, "fusion_lon": 0.0, "fusion_lat": 0.0, "name": "a040f6afa43ba57a7645b2ae1c3bcd87", "type": "electric_scooter", "is_disabled": 0, "lat": 38.916911999999996, "rental_uris": {"android": "https://dc.lft.to/lastmile_qr_scan", "ios": "https://dc.lft.to/lastmile_qr_scan"}, "bike_id": "a040f6afa43ba57a7645b2ae1c3bcd87", "lon": -77.02596333333334}, {"is_reserved": 0, "fusion_lon": 0.0, "fusion_lat": 0.0, "name": "a36da501ba60cf9f2065a8c4f67ec747", "type": "electric_scooter", "is_disabled": 0, "lat": 38.88325, "rental_uris": {"android": "https://dc.lft.to/lastmile_qr_scan", "ios": "https://dc.lft.to/lastmile_qr_scan"}, "bike_id": "a36da501ba60cf9f2065a8c4f67ec747", "lon": -77.0175115}, {"is_reserved": 0, "fusion_lon": 0.0, "fusion_lat": 0.0, "name": "230f90ae77a31d2ba3dc450e68e0e084", "type": "electric_scooter", "is_disabled": 0, "lat": 38.9170425, "rental_uris": {"android": "https://dc.lft.to/lastmile_qr_scan", "ios": "https://dc.lft.to/lastmile_qr_scan"}, "bike_id": "230f90ae77a31d2ba3dc450e68e0e084", "lon": -77.03469816666667}, {"is_reserved": 0, "fusion_lon": 0.0, "fusion_lat": 0.0, "name": "02558fbf72d9dc3f29a1bf7425379339", "type": "electric_scooter", "is_disabled": 0, "lat": 38.923283833333336, "rental_uris": {"android": "https://dc.lft.to/lastmile_qr_scan", "ios": "https://dc.lft.to/lastmile_qr_scan"}, "bike_id": "02558fbf72d9dc3f29a1bf7425379339", "lon": -76.99908183333334}, {"is_reserved": 0, "fusion_lon": 0.0, "fusion_lat": 0.0, "name": "4de4c93e55c9d92db77f051814965ba9", "type": "electric_scooter", "is_disabled": 0, "lat": 38.88029316666667, "rental_uris": {"android": "https://dc.lft.to/lastmile_qr_scan", "ios": "https://dc.lft.to/lastmile_qr_scan"}, "bike_id": "4de4c93e55c9d92db77f051814965ba9", "lon": -76.98473466666667}, {"is_reserved": 0, "fusion_lon": 0.0, "fusion_lat": 0.0, "name": "fe055bc3a729eab0887c67a2661f4e46", "type": "electric_scooter", "is_disabled": 0, "lat": 38.90582233333333, "rental_uris": {"android": "https://dc.lft.to/lastmile_qr_scan", "ios": "https://dc.lft.to/lastmile_qr_scan"}, "bike_id": "fe055bc3a729eab0887c67a2661f4e46", "lon": -77.00879316666666}, {"is_reserved": 0, "fusion_lon": 0.0, "fusion_lat": 0.0, "name": "8669efb59367ed056931c75907f9cddc", "type": "electric_scooter", "is_disabled": 0, "lat": 38.918858, "rental_uris": {"android": "https://dc.lft.to/lastmile_qr_scan", "ios": "https://dc.lft.to/lastmile_qr_scan"}, "bike_id": "8669efb59367ed056931c75907f9cddc", "lon": -77.03484616666667}, {"is_reserved": 0, "fusion_lon": 0.0, "fusion_lat": 0.0, "name": "d66a370e7221ee4e7aef40f33fcb7896", "type": "electric_scooter", "is_disabled": 0, "lat": 38.909808, "rental_uris": {"android": "https://dc.lft.to/lastmile_qr_scan", "ios": "https://dc.lft.to/lastmile_qr_scan"}, "bike_id": "d66a370e7221ee4e7aef40f33fcb7896", "lon": -77.031817}, {"is_reserved": 0, "fusion_lon": 0.0, "fusion_lat": 0.0, "name": "4ae42b77e81c349d609478384b2ff934", "type": "electric_bike", "is_disabled": 0, "lat": 38.879903, "rental_uris": {"android": "https://dc.lft.to/lastmile_qr_scan", "ios": "https://dc.lft.to/lastmile_qr_scan"}, "bike_id": "4ae42b77e81c349d609478384b2ff934", "lon": -76.91602483333334}, {"is_reserved": 0, "fusion_lon": 0.0, "fusion_lat": 0.0, "name": "a93070fefae1310b1e3f1e81e482f038", "type": "electric_scooter", "is_disabled": 0, "lat": 38.87723733333333, "rental_uris": {"android": "https://dc.lft.to/lastmile_qr_scan", "ios": "https://dc.lft.to/lastmile_qr_scan"}, "bike_id": "a93070fefae1310b1e3f1e81e482f038", "lon": -77.01780483333333}, {"is_reserved": 0, "fusion_lon": 0.0, "fusion_lat": 0.0, "name": "d5b15cbba6e2446710e7957992422c0a", "type": "electric_scooter", "is_disabled": 0, "lat": 38.9178935, "rental_uris": {"android": "https://dc.lft.to/lastmile_qr_scan", "ios": "https://dc.lft.to/lastmile_qr_scan"}, "bike_id": "d5b15cbba6e2446710e7957992422c0a", "lon": -77.03176866666666}, {"is_reserved": 0, "fusion_lon": 0.0, "fusion_lat": 0.0, "name": "da6c59657b8c2eda1fd1c4b9e227dc28", "type": "electric_scooter", "is_disabled": 0, "lat": 38.92076216666667, "rental_uris": {"android": "https://dc.lft.to/lastmile_qr_scan", "ios": "https://dc.lft.to/lastmile_qr_scan"}, "bike_id": "da6c59657b8c2eda1fd1c4b9e227dc28", "lon": -77.02340083333333}, {"is_reserved": 0, "fusion_lon": 0.0, "fusion_lat": 0.0, "name": "cc5bd3181217855f12456add02e8037a", "type": "electric_scooter", "is_disabled": 0, "lat": 38.905628, "rental_uris": {"android": "https://dc.lft.to/lastmile_qr_scan", "ios": "https://dc.lft.to/lastmile_qr_scan"}, "bike_id": "cc5bd3181217855f12456add02e8037a", "lon": -77.0059365}, {"is_reserved": 0, "fusion_lon": 0.0, "fusion_lat": 0.0, "name": "a3a42a7014ff97aac383c7682a927550", "type": "electric_scooter", "is_disabled": 0, "lat": 38.912818666666666, "rental_uris": {"android": "https://dc.lft.to/lastmile_qr_scan", "ios": "https://dc.lft.to/lastmile_qr_scan"}, "bike_id": "a3a42a7014ff97aac383c7682a927550", "lon": -77.045048}, {"is_reserved": 0, "fusion_lon": 0.0, "fusion_lat": 0.0, "name": "74e63ab616d13d2400d52f3b368d080d", "type": "electric_bike", "is_disabled": 0, "lat": 38.88397716666667, "rental_uris": {"android": "https://dc.lft.to/lastmile_qr_scan", "ios": "https://dc.lft.to/lastmile_qr_scan"}, "bike_id": "74e63ab616d13d2400d52f3b368d080d", "lon": -76.9606255}, {"is_reserved": 0, "fusion_lon": 0.0, "fusion_lat": 0.0, "name": "a972c449a23860d6e9f2eb8412cb4b34", "type": "electric_bike", "is_disabled": 0, "lat": 38.86938966666666, "rental_uris": {"android": "https://dc.lft.to/lastmile_qr_scan", "ios": "https://dc.lft.to/lastmile_qr_scan"}, "bike_id": "a972c449a23860d6e9f2eb8412cb4b34", "lon": -77.09465233333333}, {"is_reserved": 0, "fusion_lon": 0.0, "fusion_lat": 0.0, "name": "0b0675f998c065c4c9fcd78df57bcaf7", "type": "electric_scooter", "is_disabled": 0, "lat": 38.91707, "rental_uris": {"android": "https://dc.lft.to/lastmile_qr_scan", "ios": "https://dc.lft.to/lastmile_qr_scan"}, "bike_id": "0b0675f998c065c4c9fcd78df57bcaf7", "lon": -77.03468533333333}, {"is_reserved": 0, "fusion_lon": 0.0, "fusion_lat": 0.0, "name": "9506541a66264d90829c1bf04fb85305", "type": "electric_scooter", "is_disabled": 0, "lat": 38.91855666666667, "rental_uris": {"android": "https://dc.lft.to/lastmile_qr_scan", "ios": "https://dc.lft.to/lastmile_qr_scan"}, "bike_id": "9506541a66264d90829c1bf04fb85305", "lon": -77.01345616666667}, {"is_reserved": 0, "fusion_lon": 0.0, "fusion_lat": 0.0, "name": "c72a629f57dea36d15e9354145f7875a", "type": "electric_scooter", "is_disabled": 0, "lat": 38.8720015, "rental_uris": {"android": "https://dc.lft.to/lastmile_qr_scan", "ios": "https://dc.lft.to/lastmile_qr_scan"}, "bike_id": "c72a629f57dea36d15e9354145f7875a", "lon": -77.0057005}, {"is_reserved": 0, "fusion_lon": 0.0, "fusion_lat": 0.0, "name": "13ec01681f9448652fb38a0e370ea041", "type": "electric_scooter", "is_disabled": 0, "lat": 38.8922275, "rental_uris": {"android": "https://dc.lft.to/lastmile_qr_scan", "ios": "https://dc.lft.to/lastmile_qr_scan"}, "bike_id": "13ec01681f9448652fb38a0e370ea041", "lon": -77.02346116666666}, {"is_reserved": 0, "fusion_lon": 0.0, "fusion_lat": 0.0, "name": "0eac1562c9bffdc3931ca530f66bd23f", "type": "electric_scooter", "is_disabled": 0, "lat": 38.94183366666667, "rental_uris": {"android": "https://dc.lft.to/lastmile_qr_scan", "ios": "https://dc.lft.to/lastmile_qr_scan"}, "bike_id": "0eac1562c9bffdc3931ca530f66bd23f", "lon": -77.02959983333334}, {"is_reserved": 0, "fusion_lon": 0.0, "fusion_lat": 0.0, "name": "3b7bf6518421c0189d3fbd6a455679ee", "type": "electric_scooter", "is_disabled": 0, "lat": 38.914658833333334, "rental_uris": {"android": "https://dc.lft.to/lastmile_qr_scan", "ios": "https://dc.lft.to/lastmile_qr_scan"}, "bike_id": "3b7bf6518421c0189d3fbd6a455679ee", "lon": -77.04555533333334}, {"is_reserved": 0, "fusion_lon": 0.0, "fusion_lat": 0.0, "name": "b96048a6bf20ce4a1f7139b4510dfc2a", "type": "electric_scooter", "is_disabled": 0, "lat": 38.890209166666665, "rental_uris": {"android": "https://dc.lft.to/lastmile_qr_scan", "ios": "https://dc.lft.to/lastmile_qr_scan"}, "bike_id": "b96048a6bf20ce4a1f7139b4510dfc2a", "lon": -76.93700116666666}, {"is_reserved": 0, "fusion_lon": 0.0, "fusion_lat": 0.0, "name": "3132e41a20a62d60a136672d78a99cfb", "type": "electric_scooter", "is_disabled": 0, "lat": 38.907863666666664, "rental_uris": {"android": "https://dc.lft.to/lastmile_qr_scan", "ios": "https://dc.lft.to/lastmile_qr_scan"}, "bike_id": "3132e41a20a62d60a136672d78a99cfb", "lon": -77.00971283333334}, {"is_reserved": 0, "fusion_lon": 0.0, "fusion_lat": 0.0, "name": "6ec19a9592c71d5411ceffa2447940a8", "type": "electric_scooter", "is_disabled": 0, "lat": 38.925803, "rental_uris": {"android": "https://dc.lft.to/lastmile_qr_scan", "ios": "https://dc.lft.to/lastmile_qr_scan"}, "bike_id": "6ec19a9592c71d5411ceffa2447940a8", "lon": -77.02610916666667}, {"is_reserved": 0, "fusion_lon": 0.0, "fusion_lat": 0.0, "name": "3d55a877c415540d10769579ed8ec1d8", "type": "electric_scooter", "is_disabled": 0, "lat": 38.9208125, "rental_uris": {"android": "https://dc.lft.to/lastmile_qr_scan", "ios": "https://dc.lft.to/lastmile_qr_scan"}, "bike_id": "3d55a877c415540d10769579ed8ec1d8", "lon": -77.023531}, {"is_reserved": 0, "fusion_lon": 0.0, "fusion_lat": 0.0, "name": "08f9d53eca19e4d55e488c2accbbf1a8", "type": "electric_scooter", "is_disabled": 0, "lat": 38.90150333333333, "rental_uris": {"android": "https://dc.lft.to/lastmile_qr_scan", "ios": "https://dc.lft.to/lastmile_qr_scan"}, "bike_id": "08f9d53eca19e4d55e488c2accbbf1a8", "lon": -76.99022716666667}, {"is_reserved": 0, "fusion_lon": 0.0, "fusion_lat": 0.0, "name": "715d71a18acf84074f43d290b36fbf4c", "type": "electric_bike", "is_disabled": 0, "lat": 38.93971766666667, "rental_uris": {"android": "https://dc.lft.to/lastmile_qr_scan", "ios": "https://dc.lft.to/lastmile_qr_scan"}, "bike_id": "715d71a18acf84074f43d290b36fbf4c", "lon": -76.986158}, {"is_reserved": 0, "fusion_lon": 0.0, "fusion_lat": 0.0, "name": "fa2ba9e1a1db732f11a03da2c35df490", "type": "electric_scooter", "is_disabled": 0, "lat": 38.91629183333333, "rental_uris": {"android": "https://dc.lft.to/lastmile_qr_scan", "ios": "https://dc.lft.to/lastmile_qr_scan"}, "bike_id": "fa2ba9e1a1db732f11a03da2c35df490", "lon": -77.01088133333333}, {"is_reserved": 0, "fusion_lon": 0.0, "fusion_lat": 0.0, "name": "a8721856f76e33ae567d3eadfe2d5b58", "type": "electric_scooter", "is_disabled": 0, "lat": 38.907340833333336, "rental_uris": {"android": "https://dc.lft.to/lastmile_qr_scan", "ios": "https://dc.lft.to/lastmile_qr_scan"}, "bike_id": "a8721856f76e33ae567d3eadfe2d5b58", "lon": -77.0164315}, {"is_reserved": 0, "fusion_lon": 0.0, "fusion_lat": 0.0, "name": "a1690bc0df656bcb27330b86fab1bcdb", "type": "electric_scooter", "is_disabled": 0, "lat": 38.89321, "rental_uris": {"android": "https://dc.lft.to/lastmile_qr_scan", "ios": "https://dc.lft.to/lastmile_qr_scan"}, "bike_id": "a1690bc0df656bcb27330b86fab1bcdb", "lon": -77.04997483333334}, {"is_reserved": 0, "fusion_lon": 0.0, "fusion_lat": 0.0, "name": "864c03386e79fdeb64bc63221200aabf", "type": "electric_scooter", "is_disabled": 0, "lat": 38.915265, "rental_uris": {"android": "https://dc.lft.to/lastmile_qr_scan", "ios": "https://dc.lft.to/lastmile_qr_scan"}, "bike_id": "864c03386e79fdeb64bc63221200aabf", "lon": -77.07418666666666}, {"is_reserved": 0, "fusion_lon": 0.0, "fusion_lat": 0.0, "name": "ba5ecf908908664891ebef785b248108", "type": "electric_scooter", "is_disabled": 0, "lat": 38.92852366666666, "rental_uris": {"android": "https://dc.lft.to/lastmile_qr_scan", "ios": "https://dc.lft.to/lastmile_qr_scan"}, "bike_id": "ba5ecf908908664891ebef785b248108", "lon": -77.02731766666666}, {"is_reserved": 0, "fusion_lon": 0.0, "fusion_lat": 0.0, "name": "546e1d82c9282769dd1a0e5aa7538ed9", "type": "electric_scooter", "is_disabled": 0, "lat": 38.919975666666666, "rental_uris": {"android": "https://dc.lft.to/lastmile_qr_scan", "ios": "https://dc.lft.to/lastmile_qr_scan"}, "bike_id": "546e1d82c9282769dd1a0e5aa7538ed9", "lon": -77.02154566666667}, {"is_reserved": 0, "fusion_lon": 0.0, "fusion_lat": 0.0, "name": "ca2d4fda89dc5bf409e5101374c25be9", "type": "electric_scooter", "is_disabled": 0, "lat": 38.90927683333334, "rental_uris": {"android": "https://dc.lft.to/lastmile_qr_scan", "ios": "https://dc.lft.to/lastmile_qr_scan"}, "bike_id": "ca2d4fda89dc5bf409e5101374c25be9", "lon": -77.07266183333333}, {"is_reserved": 0, "fusion_lon": 0.0, "fusion_lat": 0.0, "name": "7f0ac0f85b6208adb77d4f63d1b8c988", "type": "electric_scooter", "is_disabled": 0, "lat": 38.893075333333336, "rental_uris": {"android": "https://dc.lft.to/lastmile_qr_scan", "ios": "https://dc.lft.to/lastmile_qr_scan"}, "bike_id": "7f0ac0f85b6208adb77d4f63d1b8c988", "lon": -76.9398495}, {"is_reserved": 0, "fusion_lon": 0.0, "fusion_lat": 0.0, "name": "8f019f7314c7228ca0af522806c51c27", "type": "electric_scooter", "is_disabled": 0, "lat": 38.904386, "rental_uris": {"android": "https://dc.lft.to/lastmile_qr_scan", "ios": "https://dc.lft.to/lastmile_qr_scan"}, "bike_id": "8f019f7314c7228ca0af522806c51c27", "lon": -77.05145883333333}, {"is_reserved": 0, "fusion_lon": 0.0, "fusion_lat": 0.0, "name": "e2da5025ce8c885bf8fc03131ac48544", "type": "electric_scooter", "is_disabled": 0, "lat": 38.927396, "rental_uris": {"android": "https://dc.lft.to/lastmile_qr_scan", "ios": "https://dc.lft.to/lastmile_qr_scan"}, "bike_id": "e2da5025ce8c885bf8fc03131ac48544", "lon": -77.03523683333333}, {"is_reserved": 0, "fusion_lon": 0.0, "fusion_lat": 0.0, "name": "c257dd88d0c0ec3e15d542d8f1d1e6a2", "type": "electric_bike", "is_disabled": 0, "lat": 38.90145566666666, "rental_uris": {"android": "https://dc.lft.to/lastmile_qr_scan", "ios": "https://dc.lft.to/lastmile_qr_scan"}, "bike_id": "c257dd88d0c0ec3e15d542d8f1d1e6a2", "lon": -77.01777733333333},