{"data": {"bikes": [{"rental_uris": {"ios": "https://dc.lft.to/lastmile_qr_scan", "android": "https://dc.lft.to/lastmile_qr_scan"}, "lat": 38.919069666666665, "is_reserved": 0, "bike_id": "b33c8eebaae97286835d078c17658e9b", "lon": -77.0295055, "is_disabled": 0, "fusion_lat": 0.0, "fusion_lon": 0.0, "name": "b33c8eebaae97286835d078c17658e9b", "type": "electric_scooter"}, {"rental_uris": {"ios": "https://dc.lft.to/lastmile_qr_scan", "android": "https://dc.lft.to/lastmile_qr_scan"}, "lat": 38.900398, "is_reserved": 0, "bike_id": "23e4e406dfadd0fcfa0ca1e4bc9e257c", "lon": -76.98826533333333, "is_disabled": 0, "fusion_lat": 0.0, "fusion_lon": 0.0, "name": "23e4e406dfadd0fcfa0ca1e4bc9e257c", "type": "electric_scooter"}, {"rental_uris": {"ios": "https://dc.lft.to/lastmile_qr_scan", "android": "https://dc.lft.to/lastmile_qr_scan"}, "lat": 38.900333, "is_reserved": 0, "bike_id": "2341249e0b89f777ffba5e697853f0ce", "lon": -77.01221583333333, "is_disabled": 0, "fusion_lat": 0.0, "fusion_lon": 0.0, "name": "2341249e0b89f777ffba5e697853f0ce", "type": "electric_scooter"}, {"rental_uris": {"ios": "https://dc.lft.to/lastmile_qr_scan", "android": "https://dc.lft.to/lastmile_qr_scan"}, "lat": 38.910352333333336, "is_reserved": 0, "bike_id": "1e7c7feb9b6350af95b39a6a0a7ab9e4", "lon": -77.04359683333334, "is_disabled": 0, "fusion_lat": 0.0, "fusion_lon": 0.0, "name": "1e7c7feb9b6350af95b39a6a0a7ab9e4", "type": "electric_scooter"}, {"rental_uris": {"ios": "https://dc.lft.to/lastmile_qr_scan", "android": "https://dc.lft.to/lastmile_qr_scan"}, "lat": 38.9241755, "is_reserved": 0, "bike_id": "f41076e4505d7f2231c6b6f26885cc99", "lon": -77.05752283333334, "is_disabled": 0, "fusion_lat": 0.0, "fusion_lon": 0.0, "name": "f41076e4505d7f2231c6b6f26885cc99", "type": "electric_scooter"}, {"rental_uris": {"ios": "https://dc.lft.to/lastmile_qr_scan", "android": "https://dc.lft.to/lastmile_qr_scan"}, "lat": 38.927390333333335, "is_reserved": 0, "bike_id": "9ef36fe0f70899a849fce5bd93a60775", "lon": -77.03633716666667, "is_disabled": 0, "fusion_lat": 0.0, "fusion_lon": 0.0, "name": "9ef36fe0f70899a849fce5bd93a60775", "type": "electric_scooter"}, {"rental_uris": {"ios": "https://dc.lft.to/lastmile_qr_scan", "android": "https://dc.lft.to/lastmile_qr_scan"}, "lat": 38.9236335, "is_reserved": 0, "bike_id": "cf98d4d952f1532aa20b6cab275779e6", "lon": -77.0503045, "is_disabled": 0, "fusion_lat": 0.0, "fusion_lon": 0.0, "name": "cf98d4d952f1532aa20b6cab275779e6", "type": "electric_scooter"}, {"rental_uris": {"ios": "https://dc.lft.to/lastmile_qr_scan", "android": "https://dc.lft.to/lastmile_qr_scan"}, "lat": 38.9523815, "is_reserved": 0, "bike_id": "2fc3439016626c50884463c6a9247de8", "lon": -77.00199966666666, "is_disabled": 0, "fusion_lat": 0.0, "fusion_lon": 0.0, "name": "2fc3439016626c50884463c6a9247de8", "type": "electric_scooter"}, {"rental_uris": {"ios": "https://dc.lft.to/lastmile_qr_scan", "android": "https://dc.lft.to/lastmile_qr_scan"}, "lat": 38.896489833333334, "is_reserved": 0, "bike_id": "cf73cd30fb38a6a3655975cef61d58f3", "lon": -77.02619983333334, "is_disabled": 0, "fusion_lat": 0.0, "fusion_lon": 0.0, "name": "cf73cd30fb38a6a3655975cef61d58f3", "type": "electric_scooter"}, {"rental_uris": {"ios": "https://dc.lft.to/lastmile_qr_scan", "android": "https://dc.lft.to/lastmile_qr_scan"}, "lat": 38.92069, "is_reserved": 0, "bike_id": "eddeab79ef376199c0f52675f059a7af", "lon": -77.02330533333334, "is_disabled": 0, "fusion_lat": 0.0, "fusion_lon": 0.0, "name": "eddeab79ef376199c0f52675f059a7af", "type": "electric_scooter"}, {"rental_uris": {"ios": "https://dc.lft.to/lastmile_qr_scan", "android": "https://dc.lft.to/lastmile_qr_scan"}, "lat": 38.90427316666667, "is_reserved": 0, "bike_id": "5da640b8c1136364ad3474ac3b47e56b", "lon": -77.05917616666666, "is_disabled": 0, "fusion_lat": 0.0, "fusion_lon": 0.0, "name": "5da640b8c1136364ad3474ac3b47e56b", "type": "electric_scooter"}, {"rental_uris": {"ios": "https://dc.lft.to/lastmile_qr_scan", "android": "https://dc.lft.to/lastmile_qr_scan"}, "lat": 38.90127916666667, "is_reserved": 0, "bike_id": "712456ec1bf676e1a7170829b15c6681", "lon": -77.016723, "is_disabled": 0, "fusion_lat": 0.0, "fusion_lon": 0.0, "name": "712456ec1bf676e1a7170829b15c6681", "type": "electric_scooter"}, {"rental_uris": {"ios": "https://dc.lft.to/lastmile_qr_scan", "android": "https://dc.lft.to/lastmile_qr_scan"}, "lat": 38.87892183333334, "is_reserved": 0, "bike_id": "4d7913e0f4c489f930cf3444364851ae", "lon": -77.022129, "is_disabled": 0, "fusion_lat": 0.0, "fusion_lon": 0.0, "name": "4d7913e0f4c489f930cf3444364851ae", "type": "electric_scooter"}, {"rental_uris": {"ios": "https://dc.lft.to/lastmile_qr_scan", "android": "https://dc.lft.to/lastmile_qr_scan"}, "lat": 38.88631733333333, "is_reserved": 0, "bike_id": "fea4ba01bbefe669e7aac9b48a12c51c", "lon": -77.01550566666667, "is_disabled": 0, "fusion_lat": 0.0, "fusion_lon": 0.0, "name": "fea4ba01bbefe669e7aac9b48a12c51c", "type": "electric_scooter"}, {"rental_uris": {"ios": "https://dc.lft.to/lastmile_qr_scan", "android": "https://dc.lft.to/lastmile_qr_scan"}, "lat": 38.908264833333334, "is_reserved": 0, "bike_id": "697e1168eef39a64575b520bc95384b3", "lon": -77.03194333333333, "is_disabled": 0, "fusion_lat": 0.0, "fusion_lon": 0.0, "name": "697e1168eef39a64575b520bc95384b3", "type": "electric_scooter"}, {"rental_uris": {"ios": "https://dc.lft.to/lastmile_qr_scan", "android": "https://dc.lft.to/lastmile_qr_scan"}, "lat": 38.88300566666667, "is_reserved": 0, "bike_id": "a2e69af116ab680f8e6494a9576b0c28", "lon": -76.9485545, "is_disabled": 0, "fusion_lat": 0.0, "fusion_lon": 0.0, "name": "a2e69af116ab680f8e6494a9576b0c28", "type": "electric_scooter"}, {"rental_uris": {"ios": "https://dc.lft.to/lastmile_qr_scan", "android": "https://dc.lft.to/lastmile_qr_scan"}, "lat": 38.90006833333333, "is_reserved": 0, "bike_id": "8dc783fc9cd0630783c2623f27b1b3c3", "lon": -76.99349833333333, "is_disabled": 0, "fusion_lat": 0.0, "fusion_lon": 0.0, "name": "8dc783fc9cd0630783c2623f27b1b3c3", "type": "electric_scooter"}, {"rental_uris": {"ios": "https://dc.lft.to/lastmile_qr_scan", "android": "https://dc.lft.to/lastmile_qr_scan"}, "lat": 38.88268333333333, "is_reserved": 0, "bike_id": "304723184fdd2bec669dd2b86173fb84", "lon": -76.99484466666667, "is_disabled": 0, "fusion_lat": 0.0, "fusion_lon": 0.0, "name": "304723184fdd2bec669dd2b86173fb84", "type": "electric_scooter"}, {"rental_uris": {"ios": "https://dc.lft.to/lastmile_qr_scan", "android": "https://dc.lft.to/lastmile_qr_scan"}, "lat": 38.92079116666667, "is_reserved": 0, "bike_id": "20be462b4f88221bdfe314f3ce614f66", "lon": -77.03455266666667, "is_disabled": 0, "fusion_lat": 0.0, "fusion_lon": 0.0, "name": "20be462b4f88221bdfe314f3ce614f66", "type": "electric_scooter"}, {"rental_uris": {"ios": "https://dc.lft.to/lastmile_qr_scan", "android": "https://dc.lft.to/lastmile_qr_scan"}, "lat": 38.89612616666667, "is_reserved": 0, "bike_id": "d89ad50af5cc2e9d777d3e938c406649", "lon": -76.94784583333333, "is_disabled": 0, "fusion_lat": 0.0, "fusion_lon": 0.0, "name": "d89ad50af5cc2e9d777d3e938c406649", "type": "electric_scooter"}, {"rental_uris": {"ios": "https://dc.lft.to/lastmile_qr_scan", "android": "https://dc.lft.to/lastmile_qr_scan"}, "lat": 38.91728616666666, "is_reserved": 0, "bike_id": "da988f390acaa048da6696b5bf7d682f", "lon": -77.03661266666667, "is_disabled": 0, "fusion_lat": 0.0, "fusion_lon": 0.0, "name": "da988f390acaa048da6696b5bf7d682f", "type": "electric_scooter"}, {"rental_uris": {"ios": "https://dc.lft.to/lastmile_qr_scan", "android": "https://dc.lft.to/lastmile_qr_scan"}, "lat": 38.90817966666667, "is_reserved": 0, "bike_id": "138fa808bdbc4583faba0362d3530301", "lon": -77.04247966666667, "is_disabled": 0, "fusion_lat": 0.0, "fusion_lon": 0.0, "name": "138fa808bdbc4583faba0362d3530301", "type": "electric_scooter"}, {"rental_uris": {"ios": "https://dc.lft.to/lastmile_qr_scan", "android": "https://dc.lft.to/lastmile_qr_scan"}, "lat": 38.9368505, "is_reserved": 0, "bike_id": "71e4b27ad309f7098368d274d3f6161f", "lon": -77.03280316666667, "is_disabled": 0, "fusion_lat": 0.0, "fusion_lon": 0.0, "name": "71e4b27ad309f7098368d274d3f6161f", "type": "electric_scooter"}, {"rental_uris": {"ios": "https://dc.lft.to/lastmile_qr_scan", "android": "https://dc.lft.to/lastmile_qr_scan"}, "lat": 38.89231933333333, "is_reserved": 0, "bike_id": "9a544e13e51a844e0a645ac9514bfc6d", "lon": -77.041579, "is_disabled": 0, "fusion_lat": 0.0, "fusion_lon": 0.0, "name": "9a544e13e51a844e0a645ac9514bfc6d", "type": "electric_scooter"}, {"rental_uris": {"ios": "https://dc.lft.to/lastmile_qr_scan", "android": "https://dc.lft.to/lastmile_qr_scan"}, "lat": 38.885175, "is_reserved": 0, "bike_id": "3497770820efaab8c3dace179b99cbe4", "lon": -76.95174616666667, "is_disabled": 0, "fusion_lat": 0.0, "fusion_lon": 0.0, "name": "3497770820efaab8c3dace179b99cbe4", "type": "electric_bike"}, {"rental_uris": {"ios": "https://dc.lft.to/lastmile_qr_scan", "android": "https://dc.lft.to/lastmile_qr_scan"}, "lat": 38.9260115, "is_reserved": 0, "bike_id": "1e5deacf702a37bf92a29aa92767fe7a", "lon": -77.02151066666667, "is_disabled": 0, "fusion_lat": 0.0, "fusion_lon": 0.0, "name": "1e5deacf702a37bf92a29aa92767fe7a", "type": "electric_scooter"}, {"rental_uris": {"ios": "https://dc.lft.to/lastmile_qr_scan", "android": "https://dc.lft.to/lastmile_qr_scan"}, "lat": 38.91930516666667, "is_reserved": 0, "bike_id": "c55269468d0f4882ef895971cee1d2ec", "lon": -77.01354583333334, "is_disabled": 0, "fusion_lat": 0.0, "fusion_lon": 0.0, "name": "c55269468d0f4882ef895971cee1d2ec", "type": "electric_scooter"}, {"rental_uris": {"ios": "https://dc.lft.to/lastmile_qr_scan", "android": "https://dc.lft.to/lastmile_qr_scan"}, "lat": 38.874790833333336, "is_reserved": 0, "bike_id": "d8503c979885138c1b5130de7dc58b55", "lon": -77.00827383333333, "is_disabled": 0, "fusion_lat": 0.0, "fusion_lon": 0.0, "name": "d8503c979885138c1b5130de7dc58b55", "type": "electric_scooter"}, {"rental_uris": {"ios": "https://dc.lft.to/lastmile_qr_scan", "android": "https://dc.lft.to/lastmile_qr_scan"}, "lat": 38.879025666666664, "is_reserved": 0, "bike_id": "1c184e98cc403d3024983e6a3b29fe0a", "lon": -77.02158116666666, "is_disabled": 0, "fusion_lat": 0.0, "fusion_lon": 0.0, "name": "1c184e98cc403d3024983e6a3b29fe0a", "type": "electric_scooter"}, {"rental_uris": {"ios": "https://dc.lft.to/lastmile_qr_scan", "android": "https://dc.lft.to/lastmile_qr_scan"}, "lat": 38.89753533333333, "is_reserved": 0, "bike_id": "6175fb1043746eb7842aa49984e604a9", "lon": -77.01895083333334, "is_disabled": 0, "fusion_lat": 0.0, "fusion_lon": 0.0, "name": "6175fb1043746eb7842aa49984e604a9", "type": "electric_scooter"}, {"rental_uris": {"ios": "https://dc.lft.to/lastmile_qr_scan", "android": "https://dc.lft.to/lastmile_qr_scan"}, "lat": 38.918341166666664, "is_reserved": 0, "bike_id": "18f909ed8604b3672045879de7ef2c12", "lon": -77.03886783333333, "is_disabled": 0, "fusion_lat": 0.0, "fusion_lon": 0.0, "name": "18f909ed8604b3672045879de7ef2c12", "type": "electric_scooter"}, {"rental_uris": {"ios": "https://dc.lft.to/lastmile_qr_scan", "android": "https://dc.lft.to/lastmile_qr_scan"}, "lat": 38.906844166666666, "is_reserved": 0, "bike_id": "5549bf20ffbffa997635278a28edc240", "lon": -76.98499883333334, "is_disabled": 0, "fusion_lat": 0.0, "fusion_lon": 0.0, "name": "5549bf20ffbffa997635278a28edc240", "type": "electric_scooter"}, {"rental_uris": {"ios": "https://dc.lft.to/lastmile_qr_scan", "android": "https://dc.lft.to/lastmile_qr_scan"}, "lat": 38.882691, "is_reserved": 0, "bike_id": "4c40b664395c51f959522be62b42ca26", "lon": -76.99482483333334, "is_disabled": 0, "fusion_lat": 0.0, "fusion_lon": 0.0, "name": "4c40b664395c51f959522be62b42ca26", "type": "electric_scooter"}, {"rental_uris": {"ios": "https://dc.lft.to/lastmile_qr_scan", "android": "https://dc.lft.to/lastmile_qr_scan"}, "lat": 38.8768695, "is_reserved": 0, "bike_id": "ee187753707763c99054ee0254a0c8eb", "lon": -77.00061783333334, "is_disabled": 0, "fusion_lat": 0.0, "fusion_lon": 0.0, "name": "ee187753707763c99054ee0254a0c8eb", "type": "electric_scooter"}, {"rental_uris": {"ios": "https://dc.lft.to/lastmile_qr_scan", "android": "https://dc.lft.to/lastmile_qr_scan"}, "lat": 38.9246065, "is_reserved": 0, "bike_id": "a08ad52a3d9d9e9cc725cc8b29eeec6a", "lon": -77.02206066666666, "is_disabled": 0, "fusion_lat": 0.0, "fusion_lon": 0.0, "name": "a08ad52a3d9d9e9cc725cc8b29eeec6a", "type": "electric_scooter"}, {"rental_uris": {"ios": "https://dc.lft.to/lastmile_qr_scan", "android": "https://dc.lft.to/lastmile_qr_scan"}, "lat": 38.886398166666666, "is_reserved": 0, "bike_id": "5726efb5ea83b7907b6a97c05608d1ad", "lon": -77.01551266666667, "is_disabled": 0, "fusion_lat": 0.0, "fusion_lon": 0.0, "name": "5726efb5ea83b7907b6a97c05608d1ad", "type": "electric_scooter"}, {"rental_uris": {"ios": "https://dc.lft.to/lastmile_qr_scan", "android": "https://dc.lft.to/lastmile_qr_scan"}, "lat": 38.9572265, "is_reserved": 0, "bike_id": "0893e0ce6e2b2de695d7a40f0f07ea1d", "lon": -77.0287405, "is_disabled": 0, "fusion_lat": 0.0, "fusion_lon": 0.0, "name": "0893e0ce6e2b2de695d7a40f0f07ea1d", "type": "electric_scooter"}, {"rental_uris": {"ios": "https://dc.lft.to/lastmile_qr_scan", "android": "https://dc.lft.to/lastmile_qr_scan"}, "lat": 38.897252, "is_reserved": 0, "bike_id": "4e472341dda36a39e3f4506f6988b992", "lon": -77.04712766666667, "is_disabled": 0, "fusion_lat": 0.0, "fusion_lon": 0.0, "name": "4e472341dda36a39e3f4506f6988b992", "type": "electric_scooter"}, {"rental_uris": {"ios": "https://dc.lft.to/lastmile_qr_scan", "android": "https://dc.lft.to/lastmile_qr_scan"}, "lat": 39.038998666666664, "is_reserved": 0, "bike_id": "7dd87c18f3cab6123a82b733a017b125", "lon": -77.05038633333334, "is_disabled": 0, "fusion_lat": 0.0, "fusion_lon": 0.0, "name": "7dd87c18f3cab6123a82b733a017b125", "type": "electric_bike"}, {"rental_uris": {"ios": "https://dc.lft.to/lastmile_qr_scan", "android": "https://dc.lft.to/lastmile_qr_scan"}, "lat": 38.90353366666667, "is_reserved": 0, "bike_id": "85c9a4d5d35eec423a886ecc2a4b48db", "lon": -77.03706566666666, "is_disabled": 0, "fusion_lat": 0.0, "fusion_lon": 0.0, "name": "85c9a4d5d35eec423a886ecc2a4b48db", "type": "electric_scooter"}, {"rental_uris": {"ios": "https://dc.lft.to/lastmile_qr_scan", "android": "https://dc.lft.to/lastmile_qr_scan"}, "lat": 38.90221866666667, "is_reserved": 0, "bike_id": "53dd2faab4a926b1b5c2970a16d5ae80", "lon": -77.0376945, "is_disabled": 0, "fusion_lat": 0.0, "fusion_lon": 0.0, "name": "53dd2faab4a926b1b5c2970a16d5ae80", "type": "electric_scooter"}, {"rental_uris": {"ios": "https://dc.lft.to/lastmile_qr_scan", "android": "https://dc.lft.to/lastmile_qr_scan"}, "lat": 38.90650483333334, "is_reserved": 0, "bike_id": "c1d1f175fb41cb88d9c18c957ce47fa4", "lon": -77.02526766666666, "is_disabled": 0, "fusion_lat": 0.0, "fusion_lon": 0.0, "name": "c1d1f175fb41cb88d9c18c957ce47fa4", "type": "electric_scooter"}, {"rental_uris": {"ios": "https://dc.lft.to/lastmile_qr_scan", "android": "https://dc.lft.to/lastmile_qr_scan"}, "lat": 38.930983, "is_reserved": 0, "bike_id": "e275b92fd5fa7d03b1e91962bf6e884d", "lon": -77.02476366666667, "is_disabled": 0, "fusion_lat": 0.0, "fusion_lon": 0.0, "name": "e275b92fd5fa7d03b1e91962bf6e884d", "type": "electric_scooter"}, {"rental_uris": {"ios": "https://dc.lft.to/lastmile_qr_scan", "android": "https://dc.lft.to/lastmile_qr_scan"}, "lat": 38.92814466666667, "is_reserved": 0, "bike_id": "f264b9365bcb5d5ebaaa9b8e5cd3e6fe", "lon": -77.02671583333333, "is_disabled": 0, "fusion_lat": 0.0, "fusion_lon": 0.0, "name": "f264b9365bcb5d5ebaaa9b8e5cd3e6fe", "type": "electric_scooter"}, {"rental_uris": {"ios": "https://dc.lft.to/lastmile_qr_scan", "android": "https://dc.lft.to/lastmile_qr_scan"}, "lat": 38.9218455, "is_reserved": 0, "bike_id": "e487d3e29ad8043976bc9cc5ffaa06e6", "lon": -77.04235766666666, "is_disabled": 0, "fusion_lat": 0.0, "fusion_lon": 0.0, "name": "e487d3e29ad8043976bc9cc5ffaa06e6", "type": "electric_scooter"}, {"rental_uris": {"ios": "https://dc.lft.to/lastmile_qr_scan", "android": "https://dc.lft.to/lastmile_qr_scan"}, "lat": 38.927939333333335, "is_reserved": 0, "bike_id": "eefb572bebf3dd235b444be1d65038ba", "lon": -77.055375, "is_disabled": 0, "fusion_lat": 0.0, "fusion_lon": 0.0, "name": "eefb572bebf3dd235b444be1d65038ba", "type": "electric_scooter"}, {"rental_uris": {"ios": "https://dc.lft.to/lastmile_qr_scan", "android": "https://dc.lft.to/lastmile_qr_scan"}, "lat": 38.884719833333335, "is_reserved": 0, "bike_id": "6448ae1d4f49f536d5b71a14789126f2", "lon": -76.9566485, "is_disabled": 0, "fusion_lat": 0.0, "fusion_lon": 0.0, "name": "6448ae1d4f49f536d5b71a14789126f2", "type": "electric_bike"}, {"rental_uris": {"ios": "https://dc.lft.to/lastmile_qr_scan", "android": "https://dc.lft.to/lastmile_qr_scan"}, "lat": 38.8578215, "is_reserved": 0, "bike_id": "f3e7c0f4f36e30531b318c5172fe2498", "lon": -77.12024216666667, "is_disabled": 0, "fusion_lat": 0.0, "fusion_lon": 0.0, "name": "f3e7c0f4f36e30531b318c5172fe2498", "type": "electric_bike"}, {"rental_uris": {"ios": "https://dc.lft.to/lastmile_qr_scan", "android": "https://dc.lft.to/lastmile_qr_scan"}, "lat": 38.920434666666665, "is_reserved": 0, "bike_id": "ae07a5a012d25ab4f3cc1f74b633add2", "lon": -77.02575783333333, "is_disabled": 0, "fusion_lat": 0.0, "fusion_lon": 0.0, "name": "ae07a5a012d25ab4f3cc1f74b633add2", "type": "electric_scooter"}, {"rental_uris": {"ios": "https://dc.lft.to/lastmile_qr_scan", "android": "https://dc.lft.to/lastmile_qr_scan"}, "lat": 38.898110833333334, "is_reserved": 0, "bike_id": "5ea30e7c727c44e36ec1254eea5174c3", "lon": -77.03320533333333, "is_disabled": 0, "fusion_lat": 0.0, "fusion_lon": 0.0, "name": "5ea30e7c727c44e36ec1254eea5174c3", "type": "electric_scooter"}, {"rental_uris": {"ios": "https://dc.lft.to/lastmile_qr_scan", "android": "https://dc.lft.to/lastmile_qr_scan"}, "lat": 38.95218533333333, "is_reserved": 0, "bike_id": "e12ebd118fd6fc0d27510bad0e871759", "lon": -77.00221616666667, "is_disabled": 0, "fusion_lat": 0.0, "fusion_lon": 0.0, "name": "e12ebd118fd6fc0d27510bad0e871759", "type": "electric_scooter"}, {"rental_uris": {"ios": "https://dc.lft.to/lastmile_qr_scan", "android": "https://dc.lft.to/lastmile_qr_scan"}, "lat": 38.94069616666667, "is_reserved": 0, "bike_id": "2f0c85b500b13cdd6daac082029778a1", "lon": -76.9994455, "is_disabled": 0, "fusion_lat": 0.0, "fusion_lon": 0.0, "name": "2f0c85b500b13cdd6daac082029778a1", "type": "electric_scooter"}, {"rental_uris": {"ios": "https://dc.lft.to/lastmile_qr_scan", "android": "https://dc.lft.to/lastmile_qr_scan"}, "lat": 38.891983833333335, "is_reserved": 0, "bike_id": "791919ec07ed0245065b81e3c439f7db", "lon": -76.957003, "is_disabled": 0, "fusion_lat": 0.0, "fusion_lon": 0.0, "name": "791919ec07ed0245065b81e3c439f7db", "type": "electric_scooter"}, {"rental_uris": {"ios": "https://dc.lft.to/lastmile_qr_scan", "android": "https://dc.lft.to/lastmile_qr_scan"}, "lat": 38.91345033333333, "is_reserved": 0, "bike_id": "f310f031b63eb0bd3cc6b546b77439b5", "lon": -77.044025, "is_disabled": 0, "fusion_lat": 0.0, "fusion_lon": 0.0, "name": "f310f031b63eb0bd3cc6b546b77439b5", "type": "electric_scooter"}, {"rental_uris": {"ios": "https://dc.lft.to/lastmile_qr_scan", "android": "https://dc.lft.to/lastmile_qr_scan"}, "lat": 38.876568666666664, "is_reserved": 0, "bike_id": "593cb043cf812fb241ca9f9417843102", "lon": -77.004589, "is_disabled": 0, "fusion_lat": 0.0, "fusion_lon": 0.0, "name": "593cb043cf812fb241ca9f9417843102", "type": "electric_scooter"}, {"rental_uris": {"ios": "https://dc.lft.to/lastmile_qr_scan", "android": "https://dc.lft.to/lastmile_qr_scan"}, "lat": 38.921344833333336, "is_reserved": 0, "bike_id": "1ad982568329976d6dfba8a616497c02", "lon": -77.01167483333333, "is_disabled": 0, "fusion_lat": 0.0, "fusion_lon": 0.0, "name": "1ad982568329976d6dfba8a616497c02", "type": "electric_scooter"}, {"rental_uris": {"ios": "https://dc.lft.to/lastmile_qr_scan", "android": "https://dc.lft.to/lastmile_qr_scan"}, "lat": 38.8951385, "is_reserved": 0, "bike_id": "7f64e05675f862df72239ed867b4f59a", "lon": -77.0258525, "is_disabled": 0, "fusion_lat": 0.0, "fusion_lon": 0.0, "name": "7f64e05675f862df72239ed867b4f59a", "type": "electric_scooter"}, {"rental_uris": {"ios": "https://dc.lft.to/lastmile_qr_scan", "android": "https://dc.lft.to/lastmile_qr_scan"}, "lat": 38.905907, "is_reserved": 0, "bike_id": "be5c2b96b1ff551c127a4e7d625fe65d", "lon": -77.05142833333333, "is_disabled": 0, "fusion_lat": 0.0, "fusion_lon": 0.0, "name": "be5c2b96b1ff551c127a4e7d625fe65d", "type": "electric_scooter"}, {"rental_uris": {"ios": "https://dc.lft.to/lastmile_qr_scan", "android": "https://dc.lft.to/lastmile_qr_scan"}, "lat": 38.916616833333336, "is_reserved": 0, "bike_id": "da1632777b60ced48aef02570a62cbdb", "lon": -77.02715316666666, "is_disabled": 0, "fusion_lat": 0.0, "fusion_lon": 0.0, "name": "da1632777b60ced48aef02570a62cbdb", "type": "electric_scooter"}, {"rental_uris": {"ios": "https://dc.lft.to/lastmile_qr_scan", "android": "https://dc.lft.to/lastmile_qr_scan"}, "lat": 38.916172333333336, "is_reserved": 0, "bike_id": "96112bf415923ebc9596dc2c491ddcc2", "lon": -77.04292433333333, "is_disabled": 0, "fusion_lat": 0.0, "fusion_lon": 0.0, "name": "96112bf415923ebc9596dc2c491ddcc2", "type": "electric_scooter"}, {"rental_uris": {"ios": "https://dc.lft.to/lastmile_qr_scan", "android": "https://dc.lft.to/lastmile_qr_scan"}, "lat": 38.908262666666666, "is_reserved": 0, "bike_id": "753b2dcdc6cdefede67ec0b4063da15f", "lon": -77.0386465, "is_disabled": 0, "fusion_lat": 0.0, "fusion_lon": 0.0, "name": "753b2dcdc6cdefede67ec0b4063da15f", "type": "electric_scooter"}, {"rental_uris": {"ios": "https://dc.lft.to/lastmile_qr_scan", "android": "https://dc.lft.to/lastmile_qr_scan"}, "lat": 38.992194833333336, "is_reserved": 0, "bike_id": "3aeda233385cf9092fc5fcb0289e44dc", "lon": -76.944306, "is_disabled": 0, "fusion_lat": 0.0, "fusion_lon": 0.0, "name": "3aeda233385cf9092fc5fcb0289e44dc", "type": "electric_bike"}, {"rental_uris": {"ios": "https://dc.lft.to/lastmile_qr_scan", "android": "https://dc.lft.to/lastmile_qr_scan"}, "lat": 38.90296883333333, "is_reserved": 0, "bike_id": "902ad66bd4f4bb941aa86025871c77f8", "lon": -77.040059, "is_disabled": 0, "fusion_lat": 0.0, "fusion_lon": 0.0, "name": "902ad66bd4f4bb941aa86025871c77f8", "type": "electric_scooter"}, {"rental_uris": {"ios": "https://dc.lft.to/lastmile_qr_scan", "android": "https://dc.lft.to/lastmile_qr_scan"}, "lat": 38.906683, "is_reserved": 0, "bike_id": "ef0852d6ee1054aa5b55e0c14a0030f1", "lon": -77.02597866666666, "is_disabled": 0, "fusion_lat": 0.0, "fusion_lon": 0.0, "name": "ef0852d6ee1054aa5b55e0c14a0030f1", "type": "electric_scooter"}, {"rental_uris": {"ios": "https://dc.lft.to/lastmile_qr_scan", "android": "https://dc.lft.to/lastmile_qr_scan"}, "lat": 38.92065633333333, "is_reserved": 0, "bike_id": "d7abfb3130a169cd546e6acdb323e1d4", "lon": -77.0232765, "is_disabled": 0, "fusion_lat": 0.0, "fusion_lon": 0.0, "name": "d7abfb3130a169cd546e6acdb323e1d4", "type": "electric_scooter"}, {"rental_uris": {"ios": "https://dc.lft.to/lastmile_qr_scan", "android": "https://dc.lft.to/lastmile_qr_scan"}, "lat": 38.956860166666665, "is_reserved": 0, "bike_id": "65e903f19c7caff5b883f64ee846cd35", "lon": -77.02234866666667, "is_disabled": 0, "fusion_lat": 0.0, "fusion_lon": 0.0, "name": "65e903f19c7caff5b883f64ee846cd35", "type": "electric_bike"}, {"rental_uris": {"ios": "https://dc.lft.to/lastmile_qr_scan", "android": "https://dc.lft.to/lastmile_qr_scan"}, "lat": 38.909575333333336, "is_reserved": 0, "bike_id": "2b790f2194ef8c10c3e6b37986bc0cd2", "lon": -77.010704, "is_disabled": 0, "fusion_lat": 0.0, "fusion_lon": 0.0, "name": "2b790f2194ef8c10c3e6b37986bc0cd2", "type": "electric_scooter"}, {"rental_uris": {"ios": "https://dc.lft.to/lastmile_qr_scan", "android": "https://dc.lft.to/lastmile_qr_scan"}, "lat": 38.9004745, "is_reserved": 0, "bike_id": "7b4fe07703f7d210f6d45c6b597575c3", "lon": -77.00222366666667, "is_disabled": 0, "fusion_lat": 0.0, "fusion_lon": 0.0, "name": "7b4fe07703f7d210f6d45c6b597575c3", "type": "electric_scooter"}, {"rental_uris": {"ios": "https://dc.lft.to/lastmile_qr_scan", "android": "https://dc.lft.to/lastmile_qr_scan"}, "lat": 38.92547883333334, "is_reserved": 0, "bike_id": "1ce93752f39b533718f876df27cfd975", "lon": -77.00076716666666, "is_disabled": 0, "fusion_lat": 0.0, "fusion_lon": 0.0, "name": "1ce93752f39b533718f876df27cfd975", "type": "electric_scooter"}, {"rental_uris": {"ios": "https://dc.lft.to/lastmile_qr_scan", "android": "https://dc.lft.to/lastmile_qr_scan"}, "lat": 38.89557116666667, "is_reserved": 0, "bike_id": "d4b70fcacf52ac102f2555fa0dfe0669", "lon": -77.01877916666666, "is_disabled": 0, "fusion_lat": 0.0, "fusion_lon": 0.0, "name": "d4b70fcacf52ac102f2555fa0dfe0669", "type": "electric_bike"}, {"rental_uris": {"ios": "https://dc.lft.to/lastmile_qr_scan", "android": "https://dc.lft.to/lastmile_qr_scan"}, "lat": 38.874139166666666, "is_reserved": 0, "bike_id": "c0c26c307d7f77488fa6ac8b24d21442", "lon": -76.999555, "is_disabled": 0, "fusion_lat": 0.0, "fusion_lon": 0.0, "name": "c0c26c307d7f77488fa6ac8b24d21442", "type": "electric_scooter"}, {"rental_uris": {"ios": "https://dc.lft.to/lastmile_qr_scan", "android": "https://dc.lft.to/lastmile_qr_scan"}, "lat": 38.95732866666667, "is_reserved": 0, "bike_id": "3c0185e5c23902f0bb68984ff8bc62f7", "lon": -76.97251866666667, "is_disabled": 0, "fusion_lat": 0.0, "fusion_lon": 0.0, "name": "3c0185e5c23902f0bb68984ff8bc62f7", "type": "electric_bike"}, {"rental_uris": {"ios": "https://dc.lft.to/lastmile_qr_scan", "android": "https://dc.lft.to/lastmile_qr_scan"}, "lat": 38.9140675, "is_reserved": 0, "bike_id": "844923f85f1c2aa997ed92400a140f77", "lon": -77.01482316666667, "is_disabled": 0, "fusion_lat": 0.0, "fusion_lon": 0.0, "name": "844923f85f1c2aa997ed92400a140f77", "type": "electric_scooter"}, {"rental_uris": {"ios": "https://dc.lft.to/lastmile_qr_scan", "android": "https://dc.lft.to/lastmile_qr_scan"}, "lat": 38.90403833333333, "is_reserved": 0, "bike_id": "8379663fe889c4764597cb5dc620ed53", "lon": -77.04338566666667, "is_disabled": 0, "fusion_lat": 0.0, "fusion_lon": 0.0, "name": "8379663fe889c4764597cb5dc620ed53", "type": "electric_scooter"}, {"rental_uris": {"ios": "https://dc.lft.to/lastmile_qr_scan", "android": "https://dc.lft.to/lastmile_qr_scan"}, "lat": 38.90572616666667, "is_reserved": 0, "bike_id": "7ae4e74d0b252305bb88d7295752e2ba", "lon": -77.04018516666666, "is_disabled": 0, "fusion_lat": 0.0, "fusion_lon": 0.0, "name": "7ae4e74d0b252305bb88d7295752e2ba", "type": "electric_scooter"}, {"rental_uris": {"ios": "https://dc.lft.to/lastmile_qr_scan", "android": "https://dc.lft.to/lastmile_qr_scan"}, "lat": 38.95743133333333, "is_reserved": 0, "bike_id": "045c00781955db4249079962b6df9803", "lon": -76.97255133333333, "is_disabled": 0, "fusion_lat": 0.0, "fusion_lon": 0.0, "name": "045c00781955db4249079962b6df9803", "type": "electric_bike"}, {"rental_uris": {"ios": "https://dc.lft.to/lastmile_qr_scan", "android": "https://dc.lft.to/lastmile_qr_scan"}, "lat": 38.90028916666667, "is_reserved": 0, "bike_id": "38aeeadb9cf7f5ab16ca24b8678ceeb6", "lon": -77.01179633333334, "is_disabled": 0, "fusion_lat": 0.0, "fusion_lon": 0.0, "name": "38aeeadb9cf7f5ab16ca24b8678ceeb6", "type": "electric_scooter"}, {"rental_uris": {"ios": "https://dc.lft.to/lastmile_qr_scan", "android": "https://dc.lft.to/lastmile_qr_scan"}, "lat": 38.894356333333334, "is_reserved": 0, "bike_id": "0a1e71882ce67b3e28e1a7f0d8621db3", "lon": -77.0263175, "is_disabled": 0, "fusion_lat": 0.0, "fusion_lon": 0.0, "name": "0a1e71882ce67b3e28e1a7f0d8621db3", "type": "electric_scooter"}, {"rental_uris": {"ios": "https://dc.lft.to/lastmile_qr_scan", "android": "https://dc.lft.to/lastmile_qr_scan"}, "lat": 38.897284, "is_reserved": 0, "bike_id": "256fe27e4661190ff2bfa787297499e7", "lon": -77.020056, "is_disabled": 0, "fusion_lat": 0.0, "fusion_lon": 0.0, "name": "256fe27e4661190ff2bfa787297499e7", "type": "electric_scooter"}, {"rental_uris": {"ios": "https://dc.lft.to/lastmile_qr_scan", "android": "https://dc.lft.to/lastmile_qr_scan"}, "lat": 38.9073175, "is_reserved": 0, "bike_id": "97a4c15f5ec28570f0784156d95b59c7", "lon": -77.04165766666667, "is_disabled": 0, "fusion_lat": 0.0, "fusion_lon": 0.0, "name": "97a4c15f5ec28570f0784156d95b59c7", "type": "electric_scooter"}, {"rental_uris": {"ios": "https://dc.lft.to/lastmile_qr_scan", "android": "https://dc.lft.to/lastmile_qr_scan"}, "lat": 38.900314, "is_reserved": 0, "bike_id": "eebc8ce6314cc00c76f9772ade7d24b3", "lon": -77.01184183333334, "is_disabled": 0, "fusion_lat": 0.0, "fusion_lon": 0.0, "name": "eebc8ce6314cc00c76f9772ade7d24b3", "type": "electric_scooter"}, {"rental_uris": {"ios": "https://dc.lft.to/lastmile_qr_scan", "android": "https://dc.lft.to/lastmile_qr_scan"}, "lat": 38.841783, "is_reserved": 0, "bike_id": "71ecace01335fda7dee97ebc7112a163", "lon": -76.99787033333334, "is_disabled": 0, "fusion_lat": 0.0, "fusion_lon": 0.0, "name": "71ecace01335fda7dee97ebc7112a163", "type": "electric_scooter"}, {"rental_uris": {"ios": "https://dc.lft.to/lastmile_qr_scan", "android": "https://dc.lft.to/lastmile_qr_scan"}, "lat": 38.902372166666666, "is_reserved": 0, "bike_id": "b213a7f067be9bf388afc66fb18ee0df", "lon": -77.002009, "is_disabled": 0, "fusion_lat": 0.0, "fusion_lon": 0.0, "name": "b213a7f067be9bf388afc66fb18ee0df", "type": "electric_scooter"}, {"rental_uris": {"ios": "https://dc.lft.to/lastmile_qr_scan", "android": "https://dc.lft.to/lastmile_qr_scan"}, "lat": 38.90552483333333, "is_reserved": 0, "bike_id": "e7502105b2d5a81a11ee7f575fc797b8", "lon": -77.034806, "is_disabled": 0, "fusion_lat": 0.0, "fusion_lon": 0.0, "name": "e7502105b2d5a81a11ee7f575fc797b8", "type": "electric_scooter"}, {"rental_uris": {"ios": "https://dc.lft.to/lastmile_qr_scan", "android": "https://dc.lft.to/lastmile_qr_scan"}, "lat": 38.9063645, "is_reserved": 0, "bike_id": "00322f20bc80565a44b423d638bde080", "lon": -77.03892066666667, "is_disabled": 0, "fusion_lat": 0.0, "fusion_lon": 0.0, "name": "00322f20bc80565a44b423d638bde080", "type": "electric_scooter"}, {"rental_uris": {"ios": "https://dc.lft.to/lastmile_qr_scan", "android": "https://dc.lft.to/lastmile_qr_scan"}, "lat": 38.94402733333333, "is_reserved": 0, "bike_id": "8cac7bc1a7152edba90712bb4683c173", "lon": -77.02613066666666, "is_disabled": 0, "fusion_lat": 0.0, "fusion_lon": 0.0, "name": "8cac7bc1a7152edba90712bb4683c173", "type": "electric_scooter"}, {"rental_uris": {"ios": "https://dc.lft.to/lastmile_qr_scan", "android": "https://dc.lft.to/lastmile_qr_scan"}, "lat": 38.895195666666666, "is_reserved": 0, "bike_id": "7ab713cbd1fd6bf4b5d395ede18f1f21", "lon": -77.02290666666667, "is_disabled": 0, "fusion_lat": 0.0, "fusion_lon": 0.0, "name": "7ab713cbd1fd6bf4b5d395ede18f1f21", "type": "electric_scooter"}, {"rental_uris": {"ios": "https://dc.lft.to/lastmile_qr_scan", "android": "https://dc.lft.to/lastmile_qr_scan"}, "lat": 38.9173165, "is_reserved": 0, "bike_id": "086dca5da185e9fd9c63fca0087ea8e0", "lon": -77.02819216666667, "is_disabled": 0, "fusion_lat": 0.0, "fusion_lon": 0.0, "name": "086dca5da185e9fd9c63fca0087ea8e0", "type": "electric_scooter"}, {"rental_uris": {"ios": "https://dc.lft.to/lastmile_qr_scan", "android": "https://dc.lft.to/lastmile_qr_scan"}, "lat": 38.9107295, "is_reserved": 0, "bike_id": "149f249c61c8c8039e245f220ac2c85a", "lon": -77.0303165, "is_disabled": 0, "fusion_lat": 0.0, "fusion_lon": 0.0, "name": "149f249c61c8c8039e245f220ac2c85a", "type": "electric_scooter"}, {"rental_uris": {"ios": "https://dc.lft.to/lastmile_qr_scan", "android": "https://dc.lft.to/lastmile_qr_scan"}, "lat": 38.857678, "is_reserved": 0, "bike_id": "79e37439d198c58bdf9416af92fe76cc", "lon": -76.98753416666666, "is_disabled": 0, "fusion_lat": 0.0, "fusion_lon": 0.0, "name": "79e37439d198c58bdf9416af92fe76cc", "type": "electric_bike"}, {"rental_uris": {"ios": "https://dc.lft.to/lastmile_qr_scan", "android": "https://dc.lft.to/lastmile_qr_scan"}, "lat": 38.90931466666667, "is_reserved": 0, "bike_id": "fddc1f472bdd991f4cc7666118acc6c5", "lon": -77.02691666666666, "is_disabled": 0, "fusion_lat": 0.0, "fusion_lon": 0.0, "name": "fddc1f472bdd991f4cc7666118acc6c5", "type": "electric_scooter"}, {"rental_uris": {"ios": "https://dc.lft.to/lastmile_qr_scan", "android": "https://dc.lft.to/lastmile_qr_scan"}, "lat": 38.90217283333333, "is_reserved": 0, "bike_id": "c4daebf5ee536689fd23a68d29b1a064", "lon": -77.04535933333334, "is_disabled": 0, "fusion_lat": 0.0, "fusion_lon": 0.0, "name": "c4daebf5ee536689fd23a68d29b1a064", "type": "electric_scooter"}, {"rental_uris": {"ios": "https://dc.lft.to/lastmile_qr_scan", "android": "https://dc.lft.to/lastmile_qr_scan"}, "lat": 38.91968933333333, "is_reserved": 0, "bike_id": "ed24bb4f1e75b93a1338b2b762613b75", "lon": -77.023706, "is_disabled": 0, "fusion_lat": 0.0, "fusion_lon": 0.0, "name": "ed24bb4f1e75b93a1338b2b762613b75", "type": "electric_scooter"}, {"rental_uris": {"ios": "https://dc.lft.to/lastmile_qr_scan", "android": "https://dc.lft.to/lastmile_qr_scan"}, "lat": 38.911154833333335, "is_reserved": 0, "bike_id": "6b3196d68020511aee1a42af21e146af", "lon": -77.0224145, "is_disabled": 0, "fusion_lat": 0.0, "fusion_lon": 0.0, "name": "6b3196d68020511aee1a42af21e146af", "type": "electric_scooter"}, {"rental_uris": {"ios": "https://dc.lft.to/lastmile_qr_scan", "android": "https://dc.lft.to/lastmile_qr_scan"}, "lat": 38.85792083333333, "is_reserved": 0, "bike_id": "2f13c677a0ee65fbb43732ea74149b61", "lon": -76.9891775, "is_disabled": 0, "fusion_lat": 0.0, "fusion_lon": 0.0, "name": "2f13c677a0ee65fbb43732ea74149b61", "type": "electric_scooter"}, {"rental_uris": {"ios": "https://dc.lft.to/lastmile_qr_scan", "android": "https://dc.lft.to/lastmile_qr_scan"}, "lat": 38.91359283333333, "is_reserved": 0, "bike_id": "3fe20d661b5e2ba4b4045ac8ace947ba", "lon": -77.0448715, "is_disabled": 0, "fusion_lat": 0.0, "fusion_lon": 0.0, "name": "3fe20d661b5e2ba4b4045ac8ace947ba", "type": "electric_scooter"}, {"rental_uris": {"ios": "https://dc.lft.to/lastmile_qr_scan", "android": "https://dc.lft.to/lastmile_qr_scan"}, "lat": 38.798505666666664, "is_reserved": 0, "bike_id": "805a4fab394358da10f8a35c109ef6c0", "lon": -77.06308616666666, "is_disabled": 0, "fusion_lat": 0.0, "fusion_lon": 0.0, "name": "805a4fab394358da10f8a35c109ef6c0", "type": "electric_bike"}, {"rental_uris": {"ios": "https://dc.lft.to/lastmile_qr_scan", "android": "https://dc.lft.to/lastmile_qr_scan"}, "lat": 38.866515, "is_reserved": 0, "bike_id": "d158b020000a327051d22f34c7aba359", "lon": -76.98884683333333, "is_disabled": 0, "fusion_lat": 0.0, "fusion_lon": 0.0, "name": "d158b020000a327051d22f34c7aba359", "type": "electric_scooter"}, {"rental_uris": {"ios": "https://dc.lft.to/lastmile_qr_scan", "android": "https://dc.lft.to/lastmile_qr_scan"}, "lat": 38.944347666666665, "is_reserved": 0, "bike_id": "fcd06addc301adbe93f2c013b65e0fdb", "lon": -77.0260615, "is_disabled": 0, "fusion_lat": 0.0, "fusion_lon": 0.0, "name": "fcd06addc301adbe93f2c013b65e0fdb", "type": "electric_bike"}, {"rental_uris": {"ios": "https://dc.lft.to/lastmile_qr_scan", "android": "https://dc.lft.to/lastmile_qr_scan"}, "lat": 38.87986733333334, "is_reserved": 0, "bike_id": "f0b70efe8c7d479233e5f2e7163f7d3a", "lon": -77.02409283333333, "is_disabled": 0, "fusion_lat": 0.0, "fusion_lon": 0.0, "name": "f0b70efe8c7d479233e5f2e7163f7d3a", "type": "electric_scooter"}, {"rental_uris": {"ios": "https://dc.lft.to/lastmile_qr_scan", "android": "https://dc.lft.to/lastmile_qr_scan"}, "lat": 38.95248333333333, "is_reserved": 0, "bike_id": "fe46ce5535ceea4409d247f613bfff42", "lon": -77.007016, "is_disabled": 0, "fusion_lat": 0.0, "fusion_lon": 0.0, "name": "fe46ce5535ceea4409d247f613bfff42", "type": "electric_scooter"}, {"rental_uris": {"ios": "https://dc.lft.to/lastmile_qr_scan", "android": "https://dc.lft.to/lastmile_qr_scan"}, "lat": 38.887285166666665, "is_reserved": 0, "bike_id": "f0e97ebf1ab2db6dc4feedaea0b70377", "lon": -77.0283325, "is_disabled": 0, "fusion_lat": 0.0, "fusion_lon": 0.0, "name": "f0e97ebf1ab2db6dc4feedaea0b70377", "type": "electric_scooter"}, {"rental_uris": {"ios": "https://dc.lft.to/lastmile_qr_scan", "android": "https://dc.lft.to/lastmile_qr_scan"}, "lat": 38.902682, "is_reserved": 0, "bike_id": "e2ed4d3db10d0d9ed3240d03c173e795", "lon": -77.03851183333333, "is_disabled": 0, "fusion_lat": 0.0, "fusion_lon": 0.0, "name": "e2ed4d3db10d0d9ed3240d03c173e795", "type": "electric_scooter"}, {"rental_uris": {"ios": "https://dc.lft.to/lastmile_qr_scan", "android": "https://dc.lft.to/lastmile_qr_scan"}, "lat": 38.90097983333333, "is_reserved": 0, "bike_id": "af429d23d76e9cfc1ddff327b573a812", "lon": -77.02783566666666, "is_disabled": 0, "fusion_lat": 0.0, "fusion_lon": 0.0, "name": "af429d23d76e9cfc1ddff327b573a812", "type": "electric_scooter"}, {"rental_uris": {"ios": "https://dc.lft.to/lastmile_qr_scan", "android": "https://dc.lft.to/lastmile_qr_scan"}, "lat": 38.8789935, "is_reserved": 0, "bike_id": "88eb6818a52a64fdd3a4eb71779c538a", "lon": -77.01373483333333, "is_disabled": 0, "fusion_lat": 0.0, "fusion_lon": 0.0, "name": "88eb6818a52a64fdd3a4eb71779c538a", "type": "electric_scooter"}, {"rental_uris": {"ios": "https://dc.lft.to/lastmile_qr_scan", "android": "https://dc.lft.to/lastmile_qr_scan"}, "lat": 38.899584833333336, "is_reserved": 0, "bike_id": "dafa56f69dc3e0f532fbc793547c6460", "lon": -77.01622333333333, "is_disabled": 0, "fusion_lat": 0.0, "fusion_lon": 0.0, "name": "dafa56f69dc3e0f532fbc793547c6460", "type": "electric_scooter"}, {"rental_uris": {"ios": "https://dc.lft.to/lastmile_qr_scan", "android": "https://dc.lft.to/lastmile_qr_scan"}, "lat": 38.95871316666667, "is_reserved": 0, "bike_id": "071e5583ed0f24ecb92309c8a0c02722", "lon": -76.97052333333333, "is_disabled": 0, "fusion_lat": 0.0, "fusion_lon": 0.0, "name": "071e5583ed0f24ecb92309c8a0c02722", "type": "electric_bike"}, {"rental_uris": {"ios": "https://dc.lft.to/lastmile_qr_scan", "android": "https://dc.lft.to/lastmile_qr_scan"}, "lat": 38.91258216666667, "is_reserved": 0, "bike_id": "3cd794c0b65642ef4effb104e420136f", "lon": -77.02221933333334, "is_disabled": 0, "fusion_lat": 0.0, "fusion_lon": 0.0, "name": "3cd794c0b65642ef4effb104e420136f", "type": "electric_scooter"}, {"rental_uris": {"ios": "https://dc.lft.to/lastmile_qr_scan", "android": "https://dc.lft.to/lastmile_qr_scan"}, "lat": 38.903394, "is_reserved": 0, "bike_id": "e39410170f71c50f925ff0469545bb5b", "lon": -77.0201005, "is_disabled": 0, "fusion_lat": 0.0, "fusion_lon": 0.0, "name": "e39410170f71c50f925ff0469545bb5b", "type": "electric_scooter"}, {"rental_uris": {"ios": "https://dc.lft.to/lastmile_qr_scan", "android": "https://dc.lft.to/lastmile_qr_scan"}, "lat": 38.934226833333334, "is_reserved": 0, "bike_id": "a37e9a960c01ee57b196f78e47a1f6d8", "lon": -77.039988, "is_disabled": 0, "fusion_lat": 0.0, "fusion_lon": 0.0, "name": "a37e9a960c01ee57b196f78e47a1f6d8", "type": "electric_scooter"}, {"rental_uris": {"ios": "https://dc.lft.to/lastmile_qr_scan", "android": "https://dc.lft.to/lastmile_qr_scan"}, "lat": 38.9289755, "is_reserved": 0, "bike_id": "ad2f447e716a5201cea6c464d6ca05bc", "lon": -77.0325045, "is_disabled": 0, "fusion_lat": 0.0, "fusion_lon": 0.0, "name": "ad2f447e716a5201cea6c464d6ca05bc", "type": "electric_scooter"}, {"rental_uris": {"ios": "https://dc.lft.to/lastmile_qr_scan", "android": "https://dc.lft.to/lastmile_qr_scan"}, "lat": 38.97233333333333, "is_reserved": 0, "bike_id": "3bccf1ed79a6900ec719ee2dadb74926", "lon": -77.027079, "is_disabled": 0, "fusion_lat": 0.0, "fusion_lon": 0.0, "name": "3bccf1ed79a6900ec719ee2dadb74926", "type": "electric_scooter"}, {"rental_uris": {"ios": "https://dc.lft.to/lastmile_qr_scan", "android": "https://dc.lft.to/lastmile_qr_scan"}, "lat": 38.918093666666664, "is_reserved": 0, "bike_id": "74b33bad752d2caa4245d54f979d7970", "lon": -77.03718183333334, "is_disabled": 0, "fusion_lat": 0.0, "fusion_lon": 0.0, "name": "74b33bad752d2caa4245d54f979d7970", "type": "electric_scooter"}, {"rental_uris": {"ios": "https://dc.lft.to/lastmile_qr_scan", "android": "https://dc.lft.to/lastmile_qr_scan"}, "lat": 38.9268545, "is_reserved": 0, "bike_id": "e47a8cf1a86090bf623148fd192d6184", "lon": -77.032297, "is_disabled": 0, "fusion_lat": 0.0, "fusion_lon": 0.0, "name": "e47a8cf1a86090bf623148fd192d6184", "type": "electric_scooter"}, {"rental_uris": {"ios": "https://dc.lft.to/lastmile_qr_scan", "android": "https://dc.lft.to/lastmile_qr_scan"}, "lat": 38.89909733333333, "is_reserved": 0, "bike_id": "deec9885241e12b7cd35e5b28a032e79", "lon": -77.02804283333333, "is_disabled": 0, "fusion_lat": 0.0, "fusion_lon": 0.0, "name": "deec9885241e12b7cd35e5b28a032e79", "type": "electric_scooter"}, {"rental_uris": {"ios": "https://dc.lft.to/lastmile_qr_scan", "android": "https://dc.lft.to/lastmile_qr_scan"}, "lat": 38.9076725, "is_reserved": 0, "bike_id": "300a7114751f8e399f1528d300be661b", "lon": -77.03837116666666, "is_disabled": 0, "fusion_lat": 0.0, "fusion_lon": 0.0, "name": "300a7114751f8e399f1528d300be661b", "type": "electric_scooter"}, {"rental_uris": {"ios": "https://dc.lft.to/lastmile_qr_scan", "android": "https://dc.lft.to/lastmile_qr_scan"}, "lat": 38.90712933333333, "is_reserved": 0, "bike_id": "6d60f2a89c2222ce3b3a4574335daf77", "lon": -77.00215916666667, "is_disabled": 0, "fusion_lat": 0.0, "fusion_lon": 0.0, "name": "6d60f2a89c2222ce3b3a4574335daf77", "type": "electric_scooter"}, {"rental_uris": {"ios": "https://dc.lft.to/lastmile_qr_scan", "android": "https://dc.lft.to/lastmile_qr_scan"}, "lat": 38.919238, "is_reserved": 0, "bike_id": "f7da422cbcb4bb119d7801a1d971ee57", "lon": -77.034175, "is_disabled": 0, "fusion_lat": 0.0, "fusion_lon": 0.0, "name": "f7da422cbcb4bb119d7801a1d971ee57", "type": "electric_scooter"}, {"rental_uris": {"ios": "https://dc.lft.to/lastmile_qr_scan", "android": "https://dc.lft.to/lastmile_qr_scan"}, "lat": 38.903733333333335, "is_reserved": 0, "bike_id": "749607296dbec657b73db7ef61765451", "lon": -77.0365085, "is_disabled": 0, "fusion_lat": 0.0, "fusion_lon": 0.0, "name": "749607296dbec657b73db7ef61765451", "type": "electric_scooter"}, {"rental_uris": {"ios": "https://dc.lft.to/lastmile_qr_scan", "android": "https://dc.lft.to/lastmile_qr_scan"}, "lat": 38.899283, "is_reserved": 0, "bike_id": "b23bfaca439ed1aced09bbf2750c6efb", "lon": -77.041613, "is_disabled": 0, "fusion_lat": 0.0, "fusion_lon": 0.0, "name": "b23bfaca439ed1aced09bbf2750c6efb", "type": "electric_scooter"}, {"rental_uris": {"ios": "https://dc.lft.to/lastmile_qr_scan", "android": "https://dc.lft.to/lastmile_qr_scan"}, "lat": 38.902579833333334, "is_reserved": 0, "bike_id": "55bbbecc8784dca6db42b6d9b37c502a", "lon": -77.039597, "is_disabled": 0, "fusion_lat": 0.0, "fusion_lon": 0.0, "name": "55bbbecc8784dca6db42b6d9b37c502a", "type": "electric_scooter"}, {"rental_uris": {"ios": "https://dc.lft.to/lastmile_qr_scan", "android": "https://dc.lft.to/lastmile_qr_scan"}, "lat": 38.917105166666666, "is_reserved": 0, "bike_id": "f9c901e19afcd215b27c45d5965f82ee", "lon": -77.02787483333333, "is_disabled": 0, "fusion_lat": 0.0, "fusion_lon": 0.0, "name": "f9c901e19afcd215b27c45d5965f82ee", "type": "electric_scooter"}, {"rental_uris": {"ios": "https://dc.lft.to/lastmile_qr_scan", "android": "https://dc.lft.to/lastmile_qr_scan"}, "lat": 38.91062516666667, "is_reserved": 0, "bike_id": "f26701e70ea1b8f891e4f87f15c494dc", "lon": -77.00455783333334, "is_disabled": 0, "fusion_lat": 0.0, "fusion_lon": 0.0, "name": "f26701e70ea1b8f891e4f87f15c494dc", "type": "electric_scooter"}, {"rental_uris": {"ios": "https://dc.lft.to/lastmile_qr_scan", "android": "https://dc.lft.to/lastmile_qr_scan"}, "lat": 38.92345516666666, "is_reserved": 0, "bike_id": "1cdf4c9af2ec05e617adbc6301c25136", "lon": -77.04149383333333, "is_disabled": 0, "fusion_lat": 0.0, "fusion_lon": 0.0, "name": "1cdf4c9af2ec05e617adbc6301c25136", "type": "electric_scooter"}, {"rental_uris": {"ios": "https://dc.lft.to/lastmile_qr_scan", "android": "https://dc.lft.to/lastmile_qr_scan"}, "lat": 38.89233216666667, "is_reserved": 0, "bike_id": "b726e335c03c4734f3ff501b608d9050", "lon": -77.03209283333334, "is_disabled": 0, "fusion_lat": 0.0, "fusion_lon": 0.0, "name": "b726e335c03c4734f3ff501b608d9050", "type": "electric_scooter"}, {"rental_uris": {"ios": "https://dc.lft.to/lastmile_qr_scan", "android": "https://dc.lft.to/lastmile_qr_scan"}, "lat": 38.90852683333333, "is_reserved": 0, "bike_id": "35cab3322052aed598b63e3ea090a83c", "lon": -77.01969266666667, "is_disabled": 0, "fusion_lat": 0.0, "fusion_lon": 0.0, "name": "35cab3322052aed598b63e3ea090a83c", "type": "electric_scooter"}, {"rental_uris": {"ios": "https://dc.lft.to/lastmile_qr_scan", "android": "https://dc.lft.to/lastmile_qr_scan"}, "lat": 38.877777, "is_reserved": 0, "bike_id": "01011d3965b93857f9cdf18cc6f3f1b5", "lon": -76.99415433333333, "is_disabled": 0, "fusion_lat": 0.0, "fusion_lon": 0.0, "name": "01011d3965b93857f9cdf18cc6f3f1b5", "type": "electric_scooter"}, {"rental_uris": {"ios": "https://dc.lft.to/lastmile_qr_scan", "android": "https://dc.lft.to/lastmile_qr_scan"}, "lat": 38.92049216666667, "is_reserved": 0, "bike_id": "22fb55fd25d872d666f22da8a7e242f3", "lon": -77.03445866666667, "is_disabled": 0, "fusion_lat": 0.0, "fusion_lon": 0.0, "name": "22fb55fd25d872d666f22da8a7e242f3", "type": "electric_scooter"}, {"rental_uris": {"ios": "https://dc.lft.to/lastmile_qr_scan", "android": "https://dc.lft.to/lastmile_qr_scan"}, "lat": 38.92866083333333, "is_reserved": 0, "bike_id": "a6169e7db64ede0fc1f06deda23ed72f", "lon": -77.03319, "is_disabled": 0, "fusion_lat": 0.0, "fusion_lon": 0.0, "name": "a6169e7db64ede0fc1f06deda23ed72f", "type": "electric_scooter"}, {"rental_uris": {"ios": "https://dc.lft.to/lastmile_qr_scan", "android": "https://dc.lft.to/lastmile_qr_scan"}, "lat": 38.904091, "is_reserved": 0, "bike_id": "58881ccd97213d82f07249ce7890094c", "lon": -76.97330533333333, "is_disabled": 0, "fusion_lat": 0.0, "fusion_lon": 0.0, "name": "58881ccd97213d82f07249ce7890094c", "type": "electric_scooter"}, {"rental_uris": {"ios": "https://dc.lft.to/lastmile_qr_scan", "android": "https://dc.lft.to/lastmile_qr_scan"}, "lat": 38.804420666666665, "is_reserved": 0, "bike_id": "939a205859a282493786807518a18ca6", "lon": -77.05396016666667, "is_disabled": 0, "fusion_lat": 0.0, "fusion_lon": 0.0, "name": "939a205859a282493786807518a18ca6", "type": "electric_bike"}, {"rental_uris": {"ios": "https://dc.lft.to/lastmile_qr_scan", "android": "https://dc.lft.to/lastmile_qr_scan"}, "lat": 38.926844333333335, "is_reserved": 0, "bike_id": "0857c9fa51d53a14e5e4bd39224464af", "lon": -77.0150155, "is_disabled": 0, "fusion_lat": 0.0, "fusion_lon": 0.0, "name": "0857c9fa51d53a14e5e4bd39224464af", "type": "electric_scooter"}, {"rental_uris": {"ios": "https://dc.lft.to/lastmile_qr_scan", "android": "https://dc.lft.to/lastmile_qr_scan"}, "lat": 38.898441, "is_reserved": 0, "bike_id": "6ebd4e38632faa197aab39f1dfa7155d", "lon": -77.04162166666667, "is_disabled": 0, "fusion_lat": 0.0, "fusion_lon": 0.0, "name": "6ebd4e38632faa197aab39f1dfa7155d", "type": "electric_scooter"}, {"rental_uris": {"ios": "https://dc.lft.to/lastmile_qr_scan", "android": "https://dc.lft.to/lastmile_qr_scan"}, "lat": 38.90319266666667, "is_reserved": 0, "bike_id": "ccc26979ba6dbe51cf927a5bb793fd9c", "lon": -77.03456766666666, "is_disabled": 0, "fusion_lat": 0.0, "fusion_lon": 0.0, "name": "ccc26979ba6dbe51cf927a5bb793fd9c", "type": "electric_scooter"}, {"rental_uris": {"ios": "https://dc.lft.to/lastmile_qr_scan", "android": "https://dc.lft.to/lastmile_qr_scan"}, "lat": 38.919806666666666, "is_reserved": 0, "bike_id": "08dd764ba0b3ea58f8b078ee1f5437de", "lon": -77.0710735, "is_disabled": 0, "fusion_lat": 0.0, "fusion_lon": 0.0, "name": "08dd764ba0b3ea58f8b078ee1f5437de", "type": "electric_scooter"}, {"rental_uris": {"ios": "https://dc.lft.to/lastmile_qr_scan", "android": "https://dc.lft.to/lastmile_qr_scan"}, "lat": 38.90632816666667, "is_reserved": 0, "bike_id": "8aa981a7832699e57ee16d8ff2e98775", "lon": -77.0486375, "is_disabled": 0, "fusion_lat": 0.0, "fusion_lon": 0.0, "name": "8aa981a7832699e57ee16d8ff2e98775", "type": "electric_scooter"}, {"rental_uris": {"ios": "https://dc.lft.to/lastmile_qr_scan", "android": "https://dc.lft.to/lastmile_qr_scan"}, "lat": 38.908430333333335, "is_reserved": 0, "bike_id": "9c345bb42b3d19f558b600e5a28484cb", "lon": -77.0393915, "is_disabled": 0, "fusion_lat": 0.0, "fusion_lon": 0.0, "name": "9c345bb42b3d19f558b600e5a28484cb", "type": "electric_scooter"}, {"rental_uris": {"ios": "https://dc.lft.to/lastmile_qr_scan", "android": "https://dc.lft.to/lastmile_qr_scan"}, "lat": 38.934401, "is_reserved": 0, "bike_id": "cfc5603dc5807ded6fbd66b07cde044e", "lon": -77.029856, "is_disabled": 0, "fusion_lat": 0.0, "fusion_lon": 0.0, "name": "cfc5603dc5807ded6fbd66b07cde044e", "type": "electric_scooter"}, {"rental_uris": {"ios": "https://dc.lft.to/lastmile_qr_scan", "android": "https://dc.lft.to/lastmile_qr_scan"}, "lat": 38.8961505, "is_reserved": 0, "bike_id": "213abb4a646853ec6c17bb8f042451d8", "lon": -76.90743133333334, "is_disabled": 0, "fusion_lat": 0.0, "fusion_lon": 0.0, "name": "213abb4a646853ec6c17bb8f042451d8", "type": "electric_bike"}, {"rental_uris": {"ios": "https://dc.lft.to/lastmile_qr_scan", "android": "https://dc.lft.to/lastmile_qr_scan"}, "lat": 38.914272, "is_reserved": 0, "bike_id": "cce97171809e57d8ac783afdc738d15f", "lon": -77.03176383333333, "is_disabled": 0, "fusion_lat": 0.0, "fusion_lon": 0.0, "name": "cce97171809e57d8ac783afdc738d15f", "type": "electric_scooter"}, {"rental_uris": {"ios": "https://dc.lft.to/lastmile_qr_scan", "android": "https://dc.lft.to/lastmile_qr_scan"}, "lat": 38.97532966666667, "is_reserved": 0, "bike_id": "0636c682b11bc24f3eb38069598f2293", "lon": -77.01689516666667, "is_disabled": 0, "fusion_lat": 0.0, "fusion_lon": 0.0, "name": "0636c682b11bc24f3eb38069598f2293", "type": "electric_bike"}, {"rental_uris": {"ios": "https://dc.lft.to/lastmile_qr_scan", "android": "https://dc.lft.to/lastmile_qr_scan"}, "lat": 38.948106333333335, "is_reserved": 0, "bike_id": "9c6d69bb3d4ca741bb76f6dfb03ec7f1", "lon": -77.02143316666667, "is_disabled": 0, "fusion_lat": 0.0, "fusion_lon": 0.0, "name": "9c6d69bb3d4ca741bb76f6dfb03ec7f1", "type": "electric_scooter"}, {"rental_uris": {"ios": "https://dc.lft.to/lastmile_qr_scan", "android": "https://dc.lft.to/lastmile_qr_scan"}, "lat": 38.92063983333333, "is_reserved": 0, "bike_id": "6fc49597159b29ca2c5f8dcae2957cea", "lon": -76.98194, "is_disabled": 0, "fusion_lat": 0.0, "fusion_lon": 0.0, "name": "6fc49597159b29ca2c5f8dcae2957cea", "type": "electric_scooter"}, {"rental_uris": {"ios": "https://dc.lft.to/lastmile_qr_scan", "android": "https://dc.lft.to/lastmile_qr_scan"}, "lat": 38.923609, "is_reserved": 0, "bike_id": "a3a35d82fc8d37f7bf3d0283bceb4393", "lon": -77.0503015, "is_disabled": 0, "fusion_lat": 0.0, "fusion_lon": 0.0, "name": "a3a35d82fc8d37f7bf3d0283bceb4393", "type": "electric_scooter"}, {"rental_uris": {"ios": "https://dc.lft.to/lastmile_qr_scan", "android": "https://dc.lft.to/lastmile_qr_scan"}, "lat": 38.866818, "is_reserved": 0, "bike_id": "d8804097d7a02330ccc8fb559df02e79", "lon": -76.98566633333333, "is_disabled": 0, "fusion_lat": 0.0, "fusion_lon": 0.0, "name": "d8804097d7a02330ccc8fb559df02e79", "type": "electric_scooter"}, {"rental_uris": {"ios": "https://dc.lft.to/lastmile_qr_scan", "android": "https://dc.lft.to/lastmile_qr_scan"}, "lat": 38.89228216666667, "is_reserved": 0, "bike_id": "a29780f23ceacb07a52dfbfbb0b7e5f7", "lon": -77.0220795, "is_disabled": 0, "fusion_lat": 0.0, "fusion_lon": 0.0, "name": "a29780f23ceacb07a52dfbfbb0b7e5f7", "type": "electric_scooter"}, {"rental_uris": {"ios": "https://dc.lft.to/lastmile_qr_scan", "android": "https://dc.lft.to/lastmile_qr_scan"}, "lat": 38.877280999999996, "is_reserved": 0, "bike_id": "c719a07ab570a6e3395c62a8cb303eec", "lon": -77.0043045, "is_disabled": 0, "fusion_lat": 0.0, "fusion_lon": 0.0, "name": "c719a07ab570a6e3395c62a8cb303eec", "type": "electric_scooter"}, {"rental_uris": {"ios": "https://dc.lft.to/lastmile_qr_scan", "android": "https://dc.lft.to/lastmile_qr_scan"}, "lat": 38.99092983333333, "is_reserved": 0, "bike_id": "01aced59e8bece41c7237a4e804cbe46", "lon": -76.99368916666667, "is_disabled": 0, "fusion_lat": 0.0, "fusion_lon": 0.0, "name": "01aced59e8bece41c7237a4e804cbe46", "type": "electric_bike"}, {"rental_uris": {"ios": "https://dc.lft.to/lastmile_qr_scan", "android": "https://dc.lft.to/lastmile_qr_scan"}, "lat": 38.892187666666665, "is_reserved": 0, "bike_id": "536a74405aa91a241c9727b11384ea66", "lon": -77.02501316666667, "is_disabled": 0, "fusion_lat": 0.0, "fusion_lon": 0.0, "name": "536a74405aa91a241c9727b11384ea66", "type": "electric_scooter"}, {"rental_uris": {"ios": "https://dc.lft.to/lastmile_qr_scan", "android": "https://dc.lft.to/lastmile_qr_scan"}, "lat": 38.936886333333334, "is_reserved": 0, "bike_id": "09b2fa866abc5ac6e533c75f834c5ca1", "lon": -76.99062583333334, "is_disabled": 0, "fusion_lat": 0.0, "fusion_lon": 0.0, "name": "09b2fa866abc5ac6e533c75f834c5ca1", "type": "electric_bike"}, {"rental_uris": {"ios": "https://dc.lft.to/lastmile_qr_scan", "android": "https://dc.lft.to/lastmile_qr_scan"}, "lat": 38.8997425, "is_reserved": 0, "bike_id": "e7a44937aabbc4592cd977322caaab67", "lon": -76.99495983333334, "is_disabled": 0, "fusion_lat": 0.0, "fusion_lon": 0.0, "name": "e7a44937aabbc4592cd977322caaab67", "type": "electric_scooter"}, {"rental_uris": {"ios": "https://dc.lft.to/lastmile_qr_scan", "android": "https://dc.lft.to/lastmile_qr_scan"}, "lat": 38.938810833333335, "is_reserved": 0, "bike_id": "b0c6778311e8eb17f73b020c6085f683", "lon": -77.02484716666666, "is_disabled": 0, "fusion_lat": 0.0, "fusion_lon": 0.0, "name": "b0c6778311e8eb17f73b020c6085f683", "type": "electric_scooter"}, {"rental_uris": {"ios": "https://dc.lft.to/lastmile_qr_scan", "android": "https://dc.lft.to/lastmile_qr_scan"}, "lat": 38.938629166666665, "is_reserved": 0, "bike_id": "197b033ec277b2e8f75eda56d9347acc", "lon": -77.02789616666666, "is_disabled": 0, "fusion_lat": 0.0, "fusion_lon": 0.0, "name": "197b033ec277b2e8f75eda56d9347acc", "type": "electric_scooter"}, {"rental_uris": {"ios": "https://dc.lft.to/lastmile_qr_scan", "android": "https://dc.lft.to/lastmile_qr_scan"}, "lat": 38.921408666666665, "is_reserved": 0, "bike_id": "859991ecd5957c3c65f79df1c05c938e", "lon": -77.01813233333333, "is_disabled": 0, "fusion_lat": 0.0, "fusion_lon": 0.0, "name": "859991ecd5957c3c65f79df1c05c938e", "type": "electric_scooter"}, {"rental_uris": {"ios": "https://dc.lft.to/lastmile_qr_scan", "android": "https://dc.lft.to/lastmile_qr_scan"}, "lat": 38.91807166666667, "is_reserved": 0, "bike_id": "4cb6673d772f46ee86a8cdea50efffdc", "lon": -77.03861483333333, "is_disabled": 0, "fusion_lat": 0.0, "fusion_lon": 0.0, "name": "4cb6673d772f46ee86a8cdea50efffdc", "type": "electric_scooter"}, {"rental_uris": {"ios": "https://dc.lft.to/lastmile_qr_scan", "android": "https://dc.lft.to/lastmile_qr_scan"}, "lat": 38.896227833333334, "is_reserved": 0, "bike_id": "5aefa0119da371e7619c7302bdbd7429", "lon": -77.04082983333333, "is_disabled": 0, "fusion_lat": 0.0, "fusion_lon": 0.0, "name": "5aefa0119da371e7619c7302bdbd7429", "type": "electric_scooter"}, {"rental_uris": {"ios": "https://dc.lft.to/lastmile_qr_scan", "android": "https://dc.lft.to/lastmile_qr_scan"}, "lat": 38.90007816666667, "is_reserved": 0, "bike_id": "9a30c6a5972c16d25c0f67084d1224d4", "lon": -76.98838383333333, "is_disabled": 0, "fusion_lat": 0.0, "fusion_lon": 0.0, "name": "9a30c6a5972c16d25c0f67084d1224d4", "type": "electric_scooter"}, {"rental_uris": {"ios": "https://dc.lft.to/lastmile_qr_scan", "android": "https://dc.lft.to/lastmile_qr_scan"}, "lat": 38.9259665, "is_reserved": 0, "bike_id": "6db081d944bc1899eb9dcb3a4f6a3dfc", "lon": -77.02156766666667, "is_disabled": 0, "fusion_lat": 0.0, "fusion_lon": 0.0, "name": "6db081d944bc1899eb9dcb3a4f6a3dfc", "type": "electric_scooter"}, {"rental_uris": {"ios": "https://dc.lft.to/lastmile_qr_scan", "android": "https://dc.lft.to/lastmile_qr_scan"}, "lat": 38.9387865, "is_reserved": 0, "bike_id": "f3c11fc3c35145b495f2ab73f484e458", "lon": -77.03285083333333, "is_disabled": 0, "fusion_lat": 0.0, "fusion_lon": 0.0, "name": "f3c11fc3c35145b495f2ab73f484e458", "type": "electric_scooter"}, {"rental_uris": {"ios": "https://dc.lft.to/lastmile_qr_scan", "android": "https://dc.lft.to/lastmile_qr_scan"}, "lat": 38.89521466666667, "is_reserved": 0, "bike_id": "6feae1601b460ea967454b037e8158bc", "lon": -77.02701016666667, "is_disabled": 0, "fusion_lat": 0.0, "fusion_lon": 0.0, "name": "6feae1601b460ea967454b037e8158bc", "type": "electric_scooter"}, {"rental_uris": {"ios": "https://dc.lft.to/lastmile_qr_scan", "android": "https://dc.lft.to/lastmile_qr_scan"}, "lat": 38.91690966666667, "is_reserved": 0, "bike_id": "375fe455cd7899dc5a3b0968f5aa23bb", "lon": -77.03766733333333, "is_disabled": 0, "fusion_lat": 0.0, "fusion_lon": 0.0, "name": "375fe455cd7899dc5a3b0968f5aa23bb", "type": "electric_scooter"}, {"rental_uris": {"ios": "https://dc.lft.to/lastmile_qr_scan", "android": "https://dc.lft.to/lastmile_qr_scan"}, "lat": 38.8988895, "is_reserved": 0, "bike_id": "b9c30289fbd6960c69927bbac74241d7", "lon": -77.00751216666667, "is_disabled": 0, "fusion_lat": 0.0, "fusion_lon": 0.0, "name": "b9c30289fbd6960c69927bbac74241d7", "type": "electric_scooter"}, {"rental_uris": {"ios": "https://dc.lft.to/lastmile_qr_scan", "android": "https://dc.lft.to/lastmile_qr_scan"}, "lat": 38.912598333333335, "is_reserved": 0, "bike_id": "0b1c1181a5bea621ec99c45deff82530", "lon": -77.045745, "is_disabled": 0, "fusion_lat": 0.0, "fusion_lon": 0.0, "name": "0b1c1181a5bea621ec99c45deff82530", "type": "electric_scooter"}, {"rental_uris": {"ios": "https://dc.lft.to/lastmile_qr_scan", "android": "https://dc.lft.to/lastmile_qr_scan"}, "lat": 38.896663833333335, "is_reserved": 0, "bike_id": "44282be6ecf90a0a109f438910567deb", "lon": -76.93213733333333, "is_disabled": 0, "fusion_lat": 0.0, "fusion_lon": 0.0, "name": "44282be6ecf90a0a109f438910567deb", "type": "electric_scooter"}, {"rental_uris": {"ios": "https://dc.lft.to/lastmile_qr_scan", "android": "https://dc.lft.to/lastmile_qr_scan"}, "lat": 38.930221833333334, "is_reserved": 0, "bike_id": "ce21be3488fe983f84ac02d74cdd6cdc", "lon": -77.03790683333334, "is_disabled": 0, "fusion_lat": 0.0, "fusion_lon": 0.0, "name": "ce21be3488fe983f84ac02d74cdd6cdc", "type": "electric_scooter"}, {"rental_uris": {"ios": "https://dc.lft.to/lastmile_qr_scan", "android": "https://dc.lft.to/lastmile_qr_scan"}, "lat": 38.89963083333333, "is_reserved": 0, "bike_id": "69b1c36392f0e1264778ca6015b571e1", "lon": -77.04573366666666, "is_disabled": 0, "fusion_lat": 0.0, "fusion_lon": 0.0, "name": "69b1c36392f0e1264778ca6015b571e1", "type": "electric_scooter"}, {"rental_uris": {"ios": "https://dc.lft.to/lastmile_qr_scan", "android": "https://dc.lft.to/lastmile_qr_scan"}, "lat": 38.9109655, "is_reserved": 0, "bike_id": "83ba0f8772a6e429b90111fda9b035ff", "lon": -77.027224, "is_disabled": 0, "fusion_lat": 0.0, "fusion_lon": 0.0, "name": "83ba0f8772a6e429b90111fda9b035ff", "type": "electric_scooter"}, {"rental_uris": {"ios": "https://dc.lft.to/lastmile_qr_scan", "android": "https://dc.lft.to/lastmile_qr_scan"}, "lat": 38.89631083333333, "is_reserved": 0, "bike_id": "9e47e5b6478c192751fafc981b19c9b6", "lon": -77.04014083333334, "is_disabled": 0, "fusion_lat": 0.0, "fusion_lon": 0.0, "name": "9e47e5b6478c192751fafc981b19c9b6", "type": "electric_scooter"}, {"rental_uris": {"ios": "https://dc.lft.to/lastmile_qr_scan", "android": "https://dc.lft.to/lastmile_qr_scan"}, "lat": 38.875822, "is_reserved": 0, "bike_id": "3f5e3fdf63ea4c528cbb2944540caf17", "lon": -77.00419883333333, "is_disabled": 0, "fusion_lat": 0.0, "fusion_lon": 0.0, "name": "3f5e3fdf63ea4c528cbb2944540caf17", "type": "electric_scooter"}, {"rental_uris": {"ios": "https://dc.lft.to/lastmile_qr_scan", "android": "https://dc.lft.to/lastmile_qr_scan"}, "lat": 38.90286966666667, "is_reserved": 0, "bike_id": "ea8a7ab74fdb0dc20c050df61b466cc3", "lon": -77.02082666666666, "is_disabled": 0, "fusion_lat": 0.0, "fusion_lon": 0.0, "name": "ea8a7ab74fdb0dc20c050df61b466cc3", "type": "electric_scooter"}, {"rental_uris": {"ios": "https://dc.lft.to/lastmile_qr_scan", "android": "https://dc.lft.to/lastmile_qr_scan"}, "lat": 38.92081616666667, "is_reserved": 0, "bike_id": "cbb7a5d8ab628c2db90f002dd49d039d", "lon": -77.01813116666666, "is_disabled": 0, "fusion_lat": 0.0, "fusion_lon": 0.0, "name": "cbb7a5d8ab628c2db90f002dd49d039d", "type": "electric_scooter"}, {"rental_uris": {"ios": "https://dc.lft.to/lastmile_qr_scan", "android": "https://dc.lft.to/lastmile_qr_scan"}, "lat": 38.902740666666666, "is_reserved": 0, "bike_id": "f00b21b26e9e937e6ee4875b2840a69f", "lon": -77.03862216666667, "is_disabled": 0, "fusion_lat": 0.0, "fusion_lon": 0.0, "name": "f00b21b26e9e937e6ee4875b2840a69f", "type": "electric_scooter"}, {"rental_uris": {"ios": "https://dc.lft.to/lastmile_qr_scan", "android": "https://dc.lft.to/lastmile_qr_scan"}, "lat": 38.92248933333333, "is_reserved": 0, "bike_id": "c7ce229845018dcca83714ace1950fc5", "lon": -77.04258, "is_disabled": 0, "fusion_lat": 0.0, "fusion_lon": 0.0, "name": "c7ce229845018dcca83714ace1950fc5", "type": "electric_scooter"}, {"rental_uris": {"ios": "https://dc.lft.to/lastmile_qr_scan", "android": "https://dc.lft.to/lastmile_qr_scan"}, "lat": 38.906733833333334, "is_reserved": 0, "bike_id": "a1c14cebf9a8f0b94dd0473115db52dc", "lon": -77.03656166666667, "is_disabled": 0, "fusion_lat": 0.0, "fusion_lon": 0.0, "name": "a1c14cebf9a8f0b94dd0473115db52dc", "type": "electric_scooter"}, {"rental_uris": {"ios": "https://dc.lft.to/lastmile_qr_scan", "android": "https://dc.lft.to/lastmile_qr_scan"}, "lat": 38.923310666666666, "is_reserved": 0, "bike_id": "7618ef066e2b3502b2e6126702f90931", "lon": -77.0390015, "is_disabled": 0, "fusion_lat": 0.0, "fusion_lon": 0.0, "name": "7618ef066e2b3502b2e6126702f90931", "type": "electric_scooter"}, {"rental_uris": {"ios": "https://dc.lft.to/lastmile_qr_scan", "android": "https://dc.lft.to/lastmile_qr_scan"}, "lat": 38.928474333333334, "is_reserved": 0, "bike_id": "e38a6ae479a7c3c69e578b4f8e5ff876", "lon": -76.99601216666667, "is_disabled": 0, "fusion_lat": 0.0, "fusion_lon": 0.0, "name": "e38a6ae479a7c3c69e578b4f8e5ff876", "type": "electric_scooter"}, {"rental_uris": {"ios": "https://dc.lft.to/lastmile_qr_scan", "android": "https://dc.lft.to/lastmile_qr_scan"}, "lat": 38.903986833333335, "is_reserved": 0, "bike_id": "3a0acf28f8fecb4246a99bbad10752ea", "lon": -77.034595, "is_disabled": 0, "fusion_lat": 0.0, "fusion_lon": 0.0, "name": "3a0acf28f8fecb4246a99bbad10752ea", "type": "electric_scooter"}, {"rental_uris": {"ios": "https://dc.lft.to/lastmile_qr_scan", "android": "https://dc.lft.to/lastmile_qr_scan"}, "lat": 38.856047333333336, "is_reserved": 0, "bike_id": "4484c64d56f9904207741fac3b4d3ccb", "lon": -76.97854133333334, "is_disabled": 0, "fusion_lat": 0.0, "fusion_lon": 0.0, "name": "4484c64d56f9904207741fac3b4d3ccb", "type": "electric_scooter"}, {"rental_uris": {"ios": "https://dc.lft.to/lastmile_qr_scan", "android": "https://dc.lft.to/lastmile_qr_scan"}, "lat": 38.9289325, "is_reserved": 0, "bike_id": "c3039b23ca55841fc12d862195d5858b", "lon": -77.03257, "is_disabled": 0, "fusion_lat": 0.0, "fusion_lon": 0.0, "name": "c3039b23ca55841fc12d862195d5858b", "type": "electric_scooter"}, {"rental_uris": {"ios": "https://dc.lft.to/lastmile_qr_scan", "android": "https://dc.lft.to/lastmile_qr_scan"}, "lat": 38.9110865, "is_reserved": 0, "bike_id": "d80bfa9a21484db861489a4f32860a0e", "lon": -77.03832166666666, "is_disabled": 0, "fusion_lat": 0.0, "fusion_lon": 0.0, "name": "d80bfa9a21484db861489a4f32860a0e", "type": "electric_scooter"}, {"rental_uris": {"ios": "https://dc.lft.to/lastmile_qr_scan", "android": "https://dc.lft.to/lastmile_qr_scan"}, "lat": 38.887325833333335, "is_reserved": 0, "bike_id": "d4b3b508dd59b2e66ae61063affde819", "lon": -77.02583666666666, "is_disabled": 0, "fusion_lat": 0.0, "fusion_lon": 0.0, "name": "d4b3b508dd59b2e66ae61063affde819", "type": "electric_scooter"}, {"rental_uris": {"ios": "https://dc.lft.to/lastmile_qr_scan", "android": "https://dc.lft.to/lastmile_qr_scan"}, "lat": 38.92771166666667, "is_reserved": 0, "bike_id": "a85620d001c34d1ee27732c82bb948f5", "lon": -77.03708783333333, "is_disabled": 0, "fusion_lat": 0.0, "fusion_lon": 0.0, "name": "a85620d001c34d1ee27732c82bb948f5", "type": "electric_scooter"}, {"rental_uris": {"ios": "https://dc.lft.to/lastmile_qr_scan", "android": "https://dc.lft.to/lastmile_qr_scan"}, "lat": 38.935211, "is_reserved": 0, "bike_id": "525475e0f18047562bf239588b0c0fd1", "lon": -77.07657533333334, "is_disabled": 0, "fusion_lat": 0.0, "fusion_lon": 0.0, "name": "525475e0f18047562bf239588b0c0fd1", "type": "electric_scooter"}, {"rental_uris": {"ios": "https://dc.lft.to/lastmile_qr_scan", "android": "https://dc.lft.to/lastmile_qr_scan"}, "lat": 38.91394316666667, "is_reserved": 0, "bike_id": "1555093eeac32bf77c16272211a196aa", "lon": -77.03337133333333, "is_disabled": 0, "fusion_lat": 0.0, "fusion_lon": 0.0, "name": "1555093eeac32bf77c16272211a196aa", "type": "electric_scooter"}, {"rental_uris": {"ios": "https://dc.lft.to/lastmile_qr_scan", "android": "https://dc.lft.to/lastmile_qr_scan"}, "lat": 38.895043666666666, "is_reserved": 0, "bike_id": "21a430487c4179bf092381c4031b662e", "lon": -76.9347775, "is_disabled": 0, "fusion_lat": 0.0, "fusion_lon": 0.0, "name": "21a430487c4179bf092381c4031b662e", "type": "electric_scooter"}, {"rental_uris": {"ios": "https://dc.lft.to/lastmile_qr_scan", "android": "https://dc.lft.to/lastmile_qr_scan"}, "lat": 38.924587, "is_reserved": 0, "bike_id": "61e0d5599cb0497fc4abc7feab6ed6ae", "lon": -77.022195, "is_disabled": 0, "fusion_lat": 0.0, "fusion_lon": 0.0, "name": "61e0d5599cb0497fc4abc7feab6ed6ae", "type": "electric_scooter"}, {"rental_uris": {"ios": "https://dc.lft.to/lastmile_qr_scan", "android": "https://dc.lft.to/lastmile_qr_scan"}, "lat": 38.922597, "is_reserved": 0, "bike_id": "4af7ad72f45dde1ed92dc0a9ae0fc0b9", "lon": -77.04290733333333, "is_disabled": 0, "fusion_lat": 0.0, "fusion_lon": 0.0, "name": "4af7ad72f45dde1ed92dc0a9ae0fc0b9", "type": "electric_scooter"}, {"rental_uris": {"ios": "https://dc.lft.to/lastmile_qr_scan", "android": "https://dc.lft.to/lastmile_qr_scan"}, "lat": 38.89866966666666, "is_reserved": 0, "bike_id": "84f48bd1240b4e95b194314496a53ec5", "lon": -76.94645916666667, "is_disabled": 0, "fusion_lat": 0.0, "fusion_lon": 0.0, "name": "84f48bd1240b4e95b194314496a53ec5", "type": "electric_scooter"}, {"rental_uris": {"ios": "https://dc.lft.to/lastmile_qr_scan", "android": "https://dc.lft.to/lastmile_qr_scan"}, "lat": 38.898331166666665, "is_reserved": 0, "bike_id": "9cc47493a0071f410ac18275c3a0cae5", "lon": -77.04698933333333, "is_disabled": 0, "fusion_lat": 0.0, "fusion_lon": 0.0, "name": "9cc47493a0071f410ac18275c3a0cae5", "type": "electric_scooter"}, {"rental_uris": {"ios": "https://dc.lft.to/lastmile_qr_scan", "android": "https://dc.lft.to/lastmile_qr_scan"}, "lat": 38.89222783333334, "is_reserved": 0, "bike_id": "a1bbc1b7c19668a75a48536cd2a54ffc", "lon": -77.04371533333334, "is_disabled": 0, "fusion_lat": 0.0, "fusion_lon": 0.0, "name": "a1bbc1b7c19668a75a48536cd2a54ffc", "type": "electric_scooter"}, {"rental_uris": {"ios": "https://dc.lft.to/lastmile_qr_scan", "android": "https://dc.lft.to/lastmile_qr_scan"}, "lat": 38.925153, "is_reserved": 0, "bike_id": "93a41df10f1a52fca79532d5d5c33f58", "lon": -77.05127066666667, "is_disabled": 0, "fusion_lat": 0.0, "fusion_lon": 0.0, "name": "93a41df10f1a52fca79532d5d5c33f58", "type": "electric_scooter"}, {"rental_uris": {"ios": "https://dc.lft.to/lastmile_qr_scan", "android": "https://dc.lft.to/lastmile_qr_scan"}, "lat": 38.923140833333335, "is_reserved": 0, "bike_id": "ff292b8ae8abf5515f27577851ebfb2b", "lon": -77.02127083333333, "is_disabled": 0, "fusion_lat": 0.0, "fusion_lon": 0.0, "name": "ff292b8ae8abf5515f27577851ebfb2b", "type": "electric_scooter"}, {"rental_uris": {"ios": "https://dc.lft.to/lastmile_qr_scan", "android": "https://dc.lft.to/lastmile_qr_scan"}, "lat": 38.8986295, "is_reserved": 0, "bike_id": "13a3d5177e23f037845f24fb651e8c23", "lon": -76.94637916666667, "is_disabled": 0, "fusion_lat": 0.0, "fusion_lon": 0.0, "name": "13a3d5177e23f037845f24fb651e8c23", "type": "electric_scooter"}, {"rental_uris": {"ios": "https://dc.lft.to/lastmile_qr_scan", "android": "https://dc.lft.to/lastmile_qr_scan"}, "lat": 38.89609183333334, "is_reserved": 0, "bike_id": "2575ce98e8e9edffbd3008463f2eab46", "lon": -77.02682666666666, "is_disabled": 0, "fusion_lat": 0.0, "fusion_lon": 0.0, "name": "2575ce98e8e9edffbd3008463f2eab46", "type": "electric_scooter"}, {"rental_uris": {"ios": "https://dc.lft.to/lastmile_qr_scan", "android": "https://dc.lft.to/lastmile_qr_scan"}, "lat": 38.931294333333334, "is_reserved": 0, "bike_id": "a24dddc5e184969c05ffa5d75f79edd2", "lon": -77.03855316666667, "is_disabled": 0, "fusion_lat": 0.0, "fusion_lon": 0.0, "name": "a24dddc5e184969c05ffa5d75f79edd2", "type": "electric_scooter"}, {"rental_uris": {"ios": "https://dc.lft.to/lastmile_qr_scan", "android": "https://dc.lft.to/lastmile_qr_scan"}, "lat": 38.91671433333333, "is_reserved": 0, "bike_id": "6f3981ea4e7c60c05b3b3b2ff5c0cde5", "lon": -77.02970533333334, "is_disabled": 0, "fusion_lat": 0.0, "fusion_lon": 0.0, "name": "6f3981ea4e7c60c05b3b3b2ff5c0cde5", "type": "electric_scooter"}, {"rental_uris": {"ios": "https://dc.lft.to/lastmile_qr_scan", "android": "https://dc.lft.to/lastmile_qr_scan"}, "lat": 38.931954166666664, "is_reserved": 0, "bike_id": "c53ef3442366fce9a365f4ecae9254f6", "lon": -77.22931216666667, "is_disabled": 0, "fusion_lat": 0.0, "fusion_lon": 0.0, "name": "c53ef3442366fce9a365f4ecae9254f6", "type": "electric_bike"}, {"rental_uris": {"ios": "https://dc.lft.to/lastmile_qr_scan", "android": "https://dc.lft.to/lastmile_qr_scan"}, "lat": 38.883581, "is_reserved": 0, "bike_id": "0d355645dcc6c71058b0c0194d39aa9d", "lon": -77.0199605, "is_disabled": 0, "fusion_lat": 0.0, "fusion_lon": 0.0, "name": "0d355645dcc6c71058b0c0194d39aa9d", "type": "electric_scooter"}, {"rental_uris": {"ios": "https://dc.lft.to/lastmile_qr_scan", "android": "https://dc.lft.to/lastmile_qr_scan"}, "lat": 38.90011166666667, "is_reserved": 0, "bike_id": "b49bbc9f894abbdee77c5c7172d3fef8", "lon": -76.99171366666667, "is_disabled": 0, "fusion_lat": 0.0, "fusion_lon": 0.0, "name": "b49bbc9f894abbdee77c5c7172d3fef8", "type": "electric_scooter"}, {"rental_uris": {"ios": "https://dc.lft.to/lastmile_qr_scan", "android": "https://dc.lft.to/lastmile_qr_scan"}, "lat": 38.88294666666667, "is_reserved": 0, "bike_id": "ca9e88b788cce32739c80c6a3a4f85df", "lon": -77.02479383333333, "is_disabled": 0, "fusion_lat": 0.0, "fusion_lon": 0.0, "name": "ca9e88b788cce32739c80c6a3a4f85df", "type": "electric_scooter"}, {"rental_uris": {"ios": "https://dc.lft.to/lastmile_qr_scan", "android": "https://dc.lft.to/lastmile_qr_scan"}, "lat": 38.81326966666666, "is_reserved": 0, "bike_id": "5d785cf9928b6baacb6de3e73c19f665", "lon": -77.05078733333333, "is_disabled": 0, "fusion_lat": 0.0, "fusion_lon": 0.0, "name": "5d785cf9928b6baacb6de3e73c19f665", "type": "electric_bike"}, {"rental_uris": {"ios": "https://dc.lft.to/lastmile_qr_scan", "android": "https://dc.lft.to/lastmile_qr_scan"}, "lat": 38.9110355, "is_reserved": 0, "bike_id": "6f29297e10c14aed787bdc2a695c6c6b", "lon": -77.03732366666667, "is_disabled": 0, "fusion_lat": 0.0, "fusion_lon": 0.0, "name": "6f29297e10c14aed787bdc2a695c6c6b", "type": "electric_scooter"}, {"rental_uris": {"ios": "https://dc.lft.to/lastmile_qr_scan", "android": "https://dc.lft.to/lastmile_qr_scan"}, "lat": 38.89413733333333, "is_reserved": 0, "bike_id": "3d980a30c5fa5b9574505dff485a36b4", "lon": -77.02991383333334, "is_disabled": 0, "fusion_lat": 0.0, "fusion_lon": 0.0, "name": "3d980a30c5fa5b9574505dff485a36b4", "type": "electric_scooter"}, {"rental_uris": {"ios": "https://dc.lft.to/lastmile_qr_scan", "android": "https://dc.lft.to/lastmile_qr_scan"}, "lat": 38.92710816666666, "is_reserved": 0, "bike_id": "89bbec183f854d8b619b4ab091cb032c", "lon": -77.01599083333333, "is_disabled": 0, "fusion_lat": 0.0, "fusion_lon": 0.0, "name": "89bbec183f854d8b619b4ab091cb032c", "type": "electric_scooter"}, {"rental_uris": {"ios": "https://dc.lft.to/lastmile_qr_scan", "android": "https://dc.lft.to/lastmile_qr_scan"}, "lat": 38.91251583333333, "is_reserved": 0, "bike_id": "f318f274588ed3e5a88f24de488b2a5e", "lon": -77.02544866666666, "is_disabled": 0, "fusion_lat": 0.0, "fusion_lon": 0.0, "name": "f318f274588ed3e5a88f24de488b2a5e", "type": "electric_scooter"}, {"rental_uris": {"ios": "https://dc.lft.to/lastmile_qr_scan", "android": "https://dc.lft.to/lastmile_qr_scan"}, "lat": 38.9849385, "is_reserved": 0, "bike_id": "f650a77c0d45ef4ebcc240ccb7057473", "lon": -76.98198066666667, "is_disabled": 0, "fusion_lat": 0.0, "fusion_lon": 0.0, "name": "f650a77c0d45ef4ebcc240ccb7057473", "type": "electric_bike"}, {"rental_uris": {"ios": "https://dc.lft.to/lastmile_qr_scan", "android": "https://dc.lft.to/lastmile_qr_scan"}, "lat": 38.9264495, "is_reserved": 0, "bike_id": "6a55766927ac41ed73d67a63fee5eafd", "lon": -77.0368185, "is_disabled": 0, "fusion_lat": 0.0, "fusion_lon": 0.0, "name": "6a55766927ac41ed73d67a63fee5eafd", "type": "electric_scooter"}, {"rental_uris": {"ios": "https://dc.lft.to/lastmile_qr_scan", "android": "https://dc.lft.to/lastmile_qr_scan"}, "lat": 38.89939583333334, "is_reserved": 0, "bike_id": "359f1edbaf30951f7cde5dab400df057", "lon": -77.022103, "is_disabled": 0, "fusion_lat": 0.0, "fusion_lon": 0.0, "name": "359f1edbaf30951f7cde5dab400df057", "type": "electric_scooter"}, {"rental_uris": {"ios": "https://dc.lft.to/lastmile_qr_scan", "android": "https://dc.lft.to/lastmile_qr_scan"}, "lat": 38.9035305, "is_reserved": 0, "bike_id": "d2b511b0b76866ff9c87fcca40d45f4a", "lon": -77.0601965, "is_disabled": 0, "fusion_lat": 0.0, "fusion_lon": 0.0, "name": "d2b511b0b76866ff9c87fcca40d45f4a", "type": "electric_scooter"}, {"rental_uris": {"ios": "https://dc.lft.to/lastmile_qr_scan", "android": "https://dc.lft.to/lastmile_qr_scan"}, "lat": 38.88488916666667, "is_reserved": 0, "bike_id": "3a86d81cc85da3cd178ed5458b2e4f6b", "lon": -77.00729516666667, "is_disabled": 0, "fusion_lat": 0.0, "fusion_lon": 0.0, "name": "3a86d81cc85da3cd178ed5458b2e4f6b", "type": "electric_scooter"}, {"rental_uris": {"ios": "https://dc.lft.to/lastmile_qr_scan", "android": "https://dc.lft.to/lastmile_qr_scan"}, "lat": 38.904801, "is_reserved": 0, "bike_id": "879cdfb1ba548b2b51bb08d67d0103cc", "lon": -77.03935866666667, "is_disabled": 0, "fusion_lat": 0.0, "fusion_lon": 0.0, "name": "879cdfb1ba548b2b51bb08d67d0103cc", "type": "electric_scooter"}, {"rental_uris": {"ios": "https://dc.lft.to/lastmile_qr_scan", "android": "https://dc.lft.to/lastmile_qr_scan"}, "lat": 38.91132616666667, "is_reserved": 0, "bike_id": "3d43442cc589417ff5fd21bad4af1dc1", "lon": -77.02185416666667, "is_disabled": 0, "fusion_lat": 0.0, "fusion_lon": 0.0, "name": "3d43442cc589417ff5fd21bad4af1dc1", "type": "electric_scooter"}, {"rental_uris": {"ios": "https://dc.lft.to/lastmile_qr_scan", "android": "https://dc.lft.to/lastmile_qr_scan"}, "lat": 38.860248, "is_reserved": 0, "bike_id": "38548c25da12ce590ba26d6f06f88f6e", "lon": -76.96725883333333, "is_disabled": 0, "fusion_lat": 0.0, "fusion_lon": 0.0, "name": "38548c25da12ce590ba26d6f06f88f6e", "type": "electric_scooter"}, {"rental_uris": {"ios": "https://dc.lft.to/lastmile_qr_scan", "android": "https://dc.lft.to/lastmile_qr_scan"}, "lat": 38.91429316666667, "is_reserved": 0, "bike_id": "2bf8e79926464a9a5314f2a3f247252d", "lon": -77.06421916666666, "is_disabled": 0, "fusion_lat": 0.0, "fusion_lon": 0.0, "name": "2bf8e79926464a9a5314f2a3f247252d", "type": "electric_scooter"}, {"rental_uris": {"ios": "https://dc.lft.to/lastmile_qr_scan", "android": "https://dc.lft.to/lastmile_qr_scan"}, "lat": 38.90933833333333, "is_reserved": 0, "bike_id": "0c2d03534809d08c02fb6ff697cadec3", "lon": -77.0269445, "is_disabled": 0, "fusion_lat": 0.0, "fusion_lon": 0.0, "name": "0c2d03534809d08c02fb6ff697cadec3", "type": "electric_scooter"}, {"rental_uris": {"ios": "https://dc.lft.to/lastmile_qr_scan", "android": "https://dc.lft.to/lastmile_qr_scan"}, "lat": 38.902597166666666, "is_reserved": 0, "bike_id": "8d8b7cc989fd29a98e4b8af87a5e54a6", "lon": -77.0265375, "is_disabled": 0, "fusion_lat": 0.0, "fusion_lon": 0.0, "name": "8d8b7cc989fd29a98e4b8af87a5e54a6", "type": "electric_scooter"}, {"rental_uris": {"ios": "https://dc.lft.to/lastmile_qr_scan", "android": "https://dc.lft.to/lastmile_qr_scan"}, "lat": 38.88489416666667, "is_reserved": 0, "bike_id": "1707fe9281a7499620096221248fc042", "lon": -77.00709833333333, "is_disabled": 0, "fusion_lat": 0.0, "fusion_lon": 0.0, "name": "1707fe9281a7499620096221248fc042", "type": "electric_scooter"}, {"rental_uris": {"ios": "https://dc.lft.to/lastmile_qr_scan", "android": "https://dc.lft.to/lastmile_qr_scan"}, "lat": 38.923626, "is_reserved": 0, "bike_id": "2c1b1673f348d6bb25864d4b532d50d3", "lon": -77.01956616666666, "is_disabled": 0, "fusion_lat": 0.0, "fusion_lon": 0.0, "name": "2c1b1673f348d6bb25864d4b532d50d3", "type": "electric_scooter"}, {"rental_uris": {"ios": "https://dc.lft.to/lastmile_qr_scan", "android": "https://dc.lft.to/lastmile_qr_scan"}, "lat": 38.907551833333336, "is_reserved": 0, "bike_id": "fd194dd31d8655ac370f77a7b3a35bb0", "lon": -77.030772, "is_disabled": 0, "fusion_lat": 0.0, "fusion_lon": 0.0, "name": "fd194dd31d8655ac370f77a7b3a35bb0", "type": "electric_scooter"}, {"rental_uris": {"ios": "https://dc.lft.to/lastmile_qr_scan", "android": "https://dc.lft.to/lastmile_qr_scan"}, "lat": 38.951013, "is_reserved": 0, "bike_id": "9b1bbc6462b03c3102a7315efd62fff5", "lon": -77.0971315, "is_disabled": 0, "fusion_lat": 0.0, "fusion_lon": 0.0, "name": "9b1bbc6462b03c3102a7315efd62fff5", "type": "electric_scooter"}, {"rental_uris": {"ios": "https://dc.lft.to/lastmile_qr_scan", "android": "https://dc.lft.to/lastmile_qr_scan"}, "lat": 38.92655116666667, "is_reserved": 0, "bike_id": "04999c9652879730edcf88b04cdf8728", "lon": -77.03726583333334, "is_disabled": 0, "fusion_lat": 0.0, "fusion_lon": 0.0, "name": "04999c9652879730edcf88b04cdf8728", "type": "electric_scooter"}, {"rental_uris": {"ios": "https://dc.lft.to/lastmile_qr_scan", "android": "https://dc.lft.to/lastmile_qr_scan"}, "lat": 38.93697433333333, "is_reserved": 0, "bike_id": "954503f9980f6ebc505c6851a857be70", "lon": -77.0560445, "is_disabled": 0, "fusion_lat": 0.0, "fusion_lon": 0.0, "name": "954503f9980f6ebc505c6851a857be70", "type": "electric_scooter"}, {"rental_uris": {"ios": "https://dc.lft.to/lastmile_qr_scan", "android": "https://dc.lft.to/lastmile_qr_scan"}, "lat": 38.884250333333334, "is_reserved": 0, "bike_id": "732116709d4713b59003849c706192d6", "lon": -76.99601366666667, "is_disabled": 0, "fusion_lat": 0.0, "fusion_lon": 0.0, "name": "732116709d4713b59003849c706192d6", "type": "electric_scooter"}, {"rental_uris": {"ios": "https://dc.lft.to/lastmile_qr_scan", "android": "https://dc.lft.to/lastmile_qr_scan"}, "lat": 38.909070166666666, "is_reserved": 0, "bike_id": "0c42ed8725682c5ae6f9f7cb625e23f8", "lon": -77.0281095, "is_disabled": 0, "fusion_lat": 0.0, "fusion_lon": 0.0, "name": "0c42ed8725682c5ae6f9f7cb625e23f8", "type": "electric_scooter"}, {"rental_uris": {"ios": "https://dc.lft.to/lastmile_qr_scan", "android": "https://dc.lft.to/lastmile_qr_scan"}, "lat": 38.887473, "is_reserved": 0, "bike_id": "10b30b0675e8c46ae271c80dc9fd3108", "lon": -77.017255, "is_disabled": 0, "fusion_lat": 0.0, "fusion_lon": 0.0, "name": "10b30b0675e8c46ae271c80dc9fd3108", "type": "electric_scooter"}, {"rental_uris": {"ios": "https://dc.lft.to/lastmile_qr_scan", "android": "https://dc.lft.to/lastmile_qr_scan"}, "lat": 38.905651166666665, "is_reserved": 0, "bike_id": "7f6133e4ad0d4bd7d2e305962d797045", "lon": -77.03079433333333, "is_disabled": 0, "fusion_lat": 0.0, "fusion_lon": 0.0, "name": "7f6133e4ad0d4bd7d2e305962d797045", "type": "electric_scooter"}, {"rental_uris": {"ios": "https://dc.lft.to/lastmile_qr_scan", "android": "https://dc.lft.to/lastmile_qr_scan"}, "lat": 38.89697566666667, "is_reserved": 0, "bike_id": "a5add6136a9de6eae36d0ca716af9553", "lon": -77.01623833333333, "is_disabled": 0, "fusion_lat": 0.0, "fusion_lon": 0.0, "name": "a5add6136a9de6eae36d0ca716af9553", "type": "electric_scooter"}, {"rental_uris": {"ios": "https://dc.lft.to/lastmile_qr_scan", "android": "https://dc.lft.to/lastmile_qr_scan"}, "lat": 38.91109766666667, "is_reserved": 0, "bike_id": "8906ad277ca74096ef86ef82d5ace3e3", "lon": -77.03838983333333, "is_disabled": 0, "fusion_lat": 0.0, "fusion_lon": 0.0, "name": "8906ad277ca74096ef86ef82d5ace3e3", "type": "electric_scooter"}, {"rental_uris": {"ios": "https://dc.lft.to/lastmile_qr_scan", "android": "https://dc.lft.to/lastmile_qr_scan"}, "lat": 38.893283, "is_reserved": 0, "bike_id": "2f844b91f7159943459537c969c91bef", "lon": -76.93929783333333, "is_disabled": 0, "fusion_lat": 0.0, "fusion_lon": 0.0, "name": "2f844b91f7159943459537c969c91bef", "type": "electric_scooter"}, {"rental_uris": {"ios": "https://dc.lft.to/lastmile_qr_scan", "android": "https://dc.lft.to/lastmile_qr_scan"}, "lat": 38.95326933333333, "is_reserved": 0, "bike_id": "6c924e0f202d3ee9c0be8481890c2502", "lon": -76.982447, "is_disabled": 0, "fusion_lat": 0.0, "fusion_lon": 0.0, "name": "6c924e0f202d3ee9c0be8481890c2502", "type": "electric_bike"}, {"rental_uris": {"ios": "https://dc.lft.to/lastmile_qr_scan", "android": "https://dc.lft.to/lastmile_qr_scan"}, "lat": 38.91135216666667, "is_reserved": 0, "bike_id": "63489fa8a7a7f919bde518f5c2d16304", "lon": -77.02189566666667, "is_disabled": 0, "fusion_lat": 0.0, "fusion_lon": 0.0, "name": "63489fa8a7a7f919bde518f5c2d16304", "type": "electric_scooter"}, {"rental_uris": {"ios": "https://dc.lft.to/lastmile_qr_scan", "android": "https://dc.lft.to/lastmile_qr_scan"}, "lat": 38.90334033333333, "is_reserved": 0, "bike_id": "6f81f7e9f4b6b137b5894e52e5be3a33", "lon": -77.02565633333333, "is_disabled": 0, "fusion_lat": 0.0, "fusion_lon": 0.0, "name": "6f81f7e9f4b6b137b5894e52e5be3a33", "type": "electric_scooter"}, {"rental_uris": {"ios": "https://dc.lft.to/lastmile_qr_scan", "android": "https://dc.lft.to/lastmile_qr_scan"}, "lat": 38.90297983333333, "is_reserved": 0, "bike_id": "cb625c7f71705ed658b31b34b9e2720e", "lon": -77.04692833333333, "is_disabled": 0, "fusion_lat": 0.0, "fusion_lon": 0.0, "name": "cb625c7f71705ed658b31b34b9e2720e", "type": "electric_scooter"}, {"rental_uris": {"ios": "https://dc.lft.to/lastmile_qr_scan", "android": "https://dc.lft.to/lastmile_qr_scan"}, "lat": 38.90265733333333, "is_reserved": 0, "bike_id": "debe69fbaf8428de700c5693ccc9b4aa", "lon": -77.01745566666666, "is_disabled": 0, "fusion_lat": 0.0, "fusion_lon": 0.0, "name": "debe69fbaf8428de700c5693ccc9b4aa", "type": "electric_scooter"}, {"rental_uris": {"ios": "https://dc.lft.to/lastmile_qr_scan", "android": "https://dc.lft.to/lastmile_qr_scan"}, "lat": 38.91416433333333, "is_reserved": 0, "bike_id": "e1bd4929323f25930c0f0c41f471cf82", "lon": -77.03175083333333, "is_disabled": 0, "fusion_lat": 0.0, "fusion_lon": 0.0, "name": "e1bd4929323f25930c0f0c41f471cf82", "type": "electric_scooter"}, {"rental_uris": {"ios": "https://dc.lft.to/lastmile_qr_scan", "android": "https://dc.lft.to/lastmile_qr_scan"}, "lat": 38.911446, "is_reserved": 0, "bike_id": "3bcfb8c961b4b39b7938851f3384d7f2", "lon": -77.0741655, "is_disabled": 0, "fusion_lat": 0.0, "fusion_lon": 0.0, "name": "3bcfb8c961b4b39b7938851f3384d7f2", "type": "electric_bike"}, {"rental_uris": {"ios": "https://dc.lft.to/lastmile_qr_scan", "android": "https://dc.lft.to/lastmile_qr_scan"}, "lat": 38.914028333333334, "is_reserved": 0, "bike_id": "0cc19fbe8a1357922bdc5ff29f8bf88d", "lon": -77.013763, "is_disabled": 0, "fusion_lat": 0.0, "fusion_lon": 0.0, "name": "0cc19fbe8a1357922bdc5ff29f8bf88d", "type": "electric_scooter"}, {"rental_uris": {"ios": "https://dc.lft.to/lastmile_qr_scan", "android": "https://dc.lft.to/lastmile_qr_scan"}, "lat": 38.87478316666667, "is_reserved": 0, "bike_id": "16efacc582d055ef647cb2a901c76c10", "lon": -77.00830616666667, "is_disabled": 0, "fusion_lat": 0.0, "fusion_lon": 0.0, "name": "16efacc582d055ef647cb2a901c76c10", "type": "electric_scooter"}, {"rental_uris": {"ios": "https://dc.lft.to/lastmile_qr_scan", "android": "https://dc.lft.to/lastmile_qr_scan"}, "lat": 38.896623166666664, "is_reserved": 0, "bike_id": "50ba7e18c90b10ff14661cc1362c3120", "lon": -77.01879, "is_disabled": 0, "fusion_lat": 0.0, "fusion_lon": 0.0, "name": "50ba7e18c90b10ff14661cc1362c3120", "type": "electric_scooter"}, {"rental_uris": {"ios": "https://dc.lft.to/lastmile_qr_scan", "android": "https://dc.lft.to/lastmile_qr_scan"}, "lat": 38.90414533333333, "is_reserved": 0, "bike_id": "3808b09c2ea8780dae464544174bf9f9", "lon": -77.00583833333333, "is_disabled": 0, "fusion_lat": 0.0, "fusion_lon": 0.0, "name": "3808b09c2ea8780dae464544174bf9f9", "type": "electric_scooter"}, {"rental_uris": {"ios": "https://dc.lft.to/lastmile_qr_scan", "android": "https://dc.lft.to/lastmile_qr_scan"}, "lat": 38.9161715, "is_reserved": 0, "bike_id": "aa5a14f0411e94e7f997d3c67f7d5c6b", "lon": -77.041535, "is_disabled": 0, "fusion_lat": 0.0, "fusion_lon": 0.0, "name": "aa5a14f0411e94e7f997d3c67f7d5c6b", "type": "electric_scooter"}, {"rental_uris": {"ios": "https://dc.lft.to/lastmile_qr_scan", "android": "https://dc.lft.to/lastmile_qr_scan"}, "lat": 38.918028166666666, "is_reserved": 0, "bike_id": "4f5e9fd20acf7b82b72136e4e4de39c7", "lon": -77.03438733333333, "is_disabled": 0, "fusion_lat": 0.0, "fusion_lon": 0.0, "name": "4f5e9fd20acf7b82b72136e4e4de39c7", "type": "electric_scooter"}, {"rental_uris": {"ios": "https://dc.lft.to/lastmile_qr_scan", "android": "https://dc.lft.to/lastmile_qr_scan"}, "lat": 38.91702183333334, "is_reserved": 0, "bike_id": "18885685fc6edcbb9939dfd534554370", "lon": -77.04346133333334, "is_disabled": 0, "fusion_lat": 0.0, "fusion_lon": 0.0, "name": "18885685fc6edcbb9939dfd534554370", "type": "electric_scooter"}, {"rental_uris": {"ios": "https://dc.lft.to/lastmile_qr_scan", "android": "https://dc.lft.to/lastmile_qr_scan"}, "lat": 38.909693833333336, "is_reserved": 0, "bike_id": "4b1093c6645f6163d7bcfffd415b55ca", "lon": -77.02308583333334, "is_disabled": 0, "fusion_lat": 0.0, "fusion_lon": 0.0, "name": "4b1093c6645f6163d7bcfffd415b55ca", "type": "electric_scooter"}, {"rental_uris": {"ios": "https://dc.lft.to/lastmile_qr_scan", "android": "https://dc.lft.to/lastmile_qr_scan"}, "lat": 38.890773833333334, "is_reserved": 0, "bike_id": "f303dcaea9747ac13baf90845944eb3d", "lon": -76.98822216666667, "is_disabled": 0, "fusion_lat": 0.0, "fusion_lon": 0.0, "name": "f303dcaea9747ac13baf90845944eb3d", "type": "electric_scooter"}, {"rental_uris": {"ios": "https://dc.lft.to/lastmile_qr_scan", "android": "https://dc.lft.to/lastmile_qr_scan"}, "lat": 38.86640233333333, "is_reserved": 0, "bike_id": "80055e7b1bc7e9d125acd529ff8822c3", "lon": -76.98502266666667, "is_disabled": 0, "fusion_lat": 0.0, "fusion_lon": 0.0, "name": "80055e7b1bc7e9d125acd529ff8822c3", "type": "electric_scooter"}, {"rental_uris": {"ios": "https://dc.lft.to/lastmile_qr_scan", "android": "https://dc.lft.to/lastmile_qr_scan"}, "lat": 38.90470233333333, "is_reserved": 0, "bike_id": "7d4a24002e524e21e463abfc7bf8f791", "lon": -77.0194185, "is_disabled": 0, "fusion_lat": 0.0, "fusion_lon": 0.0, "name": "7d4a24002e524e21e463abfc7bf8f791", "type": "electric_scooter"}, {"rental_uris": {"ios": "https://dc.lft.to/lastmile_qr_scan", "android": "https://dc.lft.to/lastmile_qr_scan"}, "lat": 38.88447266666667, "is_reserved": 0, "bike_id": "c756408c82097d31c3dabc81e4576134", "lon": -76.95099566666667, "is_disabled": 0, "fusion_lat": 0.0, "fusion_lon": 0.0, "name": "c756408c82097d31c3dabc81e4576134", "type": "electric_scooter"}, {"rental_uris": {"ios": "https://dc.lft.to/lastmile_qr_scan", "android": "https://dc.lft.to/lastmile_qr_scan"}, "lat": 38.96092633333333, "is_reserved": 0, "bike_id": "b9a3140139146ed2cb87863aec225217", "lon": -77.02746, "is_disabled": 0, "fusion_lat": 0.0, "fusion_lon": 0.0, "name": "b9a3140139146ed2cb87863aec225217", "type": "electric_scooter"}, {"rental_uris": {"ios": "https://dc.lft.to/lastmile_qr_scan", "android": "https://dc.lft.to/lastmile_qr_scan"}, "lat": 38.89871216666667, "is_reserved": 0, "bike_id": "2d645099ec8b111b2f90c360a39368b7", "lon": -77.0327855, "is_disabled": 0, "fusion_lat": 0.0, "fusion_lon": 0.0, "name": "2d645099ec8b111b2f90c360a39368b7", "type": "electric_scooter"}, {"rental_uris": {"ios": "https://dc.lft.to/lastmile_qr_scan", "android": "https://dc.lft.to/lastmile_qr_scan"}, "lat": 38.901999333333336, "is_reserved": 0, "bike_id": "f8c35bb16b60d80b8877ac98758d2f90", "lon": -76.98234483333333, "is_disabled": 0, "fusion_lat": 0.0, "fusion_lon": 0.0, "name": "f8c35bb16b60d80b8877ac98758d2f90", "type": "electric_scooter"}, {"rental_uris": {"ios": "https://dc.lft.to/lastmile_qr_scan", "android": "https://dc.lft.to/lastmile_qr_scan"}, "lat": 38.931864833333336, "is_reserved": 0, "bike_id": "d3747ab4bb7d8c7f33b2924d56002d04", "lon": -77.04300883333333, "is_disabled": 0, "fusion_lat": 0.0, "fusion_lon": 0.0, "name": "d3747ab4bb7d8c7f33b2924d56002d04", "type": "electric_scooter"}, {"rental_uris": {"ios": "https://dc.lft.to/lastmile_qr_scan", "android": "https://dc.lft.to/lastmile_qr_scan"}, "lat": 38.914066166666665, "is_reserved": 0, "bike_id": "9232ee6ca09582cd6c6f24d18dd70309", "lon": -77.0156055, "is_disabled": 0, "fusion_lat": 0.0, "fusion_lon": 0.0, "name": "9232ee6ca09582cd6c6f24d18dd70309", "type": "electric_scooter"}, {"rental_uris": {"ios": "https://dc.lft.to/lastmile_qr_scan", "android": "https://dc.lft.to/lastmile_qr_scan"}, "lat": 38.912971666666664, "is_reserved": 0, "bike_id": "67f217bcaad47d9c893bf05c14af3c35", "lon": -77.0487505, "is_disabled": 0, "fusion_lat": 0.0, "fusion_lon": 0.0, "name": "67f217bcaad47d9c893bf05c14af3c35", "type": "electric_scooter"}, {"rental_uris": {"ios": "https://dc.lft.to/lastmile_qr_scan", "android": "https://dc.lft.to/lastmile_qr_scan"}, "lat": 38.9410385, "is_reserved": 0, "bike_id": "1b4a6b634d7a8f54b7f69e7fafb7844a", "lon": -77.0760045, "is_disabled": 0, "fusion_lat": 0.0, "fusion_lon": 0.0, "name": "1b4a6b634d7a8f54b7f69e7fafb7844a", "type": "electric_scooter"}, {"rental_uris": {"ios": "https://dc.lft.to/lastmile_qr_scan", "android": "https://dc.lft.to/lastmile_qr_scan"}, "lat": 38.941201, "is_reserved": 0, "bike_id": "f7998caf8ecce31efffd982e5c890156", "lon": -77.01545316666666, "is_disabled": 0, "fusion_lat": 0.0, "fusion_lon": 0.0, "name": "f7998caf8ecce31efffd982e5c890156", "type": "electric_scooter"}, {"rental_uris": {"ios": "https://dc.lft.to/lastmile_qr_scan", "android": "https://dc.lft.to/lastmile_qr_scan"}, "lat": 38.876733333333334, "is_reserved": 0, "bike_id": "7cb43767cb101f118350e8915418f4fe", "lon": -77.0176085, "is_disabled": 0, "fusion_lat": 0.0, "fusion_lon": 0.0, "name": "7cb43767cb101f118350e8915418f4fe", "type": "electric_scooter"}, {"rental_uris": {"ios": "https://dc.lft.to/lastmile_qr_scan", "android": "https://dc.lft.to/lastmile_qr_scan"}, "lat": 38.912644666666665, "is_reserved": 0, "bike_id": "f039253ae71c8b5e5a1342ccc0459d13", "lon": -77.00800516666666, "is_disabled": 0, "fusion_lat": 0.0, "fusion_lon": 0.0, "name": "f039253ae71c8b5e5a1342ccc0459d13", "type": "electric_scooter"}, {"rental_uris": {"ios": "https://dc.lft.to/lastmile_qr_scan", "android": "https://dc.lft.to/lastmile_qr_scan"}, "lat": 38.89362783333333, "is_reserved": 0, "bike_id": "9ad358f20c14e9cdcec454408409487b", "lon": -76.92594633333333, "is_disabled": 0, "fusion_lat": 0.0, "fusion_lon": 0.0, "name": "9ad358f20c14e9cdcec454408409487b", "type": "electric_scooter"}, {"rental_uris": {"ios": "https://dc.lft.to/lastmile_qr_scan", "android": "https://dc.lft.to/lastmile_qr_scan"}, "lat": 38.9036475, "is_reserved": 0, "bike_id": "b14884fb0b4b44dd2a3762086ce6e544", "lon": -77.02968433333334, "is_disabled": 0, "fusion_lat": 0.0, "fusion_lon": 0.0, "name": "b14884fb0b4b44dd2a3762086ce6e544", "type": "electric_scooter"}, {"rental_uris": {"ios": "https://dc.lft.to/lastmile_qr_scan", "android": "https://dc.lft.to/lastmile_qr_scan"}, "lat": 38.8958665, "is_reserved": 0, "bike_id": "f130cdbe31b8f17e94e6caa2d3bbc975", "lon": -77.0256735, "is_disabled": 0, "fusion_lat": 0.0, "fusion_lon": 0.0, "name": "f130cdbe31b8f17e94e6caa2d3bbc975", "type": "electric_scooter"}, {"rental_uris": {"ios": "https://dc.lft.to/lastmile_qr_scan", "android": "https://dc.lft.to/lastmile_qr_scan"}, "lat": 38.914873666666665, "is_reserved": 0, "bike_id": "8c3b54fb6db50c26be547aa2fdaaa22d", "lon": -77.04836766666666, "is_disabled": 0, "fusion_lat": 0.0, "fusion_lon": 0.0, "name": "8c3b54fb6db50c26be547aa2fdaaa22d", "type": "electric_scooter"}, {"rental_uris": {"ios": "https://dc.lft.to/lastmile_qr_scan", "android": "https://dc.lft.to/lastmile_qr_scan"}, "lat": 38.9518985, "is_reserved": 0, "bike_id": "fdaf1b39f5e7cc22a2f14c258609f72f", "lon": -77.06658366666667, "is_disabled": 0, "fusion_lat": 0.0, "fusion_lon": 0.0, "name": "fdaf1b39f5e7cc22a2f14c258609f72f", "type": "electric_scooter"}, {"rental_uris": {"ios": "https://dc.lft.to/lastmile_qr_scan", "android": "https://dc.lft.to/lastmile_qr_scan"}, "lat": 38.909509666666665, "is_reserved": 0, "bike_id": "7349037c5917494247cee9be450e6b52", "lon": -76.98538816666667, "is_disabled": 0, "fusion_lat": 0.0, "fusion_lon": 0.0, "name": "7349037c5917494247cee9be450e6b52", "type": "electric_scooter"}, {"rental_uris": {"ios": "https://dc.lft.to/lastmile_qr_scan", "android": "https://dc.lft.to/lastmile_qr_scan"}, "lat": 38.90121083333333, "is_reserved": 0, "bike_id": "0945f8f1f1bf93194521fab216ecf050", "lon": -77.04342083333333, "is_disabled": 0, "fusion_lat": 0.0, "fusion_lon": 0.0, "name": "0945f8f1f1bf93194521fab216ecf050", "type": "electric_scooter"}, {"rental_uris": {"ios": "https://dc.lft.to/lastmile_qr_scan", "android": "https://dc.lft.to/lastmile_qr_scan"}, "lat": 38.91264833333334, "is_reserved": 0, "bike_id": "bbf85a973d0bb598dde98737bb6bee74", "lon": -77.04840216666666, "is_disabled": 0, "fusion_lat": 0.0, "fusion_lon": 0.0, "name": "bbf85a973d0bb598dde98737bb6bee74", "type": "electric_scooter"}, {"rental_uris": {"ios": "https://dc.lft.to/lastmile_qr_scan", "android": "https://dc.lft.to/lastmile_qr_scan"}, "lat": 38.922160166666664, "is_reserved": 0, "bike_id": "a336b1efec5cd8e4590c45b89f8058bd", "lon": -77.04338366666667, "is_disabled": 0, "fusion_lat": 0.0, "fusion_lon": 0.0, "name": "a336b1efec5cd8e4590c45b89f8058bd", "type": "electric_scooter"}, {"rental_uris": {"ios": "https://dc.lft.to/lastmile_qr_scan", "android": "https://dc.lft.to/lastmile_qr_scan"}, "lat": 38.914060666666664, "is_reserved": 0, "bike_id": "c1ee7eb927d0f47d7c1b044e86cb719b", "lon": -77.02283, "is_disabled": 0, "fusion_lat": 0.0, "fusion_lon": 0.0, "name": "c1ee7eb927d0f47d7c1b044e86cb719b", "type": "electric_scooter"}, {"rental_uris": {"ios": "https://dc.lft.to/lastmile_qr_scan", "android": "https://dc.lft.to/lastmile_qr_scan"}, "lat": 38.895323833333336, "is_reserved": 0, "bike_id": "84e1d73873dc1ea120eb77b1a7adf00f", "lon": -77.031616, "is_disabled": 0, "fusion_lat": 0.0, "fusion_lon": 0.0, "name": "84e1d73873dc1ea120eb77b1a7adf00f", "type": "electric_scooter"}, {"rental_uris": {"ios": "https://dc.lft.to/lastmile_qr_scan", "android": "https://dc.lft.to/lastmile_qr_scan"}, "lat": 38.90232616666667, "is_reserved": 0, "bike_id": "42e52111f5231886c8954762b3edc3af", "lon": -77.02694116666666, "is_disabled": 0, "fusion_lat": 0.0, "fusion_lon": 0.0, "name": "42e52111f5231886c8954762b3edc3af", "type": "electric_scooter"}, {"rental_uris": {"ios": "https://dc.lft.to/lastmile_qr_scan", "android": "https://dc.lft.to/lastmile_qr_scan"}, "lat": 38.86517516666667, "is_reserved": 0, "bike_id": "98849237df28239710662c31de9a07b9", "lon": -77.12934783333333, "is_disabled": 0, "fusion_lat": 0.0, "fusion_lon": 0.0, "name": "98849237df28239710662c31de9a07b9", "type": "electric_bike"}, {"rental_uris": {"ios": "https://dc.lft.to/lastmile_qr_scan", "android": "https://dc.lft.to/lastmile_qr_scan"}, "lat": 38.9236305, "is_reserved": 0, "bike_id": "4a3bc7381c0e7f3952a72fd6e082dd1d", "lon": -77.05046816666666, "is_disabled": 0, "fusion_lat": 0.0, "fusion_lon": 0.0, "name": "4a3bc7381c0e7f3952a72fd6e082dd1d", "type": "electric_scooter"}, {"rental_uris": {"ios": "https://dc.lft.to/lastmile_qr_scan", "android": "https://dc.lft.to/lastmile_qr_scan"}, "lat": 38.90061166666667, "is_reserved": 0, "bike_id": "2afe66f1180da2fdbf6cf27ba8d157b8", "lon": -77.04536866666666, "is_disabled": 0, "fusion_lat": 0.0, "fusion_lon": 0.0, "name": "2afe66f1180da2fdbf6cf27ba8d157b8", "type": "electric_scooter"}, {"rental_uris": {"ios": "https://dc.lft.to/lastmile_qr_scan", "android": "https://dc.lft.to/lastmile_qr_scan"}, "lat": 38.898587166666665, "is_reserved": 0, "bike_id": "03aafd48c8fc1e269e2e1142f05b4464", "lon": -77.03945983333334, "is_disabled": 0, "fusion_lat": 0.0, "fusion_lon": 0.0, "name": "03aafd48c8fc1e269e2e1142f05b4464", "type": "electric_scooter"}, {"rental_uris": {"ios": "https://dc.lft.to/lastmile_qr_scan", "android": "https://dc.lft.to/lastmile_qr_scan"}, "lat": 38.87670516666667, "is_reserved": 0, "bike_id": "9e53fb1ad58a240e43c69d10fb819e7c", "lon": -77.00897316666666, "is_disabled": 0, "fusion_lat": 0.0, "fusion_lon": 0.0, "name": "9e53fb1ad58a240e43c69d10fb819e7c", "type": "electric_scooter"}, {"rental_uris": {"ios": "https://dc.lft.to/lastmile_qr_scan", "android": "https://dc.lft.to/lastmile_qr_scan"}, "lat": 38.92169366666667, "is_reserved": 0, "bike_id": "c3688c030446e65b35f0c0d0b5b87327", "lon": -77.01923716666667, "is_disabled": 0, "fusion_lat": 0.0, "fusion_lon": 0.0, "name": "c3688c030446e65b35f0c0d0b5b87327", "type": "electric_scooter"}, {"rental_uris": {"ios": "https://dc.lft.to/lastmile_qr_scan", "android": "https://dc.lft.to/lastmile_qr_scan"}, "lat": 38.910053166666664, "is_reserved": 0, "bike_id": "16ffbe91697e2fb1e59651ed4e8f6e9e", "lon": -76.99410333333333, "is_disabled": 0, "fusion_lat": 0.0, "fusion_lon": 0.0, "name": "16ffbe91697e2fb1e59651ed4e8f6e9e", "type": "electric_scooter"}, {"rental_uris": {"ios": "https://dc.lft.to/lastmile_qr_scan", "android": "https://dc.lft.to/lastmile_qr_scan"}, "lat": 38.9173945, "is_reserved": 0, "bike_id": "3bee7c20ff23eb341ce2acd8aab16250", "lon": -77.03472416666666, "is_disabled": 0, "fusion_lat": 0.0, "fusion_lon": 0.0, "name": "3bee7c20ff23eb341ce2acd8aab16250", "type": "electric_scooter"}, {"rental_uris": {"ios": "https://dc.lft.to/lastmile_qr_scan", "android": "https://dc.lft.to/lastmile_qr_scan"}, "lat": 38.902300333333336, "is_reserved": 0, "bike_id": "b74d8c00fe3e365ec51ef8d13a2443b2", "lon": -77.05940833333334, "is_disabled": 0, "fusion_lat": 0.0, "fusion_lon": 0.0, "name": "b74d8c00fe3e365ec51ef8d13a2443b2", "type": "electric_scooter"}, {"rental_uris": {"ios": "https://dc.lft.to/lastmile_qr_scan", "android": "https://dc.lft.to/lastmile_qr_scan"}, "lat": 38.933518, "is_reserved": 0, "bike_id": "f8a1d1ab3d52cb6f87484acb72207228", "lon": -77.07105983333334, "is_disabled": 0, "fusion_lat": 0.0, "fusion_lon": 0.0, "name": "f8a1d1ab3d52cb6f87484acb72207228", "type": "electric_bike"}, {"rental_uris": {"ios": "https://dc.lft.to/lastmile_qr_scan", "android": "https://dc.lft.to/lastmile_qr_scan"}, "lat": 38.89698116666667, "is_reserved": 0, "bike_id": "1b38d1ffca643da9ac46f04017209322", "lon": -77.007593, "is_disabled": 0, "fusion_lat": 0.0, "fusion_lon": 0.0, "name": "1b38d1ffca643da9ac46f04017209322", "type": "electric_scooter"}, {"rental_uris": {"ios": "https://dc.lft.to/lastmile_qr_scan", "android": "https://dc.lft.to/lastmile_qr_scan"},