{"data": {"bikes": [{"fusion_lat": 0.0, "name": "0ba655b7d6c22053cf8a817373b819b7", "is_disabled": 0, "rental_uris": {"android": "https://dc.lft.to/lastmile_qr_scan", "ios": "https://dc.lft.to/lastmile_qr_scan"}, "fusion_lon": 0.0, "lat": 38.915784333333335, "bike_id": "0ba655b7d6c22053cf8a817373b819b7", "type": "electric_scooter", "is_reserved": 0, "lon": -76.9839825}, {"fusion_lat": 0.0, "name": "2ec1a0945a68d7e8039a47a67270456b", "is_disabled": 0, "rental_uris": {"android": "https://dc.lft.to/lastmile_qr_scan", "ios": "https://dc.lft.to/lastmile_qr_scan"}, "fusion_lon": 0.0, "lat": 38.9225255, "bike_id": "2ec1a0945a68d7e8039a47a67270456b", "type": "electric_scooter", "is_reserved": 0, "lon": -77.03886516666667}, {"fusion_lat": 0.0, "name": "6cb5985a526ff2ee385f06dbf00f7bea", "is_disabled": 0, "rental_uris": {"android": "https://dc.lft.to/lastmile_qr_scan", "ios": "https://dc.lft.to/lastmile_qr_scan"}, "fusion_lon": 0.0, "lat": 38.907164, "bike_id": "6cb5985a526ff2ee385f06dbf00f7bea", "type": "electric_scooter", "is_reserved": 0, "lon": -76.99824016666666}, {"fusion_lat": 0.0, "name": "7612d71a3ed594d38bbac82e885dadee", "is_disabled": 0, "rental_uris": {"android": "https://dc.lft.to/lastmile_qr_scan", "ios": "https://dc.lft.to/lastmile_qr_scan"}, "fusion_lon": 0.0, "lat": 38.920645, "bike_id": "7612d71a3ed594d38bbac82e885dadee", "type": "electric_scooter", "is_reserved": 0, "lon": -77.02305883333334}, {"fusion_lat": 0.0, "name": "0f50682cd8dc92abe5219ecd5f123e95", "is_disabled": 0, "rental_uris": {"android": "https://dc.lft.to/lastmile_qr_scan", "ios": "https://dc.lft.to/lastmile_qr_scan"}, "fusion_lon": 0.0, "lat": 38.94919183333333, "bike_id": "0f50682cd8dc92abe5219ecd5f123e95", "type": "electric_bike", "is_reserved": 0, "lon": -77.00794316666666}, {"fusion_lat": 0.0, "name": "94d7642373be71da92fe2ff5eb588249", "is_disabled": 0, "rental_uris": {"android": "https://dc.lft.to/lastmile_qr_scan", "ios": "https://dc.lft.to/lastmile_qr_scan"}, "fusion_lon": 0.0, "lat": 38.917016333333336, "bike_id": "94d7642373be71da92fe2ff5eb588249", "type": "electric_scooter", "is_reserved": 0, "lon": -77.03761966666667}, {"fusion_lat": 0.0, "name": "94d4b228517998bde6cd0118092b0023", "is_disabled": 0, "rental_uris": {"android": "https://dc.lft.to/lastmile_qr_scan", "ios": "https://dc.lft.to/lastmile_qr_scan"}, "fusion_lon": 0.0, "lat": 38.897239166666665, "bike_id": "94d4b228517998bde6cd0118092b0023", "type": "electric_scooter", "is_reserved": 0, "lon": -77.028475}, {"fusion_lat": 0.0, "name": "4398c8aa21b8464fdd4e0525adf4c74a", "is_disabled": 0, "rental_uris": {"android": "https://dc.lft.to/lastmile_qr_scan", "ios": "https://dc.lft.to/lastmile_qr_scan"}, "fusion_lon": 0.0, "lat": 38.941198666666665, "bike_id": "4398c8aa21b8464fdd4e0525adf4c74a", "type": "electric_bike", "is_reserved": 0, "lon": -76.990316}, {"fusion_lat": 0.0, "name": "6bf058fe025dd8fdb7376fa9b3cf3a24", "is_disabled": 0, "rental_uris": {"android": "https://dc.lft.to/lastmile_qr_scan", "ios": "https://dc.lft.to/lastmile_qr_scan"}, "fusion_lon": 0.0, "lat": 38.923703, "bike_id": "6bf058fe025dd8fdb7376fa9b3cf3a24", "type": "electric_scooter", "is_reserved": 0, "lon": -77.04097466666667}, {"fusion_lat": 0.0, "name": "e5e0faf8cae86a4ccfeabf5ec0b54e79", "is_disabled": 0, "rental_uris": {"android": "https://dc.lft.to/lastmile_qr_scan", "ios": "https://dc.lft.to/lastmile_qr_scan"}, "fusion_lon": 0.0, "lat": 38.93867, "bike_id": "e5e0faf8cae86a4ccfeabf5ec0b54e79", "type": "electric_scooter", "is_reserved": 0, "lon": -77.0294215}, {"fusion_lat": 0.0, "name": "138f73efc0ba72e318f9c0476c9a2bc4", "is_disabled": 0, "rental_uris": {"android": "https://dc.lft.to/lastmile_qr_scan", "ios": "https://dc.lft.to/lastmile_qr_scan"}, "fusion_lon": 0.0, "lat": 38.90391, "bike_id": "138f73efc0ba72e318f9c0476c9a2bc4", "type": "electric_scooter", "is_reserved": 0, "lon": -77.038367}, {"fusion_lat": 0.0, "name": "fd9cd02155308588f86cd76bf7e48157", "is_disabled": 0, "rental_uris": {"android": "https://dc.lft.to/lastmile_qr_scan", "ios": "https://dc.lft.to/lastmile_qr_scan"}, "fusion_lon": 0.0, "lat": 38.893585, "bike_id": "fd9cd02155308588f86cd76bf7e48157", "type": "electric_scooter", "is_reserved": 0, "lon": -76.98655016666666}, {"fusion_lat": 0.0, "name": "7e2496896ce28d006b4946ccf4d0d47d", "is_disabled": 0, "rental_uris": {"android": "https://dc.lft.to/lastmile_qr_scan", "ios": "https://dc.lft.to/lastmile_qr_scan"}, "fusion_lon": 0.0, "lat": 38.909018, "bike_id": "7e2496896ce28d006b4946ccf4d0d47d", "type": "electric_scooter", "is_reserved": 0, "lon": -77.04392066666666}, {"fusion_lat": 0.0, "name": "c4b5d21c93fc40465d1158976665cadd", "is_disabled": 0, "rental_uris": {"android": "https://dc.lft.to/lastmile_qr_scan", "ios": "https://dc.lft.to/lastmile_qr_scan"}, "fusion_lon": 0.0, "lat": 38.900313833333335, "bike_id": "c4b5d21c93fc40465d1158976665cadd", "type": "electric_scooter", "is_reserved": 0, "lon": -76.99600433333333}, {"fusion_lat": 0.0, "name": "d7b2249404af6313c0043bd5f64bf067", "is_disabled": 0, "rental_uris": {"android": "https://dc.lft.to/lastmile_qr_scan", "ios": "https://dc.lft.to/lastmile_qr_scan"}, "fusion_lon": 0.0, "lat": 38.90488216666667, "bike_id": "d7b2249404af6313c0043bd5f64bf067", "type": "electric_scooter", "is_reserved": 0, "lon": -76.949482}, {"fusion_lat": 0.0, "name": "392f4c25f2bd69f8b5f4093422a0072b", "is_disabled": 0, "rental_uris": {"android": "https://dc.lft.to/lastmile_qr_scan", "ios": "https://dc.lft.to/lastmile_qr_scan"}, "fusion_lon": 0.0, "lat": 38.89895583333333, "bike_id": "392f4c25f2bd69f8b5f4093422a0072b", "type": "electric_scooter", "is_reserved": 0, "lon": -77.0014855}, {"fusion_lat": 0.0, "name": "78be30e5eb4a5089ff3a1510162a242d", "is_disabled": 0, "rental_uris": {"android": "https://dc.lft.to/lastmile_qr_scan", "ios": "https://dc.lft.to/lastmile_qr_scan"}, "fusion_lon": 0.0, "lat": 38.89226, "bike_id": "78be30e5eb4a5089ff3a1510162a242d", "type": "electric_scooter", "is_reserved": 0, "lon": -77.02509233333333}, {"fusion_lat": 0.0, "name": "f679d37e89483e42badb24ae40e0fb8d", "is_disabled": 0, "rental_uris": {"android": "https://dc.lft.to/lastmile_qr_scan", "ios": "https://dc.lft.to/lastmile_qr_scan"}, "fusion_lon": 0.0, "lat": 38.915531666666666, "bike_id": "f679d37e89483e42badb24ae40e0fb8d", "type": "electric_scooter", "is_reserved": 0, "lon": -77.01996}, {"fusion_lat": 0.0, "name": "492380e28afc408b53ecfac653501484", "is_disabled": 0, "rental_uris": {"android": "https://dc.lft.to/lastmile_qr_scan", "ios": "https://dc.lft.to/lastmile_qr_scan"}, "fusion_lon": 0.0, "lat": 38.930185333333334, "bike_id": "492380e28afc408b53ecfac653501484", "type": "electric_scooter", "is_reserved": 0, "lon": -77.0324635}, {"fusion_lat": 0.0, "name": "fee1936e5fcd328b3e367435ee38e020", "is_disabled": 0, "rental_uris": {"android": "https://dc.lft.to/lastmile_qr_scan", "ios": "https://dc.lft.to/lastmile_qr_scan"}, "fusion_lon": 0.0, "lat": 38.90906283333333, "bike_id": "fee1936e5fcd328b3e367435ee38e020", "type": "electric_scooter", "is_reserved": 0, "lon": -77.0261435}, {"fusion_lat": 0.0, "name": "da3c4a4e5f1f643b3f970261c555ebd9", "is_disabled": 0, "rental_uris": {"android": "https://dc.lft.to/lastmile_qr_scan", "ios": "https://dc.lft.to/lastmile_qr_scan"}, "fusion_lon": 0.0, "lat": 38.90566416666667, "bike_id": "da3c4a4e5f1f643b3f970261c555ebd9", "type": "electric_scooter", "is_reserved": 0, "lon": -77.0465785}, {"fusion_lat": 0.0, "name": "c18c249fe92cc77041439792b92a728e", "is_disabled": 0, "rental_uris": {"android": "https://dc.lft.to/lastmile_qr_scan", "ios": "https://dc.lft.to/lastmile_qr_scan"}, "fusion_lon": 0.0, "lat": 38.92021916666667, "bike_id": "c18c249fe92cc77041439792b92a728e", "type": "electric_scooter", "is_reserved": 0, "lon": -77.0270825}, {"fusion_lat": 0.0, "name": "768530215245511b5dc50d1ab9c5ec70", "is_disabled": 0, "rental_uris": {"android": "https://dc.lft.to/lastmile_qr_scan", "ios": "https://dc.lft.to/lastmile_qr_scan"}, "fusion_lon": 0.0, "lat": 38.9014445, "bike_id": "768530215245511b5dc50d1ab9c5ec70", "type": "electric_scooter", "is_reserved": 0, "lon": -77.02592483333333}, {"fusion_lat": 0.0, "name": "6ab3b195b2a35302c1985c00beeef82e", "is_disabled": 0, "rental_uris": {"android": "https://dc.lft.to/lastmile_qr_scan", "ios": "https://dc.lft.to/lastmile_qr_scan"}, "fusion_lon": 0.0, "lat": 38.9116295, "bike_id": "6ab3b195b2a35302c1985c00beeef82e", "type": "electric_scooter", "is_reserved": 0, "lon": -77.04353766666667}, {"fusion_lat": 0.0, "name": "6818cce55a503efeeb15bfdd3ba4c641", "is_disabled": 0, "rental_uris": {"android": "https://dc.lft.to/lastmile_qr_scan", "ios": "https://dc.lft.to/lastmile_qr_scan"}, "fusion_lon": 0.0, "lat": 38.934079833333335, "bike_id": "6818cce55a503efeeb15bfdd3ba4c641", "type": "electric_scooter", "is_reserved": 0, "lon": -77.02202366666667}, {"fusion_lat": 0.0, "name": "9c580fa93e840b1ec35058f86b08155f", "is_disabled": 0, "rental_uris": {"android": "https://dc.lft.to/lastmile_qr_scan", "ios": "https://dc.lft.to/lastmile_qr_scan"}, "fusion_lon": 0.0, "lat": 38.931824166666665, "bike_id": "9c580fa93e840b1ec35058f86b08155f", "type": "electric_scooter", "is_reserved": 0, "lon": -77.032957}, {"fusion_lat": 0.0, "name": "32102505e0b3ec106f6e9bd9118efe69", "is_disabled": 0, "rental_uris": {"android": "https://dc.lft.to/lastmile_qr_scan", "ios": "https://dc.lft.to/lastmile_qr_scan"}, "fusion_lon": 0.0, "lat": 38.930615, "bike_id": "32102505e0b3ec106f6e9bd9118efe69", "type": "electric_scooter", "is_reserved": 0, "lon": -77.03940166666666}, {"fusion_lat": 0.0, "name": "ee02d991b4e64c9889843b4e2a59b240", "is_disabled": 0, "rental_uris": {"android": "https://dc.lft.to/lastmile_qr_scan", "ios": "https://dc.lft.to/lastmile_qr_scan"}, "fusion_lon": 0.0, "lat": 38.871388833333334, "bike_id": "ee02d991b4e64c9889843b4e2a59b240", "type": "electric_scooter", "is_reserved": 0, "lon": -77.01226266666667}, {"fusion_lat": 0.0, "name": "8b3ffb76699a501efebbc3574b09832d", "is_disabled": 0, "rental_uris": {"android": "https://dc.lft.to/lastmile_qr_scan", "ios": "https://dc.lft.to/lastmile_qr_scan"}, "fusion_lon": 0.0, "lat": 38.87817066666667, "bike_id": "8b3ffb76699a501efebbc3574b09832d", "type": "electric_scooter", "is_reserved": 0, "lon": -77.01527633333333}, {"fusion_lat": 0.0, "name": "b7a504659f1058a82ca3a86d83db2072", "is_disabled": 0, "rental_uris": {"android": "https://dc.lft.to/lastmile_qr_scan", "ios": "https://dc.lft.to/lastmile_qr_scan"}, "fusion_lon": 0.0, "lat": 38.93575583333333, "bike_id": "b7a504659f1058a82ca3a86d83db2072", "type": "electric_scooter", "is_reserved": 0, "lon": -77.01928733333334}, {"fusion_lat": 0.0, "name": "a87c26f705f034b0aa9e169ea0750e8b", "is_disabled": 0, "rental_uris": {"android": "https://dc.lft.to/lastmile_qr_scan", "ios": "https://dc.lft.to/lastmile_qr_scan"}, "fusion_lon": 0.0, "lat": 38.912965666666665, "bike_id": "a87c26f705f034b0aa9e169ea0750e8b", "type": "electric_scooter", "is_reserved": 0, "lon": -77.04514583333334}, {"fusion_lat": 0.0, "name": "20e3f197895bfa95ac20e313507ceca0", "is_disabled": 0, "rental_uris": {"android": "https://dc.lft.to/lastmile_qr_scan", "ios": "https://dc.lft.to/lastmile_qr_scan"}, "fusion_lon": 0.0, "lat": 38.9278755, "bike_id": "20e3f197895bfa95ac20e313507ceca0", "type": "electric_scooter", "is_reserved": 0, "lon": -77.0430795}, {"fusion_lat": 0.0, "name": "11ede7da86f9e0977a9ba93079238127", "is_disabled": 0, "rental_uris": {"android": "https://dc.lft.to/lastmile_qr_scan", "ios": "https://dc.lft.to/lastmile_qr_scan"}, "fusion_lon": 0.0, "lat": 38.915868, "bike_id": "11ede7da86f9e0977a9ba93079238127", "type": "electric_scooter", "is_reserved": 0, "lon": -77.03175283333333}, {"fusion_lat": 0.0, "name": "157e0d5c820d4a8200681b4277b6df03", "is_disabled": 0, "rental_uris": {"android": "https://dc.lft.to/lastmile_qr_scan", "ios": "https://dc.lft.to/lastmile_qr_scan"}, "fusion_lon": 0.0, "lat": 38.916103, "bike_id": "157e0d5c820d4a8200681b4277b6df03", "type": "electric_scooter", "is_reserved": 0, "lon": -77.045804}, {"fusion_lat": 0.0, "name": "8d1d5576f267014b9ffa40f7138b5268", "is_disabled": 0, "rental_uris": {"android": "https://dc.lft.to/lastmile_qr_scan", "ios": "https://dc.lft.to/lastmile_qr_scan"}, "fusion_lon": 0.0, "lat": 38.935033, "bike_id": "8d1d5576f267014b9ffa40f7138b5268", "type": "electric_scooter", "is_reserved": 0, "lon": -77.03633066666667}, {"fusion_lat": 0.0, "name": "f8c3e57e2ad58ed2306707464002f126", "is_disabled": 0, "rental_uris": {"android": "https://dc.lft.to/lastmile_qr_scan", "ios": "https://dc.lft.to/lastmile_qr_scan"}, "fusion_lon": 0.0, "lat": 38.89220616666667, "bike_id": "f8c3e57e2ad58ed2306707464002f126", "type": "electric_scooter", "is_reserved": 0, "lon": -77.02650966666667}, {"fusion_lat": 0.0, "name": "dc7ab246c4c7a3632659f3dc9f7f3270", "is_disabled": 0, "rental_uris": {"android": "https://dc.lft.to/lastmile_qr_scan", "ios": "https://dc.lft.to/lastmile_qr_scan"}, "fusion_lon": 0.0, "lat": 38.897518166666664, "bike_id": "dc7ab246c4c7a3632659f3dc9f7f3270", "type": "electric_scooter", "is_reserved": 0, "lon": -77.0268065}, {"fusion_lat": 0.0, "name": "bb16016ef3940636ebff9727e247c472", "is_disabled": 0, "rental_uris": {"android": "https://dc.lft.to/lastmile_qr_scan", "ios": "https://dc.lft.to/lastmile_qr_scan"}, "fusion_lon": 0.0, "lat": 38.89846133333333, "bike_id": "bb16016ef3940636ebff9727e247c472", "type": "electric_scooter", "is_reserved": 0, "lon": -77.024798}, {"fusion_lat": 0.0, "name": "165ce5c5b5d8be79dfdefd6619c18bd4", "is_disabled": 0, "rental_uris": {"android": "https://dc.lft.to/lastmile_qr_scan", "ios": "https://dc.lft.to/lastmile_qr_scan"}, "fusion_lon": 0.0, "lat": 38.892223, "bike_id": "165ce5c5b5d8be79dfdefd6619c18bd4", "type": "electric_scooter", "is_reserved": 0, "lon": -77.0321355}, {"fusion_lat": 0.0, "name": "085de96daa5ff8c5d670d3ba380f3824", "is_disabled": 0, "rental_uris": {"android": "https://dc.lft.to/lastmile_qr_scan", "ios": "https://dc.lft.to/lastmile_qr_scan"}, "fusion_lon": 0.0, "lat": 38.923372666666666, "bike_id": "085de96daa5ff8c5d670d3ba380f3824", "type": "electric_scooter", "is_reserved": 0, "lon": -77.0568105}, {"fusion_lat": 0.0, "name": "d4e18212888be8e614c1d85904a8e248", "is_disabled": 0, "rental_uris": {"android": "https://dc.lft.to/lastmile_qr_scan", "ios": "https://dc.lft.to/lastmile_qr_scan"}, "fusion_lon": 0.0, "lat": 38.90946733333333, "bike_id": "d4e18212888be8e614c1d85904a8e248", "type": "electric_scooter", "is_reserved": 0, "lon": -76.98769916666667}, {"fusion_lat": 0.0, "name": "5f2950551cb8a21fe9b3c30e2e7d7886", "is_disabled": 0, "rental_uris": {"android": "https://dc.lft.to/lastmile_qr_scan", "ios": "https://dc.lft.to/lastmile_qr_scan"}, "fusion_lon": 0.0, "lat": 38.90684983333333, "bike_id": "5f2950551cb8a21fe9b3c30e2e7d7886", "type": "electric_scooter", "is_reserved": 0, "lon": -76.99963316666667}, {"fusion_lat": 0.0, "name": "d213491c32a60a78d759a973fa947852", "is_disabled": 0, "rental_uris": {"android": "https://dc.lft.to/lastmile_qr_scan", "ios": "https://dc.lft.to/lastmile_qr_scan"}, "fusion_lon": 0.0, "lat": 38.90558383333333, "bike_id": "d213491c32a60a78d759a973fa947852", "type": "electric_scooter", "is_reserved": 0, "lon": -77.00227916666667}, {"fusion_lat": 0.0, "name": "6b9a6fbe72177779a459051af2902bb8", "is_disabled": 0, "rental_uris": {"android": "https://dc.lft.to/lastmile_qr_scan", "ios": "https://dc.lft.to/lastmile_qr_scan"}, "fusion_lon": 0.0, "lat": 38.88765633333333, "bike_id": "6b9a6fbe72177779a459051af2902bb8", "type": "electric_scooter", "is_reserved": 0, "lon": -77.03341383333333}, {"fusion_lat": 0.0, "name": "09efef93feb2db830ea9eecd5eea0814", "is_disabled": 0, "rental_uris": {"android": "https://dc.lft.to/lastmile_qr_scan", "ios": "https://dc.lft.to/lastmile_qr_scan"}, "fusion_lon": 0.0, "lat": 38.900251833333336, "bike_id": "09efef93feb2db830ea9eecd5eea0814", "type": "electric_scooter", "is_reserved": 0, "lon": -76.973994}, {"fusion_lat": 0.0, "name": "a352a70dc67b06a270357581d664f970", "is_disabled": 0, "rental_uris": {"android": "https://dc.lft.to/lastmile_qr_scan", "ios": "https://dc.lft.to/lastmile_qr_scan"}, "fusion_lon": 0.0, "lat": 38.915363666666664, "bike_id": "a352a70dc67b06a270357581d664f970", "type": "electric_scooter", "is_reserved": 0, "lon": -77.01222583333333}, {"fusion_lat": 0.0, "name": "2d9960e95774a635689e5ed116e59526", "is_disabled": 0, "rental_uris": {"android": "https://dc.lft.to/lastmile_qr_scan", "ios": "https://dc.lft.to/lastmile_qr_scan"}, "fusion_lon": 0.0, "lat": 38.91998533333334, "bike_id": "2d9960e95774a635689e5ed116e59526", "type": "electric_scooter", "is_reserved": 0, "lon": -77.02173083333334}, {"fusion_lat": 0.0, "name": "cc5205f88ab53c78ba08d0cbe0d43b7e", "is_disabled": 0, "rental_uris": {"android": "https://dc.lft.to/lastmile_qr_scan", "ios": "https://dc.lft.to/lastmile_qr_scan"}, "fusion_lon": 0.0, "lat": 38.92233433333333, "bike_id": "cc5205f88ab53c78ba08d0cbe0d43b7e", "type": "electric_bike", "is_reserved": 0, "lon": -77.02337833333333}, {"fusion_lat": 0.0, "name": "26cffb0cc59c8e846e645ab3f4082a6c", "is_disabled": 0, "rental_uris": {"android": "https://dc.lft.to/lastmile_qr_scan", "ios": "https://dc.lft.to/lastmile_qr_scan"}, "fusion_lon": 0.0, "lat": 38.93370566666667, "bike_id": "26cffb0cc59c8e846e645ab3f4082a6c", "type": "electric_scooter", "is_reserved": 0, "lon": -77.03873933333334}, {"fusion_lat": 0.0, "name": "fd9d53fb1ec6b55d3b91942a7808a7e1", "is_disabled": 0, "rental_uris": {"android": "https://dc.lft.to/lastmile_qr_scan", "ios": "https://dc.lft.to/lastmile_qr_scan"}, "fusion_lon": 0.0, "lat": 38.941356166666665, "bike_id": "fd9d53fb1ec6b55d3b91942a7808a7e1", "type": "electric_scooter", "is_reserved": 0, "lon": -77.006097}, {"fusion_lat": 0.0, "name": "b7d8747a2111a530bb8dc030849d072d", "is_disabled": 0, "rental_uris": {"android": "https://dc.lft.to/lastmile_qr_scan", "ios": "https://dc.lft.to/lastmile_qr_scan"}, "fusion_lon": 0.0, "lat": 38.930435, "bike_id": "b7d8747a2111a530bb8dc030849d072d", "type": "electric_scooter", "is_reserved": 0, "lon": -77.03245616666666}, {"fusion_lat": 0.0, "name": "1d9b39e11562ab1769afbff2777e0204", "is_disabled": 0, "rental_uris": {"android": "https://dc.lft.to/lastmile_qr_scan", "ios": "https://dc.lft.to/lastmile_qr_scan"}, "fusion_lon": 0.0, "lat": 38.926086166666664, "bike_id": "1d9b39e11562ab1769afbff2777e0204", "type": "electric_scooter", "is_reserved": 0, "lon": -77.0239045}, {"fusion_lat": 0.0, "name": "4046790f58abe0b911950b86c5f536e9", "is_disabled": 0, "rental_uris": {"android": "https://dc.lft.to/lastmile_qr_scan", "ios": "https://dc.lft.to/lastmile_qr_scan"}, "fusion_lon": 0.0, "lat": 38.926235166666665, "bike_id": "4046790f58abe0b911950b86c5f536e9", "type": "electric_scooter", "is_reserved": 0, "lon": -77.04195666666666}, {"fusion_lat": 0.0, "name": "d28da60e07b060e62b86b10fb63f2334", "is_disabled": 0, "rental_uris": {"android": "https://dc.lft.to/lastmile_qr_scan", "ios": "https://dc.lft.to/lastmile_qr_scan"}, "fusion_lon": 0.0, "lat": 38.9174415, "bike_id": "d28da60e07b060e62b86b10fb63f2334", "type": "electric_scooter", "is_reserved": 0, "lon": -77.031862}, {"fusion_lat": 0.0, "name": "9d486ff2e5ab74582fa2222fad19b375", "is_disabled": 0, "rental_uris": {"android": "https://dc.lft.to/lastmile_qr_scan", "ios": "https://dc.lft.to/lastmile_qr_scan"}, "fusion_lon": 0.0, "lat": 38.909775333333336, "bike_id": "9d486ff2e5ab74582fa2222fad19b375", "type": "electric_scooter", "is_reserved": 0, "lon": -77.0460885}, {"fusion_lat": 0.0, "name": "4dbaecb9dadf1b459aa076116882a65e", "is_disabled": 0, "rental_uris": {"android": "https://dc.lft.to/lastmile_qr_scan", "ios": "https://dc.lft.to/lastmile_qr_scan"}, "fusion_lon": 0.0, "lat": 38.9112115, "bike_id": "4dbaecb9dadf1b459aa076116882a65e", "type": "electric_scooter", "is_reserved": 0, "lon": -77.01162066666667}, {"fusion_lat": 0.0, "name": "64c9f6673403a492512cc17a7ba8fea0", "is_disabled": 0, "rental_uris": {"android": "https://dc.lft.to/lastmile_qr_scan", "ios": "https://dc.lft.to/lastmile_qr_scan"}, "fusion_lon": 0.0, "lat": 38.904226, "bike_id": "64c9f6673403a492512cc17a7ba8fea0", "type": "electric_scooter", "is_reserved": 0, "lon": -77.02599783333334}, {"fusion_lat": 0.0, "name": "f470bbe6187a0e42e8d7b730594c7d88", "is_disabled": 0, "rental_uris": {"android": "https://dc.lft.to/lastmile_qr_scan", "ios": "https://dc.lft.to/lastmile_qr_scan"}, "fusion_lon": 0.0, "lat": 38.90127016666667, "bike_id": "f470bbe6187a0e42e8d7b730594c7d88", "type": "electric_scooter", "is_reserved": 0, "lon": -77.04158283333334}, {"fusion_lat": 0.0, "name": "09041ee58951a94b08d4d94c2a09f103", "is_disabled": 0, "rental_uris": {"android": "https://dc.lft.to/lastmile_qr_scan", "ios": "https://dc.lft.to/lastmile_qr_scan"}, "fusion_lon": 0.0, "lat": 38.93109183333333, "bike_id": "09041ee58951a94b08d4d94c2a09f103", "type": "electric_scooter", "is_reserved": 0, "lon": -77.02389766666667}, {"fusion_lat": 0.0, "name": "cc444a34ea96524c7065f02cd37416a8", "is_disabled": 0, "rental_uris": {"android": "https://dc.lft.to/lastmile_qr_scan", "ios": "https://dc.lft.to/lastmile_qr_scan"}, "fusion_lon": 0.0, "lat": 38.900255333333334, "bike_id": "cc444a34ea96524c7065f02cd37416a8", "type": "electric_scooter", "is_reserved": 0, "lon": -77.048906}, {"fusion_lat": 0.0, "name": "e7362c1b6450125588ff5e8b4dc9103f", "is_disabled": 0, "rental_uris": {"android": "https://dc.lft.to/lastmile_qr_scan", "ios": "https://dc.lft.to/lastmile_qr_scan"}, "fusion_lon": 0.0, "lat": 38.927776333333334, "bike_id": "e7362c1b6450125588ff5e8b4dc9103f", "type": "electric_scooter", "is_reserved": 0, "lon": -77.02290966666666}, {"fusion_lat": 0.0, "name": "7f79f0fed50975ce2440ce3d80f1fc56", "is_disabled": 0, "rental_uris": {"android": "https://dc.lft.to/lastmile_qr_scan", "ios": "https://dc.lft.to/lastmile_qr_scan"}, "fusion_lon": 0.0, "lat": 38.92326883333333, "bike_id": "7f79f0fed50975ce2440ce3d80f1fc56", "type": "electric_scooter", "is_reserved": 0, "lon": -77.04130116666667}, {"fusion_lat": 0.0, "name": "bc5a8d513fbb887ca0ae1c4c26407ad0", "is_disabled": 0, "rental_uris": {"android": "https://dc.lft.to/lastmile_qr_scan", "ios": "https://dc.lft.to/lastmile_qr_scan"}, "fusion_lon": 0.0, "lat": 38.919182, "bike_id": "bc5a8d513fbb887ca0ae1c4c26407ad0", "type": "electric_scooter", "is_reserved": 0, "lon": -77.02431}, {"fusion_lat": 0.0, "name": "a1ec6429ee552d5086604e6136490800", "is_disabled": 0, "rental_uris": {"android": "https://dc.lft.to/lastmile_qr_scan", "ios": "https://dc.lft.to/lastmile_qr_scan"}, "fusion_lon": 0.0, "lat": 38.89930833333333, "bike_id": "a1ec6429ee552d5086604e6136490800", "type": "electric_scooter", "is_reserved": 0, "lon": -77.0402645}, {"fusion_lat": 0.0, "name": "e2663b7c0c83f6ef14f8e089d2a9ef05", "is_disabled": 0, "rental_uris": {"android": "https://dc.lft.to/lastmile_qr_scan", "ios": "https://dc.lft.to/lastmile_qr_scan"}, "fusion_lon": 0.0, "lat": 38.911766666666665, "bike_id": "e2663b7c0c83f6ef14f8e089d2a9ef05", "type": "electric_scooter", "is_reserved": 0, "lon": -77.03183016666667}, {"fusion_lat": 0.0, "name": "e566f59ae474b5a8a8658a6159c1d045", "is_disabled": 0, "rental_uris": {"android": "https://dc.lft.to/lastmile_qr_scan", "ios": "https://dc.lft.to/lastmile_qr_scan"}, "fusion_lon": 0.0, "lat": 38.920692833333334, "bike_id": "e566f59ae474b5a8a8658a6159c1d045", "type": "electric_bike", "is_reserved": 0, "lon": -77.239596}, {"fusion_lat": 0.0, "name": "f4649b61aacb97e2f3797802ac918d4d", "is_disabled": 0, "rental_uris": {"android": "https://dc.lft.to/lastmile_qr_scan", "ios": "https://dc.lft.to/lastmile_qr_scan"}, "fusion_lon": 0.0, "lat": 38.879355333333336, "bike_id": "f4649b61aacb97e2f3797802ac918d4d", "type": "electric_scooter", "is_reserved": 0, "lon": -77.02371133333334}, {"fusion_lat": 0.0, "name": "35410eccbe7d3300acf9c9078f058523", "is_disabled": 0, "rental_uris": {"android": "https://dc.lft.to/lastmile_qr_scan", "ios": "https://dc.lft.to/lastmile_qr_scan"}, "fusion_lon": 0.0, "lat": 38.9418995, "bike_id": "35410eccbe7d3300acf9c9078f058523", "type": "electric_scooter", "is_reserved": 0, "lon": -77.02490616666667}, {"fusion_lat": 0.0, "name": "245d9a569a60ee0cfbe3330f43889af8", "is_disabled": 0, "rental_uris": {"android": "https://dc.lft.to/lastmile_qr_scan", "ios": "https://dc.lft.to/lastmile_qr_scan"}, "fusion_lon": 0.0, "lat": 38.92157666666667, "bike_id": "245d9a569a60ee0cfbe3330f43889af8", "type": "electric_scooter", "is_reserved": 0, "lon": -77.04239716666666}, {"fusion_lat": 0.0, "name": "7ce3eb1271d0f47bd0bf2615b553e087", "is_disabled": 0, "rental_uris": {"android": "https://dc.lft.to/lastmile_qr_scan", "ios": "https://dc.lft.to/lastmile_qr_scan"}, "fusion_lon": 0.0, "lat": 38.898576166666665, "bike_id": "7ce3eb1271d0f47bd0bf2615b553e087", "type": "electric_scooter", "is_reserved": 0, "lon": -76.9504565}, {"fusion_lat": 0.0, "name": "4a0c7c26d3c8aef9c9aa9a8e24cef4ee", "is_disabled": 0, "rental_uris": {"android": "https://dc.lft.to/lastmile_qr_scan", "ios": "https://dc.lft.to/lastmile_qr_scan"}, "fusion_lon": 0.0, "lat": 38.91681083333334, "bike_id": "4a0c7c26d3c8aef9c9aa9a8e24cef4ee", "type": "electric_scooter", "is_reserved": 0, "lon": -77.029753}, {"fusion_lat": 0.0, "name": "99b8ba3e653c5765179ccb4f3023c18d", "is_disabled": 0, "rental_uris": {"android": "https://dc.lft.to/lastmile_qr_scan", "ios": "https://dc.lft.to/lastmile_qr_scan"}, "fusion_lon": 0.0, "lat": 38.8853225, "bike_id": "99b8ba3e653c5765179ccb4f3023c18d", "type": "electric_scooter", "is_reserved": 0, "lon": -76.99612283333333}, {"fusion_lat": 0.0, "name": "ba93f90e72b1e12e376538bb0067336a", "is_disabled": 0, "rental_uris": {"android": "https://dc.lft.to/lastmile_qr_scan", "ios": "https://dc.lft.to/lastmile_qr_scan"}, "fusion_lon": 0.0, "lat": 38.905795166666664, "bike_id": "ba93f90e72b1e12e376538bb0067336a", "type": "electric_scooter", "is_reserved": 0, "lon": -77.04197833333333}, {"fusion_lat": 0.0, "name": "f397f1b37defce7a5a8d9f106213df8c", "is_disabled": 0, "rental_uris": {"android": "https://dc.lft.to/lastmile_qr_scan", "ios": "https://dc.lft.to/lastmile_qr_scan"}, "fusion_lon": 0.0, "lat": 38.96074983333333, "bike_id": "f397f1b37defce7a5a8d9f106213df8c", "type": "electric_scooter", "is_reserved": 0, "lon": -77.00094683333333}, {"fusion_lat": 0.0, "name": "f735205614ad018c720eb3f66c318394", "is_disabled": 0, "rental_uris": {"android": "https://dc.lft.to/lastmile_qr_scan", "ios": "https://dc.lft.to/lastmile_qr_scan"}, "fusion_lon": 0.0, "lat": 38.898813833333335, "bike_id": "f735205614ad018c720eb3f66c318394", "type": "electric_scooter", "is_reserved": 0, "lon": -77.00922083333333}, {"fusion_lat": 0.0, "name": "0e68426f8f2ec914564937f3100db0e2", "is_disabled": 0, "rental_uris": {"android": "https://dc.lft.to/lastmile_qr_scan", "ios": "https://dc.lft.to/lastmile_qr_scan"}, "fusion_lon": 0.0, "lat": 38.902073333333334, "bike_id": "0e68426f8f2ec914564937f3100db0e2", "type": "electric_scooter", "is_reserved": 0, "lon": -77.02381016666666}, {"fusion_lat": 0.0, "name": "b2097747a568b3ed15275f7201ea49cd", "is_disabled": 0, "rental_uris": {"android": "https://dc.lft.to/lastmile_qr_scan", "ios": "https://dc.lft.to/lastmile_qr_scan"}, "fusion_lon": 0.0, "lat": 38.90430933333333, "bike_id": "b2097747a568b3ed15275f7201ea49cd", "type": "electric_scooter", "is_reserved": 0, "lon": -77.0483815}, {"fusion_lat": 0.0, "name": "694dbada1eabf0128d7316399ab0dc69", "is_disabled": 0, "rental_uris": {"android": "https://dc.lft.to/lastmile_qr_scan", "ios": "https://dc.lft.to/lastmile_qr_scan"}, "fusion_lon": 0.0, "lat": 38.89732883333333, "bike_id": "694dbada1eabf0128d7316399ab0dc69", "type": "electric_scooter", "is_reserved": 0, "lon": -76.947016}, {"fusion_lat": 0.0, "name": "3a3a05e0424202b9bdbbbdb0bc53a195", "is_disabled": 0, "rental_uris": {"android": "https://dc.lft.to/lastmile_qr_scan", "ios": "https://dc.lft.to/lastmile_qr_scan"}, "fusion_lon": 0.0, "lat": 38.923035166666665, "bike_id": "3a3a05e0424202b9bdbbbdb0bc53a195", "type": "electric_scooter", "is_reserved": 0, "lon": -77.0413475}, {"fusion_lat": 0.0, "name": "11e511f89cb675b6fba6c7c51eecfc93", "is_disabled": 0, "rental_uris": {"android": "https://dc.lft.to/lastmile_qr_scan", "ios": "https://dc.lft.to/lastmile_qr_scan"}, "fusion_lon": 0.0, "lat": 38.93243183333333, "bike_id": "11e511f89cb675b6fba6c7c51eecfc93", "type": "electric_scooter", "is_reserved": 0, "lon": -77.03412566666667}, {"fusion_lat": 0.0, "name": "0547f60de040e1314ad0c14b27bc47e8", "is_disabled": 0, "rental_uris": {"android": "https://dc.lft.to/lastmile_qr_scan", "ios": "https://dc.lft.to/lastmile_qr_scan"}, "fusion_lon": 0.0, "lat": 38.90559283333333, "bike_id": "0547f60de040e1314ad0c14b27bc47e8", "type": "electric_scooter", "is_reserved": 0, "lon": -77.04656766666666}, {"fusion_lat": 0.0, "name": "223ef66774ae03ac474f4f5520fb05ff", "is_disabled": 0, "rental_uris": {"android": "https://dc.lft.to/lastmile_qr_scan", "ios": "https://dc.lft.to/lastmile_qr_scan"}, "fusion_lon": 0.0, "lat": 38.93864683333334, "bike_id": "223ef66774ae03ac474f4f5520fb05ff", "type": "electric_scooter", "is_reserved": 0, "lon": -77.03428583333333}, {"fusion_lat": 0.0, "name": "48aec93ac0353c14cb723ebbe5375510", "is_disabled": 0, "rental_uris": {"android": "https://dc.lft.to/lastmile_qr_scan", "ios": "https://dc.lft.to/lastmile_qr_scan"}, "fusion_lon": 0.0, "lat": 38.916942166666665, "bike_id": "48aec93ac0353c14cb723ebbe5375510", "type": "electric_scooter", "is_reserved": 0, "lon": -77.03381133333333}, {"fusion_lat": 0.0, "name": "8fe07cd39c5ae926de253e233aa2ce7a", "is_disabled": 0, "rental_uris": {"android": "https://dc.lft.to/lastmile_qr_scan", "ios": "https://dc.lft.to/lastmile_qr_scan"}, "fusion_lon": 0.0, "lat": 38.90654983333334, "bike_id": "8fe07cd39c5ae926de253e233aa2ce7a", "type": "electric_scooter", "is_reserved": 0, "lon": -77.0531905}, {"fusion_lat": 0.0, "name": "79bacad359600a861f857734a529e577", "is_disabled": 0, "rental_uris": {"android": "https://dc.lft.to/lastmile_qr_scan", "ios": "https://dc.lft.to/lastmile_qr_scan"}, "fusion_lon": 0.0, "lat": 38.924835, "bike_id": "79bacad359600a861f857734a529e577", "type": "electric_scooter", "is_reserved": 0, "lon": -77.05210883333334}, {"fusion_lat": 0.0, "name": "5e022ef5424c99753604d05de96f5af6", "is_disabled": 0, "rental_uris": {"android": "https://dc.lft.to/lastmile_qr_scan", "ios": "https://dc.lft.to/lastmile_qr_scan"}, "fusion_lon": 0.0, "lat": 38.89907516666667, "bike_id": "5e022ef5424c99753604d05de96f5af6", "type": "electric_scooter", "is_reserved": 0, "lon": -76.93345166666667}, {"fusion_lat": 0.0, "name": "ba22c9afc1098b755bb3862d75e00826", "is_disabled": 0, "rental_uris": {"android": "https://dc.lft.to/lastmile_qr_scan", "ios": "https://dc.lft.to/lastmile_qr_scan"}, "fusion_lon": 0.0, "lat": 38.93420416666667, "bike_id": "ba22c9afc1098b755bb3862d75e00826", "type": "electric_scooter", "is_reserved": 0, "lon": -77.0415825}, {"fusion_lat": 0.0, "name": "54193363b53b111e02eea3ee301d0c83", "is_disabled": 0, "rental_uris": {"android": "https://dc.lft.to/lastmile_qr_scan", "ios": "https://dc.lft.to/lastmile_qr_scan"}, "fusion_lon": 0.0, "lat": 38.89726816666666, "bike_id": "54193363b53b111e02eea3ee301d0c83", "type": "electric_scooter", "is_reserved": 0, "lon": -77.02769083333334}, {"fusion_lat": 0.0, "name": "82c97f96b1faaa4f05178c4141f6b5bf", "is_disabled": 0, "rental_uris": {"android": "https://dc.lft.to/lastmile_qr_scan", "ios": "https://dc.lft.to/lastmile_qr_scan"}, "fusion_lon": 0.0, "lat": 38.91134683333333, "bike_id": "82c97f96b1faaa4f05178c4141f6b5bf", "type": "electric_scooter", "is_reserved": 0, "lon": -77.03204083333334}, {"fusion_lat": 0.0, "name": "bd004397d10e0b766fce7c4693bd62ca", "is_disabled": 0, "rental_uris": {"android": "https://dc.lft.to/lastmile_qr_scan", "ios": "https://dc.lft.to/lastmile_qr_scan"}, "fusion_lon": 0.0, "lat": 38.9099645, "bike_id": "bd004397d10e0b766fce7c4693bd62ca", "type": "electric_scooter", "is_reserved": 0, "lon": -77.04664683333333}, {"fusion_lat": 0.0, "name": "783ae7a0bdb6dda76af136a84e8f7028", "is_disabled": 0, "rental_uris": {"android": "https://dc.lft.to/lastmile_qr_scan", "ios": "https://dc.lft.to/lastmile_qr_scan"}, "fusion_lon": 0.0, "lat": 38.924823833333335, "bike_id": "783ae7a0bdb6dda76af136a84e8f7028", "type": "electric_scooter", "is_reserved": 0, "lon": -77.05216333333334}, {"fusion_lat": 0.0, "name": "5f9a6999b1ba08721f54175b1af4c094", "is_disabled": 0, "rental_uris": {"android": "https://dc.lft.to/lastmile_qr_scan", "ios": "https://dc.lft.to/lastmile_qr_scan"}, "fusion_lon": 0.0, "lat": 38.901258, "bike_id": "5f9a6999b1ba08721f54175b1af4c094", "type": "electric_scooter", "is_reserved": 0, "lon": -77.0021185}, {"fusion_lat": 0.0, "name": "bea8851b267e0998d8d054e9fe32ac01", "is_disabled": 0, "rental_uris": {"android": "https://dc.lft.to/lastmile_qr_scan", "ios": "https://dc.lft.to/lastmile_qr_scan"}, "fusion_lon": 0.0, "lat": 38.944073833333334, "bike_id": "bea8851b267e0998d8d054e9fe32ac01", "type": "electric_scooter", "is_reserved": 0, "lon": -77.03862716666667}, {"fusion_lat": 0.0, "name": "125b1f6e1fabf87d0ada5a564a4d1ac3", "is_disabled": 0, "rental_uris": {"android": "https://dc.lft.to/lastmile_qr_scan", "ios": "https://dc.lft.to/lastmile_qr_scan"}, "fusion_lon": 0.0, "lat": 38.824633166666665, "bike_id": "125b1f6e1fabf87d0ada5a564a4d1ac3", "type": "electric_bike", "is_reserved": 0, "lon": -77.0079335}, {"fusion_lat": 0.0, "name": "5d3df3999939b6625bb4251bf6d3212d", "is_disabled": 0, "rental_uris": {"android": "https://dc.lft.to/lastmile_qr_scan", "ios": "https://dc.lft.to/lastmile_qr_scan"}, "fusion_lon": 0.0, "lat": 38.91355383333333, "bike_id": "5d3df3999939b6625bb4251bf6d3212d", "type": "electric_scooter", "is_reserved": 0, "lon": -77.031785}, {"fusion_lat": 0.0, "name": "36c4786689c0b5a6f82c916bb5564c94", "is_disabled": 0, "rental_uris": {"android": "https://dc.lft.to/lastmile_qr_scan", "ios": "https://dc.lft.to/lastmile_qr_scan"}, "fusion_lon": 0.0, "lat": 38.92966066666666, "bike_id": "36c4786689c0b5a6f82c916bb5564c94", "type": "electric_scooter", "is_reserved": 0, "lon": -77.0197515}, {"fusion_lat": 0.0, "name": "702661f83ca31c144358e17b604522c6", "is_disabled": 0, "rental_uris": {"android": "https://dc.lft.to/lastmile_qr_scan", "ios": "https://dc.lft.to/lastmile_qr_scan"}, "fusion_lon": 0.0, "lat": 38.9044635, "bike_id": "702661f83ca31c144358e17b604522c6", "type": "electric_scooter", "is_reserved": 0, "lon": -77.06020266666667}, {"fusion_lat": 0.0, "name": "364272236458817ba381ba9adc8b0d0e", "is_disabled": 0, "rental_uris": {"android": "https://dc.lft.to/lastmile_qr_scan", "ios": "https://dc.lft.to/lastmile_qr_scan"}, "fusion_lon": 0.0, "lat": 38.8960225, "bike_id": "364272236458817ba381ba9adc8b0d0e", "type": "electric_scooter", "is_reserved": 0, "lon": -77.009481}, {"fusion_lat": 0.0, "name": "b9094307e76536c53822d6af4dab73f0", "is_disabled": 0, "rental_uris": {"android": "https://dc.lft.to/lastmile_qr_scan", "ios": "https://dc.lft.to/lastmile_qr_scan"}, "fusion_lon": 0.0, "lat": 38.921100833333334, "bike_id": "b9094307e76536c53822d6af4dab73f0", "type": "electric_scooter", "is_reserved": 0, "lon": -77.0632915}, {"fusion_lat": 0.0, "name": "bc7649638e46052b9d2ff30834e15b07", "is_disabled": 0, "rental_uris": {"android": "https://dc.lft.to/lastmile_qr_scan", "ios": "https://dc.lft.to/lastmile_qr_scan"}, "fusion_lon": 0.0, "lat": 38.899030833333335, "bike_id": "bc7649638e46052b9d2ff30834e15b07", "type": "electric_scooter", "is_reserved": 0, "lon": -76.94548883333333}, {"fusion_lat": 0.0, "name": "c063786cbc4f045084b6660420b5b8e4", "is_disabled": 0, "rental_uris": {"android": "https://dc.lft.to/lastmile_qr_scan", "ios": "https://dc.lft.to/lastmile_qr_scan"}, "fusion_lon": 0.0, "lat": 38.8430105, "bike_id": "c063786cbc4f045084b6660420b5b8e4", "type": "electric_bike", "is_reserved": 0, "lon": -77.10861466666667}, {"fusion_lat": 0.0, "name": "eac7aefbd306b03ac6df825b06f00f0d", "is_disabled": 0, "rental_uris": {"android": "https://dc.lft.to/lastmile_qr_scan", "ios": "https://dc.lft.to/lastmile_qr_scan"}, "fusion_lon": 0.0, "lat": 38.892233, "bike_id": "eac7aefbd306b03ac6df825b06f00f0d", "type": "electric_scooter", "is_reserved": 0, "lon": -77.032145}, {"fusion_lat": 0.0, "name": "939d5501732f7347244026383a3d2702", "is_disabled": 0, "rental_uris": {"android": "https://dc.lft.to/lastmile_qr_scan", "ios": "https://dc.lft.to/lastmile_qr_scan"}, "fusion_lon": 0.0, "lat": 38.880271, "bike_id": "939d5501732f7347244026383a3d2702", "type": "electric_scooter", "is_reserved": 0, "lon": -76.93115733333333}, {"fusion_lat": 0.0, "name": "b6d3bbf618d4eb72e911dccc14cd8da5", "is_disabled": 0, "rental_uris": {"android": "https://dc.lft.to/lastmile_qr_scan", "ios": "https://dc.lft.to/lastmile_qr_scan"}, "fusion_lon": 0.0, "lat": 38.92041583333334, "bike_id": "b6d3bbf618d4eb72e911dccc14cd8da5", "type": "electric_scooter", "is_reserved": 0, "lon": -77.02583633333333}, {"fusion_lat": 0.0, "name": "9a90cb9a996049bb9e0c203dafa9aee4", "is_disabled": 0, "rental_uris": {"android": "https://dc.lft.to/lastmile_qr_scan", "ios": "https://dc.lft.to/lastmile_qr_scan"}, "fusion_lon": 0.0, "lat": 38.91415966666667, "bike_id": "9a90cb9a996049bb9e0c203dafa9aee4", "type": "electric_scooter", "is_reserved": 0, "lon": -77.00844516666666}, {"fusion_lat": 0.0, "name": "2f5bf59997c68b4c169ae03d9e464948", "is_disabled": 0, "rental_uris": {"android": "https://dc.lft.to/lastmile_qr_scan", "ios": "https://dc.lft.to/lastmile_qr_scan"}, "fusion_lon": 0.0, "lat": 38.947405333333336, "bike_id": "2f5bf59997c68b4c169ae03d9e464948", "type": "electric_scooter", "is_reserved": 0, "lon": -77.01619316666667}, {"fusion_lat": 0.0, "name": "f033cb1e227fd47e78329c181c4ec448", "is_disabled": 0, "rental_uris": {"android": "https://dc.lft.to/lastmile_qr_scan", "ios": "https://dc.lft.to/lastmile_qr_scan"}, "fusion_lon": 0.0, "lat": 38.93469966666667, "bike_id": "f033cb1e227fd47e78329c181c4ec448", "type": "electric_scooter", "is_reserved": 0, "lon": -77.04118733333334}, {"fusion_lat": 0.0, "name": "f2e642ac554c8c1e3bd064614160726c", "is_disabled": 0, "rental_uris": {"android": "https://dc.lft.to/lastmile_qr_scan", "ios": "https://dc.lft.to/lastmile_qr_scan"}, "fusion_lon": 0.0, "lat": 38.90324733333333, "bike_id": "f2e642ac554c8c1e3bd064614160726c", "type": "electric_scooter", "is_reserved": 0, "lon": -77.011992}, {"fusion_lat": 0.0, "name": "9e5e5a256b02ad1133ba997c434158b9", "is_disabled": 0, "rental_uris": {"android": "https://dc.lft.to/lastmile_qr_scan", "ios": "https://dc.lft.to/lastmile_qr_scan"}, "fusion_lon": 0.0, "lat": 38.87471466666667, "bike_id": "9e5e5a256b02ad1133ba997c434158b9", "type": "electric_scooter", "is_reserved": 0, "lon": -77.00561916666666}, {"fusion_lat": 0.0, "name": "e753bcba8d02eb03b6249eb514ec59e0", "is_disabled": 0, "rental_uris": {"android": "https://dc.lft.to/lastmile_qr_scan", "ios": "https://dc.lft.to/lastmile_qr_scan"}, "fusion_lon": 0.0, "lat": 38.916335, "bike_id": "e753bcba8d02eb03b6249eb514ec59e0", "type": "electric_scooter", "is_reserved": 0, "lon": -77.01347416666667}, {"fusion_lat": 0.0, "name": "bb11afdda9c8b508039dbe065ecbe5cb", "is_disabled": 0, "rental_uris": {"android": "https://dc.lft.to/lastmile_qr_scan", "ios": "https://dc.lft.to/lastmile_qr_scan"}, "fusion_lon": 0.0, "lat": 38.88739316666667, "bike_id": "bb11afdda9c8b508039dbe065ecbe5cb", "type": "electric_scooter", "is_reserved": 0, "lon": -77.003459}, {"fusion_lat": 0.0, "name": "8361f56e3734953bdd70c23428990bd5", "is_disabled": 0, "rental_uris": {"android": "https://dc.lft.to/lastmile_qr_scan", "ios": "https://dc.lft.to/lastmile_qr_scan"}, "fusion_lon": 0.0, "lat": 38.885587, "bike_id": "8361f56e3734953bdd70c23428990bd5", "type": "electric_scooter", "is_reserved": 0, "lon": -77.02009133333334}, {"fusion_lat": 0.0, "name": "de01c50627bdcbeb8dc63098db487191", "is_disabled": 0, "rental_uris": {"android": "https://dc.lft.to/lastmile_qr_scan", "ios": "https://dc.lft.to/lastmile_qr_scan"}, "fusion_lon": 0.0, "lat": 38.907307, "bike_id": "de01c50627bdcbeb8dc63098db487191", "type": "electric_scooter", "is_reserved": 0, "lon": -77.04812433333333}, {"fusion_lat": 0.0, "name": "65ecef1b2b67aea800a4d7381d1835de", "is_disabled": 0, "rental_uris": {"android": "https://dc.lft.to/lastmile_qr_scan", "ios": "https://dc.lft.to/lastmile_qr_scan"}, "fusion_lon": 0.0, "lat": 38.9051625, "bike_id": "65ecef1b2b67aea800a4d7381d1835de", "type": "electric_scooter", "is_reserved": 0, "lon": -77.0481015}, {"fusion_lat": 0.0, "name": "d28b550a30bc9a85f127681a73387e55", "is_disabled": 0, "rental_uris": {"android": "https://dc.lft.to/lastmile_qr_scan", "ios": "https://dc.lft.to/lastmile_qr_scan"}, "fusion_lon": 0.0, "lat": 38.923298333333335, "bike_id": "d28b550a30bc9a85f127681a73387e55", "type": "electric_scooter", "is_reserved": 0, "lon": -77.0207355}, {"fusion_lat": 0.0, "name": "2b645b904573c4f8813a8eb46efb35f4", "is_disabled": 0, "rental_uris": {"android": "https://dc.lft.to/lastmile_qr_scan", "ios": "https://dc.lft.to/lastmile_qr_scan"}, "fusion_lon": 0.0, "lat": 38.940738333333336, "bike_id": "2b645b904573c4f8813a8eb46efb35f4", "type": "electric_bike", "is_reserved": 0, "lon": -76.9945765}, {"fusion_lat": 0.0, "name": "8c602e120f799491a791c7f4453f2b5c", "is_disabled": 0, "rental_uris": {"android": "https://dc.lft.to/lastmile_qr_scan", "ios": "https://dc.lft.to/lastmile_qr_scan"}, "fusion_lon": 0.0, "lat": 38.919193166666666, "bike_id": "8c602e120f799491a791c7f4453f2b5c", "type": "electric_scooter", "is_reserved": 0, "lon": -77.0241095}, {"fusion_lat": 0.0, "name": "1dd561c5556a2cef9ea324ebc47b9964", "is_disabled": 0, "rental_uris": {"android": "https://dc.lft.to/lastmile_qr_scan", "ios": "https://dc.lft.to/lastmile_qr_scan"}, "fusion_lon": 0.0, "lat": 38.887302166666665, "bike_id": "1dd561c5556a2cef9ea324ebc47b9964", "type": "electric_scooter", "is_reserved": 0, "lon": -77.02584683333333}, {"fusion_lat": 0.0, "name": "4f66beb490e4c3053aea72f7aeba1240", "is_disabled": 0, "rental_uris": {"android": "https://dc.lft.to/lastmile_qr_scan", "ios": "https://dc.lft.to/lastmile_qr_scan"}, "fusion_lon": 0.0, "lat": 38.89775733333333, "bike_id": "4f66beb490e4c3053aea72f7aeba1240", "type": "electric_scooter", "is_reserved": 0, "lon": -76.9846165}, {"fusion_lat": 0.0, "name": "4ecfa8dd9fd553cc472387a77a80d6d6", "is_disabled": 0, "rental_uris": {"android": "https://dc.lft.to/lastmile_qr_scan", "ios": "https://dc.lft.to/lastmile_qr_scan"}, "fusion_lon": 0.0, "lat": 38.928819833333336, "bike_id": "4ecfa8dd9fd553cc472387a77a80d6d6", "type": "electric_scooter", "is_reserved": 0, "lon": -77.03240516666666}, {"fusion_lat": 0.0, "name": "2cd79da64c1e7165db38990ec0f200e7", "is_disabled": 0, "rental_uris": {"android": "https://dc.lft.to/lastmile_qr_scan", "ios": "https://dc.lft.to/lastmile_qr_scan"}, "fusion_lon": 0.0, "lat": 38.873667833333336, "bike_id": "2cd79da64c1e7165db38990ec0f200e7", "type": "electric_scooter", "is_reserved": 0, "lon": -77.000518}, {"fusion_lat": 0.0, "name": "bc8f67e0b8c10e368cffe6d37843458b", "is_disabled": 0, "rental_uris": {"android": "https://dc.lft.to/lastmile_qr_scan", "ios": "https://dc.lft.to/lastmile_qr_scan"}, "fusion_lon": 0.0, "lat": 38.9191535, "bike_id": "bc8f67e0b8c10e368cffe6d37843458b", "type": "electric_scooter", "is_reserved": 0, "lon": -77.027337}, {"fusion_lat": 0.0, "name": "f9889294b6c2890e878218b890b73253", "is_disabled": 0, "rental_uris": {"android": "https://dc.lft.to/lastmile_qr_scan", "ios": "https://dc.lft.to/lastmile_qr_scan"}, "fusion_lon": 0.0, "lat": 38.878442, "bike_id": "f9889294b6c2890e878218b890b73253", "type": "electric_scooter", "is_reserved": 0, "lon": -76.990396}, {"fusion_lat": 0.0, "name": "a13dccfa08f17788e0de4d942162e64f", "is_disabled": 0, "rental_uris": {"android": "https://dc.lft.to/lastmile_qr_scan", "ios": "https://dc.lft.to/lastmile_qr_scan"}, "fusion_lon": 0.0, "lat": 38.925641166666665, "bike_id": "a13dccfa08f17788e0de4d942162e64f", "type": "electric_scooter", "is_reserved": 0, "lon": -77.02278066666666}, {"fusion_lat": 0.0, "name": "4028c31af0a4c1b0de8b1614cd76346d", "is_disabled": 0, "rental_uris": {"android": "https://dc.lft.to/lastmile_qr_scan", "ios": "https://dc.lft.to/lastmile_qr_scan"}, "fusion_lon": 0.0, "lat": 38.85361966666667, "bike_id": "4028c31af0a4c1b0de8b1614cd76346d", "type": "electric_bike", "is_reserved": 0, "lon": -77.1149765}, {"fusion_lat": 0.0, "name": "a9d07a8d96fa4741540cea0d92e4656f", "is_disabled": 0, "rental_uris": {"android": "https://dc.lft.to/lastmile_qr_scan", "ios": "https://dc.lft.to/lastmile_qr_scan"}, "fusion_lon": 0.0, "lat": 38.897516333333336, "bike_id": "a9d07a8d96fa4741540cea0d92e4656f", "type": "electric_scooter", "is_reserved": 0, "lon": -77.026806}, {"fusion_lat": 0.0, "name": "6e3a9bebd27ab43e866e2c79d8b1ffd5", "is_disabled": 0, "rental_uris": {"android": "https://dc.lft.to/lastmile_qr_scan", "ios": "https://dc.lft.to/lastmile_qr_scan"}, "fusion_lon": 0.0, "lat": 38.9361115, "bike_id": "6e3a9bebd27ab43e866e2c79d8b1ffd5", "type": "electric_scooter", "is_reserved": 0, "lon": -77.05856816666666}, {"fusion_lat": 0.0, "name": "c2af4abd12ace6f71dd35714c75ae2d7", "is_disabled": 0, "rental_uris": {"android": "https://dc.lft.to/lastmile_qr_scan", "ios": "https://dc.lft.to/lastmile_qr_scan"}, "fusion_lon": 0.0, "lat": 38.8830055, "bike_id": "c2af4abd12ace6f71dd35714c75ae2d7", "type": "electric_scooter", "is_reserved": 0, "lon": -77.017497}, {"fusion_lat": 0.0, "name": "2f8ea8f4a5f481ac9146b0c25be7ec91", "is_disabled": 0, "rental_uris": {"android": "https://dc.lft.to/lastmile_qr_scan", "ios": "https://dc.lft.to/lastmile_qr_scan"}, "fusion_lon": 0.0, "lat": 38.87744, "bike_id": "2f8ea8f4a5f481ac9146b0c25be7ec91", "type": "electric_scooter", "is_reserved": 0, "lon": -76.996599}, {"fusion_lat": 0.0, "name": "bd207ea414aacec9cbc3784114cfe71f", "is_disabled": 0, "rental_uris": {"android": "https://dc.lft.to/lastmile_qr_scan", "ios": "https://dc.lft.to/lastmile_qr_scan"}, "fusion_lon": 0.0, "lat": 39.03435733333333, "bike_id": "bd207ea414aacec9cbc3784114cfe71f", "type": "electric_bike", "is_reserved": 0, "lon": -77.0430405}, {"fusion_lat": 0.0, "name": "13b18df2e82860dc77c7054c9e14533b", "is_disabled": 0, "rental_uris": {"android": "https://dc.lft.to/lastmile_qr_scan", "ios": "https://dc.lft.to/lastmile_qr_scan"}, "fusion_lon": 0.0, "lat": 38.934784666666665, "bike_id": "13b18df2e82860dc77c7054c9e14533b", "type": "electric_scooter", "is_reserved": 0, "lon": -77.07341466666666}, {"fusion_lat": 0.0, "name": "372be52f523b845f4cebc19a080edf81", "is_disabled": 0, "rental_uris": {"android": "https://dc.lft.to/lastmile_qr_scan", "ios": "https://dc.lft.to/lastmile_qr_scan"}, "fusion_lon": 0.0, "lat": 38.922497166666666, "bike_id": "372be52f523b845f4cebc19a080edf81", "type": "electric_scooter", "is_reserved": 0, "lon": -77.03084283333334}, {"fusion_lat": 0.0, "name": "3e6344fbd14346169486b99670cbdb06", "is_disabled": 0, "rental_uris": {"android": "https://dc.lft.to/lastmile_qr_scan", "ios": "https://dc.lft.to/lastmile_qr_scan"}, "fusion_lon": 0.0, "lat": 38.9150955, "bike_id": "3e6344fbd14346169486b99670cbdb06", "type": "electric_scooter", "is_reserved": 0, "lon": -77.0326695}, {"fusion_lat": 0.0, "name": "3f1d5af94c639e2e5f1a6618aa308a05", "is_disabled": 0, "rental_uris": {"android": "https://dc.lft.to/lastmile_qr_scan", "ios": "https://dc.lft.to/lastmile_qr_scan"}, "fusion_lon": 0.0, "lat": 38.9053355, "bike_id": "3f1d5af94c639e2e5f1a6618aa308a05", "type": "electric_bike", "is_reserved": 0, "lon": -76.99805033333334}, {"fusion_lat": 0.0, "name": "6f079edcb1a2cf199e3d26fbfa8cf90f", "is_disabled": 0, "rental_uris": {"android": "https://dc.lft.to/lastmile_qr_scan", "ios": "https://dc.lft.to/lastmile_qr_scan"}, "fusion_lon": 0.0, "lat": 38.903431166666664, "bike_id": "6f079edcb1a2cf199e3d26fbfa8cf90f", "type": "electric_scooter", "is_reserved": 0, "lon": -77.04492666666667}, {"fusion_lat": 0.0, "name": "6052b473d264065566e8a908e1468fff", "is_disabled": 0, "rental_uris": {"android": "https://dc.lft.to/lastmile_qr_scan", "ios": "https://dc.lft.to/lastmile_qr_scan"}, "fusion_lon": 0.0, "lat": 38.90907166666667, "bike_id": "6052b473d264065566e8a908e1468fff", "type": "electric_scooter", "is_reserved": 0, "lon": -77.04273633333334}, {"fusion_lat": 0.0, "name": "74bdd4432bf4aa008b5cab2721c63ede", "is_disabled": 0, "rental_uris": {"android": "https://dc.lft.to/lastmile_qr_scan", "ios": "https://dc.lft.to/lastmile_qr_scan"}, "fusion_lon": 0.0, "lat": 38.915356, "bike_id": "74bdd4432bf4aa008b5cab2721c63ede", "type": "electric_scooter", "is_reserved": 0, "lon": -77.01219233333333}, {"fusion_lat": 0.0, "name": "1712921dff4d3c47df9a1577a5d1a34e", "is_disabled": 0, "rental_uris": {"android": "https://dc.lft.to/lastmile_qr_scan", "ios": "https://dc.lft.to/lastmile_qr_scan"}, "fusion_lon": 0.0, "lat": 38.93060933333334, "bike_id": "1712921dff4d3c47df9a1577a5d1a34e", "type": "electric_scooter", "is_reserved": 0, "lon": -77.03801016666667}, {"fusion_lat": 0.0, "name": "8c69eb2acdb275a744697ea245619e4d", "is_disabled": 0, "rental_uris": {"android": "https://dc.lft.to/lastmile_qr_scan", "ios": "https://dc.lft.to/lastmile_qr_scan"}, "fusion_lon": 0.0, "lat": 38.89576366666667, "bike_id": "8c69eb2acdb275a744697ea245619e4d", "type": "electric_scooter", "is_reserved": 0, "lon": -76.9487565}, {"fusion_lat": 0.0, "name": "b3a30105a55592113b3b3fed57e20621", "is_disabled": 0, "rental_uris": {"android": "https://dc.lft.to/lastmile_qr_scan", "ios": "https://dc.lft.to/lastmile_qr_scan"}, "fusion_lon": 0.0, "lat": 38.878529, "bike_id": "b3a30105a55592113b3b3fed57e20621", "type": "electric_scooter", "is_reserved": 0, "lon": -77.00109583333334}, {"fusion_lat": 0.0, "name": "ac60f1e2a1ecc56c37781e5aac956388", "is_disabled": 0, "rental_uris": {"android": "https://dc.lft.to/lastmile_qr_scan", "ios": "https://dc.lft.to/lastmile_qr_scan"}, "fusion_lon": 0.0, "lat": 38.910142666666665, "bike_id": "ac60f1e2a1ecc56c37781e5aac956388", "type": "electric_scooter", "is_reserved": 0, "lon": -77.038381}, {"fusion_lat": 0.0, "name": "4a43f9b60f726d1cc85ab411f819325b", "is_disabled": 0, "rental_uris": {"android": "https://dc.lft.to/lastmile_qr_scan", "ios": "https://dc.lft.to/lastmile_qr_scan"}, "fusion_lon": 0.0, "lat": 38.9073505, "bike_id": "4a43f9b60f726d1cc85ab411f819325b", "type": "electric_scooter", "is_reserved": 0, "lon": -77.00508683333334}, {"fusion_lat": 0.0, "name": "217c0560ff4949c79b1c43cdc4592200", "is_disabled": 0, "rental_uris": {"android": "https://dc.lft.to/lastmile_qr_scan", "ios": "https://dc.lft.to/lastmile_qr_scan"}, "fusion_lon": 0.0, "lat": 38.906858666666665, "bike_id": "217c0560ff4949c79b1c43cdc4592200", "type": "electric_scooter", "is_reserved": 0, "lon": -77.0269515}, {"fusion_lat": 0.0, "name": "7a1a980de07ff5a56ec577ad5a59740a", "is_disabled": 0, "rental_uris": {"android": "https://dc.lft.to/lastmile_qr_scan", "ios": "https://dc.lft.to/lastmile_qr_scan"}, "fusion_lon": 0.0, "lat": 38.915914, "bike_id": "7a1a980de07ff5a56ec577ad5a59740a", "type": "electric_scooter", "is_reserved": 0, "lon": -77.03176666666667}, {"fusion_lat": 0.0, "name": "e9d9effa120e293f7557fa64d4425e29", "is_disabled": 0, "rental_uris": {"android": "https://dc.lft.to/lastmile_qr_scan", "ios": "https://dc.lft.to/lastmile_qr_scan"}, "fusion_lon": 0.0, "lat": 38.90729683333333, "bike_id": "e9d9effa120e293f7557fa64d4425e29", "type": "electric_scooter", "is_reserved": 0, "lon": -77.0496675}, {"fusion_lat": 0.0, "name": "8bd87a892e0dded131aa4f1ada7921e2", "is_disabled": 0, "rental_uris": {"android": "https://dc.lft.to/lastmile_qr_scan", "ios": "https://dc.lft.to/lastmile_qr_scan"}, "fusion_lon": 0.0, "lat": 38.90379683333333, "bike_id": "8bd87a892e0dded131aa4f1ada7921e2", "type": "electric_scooter", "is_reserved": 0, "lon": -77.00728416666666}, {"fusion_lat": 0.0, "name": "bdfaba96285f1196203e32b1d538ca50", "is_disabled": 0, "rental_uris": {"android": "https://dc.lft.to/lastmile_qr_scan", "ios": "https://dc.lft.to/lastmile_qr_scan"}, "fusion_lon": 0.0, "lat": 38.92876783333333, "bike_id": "bdfaba96285f1196203e32b1d538ca50", "type": "electric_scooter", "is_reserved": 0, "lon": -77.01362866666666}, {"fusion_lat": 0.0, "name": "d44b4f8286b152ec45640ff4e048c10c", "is_disabled": 0, "rental_uris": {"android": "https://dc.lft.to/lastmile_qr_scan", "ios": "https://dc.lft.to/lastmile_qr_scan"}, "fusion_lon": 0.0, "lat": 38.87112366666667, "bike_id": "d44b4f8286b152ec45640ff4e048c10c", "type": "electric_scooter", "is_reserved": 0, "lon": -76.96571933333334}, {"fusion_lat": 0.0, "name": "f0acad600b09527bb8db2a6b0ee90ac0", "is_disabled": 0, "rental_uris": {"android": "https://dc.lft.to/lastmile_qr_scan", "ios": "https://dc.lft.to/lastmile_qr_scan"}, "fusion_lon": 0.0, "lat": 38.911727166666665, "bike_id": "f0acad600b09527bb8db2a6b0ee90ac0", "type": "electric_scooter", "is_reserved": 0, "lon": -77.01112583333334}, {"fusion_lat": 0.0, "name": "a67aee159b38ad22917d3964a33be302", "is_disabled": 0, "rental_uris": {"android": "https://dc.lft.to/lastmile_qr_scan", "ios": "https://dc.lft.to/lastmile_qr_scan"}, "fusion_lon": 0.0, "lat": 38.9097725, "bike_id": "a67aee159b38ad22917d3964a33be302", "type": "electric_scooter", "is_reserved": 0, "lon": -77.03890316666667}, {"fusion_lat": 0.0, "name": "47965a1e32ba228d83666aa2eebc3fbe", "is_disabled": 0, "rental_uris": {"android": "https://dc.lft.to/lastmile_qr_scan", "ios": "https://dc.lft.to/lastmile_qr_scan"}, "fusion_lon": 0.0, "lat": 38.95707016666667, "bike_id": "47965a1e32ba228d83666aa2eebc3fbe", "type": "electric_bike", "is_reserved": 0, "lon": -77.01953366666666}, {"fusion_lat": 0.0, "name": "8a6013fb5b3ef6e1a0ef0d4ccd6dd509", "is_disabled": 0, "rental_uris": {"android": "https://dc.lft.to/lastmile_qr_scan", "ios": "https://dc.lft.to/lastmile_qr_scan"}, "fusion_lon": 0.0, "lat": 38.89879783333333, "bike_id": "8a6013fb5b3ef6e1a0ef0d4ccd6dd509", "type": "electric_bike", "is_reserved": 0, "lon": -77.113309}, {"fusion_lat": 0.0, "name": "b71e83cde966c714a002494af00bd691", "is_disabled": 0, "rental_uris": {"android": "https://dc.lft.to/lastmile_qr_scan", "ios": "https://dc.lft.to/lastmile_qr_scan"}, "fusion_lon": 0.0, "lat": 38.91899333333333, "bike_id": "b71e83cde966c714a002494af00bd691", "type": "electric_scooter", "is_reserved": 0, "lon": -77.044694}, {"fusion_lat": 0.0, "name": "dd3f98c636611c63169d9bf420d87113", "is_disabled": 0, "rental_uris": {"android": "https://dc.lft.to/lastmile_qr_scan", "ios": "https://dc.lft.to/lastmile_qr_scan"}, "fusion_lon": 0.0, "lat": 39.0141815, "bike_id": "dd3f98c636611c63169d9bf420d87113", "type": "electric_bike", "is_reserved": 0, "lon": -77.0450175}, {"fusion_lat": 0.0, "name": "1ea94f9205cb96203335f15afa86dbb3", "is_disabled": 0, "rental_uris": {"android": "https://dc.lft.to/lastmile_qr_scan", "ios": "https://dc.lft.to/lastmile_qr_scan"}, "fusion_lon": 0.0, "lat": 38.87374766666667, "bike_id": "1ea94f9205cb96203335f15afa86dbb3", "type": "electric_bike", "is_reserved": 0, "lon": -77.11797}, {"fusion_lat": 0.0, "name": "6362572d0d24a4480e1c5d51657f7b9c", "is_disabled": 0, "rental_uris": {"android": "https://dc.lft.to/lastmile_qr_scan", "ios": "https://dc.lft.to/lastmile_qr_scan"}, "fusion_lon": 0.0, "lat": 38.905789166666665, "bike_id": "6362572d0d24a4480e1c5d51657f7b9c", "type": "electric_scooter", "is_reserved": 0, "lon": -77.01681333333333}, {"fusion_lat": 0.0, "name": "22e6af0e03a669a3ec142fbf66bdd428", "is_disabled": 0, "rental_uris": {"android": "https://dc.lft.to/lastmile_qr_scan", "ios": "https://dc.lft.to/lastmile_qr_scan"}, "fusion_lon": 0.0, "lat": 38.884261, "bike_id": "22e6af0e03a669a3ec142fbf66bdd428", "type": "electric_scooter", "is_reserved": 0, "lon": -77.02893466666667}, {"fusion_lat": 0.0, "name": "cf98c675bfddbf142ff7f271b2e5aefe", "is_disabled": 0, "rental_uris": {"android": "https://dc.lft.to/lastmile_qr_scan", "ios": "https://dc.lft.to/lastmile_qr_scan"}, "fusion_lon": 0.0, "lat": 38.905917, "bike_id": "cf98c675bfddbf142ff7f271b2e5aefe", "type": "electric_scooter", "is_reserved": 0, "lon": -77.04080383333333}, {"fusion_lat": 0.0, "name": "16d0ec1adfec4bcb0fb47f91954394da", "is_disabled": 0, "rental_uris": {"android": "https://dc.lft.to/lastmile_qr_scan", "ios": "https://dc.lft.to/lastmile_qr_scan"}, "fusion_lon": 0.0, "lat": 38.87811133333334, "bike_id": "16d0ec1adfec4bcb0fb47f91954394da", "type": "electric_scooter", "is_reserved": 0, "lon": -77.01526516666667}, {"fusion_lat": 0.0, "name": "c7ba01cc3051a0cbf95325834cc9a96f", "is_disabled": 0, "rental_uris": {"android": "https://dc.lft.to/lastmile_qr_scan", "ios": "https://dc.lft.to/lastmile_qr_scan"}, "fusion_lon": 0.0, "lat": 38.897997, "bike_id": "c7ba01cc3051a0cbf95325834cc9a96f", "type": "electric_scooter", "is_reserved": 0, "lon": -76.98451333333334}, {"fusion_lat": 0.0, "name": "9759adadc9fd50681859c62b69815a9e", "is_disabled": 0, "rental_uris": {"android": "https://dc.lft.to/lastmile_qr_scan", "ios": "https://dc.lft.to/lastmile_qr_scan"}, "fusion_lon": 0.0, "lat": 38.93445666666667, "bike_id": "9759adadc9fd50681859c62b69815a9e", "type": "electric_scooter", "is_reserved": 0, "lon": -77.038638}, {"fusion_lat": 0.0, "name": "1abf65c3b0dabb7f21b2b44ed0bf9634", "is_disabled": 0, "rental_uris": {"android": "https://dc.lft.to/lastmile_qr_scan", "ios": "https://dc.lft.to/lastmile_qr_scan"}, "fusion_lon": 0.0, "lat": 38.87163483333333, "bike_id": "1abf65c3b0dabb7f21b2b44ed0bf9634", "type": "electric_scooter", "is_reserved": 0, "lon": -77.005738}, {"fusion_lat": 0.0, "name": "8f16fde9f3327e464404f6b7c5d01251", "is_disabled": 0, "rental_uris": {"android": "https://dc.lft.to/lastmile_qr_scan", "ios": "https://dc.lft.to/lastmile_qr_scan"}, "fusion_lon": 0.0, "lat": 38.928169833333335, "bike_id": "8f16fde9f3327e464404f6b7c5d01251", "type": "electric_scooter", "is_reserved": 0, "lon": -77.02328316666667}, {"fusion_lat": 0.0, "name": "9a65a9e4b46841aaeb60e2e59e28a64e", "is_disabled": 0, "rental_uris": {"android": "https://dc.lft.to/lastmile_qr_scan", "ios": "https://dc.lft.to/lastmile_qr_scan"}, "fusion_lon": 0.0, "lat": 38.892760333333335, "bike_id": "9a65a9e4b46841aaeb60e2e59e28a64e", "type": "electric_scooter", "is_reserved": 0, "lon": -77.03174883333334}, {"fusion_lat": 0.0, "name": "5e03127bc83c99ccbae6d6a2d3df43c4", "is_disabled": 0, "rental_uris": {"android": "https://dc.lft.to/lastmile_qr_scan", "ios": "https://dc.lft.to/lastmile_qr_scan"}, "fusion_lon": 0.0, "lat": 38.91663966666667, "bike_id": "5e03127bc83c99ccbae6d6a2d3df43c4", "type": "electric_scooter", "is_reserved": 0, "lon": -77.038523}, {"fusion_lat": 0.0, "name": "ab82843ec3105eb3e3900ba8a10c3211", "is_disabled": 0, "rental_uris": {"android": "https://dc.lft.to/lastmile_qr_scan", "ios": "https://dc.lft.to/lastmile_qr_scan"}, "fusion_lon": 0.0, "lat": 38.895379, "bike_id": "ab82843ec3105eb3e3900ba8a10c3211", "type": "electric_scooter", "is_reserved": 0, "lon": -77.0266945}, {"fusion_lat": 0.0, "name": "6c31f750fc0c857a2689d2455ad7ce75", "is_disabled": 0, "rental_uris": {"android": "https://dc.lft.to/lastmile_qr_scan", "ios": "https://dc.lft.to/lastmile_qr_scan"}, "fusion_lon": 0.0, "lat": 38.858773166666666, "bike_id": "6c31f750fc0c857a2689d2455ad7ce75", "type": "electric_bike", "is_reserved": 0, "lon": -77.09556533333334}, {"fusion_lat": 0.0, "name": "0624d9ab65e1801579e0e815ee604f64", "is_disabled": 0, "rental_uris": {"android": "https://dc.lft.to/lastmile_qr_scan", "ios": "https://dc.lft.to/lastmile_qr_scan"}, "fusion_lon": 0.0, "lat": 38.92814883333333, "bike_id": "0624d9ab65e1801579e0e815ee604f64", "type": "electric_scooter", "is_reserved": 0, "lon": -77.043299}, {"fusion_lat": 0.0, "name": "806adf419086fbcd8f5c0a5a41146204", "is_disabled": 0, "rental_uris": {"android": "https://dc.lft.to/lastmile_qr_scan", "ios": "https://dc.lft.to/lastmile_qr_scan"}, "fusion_lon": 0.0, "lat": 38.903004333333335, "bike_id": "806adf419086fbcd8f5c0a5a41146204", "type": "electric_scooter", "is_reserved": 0, "lon": -77.04952733333333}, {"fusion_lat": 0.0, "name": "b730da100e017102f88e832f234c1383", "is_disabled": 0, "rental_uris": {"android": "https://dc.lft.to/lastmile_qr_scan", "ios": "https://dc.lft.to/lastmile_qr_scan"}, "fusion_lon": 0.0, "lat": 38.9292035, "bike_id": "b730da100e017102f88e832f234c1383", "type": "electric_scooter", "is_reserved": 0, "lon": -77.03263366666667}, {"fusion_lat": 0.0, "name": "109c343926d8f24299eafee29a9b510c", "is_disabled": 0, "rental_uris": {"android": "https://dc.lft.to/lastmile_qr_scan", "ios": "https://dc.lft.to/lastmile_qr_scan"}, "fusion_lon": 0.0, "lat": 38.89234966666667, "bike_id": "109c343926d8f24299eafee29a9b510c", "type": "electric_scooter", "is_reserved": 0, "lon": -77.02379816666667}, {"fusion_lat": 0.0, "name": "c5c9a1c4844ee339213c7cfe26b307c9", "is_disabled": 0, "rental_uris": {"android": "https://dc.lft.to/lastmile_qr_scan", "ios": "https://dc.lft.to/lastmile_qr_scan"}, "fusion_lon": 0.0, "lat": 38.84894116666667, "bike_id": "c5c9a1c4844ee339213c7cfe26b307c9", "type": "electric_bike", "is_reserved": 0, "lon": -77.07998316666666}, {"fusion_lat": 0.0, "name": "f388d4129b1c67ee0f33bc4f34bb1c97", "is_disabled": 0, "rental_uris": {"android": "https://dc.lft.to/lastmile_qr_scan", "ios": "https://dc.lft.to/lastmile_qr_scan"}, "fusion_lon": 0.0, "lat": 38.920207, "bike_id": "f388d4129b1c67ee0f33bc4f34bb1c97", "type": "electric_scooter", "is_reserved": 0, "lon": -77.081844}, {"fusion_lat": 0.0, "name": "bf4a238ed543688cdfffc663b99ff437", "is_disabled": 0, "rental_uris": {"android": "https://dc.lft.to/lastmile_qr_scan", "ios": "https://dc.lft.to/lastmile_qr_scan"}, "fusion_lon": 0.0, "lat": 38.93104866666667, "bike_id": "bf4a238ed543688cdfffc663b99ff437", "type": "electric_scooter", "is_reserved": 0, "lon": -77.038093}, {"fusion_lat": 0.0, "name": "3d2556c2034a8450e92b94e27498c25f", "is_disabled": 0, "rental_uris": {"android": "https://dc.lft.to/lastmile_qr_scan", "ios": "https://dc.lft.to/lastmile_qr_scan"}, "fusion_lon": 0.0, "lat": 38.9181485, "bike_id": "3d2556c2034a8450e92b94e27498c25f", "type": "electric_scooter", "is_reserved": 0, "lon": -77.02683583333334}, {"fusion_lat": 0.0, "name": "d4947e6e8ddb8335ec8a38c2ae8b1992", "is_disabled": 0, "rental_uris": {"android": "https://dc.lft.to/lastmile_qr_scan", "ios": "https://dc.lft.to/lastmile_qr_scan"}, "fusion_lon": 0.0, "lat": 38.897493833333336, "bike_id": "d4947e6e8ddb8335ec8a38c2ae8b1992", "type": "electric_scooter", "is_reserved": 0, "lon": -77.04885716666666}, {"fusion_lat": 0.0, "name": "a599ae642453cb0d8d5f5d50002c002d", "is_disabled": 0, "rental_uris": {"android": "https://dc.lft.to/lastmile_qr_scan", "ios": "https://dc.lft.to/lastmile_qr_scan"}, "fusion_lon": 0.0, "lat": 38.91712833333333, "bike_id": "a599ae642453cb0d8d5f5d50002c002d", "type": "electric_scooter", "is_reserved": 0, "lon": -77.02425733333334}, {"fusion_lat": 0.0, "name": "bb93495a41580d6b38157ec0c0a2eed6", "is_disabled": 0, "rental_uris": {"android": "https://dc.lft.to/lastmile_qr_scan", "ios": "https://dc.lft.to/lastmile_qr_scan"}, "fusion_lon": 0.0, "lat": 38.90833466666667, "bike_id": "bb93495a41580d6b38157ec0c0a2eed6", "type": "electric_scooter", "is_reserved": 0, "lon": -77.0364745}, {"fusion_lat": 0.0, "name": "78b1b53a1ab7107dc4d1622612ea2f3d", "is_disabled": 0, "rental_uris": {"android": "https://dc.lft.to/lastmile_qr_scan", "ios": "https://dc.lft.to/lastmile_qr_scan"}, "fusion_lon": 0.0, "lat": 38.9051595, "bike_id": "78b1b53a1ab7107dc4d1622612ea2f3d", "type": "electric_scooter", "is_reserved": 0, "lon": -77.005981}, {"fusion_lat": 0.0, "name": "526f6d7c9705eb7e18dca42a0ae23b00", "is_disabled": 0, "rental_uris": {"android": "https://dc.lft.to/lastmile_qr_scan", "ios": "https://dc.lft.to/lastmile_qr_scan"}, "fusion_lon": 0.0, "lat": 38.93371533333333, "bike_id": "526f6d7c9705eb7e18dca42a0ae23b00", "type": "electric_scooter", "is_reserved": 0, "lon": -77.05719283333333}, {"fusion_lat": 0.0, "name": "ef22d5bdcc9ec2eecb089d9cbb7c96cf", "is_disabled": 0, "rental_uris": {"android": "https://dc.lft.to/lastmile_qr_scan", "ios": "https://dc.lft.to/lastmile_qr_scan"}, "fusion_lon": 0.0, "lat": 38.9207845, "bike_id": "ef22d5bdcc9ec2eecb089d9cbb7c96cf", "type": "electric_scooter", "is_reserved": 0, "lon": -77.023826}, {"fusion_lat": 0.0, "name": "19c6217fa40d3b57c0e7be673bf40377", "is_disabled": 0, "rental_uris": {"android": "https://dc.lft.to/lastmile_qr_scan", "ios": "https://dc.lft.to/lastmile_qr_scan"}, "fusion_lon": 0.0, "lat": 38.96442233333333, "bike_id": "19c6217fa40d3b57c0e7be673bf40377", "type": "electric_bike", "is_reserved": 0, "lon": -77.020688}, {"fusion_lat": 0.0, "name": "efcad8bfdc0ce717f6a67c0051baa35c", "is_disabled": 0, "rental_uris": {"android": "https://dc.lft.to/lastmile_qr_scan", "ios": "https://dc.lft.to/lastmile_qr_scan"}, "fusion_lon": 0.0, "lat": 38.91840033333333, "bike_id": "efcad8bfdc0ce717f6a67c0051baa35c", "type": "electric_scooter", "is_reserved": 0, "lon": -77.0161155}, {"fusion_lat": 0.0, "name": "29f47980b99e2717f9005ac553edf453", "is_disabled": 0, "rental_uris": {"android": "https://dc.lft.to/lastmile_qr_scan", "ios": "https://dc.lft.to/lastmile_qr_scan"}, "fusion_lon": 0.0, "lat": 38.9199655, "bike_id": "29f47980b99e2717f9005ac553edf453", "type": "electric_scooter", "is_reserved": 0, "lon": -77.0217325}, {"fusion_lat": 0.0, "name": "5ed721a01b06c06f90edc6a94f969a28", "is_disabled": 0, "rental_uris": {"android": "https://dc.lft.to/lastmile_qr_scan", "ios": "https://dc.lft.to/lastmile_qr_scan"}, "fusion_lon": 0.0, "lat": 38.90401716666667, "bike_id": "5ed721a01b06c06f90edc6a94f969a28", "type": "electric_scooter", "is_reserved": 0, "lon": -77.036546}, {"fusion_lat": 0.0, "name": "b61caa93a914d034c896965356b06eb8", "is_disabled": 0, "rental_uris": {"android": "https://dc.lft.to/lastmile_qr_scan", "ios": "https://dc.lft.to/lastmile_qr_scan"}, "fusion_lon": 0.0, "lat": 38.878885333333336, "bike_id": "b61caa93a914d034c896965356b06eb8", "type": "electric_scooter", "is_reserved": 0, "lon": -76.96544783333333}, {"fusion_lat": 0.0, "name": "85275d021881384a52dca7aaacfbc45f", "is_disabled": 0, "rental_uris": {"android": "https://dc.lft.to/lastmile_qr_scan", "ios": "https://dc.lft.to/lastmile_qr_scan"}, "fusion_lon": 0.0, "lat": 38.908164166666666, "bike_id": "85275d021881384a52dca7aaacfbc45f", "type": "electric_scooter", "is_reserved": 0, "lon": -77.03459166666667}, {"fusion_lat": 0.0, "name": "9243fdcb6716bb7aa84f0341dc19f766", "is_disabled": 0, "rental_uris": {"android": "https://dc.lft.to/lastmile_qr_scan", "ios": "https://dc.lft.to/lastmile_qr_scan"}, "fusion_lon": 0.0, "lat": 38.899434666666664, "bike_id": "9243fdcb6716bb7aa84f0341dc19f766", "type": "electric_scooter", "is_reserved": 0, "lon": -77.02205533333333}, {"fusion_lat": 0.0, "name": "e1fded867da748248c82603fa167bf63", "is_disabled": 0, "rental_uris": {"android": "https://dc.lft.to/lastmile_qr_scan", "ios": "https://dc.lft.to/lastmile_qr_scan"}, "fusion_lon": 0.0, "lat": 38.91587066666666, "bike_id": "e1fded867da748248c82603fa167bf63", "type": "electric_scooter", "is_reserved": 0, "lon": -77.04665066666666}, {"fusion_lat": 0.0, "name": "0cb34079fc45d1b0d995dfd48147641a", "is_disabled": 0, "rental_uris": {"android": "https://dc.lft.to/lastmile_qr_scan", "ios": "https://dc.lft.to/lastmile_qr_scan"}, "fusion_lon": 0.0, "lat": 38.92393033333333, "bike_id": "0cb34079fc45d1b0d995dfd48147641a", "type": "electric_scooter", "is_reserved": 0, "lon": -77.02741583333334}, {"fusion_lat": 0.0, "name": "32b8b2541d4698bb3f167c438c93b168", "is_disabled": 0, "rental_uris": {"android": "https://dc.lft.to/lastmile_qr_scan", "ios": "https://dc.lft.to/lastmile_qr_scan"}, "fusion_lon": 0.0, "lat": 38.91169083333333, "bike_id": "32b8b2541d4698bb3f167c438c93b168", "type": "electric_scooter", "is_reserved": 0, "lon": -76.98721133333333}, {"fusion_lat": 0.0, "name": "e76901fc0f8d76580b56820b0b3bae6a", "is_disabled": 0, "rental_uris": {"android": "https://dc.lft.to/lastmile_qr_scan", "ios": "https://dc.lft.to/lastmile_qr_scan"}, "fusion_lon": 0.0, "lat": 38.895196166666665, "bike_id": "e76901fc0f8d76580b56820b0b3bae6a", "type": "electric_scooter", "is_reserved": 0, "lon": -77.00918333333334}, {"fusion_lat": 0.0, "name": "dbd0f372d278c1a359ce5a3dc23235c2", "is_disabled": 0, "rental_uris": {"android": "https://dc.lft.to/lastmile_qr_scan", "ios": "https://dc.lft.to/lastmile_qr_scan"}, "fusion_lon": 0.0, "lat": 38.898526, "bike_id": "dbd0f372d278c1a359ce5a3dc23235c2", "type": "electric_scooter", "is_reserved": 0, "lon": -77.022164}, {"fusion_lat": 0.0, "name": "c7a3d8add91ae3e06178fa44f302d85a", "is_disabled": 0, "rental_uris": {"android": "https://dc.lft.to/lastmile_qr_scan", "ios": "https://dc.lft.to/lastmile_qr_scan"}, "fusion_lon": 0.0, "lat": 38.907696666666666, "bike_id": "c7a3d8add91ae3e06178fa44f302d85a", "type": "electric_scooter", "is_reserved": 0, "lon": -77.03567033333333}, {"fusion_lat": 0.0, "name": "2d85303d4ffa572f044e2178d8022b6a", "is_disabled": 0, "rental_uris": {"android": "https://dc.lft.to/lastmile_qr_scan", "ios": "https://dc.lft.to/lastmile_qr_scan"}, "fusion_lon": 0.0, "lat": 38.89227133333333, "bike_id": "2d85303d4ffa572f044e2178d8022b6a", "type": "electric_scooter", "is_reserved": 0, "lon": -77.04319366666667}, {"fusion_lat": 0.0, "name": "c70d9ddb76c10ee1bb7b841ad761cb65", "is_disabled": 0, "rental_uris": {"android": "https://dc.lft.to/lastmile_qr_scan", "ios": "https://dc.lft.to/lastmile_qr_scan"}, "fusion_lon": 0.0, "lat": 38.892239000000004, "bike_id": "c70d9ddb76c10ee1bb7b841ad761cb65", "type": "electric_scooter", "is_reserved": 0, "lon": -77.04864683333334}, {"fusion_lat": 0.0, "name": "51b4201aaef68f03714460acce5ff368", "is_disabled": 0, "rental_uris": {"android": "https://dc.lft.to/lastmile_qr_scan", "ios": "https://dc.lft.to/lastmile_qr_scan"}, "fusion_lon": 0.0, "lat": 38.994991, "bike_id": "51b4201aaef68f03714460acce5ff368", "type": "electric_bike", "is_reserved": 0, "lon": -77.02909733333334}, {"fusion_lat": 0.0, "name": "a835cfca4ffac82aa06d34719207048d", "is_disabled": 0, "rental_uris": {"android": "https://dc.lft.to/lastmile_qr_scan", "ios": "https://dc.lft.to/lastmile_qr_scan"}, "fusion_lon": 0.0, "lat": 38.90652816666667, "bike_id": "a835cfca4ffac82aa06d34719207048d", "type": "electric_scooter", "is_reserved": 0, "lon": -77.04331533333334}, {"fusion_lat": 0.0, "name": "fabd611569d1a08b3732413b54b6b446", "is_disabled": 0, "rental_uris": {"android": "https://dc.lft.to/lastmile_qr_scan", "ios": "https://dc.lft.to/lastmile_qr_scan"}, "fusion_lon": 0.0, "lat": 38.914206166666666, "bike_id": "fabd611569d1a08b3732413b54b6b446", "type": "electric_scooter", "is_reserved": 0, "lon": -77.0402285}, {"fusion_lat": 0.0, "name": "00a2dbee6d58f4d6962ffd9d4ece1c17", "is_disabled": 0, "rental_uris": {"android": "https://dc.lft.to/lastmile_qr_scan", "ios": "https://dc.lft.to/lastmile_qr_scan"}, "fusion_lon": 0.0, "lat": 38.902322, "bike_id": "00a2dbee6d58f4d6962ffd9d4ece1c17", "type": "electric_scooter", "is_reserved": 0, "lon": -77.05468483333334}, {"fusion_lat": 0.0, "name": "d2af2b7e401cc5b0f064ac1de8c33668", "is_disabled": 0, "rental_uris": {"android": "https://dc.lft.to/lastmile_qr_scan", "ios": "https://dc.lft.to/lastmile_qr_scan"}, "fusion_lon": 0.0, "lat": 38.897409, "bike_id": "d2af2b7e401cc5b0f064ac1de8c33668", "type": "electric_scooter", "is_reserved": 0, "lon": -77.003598}, {"fusion_lat": 0.0, "name": "cccaa4d96e5ec47a56f3d0b91a964377", "is_disabled": 0, "rental_uris": {"android": "https://dc.lft.to/lastmile_qr_scan", "ios": "https://dc.lft.to/lastmile_qr_scan"}, "fusion_lon": 0.0, "lat": 38.90517883333333, "bike_id": "cccaa4d96e5ec47a56f3d0b91a964377", "type": "electric_scooter", "is_reserved": 0, "lon": -77.06151166666666}, {"fusion_lat": 0.0, "name": "74ee8463345ef122aef3c2e1dd8c0494", "is_disabled": 0, "rental_uris": {"android": "https://dc.lft.to/lastmile_qr_scan", "ios": "https://dc.lft.to/lastmile_qr_scan"}, "fusion_lon": 0.0, "lat": 38.903545333333334, "bike_id": "74ee8463345ef122aef3c2e1dd8c0494", "type": "electric_scooter", "is_reserved": 0, "lon": -77.017441}, {"fusion_lat": 0.0, "name": "7582a07f61e82938335d2de492700517", "is_disabled": 0, "rental_uris": {"android": "https://dc.lft.to/lastmile_qr_scan", "ios": "https://dc.lft.to/lastmile_qr_scan"}, "fusion_lon": 0.0, "lat": 38.89829783333333, "bike_id": "7582a07f61e82938335d2de492700517", "type": "electric_scooter", "is_reserved": 0, "lon": -77.02708683333333}, {"fusion_lat": 0.0, "name": "f7deec2fe6568039df1dd084e52745eb", "is_disabled": 0, "rental_uris": {"android": "https://dc.lft.to/lastmile_qr_scan", "ios": "https://dc.lft.to/lastmile_qr_scan"}, "fusion_lon": 0.0, "lat": 38.905682, "bike_id": "f7deec2fe6568039df1dd084e52745eb", "type": "electric_scooter", "is_reserved": 0, "lon": -77.00818}, {"fusion_lat": 0.0, "name": "3978257c853e8d48f1e76695376c2eef", "is_disabled": 0, "rental_uris": {"android": "https://dc.lft.to/lastmile_qr_scan", "ios": "https://dc.lft.to/lastmile_qr_scan"}, "fusion_lon": 0.0, "lat": 38.92861766666667, "bike_id": "3978257c853e8d48f1e76695376c2eef", "type": "electric_scooter", "is_reserved": 0, "lon": -77.05420766666667}, {"fusion_lat": 0.0, "name": "35447876e5c26620bbfa773a7604734e", "is_disabled": 0, "rental_uris": {"android": "https://dc.lft.to/lastmile_qr_scan", "ios": "https://dc.lft.to/lastmile_qr_scan"}, "fusion_lon": 0.0, "lat": 38.92750516666667, "bike_id": "35447876e5c26620bbfa773a7604734e", "type": "electric_scooter", "is_reserved": 0, "lon": -77.03238533333334}, {"fusion_lat": 0.0, "name": "61449aca8e28946573e2184634ef878c", "is_disabled": 0, "rental_uris": {"android": "https://dc.lft.to/lastmile_qr_scan", "ios": "https://dc.lft.to/lastmile_qr_scan"}, "fusion_lon": 0.0, "lat": 38.92371333333333, "bike_id": "61449aca8e28946573e2184634ef878c", "type": "electric_scooter", "is_reserved": 0, "lon": -77.05024383333334}, {"fusion_lat": 0.0, "name": "6f43f2792f6efb8eb5290a03aa594b01", "is_disabled": 0, "rental_uris": {"android": "https://dc.lft.to/lastmile_qr_scan", "ios": "https://dc.lft.to/lastmile_qr_scan"}, "fusion_lon": 0.0, "lat": 38.91682383333333, "bike_id": "6f43f2792f6efb8eb5290a03aa594b01", "type": "electric_scooter", "is_reserved": 0, "lon": -77.03212766666667}, {"fusion_lat": 0.0, "name": "b6c6680f80a147a3f2253387b46e02b3", "is_disabled": 0, "rental_uris": {"android": "https://dc.lft.to/lastmile_qr_scan", "ios": "https://dc.lft.to/lastmile_qr_scan"}, "fusion_lon": 0.0, "lat": 38.911204166666664, "bike_id": "b6c6680f80a147a3f2253387b46e02b3", "type": "electric_scooter", "is_reserved": 0, "lon": -77.03168583333333}, {"fusion_lat": 0.0, "name": "414ee9f9d18ff57b4319b848b0fbc09f", "is_disabled": 0, "rental_uris": {"android": "https://dc.lft.to/lastmile_qr_scan", "ios": "https://dc.lft.to/lastmile_qr_scan"}, "fusion_lon": 0.0, "lat": 38.90675983333333, "bike_id": "414ee9f9d18ff57b4319b848b0fbc09f", "type": "electric_scooter", "is_reserved": 0, "lon": -77.02143183333334}, {"fusion_lat": 0.0, "name": "0ad2480439b30cb5a04e8964cf4b3c20", "is_disabled": 0, "rental_uris": {"android": "https://dc.lft.to/lastmile_qr_scan", "ios": "https://dc.lft.to/lastmile_qr_scan"}, "fusion_lon": 0.0, "lat": 38.90625383333333, "bike_id": "0ad2480439b30cb5a04e8964cf4b3c20", "type": "electric_scooter", "is_reserved": 0, "lon": -77.02600416666667}, {"fusion_lat": 0.0, "name": "5ac4d3e3e07b65b6290bcd0bb2883f89", "is_disabled": 0, "rental_uris": {"android": "https://dc.lft.to/lastmile_qr_scan", "ios": "https://dc.lft.to/lastmile_qr_scan"}, "fusion_lon": 0.0, "lat": 38.9311625, "bike_id": "5ac4d3e3e07b65b6290bcd0bb2883f89", "type": "electric_scooter", "is_reserved": 0, "lon": -76.99615883333334}, {"fusion_lat": 0.0, "name": "6ab2d39d0cf887c0529ec92e0d3b2ebb", "is_disabled": 0, "rental_uris": {"android": "https://dc.lft.to/lastmile_qr_scan", "ios": "https://dc.lft.to/lastmile_qr_scan"}, "fusion_lon": 0.0, "lat": 38.91265683333334, "bike_id": "6ab2d39d0cf887c0529ec92e0d3b2ebb", "type": "electric_scooter", "is_reserved": 0, "lon": -77.036321}, {"fusion_lat": 0.0, "name": "532b07c6d926e654e7ea27efe21eeb72", "is_disabled": 0, "rental_uris": {"android": "https://dc.lft.to/lastmile_qr_scan", "ios": "https://dc.lft.to/lastmile_qr_scan"}, "fusion_lon": 0.0, "lat": 38.916379166666665, "bike_id": "532b07c6d926e654e7ea27efe21eeb72", "type": "electric_scooter", "is_reserved": 0, "lon": -77.02972233333334}, {"fusion_lat": 0.0, "name": "fd54a922d53463d1de8cd44cc75985d5", "is_disabled": 0, "rental_uris": {"android": "https://dc.lft.to/lastmile_qr_scan", "ios": "https://dc.lft.to/lastmile_qr_scan"}, "fusion_lon": 0.0, "lat": 38.9288575, "bike_id": "fd54a922d53463d1de8cd44cc75985d5", "type": "electric_scooter", "is_reserved": 0, "lon": -76.995632}, {"fusion_lat": 0.0, "name": "3c29aa77d72c7d117416fda8380e13cc", "is_disabled": 0, "rental_uris": {"android": "https://dc.lft.to/lastmile_qr_scan", "ios": "https://dc.lft.to/lastmile_qr_scan"}, "fusion_lon": 0.0, "lat": 38.880206, "bike_id": "3c29aa77d72c7d117416fda8380e13cc", "type": "electric_scooter", "is_reserved": 0, "lon": -76.9806945}, {"fusion_lat": 0.0, "name": "8104c3637ae7a6819abcbac62ce2a52d", "is_disabled": 0, "rental_uris": {"android": "https://dc.lft.to/lastmile_qr_scan", "ios": "https://dc.lft.to/lastmile_qr_scan"}, "fusion_lon": 0.0, "lat": 38.907662, "bike_id": "8104c3637ae7a6819abcbac62ce2a52d", "type": "electric_scooter", "is_reserved": 0, "lon": -77.0319525}, {"fusion_lat": 0.0, "name": "0af6bfcb810ee5abefb9c551b36cadf5", "is_disabled": 0, "rental_uris": {"android": "https://dc.lft.to/lastmile_qr_scan", "ios": "https://dc.lft.to/lastmile_qr_scan"}, "fusion_lon": 0.0, "lat": 38.90241316666667, "bike_id": "0af6bfcb810ee5abefb9c551b36cadf5", "type": "electric_scooter", "is_reserved": 0, "lon": -77.0019675}, {"fusion_lat": 0.0, "name": "9109755e489debac5c35775e6ec9d9d9", "is_disabled": 0, "rental_uris": {"android": "https://dc.lft.to/lastmile_qr_scan", "ios": "https://dc.lft.to/lastmile_qr_scan"}, "fusion_lon": 0.0, "lat": 38.907838, "bike_id": "9109755e489debac5c35775e6ec9d9d9", "type": "electric_scooter", "is_reserved": 0, "lon": -77.07249666666667}, {"fusion_lat": 0.0, "name": "a37701d352fa8950b2b6b61a837230da", "is_disabled": 0, "rental_uris": {"android": "https://dc.lft.to/lastmile_qr_scan", "ios": "https://dc.lft.to/lastmile_qr_scan"}, "fusion_lon": 0.0, "lat": 38.9046455, "bike_id": "a37701d352fa8950b2b6b61a837230da", "type": "electric_scooter", "is_reserved": 0, "lon": -77.05338916666666}, {"fusion_lat": 0.0, "name": "78b8fa2583890c979bea11eddced3e82", "is_disabled": 0, "rental_uris": {"android": "https://dc.lft.to/lastmile_qr_scan", "ios": "https://dc.lft.to/lastmile_qr_scan"}, "fusion_lon": 0.0, "lat": 38.871838, "bike_id": "78b8fa2583890c979bea11eddced3e82", "type": "electric_scooter", "is_reserved": 0, "lon": -77.00925283333333}, {"fusion_lat": 0.0, "name": "bf3698ef76a87deda226c81e9bcf223e", "is_disabled": 0, "rental_uris": {"android": "https://dc.lft.to/lastmile_qr_scan", "ios": "https://dc.lft.to/lastmile_qr_scan"}, "fusion_lon": 0.0, "lat": 38.9234345, "bike_id": "bf3698ef76a87deda226c81e9bcf223e", "type": "electric_scooter", "is_reserved": 0, "lon": -77.03411966666667}, {"fusion_lat": 0.0, "name": "8027d9f1ac08c0bc875fdcea8af81480", "is_disabled": 0, "rental_uris": {"android": "https://dc.lft.to/lastmile_qr_scan", "ios": "https://dc.lft.to/lastmile_qr_scan"}, "fusion_lon": 0.0, "lat": 38.89827616666667, "bike_id": "8027d9f1ac08c0bc875fdcea8af81480", "type": "electric_scooter", "is_reserved": 0, "lon": -77.02984833333333}, {"fusion_lat": 0.0, "name": "c7194ef695742ff4c43ce3f1817f50f9", "is_disabled": 0, "rental_uris": {"android": "https://dc.lft.to/lastmile_qr_scan", "ios": "https://dc.lft.to/lastmile_qr_scan"}, "fusion_lon": 0.0, "lat": 38.922169833333335, "bike_id": "c7194ef695742ff4c43ce3f1817f50f9", "type": "electric_scooter", "is_reserved": 0, "lon": -77.02015366666667}, {"fusion_lat": 0.0, "name": "c0f505518cd2a254efbc4ec030f3ff26", "is_disabled": 0, "rental_uris": {"android": "https://dc.lft.to/lastmile_qr_scan", "ios": "https://dc.lft.to/lastmile_qr_scan"}, "fusion_lon": 0.0, "lat": 38.89012833333334, "bike_id": "c0f505518cd2a254efbc4ec030f3ff26", "type": "electric_scooter", "is_reserved": 0, "lon": -76.9373925}, {"fusion_lat": 0.0, "name": "e83ba3b6da0570f5ba48ecbdf1efeaca", "is_disabled": 0, "rental_uris": {"android": "https://dc.lft.to/lastmile_qr_scan", "ios": "https://dc.lft.to/lastmile_qr_scan"}, "fusion_lon": 0.0, "lat": 38.9207615, "bike_id": "e83ba3b6da0570f5ba48ecbdf1efeaca", "type": "electric_scooter", "is_reserved": 0, "lon": -77.014739}, {"fusion_lat": 0.0, "name": "052d1e886f0c77d5dca368e94316070f", "is_disabled": 0, "rental_uris": {"android": "https://dc.lft.to/lastmile_qr_scan", "ios": "https://dc.lft.to/lastmile_qr_scan"}, "fusion_lon": 0.0, "lat": 38.9670215, "bike_id": "052d1e886f0c77d5dca368e94316070f", "type": "electric_bike", "is_reserved": 0, "lon": -77.0282855}, {"fusion_lat": 0.0, "name": "33fe6059e08ec1d8dcdce4a6dc25efc7", "is_disabled": 0, "rental_uris": {"android": "https://dc.lft.to/lastmile_qr_scan", "ios": "https://dc.lft.to/lastmile_qr_scan"}, "fusion_lon": 0.0, "lat": 38.902520333333335, "bike_id": "33fe6059e08ec1d8dcdce4a6dc25efc7", "type": "electric_scooter", "is_reserved": 0, "lon": -77.01891333333333}, {"fusion_lat": 0.0, "name": "bfdaa80a87a2f1bd4b916dc72969fce3", "is_disabled": 0, "rental_uris": {"android": "https://dc.lft.to/lastmile_qr_scan", "ios": "https://dc.lft.to/lastmile_qr_scan"}, "fusion_lon": 0.0, "lat": 38.892344, "bike_id": "bfdaa80a87a2f1bd4b916dc72969fce3", "type": "electric_scooter", "is_reserved": 0, "lon": -77.02381266666667}, {"fusion_lat": 0.0, "name": "9227272ccaafb8a6687c1b9dad42c4eb", "is_disabled": 0, "rental_uris": {"android": "https://dc.lft.to/lastmile_qr_scan", "ios": "https://dc.lft.to/lastmile_qr_scan"}, "fusion_lon": 0.0, "lat": 38.9021405, "bike_id": "9227272ccaafb8a6687c1b9dad42c4eb", "type": "electric_scooter", "is_reserved": 0, "lon": -77.01889016666667}, {"fusion_lat": 0.0, "name": "15f69b4dfb18d1fd501ef7b16e3d00d2", "is_disabled": 0, "rental_uris": {"android": "https://dc.lft.to/lastmile_qr_scan", "ios": "https://dc.lft.to/lastmile_qr_scan"}, "fusion_lon": 0.0, "lat": 38.89225716666667, "bike_id": "15f69b4dfb18d1fd501ef7b16e3d00d2", "type": "electric_scooter", "is_reserved": 0, "lon": -77.0432665}, {"fusion_lat": 0.0, "name": "f6dba0b0558f92e21301dc0c66f3f679", "is_disabled": 0, "rental_uris": {"android": "https://dc.lft.to/lastmile_qr_scan", "ios": "https://dc.lft.to/lastmile_qr_scan"}, "fusion_lon": 0.0, "lat": 38.9342135, "bike_id": "f6dba0b0558f92e21301dc0c66f3f679", "type": "electric_scooter", "is_reserved": 0, "lon": -77.02413633333333}, {"fusion_lat": 0.0, "name": "f2a524cbf57b57280e0b58cac7d701ab", "is_disabled": 0, "rental_uris": {"android": "https://dc.lft.to/lastmile_qr_scan", "ios": "https://dc.lft.to/lastmile_qr_scan"}, "fusion_lon": 0.0, "lat": 38.94272383333333, "bike_id": "f2a524cbf57b57280e0b58cac7d701ab", "type": "electric_scooter", "is_reserved": 0, "lon": -77.03257433333333}, {"fusion_lat": 0.0, "name": "265f60cbc03410cd375c6872218c16f7", "is_disabled": 0, "rental_uris": {"android": "https://dc.lft.to/lastmile_qr_scan", "ios": "https://dc.lft.to/lastmile_qr_scan"}, "fusion_lon": 0.0, "lat": 38.9091095, "bike_id": "265f60cbc03410cd375c6872218c16f7", "type": "electric_scooter", "is_reserved": 0, "lon": -77.02713533333333}, {"fusion_lat": 0.0, "name": "a1b41f2b33cdf9457dd7c0a687bb6ef8", "is_disabled": 0, "rental_uris": {"android": "https://dc.lft.to/lastmile_qr_scan", "ios": "https://dc.lft.to/lastmile_qr_scan"}, "fusion_lon": 0.0, "lat": 38.906859, "bike_id": "a1b41f2b33cdf9457dd7c0a687bb6ef8", "type": "electric_scooter", "is_reserved": 0, "lon": -77.07209183333333}, {"fusion_lat": 0.0, "name": "4848056ca9a9a5c9be5f25e9cc2e822f", "is_disabled": 0, "rental_uris": {"android": "https://dc.lft.to/lastmile_qr_scan", "ios": "https://dc.lft.to/lastmile_qr_scan"}, "fusion_lon": 0.0, "lat": 38.9022295, "bike_id": "4848056ca9a9a5c9be5f25e9cc2e822f", "type": "electric_scooter", "is_reserved": 0, "lon": -77.043251}, {"fusion_lat": 0.0, "name": "00abfe49180a7750ae87c8e349a6040f", "is_disabled": 0, "rental_uris": {"android": "https://dc.lft.to/lastmile_qr_scan", "ios": "https://dc.lft.to/lastmile_qr_scan"}, "fusion_lon": 0.0, "lat": 38.90043416666666, "bike_id": "00abfe49180a7750ae87c8e349a6040f", "type": "electric_scooter", "is_reserved": 0, "lon": -76.99159866666666}, {"fusion_lat": 0.0, "name": "455e5226cc1058f17adb1efdbbc9802e", "is_disabled": 0, "rental_uris": {"android": "https://dc.lft.to/lastmile_qr_scan", "ios": "https://dc.lft.to/lastmile_qr_scan"}, "fusion_lon": 0.0, "lat": 38.90694233333333, "bike_id": "455e5226cc1058f17adb1efdbbc9802e", "type": "electric_scooter", "is_reserved": 0, "lon": -77.0688985}, {"fusion_lat": 0.0, "name": "647bf4f2c08e5d9a87851e9f10e61fec", "is_disabled": 0, "rental_uris": {"android": "https://dc.lft.to/lastmile_qr_scan", "ios": "https://dc.lft.to/lastmile_qr_scan"}, "fusion_lon": 0.0, "lat": 38.91523733333333, "bike_id": "647bf4f2c08e5d9a87851e9f10e61fec", "type": "electric_scooter", "is_reserved": 0, "lon": -77.01983233333333}, {"fusion_lat": 0.0, "name": "42769bba9ea6a69b2934a349bf71a443", "is_disabled": 0, "rental_uris": {"android": "https://dc.lft.to/lastmile_qr_scan", "ios": "https://dc.lft.to/lastmile_qr_scan"}, "fusion_lon": 0.0, "lat": 38.900661166666666, "bike_id": "42769bba9ea6a69b2934a349bf71a443", "type": "electric_scooter", "is_reserved": 0, "lon": -76.93385283333333}, {"fusion_lat": 0.0, "name": "3d63a76114fd3175d6281ce6a3a2a42f", "is_disabled": 0, "rental_uris": {"android": "https://dc.lft.to/lastmile_qr_scan", "ios": "https://dc.lft.to/lastmile_qr_scan"}, "fusion_lon": 0.0, "lat": 38.9399425, "bike_id": "3d63a76114fd3175d6281ce6a3a2a42f", "type": "electric_scooter", "is_reserved": 0, "lon": -77.08422233333333}, {"fusion_lat": 0.0, "name": "a79a7499d36df6831f42ebdf02165392", "is_disabled": 0, "rental_uris": {"android": "https://dc.lft.to/lastmile_qr_scan", "ios": "https://dc.lft.to/lastmile_qr_scan"}, "fusion_lon": 0.0, "lat": 38.835199833333334, "bike_id": "a79a7499d36df6831f42ebdf02165392", "type": "electric_bike", "is_reserved": 0, "lon": -76.98672333333333}, {"fusion_lat": 0.0, "name": "f9c8b0f9dda6efd9c8fc441e59174a54", "is_disabled": 0, "rental_uris": {"android": "https://dc.lft.to/lastmile_qr_scan", "ios": "https://dc.lft.to/lastmile_qr_scan"}, "fusion_lon": 0.0, "lat": 38.931742666666665, "bike_id": "f9c8b0f9dda6efd9c8fc441e59174a54", "type": "electric_scooter", "is_reserved": 0, "lon": -77.028148}, {"fusion_lat": 0.0, "name": "5999bd9f789ef05c2629e25af2dd29a5", "is_disabled": 0, "rental_uris": {"android": "https://dc.lft.to/lastmile_qr_scan", "ios": "https://dc.lft.to/lastmile_qr_scan"}, "fusion_lon": 0.0, "lat": 38.940949333333336, "bike_id": "5999bd9f789ef05c2629e25af2dd29a5", "type": "electric_scooter", "is_reserved": 0, "lon": -77.03278633333333}, {"fusion_lat": 0.0, "name": "645be3dc0b603f9d4eec15a51f0fdd60", "is_disabled": 0, "rental_uris": {"android": "https://dc.lft.to/lastmile_qr_scan", "ios": "https://dc.lft.to/lastmile_qr_scan"}, "fusion_lon": 0.0, "lat": 38.928267, "bike_id": "645be3dc0b603f9d4eec15a51f0fdd60", "type": "electric_scooter", "is_reserved": 0, "lon": -77.01418366666667}, {"fusion_lat": 0.0, "name": "a5bcf0f403e810558cc50d742632ec19", "is_disabled": 0, "rental_uris": {"android": "https://dc.lft.to/lastmile_qr_scan", "ios": "https://dc.lft.to/lastmile_qr_scan"}, "fusion_lon": 0.0, "lat": 38.860235333333335, "bike_id": "a5bcf0f403e810558cc50d742632ec19", "type": "electric_bike", "is_reserved": 0, "lon": -77.12804433333334}, {"fusion_lat": 0.0, "name": "e89bd98a417bd3c22ad77dfde54f8174", "is_disabled": 0, "rental_uris": {"android": "https://dc.lft.to/lastmile_qr_scan", "ios": "https://dc.lft.to/lastmile_qr_scan"}, "fusion_lon": 0.0, "lat": 38.93086483333333, "bike_id": "e89bd98a417bd3c22ad77dfde54f8174", "type": "electric_scooter", "is_reserved": 0, "lon": -77.02002}, {"fusion_lat": 0.0, "name": "ce2044ad3ee1a038b013571991976cc3", "is_disabled": 0, "rental_uris": {"android": "https://dc.lft.to/lastmile_qr_scan", "ios": "https://dc.lft.to/lastmile_qr_scan"}, "fusion_lon": 0.0, "lat": 38.930789, "bike_id": "ce2044ad3ee1a038b013571991976cc3", "type": "electric_scooter", "is_reserved": 0, "lon": -77.0776545}, {"fusion_lat": 0.0, "name": "b1cb15b474880f1899becb559ad4ae60", "is_disabled": 0, "rental_uris": {"android": "https://dc.lft.to/lastmile_qr_scan", "ios": "https://dc.lft.to/lastmile_qr_scan"}, "fusion_lon": 0.0, "lat": 38.906027, "bike_id": "b1cb15b474880f1899becb559ad4ae60", "type": "electric_scooter", "is_reserved": 0, "lon": -77.0260225}, {"fusion_lat": 0.0, "name": "5fcbed0c8840fcc7655f765e976f6b02", "is_disabled": 0, "rental_uris": {"android": "https://dc.lft.to/lastmile_qr_scan", "ios": "https://dc.lft.to/lastmile_qr_scan"}, "fusion_lon": 0.0, "lat": 38.874603666666665, "bike_id": "5fcbed0c8840fcc7655f765e976f6b02", "type": "electric_scooter", "is_reserved": 0, "lon": -77.00311866666667}, {"fusion_lat": 0.0, "name": "907ea1b7d06e42da36da1e4e0ba3908d", "is_disabled": 0, "rental_uris": {"android": "https://dc.lft.to/lastmile_qr_scan", "ios": "https://dc.lft.to/lastmile_qr_scan"}, "fusion_lon": 0.0, "lat": 38.928176666666666, "bike_id": "907ea1b7d06e42da36da1e4e0ba3908d", "type": "electric_scooter", "is_reserved": 0, "lon": -77.0432535}, {"fusion_lat": 0.0, "name": "80f7c985555ac78614664b70a63962fc", "is_disabled": 0, "rental_uris": {"android": "https://dc.lft.to/lastmile_qr_scan", "ios": "https://dc.lft.to/lastmile_qr_scan"}, "fusion_lon": 0.0, "lat": 38.9172785, "bike_id": "80f7c985555ac78614664b70a63962fc", "type": "electric_scooter", "is_reserved": 0, "lon": -77.01923133333334}, {"fusion_lat": 0.0, "name": "3be6b60f9780a510497cee08379dcd10", "is_disabled": 0, "rental_uris": {"android": "https://dc.lft.to/lastmile_qr_scan", "ios": "https://dc.lft.to/lastmile_qr_scan"}, "fusion_lon": 0.0, "lat": 38.93268883333333, "bike_id": "3be6b60f9780a510497cee08379dcd10", "type": "electric_scooter", "is_reserved": 0, "lon": -77.01916616666666}, {"fusion_lat": 0.0, "name": "1cd0a1b3e129c1ff520da912f2ba92a2", "is_disabled": 0, "rental_uris": {"android": "https://dc.lft.to/lastmile_qr_scan", "ios": "https://dc.lft.to/lastmile_qr_scan"}, "fusion_lon": 0.0, "lat": 38.92073583333333, "bike_id": "1cd0a1b3e129c1ff520da912f2ba92a2", "type": "electric_scooter", "is_reserved": 0, "lon": -77.03808383333333}, {"fusion_lat": 0.0, "name": "533f4131ed7505bb057d43d433938247", "is_disabled": 0, "rental_uris": {"android": "https://dc.lft.to/lastmile_qr_scan", "ios": "https://dc.lft.to/lastmile_qr_scan"}, "fusion_lon": 0.0, "lat": 38.927204833333334, "bike_id": "533f4131ed7505bb057d43d433938247", "type": "electric_scooter", "is_reserved": 0, "lon": -77.03064283333333}, {"fusion_lat": 0.0, "name": "1fdc6bfee2a8336545302a50653255d1", "is_disabled": 0, "rental_uris": {"android": "https://dc.lft.to/lastmile_qr_scan", "ios": "https://dc.lft.to/lastmile_qr_scan"}, "fusion_lon": 0.0, "lat": 38.807109833333335, "bike_id": "1fdc6bfee2a8336545302a50653255d1", "type": "electric_bike", "is_reserved": 0, "lon": -77.06178666666666}, {"fusion_lat": 0.0, "name": "6dc0bb83a156735ae884aa60d808df17", "is_disabled": 0, "rental_uris": {"android": "https://dc.lft.to/lastmile_qr_scan", "ios": "https://dc.lft.to/lastmile_qr_scan"}, "fusion_lon": 0.0, "lat": 38.891054833333335, "bike_id": "6dc0bb83a156735ae884aa60d808df17", "type": "electric_scooter", "is_reserved": 0, "lon": -76.99620016666667}, {"fusion_lat": 0.0, "name": "7378abc6e4c2c15b670f17f0bb83dba9", "is_disabled": 0, "rental_uris": {"android": "https://dc.lft.to/lastmile_qr_scan", "ios": "https://dc.lft.to/lastmile_qr_scan"}, "fusion_lon": 0.0, "lat": 38.91710666666667, "bike_id": "7378abc6e4c2c15b670f17f0bb83dba9", "type": "electric_scooter", "is_reserved": 0, "lon": -77.03870016666667}, {"fusion_lat": 0.0, "name": "1058c0a36e37358c71ebb6466aac7be4", "is_disabled": 0, "rental_uris": {"android": "https://dc.lft.to/lastmile_qr_scan", "ios": "https://dc.lft.to/lastmile_qr_scan"}, "fusion_lon": 0.0, "lat": 38.907341333333335, "bike_id": "1058c0a36e37358c71ebb6466aac7be4", "type": "electric_scooter", "is_reserved": 0, "lon": -76.93546883333333}, {"fusion_lat": 0.0, "name": "671e830a76471e1a50f60c3b31341283", "is_disabled": 0, "rental_uris": {"android": "https://dc.lft.to/lastmile_qr_scan", "ios": "https://dc.lft.to/lastmile_qr_scan"}, "fusion_lon": 0.0, "lat": 38.904176666666665, "bike_id": "671e830a76471e1a50f60c3b31341283", "type": "electric_scooter", "is_reserved": 0, "lon": -77.06810083333333}, {"fusion_lat": 0.0, "name": "efefcd79e53df655db805021a924522e", "is_disabled": 0, "rental_uris": {"android": "https://dc.lft.to/lastmile_qr_scan", "ios": "https://dc.lft.to/lastmile_qr_scan"}, "fusion_lon": 0.0, "lat": 38.92232116666667, "bike_id": "efefcd79e53df655db805021a924522e", "type": "electric_scooter", "is_reserved": 0, "lon": -77.0424305}, {"fusion_lat": 0.0, "name": "f8104571c647820a4fde6c80ae0c9962", "is_disabled": 0, "rental_uris": {"android": "https://dc.lft.to/lastmile_qr_scan", "ios": "https://dc.lft.to/lastmile_qr_scan"}, "fusion_lon": 0.0, "lat": 38.925360833333336, "bike_id": "f8104571c647820a4fde6c80ae0c9962", "type": "electric_scooter", "is_reserved": 0, "lon": -77.00752783333333}, {"fusion_lat": 0.0, "name": "c998081e829955a4182aa0158d26e25c", "is_disabled": 0, "rental_uris": {"android": "https://dc.lft.to/lastmile_qr_scan", "ios": "https://dc.lft.to/lastmile_qr_scan"}, "fusion_lon": 0.0, "lat": 38.89231733333333, "bike_id": "c998081e829955a4182aa0158d26e25c", "type": "electric_scooter", "is_reserved": 0, "lon": -77.05000716666666}, {"fusion_lat": 0.0, "name": "1b9c1ab53866b5e498120b5a5302e67c", "is_disabled": 0, "rental_uris": {"android": "https://dc.lft.to/lastmile_qr_scan", "ios": "https://dc.lft.to/lastmile_qr_scan"}, "fusion_lon": 0.0, "lat": 38.819143, "bike_id": "1b9c1ab53866b5e498120b5a5302e67c", "type": "electric_bike", "is_reserved": 0, "lon": -77.04794533333333}, {"fusion_lat": 0.0, "name": "7746739c68409cf428279d6c41757aff", "is_disabled": 0, "rental_uris": {"android": "https://dc.lft.to/lastmile_qr_scan", "ios": "https://dc.lft.to/lastmile_qr_scan"}, "fusion_lon": 0.0, "lat": 38.905692, "bike_id": "7746739c68409cf428279d6c41757aff", "type": "electric_scooter", "is_reserved": 0, "lon": -77.0209735}, {"fusion_lat": 0.0, "name": "7015a521957a27363b7fb3f8ef761962", "is_disabled": 0, "rental_uris": {"android": "https://dc.lft.to/lastmile_qr_scan", "ios": "https://dc.lft.to/lastmile_qr_scan"}, "fusion_lon": 0.0, "lat": 38.81251266666666, "bike_id": "7015a521957a27363b7fb3f8ef761962", "type": "electric_bike", "is_reserved": 0, "lon": -77.11761666666666}, {"fusion_lat": 0.0, "name": "1a42abd0d40ae62d9b772a41f0fd2657", "is_disabled": 0, "rental_uris": {"android": "https://dc.lft.to/lastmile_qr_scan", "ios": "https://dc.lft.to/lastmile_qr_scan"}, "fusion_lon": 0.0, "lat": 38.883055166666665, "bike_id": "1a42abd0d40ae62d9b772a41f0fd2657", "type": "electric_scooter", "is_reserved": 0, "lon": -76.9485675}, {"fusion_lat": 0.0, "name": "6db49d25ebcdaffe5258696ea0e82b85", "is_disabled": 0, "rental_uris": {"android": "https://dc.lft.to/lastmile_qr_scan", "ios": "https://dc.lft.to/lastmile_qr_scan"}, "fusion_lon": 0.0, "lat": 38.9192845, "bike_id": "6db49d25ebcdaffe5258696ea0e82b85", "type": "electric_scooter", "is_reserved": 0, "lon": -77.012071}, {"fusion_lat": 0.0, "name": "031ac594cd6d5b8335d610f56a04da06", "is_disabled": 0, "rental_uris": {"android": "https://dc.lft.to/lastmile_qr_scan", "ios": "https://dc.lft.to/lastmile_qr_scan"}, "fusion_lon": 0.0, "lat": 38.94528016666667, "bike_id": "031ac594cd6d5b8335d610f56a04da06", "type": "electric_scooter", "is_reserved": 0, "lon": -77.02095666666666}, {"fusion_lat": 0.0, "name": "8e6e065c8dc7f4ba61f8156b954bbfe8", "is_disabled": 0, "rental_uris": {"android": "https://dc.lft.to/lastmile_qr_scan", "ios": "https://dc.lft.to/lastmile_qr_scan"}, "fusion_lon": 0.0, "lat": 38.90148516666667, "bike_id": "8e6e065c8dc7f4ba61f8156b954bbfe8", "type": "electric_scooter", "is_reserved": 0, "lon": -77.02291816666667}, {"fusion_lat": 0.0, "name": "bd2c38a0524e92febf41ce0fa1e64bd0", "is_disabled": 0, "rental_uris": {"android": "https://dc.lft.to/lastmile_qr_scan", "ios": "https://dc.lft.to/lastmile_qr_scan"}, "fusion_lon": 0.0, "lat": 38.909505, "bike_id": "bd2c38a0524e92febf41ce0fa1e64bd0", "type": "electric_scooter", "is_reserved": 0, "lon": -77.03182366666667}, {"fusion_lat": 0.0, "name": "127e50c4c78f45752cab656e0c72d3b4", "is_disabled": 0, "rental_uris": {"android": "https://dc.lft.to/lastmile_qr_scan", "ios": "https://dc.lft.to/lastmile_qr_scan"}, "fusion_lon": 0.0, "lat": 38.91538083333333, "bike_id": "127e50c4c78f45752cab656e0c72d3b4", "type": "electric_scooter", "is_reserved": 0, "lon": -77.03213966666667}, {"fusion_lat": 0.0, "name": "89355cd467ba8584b97ab24a72687e8f", "is_disabled": 0, "rental_uris": {"android": "https://dc.lft.to/lastmile_qr_scan", "ios": "https://dc.lft.to/lastmile_qr_scan"}, "fusion_lon": 0.0, "lat": 38.8999755, "bike_id": "89355cd467ba8584b97ab24a72687e8f", "type": "electric_scooter", "is_reserved": 0, "lon": -77.02216616666666}, {"fusion_lat": 0.0, "name": "b936802c3baecd56ab47831e84d8e3df", "is_disabled": 0, "rental_uris": {"android": "https://dc.lft.to/lastmile_qr_scan", "ios": "https://dc.lft.to/lastmile_qr_scan"}, "fusion_lon": 0.0, "lat": 38.921217166666665, "bike_id": "b936802c3baecd56ab47831e84d8e3df", "type": "electric_scooter", "is_reserved": 0, "lon": -77.01208733333333}, {"fusion_lat": 0.0, "name": "664110d91523f7f18c2a67d1755bdbd3", "is_disabled": 0, "rental_uris": {"android": "https://dc.lft.to/lastmile_qr_scan", "ios": "https://dc.lft.to/lastmile_qr_scan"}, "fusion_lon": 0.0, "lat": 38.90962966666667, "bike_id": "664110d91523f7f18c2a67d1755bdbd3", "type": "electric_scooter", "is_reserved": 0, "lon": -77.03422766666667}, {"fusion_lat": 0.0, "name": "c3e4eae4fbfa3becb3fa05dd8cbcd7a2", "is_disabled": 0, "rental_uris": {"android": "https://dc.lft.to/lastmile_qr_scan", "ios": "https://dc.lft.to/lastmile_qr_scan"}, "fusion_lon": 0.0, "lat": 39.01080566666667, "bike_id": "c3e4eae4fbfa3becb3fa05dd8cbcd7a2", "type": "electric_bike", "is_reserved": 0, "lon": -76.91063716666666}, {"fusion_lat": 0.0, "name": "c1af2674050e103b1877075de127d760", "is_disabled": 0, "rental_uris": {"android": "https://dc.lft.to/lastmile_qr_scan", "ios": "https://dc.lft.to/lastmile_qr_scan"}, "fusion_lon": 0.0, "lat": 38.93708933333333, "bike_id": "c1af2674050e103b1877075de127d760", "type": "electric_scooter", "is_reserved": 0, "lon": -77.061013}, {"fusion_lat": 0.0, "name": "9901aaef3b5ac6447ec9bf5c7463f98a", "is_disabled": 0, "rental_uris": {"android": "https://dc.lft.to/lastmile_qr_scan", "ios": "https://dc.lft.to/lastmile_qr_scan"}, "fusion_lon": 0.0, "lat": 38.89227116666667, "bike_id": "9901aaef3b5ac6447ec9bf5c7463f98a", "type": "electric_scooter", "is_reserved": 0, "lon": -77.0480405}, {"fusion_lat": 0.0, "name": "94544cf9a6f0ff34099c61bb7dcbea6a", "is_disabled": 0, "rental_uris": {"android": "https://dc.lft.to/lastmile_qr_scan", "ios": "https://dc.lft.to/lastmile_qr_scan"}, "fusion_lon": 0.0, "lat": 38.917129833333334, "bike_id": "94544cf9a6f0ff34099c61bb7dcbea6a", "type": "electric_scooter", "is_reserved": 0, "lon": -77.0242425}, {"fusion_lat": 0.0, "name": "fa15343236652e35905a1537020a26a0", "is_disabled": 0, "rental_uris": {"android": "https://dc.lft.to/lastmile_qr_scan", "ios": "https://dc.lft.to/lastmile_qr_scan"}, "fusion_lon": 0.0, "lat": 38.904435666666664, "bike_id": "fa15343236652e35905a1537020a26a0", "type": "electric_scooter", "is_reserved": 0, "lon": -77.01810716666667}, {"fusion_lat": 0.0, "name": "d6bd920566d90250bf019e50d3e08931", "is_disabled": 0, "rental_uris": {"android": "https://dc.lft.to/lastmile_qr_scan", "ios": "https://dc.lft.to/lastmile_qr_scan"}, "fusion_lon": 0.0, "lat": 38.92235316666667, "bike_id": "d6bd920566d90250bf019e50d3e08931", "type": "electric_scooter", "is_reserved": 0, "lon": -77.042429}, {"fusion_lat": 0.0, "name": "5c77551d41418aa6d0d034f8e84bbef3", "is_disabled": 0, "rental_uris": {"android": "https://dc.lft.to/lastmile_qr_scan", "ios": "https://dc.lft.to/lastmile_qr_scan"},