{"data": {"bikes": [{"fusion_lat": 0.0, "name": "f80b4b5cbb54a3265c98510642ac779e", "is_disabled": 0, "rental_uris": {"android": "https://dc.lft.to/lastmile_qr_scan", "ios": "https://dc.lft.to/lastmile_qr_scan"}, "fusion_lon": 0.0, "lat": 38.9312995, "bike_id": "f80b4b5cbb54a3265c98510642ac779e", "type": "electric_scooter", "is_reserved": 0, "lon": -77.02197683333333}, {"fusion_lat": 0.0, "name": "dd919b580b16d7651e4ed78b0fd2e37c", "is_disabled": 0, "rental_uris": {"android": "https://dc.lft.to/lastmile_qr_scan", "ios": "https://dc.lft.to/lastmile_qr_scan"}, "fusion_lon": 0.0, "lat": 38.905650333333334, "bike_id": "dd919b580b16d7651e4ed78b0fd2e37c", "type": "electric_scooter", "is_reserved": 0, "lon": -77.00589}, {"fusion_lat": 0.0, "name": "f30b10c3714b5ea1d0adf7186b090529", "is_disabled": 0, "rental_uris": {"android": "https://dc.lft.to/lastmile_qr_scan", "ios": "https://dc.lft.to/lastmile_qr_scan"}, "fusion_lon": 0.0, "lat": 38.913328, "bike_id": "f30b10c3714b5ea1d0adf7186b090529", "type": "electric_scooter", "is_reserved": 0, "lon": -77.043261}, {"fusion_lat": 0.0, "name": "45790b1e0357dd491de34529d8becf47", "is_disabled": 0, "rental_uris": {"android": "https://dc.lft.to/lastmile_qr_scan", "ios": "https://dc.lft.to/lastmile_qr_scan"}, "fusion_lon": 0.0, "lat": 38.925481, "bike_id": "45790b1e0357dd491de34529d8becf47", "type": "electric_scooter", "is_reserved": 0, "lon": -76.98299633333333}, {"fusion_lat": 0.0, "name": "2a91ff34644289265e0902805fd5adb4", "is_disabled": 0, "rental_uris": {"android": "https://dc.lft.to/lastmile_qr_scan", "ios": "https://dc.lft.to/lastmile_qr_scan"}, "fusion_lon": 0.0, "lat": 38.90188333333333, "bike_id": "2a91ff34644289265e0902805fd5adb4", "type": "electric_scooter", "is_reserved": 0, "lon": -77.01580466666667}, {"fusion_lat": 0.0, "name": "3e0da97c32eb9c04753b1ea10e8bf4a9", "is_disabled": 0, "rental_uris": {"android": "https://dc.lft.to/lastmile_qr_scan", "ios": "https://dc.lft.to/lastmile_qr_scan"}, "fusion_lon": 0.0, "lat": 38.9267865, "bike_id": "3e0da97c32eb9c04753b1ea10e8bf4a9", "type": "electric_scooter", "is_reserved": 0, "lon": -77.031452}, {"fusion_lat": 0.0, "name": "470788b308f65ff6640365b8bb867d7f", "is_disabled": 0, "rental_uris": {"android": "https://dc.lft.to/lastmile_qr_scan", "ios": "https://dc.lft.to/lastmile_qr_scan"}, "fusion_lon": 0.0, "lat": 38.91662483333333, "bike_id": "470788b308f65ff6640365b8bb867d7f", "type": "electric_scooter", "is_reserved": 0, "lon": -77.0384305}, {"fusion_lat": 0.0, "name": "f4ced490a69707865608d5e0436fd989", "is_disabled": 0, "rental_uris": {"android": "https://dc.lft.to/lastmile_qr_scan", "ios": "https://dc.lft.to/lastmile_qr_scan"}, "fusion_lon": 0.0, "lat": 38.9067305, "bike_id": "f4ced490a69707865608d5e0436fd989", "type": "electric_scooter", "is_reserved": 0, "lon": -77.07463883333334}, {"fusion_lat": 0.0, "name": "a594b34602b2a025359435995ebd25c0", "is_disabled": 0, "rental_uris": {"android": "https://dc.lft.to/lastmile_qr_scan", "ios": "https://dc.lft.to/lastmile_qr_scan"}, "fusion_lon": 0.0, "lat": 38.89350916666667, "bike_id": "a594b34602b2a025359435995ebd25c0", "type": "electric_scooter", "is_reserved": 0, "lon": -77.02797966666667}, {"fusion_lat": 0.0, "name": "fb5462e81613009abbb25967cb7d1ea0", "is_disabled": 0, "rental_uris": {"android": "https://dc.lft.to/lastmile_qr_scan", "ios": "https://dc.lft.to/lastmile_qr_scan"}, "fusion_lon": 0.0, "lat": 38.94165516666666, "bike_id": "fb5462e81613009abbb25967cb7d1ea0", "type": "electric_scooter", "is_reserved": 0, "lon": -77.02514666666667}, {"fusion_lat": 0.0, "name": "1b0b3b78670d858258d80f8ed621a2eb", "is_disabled": 0, "rental_uris": {"android": "https://dc.lft.to/lastmile_qr_scan", "ios": "https://dc.lft.to/lastmile_qr_scan"}, "fusion_lon": 0.0, "lat": 38.919776666666664, "bike_id": "1b0b3b78670d858258d80f8ed621a2eb", "type": "electric_scooter", "is_reserved": 0, "lon": -77.02380383333333}, {"fusion_lat": 0.0, "name": "3aacfaeab91b1a96b1b02a20158d001d", "is_disabled": 0, "rental_uris": {"android": "https://dc.lft.to/lastmile_qr_scan", "ios": "https://dc.lft.to/lastmile_qr_scan"}, "fusion_lon": 0.0, "lat": 38.90731, "bike_id": "3aacfaeab91b1a96b1b02a20158d001d", "type": "electric_scooter", "is_reserved": 0, "lon": -77.02976466666667}, {"fusion_lat": 0.0, "name": "292b780f3a988aaed402211ae898033b", "is_disabled": 0, "rental_uris": {"android": "https://dc.lft.to/lastmile_qr_scan", "ios": "https://dc.lft.to/lastmile_qr_scan"}, "fusion_lon": 0.0, "lat": 38.93088816666667, "bike_id": "292b780f3a988aaed402211ae898033b", "type": "electric_scooter", "is_reserved": 0, "lon": -77.02401366666666}, {"fusion_lat": 0.0, "name": "7ee0cc4e2dbc385904428d710a214672", "is_disabled": 0, "rental_uris": {"android": "https://dc.lft.to/lastmile_qr_scan", "ios": "https://dc.lft.to/lastmile_qr_scan"}, "fusion_lon": 0.0, "lat": 38.866284, "bike_id": "7ee0cc4e2dbc385904428d710a214672", "type": "electric_scooter", "is_reserved": 0, "lon": -76.98301466666666}, {"fusion_lat": 0.0, "name": "95f1603a811a9a6b795a5b371e6513ff", "is_disabled": 0, "rental_uris": {"android": "https://dc.lft.to/lastmile_qr_scan", "ios": "https://dc.lft.to/lastmile_qr_scan"}, "fusion_lon": 0.0, "lat": 38.888093166666664, "bike_id": "95f1603a811a9a6b795a5b371e6513ff", "type": "electric_scooter", "is_reserved": 0, "lon": -76.9835495}, {"fusion_lat": 0.0, "name": "cc63225586700f3a8df089df58d612df", "is_disabled": 0, "rental_uris": {"android": "https://dc.lft.to/lastmile_qr_scan", "ios": "https://dc.lft.to/lastmile_qr_scan"}, "fusion_lon": 0.0, "lat": 38.966232833333336, "bike_id": "cc63225586700f3a8df089df58d612df", "type": "electric_bike", "is_reserved": 0, "lon": -77.0343435}, {"fusion_lat": 0.0, "name": "be56f9f6e2c84f0fc4c58ad25b19c4e6", "is_disabled": 0, "rental_uris": {"android": "https://dc.lft.to/lastmile_qr_scan", "ios": "https://dc.lft.to/lastmile_qr_scan"}, "fusion_lon": 0.0, "lat": 38.916239, "bike_id": "be56f9f6e2c84f0fc4c58ad25b19c4e6", "type": "electric_scooter", "is_reserved": 0, "lon": -77.01129933333333}, {"fusion_lat": 0.0, "name": "a97d10649b425520cd85a00eb7f426fd", "is_disabled": 0, "rental_uris": {"android": "https://dc.lft.to/lastmile_qr_scan", "ios": "https://dc.lft.to/lastmile_qr_scan"}, "fusion_lon": 0.0, "lat": 38.903948, "bike_id": "a97d10649b425520cd85a00eb7f426fd", "type": "electric_scooter", "is_reserved": 0, "lon": -77.06781166666667}, {"fusion_lat": 0.0, "name": "51eb3bb8aa537df358aaa3afd686d321", "is_disabled": 0, "rental_uris": {"android": "https://dc.lft.to/lastmile_qr_scan", "ios": "https://dc.lft.to/lastmile_qr_scan"}, "fusion_lon": 0.0, "lat": 38.90270683333333, "bike_id": "51eb3bb8aa537df358aaa3afd686d321", "type": "electric_scooter", "is_reserved": 0, "lon": -77.01797066666667}, {"fusion_lat": 0.0, "name": "22256effe207a4f0b7bac7ba27399872", "is_disabled": 0, "rental_uris": {"android": "https://dc.lft.to/lastmile_qr_scan", "ios": "https://dc.lft.to/lastmile_qr_scan"}, "fusion_lon": 0.0, "lat": 38.90919316666667, "bike_id": "22256effe207a4f0b7bac7ba27399872", "type": "electric_scooter", "is_reserved": 0, "lon": -77.04582416666666}, {"fusion_lat": 0.0, "name": "1ccca7389c697cb850e2c0f9e477c449", "is_disabled": 0, "rental_uris": {"android": "https://dc.lft.to/lastmile_qr_scan", "ios": "https://dc.lft.to/lastmile_qr_scan"}, "fusion_lon": 0.0, "lat": 38.90838516666667, "bike_id": "1ccca7389c697cb850e2c0f9e477c449", "type": "electric_scooter", "is_reserved": 0, "lon": -77.02688666666667}, {"fusion_lat": 0.0, "name": "d4d6b42fe4cfd2b72697ae48d489f5b1", "is_disabled": 0, "rental_uris": {"android": "https://dc.lft.to/lastmile_qr_scan", "ios": "https://dc.lft.to/lastmile_qr_scan"}, "fusion_lon": 0.0, "lat": 38.904975666666665, "bike_id": "d4d6b42fe4cfd2b72697ae48d489f5b1", "type": "electric_scooter", "is_reserved": 0, "lon": -77.0268555}, {"fusion_lat": 0.0, "name": "5d6b86e93453a4cd6a40a521040347c9", "is_disabled": 0, "rental_uris": {"android": "https://dc.lft.to/lastmile_qr_scan", "ios": "https://dc.lft.to/lastmile_qr_scan"}, "fusion_lon": 0.0, "lat": 38.815973666666665, "bike_id": "5d6b86e93453a4cd6a40a521040347c9", "type": "electric_bike", "is_reserved": 0, "lon": -77.050552}, {"fusion_lat": 0.0, "name": "eadaa264cd45f2c2a994da2cc68f347f", "is_disabled": 0, "rental_uris": {"android": "https://dc.lft.to/lastmile_qr_scan", "ios": "https://dc.lft.to/lastmile_qr_scan"}, "fusion_lon": 0.0, "lat": 38.90511716666666, "bike_id": "eadaa264cd45f2c2a994da2cc68f347f", "type": "electric_scooter", "is_reserved": 0, "lon": -77.02953666666667}, {"fusion_lat": 0.0, "name": "d32627026a0bdcc7934dcafed2a9a539", "is_disabled": 0, "rental_uris": {"android": "https://dc.lft.to/lastmile_qr_scan", "ios": "https://dc.lft.to/lastmile_qr_scan"}, "fusion_lon": 0.0, "lat": 38.902405333333334, "bike_id": "d32627026a0bdcc7934dcafed2a9a539", "type": "electric_scooter", "is_reserved": 0, "lon": -77.03967483333334}, {"fusion_lat": 0.0, "name": "69ad275fd210bc2e688cf581de1eeb36", "is_disabled": 0, "rental_uris": {"android": "https://dc.lft.to/lastmile_qr_scan", "ios": "https://dc.lft.to/lastmile_qr_scan"}, "fusion_lon": 0.0, "lat": 38.92182666666667, "bike_id": "69ad275fd210bc2e688cf581de1eeb36", "type": "electric_scooter", "is_reserved": 0, "lon": -76.99755816666666}, {"fusion_lat": 0.0, "name": "5be806f75e6da009045fc78ff3677b90", "is_disabled": 0, "rental_uris": {"android": "https://dc.lft.to/lastmile_qr_scan", "ios": "https://dc.lft.to/lastmile_qr_scan"}, "fusion_lon": 0.0, "lat": 38.91028766666667, "bike_id": "5be806f75e6da009045fc78ff3677b90", "type": "electric_scooter", "is_reserved": 0, "lon": -77.00759433333333}, {"fusion_lat": 0.0, "name": "d8cc8091b99c78654f50271583d5870f", "is_disabled": 0, "rental_uris": {"android": "https://dc.lft.to/lastmile_qr_scan", "ios": "https://dc.lft.to/lastmile_qr_scan"}, "fusion_lon": 0.0, "lat": 38.945317, "bike_id": "d8cc8091b99c78654f50271583d5870f", "type": "electric_scooter", "is_reserved": 0, "lon": -77.02526983333334}, {"fusion_lat": 0.0, "name": "c42e019a81f953a4e1dc91aee2cd0b3a", "is_disabled": 0, "rental_uris": {"android": "https://dc.lft.to/lastmile_qr_scan", "ios": "https://dc.lft.to/lastmile_qr_scan"}, "fusion_lon": 0.0, "lat": 38.898742166666665, "bike_id": "c42e019a81f953a4e1dc91aee2cd0b3a", "type": "electric_scooter", "is_reserved": 0, "lon": -76.92743583333333}, {"fusion_lat": 0.0, "name": "06da06a946147cec4db5e8972fbd014a", "is_disabled": 0, "rental_uris": {"android": "https://dc.lft.to/lastmile_qr_scan", "ios": "https://dc.lft.to/lastmile_qr_scan"}, "fusion_lon": 0.0, "lat": 38.89851183333333, "bike_id": "06da06a946147cec4db5e8972fbd014a", "type": "electric_scooter", "is_reserved": 0, "lon": -76.99032716666666}, {"fusion_lat": 0.0, "name": "c1991042b07c0053756944d6cc4e28c5", "is_disabled": 0, "rental_uris": {"android": "https://dc.lft.to/lastmile_qr_scan", "ios": "https://dc.lft.to/lastmile_qr_scan"}, "fusion_lon": 0.0, "lat": 38.882964666666666, "bike_id": "c1991042b07c0053756944d6cc4e28c5", "type": "electric_scooter", "is_reserved": 0, "lon": -76.94848333333333}, {"fusion_lat": 0.0, "name": "57b630ffba3d4e6f9f25600e1a91546f", "is_disabled": 0, "rental_uris": {"android": "https://dc.lft.to/lastmile_qr_scan", "ios": "https://dc.lft.to/lastmile_qr_scan"}, "fusion_lon": 0.0, "lat": 39.070531333333335, "bike_id": "57b630ffba3d4e6f9f25600e1a91546f", "type": "electric_bike", "is_reserved": 0, "lon": -77.11492716666666}, {"fusion_lat": 0.0, "name": "927d1d31a928badbb5790fb62136ad0c", "is_disabled": 0, "rental_uris": {"android": "https://dc.lft.to/lastmile_qr_scan", "ios": "https://dc.lft.to/lastmile_qr_scan"}, "fusion_lon": 0.0, "lat": 38.905873, "bike_id": "927d1d31a928badbb5790fb62136ad0c", "type": "electric_scooter", "is_reserved": 0, "lon": -77.00744833333333}, {"fusion_lat": 0.0, "name": "ae06ac75648a8e32d818035919297877", "is_disabled": 0, "rental_uris": {"android": "https://dc.lft.to/lastmile_qr_scan", "ios": "https://dc.lft.to/lastmile_qr_scan"}, "fusion_lon": 0.0, "lat": 38.952992333333334, "bike_id": "ae06ac75648a8e32d818035919297877", "type": "electric_bike", "is_reserved": 0, "lon": -76.99989166666667}, {"fusion_lat": 0.0, "name": "2f70016b19ca7c241b87aab4528c79c6", "is_disabled": 0, "rental_uris": {"android": "https://dc.lft.to/lastmile_qr_scan", "ios": "https://dc.lft.to/lastmile_qr_scan"}, "fusion_lon": 0.0, "lat": 38.8972825, "bike_id": "2f70016b19ca7c241b87aab4528c79c6", "type": "electric_scooter", "is_reserved": 0, "lon": -77.02376333333333}, {"fusion_lat": 0.0, "name": "a450ac18f6395227c56f25f819f840ea", "is_disabled": 0, "rental_uris": {"android": "https://dc.lft.to/lastmile_qr_scan", "ios": "https://dc.lft.to/lastmile_qr_scan"}, "fusion_lon": 0.0, "lat": 38.84123866666667, "bike_id": "a450ac18f6395227c56f25f819f840ea", "type": "electric_bike", "is_reserved": 0, "lon": -77.06306766666667}, {"fusion_lat": 0.0, "name": "511feafcdca539d8d859786a6a0302df", "is_disabled": 0, "rental_uris": {"android": "https://dc.lft.to/lastmile_qr_scan", "ios": "https://dc.lft.to/lastmile_qr_scan"}, "fusion_lon": 0.0, "lat": 38.898557, "bike_id": "511feafcdca539d8d859786a6a0302df", "type": "electric_scooter", "is_reserved": 0, "lon": -77.03171583333334}, {"fusion_lat": 0.0, "name": "d55eaa8ea0b1e8decb1b76f1f876790b", "is_disabled": 0, "rental_uris": {"android": "https://dc.lft.to/lastmile_qr_scan", "ios": "https://dc.lft.to/lastmile_qr_scan"}, "fusion_lon": 0.0, "lat": 38.931198333333334, "bike_id": "d55eaa8ea0b1e8decb1b76f1f876790b", "type": "electric_scooter", "is_reserved": 0, "lon": -76.98442933333334}, {"fusion_lat": 0.0, "name": "4f27178a39df1e7ad87aeb45caa4e19e", "is_disabled": 0, "rental_uris": {"android": "https://dc.lft.to/lastmile_qr_scan", "ios": "https://dc.lft.to/lastmile_qr_scan"}, "fusion_lon": 0.0, "lat": 38.92405183333333, "bike_id": "4f27178a39df1e7ad87aeb45caa4e19e", "type": "electric_scooter", "is_reserved": 0, "lon": -77.04308983333334}, {"fusion_lat": 0.0, "name": "b41aab646c8ab21bb079e04f90f0eb1f", "is_disabled": 0, "rental_uris": {"android": "https://dc.lft.to/lastmile_qr_scan", "ios": "https://dc.lft.to/lastmile_qr_scan"}, "fusion_lon": 0.0, "lat": 38.89220816666667, "bike_id": "b41aab646c8ab21bb079e04f90f0eb1f", "type": "electric_scooter", "is_reserved": 0, "lon": -77.04501416666666}, {"fusion_lat": 0.0, "name": "2ec27ba3ed1aad120f70bbaf9b426220", "is_disabled": 0, "rental_uris": {"android": "https://dc.lft.to/lastmile_qr_scan", "ios": "https://dc.lft.to/lastmile_qr_scan"}, "fusion_lon": 0.0, "lat": 38.906251166666664, "bike_id": "2ec27ba3ed1aad120f70bbaf9b426220", "type": "electric_scooter", "is_reserved": 0, "lon": -77.0060005}, {"fusion_lat": 0.0, "name": "fb1c8fae2f4f690d669f2e7d06e061d6", "is_disabled": 0, "rental_uris": {"android": "https://dc.lft.to/lastmile_qr_scan", "ios": "https://dc.lft.to/lastmile_qr_scan"}, "fusion_lon": 0.0, "lat": 38.92916916666667, "bike_id": "fb1c8fae2f4f690d669f2e7d06e061d6", "type": "electric_scooter", "is_reserved": 0, "lon": -77.021858}, {"fusion_lat": 0.0, "name": "bc1f3e6513eda5d346d6162dd7f4ca6d", "is_disabled": 0, "rental_uris": {"android": "https://dc.lft.to/lastmile_qr_scan", "ios": "https://dc.lft.to/lastmile_qr_scan"}, "fusion_lon": 0.0, "lat": 38.89492633333333, "bike_id": "bc1f3e6513eda5d346d6162dd7f4ca6d", "type": "electric_scooter", "is_reserved": 0, "lon": -77.002537}, {"fusion_lat": 0.0, "name": "f4f7d3e0b3cecb9a31354c35ae2087bc", "is_disabled": 0, "rental_uris": {"android": "https://dc.lft.to/lastmile_qr_scan", "ios": "https://dc.lft.to/lastmile_qr_scan"}, "fusion_lon": 0.0, "lat": 38.94286616666667, "bike_id": "f4f7d3e0b3cecb9a31354c35ae2087bc", "type": "electric_scooter", "is_reserved": 0, "lon": -77.02168133333333}, {"fusion_lat": 0.0, "name": "5f992bf064243bc357c117ad9ab87634", "is_disabled": 0, "rental_uris": {"android": "https://dc.lft.to/lastmile_qr_scan", "ios": "https://dc.lft.to/lastmile_qr_scan"}, "fusion_lon": 0.0, "lat": 38.933978833333335, "bike_id": "5f992bf064243bc357c117ad9ab87634", "type": "electric_scooter", "is_reserved": 0, "lon": -77.02845933333333}, {"fusion_lat": 0.0, "name": "f6c8ac168e3a7ca8ee01b1435a184f41", "is_disabled": 0, "rental_uris": {"android": "https://dc.lft.to/lastmile_qr_scan", "ios": "https://dc.lft.to/lastmile_qr_scan"}, "fusion_lon": 0.0, "lat": 38.89965216666667, "bike_id": "f6c8ac168e3a7ca8ee01b1435a184f41", "type": "electric_scooter", "is_reserved": 0, "lon": -76.98159816666667}, {"fusion_lat": 0.0, "name": "ba942395aeaa5c2aaa788ff061adf334", "is_disabled": 0, "rental_uris": {"android": "https://dc.lft.to/lastmile_qr_scan", "ios": "https://dc.lft.to/lastmile_qr_scan"}, "fusion_lon": 0.0, "lat": 38.90490583333333, "bike_id": "ba942395aeaa5c2aaa788ff061adf334", "type": "electric_scooter", "is_reserved": 0, "lon": -77.03198283333333}, {"fusion_lat": 0.0, "name": "976358e8d59d440a11f414cea6d0077a", "is_disabled": 0, "rental_uris": {"android": "https://dc.lft.to/lastmile_qr_scan", "ios": "https://dc.lft.to/lastmile_qr_scan"}, "fusion_lon": 0.0, "lat": 38.902712666666666, "bike_id": "976358e8d59d440a11f414cea6d0077a", "type": "electric_scooter", "is_reserved": 0, "lon": -77.01771566666666}, {"fusion_lat": 0.0, "name": "91636a9748b70d31c852244c24ebe58a", "is_disabled": 0, "rental_uris": {"android": "https://dc.lft.to/lastmile_qr_scan", "ios": "https://dc.lft.to/lastmile_qr_scan"}, "fusion_lon": 0.0, "lat": 38.909542, "bike_id": "91636a9748b70d31c852244c24ebe58a", "type": "electric_scooter", "is_reserved": 0, "lon": -76.98541349999999}, {"fusion_lat": 0.0, "name": "c6f9a61462702147cd01be90e7959792", "is_disabled": 0, "rental_uris": {"android": "https://dc.lft.to/lastmile_qr_scan", "ios": "https://dc.lft.to/lastmile_qr_scan"}, "fusion_lon": 0.0, "lat": 38.8829535, "bike_id": "c6f9a61462702147cd01be90e7959792", "type": "electric_bike", "is_reserved": 0, "lon": -77.03022666666666}, {"fusion_lat": 0.0, "name": "7cd2206f41766f9458f91e5fbcf05b09", "is_disabled": 0, "rental_uris": {"android": "https://dc.lft.to/lastmile_qr_scan", "ios": "https://dc.lft.to/lastmile_qr_scan"}, "fusion_lon": 0.0, "lat": 38.926941166666666, "bike_id": "7cd2206f41766f9458f91e5fbcf05b09", "type": "electric_scooter", "is_reserved": 0, "lon": -77.02322666666667}, {"fusion_lat": 0.0, "name": "872d56a21bb7aeda61254f6efffa6d49", "is_disabled": 0, "rental_uris": {"android": "https://dc.lft.to/lastmile_qr_scan", "ios": "https://dc.lft.to/lastmile_qr_scan"}, "fusion_lon": 0.0, "lat": 38.924977, "bike_id": "872d56a21bb7aeda61254f6efffa6d49", "type": "electric_scooter", "is_reserved": 0, "lon": -77.02172683333333}, {"fusion_lat": 0.0, "name": "6a6b1631627d84a7d20a6245f2e27690", "is_disabled": 0, "rental_uris": {"android": "https://dc.lft.to/lastmile_qr_scan", "ios": "https://dc.lft.to/lastmile_qr_scan"}, "fusion_lon": 0.0, "lat": 38.9563395, "bike_id": "6a6b1631627d84a7d20a6245f2e27690", "type": "electric_scooter", "is_reserved": 0, "lon": -77.0329995}, {"fusion_lat": 0.0, "name": "ef308b6c791746dca7b2f2a15fbfbe49", "is_disabled": 0, "rental_uris": {"android": "https://dc.lft.to/lastmile_qr_scan", "ios": "https://dc.lft.to/lastmile_qr_scan"}, "fusion_lon": 0.0, "lat": 38.900639, "bike_id": "ef308b6c791746dca7b2f2a15fbfbe49", "type": "electric_scooter", "is_reserved": 0, "lon": -77.050361}, {"fusion_lat": 0.0, "name": "ea0812a95eb4f3eee8a975b079c82740", "is_disabled": 0, "rental_uris": {"android": "https://dc.lft.to/lastmile_qr_scan", "ios": "https://dc.lft.to/lastmile_qr_scan"}, "fusion_lon": 0.0, "lat": 38.932826166666665, "bike_id": "ea0812a95eb4f3eee8a975b079c82740", "type": "electric_scooter", "is_reserved": 0, "lon": -77.02748283333334}, {"fusion_lat": 0.0, "name": "46f368afdf939c57347578e315ac648a", "is_disabled": 0, "rental_uris": {"android": "https://dc.lft.to/lastmile_qr_scan", "ios": "https://dc.lft.to/lastmile_qr_scan"}, "fusion_lon": 0.0, "lat": 38.94126133333333, "bike_id": "46f368afdf939c57347578e315ac648a", "type": "electric_scooter", "is_reserved": 0, "lon": -77.0154095}, {"fusion_lat": 0.0, "name": "08fa4527654549fd8bab26a6232a7154", "is_disabled": 0, "rental_uris": {"android": "https://dc.lft.to/lastmile_qr_scan", "ios": "https://dc.lft.to/lastmile_qr_scan"}, "fusion_lon": 0.0, "lat": 38.91012816666667, "bike_id": "08fa4527654549fd8bab26a6232a7154", "type": "electric_scooter", "is_reserved": 0, "lon": -77.03845333333334}, {"fusion_lat": 0.0, "name": "783b08381cb87c8bae00e810ae6bec3d", "is_disabled": 0, "rental_uris": {"android": "https://dc.lft.to/lastmile_qr_scan", "ios": "https://dc.lft.to/lastmile_qr_scan"}, "fusion_lon": 0.0, "lat": 38.950172333333335, "bike_id": "783b08381cb87c8bae00e810ae6bec3d", "type": "electric_scooter", "is_reserved": 0, "lon": -77.03347366666667}, {"fusion_lat": 0.0, "name": "8ea77a3f949f67197ef562c9f7de0278", "is_disabled": 0, "rental_uris": {"android": "https://dc.lft.to/lastmile_qr_scan", "ios": "https://dc.lft.to/lastmile_qr_scan"}, "fusion_lon": 0.0, "lat": 38.93892683333333, "bike_id": "8ea77a3f949f67197ef562c9f7de0278", "type": "electric_scooter", "is_reserved": 0, "lon": -77.03337333333333}, {"fusion_lat": 0.0, "name": "146610ad03e3dd129eea85dbea7f06cc", "is_disabled": 0, "rental_uris": {"android": "https://dc.lft.to/lastmile_qr_scan", "ios": "https://dc.lft.to/lastmile_qr_scan"}, "fusion_lon": 0.0, "lat": 38.940904333333336, "bike_id": "146610ad03e3dd129eea85dbea7f06cc", "type": "electric_scooter", "is_reserved": 0, "lon": -77.02315333333334}, {"fusion_lat": 0.0, "name": "c190173248b7b2dcfa2dc25bbad403b7", "is_disabled": 0, "rental_uris": {"android": "https://dc.lft.to/lastmile_qr_scan", "ios": "https://dc.lft.to/lastmile_qr_scan"}, "fusion_lon": 0.0, "lat": 38.903663, "bike_id": "c190173248b7b2dcfa2dc25bbad403b7", "type": "electric_scooter", "is_reserved": 0, "lon": -77.05155683333334}, {"fusion_lat": 0.0, "name": "ae32e29b8a80c9db6d130a3aedcbfce1", "is_disabled": 0, "rental_uris": {"android": "https://dc.lft.to/lastmile_qr_scan", "ios": "https://dc.lft.to/lastmile_qr_scan"}, "fusion_lon": 0.0, "lat": 38.893978833333335, "bike_id": "ae32e29b8a80c9db6d130a3aedcbfce1", "type": "electric_scooter", "is_reserved": 0, "lon": -76.99489766666667}, {"fusion_lat": 0.0, "name": "35fa078d08b29df1dedd5c18c093424a", "is_disabled": 0, "rental_uris": {"android": "https://dc.lft.to/lastmile_qr_scan", "ios": "https://dc.lft.to/lastmile_qr_scan"}, "fusion_lon": 0.0, "lat": 38.88735533333333, "bike_id": "35fa078d08b29df1dedd5c18c093424a", "type": "electric_scooter", "is_reserved": 0, "lon": -77.03173716666667}, {"fusion_lat": 0.0, "name": "696ca092cf6d2d6133ab083402918b9f", "is_disabled": 0, "rental_uris": {"android": "https://dc.lft.to/lastmile_qr_scan", "ios": "https://dc.lft.to/lastmile_qr_scan"}, "fusion_lon": 0.0, "lat": 38.91766, "bike_id": "696ca092cf6d2d6133ab083402918b9f", "type": "electric_scooter", "is_reserved": 0, "lon": -77.01209366666667}, {"fusion_lat": 0.0, "name": "01e143ffdd51b94cb7d6f4f96531a010", "is_disabled": 0, "rental_uris": {"android": "https://dc.lft.to/lastmile_qr_scan", "ios": "https://dc.lft.to/lastmile_qr_scan"}, "fusion_lon": 0.0, "lat": 38.9214075, "bike_id": "01e143ffdd51b94cb7d6f4f96531a010", "type": "electric_scooter", "is_reserved": 0, "lon": -77.04341383333333}, {"fusion_lat": 0.0, "name": "2146d0ef77f03c6f0d352f2a738e3fdf", "is_disabled": 0, "rental_uris": {"android": "https://dc.lft.to/lastmile_qr_scan", "ios": "https://dc.lft.to/lastmile_qr_scan"}, "fusion_lon": 0.0, "lat": 38.9221705, "bike_id": "2146d0ef77f03c6f0d352f2a738e3fdf", "type": "electric_bike", "is_reserved": 0, "lon": -77.20139}, {"fusion_lat": 0.0, "name": "e94d5fb631ad0af890ce64457f10b478", "is_disabled": 0, "rental_uris": {"android": "https://dc.lft.to/lastmile_qr_scan", "ios": "https://dc.lft.to/lastmile_qr_scan"}, "fusion_lon": 0.0, "lat": 38.92829616666667, "bike_id": "e94d5fb631ad0af890ce64457f10b478", "type": "electric_scooter", "is_reserved": 0, "lon": -77.0543695}, {"fusion_lat": 0.0, "name": "7ead7bbca5c520e8b9c4bfeadd8efeaf", "is_disabled": 0, "rental_uris": {"android": "https://dc.lft.to/lastmile_qr_scan", "ios": "https://dc.lft.to/lastmile_qr_scan"}, "fusion_lon": 0.0, "lat": 38.91734116666667, "bike_id": "7ead7bbca5c520e8b9c4bfeadd8efeaf", "type": "electric_scooter", "is_reserved": 0, "lon": -77.032057}, {"fusion_lat": 0.0, "name": "24ac849a8686c28372917748b5a10c53", "is_disabled": 0, "rental_uris": {"android": "https://dc.lft.to/lastmile_qr_scan", "ios": "https://dc.lft.to/lastmile_qr_scan"}, "fusion_lon": 0.0, "lat": 38.941916166666665, "bike_id": "24ac849a8686c28372917748b5a10c53", "type": "electric_scooter", "is_reserved": 0, "lon": -77.02590166666667}, {"fusion_lat": 0.0, "name": "1c177182a680e1b860e621be5e14d060", "is_disabled": 0, "rental_uris": {"android": "https://dc.lft.to/lastmile_qr_scan", "ios": "https://dc.lft.to/lastmile_qr_scan"}, "fusion_lon": 0.0, "lat": 38.9640465, "bike_id": "1c177182a680e1b860e621be5e14d060", "type": "electric_scooter", "is_reserved": 0, "lon": -77.0752885}, {"fusion_lat": 0.0, "name": "4462eac35ef07ec580502ff11c1ea6a1", "is_disabled": 0, "rental_uris": {"android": "https://dc.lft.to/lastmile_qr_scan", "ios": "https://dc.lft.to/lastmile_qr_scan"}, "fusion_lon": 0.0, "lat": 38.938425333333335, "bike_id": "4462eac35ef07ec580502ff11c1ea6a1", "type": "electric_scooter", "is_reserved": 0, "lon": -77.03381133333333}, {"fusion_lat": 0.0, "name": "fbdb04d4d3b446f469e526cf461add0a", "is_disabled": 0, "rental_uris": {"android": "https://dc.lft.to/lastmile_qr_scan", "ios": "https://dc.lft.to/lastmile_qr_scan"}, "fusion_lon": 0.0, "lat": 38.92085466666666, "bike_id": "fbdb04d4d3b446f469e526cf461add0a", "type": "electric_bike", "is_reserved": 0, "lon": -77.031673}, {"fusion_lat": 0.0, "name": "336934825350d4651d55be6b477d5d3f", "is_disabled": 0, "rental_uris": {"android": "https://dc.lft.to/lastmile_qr_scan", "ios": "https://dc.lft.to/lastmile_qr_scan"}, "fusion_lon": 0.0, "lat": 38.93261433333333, "bike_id": "336934825350d4651d55be6b477d5d3f", "type": "electric_scooter", "is_reserved": 0, "lon": -77.020906}, {"fusion_lat": 0.0, "name": "cf943c6fed5838a6a47c3e56ccda0919", "is_disabled": 0, "rental_uris": {"android": "https://dc.lft.to/lastmile_qr_scan", "ios": "https://dc.lft.to/lastmile_qr_scan"}, "fusion_lon": 0.0, "lat": 38.92081833333334, "bike_id": "cf943c6fed5838a6a47c3e56ccda0919", "type": "electric_scooter", "is_reserved": 0, "lon": -76.9945935}, {"fusion_lat": 0.0, "name": "5eed6a7c0947d7ea804d7b006d65ee4a", "is_disabled": 0, "rental_uris": {"android": "https://dc.lft.to/lastmile_qr_scan", "ios": "https://dc.lft.to/lastmile_qr_scan"}, "fusion_lon": 0.0, "lat": 38.87685666666667, "bike_id": "5eed6a7c0947d7ea804d7b006d65ee4a", "type": "electric_scooter", "is_reserved": 0, "lon": -77.01756833333333}, {"fusion_lat": 0.0, "name": "ad28dd5729e1ee0accb9067062457b71", "is_disabled": 0, "rental_uris": {"android": "https://dc.lft.to/lastmile_qr_scan", "ios": "https://dc.lft.to/lastmile_qr_scan"}, "fusion_lon": 0.0, "lat": 38.914738666666665, "bike_id": "ad28dd5729e1ee0accb9067062457b71", "type": "electric_scooter", "is_reserved": 0, "lon": -77.04548433333333}, {"fusion_lat": 0.0, "name": "f190fbd726cfe31713a2e2b1309f2d39", "is_disabled": 0, "rental_uris": {"android": "https://dc.lft.to/lastmile_qr_scan", "ios": "https://dc.lft.to/lastmile_qr_scan"}, "fusion_lon": 0.0, "lat": 38.897233, "bike_id": "f190fbd726cfe31713a2e2b1309f2d39", "type": "electric_scooter", "is_reserved": 0, "lon": -77.04620433333334}, {"fusion_lat": 0.0, "name": "2e3d40ce713dd1e38d8ac82acb599e4e", "is_disabled": 0, "rental_uris": {"android": "https://dc.lft.to/lastmile_qr_scan", "ios": "https://dc.lft.to/lastmile_qr_scan"}, "fusion_lon": 0.0, "lat": 38.93484933333333, "bike_id": "2e3d40ce713dd1e38d8ac82acb599e4e", "type": "electric_bike", "is_reserved": 0, "lon": -77.03015433333333}, {"fusion_lat": 0.0, "name": "f6108775452e9cef402c9211b06551dd", "is_disabled": 0, "rental_uris": {"android": "https://dc.lft.to/lastmile_qr_scan", "ios": "https://dc.lft.to/lastmile_qr_scan"}, "fusion_lon": 0.0, "lat": 38.80447616666667, "bike_id": "f6108775452e9cef402c9211b06551dd", "type": "electric_bike", "is_reserved": 0, "lon": -77.05387766666666}, {"fusion_lat": 0.0, "name": "eed1d355add61fa408db10e725799481", "is_disabled": 0, "rental_uris": {"android": "https://dc.lft.to/lastmile_qr_scan", "ios": "https://dc.lft.to/lastmile_qr_scan"}, "fusion_lon": 0.0, "lat": 38.9001155, "bike_id": "eed1d355add61fa408db10e725799481", "type": "electric_scooter", "is_reserved": 0, "lon": -77.0018215}, {"fusion_lat": 0.0, "name": "5c7a05b67a2eac825a79a429dcb01d33", "is_disabled": 0, "rental_uris": {"android": "https://dc.lft.to/lastmile_qr_scan", "ios": "https://dc.lft.to/lastmile_qr_scan"}, "fusion_lon": 0.0, "lat": 38.92736883333333, "bike_id": "5c7a05b67a2eac825a79a429dcb01d33", "type": "electric_scooter", "is_reserved": 0, "lon": -77.034292}, {"fusion_lat": 0.0, "name": "06ef608f5c06f1c253702321c1a7e571", "is_disabled": 0, "rental_uris": {"android": "https://dc.lft.to/lastmile_qr_scan", "ios": "https://dc.lft.to/lastmile_qr_scan"}, "fusion_lon": 0.0, "lat": 38.90406133333333, "bike_id": "06ef608f5c06f1c253702321c1a7e571", "type": "electric_scooter", "is_reserved": 0, "lon": -76.97329583333334}, {"fusion_lat": 0.0, "name": "4a456389a116c3db686241a1124c37a2", "is_disabled": 0, "rental_uris": {"android": "https://dc.lft.to/lastmile_qr_scan", "ios": "https://dc.lft.to/lastmile_qr_scan"}, "fusion_lon": 0.0, "lat": 38.8969205, "bike_id": "4a456389a116c3db686241a1124c37a2", "type": "electric_scooter", "is_reserved": 0, "lon": -77.0295615}, {"fusion_lat": 0.0, "name": "f6cbd971f694049934ae5ab948df7daa", "is_disabled": 0, "rental_uris": {"android": "https://dc.lft.to/lastmile_qr_scan", "ios": "https://dc.lft.to/lastmile_qr_scan"}, "fusion_lon": 0.0, "lat": 38.8869545, "bike_id": "f6cbd971f694049934ae5ab948df7daa", "type": "electric_scooter", "is_reserved": 0, "lon": -77.00246916666667}, {"fusion_lat": 0.0, "name": "4b28a65cc01d6703d3fb11e0c8766fa0", "is_disabled": 0, "rental_uris": {"android": "https://dc.lft.to/lastmile_qr_scan", "ios": "https://dc.lft.to/lastmile_qr_scan"}, "fusion_lon": 0.0, "lat": 38.89654516666667, "bike_id": "4b28a65cc01d6703d3fb11e0c8766fa0", "type": "electric_scooter", "is_reserved": 0, "lon": -77.051414}, {"fusion_lat": 0.0, "name": "500f3bc42c0a47fb169a1958b4fe8b0d", "is_disabled": 0, "rental_uris": {"android": "https://dc.lft.to/lastmile_qr_scan", "ios": "https://dc.lft.to/lastmile_qr_scan"}, "fusion_lon": 0.0, "lat": 38.902110666666665, "bike_id": "500f3bc42c0a47fb169a1958b4fe8b0d", "type": "electric_scooter", "is_reserved": 0, "lon": -77.02300283333334}, {"fusion_lat": 0.0, "name": "3f2fc8d5153df1f1b76388b060f288aa", "is_disabled": 0, "rental_uris": {"android": "https://dc.lft.to/lastmile_qr_scan", "ios": "https://dc.lft.to/lastmile_qr_scan"}, "fusion_lon": 0.0, "lat": 38.90109966666667, "bike_id": "3f2fc8d5153df1f1b76388b060f288aa", "type": "electric_scooter", "is_reserved": 0, "lon": -77.05237366666667}, {"fusion_lat": 0.0, "name": "a344dfc64dbd511d8a4c398c5f4986da", "is_disabled": 0, "rental_uris": {"android": "https://dc.lft.to/lastmile_qr_scan", "ios": "https://dc.lft.to/lastmile_qr_scan"}, "fusion_lon": 0.0, "lat": 38.89611466666667, "bike_id": "a344dfc64dbd511d8a4c398c5f4986da", "type": "electric_scooter", "is_reserved": 0, "lon": -76.948142}, {"fusion_lat": 0.0, "name": "72dee8cbb69b3a516894db051c4b5c0e", "is_disabled": 0, "rental_uris": {"android": "https://dc.lft.to/lastmile_qr_scan", "ios": "https://dc.lft.to/lastmile_qr_scan"}, "fusion_lon": 0.0, "lat": 38.89829066666667, "bike_id": "72dee8cbb69b3a516894db051c4b5c0e", "type": "electric_scooter", "is_reserved": 0, "lon": -76.94628383333334}, {"fusion_lat": 0.0, "name": "20b30be97a13f043a83c1e522be61010", "is_disabled": 0, "rental_uris": {"android": "https://dc.lft.to/lastmile_qr_scan", "ios": "https://dc.lft.to/lastmile_qr_scan"}, "fusion_lon": 0.0, "lat": 38.88313183333333, "bike_id": "20b30be97a13f043a83c1e522be61010", "type": "electric_scooter", "is_reserved": 0, "lon": -77.01776}, {"fusion_lat": 0.0, "name": "fc965f5618fb2007b6f5af45ce6e8b24", "is_disabled": 0, "rental_uris": {"android": "https://dc.lft.to/lastmile_qr_scan", "ios": "https://dc.lft.to/lastmile_qr_scan"}, "fusion_lon": 0.0, "lat": 38.877472, "bike_id": "fc965f5618fb2007b6f5af45ce6e8b24", "type": "electric_scooter", "is_reserved": 0, "lon": -77.01429616666667}, {"fusion_lat": 0.0, "name": "f306b816d8d58e052cad7038c9ac8cb1", "is_disabled": 0, "rental_uris": {"android": "https://dc.lft.to/lastmile_qr_scan", "ios": "https://dc.lft.to/lastmile_qr_scan"}, "fusion_lon": 0.0, "lat": 38.879536333333334, "bike_id": "f306b816d8d58e052cad7038c9ac8cb1", "type": "electric_scooter", "is_reserved": 0, "lon": -76.99013183333334}, {"fusion_lat": 0.0, "name": "b362096bb397d02e3b067397a436e69c", "is_disabled": 0, "rental_uris": {"android": "https://dc.lft.to/lastmile_qr_scan", "ios": "https://dc.lft.to/lastmile_qr_scan"}, "fusion_lon": 0.0, "lat": 38.890068666666664, "bike_id": "b362096bb397d02e3b067397a436e69c", "type": "electric_scooter", "is_reserved": 0, "lon": -76.93745116666666}, {"fusion_lat": 0.0, "name": "21e284889261f1ea99c3a5e67fcc7f44", "is_disabled": 0, "rental_uris": {"android": "https://dc.lft.to/lastmile_qr_scan", "ios": "https://dc.lft.to/lastmile_qr_scan"}, "fusion_lon": 0.0, "lat": 38.925999, "bike_id": "21e284889261f1ea99c3a5e67fcc7f44", "type": "electric_scooter", "is_reserved": 0, "lon": -77.02150816666666}, {"fusion_lat": 0.0, "name": "cee6d6cc936b79a3fb8b5afa0dbd3338", "is_disabled": 0, "rental_uris": {"android": "https://dc.lft.to/lastmile_qr_scan", "ios": "https://dc.lft.to/lastmile_qr_scan"}, "fusion_lon": 0.0, "lat": 38.916614833333334, "bike_id": "cee6d6cc936b79a3fb8b5afa0dbd3338", "type": "electric_scooter", "is_reserved": 0, "lon": -77.028157}, {"fusion_lat": 0.0, "name": "f0e02f8f97d10ee64073404689b9ade4", "is_disabled": 0, "rental_uris": {"android": "https://dc.lft.to/lastmile_qr_scan", "ios": "https://dc.lft.to/lastmile_qr_scan"}, "fusion_lon": 0.0, "lat": 38.82174633333333, "bike_id": "f0e02f8f97d10ee64073404689b9ade4", "type": "electric_bike", "is_reserved": 0, "lon": -76.99513533333334}, {"fusion_lat": 0.0, "name": "54f2ffb1677cb1b915dcc4e278a9b137", "is_disabled": 0, "rental_uris": {"android": "https://dc.lft.to/lastmile_qr_scan", "ios": "https://dc.lft.to/lastmile_qr_scan"}, "fusion_lon": 0.0, "lat": 38.90560166666667, "bike_id": "54f2ffb1677cb1b915dcc4e278a9b137", "type": "electric_scooter", "is_reserved": 0, "lon": -77.0346455}, {"fusion_lat": 0.0, "name": "a1ec39d234b9595abc98bc1b0224e585", "is_disabled": 0, "rental_uris": {"android": "https://dc.lft.to/lastmile_qr_scan", "ios": "https://dc.lft.to/lastmile_qr_scan"}, "fusion_lon": 0.0, "lat": 38.867614833333334, "bike_id": "a1ec39d234b9595abc98bc1b0224e585", "type": "electric_scooter", "is_reserved": 0, "lon": -76.982701}, {"fusion_lat": 0.0, "name": "4104257122ec00900314f28f3ed133cc", "is_disabled": 0, "rental_uris": {"android": "https://dc.lft.to/lastmile_qr_scan", "ios": "https://dc.lft.to/lastmile_qr_scan"}, "fusion_lon": 0.0, "lat": 38.905146333333334, "bike_id": "4104257122ec00900314f28f3ed133cc", "type": "electric_scooter", "is_reserved": 0, "lon": -77.0294455}, {"fusion_lat": 0.0, "name": "1a707c49c2633084b8f13a796e4bf9bd", "is_disabled": 0, "rental_uris": {"android": "https://dc.lft.to/lastmile_qr_scan", "ios": "https://dc.lft.to/lastmile_qr_scan"}, "fusion_lon": 0.0, "lat": 38.88903583333333, "bike_id": "1a707c49c2633084b8f13a796e4bf9bd", "type": "electric_scooter", "is_reserved": 0, "lon": -76.97731666666667}, {"fusion_lat": 0.0, "name": "c9e761f86394f83ddb76f5cff6e132da", "is_disabled": 0, "rental_uris": {"android": "https://dc.lft.to/lastmile_qr_scan", "ios": "https://dc.lft.to/lastmile_qr_scan"}, "fusion_lon": 0.0, "lat": 38.91273, "bike_id": "c9e761f86394f83ddb76f5cff6e132da", "type": "electric_scooter", "is_reserved": 0, "lon": -77.03872}, {"fusion_lat": 0.0, "name": "16711d2c5904d8aa15d7499a365c3cb9", "is_disabled": 0, "rental_uris": {"android": "https://dc.lft.to/lastmile_qr_scan", "ios": "https://dc.lft.to/lastmile_qr_scan"}, "fusion_lon": 0.0, "lat": 38.928038, "bike_id": "16711d2c5904d8aa15d7499a365c3cb9", "type": "electric_scooter", "is_reserved": 0, "lon": -77.0239415}, {"fusion_lat": 0.0, "name": "cc3b567634fbba5258b411c2a2cf93c7", "is_disabled": 0, "rental_uris": {"android": "https://dc.lft.to/lastmile_qr_scan", "ios": "https://dc.lft.to/lastmile_qr_scan"}, "fusion_lon": 0.0, "lat": 38.902338666666665, "bike_id": "cc3b567634fbba5258b411c2a2cf93c7", "type": "electric_scooter", "is_reserved": 0, "lon": -77.03970566666666}, {"fusion_lat": 0.0, "name": "8079f8b4411b0eaa16a885139c68500c", "is_disabled": 0, "rental_uris": {"android": "https://dc.lft.to/lastmile_qr_scan", "ios": "https://dc.lft.to/lastmile_qr_scan"}, "fusion_lon": 0.0, "lat": 38.87373516666667, "bike_id": "8079f8b4411b0eaa16a885139c68500c", "type": "electric_scooter", "is_reserved": 0, "lon": -77.00054933333334}, {"fusion_lat": 0.0, "name": "fc542b8f16a51df347af23518352c335", "is_disabled": 0, "rental_uris": {"android": "https://dc.lft.to/lastmile_qr_scan", "ios": "https://dc.lft.to/lastmile_qr_scan"}, "fusion_lon": 0.0, "lat": 38.9807115, "bike_id": "fc542b8f16a51df347af23518352c335", "type": "electric_bike", "is_reserved": 0, "lon": -77.0960245}, {"fusion_lat": 0.0, "name": "e0e06842459a9b9c472b2ab7167cc46b", "is_disabled": 0, "rental_uris": {"android": "https://dc.lft.to/lastmile_qr_scan", "ios": "https://dc.lft.to/lastmile_qr_scan"}, "fusion_lon": 0.0, "lat": 38.91540033333333, "bike_id": "e0e06842459a9b9c472b2ab7167cc46b", "type": "electric_scooter", "is_reserved": 0, "lon": -77.0055175}, {"fusion_lat": 0.0, "name": "d2df9e61104a9858b802b58bc8884e21", "is_disabled": 0, "rental_uris": {"android": "https://dc.lft.to/lastmile_qr_scan", "ios": "https://dc.lft.to/lastmile_qr_scan"}, "fusion_lon": 0.0, "lat": 38.9034935, "bike_id": "d2df9e61104a9858b802b58bc8884e21", "type": "electric_scooter", "is_reserved": 0, "lon": -77.04490383333334}, {"fusion_lat": 0.0, "name": "2dad6d25a54e9301fb5ac3db77bababa", "is_disabled": 0, "rental_uris": {"android": "https://dc.lft.to/lastmile_qr_scan", "ios": "https://dc.lft.to/lastmile_qr_scan"}, "fusion_lon": 0.0, "lat": 38.924294333333336, "bike_id": "2dad6d25a54e9301fb5ac3db77bababa", "type": "electric_bike", "is_reserved": 0, "lon": -77.035397}, {"fusion_lat": 0.0, "name": "8f7e7804f667c2572324c69444731f53", "is_disabled": 0, "rental_uris": {"android": "https://dc.lft.to/lastmile_qr_scan", "ios": "https://dc.lft.to/lastmile_qr_scan"}, "fusion_lon": 0.0, "lat": 38.9211755, "bike_id": "8f7e7804f667c2572324c69444731f53", "type": "electric_scooter", "is_reserved": 0, "lon": -77.01208}, {"fusion_lat": 0.0, "name": "02a885194f382cecb86015f8432ed514", "is_disabled": 0, "rental_uris": {"android": "https://dc.lft.to/lastmile_qr_scan", "ios": "https://dc.lft.to/lastmile_qr_scan"}, "fusion_lon": 0.0, "lat": 38.92089266666667, "bike_id": "02a885194f382cecb86015f8432ed514", "type": "electric_scooter", "is_reserved": 0, "lon": -76.99459383333334}, {"fusion_lat": 0.0, "name": "8e212f4548adbddbdaf4e2e9d7af14a6", "is_disabled": 0, "rental_uris": {"android": "https://dc.lft.to/lastmile_qr_scan", "ios": "https://dc.lft.to/lastmile_qr_scan"}, "fusion_lon": 0.0, "lat": 38.887335, "bike_id": "8e212f4548adbddbdaf4e2e9d7af14a6", "type": "electric_scooter", "is_reserved": 0, "lon": -77.02581383333333}, {"fusion_lat": 0.0, "name": "27eebc9dbcab89e20578db3a4c9a6d29", "is_disabled": 0, "rental_uris": {"android": "https://dc.lft.to/lastmile_qr_scan", "ios": "https://dc.lft.to/lastmile_qr_scan"}, "fusion_lon": 0.0, "lat": 38.897367, "bike_id": "27eebc9dbcab89e20578db3a4c9a6d29", "type": "electric_scooter", "is_reserved": 0, "lon": -77.02738183333334}, {"fusion_lat": 0.0, "name": "76daa84a6abad9f792e85b334080e6fc", "is_disabled": 0, "rental_uris": {"android": "https://dc.lft.to/lastmile_qr_scan", "ios": "https://dc.lft.to/lastmile_qr_scan"}, "fusion_lon": 0.0, "lat": 38.9268515, "bike_id": "76daa84a6abad9f792e85b334080e6fc", "type": "electric_scooter", "is_reserved": 0, "lon": -77.02293816666666}, {"fusion_lat": 0.0, "name": "2becfee74cc3a2049d9c864647bf140c", "is_disabled": 0, "rental_uris": {"android": "https://dc.lft.to/lastmile_qr_scan", "ios": "https://dc.lft.to/lastmile_qr_scan"}, "fusion_lon": 0.0, "lat": 38.92224783333333, "bike_id": "2becfee74cc3a2049d9c864647bf140c", "type": "electric_scooter", "is_reserved": 0, "lon": -76.99353866666667}, {"fusion_lat": 0.0, "name": "e240ad2a4eb6fc65195ee161bace66ee", "is_disabled": 0, "rental_uris": {"android": "https://dc.lft.to/lastmile_qr_scan", "ios": "https://dc.lft.to/lastmile_qr_scan"}, "fusion_lon": 0.0, "lat": 38.950685, "bike_id": "e240ad2a4eb6fc65195ee161bace66ee", "type": "electric_bike", "is_reserved": 0, "lon": -77.07230833333334}, {"fusion_lat": 0.0, "name": "be2edf3707be9ef89ed3d6d1c7a6ac79", "is_disabled": 0, "rental_uris": {"android": "https://dc.lft.to/lastmile_qr_scan", "ios": "https://dc.lft.to/lastmile_qr_scan"}, "fusion_lon": 0.0, "lat": 38.91402883333333, "bike_id": "be2edf3707be9ef89ed3d6d1c7a6ac79", "type": "electric_scooter", "is_reserved": 0, "lon": -77.0441065}, {"fusion_lat": 0.0, "name": "6c93766a034bf4ef88dc50fa547abb2b", "is_disabled": 0, "rental_uris": {"android": "https://dc.lft.to/lastmile_qr_scan", "ios": "https://dc.lft.to/lastmile_qr_scan"}, "fusion_lon": 0.0, "lat": 38.9587285, "bike_id": "6c93766a034bf4ef88dc50fa547abb2b", "type": "electric_bike", "is_reserved": 0, "lon": -76.97051116666667}, {"fusion_lat": 0.0, "name": "c45c2cf5dda113615809f5cd19c9df3a", "is_disabled": 0, "rental_uris": {"android": "https://dc.lft.to/lastmile_qr_scan", "ios": "https://dc.lft.to/lastmile_qr_scan"}, "fusion_lon": 0.0, "lat": 38.926621, "bike_id": "c45c2cf5dda113615809f5cd19c9df3a", "type": "electric_bike", "is_reserved": 0, "lon": -77.0984795}, {"fusion_lat": 0.0, "name": "409afb86b9b79488e970151a6f353f96", "is_disabled": 0, "rental_uris": {"android": "https://dc.lft.to/lastmile_qr_scan", "ios": "https://dc.lft.to/lastmile_qr_scan"}, "fusion_lon": 0.0, "lat": 38.9177855, "bike_id": "409afb86b9b79488e970151a6f353f96", "type": "electric_scooter", "is_reserved": 0, "lon": -77.02693666666667}, {"fusion_lat": 0.0, "name": "e996f75817777e4d9ead5cdf29cc9998", "is_disabled": 0, "rental_uris": {"android": "https://dc.lft.to/lastmile_qr_scan", "ios": "https://dc.lft.to/lastmile_qr_scan"}, "fusion_lon": 0.0, "lat": 38.905117833333335, "bike_id": "e996f75817777e4d9ead5cdf29cc9998", "type": "electric_scooter", "is_reserved": 0, "lon": -77.02948766666667}, {"fusion_lat": 0.0, "name": "df473e7705c624adac6b09d0a71f1553", "is_disabled": 0, "rental_uris": {"android": "https://dc.lft.to/lastmile_qr_scan", "ios": "https://dc.lft.to/lastmile_qr_scan"}, "fusion_lon": 0.0, "lat": 38.90978883333333, "bike_id": "df473e7705c624adac6b09d0a71f1553", "type": "electric_scooter", "is_reserved": 0, "lon": -77.02184833333334}, {"fusion_lat": 0.0, "name": "39f3249d85ded7c070ea583bf779d970", "is_disabled": 0, "rental_uris": {"android": "https://dc.lft.to/lastmile_qr_scan", "ios": "https://dc.lft.to/lastmile_qr_scan"}, "fusion_lon": 0.0, "lat": 38.920848666666664, "bike_id": "39f3249d85ded7c070ea583bf779d970", "type": "electric_scooter", "is_reserved": 0, "lon": -77.0737455}, {"fusion_lat": 0.0, "name": "58f1b159a9b21a88f414f62d28597fde", "is_disabled": 0, "rental_uris": {"android": "https://dc.lft.to/lastmile_qr_scan", "ios": "https://dc.lft.to/lastmile_qr_scan"}, "fusion_lon": 0.0, "lat": 38.91331133333333, "bike_id": "58f1b159a9b21a88f414f62d28597fde", "type": "electric_scooter", "is_reserved": 0, "lon": -77.029519}, {"fusion_lat": 0.0, "name": "313f48c50b5a6b85667a717e244c839e", "is_disabled": 0, "rental_uris": {"android": "https://dc.lft.to/lastmile_qr_scan", "ios": "https://dc.lft.to/lastmile_qr_scan"}, "fusion_lon": 0.0, "lat": 38.95633483333334, "bike_id": "313f48c50b5a6b85667a717e244c839e", "type": "electric_scooter", "is_reserved": 0, "lon": -77.03303133333333}, {"fusion_lat": 0.0, "name": "97c55746a89e3306dc3ef2c418e98de8", "is_disabled": 0, "rental_uris": {"android": "https://dc.lft.to/lastmile_qr_scan", "ios": "https://dc.lft.to/lastmile_qr_scan"}, "fusion_lon": 0.0, "lat": 38.911029666666664, "bike_id": "97c55746a89e3306dc3ef2c418e98de8", "type": "electric_scooter", "is_reserved": 0, "lon": -77.01149}, {"fusion_lat": 0.0, "name": "4b0dfe56fa7c1b785e471e4e1442e612", "is_disabled": 0, "rental_uris": {"android": "https://dc.lft.to/lastmile_qr_scan", "ios": "https://dc.lft.to/lastmile_qr_scan"}, "fusion_lon": 0.0, "lat": 38.9574555, "bike_id": "4b0dfe56fa7c1b785e471e4e1442e612", "type": "electric_bike", "is_reserved": 0, "lon": -76.972548}, {"fusion_lat": 0.0, "name": "2f81987904a2274ead51fe486fb3b637", "is_disabled": 0, "rental_uris": {"android": "https://dc.lft.to/lastmile_qr_scan", "ios": "https://dc.lft.to/lastmile_qr_scan"}, "fusion_lon": 0.0, "lat": 38.953335, "bike_id": "2f81987904a2274ead51fe486fb3b637", "type": "electric_bike", "is_reserved": 0, "lon": -76.98252583333333}, {"fusion_lat": 0.0, "name": "717be2a0f42211d5b2c8345e682b00db", "is_disabled": 0, "rental_uris": {"android": "https://dc.lft.to/lastmile_qr_scan", "ios": "https://dc.lft.to/lastmile_qr_scan"}, "fusion_lon": 0.0, "lat": 38.85548933333333, "bike_id": "717be2a0f42211d5b2c8345e682b00db", "type": "electric_scooter", "is_reserved": 0, "lon": -76.9876095}, {"fusion_lat": 0.0, "name": "82d04e5625a8bd49ff9c04aef7ef59b3", "is_disabled": 0, "rental_uris": {"android": "https://dc.lft.to/lastmile_qr_scan", "ios": "https://dc.lft.to/lastmile_qr_scan"}, "fusion_lon": 0.0, "lat": 38.924138166666665, "bike_id": "82d04e5625a8bd49ff9c04aef7ef59b3", "type": "electric_scooter", "is_reserved": 0, "lon": -77.03638833333333}, {"fusion_lat": 0.0, "name": "d180518781154aa7a7a5728e4a2492ee", "is_disabled": 0, "rental_uris": {"android": "https://dc.lft.to/lastmile_qr_scan", "ios": "https://dc.lft.to/lastmile_qr_scan"}, "fusion_lon": 0.0, "lat": 38.90022316666666, "bike_id": "d180518781154aa7a7a5728e4a2492ee", "type": "electric_scooter", "is_reserved": 0, "lon": -77.00029383333333}, {"fusion_lat": 0.0, "name": "890f66c38d056a67baf4106019c6ee67", "is_disabled": 0, "rental_uris": {"android": "https://dc.lft.to/lastmile_qr_scan", "ios": "https://dc.lft.to/lastmile_qr_scan"}, "fusion_lon": 0.0, "lat": 38.916194, "bike_id": "890f66c38d056a67baf4106019c6ee67", "type": "electric_scooter", "is_reserved": 0, "lon": -77.03986616666667}, {"fusion_lat": 0.0, "name": "146b05261520945b2c19aa1fe3cbdc19", "is_disabled": 0, "rental_uris": {"android": "https://dc.lft.to/lastmile_qr_scan", "ios": "https://dc.lft.to/lastmile_qr_scan"}, "fusion_lon": 0.0, "lat": 38.92034483333333, "bike_id": "146b05261520945b2c19aa1fe3cbdc19", "type": "electric_scooter", "is_reserved": 0, "lon": -77.07124683333333}, {"fusion_lat": 0.0, "name": "cf5ed81f2e623c512f7648b3cf3182c3", "is_disabled": 0, "rental_uris": {"android": "https://dc.lft.to/lastmile_qr_scan", "ios": "https://dc.lft.to/lastmile_qr_scan"}, "fusion_lon": 0.0, "lat": 38.93081383333333, "bike_id": "cf5ed81f2e623c512f7648b3cf3182c3", "type": "electric_scooter", "is_reserved": 0, "lon": -77.0254515}, {"fusion_lat": 0.0, "name": "dcb94edddcecf290858f5c8ad02a63f5", "is_disabled": 0, "rental_uris": {"android": "https://dc.lft.to/lastmile_qr_scan", "ios": "https://dc.lft.to/lastmile_qr_scan"}, "fusion_lon": 0.0, "lat": 38.91400466666666, "bike_id": "dcb94edddcecf290858f5c8ad02a63f5", "type": "electric_scooter", "is_reserved": 0, "lon": -77.0333005}, {"fusion_lat": 0.0, "name": "4c1919d60027c6cb77cd310ba48eeb1c", "is_disabled": 0, "rental_uris": {"android": "https://dc.lft.to/lastmile_qr_scan", "ios": "https://dc.lft.to/lastmile_qr_scan"}, "fusion_lon": 0.0, "lat": 38.906060333333336, "bike_id": "4c1919d60027c6cb77cd310ba48eeb1c", "type": "electric_scooter", "is_reserved": 0, "lon": -77.05688216666667}, {"fusion_lat": 0.0, "name": "1b9e2fe4c4df8caa0166c8adf4fb92c3", "is_disabled": 0, "rental_uris": {"android": "https://dc.lft.to/lastmile_qr_scan", "ios": "https://dc.lft.to/lastmile_qr_scan"}, "fusion_lon": 0.0, "lat": 38.9251065, "bike_id": "1b9e2fe4c4df8caa0166c8adf4fb92c3", "type": "electric_scooter", "is_reserved": 0, "lon": -77.002172}, {"fusion_lat": 0.0, "name": "6e0d58aa40110e5df955ad89b3ff1c15", "is_disabled": 0, "rental_uris": {"android": "https://dc.lft.to/lastmile_qr_scan", "ios": "https://dc.lft.to/lastmile_qr_scan"}, "fusion_lon": 0.0, "lat": 38.9306145, "bike_id": "6e0d58aa40110e5df955ad89b3ff1c15", "type": "electric_scooter", "is_reserved": 0, "lon": -77.02323516666667}, {"fusion_lat": 0.0, "name": "ed521a90fc7efa560f262a3be67ff0c6", "is_disabled": 0, "rental_uris": {"android": "https://dc.lft.to/lastmile_qr_scan", "ios": "https://dc.lft.to/lastmile_qr_scan"}, "fusion_lon": 0.0, "lat": 38.90649883333333, "bike_id": "ed521a90fc7efa560f262a3be67ff0c6", "type": "electric_scooter", "is_reserved": 0, "lon": -77.0114695}, {"fusion_lat": 0.0, "name": "0d603ff77880e6e136570734c40d5327", "is_disabled": 0, "rental_uris": {"android": "https://dc.lft.to/lastmile_qr_scan", "ios": "https://dc.lft.to/lastmile_qr_scan"}, "fusion_lon": 0.0, "lat": 38.920329333333335, "bike_id": "0d603ff77880e6e136570734c40d5327", "type": "electric_scooter", "is_reserved": 0, "lon": -77.01780283333333}, {"fusion_lat": 0.0, "name": "c850113598cf3e8e74b33f346c2cd8fc", "is_disabled": 0, "rental_uris": {"android": "https://dc.lft.to/lastmile_qr_scan", "ios": "https://dc.lft.to/lastmile_qr_scan"}, "fusion_lon": 0.0, "lat": 38.84084816666667, "bike_id": "c850113598cf3e8e74b33f346c2cd8fc", "type": "electric_bike", "is_reserved": 0, "lon": -76.9702645}, {"fusion_lat": 0.0, "name": "b26c07bf4de498d76f1436ac074932ba", "is_disabled": 0, "rental_uris": {"android": "https://dc.lft.to/lastmile_qr_scan", "ios": "https://dc.lft.to/lastmile_qr_scan"}, "fusion_lon": 0.0, "lat": 38.905605, "bike_id": "b26c07bf4de498d76f1436ac074932ba", "type": "electric_scooter", "is_reserved": 0, "lon": -77.005933}, {"fusion_lat": 0.0, "name": "0297d4aba34dd7657b8a5c749c1a77ba", "is_disabled": 0, "rental_uris": {"android": "https://dc.lft.to/lastmile_qr_scan", "ios": "https://dc.lft.to/lastmile_qr_scan"}, "fusion_lon": 0.0, "lat": 38.92316983333333, "bike_id": "0297d4aba34dd7657b8a5c749c1a77ba", "type": "electric_scooter", "is_reserved": 0, "lon": -77.02139666666666}, {"fusion_lat": 0.0, "name": "050efad4e88abebd25823683a1bba4b1", "is_disabled": 0, "rental_uris": {"android": "https://dc.lft.to/lastmile_qr_scan", "ios": "https://dc.lft.to/lastmile_qr_scan"}, "fusion_lon": 0.0, "lat": 38.92062933333333, "bike_id": "050efad4e88abebd25823683a1bba4b1", "type": "electric_bike", "is_reserved": 0, "lon": -77.0480635}, {"fusion_lat": 0.0, "name": "59f3a0a996671f4061450a56c0c2e0c3", "is_disabled": 0, "rental_uris": {"android": "https://dc.lft.to/lastmile_qr_scan", "ios": "https://dc.lft.to/lastmile_qr_scan"}, "fusion_lon": 0.0, "lat": 38.9197565, "bike_id": "59f3a0a996671f4061450a56c0c2e0c3", "type": "electric_scooter", "is_reserved": 0, "lon": -77.04507983333333}, {"fusion_lat": 0.0, "name": "97d7ac1ae58bf0e8fca81afdd4829df6", "is_disabled": 0, "rental_uris": {"android": "https://dc.lft.to/lastmile_qr_scan", "ios": "https://dc.lft.to/lastmile_qr_scan"}, "fusion_lon": 0.0, "lat": 38.9002675, "bike_id": "97d7ac1ae58bf0e8fca81afdd4829df6", "type": "electric_scooter", "is_reserved": 0, "lon": -77.00182766666667}, {"fusion_lat": 0.0, "name": "33bb0d00567c308ffce4a55de1b9477c", "is_disabled": 0, "rental_uris": {"android": "https://dc.lft.to/lastmile_qr_scan", "ios": "https://dc.lft.to/lastmile_qr_scan"}, "fusion_lon": 0.0, "lat": 38.897122333333336, "bike_id": "33bb0d00567c308ffce4a55de1b9477c", "type": "electric_scooter", "is_reserved": 0, "lon": -77.00724066666666}, {"fusion_lat": 0.0, "name": "a27cae60edab3e41fc5ac57e28f6e2f6", "is_disabled": 0, "rental_uris": {"android": "https://dc.lft.to/lastmile_qr_scan", "ios": "https://dc.lft.to/lastmile_qr_scan"}, "fusion_lon": 0.0, "lat": 38.920657, "bike_id": "a27cae60edab3e41fc5ac57e28f6e2f6", "type": "electric_scooter", "is_reserved": 0, "lon": -76.99476233333333}, {"fusion_lat": 0.0, "name": "c4990669316596919ac0fad9f47cda12", "is_disabled": 0, "rental_uris": {"android": "https://dc.lft.to/lastmile_qr_scan", "ios": "https://dc.lft.to/lastmile_qr_scan"}, "fusion_lon": 0.0, "lat": 38.898991333333335, "bike_id": "c4990669316596919ac0fad9f47cda12", "type": "electric_bike", "is_reserved": 0, "lon": -77.096208}, {"fusion_lat": 0.0, "name": "41310ea599ba913f192d077fd5c32a02", "is_disabled": 0, "rental_uris": {"android": "https://dc.lft.to/lastmile_qr_scan", "ios": "https://dc.lft.to/lastmile_qr_scan"}, "fusion_lon": 0.0, "lat": 38.929060166666666, "bike_id": "41310ea599ba913f192d077fd5c32a02", "type": "electric_scooter", "is_reserved": 0, "lon": -77.03242766666666}, {"fusion_lat": 0.0, "name": "8104b858e226e79bf0b88238139a56ad", "is_disabled": 0, "rental_uris": {"android": "https://dc.lft.to/lastmile_qr_scan", "ios": "https://dc.lft.to/lastmile_qr_scan"}, "fusion_lon": 0.0, "lat": 38.990991333333334, "bike_id": "8104b858e226e79bf0b88238139a56ad", "type": "electric_bike", "is_reserved": 0, "lon": -76.99375}, {"fusion_lat": 0.0, "name": "e5e9490b86369e969e9f1bd581cd0557", "is_disabled": 0, "rental_uris": {"android": "https://dc.lft.to/lastmile_qr_scan", "ios": "https://dc.lft.to/lastmile_qr_scan"}, "fusion_lon": 0.0, "lat": 38.89606233333333, "bike_id": "e5e9490b86369e969e9f1bd581cd0557", "type": "electric_scooter", "is_reserved": 0, "lon": -77.00331233333333}, {"fusion_lat": 0.0, "name": "e58ce1a012e382b4b0a0d3eef1538126", "is_disabled": 0, "rental_uris": {"android": "https://dc.lft.to/lastmile_qr_scan", "ios": "https://dc.lft.to/lastmile_qr_scan"}, "fusion_lon": 0.0, "lat": 38.88509716666667, "bike_id": "e58ce1a012e382b4b0a0d3eef1538126", "type": "electric_scooter", "is_reserved": 0, "lon": -76.92953033333333}, {"fusion_lat": 0.0, "name": "ba460d57e3913151660315ec127f3ced", "is_disabled": 0, "rental_uris": {"android": "https://dc.lft.to/lastmile_qr_scan", "ios": "https://dc.lft.to/lastmile_qr_scan"}, "fusion_lon": 0.0, "lat": 38.9463805, "bike_id": "ba460d57e3913151660315ec127f3ced", "type": "electric_bike", "is_reserved": 0, "lon": -77.03051916666666}, {"fusion_lat": 0.0, "name": "407f9d55345a0c26747f46132b47c5b3", "is_disabled": 0, "rental_uris": {"android": "https://dc.lft.to/lastmile_qr_scan", "ios": "https://dc.lft.to/lastmile_qr_scan"}, "fusion_lon": 0.0, "lat": 38.88461066666667, "bike_id": "407f9d55345a0c26747f46132b47c5b3", "type": "electric_scooter", "is_reserved": 0, "lon": -76.99831016666667}, {"fusion_lat": 0.0, "name": "83a1c6a216f396c5cb8e043c64ecf3fe", "is_disabled": 0, "rental_uris": {"android": "https://dc.lft.to/lastmile_qr_scan", "ios": "https://dc.lft.to/lastmile_qr_scan"}, "fusion_lon": 0.0, "lat": 38.937759, "bike_id": "83a1c6a216f396c5cb8e043c64ecf3fe", "type": "electric_scooter", "is_reserved": 0, "lon": -77.024386}, {"fusion_lat": 0.0, "name": "a0fe594c14375f4c63eba21d446689a6", "is_disabled": 0, "rental_uris": {"android": "https://dc.lft.to/lastmile_qr_scan", "ios": "https://dc.lft.to/lastmile_qr_scan"}, "fusion_lon": 0.0, "lat": 38.91113466666667, "bike_id": "a0fe594c14375f4c63eba21d446689a6", "type": "electric_scooter", "is_reserved": 0, "lon": -77.02090066666666}, {"fusion_lat": 0.0, "name": "14dd534687997335045b38dd2b62cfc4", "is_disabled": 0, "rental_uris": {"android": "https://dc.lft.to/lastmile_qr_scan", "ios": "https://dc.lft.to/lastmile_qr_scan"}, "fusion_lon": 0.0, "lat": 38.91911016666667, "bike_id": "14dd534687997335045b38dd2b62cfc4", "type": "electric_scooter", "is_reserved": 0, "lon": -77.03313916666667}, {"fusion_lat": 0.0, "name": "8d349964f5b8211f72891893d959d3b4", "is_disabled": 0, "rental_uris": {"android": "https://dc.lft.to/lastmile_qr_scan", "ios": "https://dc.lft.to/lastmile_qr_scan"}, "fusion_lon": 0.0, "lat": 38.933026166666664, "bike_id": "8d349964f5b8211f72891893d959d3b4", "type": "electric_scooter", "is_reserved": 0, "lon": -77.02466333333334}, {"fusion_lat": 0.0, "name": "02883b9f73aa109a721926be68e101b2", "is_disabled": 0, "rental_uris": {"android": "https://dc.lft.to/lastmile_qr_scan", "ios": "https://dc.lft.to/lastmile_qr_scan"}, "fusion_lon": 0.0, "lat": 38.920791666666666, "bike_id": "02883b9f73aa109a721926be68e101b2", "type": "electric_scooter", "is_reserved": 0, "lon": -77.00454716666667}, {"fusion_lat": 0.0, "name": "c091a1fa9bc06e7463d30b615ac57f4a", "is_disabled": 0, "rental_uris": {"android": "https://dc.lft.to/lastmile_qr_scan", "ios": "https://dc.lft.to/lastmile_qr_scan"}, "fusion_lon": 0.0, "lat": 38.9318875, "bike_id": "c091a1fa9bc06e7463d30b615ac57f4a", "type": "electric_scooter", "is_reserved": 0, "lon": -77.04288983333333}, {"fusion_lat": 0.0, "name": "642ed8251f3e2924d71723f632431a5d", "is_disabled": 0, "rental_uris": {"android": "https://dc.lft.to/lastmile_qr_scan", "ios": "https://dc.lft.to/lastmile_qr_scan"}, "fusion_lon": 0.0, "lat": 38.9195895, "bike_id": "642ed8251f3e2924d71723f632431a5d", "type": "electric_scooter", "is_reserved": 0, "lon": -77.02349533333333}, {"fusion_lat": 0.0, "name": "a111f9683dff17e53adc379f21436ec0", "is_disabled": 0, "rental_uris": {"android": "https://dc.lft.to/lastmile_qr_scan", "ios": "https://dc.lft.to/lastmile_qr_scan"}, "fusion_lon": 0.0, "lat": 38.917139166666665, "bike_id": "a111f9683dff17e53adc379f21436ec0", "type": "electric_scooter", "is_reserved": 0, "lon": -77.01209}, {"fusion_lat": 0.0, "name": "6102f985c8b40a0cf6b04060d6037873", "is_disabled": 0, "rental_uris": {"android": "https://dc.lft.to/lastmile_qr_scan", "ios": "https://dc.lft.to/lastmile_qr_scan"}, "fusion_lon": 0.0, "lat": 38.90822283333333, "bike_id": "6102f985c8b40a0cf6b04060d6037873", "type": "electric_scooter", "is_reserved": 0, "lon": -77.05493966666667}, {"fusion_lat": 0.0, "name": "3c3f522e459e34b55c8fd7f4a008d121", "is_disabled": 0, "rental_uris": {"android": "https://dc.lft.to/lastmile_qr_scan", "ios": "https://dc.lft.to/lastmile_qr_scan"}, "fusion_lon": 0.0, "lat": 38.918064333333334, "bike_id": "3c3f522e459e34b55c8fd7f4a008d121", "type": "electric_scooter", "is_reserved": 0, "lon": -76.99981}, {"fusion_lat": 0.0, "name": "1b5033262f1a224d34a27b94c37ce9d4", "is_disabled": 0, "rental_uris": {"android": "https://dc.lft.to/lastmile_qr_scan", "ios": "https://dc.lft.to/lastmile_qr_scan"}, "fusion_lon": 0.0, "lat": 38.929513, "bike_id": "1b5033262f1a224d34a27b94c37ce9d4", "type": "electric_scooter", "is_reserved": 0, "lon": -77.04404433333333}, {"fusion_lat": 0.0, "name": "6ccd9d091d0975bdf924bd5b60e0e5fb", "is_disabled": 0, "rental_uris": {"android": "https://dc.lft.to/lastmile_qr_scan", "ios": "https://dc.lft.to/lastmile_qr_scan"}, "fusion_lon": 0.0, "lat": 38.95113083333333, "bike_id": "6ccd9d091d0975bdf924bd5b60e0e5fb", "type": "electric_scooter", "is_reserved": 0, "lon": -77.01362766666666}, {"fusion_lat": 0.0, "name": "4ca7026ba95f9e67745dbc39b42db8ae", "is_disabled": 0, "rental_uris": {"android": "https://dc.lft.to/lastmile_qr_scan", "ios": "https://dc.lft.to/lastmile_qr_scan"}, "fusion_lon": 0.0, "lat": 38.961155833333336, "bike_id": "4ca7026ba95f9e67745dbc39b42db8ae", "type": "electric_scooter", "is_reserved": 0, "lon": -77.02862833333333}, {"fusion_lat": 0.0, "name": "14bc562d5c3350488b2aa5d6bec55bbf", "is_disabled": 0, "rental_uris": {"android": "https://dc.lft.to/lastmile_qr_scan", "ios": "https://dc.lft.to/lastmile_qr_scan"}, "fusion_lon": 0.0, "lat": 38.9470375, "bike_id": "14bc562d5c3350488b2aa5d6bec55bbf", "type": "electric_scooter", "is_reserved": 0, "lon": -77.01940733333333}, {"fusion_lat": 0.0, "name": "973d4b858365910e12d5d010e9709adb", "is_disabled": 0, "rental_uris": {"android": "https://dc.lft.to/lastmile_qr_scan", "ios": "https://dc.lft.to/lastmile_qr_scan"}, "fusion_lon": 0.0, "lat": 38.975008333333335, "bike_id": "973d4b858365910e12d5d010e9709adb", "type": "electric_scooter", "is_reserved": 0, "lon": -77.01692433333334}, {"fusion_lat": 0.0, "name": "c6b5bb6f7e723cd4241b54d0e08eb266", "is_disabled": 0, "rental_uris": {"android": "https://dc.lft.to/lastmile_qr_scan", "ios": "https://dc.lft.to/lastmile_qr_scan"}, "fusion_lon": 0.0, "lat": 38.917699666666664, "bike_id": "c6b5bb6f7e723cd4241b54d0e08eb266", "type": "electric_scooter", "is_reserved": 0, "lon": -77.0192025}, {"fusion_lat": 0.0, "name": "a89f7724631e10b775f457eb30eea499", "is_disabled": 0, "rental_uris": {"android": "https://dc.lft.to/lastmile_qr_scan", "ios": "https://dc.lft.to/lastmile_qr_scan"}, "fusion_lon": 0.0, "lat": 38.839313, "bike_id": "a89f7724631e10b775f457eb30eea499", "type": "electric_bike", "is_reserved": 0, "lon": -77.07904}, {"fusion_lat": 0.0, "name": "f687656e39141520353f2ab94f74f3b4", "is_disabled": 0, "rental_uris": {"android": "https://dc.lft.to/lastmile_qr_scan", "ios": "https://dc.lft.to/lastmile_qr_scan"}, "fusion_lon": 0.0, "lat": 38.97875533333333, "bike_id": "f687656e39141520353f2ab94f74f3b4", "type": "electric_bike", "is_reserved": 0, "lon": -77.0602415}, {"fusion_lat": 0.0, "name": "62438a244d6ac13c6789407e7055b3bf", "is_disabled": 0, "rental_uris": {"android": "https://dc.lft.to/lastmile_qr_scan", "ios": "https://dc.lft.to/lastmile_qr_scan"}, "fusion_lon": 0.0, "lat": 38.87444983333334, "bike_id": "62438a244d6ac13c6789407e7055b3bf", "type": "electric_scooter", "is_reserved": 0, "lon": -77.01861933333333}, {"fusion_lat": 0.0, "name": "c6a85fc54df26ad1ec2905752fb15d79", "is_disabled": 0, "rental_uris": {"android": "https://dc.lft.to/lastmile_qr_scan", "ios": "https://dc.lft.to/lastmile_qr_scan"}, "fusion_lon": 0.0, "lat": 38.917754, "bike_id": "c6a85fc54df26ad1ec2905752fb15d79", "type": "electric_scooter", "is_reserved": 0, "lon": -77.04771283333334}, {"fusion_lat": 0.0, "name": "1ae1ec3f4186276636503f0ed371b0e1", "is_disabled": 0, "rental_uris": {"android": "https://dc.lft.to/lastmile_qr_scan", "ios": "https://dc.lft.to/lastmile_qr_scan"}, "fusion_lon": 0.0, "lat": 38.90133866666667, "bike_id": "1ae1ec3f4186276636503f0ed371b0e1", "type": "electric_scooter", "is_reserved": 0, "lon": -76.98652916666667}, {"fusion_lat": 0.0, "name": "5079edc6e3da4dda89d6cf2dbe3f5d99", "is_disabled": 0, "rental_uris": {"android": "https://dc.lft.to/lastmile_qr_scan", "ios": "https://dc.lft.to/lastmile_qr_scan"}, "fusion_lon": 0.0, "lat": 38.892234, "bike_id": "5079edc6e3da4dda89d6cf2dbe3f5d99", "type": "electric_scooter", "is_reserved": 0, "lon": -77.03985833333333}, {"fusion_lat": 0.0, "name": "2a4d15e2dafc5c1b600162c2b434db5a", "is_disabled": 0, "rental_uris": {"android": "https://dc.lft.to/lastmile_qr_scan", "ios": "https://dc.lft.to/lastmile_qr_scan"}, "fusion_lon": 0.0, "lat": 38.899002833333334, "bike_id": "2a4d15e2dafc5c1b600162c2b434db5a", "type": "electric_scooter", "is_reserved": 0, "lon": -77.00344316666667}, {"fusion_lat": 0.0, "name": "e8fa33a27ea8184275ed80eb14ad7dd3", "is_disabled": 0, "rental_uris": {"android": "https://dc.lft.to/lastmile_qr_scan", "ios": "https://dc.lft.to/lastmile_qr_scan"}, "fusion_lon": 0.0, "lat": 38.88731633333333, "bike_id": "e8fa33a27ea8184275ed80eb14ad7dd3", "type": "electric_scooter", "is_reserved": 0, "lon": -77.01531033333333}, {"fusion_lat": 0.0, "name": "790b15fa343d44cc59be039af1b733b0", "is_disabled": 0, "rental_uris": {"android": "https://dc.lft.to/lastmile_qr_scan", "ios": "https://dc.lft.to/lastmile_qr_scan"}, "fusion_lon": 0.0, "lat": 38.83233033333333, "bike_id": "790b15fa343d44cc59be039af1b733b0", "type": "electric_bike", "is_reserved": 0, "lon": -76.94611766666667}, {"fusion_lat": 0.0, "name": "d0770d6c4203847cb8a576cd84652045", "is_disabled": 0, "rental_uris": {"android": "https://dc.lft.to/lastmile_qr_scan", "ios": "https://dc.lft.to/lastmile_qr_scan"}, "fusion_lon": 0.0, "lat": 38.91391216666667, "bike_id": "d0770d6c4203847cb8a576cd84652045", "type": "electric_scooter", "is_reserved": 0, "lon": -77.044778}, {"fusion_lat": 0.0, "name": "f752a745df26a92dec98fc8930dfb602", "is_disabled": 0, "rental_uris": {"android": "https://dc.lft.to/lastmile_qr_scan", "ios": "https://dc.lft.to/lastmile_qr_scan"}, "fusion_lon": 0.0, "lat": 38.904615166666666, "bike_id": "f752a745df26a92dec98fc8930dfb602", "type": "electric_scooter", "is_reserved": 0, "lon": -77.02895816666667}, {"fusion_lat": 0.0, "name": "8394d7d93b249cd729833ada85a89c5b", "is_disabled": 0, "rental_uris": {"android": "https://dc.lft.to/lastmile_qr_scan", "ios": "https://dc.lft.to/lastmile_qr_scan"}, "fusion_lon": 0.0, "lat": 38.92139183333333, "bike_id": "8394d7d93b249cd729833ada85a89c5b", "type": "electric_scooter", "is_reserved": 0, "lon": -77.03438583333333}, {"fusion_lat": 0.0, "name": "a5235ba41a183828e22ab7a1044697ab", "is_disabled": 0, "rental_uris": {"android": "https://dc.lft.to/lastmile_qr_scan", "ios": "https://dc.lft.to/lastmile_qr_scan"}, "fusion_lon": 0.0, "lat": 38.887380666666665, "bike_id": "a5235ba41a183828e22ab7a1044697ab", "type": "electric_scooter", "is_reserved": 0, "lon": -77.02567933333333}, {"fusion_lat": 0.0, "name": "1d110e9dce26dd612fad7cfb81441939", "is_disabled": 0, "rental_uris": {"android": "https://dc.lft.to/lastmile_qr_scan", "ios": "https://dc.lft.to/lastmile_qr_scan"}, "fusion_lon": 0.0, "lat": 38.885915, "bike_id": "1d110e9dce26dd612fad7cfb81441939", "type": "electric_scooter", "is_reserved": 0, "lon": -77.01957183333333}, {"fusion_lat": 0.0, "name": "5866722354f822295ff10bc39b10f7e4", "is_disabled": 0, "rental_uris": {"android": "https://dc.lft.to/lastmile_qr_scan", "ios": "https://dc.lft.to/lastmile_qr_scan"}, "fusion_lon": 0.0, "lat": 38.932618833333336, "bike_id": "5866722354f822295ff10bc39b10f7e4", "type": "electric_scooter", "is_reserved": 0, "lon": -77.03261}, {"fusion_lat": 0.0, "name": "799f2636a3316c1155c564276508bda0", "is_disabled": 0, "rental_uris": {"android": "https://dc.lft.to/lastmile_qr_scan", "ios": "https://dc.lft.to/lastmile_qr_scan"}, "fusion_lon": 0.0, "lat": 38.873682333333335, "bike_id": "799f2636a3316c1155c564276508bda0", "type": "electric_scooter", "is_reserved": 0, "lon": -77.00060366666666}, {"fusion_lat": 0.0, "name": "e125fb70a96132b35976873e879f2e03", "is_disabled": 0, "rental_uris": {"android": "https://dc.lft.to/lastmile_qr_scan", "ios": "https://dc.lft.to/lastmile_qr_scan"}, "fusion_lon": 0.0, "lat": 38.8736675, "bike_id": "e125fb70a96132b35976873e879f2e03", "type": "electric_scooter", "is_reserved": 0, "lon": -77.00052616666666}, {"fusion_lat": 0.0, "name": "818967fb04e18101645aae002ed2790a", "is_disabled": 0, "rental_uris": {"android": "https://dc.lft.to/lastmile_qr_scan", "ios": "https://dc.lft.to/lastmile_qr_scan"}, "fusion_lon": 0.0, "lat": 38.91866866666667, "bike_id": "818967fb04e18101645aae002ed2790a", "type": "electric_scooter", "is_reserved": 0, "lon": -77.0446695}, {"fusion_lat": 0.0, "name": "770b6abd6dad8c48c37ee9729cdbb8a3", "is_disabled": 0, "rental_uris": {"android": "https://dc.lft.to/lastmile_qr_scan", "ios": "https://dc.lft.to/lastmile_qr_scan"}, "fusion_lon": 0.0, "lat": 38.93138366666667, "bike_id": "770b6abd6dad8c48c37ee9729cdbb8a3", "type": "electric_scooter", "is_reserved": 0, "lon": -77.02987333333333}, {"fusion_lat": 0.0, "name": "0ce4f96b0111bac5cee328a4bcd62c09", "is_disabled": 0, "rental_uris": {"android": "https://dc.lft.to/lastmile_qr_scan", "ios": "https://dc.lft.to/lastmile_qr_scan"}, "fusion_lon": 0.0, "lat": 38.86328316666667, "bike_id": "0ce4f96b0111bac5cee328a4bcd62c09", "type": "electric_bike", "is_reserved": 0, "lon": -76.98713933333333}, {"fusion_lat": 0.0, "name": "e58a47e0bd1d83cb9ae2fb7d40f4dc5e", "is_disabled": 0, "rental_uris": {"android": "https://dc.lft.to/lastmile_qr_scan", "ios": "https://dc.lft.to/lastmile_qr_scan"}, "fusion_lon": 0.0, "lat": 38.912494, "bike_id": "e58a47e0bd1d83cb9ae2fb7d40f4dc5e", "type": "electric_scooter", "is_reserved": 0, "lon": -77.0473355}, {"fusion_lat": 0.0, "name": "a143867315be65e3ff912e1e91c24d45", "is_disabled": 0, "rental_uris": {"android": "https://dc.lft.to/lastmile_qr_scan", "ios": "https://dc.lft.to/lastmile_qr_scan"}, "fusion_lon": 0.0, "lat": 38.90992283333333, "bike_id": "a143867315be65e3ff912e1e91c24d45", "type": "electric_scooter", "is_reserved": 0, "lon": -77.04470833333333}, {"fusion_lat": 0.0, "name": "cf4096b7780b49d6855ab7173e311b23", "is_disabled": 0, "rental_uris": {"android": "https://dc.lft.to/lastmile_qr_scan", "ios": "https://dc.lft.to/lastmile_qr_scan"}, "fusion_lon": 0.0, "lat": 38.92288283333333, "bike_id": "cf4096b7780b49d6855ab7173e311b23", "type": "electric_scooter", "is_reserved": 0, "lon": -77.03660533333333}, {"fusion_lat": 0.0, "name": "c6e094eaa0d8bb5821d5d2d672349e94", "is_disabled": 0, "rental_uris": {"android": "https://dc.lft.to/lastmile_qr_scan", "ios": "https://dc.lft.to/lastmile_qr_scan"}, "fusion_lon": 0.0, "lat": 38.9406965, "bike_id": "c6e094eaa0d8bb5821d5d2d672349e94", "type": "electric_scooter", "is_reserved": 0, "lon": -77.01702233333333}, {"fusion_lat": 0.0, "name": "7873aef515618ff12871969a2b9d2fe0", "is_disabled": 0, "rental_uris": {"android": "https://dc.lft.to/lastmile_qr_scan", "ios": "https://dc.lft.to/lastmile_qr_scan"}, "fusion_lon": 0.0, "lat": 38.86557366666667, "bike_id": "7873aef515618ff12871969a2b9d2fe0", "type": "electric_scooter", "is_reserved": 0, "lon": -76.98348883333334}, {"fusion_lat": 0.0, "name": "e481fc7299d6413ef4c72de424ccf978", "is_disabled": 0, "rental_uris": {"android": "https://dc.lft.to/lastmile_qr_scan", "ios": "https://dc.lft.to/lastmile_qr_scan"}, "fusion_lon": 0.0, "lat": 38.90971833333333, "bike_id": "e481fc7299d6413ef4c72de424ccf978", "type": "electric_scooter", "is_reserved": 0, "lon": -77.03865216666667}, {"fusion_lat": 0.0, "name": "db655496b110c413309864a12ec3e9e9", "is_disabled": 0, "rental_uris": {"android": "https://dc.lft.to/lastmile_qr_scan", "ios": "https://dc.lft.to/lastmile_qr_scan"}, "fusion_lon": 0.0, "lat": 38.8825535, "bike_id": "db655496b110c413309864a12ec3e9e9", "type": "electric_scooter", "is_reserved": 0, "lon": -76.99488433333333}, {"fusion_lat": 0.0, "name": "f7b47522937153046c3ae40626cb466c", "is_disabled": 0, "rental_uris": {"android": "https://dc.lft.to/lastmile_qr_scan", "ios": "https://dc.lft.to/lastmile_qr_scan"}, "fusion_lon": 0.0, "lat": 38.896086, "bike_id": "f7b47522937153046c3ae40626cb466c", "type": "electric_scooter", "is_reserved": 0, "lon": -76.94813116666667}, {"fusion_lat": 0.0, "name": "446fa930c87053e8dc73e988e8c18d96", "is_disabled": 0, "rental_uris": {"android": "https://dc.lft.to/lastmile_qr_scan", "ios": "https://dc.lft.to/lastmile_qr_scan"}, "fusion_lon": 0.0, "lat": 38.90815083333333, "bike_id": "446fa930c87053e8dc73e988e8c18d96", "type": "electric_scooter", "is_reserved": 0, "lon": -77.03828533333333}, {"fusion_lat": 0.0, "name": "d0b5500b338c47a203d0c0d542aa9ada", "is_disabled": 0, "rental_uris": {"android": "https://dc.lft.to/lastmile_qr_scan", "ios": "https://dc.lft.to/lastmile_qr_scan"}, "fusion_lon": 0.0, "lat": 38.916911999999996, "bike_id": "d0b5500b338c47a203d0c0d542aa9ada", "type": "electric_scooter", "is_reserved": 0, "lon": -77.03104383333333}, {"fusion_lat": 0.0, "name": "435d8c1ae2ce6aadedb3c7dcec6ef062", "is_disabled": 0, "rental_uris": {"android": "https://dc.lft.to/lastmile_qr_scan", "ios": "https://dc.lft.to/lastmile_qr_scan"}, "fusion_lon": 0.0, "lat": 38.861394, "bike_id": "435d8c1ae2ce6aadedb3c7dcec6ef062", "type": "electric_bike", "is_reserved": 0, "lon": -76.971673}, {"fusion_lat": 0.0, "name": "cc9e83ad21f011ca0bb3826984a34310", "is_disabled": 0, "rental_uris": {"android": "https://dc.lft.to/lastmile_qr_scan", "ios": "https://dc.lft.to/lastmile_qr_scan"}, "fusion_lon": 0.0, "lat": 38.898980333333334, "bike_id": "cc9e83ad21f011ca0bb3826984a34310", "type": "electric_scooter", "is_reserved": 0, "lon": -76.9761295}, {"fusion_lat": 0.0, "name": "65eb1999a7824825248c83e78d42c492", "is_disabled": 0, "rental_uris": {"android": "https://dc.lft.to/lastmile_qr_scan", "ios": "https://dc.lft.to/lastmile_qr_scan"}, "fusion_lon": 0.0, "lat": 38.9659925, "bike_id": "65eb1999a7824825248c83e78d42c492", "type": "electric_bike", "is_reserved": 0, "lon": -77.02805466666666}, {"fusion_lat": 0.0, "name": "01c273e38dd5a4e75828220a45280661", "is_disabled": 0, "rental_uris": {"android": "https://dc.lft.to/lastmile_qr_scan", "ios": "https://dc.lft.to/lastmile_qr_scan"}, "fusion_lon": 0.0, "lat": 38.94286966666667, "bike_id": "01c273e38dd5a4e75828220a45280661", "type": "electric_scooter", "is_reserved": 0, "lon": -77.02169866666667}, {"fusion_lat": 0.0, "name": "5b87c345ca582da7accea80d5e19b772", "is_disabled": 0, "rental_uris": {"android": "https://dc.lft.to/lastmile_qr_scan", "ios": "https://dc.lft.to/lastmile_qr_scan"}, "fusion_lon": 0.0, "lat": 38.9003375, "bike_id": "5b87c345ca582da7accea80d5e19b772", "type": "electric_scooter", "is_reserved": 0, "lon": -76.9924895}, {"fusion_lat": 0.0, "name": "de1364c881960401c2be4bd5cb43de8d", "is_disabled": 0, "rental_uris": {"android": "https://dc.lft.to/lastmile_qr_scan", "ios": "https://dc.lft.to/lastmile_qr_scan"}, "fusion_lon": 0.0, "lat": 38.9087915, "bike_id": "de1364c881960401c2be4bd5cb43de8d", "type": "electric_scooter", "is_reserved": 0, "lon": -77.04324533333333}, {"fusion_lat": 0.0, "name": "2f34c3b2517d40c92d8de753d8de48c8", "is_disabled": 0, "rental_uris": {"android": "https://dc.lft.to/lastmile_qr_scan", "ios": "https://dc.lft.to/lastmile_qr_scan"}, "fusion_lon": 0.0, "lat": 38.904999833333335, "bike_id": "2f34c3b2517d40c92d8de753d8de48c8", "type": "electric_scooter", "is_reserved": 0, "lon": -76.97953866666667}, {"fusion_lat": 0.0, "name": "691a632c090ff3d15157763818da6429", "is_disabled": 0, "rental_uris": {"android": "https://dc.lft.to/lastmile_qr_scan", "ios": "https://dc.lft.to/lastmile_qr_scan"}, "fusion_lon": 0.0, "lat": 38.92060633333333, "bike_id": "691a632c090ff3d15157763818da6429", "type": "electric_scooter", "is_reserved": 0, "lon": -77.0238915}, {"fusion_lat": 0.0, "name": "35bcaf8b5fdf952f8ef7943f9a0ac1b7", "is_disabled": 0, "rental_uris": {"android": "https://dc.lft.to/lastmile_qr_scan", "ios": "https://dc.lft.to/lastmile_qr_scan"}, "fusion_lon": 0.0, "lat": 38.911717333333335, "bike_id": "35bcaf8b5fdf952f8ef7943f9a0ac1b7", "type": "electric_scooter", "is_reserved": 0, "lon": -77.0685975}, {"fusion_lat": 0.0, "name": "045fd88d230cb3a2b8d7af001c057432", "is_disabled": 0, "rental_uris": {"android": "https://dc.lft.to/lastmile_qr_scan", "ios": "https://dc.lft.to/lastmile_qr_scan"}, "fusion_lon": 0.0, "lat": 38.92656566666667, "bike_id": "045fd88d230cb3a2b8d7af001c057432", "type": "electric_scooter", "is_reserved": 0, "lon": -77.02426116666666}, {"fusion_lat": 0.0, "name": "15ced8627d8d45d10b17b2beb8815b72", "is_disabled": 0, "rental_uris": {"android": "https://dc.lft.to/lastmile_qr_scan", "ios": "https://dc.lft.to/lastmile_qr_scan"}, "fusion_lon": 0.0, "lat": 38.941852, "bike_id": "15ced8627d8d45d10b17b2beb8815b72", "type": "electric_scooter", "is_reserved": 0, "lon": -77.0240595}, {"fusion_lat": 0.0, "name": "7063d10c8c900e4086baa12bbdd85430", "is_disabled": 0, "rental_uris": {"android": "https://dc.lft.to/lastmile_qr_scan", "ios": "https://dc.lft.to/lastmile_qr_scan"}, "fusion_lon": 0.0, "lat": 38.9354185, "bike_id": "7063d10c8c900e4086baa12bbdd85430", "type": "electric_scooter", "is_reserved": 0, "lon": -77.03261566666667}, {"fusion_lat": 0.0, "name": "9ee57a015d9b5a02146b448c502e54bf", "is_disabled": 0, "rental_uris": {"android": "https://dc.lft.to/lastmile_qr_scan", "ios": "https://dc.lft.to/lastmile_qr_scan"}, "fusion_lon": 0.0, "lat": 38.92247116666667, "bike_id": "9ee57a015d9b5a02146b448c502e54bf", "type": "electric_scooter", "is_reserved": 0, "lon": -77.0306625}, {"fusion_lat": 0.0, "name": "cc099cd0438b51076a35a7af5b19d46f", "is_disabled": 0, "rental_uris": {"android": "https://dc.lft.to/lastmile_qr_scan", "ios": "https://dc.lft.to/lastmile_qr_scan"}, "fusion_lon": 0.0, "lat": 38.90189266666667, "bike_id": "cc099cd0438b51076a35a7af5b19d46f", "type": "electric_scooter", "is_reserved": 0, "lon": -77.06114166666667}, {"fusion_lat": 0.0, "name": "b0fd954bd28ecceb1b3d34ca2316372c", "is_disabled": 0, "rental_uris": {"android": "https://dc.lft.to/lastmile_qr_scan", "ios": "https://dc.lft.to/lastmile_qr_scan"}, "fusion_lon": 0.0, "lat": 38.91695166666667, "bike_id": "b0fd954bd28ecceb1b3d34ca2316372c", "type": "electric_scooter", "is_reserved": 0, "lon": -77.02518733333334}, {"fusion_lat": 0.0, "name": "35cd29e35b9abaef308068ae92e9c5eb", "is_disabled": 0, "rental_uris": {"android": "https://dc.lft.to/lastmile_qr_scan", "ios": "https://dc.lft.to/lastmile_qr_scan"}, "fusion_lon": 0.0, "lat": 38.98666633333333, "bike_id": "35cd29e35b9abaef308068ae92e9c5eb", "type": "electric_bike", "is_reserved": 0, "lon": -76.99999016666666}, {"fusion_lat": 0.0, "name": "a8d38097e35ca2313a8dd6862c3b36f9", "is_disabled": 0, "rental_uris": {"android": "https://dc.lft.to/lastmile_qr_scan", "ios": "https://dc.lft.to/lastmile_qr_scan"}, "fusion_lon": 0.0, "lat": 38.90493933333333, "bike_id": "a8d38097e35ca2313a8dd6862c3b36f9", "type": "electric_scooter", "is_reserved": 0, "lon": -77.02942866666666}, {"fusion_lat": 0.0, "name": "3ee9519ba985a5871d2606181964bbdd", "is_disabled": 0, "rental_uris": {"android": "https://dc.lft.to/lastmile_qr_scan", "ios": "https://dc.lft.to/lastmile_qr_scan"}, "fusion_lon": 0.0, "lat": 38.907949, "bike_id": "3ee9519ba985a5871d2606181964bbdd", "type": "electric_scooter", "is_reserved": 0, "lon": -77.00379316666667}, {"fusion_lat": 0.0, "name": "f7b6f74c1f4d5dd8af92203f1291b973", "is_disabled": 0, "rental_uris": {"android": "https://dc.lft.to/lastmile_qr_scan", "ios": "https://dc.lft.to/lastmile_qr_scan"}, "fusion_lon": 0.0, "lat": 38.9166295, "bike_id": "f7b6f74c1f4d5dd8af92203f1291b973", "type": "electric_scooter", "is_reserved": 0, "lon": -77.03460016666666}, {"fusion_lat": 0.0, "name": "3bf99da761541e914105a1615e886a99", "is_disabled": 0, "rental_uris": {"android": "https://dc.lft.to/lastmile_qr_scan", "ios": "https://dc.lft.to/lastmile_qr_scan"}, "fusion_lon": 0.0, "lat": 38.940482333333335, "bike_id": "3bf99da761541e914105a1615e886a99", "type": "electric_bike", "is_reserved": 0, "lon": -76.90421716666667}, {"fusion_lat": 0.0, "name": "705e031f89afc37170acd9b43860023d", "is_disabled": 0, "rental_uris": {"android": "https://dc.lft.to/lastmile_qr_scan", "ios": "https://dc.lft.to/lastmile_qr_scan"}, "fusion_lon": 0.0, "lat": 38.902539166666664, "bike_id": "705e031f89afc37170acd9b43860023d", "type": "electric_scooter", "is_reserved": 0, "lon": -77.04469533333334}, {"fusion_lat": 0.0, "name": "6f4e260d0142845d79dc91da16af4983", "is_disabled": 0, "rental_uris": {"android": "https://dc.lft.to/lastmile_qr_scan", "ios": "https://dc.lft.to/lastmile_qr_scan"}, "fusion_lon": 0.0, "lat": 38.994467, "bike_id": "6f4e260d0142845d79dc91da16af4983", "type": "electric_bike", "is_reserved": 0, "lon": -76.99589616666667}, {"fusion_lat": 0.0, "name": "c515222baedc560120f6376a882ec65d", "is_disabled": 0, "rental_uris": {"android": "https://dc.lft.to/lastmile_qr_scan", "ios": "https://dc.lft.to/lastmile_qr_scan"}, "fusion_lon": 0.0, "lat": 38.871134833333336, "bike_id": "c515222baedc560120f6376a882ec65d", "type": "electric_scooter", "is_reserved": 0, "lon": -76.965853}, {"fusion_lat": 0.0, "name": "9399f9e04b824c922c3a5a960f592e79", "is_disabled": 0, "rental_uris": {"android": "https://dc.lft.to/lastmile_qr_scan", "ios": "https://dc.lft.to/lastmile_qr_scan"}, "fusion_lon": 0.0, "lat": 38.904374833333335, "bike_id": "9399f9e04b824c922c3a5a960f592e79", "type": "electric_scooter", "is_reserved": 0, "lon": -77.001382}, {"fusion_lat": 0.0, "name": "ce71e14b409c4a11abe55d2a6a8453e7", "is_disabled": 0, "rental_uris": {"android": "https://dc.lft.to/lastmile_qr_scan", "ios": "https://dc.lft.to/lastmile_qr_scan"}, "fusion_lon": 0.0, "lat": 38.89222516666667, "bike_id": "ce71e14b409c4a11abe55d2a6a8453e7", "type": "electric_scooter", "is_reserved": 0, "lon": -77.0317695}, {"fusion_lat": 0.0, "name": "a0eb6285cd1e4c12f5f73942cc683c06", "is_disabled": 0, "rental_uris": {"android": "https://dc.lft.to/lastmile_qr_scan", "ios": "https://dc.lft.to/lastmile_qr_scan"}, "fusion_lon": 0.0, "lat": 38.89475233333334, "bike_id": "a0eb6285cd1e4c12f5f73942cc683c06", "type": "electric_scooter", "is_reserved": 0, "lon": -77.03960533333333}, {"fusion_lat": 0.0, "name": "e2c92630dd84111f1f274aff585ee3e0", "is_disabled": 0, "rental_uris": {"android": "https://dc.lft.to/lastmile_qr_scan", "ios": "https://dc.lft.to/lastmile_qr_scan"}, "fusion_lon": 0.0, "lat": 38.87605083333333, "bike_id": "e2c92630dd84111f1f274aff585ee3e0", "type": "electric_scooter", "is_reserved": 0, "lon": -77.0011105}, {"fusion_lat": 0.0, "name": "af19b7bdcbe5444e45be991ac1fd58f9", "is_disabled": 0, "rental_uris": {"android": "https://dc.lft.to/lastmile_qr_scan", "ios": "https://dc.lft.to/lastmile_qr_scan"}, "fusion_lon": 0.0, "lat": 38.906214166666665, "bike_id": "af19b7bdcbe5444e45be991ac1fd58f9", "type": "electric_scooter", "is_reserved": 0, "lon": -77.05030433333333}, {"fusion_lat": 0.0, "name": "251c90d53bbfb2fe6ea2efbcdb7776f8", "is_disabled": 0, "rental_uris": {"android": "https://dc.lft.to/lastmile_qr_scan", "ios": "https://dc.lft.to/lastmile_qr_scan"}, "fusion_lon": 0.0, "lat": 38.9221775, "bike_id": "251c90d53bbfb2fe6ea2efbcdb7776f8", "type": "electric_scooter", "is_reserved": 0, "lon": -76.98378483333333}, {"fusion_lat": 0.0, "name": "803343f3292be1b7e9c571a4c52f1da2", "is_disabled": 0, "rental_uris": {"android": "https://dc.lft.to/lastmile_qr_scan", "ios": "https://dc.lft.to/lastmile_qr_scan"}, "fusion_lon": 0.0, "lat": 38.939679166666664, "bike_id": "803343f3292be1b7e9c571a4c52f1da2", "type": "electric_scooter", "is_reserved": 0, "lon": -77.0325645}, {"fusion_lat": 0.0, "name": "a68d31ff3caba0ef2ce9143fc40daa22", "is_disabled": 0, "rental_uris": {"android": "https://dc.lft.to/lastmile_qr_scan", "ios": "https://dc.lft.to/lastmile_qr_scan"}, "fusion_lon": 0.0, "lat": 38.90650616666667, "bike_id": "a68d31ff3caba0ef2ce9143fc40daa22", "type": "electric_scooter", "is_reserved": 0, "lon": -77.01411783333333}, {"fusion_lat": 0.0, "name": "dc16417c5ea4775075ba06a157e812fc", "is_disabled": 0, "rental_uris": {"android": "https://dc.lft.to/lastmile_qr_scan", "ios": "https://dc.lft.to/lastmile_qr_scan"}, "fusion_lon": 0.0, "lat": 38.920295, "bike_id": "dc16417c5ea4775075ba06a157e812fc", "type": "electric_scooter", "is_reserved": 0, "lon": -77.027993}, {"fusion_lat": 0.0, "name": "d81aab112fb5ed7b41fa47f1680a1710", "is_disabled": 0, "rental_uris": {"android": "https://dc.lft.to/lastmile_qr_scan", "ios": "https://dc.lft.to/lastmile_qr_scan"}, "fusion_lon": 0.0, "lat": 38.92103016666667, "bike_id": "d81aab112fb5ed7b41fa47f1680a1710", "type": "electric_scooter", "is_reserved": 0, "lon": -77.04682216666667}, {"fusion_lat": 0.0, "name": "3c9dc266f9c552ea528b0046c8418815", "is_disabled": 0, "rental_uris": {"android": "https://dc.lft.to/lastmile_qr_scan", "ios": "https://dc.lft.to/lastmile_qr_scan"}, "fusion_lon": 0.0, "lat": 39.002863166666664, "bike_id": "3c9dc266f9c552ea528b0046c8418815", "type": "electric_bike", "is_reserved": 0, "lon": -76.9029665}, {"fusion_lat": 0.0, "name": "b572b0c186e597bf6956ca86d24843ea", "is_disabled": 0, "rental_uris": {"android": "https://dc.lft.to/lastmile_qr_scan", "ios": "https://dc.lft.to/lastmile_qr_scan"}, "fusion_lon": 0.0, "lat": 38.9338145, "bike_id": "b572b0c186e597bf6956ca86d24843ea", "type": "electric_scooter", "is_reserved": 0, "lon": -77.02637883333334}, {"fusion_lat": 0.0, "name": "284a350a248531003da397c8b0c3633d", "is_disabled": 0, "rental_uris": {"android": "https://dc.lft.to/lastmile_qr_scan", "ios": "https://dc.lft.to/lastmile_qr_scan"}, "fusion_lon": 0.0, "lat": 38.90419766666667, "bike_id": "284a350a248531003da397c8b0c3633d", "type": "electric_scooter", "is_reserved": 0, "lon": -77.03427083333334}, {"fusion_lat": 0.0, "name": "f01f44daabbcfed78195ba8e292c3bd9", "is_disabled": 0, "rental_uris": {"android": "https://dc.lft.to/lastmile_qr_scan", "ios": "https://dc.lft.to/lastmile_qr_scan"}, "fusion_lon": 0.0, "lat": 38.9234755, "bike_id": "f01f44daabbcfed78195ba8e292c3bd9", "type": "electric_scooter", "is_reserved": 0, "lon": -77.02016833333333}, {"fusion_lat": 0.0, "name": "7d5bb0e69ad2b7caa1666e7f87792982", "is_disabled": 0, "rental_uris": {"android": "https://dc.lft.to/lastmile_qr_scan", "ios": "https://dc.lft.to/lastmile_qr_scan"}, "fusion_lon": 0.0, "lat": 38.9331365, "bike_id": "7d5bb0e69ad2b7caa1666e7f87792982", "type": "electric_scooter", "is_reserved": 0, "lon": -77.03421583333333}, {"fusion_lat": 0.0, "name": "dd45df7d32440f3159b54b5d31fc256c", "is_disabled": 0, "rental_uris": {"android": "https://dc.lft.to/lastmile_qr_scan", "ios": "https://dc.lft.to/lastmile_qr_scan"}, "fusion_lon": 0.0, "lat": 38.8974875, "bike_id": "dd45df7d32440f3159b54b5d31fc256c", "type": "electric_scooter", "is_reserved": 0, "lon": -77.022156}, {"fusion_lat": 0.0, "name": "7d312d2dbedcbd39a87ba5482441869e", "is_disabled": 0, "rental_uris": {"android": "https://dc.lft.to/lastmile_qr_scan", "ios": "https://dc.lft.to/lastmile_qr_scan"}, "fusion_lon": 0.0, "lat": 38.923511833333336, "bike_id": "7d312d2dbedcbd39a87ba5482441869e", "type": "electric_scooter", "is_reserved": 0, "lon": -77.0194485}, {"fusion_lat": 0.0, "name": "fd1acbdbfc40aa9f4bf0ea00cf44879f", "is_disabled": 0, "rental_uris": {"android": "https://dc.lft.to/lastmile_qr_scan", "ios": "https://dc.lft.to/lastmile_qr_scan"}, "fusion_lon": 0.0, "lat": 38.91334966666667, "bike_id": "fd1acbdbfc40aa9f4bf0ea00cf44879f", "type": "electric_scooter", "is_reserved": 0, "lon": -77.042338}, {"fusion_lat": 0.0, "name": "74eb13c301b1bfa6fe58048288b45a5f", "is_disabled": 0, "rental_uris": {"android": "https://dc.lft.to/lastmile_qr_scan", "ios": "https://dc.lft.to/lastmile_qr_scan"}, "fusion_lon": 0.0, "lat": 38.9284545, "bike_id": "74eb13c301b1bfa6fe58048288b45a5f", "type": "electric_scooter", "is_reserved": 0, "lon": -76.99767683333333}, {"fusion_lat": 0.0, "name": "b2e0ecdca29dda873c1253da95e6a39a", "is_disabled": 0, "rental_uris": {"android": "https://dc.lft.to/lastmile_qr_scan", "ios": "https://dc.lft.to/lastmile_qr_scan"}, "fusion_lon": 0.0, "lat": 38.92220716666667, "bike_id": "b2e0ecdca29dda873c1253da95e6a39a", "type": "electric_scooter", "is_reserved": 0, "lon": -77.04131666666666}, {"fusion_lat": 0.0, "name": "8af8c27ff2c6e2646c366ea04972087b", "is_disabled": 0, "rental_uris": {"android": "https://dc.lft.to/lastmile_qr_scan", "ios": "https://dc.lft.to/lastmile_qr_scan"}, "fusion_lon": 0.0, "lat": 38.87309966666667, "bike_id": "8af8c27ff2c6e2646c366ea04972087b", "type": "electric_bike", "is_reserved": 0, "lon": -77.01099133333334}, {"fusion_lat": 0.0, "name": "48c7d140134009791deaded5e50228a0", "is_disabled": 0, "rental_uris": {"android": "https://dc.lft.to/lastmile_qr_scan", "ios": "https://dc.lft.to/lastmile_qr_scan"}, "fusion_lon": 0.0, "lat": 38.92392733333333, "bike_id": "48c7d140134009791deaded5e50228a0", "type": "electric_scooter", "is_reserved": 0, "lon": -77.03636716666666}, {"fusion_lat": 0.0, "name": "2179d89019cc729b6a25fb7a2b319402", "is_disabled": 0, "rental_uris": {"android": "https://dc.lft.to/lastmile_qr_scan", "ios": "https://dc.lft.to/lastmile_qr_scan"}, "fusion_lon": 0.0, "lat": 38.938009666666666, "bike_id": "2179d89019cc729b6a25fb7a2b319402", "type": "electric_scooter", "is_reserved": 0, "lon": -77.068586}, {"fusion_lat": 0.0, "name": "153906c4a5d79a0f2ba83afd32e94373", "is_disabled": 0, "rental_uris": {"android": "https://dc.lft.to/lastmile_qr_scan", "ios": "https://dc.lft.to/lastmile_qr_scan"}, "fusion_lon": 0.0, "lat": 38.944729333333335, "bike_id": "153906c4a5d79a0f2ba83afd32e94373", "type": "electric_scooter", "is_reserved": 0, "lon": -77.02355883333334}, {"fusion_lat": 0.0, "name": "a8aed68f364a6a930a6e7216c1ba85bf", "is_disabled": 0, "rental_uris": {"android": "https://dc.lft.to/lastmile_qr_scan", "ios": "https://dc.lft.to/lastmile_qr_scan"}, "fusion_lon": 0.0, "lat": 38.94840966666667, "bike_id": "a8aed68f364a6a930a6e7216c1ba85bf", "type": "electric_scooter", "is_reserved": 0, "lon": -77.025671}, {"fusion_lat": 0.0, "name": "009f0238130420f935d13d6a5f1ad71c", "is_disabled": 0, "rental_uris": {"android": "https://dc.lft.to/lastmile_qr_scan", "ios": "https://dc.lft.to/lastmile_qr_scan"}, "fusion_lon": 0.0, "lat": 38.9136035, "bike_id": "009f0238130420f935d13d6a5f1ad71c", "type": "electric_scooter", "is_reserved": 0, "lon": -77.01988}, {"fusion_lat": 0.0, "name": "41c3553b610473100cb13f8a8a55f340", "is_disabled": 0, "rental_uris": {"android": "https://dc.lft.to/lastmile_qr_scan", "ios": "https://dc.lft.to/lastmile_qr_scan"}, "fusion_lon": 0.0, "lat": 38.847193, "bike_id": "41c3553b610473100cb13f8a8a55f340", "type": "electric_scooter", "is_reserved": 0, "lon": -76.98249516666667}, {"fusion_lat": 0.0, "name": "0722b60e60e93a60973512d76dfa90ab", "is_disabled": 0, "rental_uris": {"android": "https://dc.lft.to/lastmile_qr_scan", "ios": "https://dc.lft.to/lastmile_qr_scan"}, "fusion_lon": 0.0, "lat": 38.91962066666667, "bike_id": "0722b60e60e93a60973512d76dfa90ab", "type": "electric_scooter", "is_reserved": 0, "lon": -77.0709555}, {"fusion_lat": 0.0, "name": "4eace6750eba0b7026c8a4157d8baec9", "is_disabled": 0, "rental_uris": {"android": "https://dc.lft.to/lastmile_qr_scan", "ios": "https://dc.lft.to/lastmile_qr_scan"}, "fusion_lon": 0.0, "lat": 38.90467266666667, "bike_id": "4eace6750eba0b7026c8a4157d8baec9", "type": "electric_scooter", "is_reserved": 0, "lon": -77.04346483333333}, {"fusion_lat": 0.0, "name": "2cc8e2aadf62497b294258cac3602373", "is_disabled": 0, "rental_uris": {"android": "https://dc.lft.to/lastmile_qr_scan", "ios": "https://dc.lft.to/lastmile_qr_scan"}, "fusion_lon": 0.0, "lat": 38.92879833333333, "bike_id": "2cc8e2aadf62497b294258cac3602373", "type": "electric_scooter", "is_reserved": 0, "lon": -77.037356}, {"fusion_lat": 0.0, "name": "92d3c166313e37e8bad012a744913bb8", "is_disabled": 0, "rental_uris": {"android": "https://dc.lft.to/lastmile_qr_scan", "ios": "https://dc.lft.to/lastmile_qr_scan"}, "fusion_lon": 0.0, "lat": 38.903951166666666, "bike_id": "92d3c166313e37e8bad012a744913bb8", "type": "electric_scooter", "is_reserved": 0, "lon": -77.0384605}, {"fusion_lat": 0.0, "name": "fd04f876e060739087ef1539f99275e1", "is_disabled": 0, "rental_uris": {"android": "https://dc.lft.to/lastmile_qr_scan", "ios": "https://dc.lft.to/lastmile_qr_scan"}, "fusion_lon": 0.0, "lat": 38.80016633333334, "bike_id": "fd04f876e060739087ef1539f99275e1", "type": "electric_bike", "is_reserved": 0, "lon": -77.05480283333333}, {"fusion_lat": 0.0, "name": "f63c2109e641078ce2ef9df702e66551", "is_disabled": 0, "rental_uris": {"android": "https://dc.lft.to/lastmile_qr_scan", "ios": "https://dc.lft.to/lastmile_qr_scan"}, "fusion_lon": 0.0, "lat": 38.90644116666667, "bike_id": "f63c2109e641078ce2ef9df702e66551", "type": "electric_scooter", "is_reserved": 0, "lon": -77.03418916666666}, {"fusion_lat": 0.0, "name": "a4b213a5966e29c8684115a049d4e0b6", "is_disabled": 0, "rental_uris": {"android": "https://dc.lft.to/lastmile_qr_scan", "ios": "https://dc.lft.to/lastmile_qr_scan"}, "fusion_lon": 0.0, "lat": 38.87331283333333, "bike_id": "a4b213a5966e29c8684115a049d4e0b6", "type": "electric_bike", "is_reserved": 0, "lon": -77.082167}, {"fusion_lat": 0.0, "name": "86ee1dace1cb8769842b46643c167838", "is_disabled": 0, "rental_uris": {"android": "https://dc.lft.to/lastmile_qr_scan", "ios": "https://dc.lft.to/lastmile_qr_scan"}, "fusion_lon": 0.0, "lat": 38.931963, "bike_id": "86ee1dace1cb8769842b46643c167838", "type": "electric_scooter", "is_reserved": 0, "lon": -77.03754216666667}, {"fusion_lat": 0.0, "name": "41afc952074b64b6b3f0ebecee506fb5", "is_disabled": 0, "rental_uris": {"android": "https://dc.lft.to/lastmile_qr_scan", "ios": "https://dc.lft.to/lastmile_qr_scan"}, "fusion_lon": 0.0, "lat": 38.922351666666664, "bike_id": "41afc952074b64b6b3f0ebecee506fb5", "type": "electric_scooter", "is_reserved": 0, "lon": -77.0424825}, {"fusion_lat": 0.0, "name": "72807baf858121ab5b9530a3aa6f9b0f", "is_disabled": 0, "rental_uris": {"android": "https://dc.lft.to/lastmile_qr_scan", "ios": "https://dc.lft.to/lastmile_qr_scan"}, "fusion_lon": 0.0, "lat": 38.94823266666667, "bike_id": "72807baf858121ab5b9530a3aa6f9b0f", "type": "electric_scooter", "is_reserved": 0, "lon": -77.02616383333333}, {"fusion_lat": 0.0, "name": "99126b48a7cfc23ad1a5a6f35947860b", "is_disabled": 0, "rental_uris": {"android": "https://dc.lft.to/lastmile_qr_scan", "ios": "https://dc.lft.to/lastmile_qr_scan"}, "fusion_lon": 0.0, "lat": 38.905619333333334, "bike_id": "99126b48a7cfc23ad1a5a6f35947860b", "type": "electric_scooter", "is_reserved": 0, "lon": -77.00586316666667}, {"fusion_lat": 0.0, "name": "5772a271aee4f68a0a76258e2a12c05a", "is_disabled": 0, "rental_uris": {"android": "https://dc.lft.to/lastmile_qr_scan", "ios": "https://dc.lft.to/lastmile_qr_scan"}, "fusion_lon": 0.0, "lat": 38.9155305, "bike_id": "5772a271aee4f68a0a76258e2a12c05a", "type": "electric_scooter", "is_reserved": 0, "lon": -77.04151633333333}, {"fusion_lat": 0.0, "name": "a7781b2afba384ad326d68c8983213a5", "is_disabled": 0, "rental_uris": {"android": "https://dc.lft.to/lastmile_qr_scan", "ios": "https://dc.lft.to/lastmile_qr_scan"}, "fusion_lon": 0.0, "lat": 38.880996333333336, "bike_id": "a7781b2afba384ad326d68c8983213a5", "type": "electric_scooter", "is_reserved": 0, "lon": -76.98667333333333}, {"fusion_lat": 0.0, "name": "5fa52177719e887aed80797bef1638c7", "is_disabled": 0, "rental_uris": {"android": "https://dc.lft.to/lastmile_qr_scan", "ios": "https://dc.lft.to/lastmile_qr_scan"}, "fusion_lon": 0.0, "lat": 38.886141333333335, "bike_id": "5fa52177719e887aed80797bef1638c7", "type": "electric_scooter", "is_reserved": 0, "lon": -77.01555716666667}, {"fusion_lat": 0.0, "name": "a4f4d434bdd9777a67247e08e2903c90", "is_disabled": 0, "rental_uris": {"android": "https://dc.lft.to/lastmile_qr_scan", "ios": "https://dc.lft.to/lastmile_qr_scan"}, "fusion_lon": 0.0, "lat": 38.83546033333333, "bike_id": "a4f4d434bdd9777a67247e08e2903c90", "type": "electric_bike", "is_reserved": 0, "lon": -76.9872865}, {"fusion_lat": 0.0, "name": "f3b8cc7c90d9a55222adcf1a7341bfee", "is_disabled": 0, "rental_uris": {"android": "https://dc.lft.to/lastmile_qr_scan", "ios": "https://dc.lft.to/lastmile_qr_scan"}, "fusion_lon": 0.0, "lat": 38.932608333333334, "bike_id": "f3b8cc7c90d9a55222adcf1a7341bfee", "type": "electric_scooter", "is_reserved": 0, "lon": -77.0346155}, {"fusion_lat": 0.0, "name": "c8508595d874dd2532fd022d48679905", "is_disabled": 0, "rental_uris": {"android": "https://dc.lft.to/lastmile_qr_scan", "ios": "https://dc.lft.to/lastmile_qr_scan"}, "fusion_lon": 0.0, "lat": 38.93436483333333, "bike_id": "c8508595d874dd2532fd022d48679905", "type": "electric_scooter", "is_reserved": 0, "lon": -77.04002516666667}, {"fusion_lat": 0.0, "name": "7878bc1a0ad092e48e64821387daa366", "is_disabled": 0, "rental_uris": {"android": "https://dc.lft.to/lastmile_qr_scan", "ios": "https://dc.lft.to/lastmile_qr_scan"}, "fusion_lon": 0.0, "lat": 38.92387816666667, "bike_id": "7878bc1a0ad092e48e64821387daa366", "type": "electric_scooter", "is_reserved": 0, "lon": -77.03658766666666}, {"fusion_lat": 0.0, "name": "94f7e2882cd7da36160d83e1fe683cb9", "is_disabled": 0, "rental_uris": {"android": "https://dc.lft.to/lastmile_qr_scan", "ios": "https://dc.lft.to/lastmile_qr_scan"}, "fusion_lon": 0.0, "lat": 38.9006215, "bike_id": "94f7e2882cd7da36160d83e1fe683cb9", "type": "electric_scooter", "is_reserved": 0, "lon": -76.93387583333333}, {"fusion_lat": 0.0, "name": "4f25932b83e8b63a54b7f96dbd55952a", "is_disabled": 0, "rental_uris": {"android": "https://dc.lft.to/lastmile_qr_scan", "ios": "https://dc.lft.to/lastmile_qr_scan"}, "fusion_lon": 0.0, "lat": 38.892364, "bike_id": "4f25932b83e8b63a54b7f96dbd55952a", "type": "electric_scooter", "is_reserved": 0, "lon": -77.03350433333334}, {"fusion_lat": 0.0, "name": "a4a3d8c510078db3002f3b6078854f39", "is_disabled": 0, "rental_uris": {"android": "https://dc.lft.to/lastmile_qr_scan", "ios": "https://dc.lft.to/lastmile_qr_scan"}, "fusion_lon": 0.0, "lat": 38.91148166666667, "bike_id": "a4a3d8c510078db3002f3b6078854f39", "type": "electric_scooter", "is_reserved": 0, "lon": -77.010737}, {"fusion_lat": 0.0, "name": "2b6dd8e12bd4a06643d7014c0b80cad6", "is_disabled": 0, "rental_uris": {"android": "https://dc.lft.to/lastmile_qr_scan", "ios": "https://dc.lft.to/lastmile_qr_scan"}, "fusion_lon": 0.0, "lat": 38.940168166666666, "bike_id": "2b6dd8e12bd4a06643d7014c0b80cad6", "type": "electric_scooter", "is_reserved": 0, "lon": -77.02773616666667}, {"fusion_lat": 0.0, "name": "b2cc485f15bbb3aa698945da8dc681c8", "is_disabled": 0, "rental_uris": {"android": "https://dc.lft.to/lastmile_qr_scan", "ios": "https://dc.lft.to/lastmile_qr_scan"}, "fusion_lon": 0.0, "lat": 38.92611466666666, "bike_id": "b2cc485f15bbb3aa698945da8dc681c8", "type": "electric_scooter", "is_reserved": 0, "lon": -77.02217533333334}, {"fusion_lat": 0.0, "name": "ac8a4f3d8060c73f7f5527429aca1e16", "is_disabled": 0, "rental_uris": {"android": "https://dc.lft.to/lastmile_qr_scan", "ios": "https://dc.lft.to/lastmile_qr_scan"}, "fusion_lon": 0.0, "lat": 38.9193175, "bike_id": "ac8a4f3d8060c73f7f5527429aca1e16", "type": "electric_scooter", "is_reserved": 0, "lon": -77.02521066666667}, {"fusion_lat": 0.0, "name": "390fd87fb23fa3f6f0a8c72e6341d868", "is_disabled": 0, "rental_uris": {"android": "https://dc.lft.to/lastmile_qr_scan", "ios": "https://dc.lft.to/lastmile_qr_scan"}, "fusion_lon": 0.0, "lat": 38.899348333333336, "bike_id": "390fd87fb23fa3f6f0a8c72e6341d868", "type": "electric_scooter", "is_reserved": 0, "lon": -77.04087916666667}, {"fusion_lat": 0.0, "name": "7cf3964566f19a361e6e3ba5ceb6cabd", "is_disabled": 0, "rental_uris": {"android": "https://dc.lft.to/lastmile_qr_scan", "ios": "https://dc.lft.to/lastmile_qr_scan"}, "fusion_lon": 0.0, "lat": 38.892242, "bike_id": "7cf3964566f19a361e6e3ba5ceb6cabd", "type": "electric_scooter", "is_reserved": 0, "lon": -77.03218833333334}, {"fusion_lat": 0.0, "name": "53a97fea2eadca3cc30ef4e683bd1449", "is_disabled": 0, "rental_uris": {"android": "https://dc.lft.to/lastmile_qr_scan", "ios": "https://dc.lft.to/lastmile_qr_scan"}, "fusion_lon": 0.0, "lat": 38.876325333333334, "bike_id": "53a97fea2eadca3cc30ef4e683bd1449", "type": "electric_scooter", "is_reserved": 0, "lon": -77.00947133333334}, {"fusion_lat": 0.0, "name": "31f0d3341e4f35b8636a7283ae9d67cb", "is_disabled": 0, "rental_uris": {"android": "https://dc.lft.to/lastmile_qr_scan", "ios": "https://dc.lft.to/lastmile_qr_scan"}, "fusion_lon": 0.0, "lat": 38.915653166666665, "bike_id": "31f0d3341e4f35b8636a7283ae9d67cb", "type": "electric_scooter", "is_reserved": 0, "lon": -77.03230516666666}, {"fusion_lat": 0.0, "name": "f90288ae9bc9a8cc9223fc346b04a4bd", "is_disabled": 0, "rental_uris": {"android": "https://dc.lft.to/lastmile_qr_scan", "ios": "https://dc.lft.to/lastmile_qr_scan"}, "fusion_lon": 0.0, "lat": 38.897456166666665, "bike_id": "f90288ae9bc9a8cc9223fc346b04a4bd", "type": "electric_scooter", "is_reserved": 0, "lon": -77.0318735}, {"fusion_lat": 0.0, "name": "4c9003f147b82be408565c2dc12c5d0f", "is_disabled": 0, "rental_uris": {"android": "https://dc.lft.to/lastmile_qr_scan", "ios": "https://dc.lft.to/lastmile_qr_scan"}, "fusion_lon": 0.0, "lat": 38.9180245, "bike_id": "4c9003f147b82be408565c2dc12c5d0f", "type": "electric_scooter", "is_reserved": 0, "lon": -77.03338866666667}, {"fusion_lat": 0.0, "name": "e585d0c839aa57103994bdcc69aa31e7", "is_disabled": 0, "rental_uris": {"android": "https://dc.lft.to/lastmile_qr_scan", "ios": "https://dc.lft.to/lastmile_qr_scan"}, "fusion_lon": 0.0, "lat": 38.813302166666666, "bike_id": "e585d0c839aa57103994bdcc69aa31e7", "type": "electric_bike", "is_reserved": 0, "lon": -77.05079033333334}, {"fusion_lat": 0.0, "name": "015a2b52cba6144fe8c21495e63fa529", "is_disabled": 0, "rental_uris": {"android": "https://dc.lft.to/lastmile_qr_scan", "ios": "https://dc.lft.to/lastmile_qr_scan"}, "fusion_lon": 0.0, "lat": 38.905174833333334, "bike_id": "015a2b52cba6144fe8c21495e63fa529", "type": "electric_scooter", "is_reserved": 0, "lon": -77.03450083333334},