{"data": {"bikes": [{"is_disabled": 0, "lat": 38.926785333333335, "bike_id": "8022d14da74f469f5231c33113cad409", "fusion_lon": 0.0, "is_reserved": 0, "type": "electric_scooter", "name": "8022d14da74f469f5231c33113cad409", "lon": -77.02783083333334, "rental_uris": {"android": "https://dc.lft.to/lastmile_qr_scan", "ios": "https://dc.lft.to/lastmile_qr_scan"}, "fusion_lat": 0.0}, {"is_disabled": 0, "lat": 38.8783285, "bike_id": "c468dfb17d43b2c432874d8cdf891bb6", "fusion_lon": 0.0, "is_reserved": 0, "type": "electric_scooter", "name": "c468dfb17d43b2c432874d8cdf891bb6", "lon": -77.007126, "rental_uris": {"android": "https://dc.lft.to/lastmile_qr_scan", "ios": "https://dc.lft.to/lastmile_qr_scan"}, "fusion_lat": 0.0}, {"is_disabled": 0, "lat": 38.91748416666667, "bike_id": "46f7c9342f9cf082d57a1bdcb65c96d3", "fusion_lon": 0.0, "is_reserved": 0, "type": "electric_scooter", "name": "46f7c9342f9cf082d57a1bdcb65c96d3", "lon": -77.0415285, "rental_uris": {"android": "https://dc.lft.to/lastmile_qr_scan", "ios": "https://dc.lft.to/lastmile_qr_scan"}, "fusion_lat": 0.0}, {"is_disabled": 0, "lat": 38.94248016666667, "bike_id": "6b61ce6fcdced9364ff196177355e440", "fusion_lon": 0.0, "is_reserved": 0, "type": "electric_scooter", "name": "6b61ce6fcdced9364ff196177355e440", "lon": -77.05889066666667, "rental_uris": {"android": "https://dc.lft.to/lastmile_qr_scan", "ios": "https://dc.lft.to/lastmile_qr_scan"}, "fusion_lat": 0.0}, {"is_disabled": 0, "lat": 38.911031, "bike_id": "4e0a7614774264f102ecb86c16893fbc", "fusion_lon": 0.0, "is_reserved": 0, "type": "electric_scooter", "name": "4e0a7614774264f102ecb86c16893fbc", "lon": -77.073453, "rental_uris": {"android": "https://dc.lft.to/lastmile_qr_scan", "ios": "https://dc.lft.to/lastmile_qr_scan"}, "fusion_lat": 0.0}, {"is_disabled": 0, "lat": 38.932028333333335, "bike_id": "7b780063a116e5b65dccc6043f9ad565", "fusion_lon": 0.0, "is_reserved": 0, "type": "electric_scooter", "name": "7b780063a116e5b65dccc6043f9ad565", "lon": -77.03280933333333, "rental_uris": {"android": "https://dc.lft.to/lastmile_qr_scan", "ios": "https://dc.lft.to/lastmile_qr_scan"}, "fusion_lat": 0.0}, {"is_disabled": 0, "lat": 38.872651166666664, "bike_id": "5750b5d60c8123875f908e9b3020ae58", "fusion_lon": 0.0, "is_reserved": 0, "type": "electric_scooter", "name": "5750b5d60c8123875f908e9b3020ae58", "lon": -77.01763433333333, "rental_uris": {"android": "https://dc.lft.to/lastmile_qr_scan", "ios": "https://dc.lft.to/lastmile_qr_scan"}, "fusion_lat": 0.0}, {"is_disabled": 0, "lat": 38.92449166666667, "bike_id": "6103fcd31ce750cb7e905019ccd0e17a", "fusion_lon": 0.0, "is_reserved": 0, "type": "electric_scooter", "name": "6103fcd31ce750cb7e905019ccd0e17a", "lon": -77.0404785, "rental_uris": {"android": "https://dc.lft.to/lastmile_qr_scan", "ios": "https://dc.lft.to/lastmile_qr_scan"}, "fusion_lat": 0.0}, {"is_disabled": 0, "lat": 38.91058133333333, "bike_id": "3ef8e1640ee10ccbaeb282fbdc546090", "fusion_lon": 0.0, "is_reserved": 0, "type": "electric_scooter", "name": "3ef8e1640ee10ccbaeb282fbdc546090", "lon": -77.02970483333333, "rental_uris": {"android": "https://dc.lft.to/lastmile_qr_scan", "ios": "https://dc.lft.to/lastmile_qr_scan"}, "fusion_lat": 0.0}, {"is_disabled": 0, "lat": 38.94084466666666, "bike_id": "f2ec2f34b545d1b4c074926c305b3c2f", "fusion_lon": 0.0, "is_reserved": 0, "type": "electric_scooter", "name": "f2ec2f34b545d1b4c074926c305b3c2f", "lon": -77.0613005, "rental_uris": {"android": "https://dc.lft.to/lastmile_qr_scan", "ios": "https://dc.lft.to/lastmile_qr_scan"}, "fusion_lat": 0.0}, {"is_disabled": 0, "lat": 38.892343, "bike_id": "ce8891813afa0d8b91b450c6671ef2a0", "fusion_lon": 0.0, "is_reserved": 0, "type": "electric_scooter", "name": "ce8891813afa0d8b91b450c6671ef2a0", "lon": -77.0312965, "rental_uris": {"android": "https://dc.lft.to/lastmile_qr_scan", "ios": "https://dc.lft.to/lastmile_qr_scan"}, "fusion_lat": 0.0}, {"is_disabled": 0, "lat": 38.90565383333333, "bike_id": "b0ffa7ab3ca318bcaf769e69c57b1d79", "fusion_lon": 0.0, "is_reserved": 0, "type": "electric_scooter", "name": "b0ffa7ab3ca318bcaf769e69c57b1d79", "lon": -76.981407, "rental_uris": {"android": "https://dc.lft.to/lastmile_qr_scan", "ios": "https://dc.lft.to/lastmile_qr_scan"}, "fusion_lat": 0.0}, {"is_disabled": 0, "lat": 38.9196035, "bike_id": "ffa35e85bc1f9116666d9a8e87037fa6", "fusion_lon": 0.0, "is_reserved": 0, "type": "electric_scooter", "name": "ffa35e85bc1f9116666d9a8e87037fa6", "lon": -77.04213016666667, "rental_uris": {"android": "https://dc.lft.to/lastmile_qr_scan", "ios": "https://dc.lft.to/lastmile_qr_scan"}, "fusion_lat": 0.0}, {"is_disabled": 0, "lat": 38.90574, "bike_id": "bd29ddc9d1a7a5dbbfdc8ef7049d1699", "fusion_lon": 0.0, "is_reserved": 0, "type": "electric_scooter", "name": "bd29ddc9d1a7a5dbbfdc8ef7049d1699", "lon": -77.0435035, "rental_uris": {"android": "https://dc.lft.to/lastmile_qr_scan", "ios": "https://dc.lft.to/lastmile_qr_scan"}, "fusion_lat": 0.0}, {"is_disabled": 0, "lat": 38.88345533333333, "bike_id": "c7216a8a7b4ef803e5adbd24a88e5f86", "fusion_lon": 0.0, "is_reserved": 0, "type": "electric_scooter", "name": "c7216a8a7b4ef803e5adbd24a88e5f86", "lon": -77.01601016666666, "rental_uris": {"android": "https://dc.lft.to/lastmile_qr_scan", "ios": "https://dc.lft.to/lastmile_qr_scan"}, "fusion_lat": 0.0}, {"is_disabled": 0, "lat": 38.86614266666667, "bike_id": "680b79437e539223ff27e5c22fdd54f2", "fusion_lon": 0.0, "is_reserved": 0, "type": "electric_scooter", "name": "680b79437e539223ff27e5c22fdd54f2", "lon": -76.98206616666667, "rental_uris": {"android": "https://dc.lft.to/lastmile_qr_scan", "ios": "https://dc.lft.to/lastmile_qr_scan"}, "fusion_lat": 0.0}, {"is_disabled": 0, "lat": 38.91486833333333, "bike_id": "df214a09009ae32555a80d36aaaa4ed5", "fusion_lon": 0.0, "is_reserved": 0, "type": "electric_scooter", "name": "df214a09009ae32555a80d36aaaa4ed5", "lon": -77.02534683333333, "rental_uris": {"android": "https://dc.lft.to/lastmile_qr_scan", "ios": "https://dc.lft.to/lastmile_qr_scan"}, "fusion_lat": 0.0}, {"is_disabled": 0, "lat": 38.9129685, "bike_id": "a54900fcc61a217fd55b0a185eb7a4a0", "fusion_lon": 0.0, "is_reserved": 0, "type": "electric_scooter", "name": "a54900fcc61a217fd55b0a185eb7a4a0", "lon": -77.02204033333334, "rental_uris": {"android": "https://dc.lft.to/lastmile_qr_scan", "ios": "https://dc.lft.to/lastmile_qr_scan"}, "fusion_lat": 0.0}, {"is_disabled": 0, "lat": 38.92678183333334, "bike_id": "6a4b2714668b8faf9efa490cde369c47", "fusion_lon": 0.0, "is_reserved": 0, "type": "electric_scooter", "name": "6a4b2714668b8faf9efa490cde369c47", "lon": -77.0075545, "rental_uris": {"android": "https://dc.lft.to/lastmile_qr_scan", "ios": "https://dc.lft.to/lastmile_qr_scan"}, "fusion_lat": 0.0}, {"is_disabled": 0, "lat": 38.91690533333333, "bike_id": "b3eaaf2203fe7d5f2f9b6cf2439ea43e", "fusion_lon": 0.0, "is_reserved": 0, "type": "electric_scooter", "name": "b3eaaf2203fe7d5f2f9b6cf2439ea43e", "lon": -77.03774283333334, "rental_uris": {"android": "https://dc.lft.to/lastmile_qr_scan", "ios": "https://dc.lft.to/lastmile_qr_scan"}, "fusion_lat": 0.0}, {"is_disabled": 0, "lat": 38.887488, "bike_id": "68d058bae35c116545a741bbce8aeda5", "fusion_lon": 0.0, "is_reserved": 0, "type": "electric_scooter", "name": "68d058bae35c116545a741bbce8aeda5", "lon": -77.02849566666667, "rental_uris": {"android": "https://dc.lft.to/lastmile_qr_scan", "ios": "https://dc.lft.to/lastmile_qr_scan"}, "fusion_lat": 0.0}, {"is_disabled": 0, "lat": 38.900123666666666, "bike_id": "6eae313415d4d4b157525c2f229f4236", "fusion_lon": 0.0, "is_reserved": 0, "type": "electric_scooter", "name": "6eae313415d4d4b157525c2f229f4236", "lon": -77.00043583333333, "rental_uris": {"android": "https://dc.lft.to/lastmile_qr_scan", "ios": "https://dc.lft.to/lastmile_qr_scan"}, "fusion_lat": 0.0}, {"is_disabled": 0, "lat": 38.89223466666667, "bike_id": "e4e703c7bc85e048bf2c71f02106aa49", "fusion_lon": 0.0, "is_reserved": 0, "type": "electric_scooter", "name": "e4e703c7bc85e048bf2c71f02106aa49", "lon": -77.04326916666666, "rental_uris": {"android": "https://dc.lft.to/lastmile_qr_scan", "ios": "https://dc.lft.to/lastmile_qr_scan"}, "fusion_lat": 0.0}, {"is_disabled": 0, "lat": 38.89490966666666, "bike_id": "628382bd95795d7a57c5e07817b3698c", "fusion_lon": 0.0, "is_reserved": 0, "type": "electric_scooter", "name": "628382bd95795d7a57c5e07817b3698c", "lon": -77.00294983333333, "rental_uris": {"android": "https://dc.lft.to/lastmile_qr_scan", "ios": "https://dc.lft.to/lastmile_qr_scan"}, "fusion_lat": 0.0}, {"is_disabled": 0, "lat": 38.897352166666664, "bike_id": "8fd43494e438447d8f97811655eb2abe", "fusion_lon": 0.0, "is_reserved": 0, "type": "electric_scooter", "name": "8fd43494e438447d8f97811655eb2abe", "lon": -77.00750583333334, "rental_uris": {"android": "https://dc.lft.to/lastmile_qr_scan", "ios": "https://dc.lft.to/lastmile_qr_scan"}, "fusion_lat": 0.0}, {"is_disabled": 0, "lat": 38.9024505, "bike_id": "66d771aff39dc5c9c8c63769e2e7a5a1", "fusion_lon": 0.0, "is_reserved": 0, "type": "electric_scooter", "name": "66d771aff39dc5c9c8c63769e2e7a5a1", "lon": -77.0326675, "rental_uris": {"android": "https://dc.lft.to/lastmile_qr_scan", "ios": "https://dc.lft.to/lastmile_qr_scan"}, "fusion_lat": 0.0}, {"is_disabled": 0, "lat": 38.909692, "bike_id": "376905d07672a58e072cd751995733ae", "fusion_lon": 0.0, "is_reserved": 0, "type": "electric_scooter", "name": "376905d07672a58e072cd751995733ae", "lon": -77.04655616666666, "rental_uris": {"android": "https://dc.lft.to/lastmile_qr_scan", "ios": "https://dc.lft.to/lastmile_qr_scan"}, "fusion_lat": 0.0}, {"is_disabled": 0, "lat": 38.90620633333333, "bike_id": "40b146eedd276454786f95af76a1eb1c", "fusion_lon": 0.0, "is_reserved": 0, "type": "electric_scooter", "name": "40b146eedd276454786f95af76a1eb1c", "lon": -77.03856116666667, "rental_uris": {"android": "https://dc.lft.to/lastmile_qr_scan", "ios": "https://dc.lft.to/lastmile_qr_scan"}, "fusion_lat": 0.0}, {"is_disabled": 0, "lat": 38.895425, "bike_id": "a5625f89422aee54d860d0c8537212da", "fusion_lon": 0.0, "is_reserved": 0, "type": "electric_scooter", "name": "a5625f89422aee54d860d0c8537212da", "lon": -77.0020635, "rental_uris": {"android": "https://dc.lft.to/lastmile_qr_scan", "ios": "https://dc.lft.to/lastmile_qr_scan"}, "fusion_lat": 0.0}, {"is_disabled": 0, "lat": 38.910076333333336, "bike_id": "ffe5d1bc0334812c785f93638a960bb2", "fusion_lon": 0.0, "is_reserved": 0, "type": "electric_scooter", "name": "ffe5d1bc0334812c785f93638a960bb2", "lon": -76.98635433333334, "rental_uris": {"android": "https://dc.lft.to/lastmile_qr_scan", "ios": "https://dc.lft.to/lastmile_qr_scan"}, "fusion_lat": 0.0}, {"is_disabled": 0, "lat": 38.93638133333333, "bike_id": "f4e98406752bf204f78abf2ec12745f5", "fusion_lon": 0.0, "is_reserved": 0, "type": "electric_scooter", "name": "f4e98406752bf204f78abf2ec12745f5", "lon": -77.05885333333333, "rental_uris": {"android": "https://dc.lft.to/lastmile_qr_scan", "ios": "https://dc.lft.to/lastmile_qr_scan"}, "fusion_lat": 0.0}, {"is_disabled": 0, "lat": 38.928422833333336, "bike_id": "949cae0bdfe536eb1889bf755040c58c", "fusion_lon": 0.0, "is_reserved": 0, "type": "electric_scooter", "name": "949cae0bdfe536eb1889bf755040c58c", "lon": -76.9936185, "rental_uris": {"android": "https://dc.lft.to/lastmile_qr_scan", "ios": "https://dc.lft.to/lastmile_qr_scan"}, "fusion_lat": 0.0}, {"is_disabled": 0, "lat": 38.86252733333333, "bike_id": "1c4721cb7cc39bf6f07812d24ef792ff", "fusion_lon": 0.0, "is_reserved": 0, "type": "electric_scooter", "name": "1c4721cb7cc39bf6f07812d24ef792ff", "lon": -76.9869455, "rental_uris": {"android": "https://dc.lft.to/lastmile_qr_scan", "ios": "https://dc.lft.to/lastmile_qr_scan"}, "fusion_lat": 0.0}, {"is_disabled": 0, "lat": 38.954271166666665, "bike_id": "9885f3afc3f6aa4d82dfc7df0d609c6d", "fusion_lon": 0.0, "is_reserved": 0, "type": "electric_scooter", "name": "9885f3afc3f6aa4d82dfc7df0d609c6d", "lon": -77.02764716666667, "rental_uris": {"android": "https://dc.lft.to/lastmile_qr_scan", "ios": "https://dc.lft.to/lastmile_qr_scan"}, "fusion_lat": 0.0}, {"is_disabled": 0, "lat": 38.904762833333336, "bike_id": "908320f210fc6a1d40c729b0cb720c22", "fusion_lon": 0.0, "is_reserved": 0, "type": "electric_scooter", "name": "908320f210fc6a1d40c729b0cb720c22", "lon": -77.04849966666667, "rental_uris": {"android": "https://dc.lft.to/lastmile_qr_scan", "ios": "https://dc.lft.to/lastmile_qr_scan"}, "fusion_lat": 0.0}, {"is_disabled": 0, "lat": 38.80565816666667, "bike_id": "ae6e755f52e8d9405546775edc2f478f", "fusion_lon": 0.0, "is_reserved": 0, "type": "electric_bike", "name": "ae6e755f52e8d9405546775edc2f478f", "lon": -77.06834083333334, "rental_uris": {"android": "https://dc.lft.to/lastmile_qr_scan", "ios": "https://dc.lft.to/lastmile_qr_scan"}, "fusion_lat": 0.0}, {"is_disabled": 0, "lat": 38.90575583333333, "bike_id": "f44bf5abeedf7f4b9b1c97ffdd8a0c38", "fusion_lon": 0.0, "is_reserved": 0, "type": "electric_scooter", "name": "f44bf5abeedf7f4b9b1c97ffdd8a0c38", "lon": -77.04429333333333, "rental_uris": {"android": "https://dc.lft.to/lastmile_qr_scan", "ios": "https://dc.lft.to/lastmile_qr_scan"}, "fusion_lat": 0.0}, {"is_disabled": 0, "lat": 38.92671983333334, "bike_id": "00a32ed6248627230dff255aac161476", "fusion_lon": 0.0, "is_reserved": 0, "type": "electric_bike", "name": "00a32ed6248627230dff255aac161476", "lon": -77.00764216666667, "rental_uris": {"android": "https://dc.lft.to/lastmile_qr_scan", "ios": "https://dc.lft.to/lastmile_qr_scan"}, "fusion_lat": 0.0}, {"is_disabled": 0, "lat": 38.956390999999996, "bike_id": "e23754543d1a26ffc7c59e643dc33006", "fusion_lon": 0.0, "is_reserved": 0, "type": "electric_scooter", "name": "e23754543d1a26ffc7c59e643dc33006", "lon": -77.033069, "rental_uris": {"android": "https://dc.lft.to/lastmile_qr_scan", "ios": "https://dc.lft.to/lastmile_qr_scan"}, "fusion_lat": 0.0}, {"is_disabled": 0, "lat": 38.9429885, "bike_id": "11377b2252ec1a122cc3a77f26128a4d", "fusion_lon": 0.0, "is_reserved": 0, "type": "electric_scooter", "name": "11377b2252ec1a122cc3a77f26128a4d", "lon": -77.05884133333333, "rental_uris": {"android": "https://dc.lft.to/lastmile_qr_scan", "ios": "https://dc.lft.to/lastmile_qr_scan"}, "fusion_lat": 0.0}, {"is_disabled": 0, "lat": 38.896268, "bike_id": "92806d602b7c866e375d9247973d88cd", "fusion_lon": 0.0, "is_reserved": 0, "type": "electric_scooter", "name": "92806d602b7c866e375d9247973d88cd", "lon": -77.02941383333334, "rental_uris": {"android": "https://dc.lft.to/lastmile_qr_scan", "ios": "https://dc.lft.to/lastmile_qr_scan"}, "fusion_lat": 0.0}, {"is_disabled": 0, "lat": 38.9070885, "bike_id": "048d993a0b0e31a54d942aaed175e07f", "fusion_lon": 0.0, "is_reserved": 0, "type": "electric_scooter", "name": "048d993a0b0e31a54d942aaed175e07f", "lon": -76.98085, "rental_uris": {"android": "https://dc.lft.to/lastmile_qr_scan", "ios": "https://dc.lft.to/lastmile_qr_scan"}, "fusion_lat": 0.0}, {"is_disabled": 0, "lat": 38.91693766666667, "bike_id": "a183dfb56ffb5cb65839287a352ab4ad", "fusion_lon": 0.0, "is_reserved": 0, "type": "electric_scooter", "name": "a183dfb56ffb5cb65839287a352ab4ad", "lon": -77.02597583333333, "rental_uris": {"android": "https://dc.lft.to/lastmile_qr_scan", "ios": "https://dc.lft.to/lastmile_qr_scan"}, "fusion_lat": 0.0}, {"is_disabled": 0, "lat": 38.93726366666667, "bike_id": "816bc9b0c45eb78463a7e99dad3a6ced", "fusion_lon": 0.0, "is_reserved": 0, "type": "electric_scooter", "name": "816bc9b0c45eb78463a7e99dad3a6ced", "lon": -77.032666, "rental_uris": {"android": "https://dc.lft.to/lastmile_qr_scan", "ios": "https://dc.lft.to/lastmile_qr_scan"}, "fusion_lat": 0.0}, {"is_disabled": 0, "lat": 38.9026215, "bike_id": "3c3d7cc5a9e71e1c4a9daf1186eb837b", "fusion_lon": 0.0, "is_reserved": 0, "type": "electric_scooter", "name": "3c3d7cc5a9e71e1c4a9daf1186eb837b", "lon": -77.06023133333333, "rental_uris": {"android": "https://dc.lft.to/lastmile_qr_scan", "ios": "https://dc.lft.to/lastmile_qr_scan"}, "fusion_lat": 0.0}, {"is_disabled": 0, "lat": 38.888654, "bike_id": "58ba1122ce836f02184e25e570dbd65f", "fusion_lon": 0.0, "is_reserved": 0, "type": "electric_scooter", "name": "58ba1122ce836f02184e25e570dbd65f", "lon": -77.04010433333333, "rental_uris": {"android": "https://dc.lft.to/lastmile_qr_scan", "ios": "https://dc.lft.to/lastmile_qr_scan"}, "fusion_lat": 0.0}, {"is_disabled": 0, "lat": 38.90721, "bike_id": "0b8d939d6b3ac2a5a0e751c7a940ac81", "fusion_lon": 0.0, "is_reserved": 0, "type": "electric_scooter", "name": "0b8d939d6b3ac2a5a0e751c7a940ac81", "lon": -77.03429383333334, "rental_uris": {"android": "https://dc.lft.to/lastmile_qr_scan", "ios": "https://dc.lft.to/lastmile_qr_scan"}, "fusion_lat": 0.0}, {"is_disabled": 0, "lat": 38.91668633333333, "bike_id": "e43429bdd0c33c2d87a6110e31cc16ff", "fusion_lon": 0.0, "is_reserved": 0, "type": "electric_scooter", "name": "e43429bdd0c33c2d87a6110e31cc16ff", "lon": -77.02949966666667, "rental_uris": {"android": "https://dc.lft.to/lastmile_qr_scan", "ios": "https://dc.lft.to/lastmile_qr_scan"}, "fusion_lat": 0.0}, {"is_disabled": 0, "lat": 38.912292666666666, "bike_id": "1f1853de54db636d64c6fc1ffc62862f", "fusion_lon": 0.0, "is_reserved": 0, "type": "electric_scooter", "name": "1f1853de54db636d64c6fc1ffc62862f", "lon": -77.04779983333333, "rental_uris": {"android": "https://dc.lft.to/lastmile_qr_scan", "ios": "https://dc.lft.to/lastmile_qr_scan"}, "fusion_lat": 0.0}, {"is_disabled": 0, "lat": 38.91993933333333, "bike_id": "dabc7e84fdb9ab0ce2de68f6ec778332", "fusion_lon": 0.0, "is_reserved": 0, "type": "electric_scooter", "name": "dabc7e84fdb9ab0ce2de68f6ec778332", "lon": -77.0238705, "rental_uris": {"android": "https://dc.lft.to/lastmile_qr_scan", "ios": "https://dc.lft.to/lastmile_qr_scan"}, "fusion_lat": 0.0}, {"is_disabled": 0, "lat": 38.9169075, "bike_id": "c805fed3df4d82ec78fc6aa3e799606f", "fusion_lon": 0.0, "is_reserved": 0, "type": "electric_scooter", "name": "c805fed3df4d82ec78fc6aa3e799606f", "lon": -77.03766916666666, "rental_uris": {"android": "https://dc.lft.to/lastmile_qr_scan", "ios": "https://dc.lft.to/lastmile_qr_scan"}, "fusion_lat": 0.0}, {"is_disabled": 0, "lat": 38.9224835, "bike_id": "c2851c60489aaf6c5e5ebc32eadd7715", "fusion_lon": 0.0, "is_reserved": 0, "type": "electric_scooter", "name": "c2851c60489aaf6c5e5ebc32eadd7715", "lon": -77.03084416666667, "rental_uris": {"android": "https://dc.lft.to/lastmile_qr_scan", "ios": "https://dc.lft.to/lastmile_qr_scan"}, "fusion_lat": 0.0}, {"is_disabled": 0, "lat": 38.908845, "bike_id": "a20a523efb9e56efbf5aaca0c5bf1199", "fusion_lon": 0.0, "is_reserved": 0, "type": "electric_scooter", "name": "a20a523efb9e56efbf5aaca0c5bf1199", "lon": -77.04323083333334, "rental_uris": {"android": "https://dc.lft.to/lastmile_qr_scan", "ios": "https://dc.lft.to/lastmile_qr_scan"}, "fusion_lat": 0.0}, {"is_disabled": 0, "lat": 38.90559716666667, "bike_id": "c1eaea1435fb01e9a258b5aecff5d055", "fusion_lon": 0.0, "is_reserved": 0, "type": "electric_bike", "name": "c1eaea1435fb01e9a258b5aecff5d055", "lon": -76.997896, "rental_uris": {"android": "https://dc.lft.to/lastmile_qr_scan", "ios": "https://dc.lft.to/lastmile_qr_scan"}, "fusion_lat": 0.0}, {"is_disabled": 0, "lat": 38.92983916666667, "bike_id": "212d8ecb796a4d14ed16d657c1a36bf6", "fusion_lon": 0.0, "is_reserved": 0, "type": "electric_scooter", "name": "212d8ecb796a4d14ed16d657c1a36bf6", "lon": -77.02526216666666, "rental_uris": {"android": "https://dc.lft.to/lastmile_qr_scan", "ios": "https://dc.lft.to/lastmile_qr_scan"}, "fusion_lat": 0.0}, {"is_disabled": 0, "lat": 38.899521166666666, "bike_id": "81f2d292dffbec7b8fb46382f8be7c7c", "fusion_lon": 0.0, "is_reserved": 0, "type": "electric_scooter", "name": "81f2d292dffbec7b8fb46382f8be7c7c", "lon": -77.03175183333333, "rental_uris": {"android": "https://dc.lft.to/lastmile_qr_scan", "ios": "https://dc.lft.to/lastmile_qr_scan"}, "fusion_lat": 0.0}, {"is_disabled": 0, "lat": 38.923681333333334, "bike_id": "86cf46b0d121d2f34db33d961cc2e139", "fusion_lon": 0.0, "is_reserved": 0, "type": "electric_scooter", "name": "86cf46b0d121d2f34db33d961cc2e139", "lon": -77.00384733333334, "rental_uris": {"android": "https://dc.lft.to/lastmile_qr_scan", "ios": "https://dc.lft.to/lastmile_qr_scan"}, "fusion_lat": 0.0}, {"is_disabled": 0, "lat": 38.904135, "bike_id": "8056be705cabb942233181c8a895d055", "fusion_lon": 0.0, "is_reserved": 0, "type": "electric_scooter", "name": "8056be705cabb942233181c8a895d055", "lon": -76.9733165, "rental_uris": {"android": "https://dc.lft.to/lastmile_qr_scan", "ios": "https://dc.lft.to/lastmile_qr_scan"}, "fusion_lat": 0.0}, {"is_disabled": 0, "lat": 38.9237565, "bike_id": "75ca9a1f6fe447dad7664533fe456790", "fusion_lon": 0.0, "is_reserved": 0, "type": "electric_scooter", "name": "75ca9a1f6fe447dad7664533fe456790", "lon": -77.05035133333334, "rental_uris": {"android": "https://dc.lft.to/lastmile_qr_scan", "ios": "https://dc.lft.to/lastmile_qr_scan"}, "fusion_lat": 0.0}, {"is_disabled": 0, "lat": 38.958317, "bike_id": "6bf55a6b4202bb99e00149a0ad71647d", "fusion_lon": 0.0, "is_reserved": 0, "type": "electric_scooter", "name": "6bf55a6b4202bb99e00149a0ad71647d", "lon": -77.02407966666667, "rental_uris": {"android": "https://dc.lft.to/lastmile_qr_scan", "ios": "https://dc.lft.to/lastmile_qr_scan"}, "fusion_lat": 0.0}, {"is_disabled": 0, "lat": 38.90395216666667, "bike_id": "ede3894bae6d99fcaca5e24ab7a075b2", "fusion_lon": 0.0, "is_reserved": 0, "type": "electric_scooter", "name": "ede3894bae6d99fcaca5e24ab7a075b2", "lon": -77.02411316666667, "rental_uris": {"android": "https://dc.lft.to/lastmile_qr_scan", "ios": "https://dc.lft.to/lastmile_qr_scan"}, "fusion_lat": 0.0}, {"is_disabled": 0, "lat": 38.906803833333335, "bike_id": "069aa305844b9c30d03b2769bc6090f3", "fusion_lon": 0.0, "is_reserved": 0, "type": "electric_scooter", "name": "069aa305844b9c30d03b2769bc6090f3", "lon": -77.06731983333333, "rental_uris": {"android": "https://dc.lft.to/lastmile_qr_scan", "ios": "https://dc.lft.to/lastmile_qr_scan"}, "fusion_lat": 0.0}, {"is_disabled": 0, "lat": 38.889902166666666, "bike_id": "8d4f6b76d54ea3a09297fa0db66a91c5", "fusion_lon": 0.0, "is_reserved": 0, "type": "electric_scooter", "name": "8d4f6b76d54ea3a09297fa0db66a91c5", "lon": -76.99174866666667, "rental_uris": {"android": "https://dc.lft.to/lastmile_qr_scan", "ios": "https://dc.lft.to/lastmile_qr_scan"}, "fusion_lat": 0.0}, {"is_disabled": 0, "lat": 38.89607433333333, "bike_id": "4e6ca1641bbbb7d7fbdde0b75db9f2f9", "fusion_lon": 0.0, "is_reserved": 0, "type": "electric_scooter", "name": "4e6ca1641bbbb7d7fbdde0b75db9f2f9", "lon": -77.04988183333333, "rental_uris": {"android": "https://dc.lft.to/lastmile_qr_scan", "ios": "https://dc.lft.to/lastmile_qr_scan"}, "fusion_lat": 0.0}, {"is_disabled": 0, "lat": 38.98823616666667, "bike_id": "fdcb490656db27685cbcc8a07156aaf0", "fusion_lon": 0.0, "is_reserved": 0, "type": "electric_bike", "name": "fdcb490656db27685cbcc8a07156aaf0", "lon": -76.99647883333333, "rental_uris": {"android": "https://dc.lft.to/lastmile_qr_scan", "ios": "https://dc.lft.to/lastmile_qr_scan"}, "fusion_lat": 0.0}, {"is_disabled": 0, "lat": 38.927100333333335, "bike_id": "3203e38c92666f8aa1ee377654253a40", "fusion_lon": 0.0, "is_reserved": 0, "type": "electric_scooter", "name": "3203e38c92666f8aa1ee377654253a40", "lon": -77.02327116666666, "rental_uris": {"android": "https://dc.lft.to/lastmile_qr_scan", "ios": "https://dc.lft.to/lastmile_qr_scan"}, "fusion_lat": 0.0}, {"is_disabled": 0, "lat": 38.904477, "bike_id": "fd0feccdd55eb183da6f9e1d02dde7c2", "fusion_lon": 0.0, "is_reserved": 0, "type": "electric_scooter", "name": "fd0feccdd55eb183da6f9e1d02dde7c2", "lon": -77.04783083333334, "rental_uris": {"android": "https://dc.lft.to/lastmile_qr_scan", "ios": "https://dc.lft.to/lastmile_qr_scan"}, "fusion_lat": 0.0}, {"is_disabled": 0, "lat": 38.92866716666666, "bike_id": "62af71e3860feddc9cfc31725e3ecc9c", "fusion_lon": 0.0, "is_reserved": 0, "type": "electric_scooter", "name": "62af71e3860feddc9cfc31725e3ecc9c", "lon": -77.033353, "rental_uris": {"android": "https://dc.lft.to/lastmile_qr_scan", "ios": "https://dc.lft.to/lastmile_qr_scan"}, "fusion_lat": 0.0}, {"is_disabled": 0, "lat": 38.905290666666666, "bike_id": "baf808c5279c13039f68f075495364a3", "fusion_lon": 0.0, "is_reserved": 0, "type": "electric_scooter", "name": "baf808c5279c13039f68f075495364a3", "lon": -77.0473155, "rental_uris": {"android": "https://dc.lft.to/lastmile_qr_scan", "ios": "https://dc.lft.to/lastmile_qr_scan"}, "fusion_lat": 0.0}, {"is_disabled": 0, "lat": 38.887147666666664, "bike_id": "fd9f68e93fdc68780a150a2cc5249f90", "fusion_lon": 0.0, "is_reserved": 0, "type": "electric_scooter", "name": "fd9f68e93fdc68780a150a2cc5249f90", "lon": -77.01774983333334, "rental_uris": {"android": "https://dc.lft.to/lastmile_qr_scan", "ios": "https://dc.lft.to/lastmile_qr_scan"}, "fusion_lat": 0.0}, {"is_disabled": 0, "lat": 38.916962, "bike_id": "7726cec56b0725eedb0af6cce67446e5", "fusion_lon": 0.0, "is_reserved": 0, "type": "electric_scooter", "name": "7726cec56b0725eedb0af6cce67446e5", "lon": -77.0377265, "rental_uris": {"android": "https://dc.lft.to/lastmile_qr_scan", "ios": "https://dc.lft.to/lastmile_qr_scan"}, "fusion_lat": 0.0}, {"is_disabled": 0, "lat": 38.8979555, "bike_id": "a49592d227649eec6177705fa9258f4c", "fusion_lon": 0.0, "is_reserved": 0, "type": "electric_scooter", "name": "a49592d227649eec6177705fa9258f4c", "lon": -77.05476766666666, "rental_uris": {"android": "https://dc.lft.to/lastmile_qr_scan", "ios": "https://dc.lft.to/lastmile_qr_scan"}, "fusion_lat": 0.0}, {"is_disabled": 0, "lat": 38.9081485, "bike_id": "710babd3ee10aaae99652f65f73f475c", "fusion_lon": 0.0, "is_reserved": 0, "type": "electric_scooter", "name": "710babd3ee10aaae99652f65f73f475c", "lon": -77.03837333333334, "rental_uris": {"android": "https://dc.lft.to/lastmile_qr_scan", "ios": "https://dc.lft.to/lastmile_qr_scan"}, "fusion_lat": 0.0}, {"is_disabled": 0, "lat": 38.900452666666666, "bike_id": "755999f81e230f13721806f68489b94a", "fusion_lon": 0.0, "is_reserved": 0, "type": "electric_scooter", "name": "755999f81e230f13721806f68489b94a", "lon": -77.007789, "rental_uris": {"android": "https://dc.lft.to/lastmile_qr_scan", "ios": "https://dc.lft.to/lastmile_qr_scan"}, "fusion_lat": 0.0}, {"is_disabled": 0, "lat": 38.9172505, "bike_id": "387a019e16c994515bb7257881532c5b", "fusion_lon": 0.0, "is_reserved": 0, "type": "electric_scooter", "name": "387a019e16c994515bb7257881532c5b", "lon": -77.03621683333333, "rental_uris": {"android": "https://dc.lft.to/lastmile_qr_scan", "ios": "https://dc.lft.to/lastmile_qr_scan"}, "fusion_lat": 0.0}, {"is_disabled": 0, "lat": 38.88043716666667, "bike_id": "8cb3ca450e57f963cb172d56f166a5c2", "fusion_lon": 0.0, "is_reserved": 0, "type": "electric_bike", "name": "8cb3ca450e57f963cb172d56f166a5c2", "lon": -77.02522233333333, "rental_uris": {"android": "https://dc.lft.to/lastmile_qr_scan", "ios": "https://dc.lft.to/lastmile_qr_scan"}, "fusion_lat": 0.0}, {"is_disabled": 0, "lat": 38.90250266666666, "bike_id": "0978adebb88331c86b9ce4825ee16e8b", "fusion_lon": 0.0, "is_reserved": 0, "type": "electric_scooter", "name": "0978adebb88331c86b9ce4825ee16e8b", "lon": -77.01932333333333, "rental_uris": {"android": "https://dc.lft.to/lastmile_qr_scan", "ios": "https://dc.lft.to/lastmile_qr_scan"}, "fusion_lat": 0.0}, {"is_disabled": 0, "lat": 38.915349, "bike_id": "d84d14d0d3a8f0582e84c54a1fcab75b", "fusion_lon": 0.0, "is_reserved": 0, "type": "electric_scooter", "name": "d84d14d0d3a8f0582e84c54a1fcab75b", "lon": -77.04613533333334, "rental_uris": {"android": "https://dc.lft.to/lastmile_qr_scan", "ios": "https://dc.lft.to/lastmile_qr_scan"}, "fusion_lat": 0.0}, {"is_disabled": 0, "lat": 38.920263166666665, "bike_id": "98b7bd4e1079dc7712df79926ce2e6fd", "fusion_lon": 0.0, "is_reserved": 0, "type": "electric_scooter", "name": "98b7bd4e1079dc7712df79926ce2e6fd", "lon": -77.0257455, "rental_uris": {"android": "https://dc.lft.to/lastmile_qr_scan", "ios": "https://dc.lft.to/lastmile_qr_scan"}, "fusion_lat": 0.0}, {"is_disabled": 0, "lat": 38.925102333333335, "bike_id": "d963d43484b27193e815cb6238150f48", "fusion_lon": 0.0, "is_reserved": 0, "type": "electric_scooter", "name": "d963d43484b27193e815cb6238150f48", "lon": -77.04110416666667, "rental_uris": {"android": "https://dc.lft.to/lastmile_qr_scan", "ios": "https://dc.lft.to/lastmile_qr_scan"}, "fusion_lat": 0.0}, {"is_disabled": 0, "lat": 39.074958333333335, "bike_id": "5ea7bc30f242022a636dcbf4d6f789e8", "fusion_lon": 0.0, "is_reserved": 0, "type": "electric_bike", "name": "5ea7bc30f242022a636dcbf4d6f789e8", "lon": -77.11591583333333, "rental_uris": {"android": "https://dc.lft.to/lastmile_qr_scan", "ios": "https://dc.lft.to/lastmile_qr_scan"}, "fusion_lat": 0.0}, {"is_disabled": 0, "lat": 38.93969383333334, "bike_id": "671943877e8ace4697fe80b4e9fbd5a1", "fusion_lon": 0.0, "is_reserved": 0, "type": "electric_bike", "name": "671943877e8ace4697fe80b4e9fbd5a1", "lon": -77.03762316666666, "rental_uris": {"android": "https://dc.lft.to/lastmile_qr_scan", "ios": "https://dc.lft.to/lastmile_qr_scan"}, "fusion_lat": 0.0}, {"is_disabled": 0, "lat": 38.91422766666667, "bike_id": "3f612ea60f32a1eb33374a05ba5cc1f2", "fusion_lon": 0.0, "is_reserved": 0, "type": "electric_scooter", "name": "3f612ea60f32a1eb33374a05ba5cc1f2", "lon": -77.02203883333334, "rental_uris": {"android": "https://dc.lft.to/lastmile_qr_scan", "ios": "https://dc.lft.to/lastmile_qr_scan"}, "fusion_lat": 0.0}, {"is_disabled": 0, "lat": 38.89969516666667, "bike_id": "4fc9e9f081cdbe3e4b6ea7b18c66f47c", "fusion_lon": 0.0, "is_reserved": 0, "type": "electric_scooter", "name": "4fc9e9f081cdbe3e4b6ea7b18c66f47c", "lon": -77.02345516666666, "rental_uris": {"android": "https://dc.lft.to/lastmile_qr_scan", "ios": "https://dc.lft.to/lastmile_qr_scan"}, "fusion_lat": 0.0}, {"is_disabled": 0, "lat": 38.9173205, "bike_id": "b213d9b07d0b0467da000e648998e4a5", "fusion_lon": 0.0, "is_reserved": 0, "type": "electric_scooter", "name": "b213d9b07d0b0467da000e648998e4a5", "lon": -77.00048866666667, "rental_uris": {"android": "https://dc.lft.to/lastmile_qr_scan", "ios": "https://dc.lft.to/lastmile_qr_scan"}, "fusion_lat": 0.0}, {"is_disabled": 0, "lat": 38.91996266666666, "bike_id": "a105cda71f09ca11d8fa8de5425bc838", "fusion_lon": 0.0, "is_reserved": 0, "type": "electric_scooter", "name": "a105cda71f09ca11d8fa8de5425bc838", "lon": -77.02376766666667, "rental_uris": {"android": "https://dc.lft.to/lastmile_qr_scan", "ios": "https://dc.lft.to/lastmile_qr_scan"}, "fusion_lat": 0.0}, {"is_disabled": 0, "lat": 38.9167285, "bike_id": "ecc3312ef14625b3a8ae5a4dc9937e0a", "fusion_lon": 0.0, "is_reserved": 0, "type": "electric_scooter", "name": "ecc3312ef14625b3a8ae5a4dc9937e0a", "lon": -77.02956116666667, "rental_uris": {"android": "https://dc.lft.to/lastmile_qr_scan", "ios": "https://dc.lft.to/lastmile_qr_scan"}, "fusion_lat": 0.0}, {"is_disabled": 0, "lat": 38.89749616666667, "bike_id": "5f75535db985ac5c3cd4c8a8fd07b343", "fusion_lon": 0.0, "is_reserved": 0, "type": "electric_scooter", "name": "5f75535db985ac5c3cd4c8a8fd07b343", "lon": -77.04566, "rental_uris": {"android": "https://dc.lft.to/lastmile_qr_scan", "ios": "https://dc.lft.to/lastmile_qr_scan"}, "fusion_lat": 0.0}, {"is_disabled": 0, "lat": 38.90959733333333, "bike_id": "d45cebdee7238f9036f1d3fce0aa3e84", "fusion_lon": 0.0, "is_reserved": 0, "type": "electric_scooter", "name": "d45cebdee7238f9036f1d3fce0aa3e84", "lon": -77.03177783333334, "rental_uris": {"android": "https://dc.lft.to/lastmile_qr_scan", "ios": "https://dc.lft.to/lastmile_qr_scan"}, "fusion_lat": 0.0}, {"is_disabled": 0, "lat": 38.907514, "bike_id": "0ebf81c4072cf631591cf8281e851166", "fusion_lon": 0.0, "is_reserved": 0, "type": "electric_scooter", "name": "0ebf81c4072cf631591cf8281e851166", "lon": -77.02600383333333, "rental_uris": {"android": "https://dc.lft.to/lastmile_qr_scan", "ios": "https://dc.lft.to/lastmile_qr_scan"}, "fusion_lat": 0.0}, {"is_disabled": 0, "lat": 38.92048116666667, "bike_id": "3d4d4de876650b60baefe55535460fcb", "fusion_lon": 0.0, "is_reserved": 0, "type": "electric_scooter", "name": "3d4d4de876650b60baefe55535460fcb", "lon": -77.024443, "rental_uris": {"android": "https://dc.lft.to/lastmile_qr_scan", "ios": "https://dc.lft.to/lastmile_qr_scan"}, "fusion_lat": 0.0}, {"is_disabled": 0, "lat": 38.90118833333333, "bike_id": "2ea3a467e918c43bdea4e24b93f6a499", "fusion_lon": 0.0, "is_reserved": 0, "type": "electric_scooter", "name": "2ea3a467e918c43bdea4e24b93f6a499", "lon": -76.99142133333334, "rental_uris": {"android": "https://dc.lft.to/lastmile_qr_scan", "ios": "https://dc.lft.to/lastmile_qr_scan"}, "fusion_lat": 0.0}, {"is_disabled": 0, "lat": 38.902878666666666, "bike_id": "dd02d5aebda8ba440566ccb2d0bc23c5", "fusion_lon": 0.0, "is_reserved": 0, "type": "electric_scooter", "name": "dd02d5aebda8ba440566ccb2d0bc23c5", "lon": -77.03258433333333, "rental_uris": {"android": "https://dc.lft.to/lastmile_qr_scan", "ios": "https://dc.lft.to/lastmile_qr_scan"}, "fusion_lat": 0.0}, {"is_disabled": 0, "lat": 38.897312166666666, "bike_id": "a837dc339f2eaad4a00ac1f44721bd60", "fusion_lon": 0.0, "is_reserved": 0, "type": "electric_scooter", "name": "a837dc339f2eaad4a00ac1f44721bd60", "lon": -77.04991566666666, "rental_uris": {"android": "https://dc.lft.to/lastmile_qr_scan", "ios": "https://dc.lft.to/lastmile_qr_scan"}, "fusion_lat": 0.0}, {"is_disabled": 0, "lat": 38.89484233333334, "bike_id": "7e36d45f9a588ec939482313b53bd25f", "fusion_lon": 0.0, "is_reserved": 0, "type": "electric_scooter", "name": "7e36d45f9a588ec939482313b53bd25f", "lon": -77.075123, "rental_uris": {"android": "https://dc.lft.to/lastmile_qr_scan", "ios": "https://dc.lft.to/lastmile_qr_scan"}, "fusion_lat": 0.0}, {"is_disabled": 0, "lat": 38.905719, "bike_id": "48feed829af7bddce2e2b4761f71c8b1", "fusion_lon": 0.0, "is_reserved": 0, "type": "electric_scooter", "name": "48feed829af7bddce2e2b4761f71c8b1", "lon": -76.97629716666667, "rental_uris": {"android": "https://dc.lft.to/lastmile_qr_scan", "ios": "https://dc.lft.to/lastmile_qr_scan"}, "fusion_lat": 0.0}, {"is_disabled": 0, "lat": 38.915232, "bike_id": "9f45d7a0f49eb64e774ffdc1ec6ffdf4", "fusion_lon": 0.0, "is_reserved": 0, "type": "electric_scooter", "name": "9f45d7a0f49eb64e774ffdc1ec6ffdf4", "lon": -77.02388366666666, "rental_uris": {"android": "https://dc.lft.to/lastmile_qr_scan", "ios": "https://dc.lft.to/lastmile_qr_scan"}, "fusion_lat": 0.0}, {"is_disabled": 0, "lat": 38.9561695, "bike_id": "52e1e272a597bfb6dcb4e48681666255", "fusion_lon": 0.0, "is_reserved": 0, "type": "electric_scooter", "name": "52e1e272a597bfb6dcb4e48681666255", "lon": -77.03307383333333, "rental_uris": {"android": "https://dc.lft.to/lastmile_qr_scan", "ios": "https://dc.lft.to/lastmile_qr_scan"}, "fusion_lat": 0.0}, {"is_disabled": 0, "lat": 39.05635633333333, "bike_id": "7306dff1c91777463a03f344537426d6", "fusion_lon": 0.0, "is_reserved": 0, "type": "electric_bike", "name": "7306dff1c91777463a03f344537426d6", "lon": -77.12526033333333, "rental_uris": {"android": "https://dc.lft.to/lastmile_qr_scan", "ios": "https://dc.lft.to/lastmile_qr_scan"}, "fusion_lat": 0.0}, {"is_disabled": 0, "lat": 38.90965666666666, "bike_id": "ab81f21383c15f573ff612681f4ef9b5", "fusion_lon": 0.0, "is_reserved": 0, "type": "electric_scooter", "name": "ab81f21383c15f573ff612681f4ef9b5", "lon": -77.032523, "rental_uris": {"android": "https://dc.lft.to/lastmile_qr_scan", "ios": "https://dc.lft.to/lastmile_qr_scan"}, "fusion_lat": 0.0}, {"is_disabled": 0, "lat": 38.873953666666665, "bike_id": "de4c42be9e4abab47008095904a3f397", "fusion_lon": 0.0, "is_reserved": 0, "type": "electric_scooter", "name": "de4c42be9e4abab47008095904a3f397", "lon": -77.00029216666667, "rental_uris": {"android": "https://dc.lft.to/lastmile_qr_scan", "ios": "https://dc.lft.to/lastmile_qr_scan"}, "fusion_lat": 0.0}, {"is_disabled": 0, "lat": 38.896091166666665, "bike_id": "da2dbe2ef2d0511fba771b8c7b1bb380", "fusion_lon": 0.0, "is_reserved": 0, "type": "electric_scooter", "name": "da2dbe2ef2d0511fba771b8c7b1bb380", "lon": -77.009265, "rental_uris": {"android": "https://dc.lft.to/lastmile_qr_scan", "ios": "https://dc.lft.to/lastmile_qr_scan"}, "fusion_lat": 0.0}, {"is_disabled": 0, "lat": 38.924136, "bike_id": "03a9f9e5bf85330b7d668b7a3752dd67", "fusion_lon": 0.0, "is_reserved": 0, "type": "electric_scooter", "name": "03a9f9e5bf85330b7d668b7a3752dd67", "lon": -77.02009216666667, "rental_uris": {"android": "https://dc.lft.to/lastmile_qr_scan", "ios": "https://dc.lft.to/lastmile_qr_scan"}, "fusion_lat": 0.0}, {"is_disabled": 0, "lat": 38.840879, "bike_id": "c419ba15e82b250d4381b6c5e184ba85", "fusion_lon": 0.0, "is_reserved": 0, "type": "electric_bike", "name": "c419ba15e82b250d4381b6c5e184ba85", "lon": -77.07698616666667, "rental_uris": {"android": "https://dc.lft.to/lastmile_qr_scan", "ios": "https://dc.lft.to/lastmile_qr_scan"}, "fusion_lat": 0.0}, {"is_disabled": 0, "lat": 38.918007833333334, "bike_id": "611af703a0712a0e068c60494659e05f", "fusion_lon": 0.0, "is_reserved": 0, "type": "electric_scooter", "name": "611af703a0712a0e068c60494659e05f", "lon": -77.031954, "rental_uris": {"android": "https://dc.lft.to/lastmile_qr_scan", "ios": "https://dc.lft.to/lastmile_qr_scan"}, "fusion_lat": 0.0}, {"is_disabled": 0, "lat": 38.92048466666667, "bike_id": "1ef1e49a42851a8a95fa84a524e5b525", "fusion_lon": 0.0, "is_reserved": 0, "type": "electric_scooter", "name": "1ef1e49a42851a8a95fa84a524e5b525", "lon": -77.03002366666666, "rental_uris": {"android": "https://dc.lft.to/lastmile_qr_scan", "ios": "https://dc.lft.to/lastmile_qr_scan"}, "fusion_lat": 0.0}, {"is_disabled": 0, "lat": 38.878325, "bike_id": "9d3b61e6c5c1d7ee80f266f0a73f4437", "fusion_lon": 0.0, "is_reserved": 0, "type": "electric_scooter", "name": "9d3b61e6c5c1d7ee80f266f0a73f4437", "lon": -76.99496566666667, "rental_uris": {"android": "https://dc.lft.to/lastmile_qr_scan", "ios": "https://dc.lft.to/lastmile_qr_scan"}, "fusion_lat": 0.0}, {"is_disabled": 0, "lat": 38.91282183333333, "bike_id": "9b981c743cf236f8eac3c179f303752e", "fusion_lon": 0.0, "is_reserved": 0, "type": "electric_scooter", "name": "9b981c743cf236f8eac3c179f303752e", "lon": -77.01751066666667, "rental_uris": {"android": "https://dc.lft.to/lastmile_qr_scan", "ios": "https://dc.lft.to/lastmile_qr_scan"}, "fusion_lat": 0.0}, {"is_disabled": 0, "lat": 38.9075415, "bike_id": "bac7f80da0f71668966c8cc591b9c8d1", "fusion_lon": 0.0, "is_reserved": 0, "type": "electric_scooter", "name": "bac7f80da0f71668966c8cc591b9c8d1", "lon": -76.998791, "rental_uris": {"android": "https://dc.lft.to/lastmile_qr_scan", "ios": "https://dc.lft.to/lastmile_qr_scan"}, "fusion_lat": 0.0}, {"is_disabled": 0, "lat": 38.91553783333333, "bike_id": "e145daa08f5dd98c4b1f7e861b71a4ec", "fusion_lon": 0.0, "is_reserved": 0, "type": "electric_scooter", "name": "e145daa08f5dd98c4b1f7e861b71a4ec", "lon": -77.05316583333334, "rental_uris": {"android": "https://dc.lft.to/lastmile_qr_scan", "ios": "https://dc.lft.to/lastmile_qr_scan"}, "fusion_lat": 0.0}, {"is_disabled": 0, "lat": 38.89224166666666, "bike_id": "6c829f30eb9adaee6fd9c7cc0d3e9c9f", "fusion_lon": 0.0, "is_reserved": 0, "type": "electric_scooter", "name": "6c829f30eb9adaee6fd9c7cc0d3e9c9f", "lon": -77.04327683333334, "rental_uris": {"android": "https://dc.lft.to/lastmile_qr_scan", "ios": "https://dc.lft.to/lastmile_qr_scan"}, "fusion_lat": 0.0}, {"is_disabled": 0, "lat": 38.884310166666666, "bike_id": "75cd3a01a06ef48a5cbe0c4e8473117c", "fusion_lon": 0.0, "is_reserved": 0, "type": "electric_scooter", "name": "75cd3a01a06ef48a5cbe0c4e8473117c", "lon": -76.957571, "rental_uris": {"android": "https://dc.lft.to/lastmile_qr_scan", "ios": "https://dc.lft.to/lastmile_qr_scan"}, "fusion_lat": 0.0}, {"is_disabled": 0, "lat": 38.894713833333334, "bike_id": "afd9b0f7c4031d1b1b1c30376f39bf24", "fusion_lon": 0.0, "is_reserved": 0, "type": "electric_scooter", "name": "afd9b0f7c4031d1b1b1c30376f39bf24", "lon": -77.0113115, "rental_uris": {"android": "https://dc.lft.to/lastmile_qr_scan", "ios": "https://dc.lft.to/lastmile_qr_scan"}, "fusion_lat": 0.0}, {"is_disabled": 0, "lat": 38.91693, "bike_id": "7f794c1f71d1be4a51f18770c484e240", "fusion_lon": 0.0, "is_reserved": 0, "type": "electric_scooter", "name": "7f794c1f71d1be4a51f18770c484e240", "lon": -77.02715916666666, "rental_uris": {"android": "https://dc.lft.to/lastmile_qr_scan", "ios": "https://dc.lft.to/lastmile_qr_scan"}, "fusion_lat": 0.0}, {"is_disabled": 0, "lat": 38.918207833333334, "bike_id": "b52410a75142fec5b7fe3568204c4605", "fusion_lon": 0.0, "is_reserved": 0, "type": "electric_scooter", "name": "b52410a75142fec5b7fe3568204c4605", "lon": -77.03999033333334, "rental_uris": {"android": "https://dc.lft.to/lastmile_qr_scan", "ios": "https://dc.lft.to/lastmile_qr_scan"}, "fusion_lat": 0.0}, {"is_disabled": 0, "lat": 38.9167275, "bike_id": "d3469145844d9b78a85a46d5744e687e", "fusion_lon": 0.0, "is_reserved": 0, "type": "electric_scooter", "name": "d3469145844d9b78a85a46d5744e687e", "lon": -77.029488, "rental_uris": {"android": "https://dc.lft.to/lastmile_qr_scan", "ios": "https://dc.lft.to/lastmile_qr_scan"}, "fusion_lat": 0.0}, {"is_disabled": 0, "lat": 38.864594833333335, "bike_id": "8f83cc018ff8c73a355f8b3197605b14", "fusion_lon": 0.0, "is_reserved": 0, "type": "electric_scooter", "name": "8f83cc018ff8c73a355f8b3197605b14", "lon": -76.97640733333333, "rental_uris": {"android": "https://dc.lft.to/lastmile_qr_scan", "ios": "https://dc.lft.to/lastmile_qr_scan"}, "fusion_lat": 0.0}, {"is_disabled": 0, "lat": 38.975656666666666, "bike_id": "8ce02a54a05a50320dc98026f51d31c7", "fusion_lon": 0.0, "is_reserved": 0, "type": "electric_scooter", "name": "8ce02a54a05a50320dc98026f51d31c7", "lon": -77.02653583333333, "rental_uris": {"android": "https://dc.lft.to/lastmile_qr_scan", "ios": "https://dc.lft.to/lastmile_qr_scan"}, "fusion_lat": 0.0}, {"is_disabled": 0, "lat": 38.90139333333333, "bike_id": "499ca198d9af92c187ab880f54057cb1", "fusion_lon": 0.0, "is_reserved": 0, "type": "electric_scooter", "name": "499ca198d9af92c187ab880f54057cb1", "lon": -77.0131285, "rental_uris": {"android": "https://dc.lft.to/lastmile_qr_scan", "ios": "https://dc.lft.to/lastmile_qr_scan"}, "fusion_lat": 0.0}, {"is_disabled": 0, "lat": 38.91257783333333, "bike_id": "9d744a4dade25cb354e44cc11c4f898b", "fusion_lon": 0.0, "is_reserved": 0, "type": "electric_scooter", "name": "9d744a4dade25cb354e44cc11c4f898b", "lon": -77.03946433333333, "rental_uris": {"android": "https://dc.lft.to/lastmile_qr_scan", "ios": "https://dc.lft.to/lastmile_qr_scan"}, "fusion_lat": 0.0}, {"is_disabled": 0, "lat": 38.9006955, "bike_id": "4a548b17c17dbe3e8e917a51731df9d0", "fusion_lon": 0.0, "is_reserved": 0, "type": "electric_scooter", "name": "4a548b17c17dbe3e8e917a51731df9d0", "lon": -76.93637183333334, "rental_uris": {"android": "https://dc.lft.to/lastmile_qr_scan", "ios": "https://dc.lft.to/lastmile_qr_scan"}, "fusion_lat": 0.0}, {"is_disabled": 0, "lat": 38.880125666666665, "bike_id": "072c06266ee6aa9ec06e2306f4558a10", "fusion_lon": 0.0, "is_reserved": 0, "type": "electric_scooter", "name": "072c06266ee6aa9ec06e2306f4558a10", "lon": -76.995074, "rental_uris": {"android": "https://dc.lft.to/lastmile_qr_scan", "ios": "https://dc.lft.to/lastmile_qr_scan"}, "fusion_lat": 0.0}, {"is_disabled": 0, "lat": 38.907368, "bike_id": "b8f63a7f73647235f0b7eff6bf4deb7d", "fusion_lon": 0.0, "is_reserved": 0, "type": "electric_scooter", "name": "b8f63a7f73647235f0b7eff6bf4deb7d", "lon": -77.046764, "rental_uris": {"android": "https://dc.lft.to/lastmile_qr_scan", "ios": "https://dc.lft.to/lastmile_qr_scan"}, "fusion_lat": 0.0}, {"is_disabled": 0, "lat": 38.91106083333333, "bike_id": "b282fb9ce410770c7dc42e55dd177c17", "fusion_lon": 0.0, "is_reserved": 0, "type": "electric_scooter", "name": "b282fb9ce410770c7dc42e55dd177c17", "lon": -77.00363883333333, "rental_uris": {"android": "https://dc.lft.to/lastmile_qr_scan", "ios": "https://dc.lft.to/lastmile_qr_scan"}, "fusion_lat": 0.0}, {"is_disabled": 0, "lat": 38.8934, "bike_id": "6bf8c88ee3a7e4445b6cb648b839550d", "fusion_lon": 0.0, "is_reserved": 0, "type": "electric_scooter", "name": "6bf8c88ee3a7e4445b6cb648b839550d", "lon": -76.94937516666667, "rental_uris": {"android": "https://dc.lft.to/lastmile_qr_scan", "ios": "https://dc.lft.to/lastmile_qr_scan"}, "fusion_lat": 0.0}, {"is_disabled": 0, "lat": 38.92547, "bike_id": "b22e4fecbff3257f5d9b1588b8e92189", "fusion_lon": 0.0, "is_reserved": 0, "type": "electric_bike", "name": "b22e4fecbff3257f5d9b1588b8e92189", "lon": -77.07884466666667, "rental_uris": {"android": "https://dc.lft.to/lastmile_qr_scan", "ios": "https://dc.lft.to/lastmile_qr_scan"}, "fusion_lat": 0.0}, {"is_disabled": 0, "lat": 38.90431016666667, "bike_id": "804a3cf7c780fbbc199e5d42bd266e93", "fusion_lon": 0.0, "is_reserved": 0, "type": "electric_scooter", "name": "804a3cf7c780fbbc199e5d42bd266e93", "lon": -77.03829066666667, "rental_uris": {"android": "https://dc.lft.to/lastmile_qr_scan", "ios": "https://dc.lft.to/lastmile_qr_scan"}, "fusion_lat": 0.0}, {"is_disabled": 0, "lat": 38.90237716666667, "bike_id": "ab0a6fc61849df7653e03815e497e8cc", "fusion_lon": 0.0, "is_reserved": 0, "type": "electric_scooter", "name": "ab0a6fc61849df7653e03815e497e8cc", "lon": -77.00196716666666, "rental_uris": {"android": "https://dc.lft.to/lastmile_qr_scan", "ios": "https://dc.lft.to/lastmile_qr_scan"}, "fusion_lat": 0.0}, {"is_disabled": 0, "lat": 38.907460666666665, "bike_id": "c94f3053125d6320379f8b5e889b1e34", "fusion_lon": 0.0, "is_reserved": 0, "type": "electric_scooter", "name": "c94f3053125d6320379f8b5e889b1e34", "lon": -77.042281, "rental_uris": {"android": "https://dc.lft.to/lastmile_qr_scan", "ios": "https://dc.lft.to/lastmile_qr_scan"}, "fusion_lat": 0.0}, {"is_disabled": 0, "lat": 38.91616883333333, "bike_id": "c0b2494f9b6981840e8ed378bbb21d3d", "fusion_lon": 0.0, "is_reserved": 0, "type": "electric_scooter", "name": "c0b2494f9b6981840e8ed378bbb21d3d", "lon": -77.03642533333333, "rental_uris": {"android": "https://dc.lft.to/lastmile_qr_scan", "ios": "https://dc.lft.to/lastmile_qr_scan"}, "fusion_lat": 0.0}, {"is_disabled": 0, "lat": 38.89654566666667, "bike_id": "de97d277847a34633caf892e1e793e3e", "fusion_lon": 0.0, "is_reserved": 0, "type": "electric_bike", "name": "de97d277847a34633caf892e1e793e3e", "lon": -76.93003466666667, "rental_uris": {"android": "https://dc.lft.to/lastmile_qr_scan", "ios": "https://dc.lft.to/lastmile_qr_scan"}, "fusion_lat": 0.0}, {"is_disabled": 0, "lat": 38.88616233333333, "bike_id": "4d8d8af7bb263de9964b00c319fee0d9", "fusion_lon": 0.0, "is_reserved": 0, "type": "electric_scooter", "name": "4d8d8af7bb263de9964b00c319fee0d9", "lon": -77.00347683333334, "rental_uris": {"android": "https://dc.lft.to/lastmile_qr_scan", "ios": "https://dc.lft.to/lastmile_qr_scan"}, "fusion_lat": 0.0}, {"is_disabled": 0, "lat": 38.90924833333333, "bike_id": "1d7aba1047125026befee9da6f2a2278", "fusion_lon": 0.0, "is_reserved": 0, "type": "electric_scooter", "name": "1d7aba1047125026befee9da6f2a2278", "lon": -77.00573533333333, "rental_uris": {"android": "https://dc.lft.to/lastmile_qr_scan", "ios": "https://dc.lft.to/lastmile_qr_scan"}, "fusion_lat": 0.0}, {"is_disabled": 0, "lat": 38.90506833333333, "bike_id": "331a56167d43c7e5b13a9880b65ea2e7", "fusion_lon": 0.0, "is_reserved": 0, "type": "electric_scooter", "name": "331a56167d43c7e5b13a9880b65ea2e7", "lon": -77.05148016666666, "rental_uris": {"android": "https://dc.lft.to/lastmile_qr_scan", "ios": "https://dc.lft.to/lastmile_qr_scan"}, "fusion_lat": 0.0}, {"is_disabled": 0, "lat": 38.90266966666667, "bike_id": "f4d6e7db12d5635117c26e4d7d8226c1", "fusion_lon": 0.0, "is_reserved": 0, "type": "electric_scooter", "name": "f4d6e7db12d5635117c26e4d7d8226c1", "lon": -77.028198, "rental_uris": {"android": "https://dc.lft.to/lastmile_qr_scan", "ios": "https://dc.lft.to/lastmile_qr_scan"}, "fusion_lat": 0.0}, {"is_disabled": 0, "lat": 38.917078833333335, "bike_id": "9e55031afe094b187da077feb9985be8", "fusion_lon": 0.0, "is_reserved": 0, "type": "electric_scooter", "name": "9e55031afe094b187da077feb9985be8", "lon": -77.028853, "rental_uris": {"android": "https://dc.lft.to/lastmile_qr_scan", "ios": "https://dc.lft.to/lastmile_qr_scan"}, "fusion_lat": 0.0}, {"is_disabled": 0, "lat": 38.89224683333333, "bike_id": "0bbad2ff3d45a3741192336c1f45cf4a", "fusion_lon": 0.0, "is_reserved": 0, "type": "electric_scooter", "name": "0bbad2ff3d45a3741192336c1f45cf4a", "lon": -77.0432285, "rental_uris": {"android": "https://dc.lft.to/lastmile_qr_scan", "ios": "https://dc.lft.to/lastmile_qr_scan"}, "fusion_lat": 0.0}, {"is_disabled": 0, "lat": 38.92179183333333, "bike_id": "d3190ca0067fea2c6d1ce9de4d5f275a", "fusion_lon": 0.0, "is_reserved": 0, "type": "electric_scooter", "name": "d3190ca0067fea2c6d1ce9de4d5f275a", "lon": -76.99790366666667, "rental_uris": {"android": "https://dc.lft.to/lastmile_qr_scan", "ios": "https://dc.lft.to/lastmile_qr_scan"}, "fusion_lat": 0.0}, {"is_disabled": 0, "lat": 38.90268283333333, "bike_id": "8d27e3ac22ee3b4e0fbc15e4bcac145d", "fusion_lon": 0.0, "is_reserved": 0, "type": "electric_scooter", "name": "8d27e3ac22ee3b4e0fbc15e4bcac145d", "lon": -77.038314, "rental_uris": {"android": "https://dc.lft.to/lastmile_qr_scan", "ios": "https://dc.lft.to/lastmile_qr_scan"}, "fusion_lat": 0.0}, {"is_disabled": 0, "lat": 38.88773583333333, "bike_id": "18ca4c1c975e1089069099d2f0fa0fb0", "fusion_lon": 0.0, "is_reserved": 0, "type": "electric_scooter", "name": "18ca4c1c975e1089069099d2f0fa0fb0", "lon": -76.95532233333333, "rental_uris": {"android": "https://dc.lft.to/lastmile_qr_scan", "ios": "https://dc.lft.to/lastmile_qr_scan"}, "fusion_lat": 0.0}, {"is_disabled": 0, "lat": 38.874784166666664, "bike_id": "ae6fa34e22d85f53fce4d2b3fc376b86", "fusion_lon": 0.0, "is_reserved": 0, "type": "electric_scooter", "name": "ae6fa34e22d85f53fce4d2b3fc376b86", "lon": -77.00480916666666, "rental_uris": {"android": "https://dc.lft.to/lastmile_qr_scan", "ios": "https://dc.lft.to/lastmile_qr_scan"}, "fusion_lat": 0.0}, {"is_disabled": 0, "lat": 38.956423666666666, "bike_id": "b7feecd25dfa981c13faf9d012aa59c0", "fusion_lon": 0.0, "is_reserved": 0, "type": "electric_bike", "name": "b7feecd25dfa981c13faf9d012aa59c0", "lon": -76.9979415, "rental_uris": {"android": "https://dc.lft.to/lastmile_qr_scan", "ios": "https://dc.lft.to/lastmile_qr_scan"}, "fusion_lat": 0.0}, {"is_disabled": 0, "lat": 38.918714, "bike_id": "e15e6088d677c91a423332a4e3897b67", "fusion_lon": 0.0, "is_reserved": 0, "type": "electric_scooter", "name": "e15e6088d677c91a423332a4e3897b67", "lon": -77.03467716666667, "rental_uris": {"android": "https://dc.lft.to/lastmile_qr_scan", "ios": "https://dc.lft.to/lastmile_qr_scan"}, "fusion_lat": 0.0}, {"is_disabled": 0, "lat": 38.8953575, "bike_id": "ae8835e35eb21ff8702c98c8c514cc3c", "fusion_lon": 0.0, "is_reserved": 0, "type": "electric_scooter", "name": "ae8835e35eb21ff8702c98c8c514cc3c", "lon": -77.04927783333333, "rental_uris": {"android": "https://dc.lft.to/lastmile_qr_scan", "ios": "https://dc.lft.to/lastmile_qr_scan"}, "fusion_lat": 0.0}, {"is_disabled": 0, "lat": 38.8946455, "bike_id": "6ef4e0e3bcf3f61bc96432c0b6ad0efe", "fusion_lon": 0.0, "is_reserved": 0, "type": "electric_scooter", "name": "6ef4e0e3bcf3f61bc96432c0b6ad0efe", "lon": -77.001906, "rental_uris": {"android": "https://dc.lft.to/lastmile_qr_scan", "ios": "https://dc.lft.to/lastmile_qr_scan"}, "fusion_lat": 0.0}, {"is_disabled": 0, "lat": 38.852943333333336, "bike_id": "b93e87bfd2033180803751f186b62ffd", "fusion_lon": 0.0, "is_reserved": 0, "type": "electric_bike", "name": "b93e87bfd2033180803751f186b62ffd", "lon": -76.99579066666666, "rental_uris": {"android": "https://dc.lft.to/lastmile_qr_scan", "ios": "https://dc.lft.to/lastmile_qr_scan"}, "fusion_lat": 0.0}, {"is_disabled": 0, "lat": 38.92113033333333, "bike_id": "58c1b3ab45cd25307f83950708f0e22d", "fusion_lon": 0.0, "is_reserved": 0, "type": "electric_bike", "name": "58c1b3ab45cd25307f83950708f0e22d", "lon": -76.980943, "rental_uris": {"android": "https://dc.lft.to/lastmile_qr_scan", "ios": "https://dc.lft.to/lastmile_qr_scan"}, "fusion_lat": 0.0}, {"is_disabled": 0, "lat": 38.902892666666666, "bike_id": "be5d73c28621faebd8a249ea70bbf1ca", "fusion_lon": 0.0, "is_reserved": 0, "type": "electric_scooter", "name": "be5d73c28621faebd8a249ea70bbf1ca", "lon": -77.034454, "rental_uris": {"android": "https://dc.lft.to/lastmile_qr_scan", "ios": "https://dc.lft.to/lastmile_qr_scan"}, "fusion_lat": 0.0}, {"is_disabled": 0, "lat": 38.901588333333336, "bike_id": "3c1dc445743390bde4c82eeaaa635f98", "fusion_lon": 0.0, "is_reserved": 0, "type": "electric_scooter", "name": "3c1dc445743390bde4c82eeaaa635f98", "lon": -77.02004216666667, "rental_uris": {"android": "https://dc.lft.to/lastmile_qr_scan", "ios": "https://dc.lft.to/lastmile_qr_scan"}, "fusion_lat": 0.0}, {"is_disabled": 0, "lat": 38.91837833333334, "bike_id": "899a479cd20a80d6ee9da29d2f72acac", "fusion_lon": 0.0, "is_reserved": 0, "type": "electric_scooter", "name": "899a479cd20a80d6ee9da29d2f72acac", "lon": -76.98939966666667, "rental_uris": {"android": "https://dc.lft.to/lastmile_qr_scan", "ios": "https://dc.lft.to/lastmile_qr_scan"}, "fusion_lat": 0.0}, {"is_disabled": 0, "lat": 38.898686, "bike_id": "519c52268b98bf23d1d0c2a6b7d6b30b", "fusion_lon": 0.0, "is_reserved": 0, "type": "electric_scooter", "name": "519c52268b98bf23d1d0c2a6b7d6b30b", "lon": -77.05150283333333, "rental_uris": {"android": "https://dc.lft.to/lastmile_qr_scan", "ios": "https://dc.lft.to/lastmile_qr_scan"}, "fusion_lat": 0.0}, {"is_disabled": 0, "lat": 38.9050605, "bike_id": "537060cd2a1407a7abbc7b84a1a3f6b0", "fusion_lon": 0.0, "is_reserved": 0, "type": "electric_scooter", "name": "537060cd2a1407a7abbc7b84a1a3f6b0", "lon": -77.02593383333334, "rental_uris": {"android": "https://dc.lft.to/lastmile_qr_scan", "ios": "https://dc.lft.to/lastmile_qr_scan"}, "fusion_lat": 0.0}, {"is_disabled": 0, "lat": 38.93882383333333, "bike_id": "e24f1c1ceca2708d56ea2a7b5775dbbd", "fusion_lon": 0.0, "is_reserved": 0, "type": "electric_scooter", "name": "e24f1c1ceca2708d56ea2a7b5775dbbd", "lon": -77.02488366666667, "rental_uris": {"android": "https://dc.lft.to/lastmile_qr_scan", "ios": "https://dc.lft.to/lastmile_qr_scan"}, "fusion_lat": 0.0}, {"is_disabled": 0, "lat": 38.90558033333333, "bike_id": "a0a078008e4d85d31fdcd70b140ce70a", "fusion_lon": 0.0, "is_reserved": 0, "type": "electric_scooter", "name": "a0a078008e4d85d31fdcd70b140ce70a", "lon": -77.00540133333334, "rental_uris": {"android": "https://dc.lft.to/lastmile_qr_scan", "ios": "https://dc.lft.to/lastmile_qr_scan"}, "fusion_lat": 0.0}, {"is_disabled": 0, "lat": 38.895888166666666, "bike_id": "76cbc65530140dd9d9c003e22272bf11", "fusion_lon": 0.0, "is_reserved": 0, "type": "electric_scooter", "name": "76cbc65530140dd9d9c003e22272bf11", "lon": -77.024635, "rental_uris": {"android": "https://dc.lft.to/lastmile_qr_scan", "ios": "https://dc.lft.to/lastmile_qr_scan"}, "fusion_lat": 0.0}, {"is_disabled": 0, "lat": 38.907217333333335, "bike_id": "88aca67a50c5e21e1258a11f417eda25", "fusion_lon": 0.0, "is_reserved": 0, "type": "electric_scooter", "name": "88aca67a50c5e21e1258a11f417eda25", "lon": -77.03431333333333, "rental_uris": {"android": "https://dc.lft.to/lastmile_qr_scan", "ios": "https://dc.lft.to/lastmile_qr_scan"}, "fusion_lat": 0.0}, {"is_disabled": 0, "lat": 38.89976866666667, "bike_id": "09a2c11bb245ca08bb98a6ae2e1539d4", "fusion_lon": 0.0, "is_reserved": 0, "type": "electric_scooter", "name": "09a2c11bb245ca08bb98a6ae2e1539d4", "lon": -77.02149033333333, "rental_uris": {"android": "https://dc.lft.to/lastmile_qr_scan", "ios": "https://dc.lft.to/lastmile_qr_scan"}, "fusion_lat": 0.0}, {"is_disabled": 0, "lat": 38.9317155, "bike_id": "01ab6a17254b3d29c91b8f7618474dfb", "fusion_lon": 0.0, "is_reserved": 0, "type": "electric_scooter", "name": "01ab6a17254b3d29c91b8f7618474dfb", "lon": -77.07072966666667, "rental_uris": {"android": "https://dc.lft.to/lastmile_qr_scan", "ios": "https://dc.lft.to/lastmile_qr_scan"}, "fusion_lat": 0.0}, {"is_disabled": 0, "lat": 38.917067, "bike_id": "7d940eb8772f81b241773ba9ff584908", "fusion_lon": 0.0, "is_reserved": 0, "type": "electric_scooter", "name": "7d940eb8772f81b241773ba9ff584908", "lon": -77.03874516666667, "rental_uris": {"android": "https://dc.lft.to/lastmile_qr_scan", "ios": "https://dc.lft.to/lastmile_qr_scan"}, "fusion_lat": 0.0}, {"is_disabled": 0, "lat": 38.90667716666667, "bike_id": "ae46b863bc06c7376aea70524d38c1dd", "fusion_lon": 0.0, "is_reserved": 0, "type": "electric_scooter", "name": "ae46b863bc06c7376aea70524d38c1dd", "lon": -77.02700666666667, "rental_uris": {"android": "https://dc.lft.to/lastmile_qr_scan", "ios": "https://dc.lft.to/lastmile_qr_scan"}, "fusion_lat": 0.0}, {"is_disabled": 0, "lat": 38.91414183333333, "bike_id": "b174a7d9f25348296cb9b1aca54c15ab", "fusion_lon": 0.0, "is_reserved": 0, "type": "electric_scooter", "name": "b174a7d9f25348296cb9b1aca54c15ab", "lon": -77.0097335, "rental_uris": {"android": "https://dc.lft.to/lastmile_qr_scan", "ios": "https://dc.lft.to/lastmile_qr_scan"}, "fusion_lat": 0.0}, {"is_disabled": 0, "lat": 38.890525, "bike_id": "c54a3f50940021a937b893ad9fb1fc93", "fusion_lon": 0.0, "is_reserved": 0, "type": "electric_scooter", "name": "c54a3f50940021a937b893ad9fb1fc93", "lon": -76.93759033333333, "rental_uris": {"android": "https://dc.lft.to/lastmile_qr_scan", "ios": "https://dc.lft.to/lastmile_qr_scan"}, "fusion_lat": 0.0}, {"is_disabled": 0, "lat": 38.9089775, "bike_id": "aa522ba2741652552126e3df367a607c", "fusion_lon": 0.0, "is_reserved": 0, "type": "electric_scooter", "name": "aa522ba2741652552126e3df367a607c", "lon": -77.04385, "rental_uris": {"android": "https://dc.lft.to/lastmile_qr_scan", "ios": "https://dc.lft.to/lastmile_qr_scan"}, "fusion_lat": 0.0}, {"is_disabled": 0, "lat": 38.91637033333333, "bike_id": "7a1dae2fd5faa1ff62f71b28f063a79f", "fusion_lon": 0.0, "is_reserved": 0, "type": "electric_scooter", "name": "7a1dae2fd5faa1ff62f71b28f063a79f", "lon": -77.03209183333334, "rental_uris": {"android": "https://dc.lft.to/lastmile_qr_scan", "ios": "https://dc.lft.to/lastmile_qr_scan"}, "fusion_lat": 0.0}, {"is_disabled": 0, "lat": 38.914214333333334, "bike_id": "bc51f7155370b22a48453866dab7c3aa", "fusion_lon": 0.0, "is_reserved": 0, "type": "electric_scooter", "name": "bc51f7155370b22a48453866dab7c3aa", "lon": -77.02395683333333, "rental_uris": {"android": "https://dc.lft.to/lastmile_qr_scan", "ios": "https://dc.lft.to/lastmile_qr_scan"}, "fusion_lat": 0.0}, {"is_disabled": 0, "lat": 38.9127075, "bike_id": "65da4de13a56720a87a1d4f1f3d8f273", "fusion_lon": 0.0, "is_reserved": 0, "type": "electric_scooter", "name": "65da4de13a56720a87a1d4f1f3d8f273", "lon": -77.07260766666667, "rental_uris": {"android": "https://dc.lft.to/lastmile_qr_scan", "ios": "https://dc.lft.to/lastmile_qr_scan"}, "fusion_lat": 0.0}, {"is_disabled": 0, "lat": 38.89733116666667, "bike_id": "b747f89737af149326ea23bea38127ca", "fusion_lon": 0.0, "is_reserved": 0, "type": "electric_scooter", "name": "b747f89737af149326ea23bea38127ca", "lon": -77.00372516666667, "rental_uris": {"android": "https://dc.lft.to/lastmile_qr_scan", "ios": "https://dc.lft.to/lastmile_qr_scan"}, "fusion_lat": 0.0}, {"is_disabled": 0, "lat": 38.9075875, "bike_id": "6794de3d07a991d9525e2438af9b1fb0", "fusion_lon": 0.0, "is_reserved": 0, "type": "electric_scooter", "name": "6794de3d07a991d9525e2438af9b1fb0", "lon": -77.035781, "rental_uris": {"android": "https://dc.lft.to/lastmile_qr_scan", "ios": "https://dc.lft.to/lastmile_qr_scan"}, "fusion_lat": 0.0}, {"is_disabled": 0, "lat": 38.95628683333333, "bike_id": "62258f060f467214944e7c3b51085dd3", "fusion_lon": 0.0, "is_reserved": 0, "type": "electric_bike", "name": "62258f060f467214944e7c3b51085dd3", "lon": -76.93877083333334, "rental_uris": {"android": "https://dc.lft.to/lastmile_qr_scan", "ios": "https://dc.lft.to/lastmile_qr_scan"}, "fusion_lat": 0.0}, {"is_disabled": 0, "lat": 38.8729175, "bike_id": "7231062dfcf086816000199735925de5", "fusion_lon": 0.0, "is_reserved": 0, "type": "electric_scooter", "name": "7231062dfcf086816000199735925de5", "lon": -77.0098625, "rental_uris": {"android": "https://dc.lft.to/lastmile_qr_scan", "ios": "https://dc.lft.to/lastmile_qr_scan"}, "fusion_lat": 0.0}, {"is_disabled": 0, "lat": 38.93628266666666, "bike_id": "4f801f1447dc185202ae399dbb20e68c", "fusion_lon": 0.0, "is_reserved": 0, "type": "electric_scooter", "name": "4f801f1447dc185202ae399dbb20e68c", "lon": -77.03655933333333, "rental_uris": {"android": "https://dc.lft.to/lastmile_qr_scan", "ios": "https://dc.lft.to/lastmile_qr_scan"}, "fusion_lat": 0.0}, {"is_disabled": 0, "lat": 38.898237333333334, "bike_id": "aa498fa8e6a449b0e0a2bb98adb2e097", "fusion_lon": 0.0, "is_reserved": 0, "type": "electric_scooter", "name": "aa498fa8e6a449b0e0a2bb98adb2e097", "lon": -77.02626066666667, "rental_uris": {"android": "https://dc.lft.to/lastmile_qr_scan", "ios": "https://dc.lft.to/lastmile_qr_scan"}, "fusion_lat": 0.0}, {"is_disabled": 0, "lat": 38.91751433333334, "bike_id": "25ecd46f1e66051fde1df25e6b40a437", "fusion_lon": 0.0, "is_reserved": 0, "type": "electric_scooter", "name": "25ecd46f1e66051fde1df25e6b40a437", "lon": -77.04152916666666, "rental_uris": {"android": "https://dc.lft.to/lastmile_qr_scan", "ios": "https://dc.lft.to/lastmile_qr_scan"}, "fusion_lat": 0.0}, {"is_disabled": 0, "lat": 38.90800466666666, "bike_id": "768b54a9163d384d92279a4f8c8e9310", "fusion_lon": 0.0, "is_reserved": 0, "type": "electric_scooter", "name": "768b54a9163d384d92279a4f8c8e9310", "lon": -77.036635, "rental_uris": {"android": "https://dc.lft.to/lastmile_qr_scan", "ios": "https://dc.lft.to/lastmile_qr_scan"}, "fusion_lat": 0.0}, {"is_disabled": 0, "lat": 38.8803615, "bike_id": "5b58ab4f15a8ebf9167bfec148d0ada5", "fusion_lon": 0.0, "is_reserved": 0, "type": "electric_scooter", "name": "5b58ab4f15a8ebf9167bfec148d0ada5", "lon": -77.0113555, "rental_uris": {"android": "https://dc.lft.to/lastmile_qr_scan", "ios": "https://dc.lft.to/lastmile_qr_scan"}, "fusion_lat": 0.0}, {"is_disabled": 0, "lat": 38.905174833333334, "bike_id": "a3f692afd3768abf9975284f7dcac721", "fusion_lon": 0.0, "is_reserved": 0, "type": "electric_bike", "name": "a3f692afd3768abf9975284f7dcac721", "lon": -77.05686533333333, "rental_uris": {"android": "https://dc.lft.to/lastmile_qr_scan", "ios": "https://dc.lft.to/lastmile_qr_scan"}, "fusion_lat": 0.0}, {"is_disabled": 0, "lat": 38.9096925, "bike_id": "d4d6fb7a60fff9ff085569768d801aa0", "fusion_lon": 0.0, "is_reserved": 0, "type": "electric_scooter", "name": "d4d6fb7a60fff9ff085569768d801aa0", "lon": -77.01806483333333, "rental_uris": {"android": "https://dc.lft.to/lastmile_qr_scan", "ios": "https://dc.lft.to/lastmile_qr_scan"}, "fusion_lat": 0.0}, {"is_disabled": 0, "lat": 38.90375233333334, "bike_id": "dc9624871a8ce607d15320d2d762ea53", "fusion_lon": 0.0, "is_reserved": 0, "type": "electric_scooter", "name": "dc9624871a8ce607d15320d2d762ea53", "lon": -77.0343655, "rental_uris": {"android": "https://dc.lft.to/lastmile_qr_scan", "ios": "https://dc.lft.to/lastmile_qr_scan"}, "fusion_lat": 0.0}, {"is_disabled": 0, "lat": 38.902642166666666, "bike_id": "583f4b24fa0b0acd05e9b43c3c5428cc", "fusion_lon": 0.0, "is_reserved": 0, "type": "electric_scooter", "name": "583f4b24fa0b0acd05e9b43c3c5428cc", "lon": -77.03955766666667, "rental_uris": {"android": "https://dc.lft.to/lastmile_qr_scan", "ios": "https://dc.lft.to/lastmile_qr_scan"}, "fusion_lat": 0.0}, {"is_disabled": 0, "lat": 38.923860833333336, "bike_id": "c33001bcb60550e79f4cccfe3f656864", "fusion_lon": 0.0, "is_reserved": 0, "type": "electric_scooter", "name": "c33001bcb60550e79f4cccfe3f656864", "lon": -77.05035566666666, "rental_uris": {"android": "https://dc.lft.to/lastmile_qr_scan", "ios": "https://dc.lft.to/lastmile_qr_scan"}, "fusion_lat": 0.0}, {"is_disabled": 0, "lat": 38.908088166666666, "bike_id": "05e643250083c3eb7d2dc10bea5b8135", "fusion_lon": 0.0, "is_reserved": 0, "type": "electric_scooter", "name": "05e643250083c3eb7d2dc10bea5b8135", "lon": -77.0344655, "rental_uris": {"android": "https://dc.lft.to/lastmile_qr_scan", "ios": "https://dc.lft.to/lastmile_qr_scan"}, "fusion_lat": 0.0}, {"is_disabled": 0, "lat": 38.955596166666666, "bike_id": "a47389aa2c5de2570e1e3e69da29165f", "fusion_lon": 0.0, "is_reserved": 0, "type": "electric_bike", "name": "a47389aa2c5de2570e1e3e69da29165f", "lon": -76.93540766666666, "rental_uris": {"android": "https://dc.lft.to/lastmile_qr_scan", "ios": "https://dc.lft.to/lastmile_qr_scan"}, "fusion_lat": 0.0}, {"is_disabled": 0, "lat": 38.92062816666667, "bike_id": "c1ba9650ee5491fa8d5c449c039bf020", "fusion_lon": 0.0, "is_reserved": 0, "type": "electric_scooter", "name": "c1ba9650ee5491fa8d5c449c039bf020", "lon": -77.03819233333333, "rental_uris": {"android": "https://dc.lft.to/lastmile_qr_scan", "ios": "https://dc.lft.to/lastmile_qr_scan"}, "fusion_lat": 0.0}, {"is_disabled": 0, "lat": 38.86654566666667, "bike_id": "1ae378b46741e65f6a594159b802976b", "fusion_lon": 0.0, "is_reserved": 0, "type": "electric_scooter", "name": "1ae378b46741e65f6a594159b802976b", "lon": -76.98509383333334, "rental_uris": {"android": "https://dc.lft.to/lastmile_qr_scan", "ios": "https://dc.lft.to/lastmile_qr_scan"}, "fusion_lat": 0.0}, {"is_disabled": 0, "lat": 38.898337166666664, "bike_id": "8ac6645bb9392d740e0dea1419e3e2b8", "fusion_lon": 0.0, "is_reserved": 0, "type": "electric_scooter", "name": "8ac6645bb9392d740e0dea1419e3e2b8", "lon": -77.04378083333333, "rental_uris": {"android": "https://dc.lft.to/lastmile_qr_scan", "ios": "https://dc.lft.to/lastmile_qr_scan"}, "fusion_lat": 0.0}, {"is_disabled": 0, "lat": 38.91035766666667, "bike_id": "f5930f8c85be20f9fa57baae488c45a1", "fusion_lon": 0.0, "is_reserved": 0, "type": "electric_scooter", "name": "f5930f8c85be20f9fa57baae488c45a1", "lon": -76.98558566666667, "rental_uris": {"android": "https://dc.lft.to/lastmile_qr_scan", "ios": "https://dc.lft.to/lastmile_qr_scan"}, "fusion_lat": 0.0}, {"is_disabled": 0, "lat": 38.901668666666666, "bike_id": "923bd36b79cd443501452993cf24d6e5", "fusion_lon": 0.0, "is_reserved": 0, "type": "electric_scooter", "name": "923bd36b79cd443501452993cf24d6e5", "lon": -76.93023316666667, "rental_uris": {"android": "https://dc.lft.to/lastmile_qr_scan", "ios": "https://dc.lft.to/lastmile_qr_scan"}, "fusion_lat": 0.0}, {"is_disabled": 0, "lat": 38.897174, "bike_id": "86bd88cc93d81a7df1d04064615f01d7", "fusion_lon": 0.0, "is_reserved": 0, "type": "electric_scooter", "name": "86bd88cc93d81a7df1d04064615f01d7", "lon": -77.039607, "rental_uris": {"android": "https://dc.lft.to/lastmile_qr_scan", "ios": "https://dc.lft.to/lastmile_qr_scan"}, "fusion_lat": 0.0}, {"is_disabled": 0, "lat": 38.90137883333333, "bike_id": "adb1a5d7a20890ba50286c73444e9d07", "fusion_lon": 0.0, "is_reserved": 0, "type": "electric_scooter", "name": "adb1a5d7a20890ba50286c73444e9d07", "lon": -77.0501225, "rental_uris": {"android": "https://dc.lft.to/lastmile_qr_scan", "ios": "https://dc.lft.to/lastmile_qr_scan"}, "fusion_lat": 0.0}, {"is_disabled": 0, "lat": 39.03670833333333, "bike_id": "288abdf91c7ab951890818fddc13c3a8", "fusion_lon": 0.0, "is_reserved": 0, "type": "electric_bike", "name": "288abdf91c7ab951890818fddc13c3a8", "lon": -77.05108666666666, "rental_uris": {"android": "https://dc.lft.to/lastmile_qr_scan", "ios": "https://dc.lft.to/lastmile_qr_scan"}, "fusion_lat": 0.0}, {"is_disabled": 0, "lat": 38.930911, "bike_id": "6c3cb139b25a482e523a1401b1da6a81", "fusion_lon": 0.0, "is_reserved": 0, "type": "electric_scooter", "name": "6c3cb139b25a482e523a1401b1da6a81", "lon": -77.03816083333334, "rental_uris": {"android": "https://dc.lft.to/lastmile_qr_scan", "ios": "https://dc.lft.to/lastmile_qr_scan"}, "fusion_lat": 0.0}, {"is_disabled": 0, "lat": 38.87339633333333, "bike_id": "5c664c9dad7510a843155a82a80ae1d6", "fusion_lon": 0.0, "is_reserved": 0, "type": "electric_scooter", "name": "5c664c9dad7510a843155a82a80ae1d6", "lon": -76.96787733333333, "rental_uris": {"android": "https://dc.lft.to/lastmile_qr_scan", "ios": "https://dc.lft.to/lastmile_qr_scan"}, "fusion_lat": 0.0}, {"is_disabled": 0, "lat": 38.886379, "bike_id": "222264d740f4d5d7b4fb87c7650cb28e", "fusion_lon": 0.0, "is_reserved": 0, "type": "electric_scooter", "name": "222264d740f4d5d7b4fb87c7650cb28e", "lon": -76.99859933333333, "rental_uris": {"android": "https://dc.lft.to/lastmile_qr_scan", "ios": "https://dc.lft.to/lastmile_qr_scan"}, "fusion_lat": 0.0}, {"is_disabled": 0, "lat": 38.91334116666667, "bike_id": "899d81888a8fa85486ae029872c9ff0b", "fusion_lon": 0.0, "is_reserved": 0, "type": "electric_scooter", "name": "899d81888a8fa85486ae029872c9ff0b", "lon": -77.03046666666667, "rental_uris": {"android": "https://dc.lft.to/lastmile_qr_scan", "ios": "https://dc.lft.to/lastmile_qr_scan"}, "fusion_lat": 0.0}, {"is_disabled": 0, "lat": 38.892015, "bike_id": "a52d7e85253a4f8854275a30c55a0481", "fusion_lon": 0.0, "is_reserved": 0, "type": "electric_scooter", "name": "a52d7e85253a4f8854275a30c55a0481", "lon": -77.0388175, "rental_uris": {"android": "https://dc.lft.to/lastmile_qr_scan", "ios": "https://dc.lft.to/lastmile_qr_scan"}, "fusion_lat": 0.0}, {"is_disabled": 0, "lat": 38.907234833333334, "bike_id": "03fe4164009e0cb350bc57543e6a6a7c", "fusion_lon": 0.0, "is_reserved": 0, "type": "electric_scooter", "name": "03fe4164009e0cb350bc57543e6a6a7c", "lon": -76.99812466666667, "rental_uris": {"android": "https://dc.lft.to/lastmile_qr_scan", "ios": "https://dc.lft.to/lastmile_qr_scan"}, "fusion_lat": 0.0}, {"is_disabled": 0, "lat": 38.90918083333333, "bike_id": "baa99363b58fbf9c1b76e01b03766f07", "fusion_lon": 0.0, "is_reserved": 0, "type": "electric_scooter", "name": "baa99363b58fbf9c1b76e01b03766f07", "lon": -77.044059, "rental_uris": {"android": "https://dc.lft.to/lastmile_qr_scan", "ios": "https://dc.lft.to/lastmile_qr_scan"}, "fusion_lat": 0.0}, {"is_disabled": 0, "lat": 38.93365983333333, "bike_id": "4e4bd1da314398b02ef86a7f16d63c46", "fusion_lon": 0.0, "is_reserved": 0, "type": "electric_scooter", "name": "4e4bd1da314398b02ef86a7f16d63c46", "lon": -76.99116, "rental_uris": {"android": "https://dc.lft.to/lastmile_qr_scan", "ios": "https://dc.lft.to/lastmile_qr_scan"}, "fusion_lat": 0.0}, {"is_disabled": 0, "lat": 38.908748333333335, "bike_id": "5940959140dd533c86257027ec2211d4", "fusion_lon": 0.0, "is_reserved": 0, "type": "electric_scooter", "name": "5940959140dd533c86257027ec2211d4", "lon": -77.0231575, "rental_uris": {"android": "https://dc.lft.to/lastmile_qr_scan", "ios": "https://dc.lft.to/lastmile_qr_scan"}, "fusion_lat": 0.0}, {"is_disabled": 0, "lat": 38.930845, "bike_id": "50e35c5b030d2c535b4013c645789c5a", "fusion_lon": 0.0, "is_reserved": 0, "type": "electric_scooter", "name": "50e35c5b030d2c535b4013c645789c5a", "lon": -77.079525, "rental_uris": {"android": "https://dc.lft.to/lastmile_qr_scan", "ios": "https://dc.lft.to/lastmile_qr_scan"}, "fusion_lat": 0.0}, {"is_disabled": 0, "lat": 38.923536, "bike_id": "4d0ab5770d0831fcd72326c593591021", "fusion_lon": 0.0, "is_reserved": 0, "type": "electric_scooter", "name": "4d0ab5770d0831fcd72326c593591021", "lon": -77.0205615, "rental_uris": {"android": "https://dc.lft.to/lastmile_qr_scan", "ios": "https://dc.lft.to/lastmile_qr_scan"}, "fusion_lat": 0.0}, {"is_disabled": 0, "lat": 38.90266666666667, "bike_id": "e6e3731728bdf82c18bb33e21e12723f", "fusion_lon": 0.0, "is_reserved": 0, "type": "electric_scooter", "name": "e6e3731728bdf82c18bb33e21e12723f", "lon": -77.03945483333334, "rental_uris": {"android": "https://dc.lft.to/lastmile_qr_scan", "ios": "https://dc.lft.to/lastmile_qr_scan"}, "fusion_lat": 0.0}, {"is_disabled": 0, "lat": 38.927474, "bike_id": "f4093eecde1fc1bf603fd6c6c02a9fde", "fusion_lon": 0.0, "is_reserved": 0, "type": "electric_scooter", "name": "f4093eecde1fc1bf603fd6c6c02a9fde", "lon": -77.02477883333333, "rental_uris": {"android": "https://dc.lft.to/lastmile_qr_scan", "ios": "https://dc.lft.to/lastmile_qr_scan"}, "fusion_lat": 0.0}, {"is_disabled": 0, "lat": 38.903714, "bike_id": "436551f09414dc1edceabef4531a1b94", "fusion_lon": 0.0, "is_reserved": 0, "type": "electric_scooter", "name": "436551f09414dc1edceabef4531a1b94", "lon": -77.03836833333334, "rental_uris": {"android": "https://dc.lft.to/lastmile_qr_scan", "ios": "https://dc.lft.to/lastmile_qr_scan"}, "fusion_lat": 0.0}, {"is_disabled": 0, "lat": 38.917083833333336, "bike_id": "9fb2b7c4542dfe657ea510edec3ac5b4", "fusion_lon": 0.0, "is_reserved": 0, "type": "electric_scooter", "name": "9fb2b7c4542dfe657ea510edec3ac5b4", "lon": -77.04123383333334, "rental_uris": {"android": "https://dc.lft.to/lastmile_qr_scan", "ios": "https://dc.lft.to/lastmile_qr_scan"}, "fusion_lat": 0.0}, {"is_disabled": 0, "lat": 38.867284833333336, "bike_id": "337a151a38d84713efb202d8d6af72c1", "fusion_lon": 0.0, "is_reserved": 0, "type": "electric_scooter", "name": "337a151a38d84713efb202d8d6af72c1", "lon": -76.98804566666666, "rental_uris": {"android": "https://dc.lft.to/lastmile_qr_scan", "ios": "https://dc.lft.to/lastmile_qr_scan"}, "fusion_lat": 0.0}, {"is_disabled": 0, "lat": 38.905247, "bike_id": "6d7f7979bcfe4b4ff49f99c167d1c59e", "fusion_lon": 0.0, "is_reserved": 0, "type": "electric_scooter", "name": "6d7f7979bcfe4b4ff49f99c167d1c59e", "lon": -76.98302983333333, "rental_uris": {"android": "https://dc.lft.to/lastmile_qr_scan", "ios": "https://dc.lft.to/lastmile_qr_scan"}, "fusion_lat": 0.0}, {"is_disabled": 0, "lat": 38.87869533333333, "bike_id": "ee923692cb1a2347872c8c27d1b49e3f", "fusion_lon": 0.0, "is_reserved": 0, "type": "electric_scooter", "name": "ee923692cb1a2347872c8c27d1b49e3f", "lon": -77.02300133333334, "rental_uris": {"android": "https://dc.lft.to/lastmile_qr_scan", "ios": "https://dc.lft.to/lastmile_qr_scan"}, "fusion_lat": 0.0}, {"is_disabled": 0, "lat": 38.9267655, "bike_id": "2b826adb0bd914f669629262f18630f5", "fusion_lon": 0.0, "is_reserved": 0, "type": "electric_scooter", "name": "2b826adb0bd914f669629262f18630f5", "lon": -77.029988, "rental_uris": {"android": "https://dc.lft.to/lastmile_qr_scan", "ios": "https://dc.lft.to/lastmile_qr_scan"}, "fusion_lat": 0.0}, {"is_disabled": 0, "lat": 38.932483833333336, "bike_id": "a53c7584a642b626e2f92f29959347f4", "fusion_lon": 0.0, "is_reserved": 0, "type": "electric_scooter", "name": "a53c7584a642b626e2f92f29959347f4", "lon": -77.03263933333334, "rental_uris": {"android": "https://dc.lft.to/lastmile_qr_scan", "ios": "https://dc.lft.to/lastmile_qr_scan"}, "fusion_lat": 0.0}, {"is_disabled": 0, "lat": 38.91989616666667, "bike_id": "59644adbb793392398b9b781e19f2416", "fusion_lon": 0.0, "is_reserved": 0, "type": "electric_scooter", "name": "59644adbb793392398b9b781e19f2416", "lon": -77.023784, "rental_uris": {"android": "https://dc.lft.to/lastmile_qr_scan", "ios": "https://dc.lft.to/lastmile_qr_scan"}, "fusion_lat": 0.0}, {"is_disabled": 0, "lat": 38.94203, "bike_id": "3acd5eaa4aaa50080e3b2ba24257f8d5", "fusion_lon": 0.0, "is_reserved": 0, "type": "electric_scooter", "name": "3acd5eaa4aaa50080e3b2ba24257f8d5", "lon": -77.02500916666666, "rental_uris": {"android": "https://dc.lft.to/lastmile_qr_scan", "ios": "https://dc.lft.to/lastmile_qr_scan"}, "fusion_lat": 0.0}, {"is_disabled": 0, "lat": 38.91868266666667, "bike_id": "07006600762a854249e7d8b77be4a03f", "fusion_lon": 0.0, "is_reserved": 0, "type": "electric_scooter", "name": "07006600762a854249e7d8b77be4a03f", "lon": -77.040537, "rental_uris": {"android": "https://dc.lft.to/lastmile_qr_scan", "ios": "https://dc.lft.to/lastmile_qr_scan"}, "fusion_lat": 0.0}, {"is_disabled": 0, "lat": 38.94140316666667, "bike_id": "934f7fe2621c1c06d26a08986dfb809b", "fusion_lon": 0.0, "is_reserved": 0, "type": "electric_scooter", "name": "934f7fe2621c1c06d26a08986dfb809b", "lon": -77.02551283333334, "rental_uris": {"android": "https://dc.lft.to/lastmile_qr_scan", "ios": "https://dc.lft.to/lastmile_qr_scan"}, "fusion_lat": 0.0}, {"is_disabled": 0, "lat": 38.952465, "bike_id": "618f6e6ce05a0d4ad30b2108208ff247", "fusion_lon": 0.0, "is_reserved": 0, "type": "electric_bike", "name": "618f6e6ce05a0d4ad30b2108208ff247", "lon": -76.976704, "rental_uris": {"android": "https://dc.lft.to/lastmile_qr_scan", "ios": "https://dc.lft.to/lastmile_qr_scan"}, "fusion_lat": 0.0}, {"is_disabled": 0, "lat": 38.903213, "bike_id": "208aeac874673d67a3cc30a61498fa82", "fusion_lon": 0.0, "is_reserved": 0, "type": "electric_scooter", "name": "208aeac874673d67a3cc30a61498fa82", "lon": -76.98150866666667, "rental_uris": {"android": "https://dc.lft.to/lastmile_qr_scan", "ios": "https://dc.lft.to/lastmile_qr_scan"}, "fusion_lat": 0.0}, {"is_disabled": 0, "lat": 38.9166265, "bike_id": "f488ab30f5a2b6d436074ad06e80c67e", "fusion_lon": 0.0, "is_reserved": 0, "type": "electric_scooter", "name": "f488ab30f5a2b6d436074ad06e80c67e", "lon": -77.03848416666666, "rental_uris": {"android": "https://dc.lft.to/lastmile_qr_scan", "ios": "https://dc.lft.to/lastmile_qr_scan"}, "fusion_lat": 0.0}, {"is_disabled": 0, "lat": 38.89888083333334, "bike_id": "d1eb8533df34bcea7d05676ad72eb495", "fusion_lon": 0.0, "is_reserved": 0, "type": "electric_scooter", "name": "d1eb8533df34bcea7d05676ad72eb495", "lon": -77.053832, "rental_uris": {"android": "https://dc.lft.to/lastmile_qr_scan", "ios": "https://dc.lft.to/lastmile_qr_scan"}, "fusion_lat": 0.0}, {"is_disabled": 0, "lat": 38.92735483333333, "bike_id": "0b4ee3f00e941af4eed52cdfcf21e178", "fusion_lon": 0.0, "is_reserved": 0, "type": "electric_scooter", "name": "0b4ee3f00e941af4eed52cdfcf21e178", "lon": -77.030915, "rental_uris": {"android": "https://dc.lft.to/lastmile_qr_scan", "ios": "https://dc.lft.to/lastmile_qr_scan"}, "fusion_lat": 0.0}, {"is_disabled": 0, "lat": 38.926828666666665, "bike_id": "a1feb98f03e7e8f810d5c9dde9580948", "fusion_lon": 0.0, "is_reserved": 0, "type": "electric_scooter", "name": "a1feb98f03e7e8f810d5c9dde9580948", "lon": -77.02860933333334, "rental_uris": {"android": "https://dc.lft.to/lastmile_qr_scan", "ios": "https://dc.lft.to/lastmile_qr_scan"}, "fusion_lat": 0.0}, {"is_disabled": 0, "lat": 38.93937616666667, "bike_id": "dd3032e30be634a2a74d8b64d1c820ad", "fusion_lon": 0.0, "is_reserved": 0, "type": "electric_scooter", "name": "dd3032e30be634a2a74d8b64d1c820ad", "lon": -77.035957, "rental_uris": {"android": "https://dc.lft.to/lastmile_qr_scan", "ios": "https://dc.lft.to/lastmile_qr_scan"}, "fusion_lat": 0.0}, {"is_disabled": 0, "lat": 38.90776183333333, "bike_id": "042f30885884f4194b862b0af0c0d7be", "fusion_lon": 0.0, "is_reserved": 0, "type": "electric_scooter", "name": "042f30885884f4194b862b0af0c0d7be", "lon": -77.031973, "rental_uris": {"android": "https://dc.lft.to/lastmile_qr_scan", "ios": "https://dc.lft.to/lastmile_qr_scan"}, "fusion_lat": 0.0}, {"is_disabled": 0, "lat": 38.90044566666667, "bike_id": "7b9848f183727e6c289d2a186c1f9f9f", "fusion_lon": 0.0, "is_reserved": 0, "type": "electric_scooter", "name": "7b9848f183727e6c289d2a186c1f9f9f", "lon": -76.98825266666667, "rental_uris": {"android": "https://dc.lft.to/lastmile_qr_scan", "ios": "https://dc.lft.to/lastmile_qr_scan"}, "fusion_lat": 0.0}, {"is_disabled": 0, "lat": 38.917347, "bike_id": "72b56b62065eb69a1ebad273d526efdf", "fusion_lon": 0.0, "is_reserved": 0, "type": "electric_scooter", "name": "72b56b62065eb69a1ebad273d526efdf", "lon": -77.04168783333333, "rental_uris": {"android": "https://dc.lft.to/lastmile_qr_scan", "ios": "https://dc.lft.to/lastmile_qr_scan"}, "fusion_lat": 0.0}, {"is_disabled": 0, "lat": 38.905199833333334, "bike_id": "e3d87370f54d998a893237d68c52f2c4", "fusion_lon": 0.0, "is_reserved": 0, "type": "electric_scooter", "name": "e3d87370f54d998a893237d68c52f2c4", "lon": -77.04200733333333, "rental_uris": {"android": "https://dc.lft.to/lastmile_qr_scan", "ios": "https://dc.lft.to/lastmile_qr_scan"}, "fusion_lat": 0.0}, {"is_disabled": 0, "lat": 38.898319666666666, "bike_id": "9a059b1b189f73e1190b8c190d3fed82", "fusion_lon": 0.0, "is_reserved": 0, "type": "electric_scooter", "name": "9a059b1b189f73e1190b8c190d3fed82", "lon": -77.0292735, "rental_uris": {"android": "https://dc.lft.to/lastmile_qr_scan", "ios": "https://dc.lft.to/lastmile_qr_scan"}, "fusion_lat": 0.0}, {"is_disabled": 0, "lat": 38.905593833333334, "bike_id": "f621bc9b09d5de2060581516973f3673", "fusion_lon": 0.0, "is_reserved": 0, "type": "electric_scooter", "name": "f621bc9b09d5de2060581516973f3673", "lon": -77.026159, "rental_uris": {"android": "https://dc.lft.to/lastmile_qr_scan", "ios": "https://dc.lft.to/lastmile_qr_scan"}, "fusion_lat": 0.0}, {"is_disabled": 0, "lat": 38.903823833333334, "bike_id": "db7cbf41ad5b899fc513f18191b3f3ea", "fusion_lon": 0.0, "is_reserved": 0, "type": "electric_scooter", "name": "db7cbf41ad5b899fc513f18191b3f3ea", "lon": -77.04475866666667, "rental_uris": {"android": "https://dc.lft.to/lastmile_qr_scan", "ios": "https://dc.lft.to/lastmile_qr_scan"}, "fusion_lat": 0.0}, {"is_disabled": 0, "lat": 38.90980116666667, "bike_id": "c606bcd4896cebf5b16e584a087c8820", "fusion_lon": 0.0, "is_reserved": 0, "type": "electric_scooter", "name": "c606bcd4896cebf5b16e584a087c8820", "lon": -77.0329735, "rental_uris": {"android": "https://dc.lft.to/lastmile_qr_scan", "ios": "https://dc.lft.to/lastmile_qr_scan"}, "fusion_lat": 0.0}, {"is_disabled": 0, "lat": 38.9258425, "bike_id": "6c1a55734d2d85b951cb6a5094e7e70b", "fusion_lon": 0.0, "is_reserved": 0, "type": "electric_scooter", "name": "6c1a55734d2d85b951cb6a5094e7e70b", "lon": -77.03984416666667, "rental_uris": {"android": "https://dc.lft.to/lastmile_qr_scan", "ios": "https://dc.lft.to/lastmile_qr_scan"}, "fusion_lat": 0.0}, {"is_disabled": 0, "lat": 38.903313833333335, "bike_id": "20e87a0fb2504be8d3660f7bb917d2eb", "fusion_lon": 0.0, "is_reserved": 0, "type": "electric_bike", "name": "20e87a0fb2504be8d3660f7bb917d2eb", "lon": -76.97530683333333, "rental_uris": {"android": "https://dc.lft.to/lastmile_qr_scan", "ios": "https://dc.lft.to/lastmile_qr_scan"}, "fusion_lat": 0.0}, {"is_disabled": 0, "lat": 38.91680916666667, "bike_id": "a333b840f212474da7de02d870b82908", "fusion_lon": 0.0, "is_reserved": 0, "type": "electric_scooter", "name": "a333b840f212474da7de02d870b82908", "lon": -77.0297075, "rental_uris": {"android": "https://dc.lft.to/lastmile_qr_scan", "ios": "https://dc.lft.to/lastmile_qr_scan"}, "fusion_lat": 0.0}, {"is_disabled": 0, "lat": 38.90832, "bike_id": "a98b08bd668a4ec6dadedc3ab73d0200", "fusion_lon": 0.0, "is_reserved": 0, "type": "electric_scooter", "name": "a98b08bd668a4ec6dadedc3ab73d0200", "lon": -77.0445905, "rental_uris": {"android": "https://dc.lft.to/lastmile_qr_scan", "ios": "https://dc.lft.to/lastmile_qr_scan"}, "fusion_lat": 0.0}, {"is_disabled": 0, "lat": 38.899913, "bike_id": "a75c16b6795a19264961e759ffe0eb40", "fusion_lon": 0.0, "is_reserved": 0, "type": "electric_scooter", "name": "a75c16b6795a19264961e759ffe0eb40", "lon": -76.994696, "rental_uris": {"android": "https://dc.lft.to/lastmile_qr_scan", "ios": "https://dc.lft.to/lastmile_qr_scan"}, "fusion_lat": 0.0}, {"is_disabled": 0, "lat": 38.920888833333336, "bike_id": "7c445785f0ae636e466c2943152bc9cf", "fusion_lon": 0.0, "is_reserved": 0, "type": "electric_scooter", "name": "7c445785f0ae636e466c2943152bc9cf", "lon": -77.022577, "rental_uris": {"android": "https://dc.lft.to/lastmile_qr_scan", "ios": "https://dc.lft.to/lastmile_qr_scan"}, "fusion_lat": 0.0}, {"is_disabled": 0, "lat": 38.90263316666667, "bike_id": "e9b8939d21e1dcc02edb4d76101a5fe7", "fusion_lon": 0.0, "is_reserved": 0, "type": "electric_bike", "name": "e9b8939d21e1dcc02edb4d76101a5fe7", "lon": -77.03849183333334, "rental_uris": {"android": "https://dc.lft.to/lastmile_qr_scan", "ios": "https://dc.lft.to/lastmile_qr_scan"}, "fusion_lat": 0.0}, {"is_disabled": 0, "lat": 38.913679333333334, "bike_id": "f8294e9ceccbcc09960515ed6934a220", "fusion_lon": 0.0, "is_reserved": 0, "type": "electric_scooter", "name": "f8294e9ceccbcc09960515ed6934a220", "lon": -77.04656866666667, "rental_uris": {"android": "https://dc.lft.to/lastmile_qr_scan", "ios": "https://dc.lft.to/lastmile_qr_scan"}, "fusion_lat": 0.0}, {"is_disabled": 0, "lat": 38.922103, "bike_id": "beaea4e5cf8de3e431497159c8fc7cc3", "fusion_lon": 0.0, "is_reserved": 0, "type": "electric_scooter", "name": "beaea4e5cf8de3e431497159c8fc7cc3", "lon": -77.03746333333333, "rental_uris": {"android": "https://dc.lft.to/lastmile_qr_scan", "ios": "https://dc.lft.to/lastmile_qr_scan"}, "fusion_lat": 0.0}, {"is_disabled": 0, "lat": 38.89413016666666, "bike_id": "d5648a35fcaee45985d47175d82f54fe", "fusion_lon": 0.0, "is_reserved": 0, "type": "electric_scooter", "name": "d5648a35fcaee45985d47175d82f54fe", "lon": -77.03021616666666, "rental_uris": {"android": "https://dc.lft.to/lastmile_qr_scan", "ios": "https://dc.lft.to/lastmile_qr_scan"}, "fusion_lat": 0.0}, {"is_disabled": 0, "lat": 38.92366766666667, "bike_id": "1f88b01b4c85114c5e6b9dc755e92568", "fusion_lon": 0.0, "is_reserved": 0, "type": "electric_scooter", "name": "1f88b01b4c85114c5e6b9dc755e92568", "lon": -76.9942705, "rental_uris": {"android": "https://dc.lft.to/lastmile_qr_scan", "ios": "https://dc.lft.to/lastmile_qr_scan"}, "fusion_lat": 0.0}, {"is_disabled": 0, "lat": 38.88532, "bike_id": "c039b47e267e80345150498f520e41e8", "fusion_lon": 0.0, "is_reserved": 0, "type": "electric_scooter", "name": "c039b47e267e80345150498f520e41e8", "lon": -76.98271666666666, "rental_uris": {"android": "https://dc.lft.to/lastmile_qr_scan", "ios": "https://dc.lft.to/lastmile_qr_scan"}, "fusion_lat": 0.0}, {"is_disabled": 0, "lat": 38.90027583333333, "bike_id": "5b19aeb3744d50dec59f36a8dff96db9", "fusion_lon": 0.0, "is_reserved": 0, "type": "electric_scooter", "name": "5b19aeb3744d50dec59f36a8dff96db9", "lon": -77.050473, "rental_uris": {"android": "https://dc.lft.to/lastmile_qr_scan", "ios": "https://dc.lft.to/lastmile_qr_scan"}, "fusion_lat": 0.0}, {"is_disabled": 0, "lat": 38.93639, "bike_id": "b7e7237c5357e5cb999ec29afbf762fb", "fusion_lon": 0.0, "is_reserved": 0, "type": "electric_scooter", "name": "b7e7237c5357e5cb999ec29afbf762fb", "lon": -77.0588695, "rental_uris": {"android": "https://dc.lft.to/lastmile_qr_scan", "ios": "https://dc.lft.to/lastmile_qr_scan"}, "fusion_lat": 0.0}, {"is_disabled": 0, "lat": 38.903931666666665, "bike_id": "60f3a8431f480945a5b3347ea71a83ac", "fusion_lon": 0.0, "is_reserved": 0, "type": "electric_scooter", "name": "60f3a8431f480945a5b3347ea71a83ac", "lon": -76.981032, "rental_uris": {"android": "https://dc.lft.to/lastmile_qr_scan", "ios": "https://dc.lft.to/lastmile_qr_scan"}, "fusion_lat": 0.0}, {"is_disabled": 0, "lat": 38.89080933333334, "bike_id": "e60d3238a8c33dd7d5b5f7f808ca862f", "fusion_lon": 0.0, "is_reserved": 0, "type": "electric_scooter", "name": "e60d3238a8c33dd7d5b5f7f808ca862f", "lon": -76.99842966666667, "rental_uris": {"android": "https://dc.lft.to/lastmile_qr_scan", "ios": "https://dc.lft.to/lastmile_qr_scan"}, "fusion_lat": 0.0}, {"is_disabled": 0, "lat": 38.887466833333335, "bike_id": "c2d77ffdba4f7ddd9ff7e1221350ca6d", "fusion_lon": 0.0, "is_reserved": 0, "type": "electric_scooter", "name": "c2d77ffdba4f7ddd9ff7e1221350ca6d", "lon": -76.9835955, "rental_uris": {"android": "https://dc.lft.to/lastmile_qr_scan", "ios": "https://dc.lft.to/lastmile_qr_scan"}, "fusion_lat": 0.0}, {"is_disabled": 0, "lat": 38.909578833333335, "bike_id": "319d7d4409e8d49f57ebb5ce8e25ed11", "fusion_lon": 0.0, "is_reserved": 0, "type": "electric_scooter", "name": "319d7d4409e8d49f57ebb5ce8e25ed11", "lon": -77.02002916666666, "rental_uris": {"android": "https://dc.lft.to/lastmile_qr_scan", "ios": "https://dc.lft.to/lastmile_qr_scan"}, "fusion_lat": 0.0}, {"is_disabled": 0, "lat": 38.924031666666664, "bike_id": "a729e6d36d633e865c1ca5f2964eb9ec", "fusion_lon": 0.0, "is_reserved": 0, "type": "electric_scooter", "name": "a729e6d36d633e865c1ca5f2964eb9ec", "lon": -77.02537933333333, "rental_uris": {"android": "https://dc.lft.to/lastmile_qr_scan", "ios": "https://dc.lft.to/lastmile_qr_scan"}, "fusion_lat": 0.0}, {"is_disabled": 0, "lat": 38.90353066666667, "bike_id": "5d73c0ed30a307f164232ccad394c9f2", "fusion_lon": 0.0, "is_reserved": 0, "type": "electric_scooter", "name": "5d73c0ed30a307f164232ccad394c9f2", "lon": -77.03304833333333, "rental_uris": {"android": "https://dc.lft.to/lastmile_qr_scan", "ios": "https://dc.lft.to/lastmile_qr_scan"}, "fusion_lat": 0.0}, {"is_disabled": 0, "lat": 38.9397085, "bike_id": "ee4ea7f5447a8eac4223ac5159663d85", "fusion_lon": 0.0, "is_reserved": 0, "type": "electric_scooter", "name": "ee4ea7f5447a8eac4223ac5159663d85", "lon": -77.0326085, "rental_uris": {"android": "https://dc.lft.to/lastmile_qr_scan", "ios": "https://dc.lft.to/lastmile_qr_scan"}, "fusion_lat": 0.0}, {"is_disabled": 0, "lat": 38.84429566666667, "bike_id": "7077f06af3b54acaed8286ab807f48a8", "fusion_lon": 0.0, "is_reserved": 0, "type": "electric_scooter", "name": "7077f06af3b54acaed8286ab807f48a8", "lon": -76.99782783333333, "rental_uris": {"android": "https://dc.lft.to/lastmile_qr_scan", "ios": "https://dc.lft.to/lastmile_qr_scan"}, "fusion_lat": 0.0}, {"is_disabled": 0, "lat": 38.93285383333333, "bike_id": "ca2dbffca3231d64dc8c21acfd1b8506", "fusion_lon": 0.0, "is_reserved": 0, "type": "electric_scooter", "name": "ca2dbffca3231d64dc8c21acfd1b8506", "lon": -77.0252285, "rental_uris": {"android": "https://dc.lft.to/lastmile_qr_scan", "ios": "https://dc.lft.to/lastmile_qr_scan"}, "fusion_lat": 0.0}, {"is_disabled": 0, "lat": 38.90842516666667, "bike_id": "95222f1b7cf4e872d9760d51b0ff03a2", "fusion_lon": 0.0, "is_reserved": 0, "type": "electric_scooter", "name": "95222f1b7cf4e872d9760d51b0ff03a2", "lon": -77.02695366666667, "rental_uris": {"android": "https://dc.lft.to/lastmile_qr_scan", "ios": "https://dc.lft.to/lastmile_qr_scan"}, "fusion_lat": 0.0}, {"is_disabled": 0, "lat": 38.89581483333333, "bike_id": "320ecd66df1ea90a73ac511c25677527", "fusion_lon": 0.0, "is_reserved": 0, "type": "electric_scooter", "name": "320ecd66df1ea90a73ac511c25677527", "lon": -77.0272785, "rental_uris": {"android": "https://dc.lft.to/lastmile_qr_scan", "ios": "https://dc.lft.to/lastmile_qr_scan"}, "fusion_lat": 0.0}, {"is_disabled": 0, "lat": 38.92342083333333, "bike_id": "835d9b7fa7c008920781c5e7a6eba30c", "fusion_lon": 0.0, "is_reserved": 0, "type": "electric_scooter", "name": "835d9b7fa7c008920781c5e7a6eba30c", "lon": -77.01895616666667, "rental_uris": {"android": "https://dc.lft.to/lastmile_qr_scan", "ios": "https://dc.lft.to/lastmile_qr_scan"}, "fusion_lat": 0.0}, {"is_disabled": 0, "lat": 38.90506666666667, "bike_id": "86ba62acfe9066053c6de57a4e8053c9", "fusion_lon": 0.0, "is_reserved": 0, "type": "electric_scooter", "name": "86ba62acfe9066053c6de57a4e8053c9", "lon": -77.04504466666667, "rental_uris": {"android": "https://dc.lft.to/lastmile_qr_scan", "ios": "https://dc.lft.to/lastmile_qr_scan"}, "fusion_lat": 0.0}, {"is_disabled": 0, "lat": 38.903627166666666, "bike_id": "cd9a36328a91b801c106365cb3799522", "fusion_lon": 0.0, "is_reserved": 0, "type": "electric_scooter", "name": "cd9a36328a91b801c106365cb3799522", "lon": -77.0034305, "rental_uris": {"android": "https://dc.lft.to/lastmile_qr_scan", "ios": "https://dc.lft.to/lastmile_qr_scan"}, "fusion_lat": 0.0}, {"is_disabled": 0, "lat": 38.9142805, "bike_id": "1fb31551b204a2e53ff5cd5c8a011209", "fusion_lon": 0.0, "is_reserved": 0, "type": "electric_scooter", "name": "1fb31551b204a2e53ff5cd5c8a011209", "lon": -77.03184616666667, "rental_uris": {"android": "https://dc.lft.to/lastmile_qr_scan", "ios": "https://dc.lft.to/lastmile_qr_scan"}, "fusion_lat": 0.0}, {"is_disabled": 0, "lat": 38.94485916666667, "bike_id": "8cc22f811b725481ca6c2b423aef893e", "fusion_lon": 0.0, "is_reserved": 0, "type": "electric_bike", "name": "8cc22f811b725481ca6c2b423aef893e", "lon": -77.06393316666667, "rental_uris": {"android": "https://dc.lft.to/lastmile_qr_scan", "ios": "https://dc.lft.to/lastmile_qr_scan"}, "fusion_lat": 0.0}, {"is_disabled": 0, "lat": 38.93523116666667, "bike_id": "47da3f52e79847994f392e12b6b27c3a", "fusion_lon": 0.0, "is_reserved": 0, "type": "electric_scooter", "name": "47da3f52e79847994f392e12b6b27c3a", "lon": -77.03265083333334, "rental_uris": {"android": "https://dc.lft.to/lastmile_qr_scan", "ios": "https://dc.lft.to/lastmile_qr_scan"}, "fusion_lat": 0.0}, {"is_disabled": 0, "lat": 38.91051516666667, "bike_id": "a85d3ca8369ede8977ccb21fe7a0d22c", "fusion_lon": 0.0, "is_reserved": 0, "type": "electric_bike", "name": "a85d3ca8369ede8977ccb21fe7a0d22c", "lon": -77.05573083333333, "rental_uris": {"android": "https://dc.lft.to/lastmile_qr_scan", "ios": "https://dc.lft.to/lastmile_qr_scan"}, "fusion_lat": 0.0}, {"is_disabled": 0, "lat": 38.90877316666667, "bike_id": "7d231d2d90c1bf9a270dce40750d6f67", "fusion_lon": 0.0, "is_reserved": 0, "type": "electric_bike", "name": "7d231d2d90c1bf9a270dce40750d6f67", "lon": -77.06420916666667, "rental_uris": {"android": "https://dc.lft.to/lastmile_qr_scan", "ios": "https://dc.lft.to/lastmile_qr_scan"}, "fusion_lat": 0.0}, {"is_disabled": 0, "lat": 38.8962085, "bike_id": "5f43370310c6cc2d7d760f98722cd6a1", "fusion_lon": 0.0, "is_reserved": 0, "type": "electric_scooter", "name": "5f43370310c6cc2d7d760f98722cd6a1", "lon": -77.0238215, "rental_uris": {"android": "https://dc.lft.to/lastmile_qr_scan", "ios": "https://dc.lft.to/lastmile_qr_scan"}, "fusion_lat": 0.0}, {"is_disabled": 0, "lat": 38.922095166666665, "bike_id": "73ac013c6f9061b98c4892e993a4d95e", "fusion_lon": 0.0, "is_reserved": 0, "type": "electric_scooter", "name": "73ac013c6f9061b98c4892e993a4d95e", "lon": -77.04335616666667, "rental_uris": {"android": "https://dc.lft.to/lastmile_qr_scan", "ios": "https://dc.lft.to/lastmile_qr_scan"}, "fusion_lat": 0.0}, {"is_disabled": 0, "lat": 38.88739433333333, "bike_id": "9d7ac436e0080e538e1837eea14eed5a", "fusion_lon": 0.0, "is_reserved": 0, "type": "electric_scooter", "name": "9d7ac436e0080e538e1837eea14eed5a", "lon": -77.0153245, "rental_uris": {"android": "https://dc.lft.to/lastmile_qr_scan", "ios": "https://dc.lft.to/lastmile_qr_scan"}, "fusion_lat": 0.0}, {"is_disabled": 0, "lat": 38.93071416666667, "bike_id": "b149f03603037c1e6d611ef245185cdc", "fusion_lon": 0.0, "is_reserved": 0, "type": "electric_scooter", "name": "b149f03603037c1e6d611ef245185cdc", "lon": -77.037996, "rental_uris": {"android": "https://dc.lft.to/lastmile_qr_scan", "ios": "https://dc.lft.to/lastmile_qr_scan"}, "fusion_lat": 0.0}, {"is_disabled": 0, "lat": 38.8937485, "bike_id": "d8aeee882831e113b7e22e28ef9c85af", "fusion_lon": 0.0, "is_reserved": 0, "type": "electric_scooter", "name": "d8aeee882831e113b7e22e28ef9c85af", "lon": -76.94198183333333, "rental_uris": {"android": "https://dc.lft.to/lastmile_qr_scan", "ios": "https://dc.lft.to/lastmile_qr_scan"}, "fusion_lat": 0.0}, {"is_disabled": 0, "lat": 38.886289166666664, "bike_id": "72a7bd20b23bc8898eb73c009076bf00", "fusion_lon": 0.0, "is_reserved": 0, "type": "electric_scooter", "name": "72a7bd20b23bc8898eb73c009076bf00", "lon": -76.94680983333333, "rental_uris": {"android": "https://dc.lft.to/lastmile_qr_scan", "ios": "https://dc.lft.to/lastmile_qr_scan"}, "fusion_lat": 0.0}, {"is_disabled": 0, "lat": 38.887647666666666, "bike_id": "e80f4dff5da12ab3b1366ddbb1dd2545", "fusion_lon": 0.0, "is_reserved": 0, "type": "electric_scooter", "name": "e80f4dff5da12ab3b1366ddbb1dd2545", "lon": -76.99758083333333, "rental_uris": {"android": "https://dc.lft.to/lastmile_qr_scan", "ios": "https://dc.lft.to/lastmile_qr_scan"}, "fusion_lat": 0.0}, {"is_disabled": 0, "lat": 38.915231, "bike_id": "620a59356684c29e7f3bb4866ce661fd", "fusion_lon": 0.0, "is_reserved": 0, "type": "electric_scooter", "name": "620a59356684c29e7f3bb4866ce661fd", "lon": -77.03185566666667, "rental_uris": {"android": "https://dc.lft.to/lastmile_qr_scan", "ios": "https://dc.lft.to/lastmile_qr_scan"}, "fusion_lat": 0.0}, {"is_disabled": 0, "lat": 38.8450685, "bike_id": "4a8e87f3ff8d12dc80038f62dab62c7e", "fusion_lon": 0.0, "is_reserved": 0, "type": "electric_bike", "name": "4a8e87f3ff8d12dc80038f62dab62c7e", "lon": -76.99354983333333, "rental_uris": {"android": "https://dc.lft.to/lastmile_qr_scan", "ios": "https://dc.lft.to/lastmile_qr_scan"}, "fusion_lat": 0.0}, {"is_disabled": 0, "lat": 38.88324083333333, "bike_id": "159228471f47d2aba6f2d49ee44b0454", "fusion_lon": 0.0, "is_reserved": 0, "type": "electric_scooter", "name": "159228471f47d2aba6f2d49ee44b0454", "lon": -76.99832016666667, "rental_uris": {"android": "https://dc.lft.to/lastmile_qr_scan", "ios": "https://dc.lft.to/lastmile_qr_scan"}, "fusion_lat": 0.0}, {"is_disabled": 0, "lat": 38.90034816666667, "bike_id": "b3e67095651f969fdaa6e06b76f0738a", "fusion_lon": 0.0, "is_reserved": 0, "type": "electric_scooter", "name": "b3e67095651f969fdaa6e06b76f0738a", "lon": -77.0066465, "rental_uris": {"android": "https://dc.lft.to/lastmile_qr_scan", "ios": "https://dc.lft.to/lastmile_qr_scan"}, "fusion_lat": 0.0}, {"is_disabled": 0, "lat": 38.9052175, "bike_id": "019c800ff4b95ecf0419129e7a8f4224", "fusion_lon": 0.0, "is_reserved": 0, "type": "electric_scooter", "name": "019c800ff4b95ecf0419129e7a8f4224", "lon": -77.04878283333333, "rental_uris": {"android": "https://dc.lft.to/lastmile_qr_scan", "ios": "https://dc.lft.to/lastmile_qr_scan"}, "fusion_lat": 0.0}, {"is_disabled": 0, "lat": 38.90790166666667, "bike_id": "479f14ea07514c3f5b959930249186cd", "fusion_lon": 0.0, "is_reserved": 0, "type": "electric_scooter", "name": "479f14ea07514c3f5b959930249186cd", "lon": -77.0386525, "rental_uris": {"android": "https://dc.lft.to/lastmile_qr_scan", "ios": "https://dc.lft.to/lastmile_qr_scan"}, "fusion_lat": 0.0}, {"is_disabled": 0, "lat": 38.88141266666667, "bike_id": "e919635d40b446089ee0e594021697c5", "fusion_lon": 0.0, "is_reserved": 0, "type": "electric_scooter", "name": "e919635d40b446089ee0e594021697c5", "lon": -76.943999, "rental_uris": {"android": "https://dc.lft.to/lastmile_qr_scan", "ios": "https://dc.lft.to/lastmile_qr_scan"}, "fusion_lat": 0.0}, {"is_disabled": 0, "lat": 38.92775066666667, "bike_id": "578174e24277ba69cab08964e9654f1f", "fusion_lon": 0.0, "is_reserved": 0, "type": "electric_scooter", "name": "578174e24277ba69cab08964e9654f1f", "lon": -77.05266066666667, "rental_uris": {"android": "https://dc.lft.to/lastmile_qr_scan", "ios": "https://dc.lft.to/lastmile_qr_scan"}, "fusion_lat": 0.0}, {"is_disabled": 0, "lat": 38.92124466666667, "bike_id": "cd63b09f6da08512cf6bf8022b680c6c", "fusion_lon": 0.0, "is_reserved": 0, "type": "electric_scooter", "name": "cd63b09f6da08512cf6bf8022b680c6c", "lon": -77.04572033333334, "rental_uris": {"android": "https://dc.lft.to/lastmile_qr_scan", "ios": "https://dc.lft.to/lastmile_qr_scan"}, "fusion_lat": 0.0}, {"is_disabled": 0, "lat": 38.9266415, "bike_id": "f0736cf8a3167b4465d31cc448fddb1b", "fusion_lon": 0.0, "is_reserved": 0, "type": "electric_scooter", "name": "f0736cf8a3167b4465d31cc448fddb1b", "lon": -77.01477416666667, "rental_uris": {"android": "https://dc.lft.to/lastmile_qr_scan", "ios": "https://dc.lft.to/lastmile_qr_scan"}, "fusion_lat": 0.0}, {"is_disabled": 0, "lat": 38.916931, "bike_id": "fbd89e6c79546a5174b6f48637d69bdc", "fusion_lon": 0.0, "is_reserved": 0, "type": "electric_scooter", "name": "fbd89e6c79546a5174b6f48637d69bdc", "lon": -77.02857433333334, "rental_uris": {"android": "https://dc.lft.to/lastmile_qr_scan", "ios": "https://dc.lft.to/lastmile_qr_scan"}, "fusion_lat": 0.0}, {"is_disabled": 0, "lat": 38.925401666666666, "bike_id": "b3cad313448ab32a6384263d36b495d0", "fusion_lon": 0.0, "is_reserved": 0, "type": "electric_scooter", "name": "b3cad313448ab32a6384263d36b495d0", "lon": -77.007376, "rental_uris": {"android": "https://dc.lft.to/lastmile_qr_scan", "ios": "https://dc.lft.to/lastmile_qr_scan"}, "fusion_lat": 0.0}, {"is_disabled": 0, "lat": 38.92344716666667, "bike_id": "addc76c8000dceadda4c0e260b8fa7f8", "fusion_lon": 0.0, "is_reserved": 0, "type": "electric_scooter", "name": "addc76c8000dceadda4c0e260b8fa7f8", "lon": -77.05170883333334, "rental_uris": {"android": "https://dc.lft.to/lastmile_qr_scan", "ios": "https://dc.lft.to/lastmile_qr_scan"}, "fusion_lat": 0.0},