{"data": {"bikes": [{"is_reserved": 0, "type": "electric_scooter", "bike_id": "a0526e3d5d9c2ed304ac167409ee537d", "lat": 38.903232, "lon": -77.01082916666667, "rental_uris": {"android": "https://dc.lft.to/lastmile_qr_scan", "ios": "https://dc.lft.to/lastmile_qr_scan"}, "is_disabled": 0, "fusion_lat": 0.0, "name": "a0526e3d5d9c2ed304ac167409ee537d", "fusion_lon": 0.0}, {"is_reserved": 0, "type": "electric_scooter", "bike_id": "3069ffad92f988d0c9ecdc79e4d2dbcb", "lat": 38.910326, "lon": -77.03087433333333, "rental_uris": {"android": "https://dc.lft.to/lastmile_qr_scan", "ios": "https://dc.lft.to/lastmile_qr_scan"}, "is_disabled": 0, "fusion_lat": 0.0, "name": "3069ffad92f988d0c9ecdc79e4d2dbcb", "fusion_lon": 0.0}, {"is_reserved": 0, "type": "electric_scooter", "bike_id": "4b27875cf4b37bb450156991fa6587d6", "lat": 38.91757366666667, "lon": -77.00450633333334, "rental_uris": {"android": "https://dc.lft.to/lastmile_qr_scan", "ios": "https://dc.lft.to/lastmile_qr_scan"}, "is_disabled": 0, "fusion_lat": 0.0, "name": "4b27875cf4b37bb450156991fa6587d6", "fusion_lon": 0.0}, {"is_reserved": 0, "type": "electric_scooter", "bike_id": "0455955a17f67079fade65feb997a0f5", "lat": 38.897742, "lon": -77.05018533333333, "rental_uris": {"android": "https://dc.lft.to/lastmile_qr_scan", "ios": "https://dc.lft.to/lastmile_qr_scan"}, "is_disabled": 0, "fusion_lat": 0.0, "name": "0455955a17f67079fade65feb997a0f5", "fusion_lon": 0.0}, {"is_reserved": 0, "type": "electric_bike", "bike_id": "cb2339d680e98900886881fc6b1b89bf", "lat": 38.920715, "lon": -76.99582566666666, "rental_uris": {"android": "https://dc.lft.to/lastmile_qr_scan", "ios": "https://dc.lft.to/lastmile_qr_scan"}, "is_disabled": 0, "fusion_lat": 0.0, "name": "cb2339d680e98900886881fc6b1b89bf", "fusion_lon": 0.0}, {"is_reserved": 0, "type": "electric_scooter", "bike_id": "de18bc603be65aa7a7617ef242b0cf84", "lat": 38.926837166666665, "lon": -77.032389, "rental_uris": {"android": "https://dc.lft.to/lastmile_qr_scan", "ios": "https://dc.lft.to/lastmile_qr_scan"}, "is_disabled": 0, "fusion_lat": 0.0, "name": "de18bc603be65aa7a7617ef242b0cf84", "fusion_lon": 0.0}, {"is_reserved": 0, "type": "electric_bike", "bike_id": "f4fd474d27441d45a429997d2c4cdacc", "lat": 38.91704083333333, "lon": -77.05721666666666, "rental_uris": {"android": "https://dc.lft.to/lastmile_qr_scan", "ios": "https://dc.lft.to/lastmile_qr_scan"}, "is_disabled": 0, "fusion_lat": 0.0, "name": "f4fd474d27441d45a429997d2c4cdacc", "fusion_lon": 0.0}, {"is_reserved": 0, "type": "electric_scooter", "bike_id": "8355060657e6021d45f870cc06aa89cb", "lat": 38.88314416666667, "lon": -77.02408683333333, "rental_uris": {"android": "https://dc.lft.to/lastmile_qr_scan", "ios": "https://dc.lft.to/lastmile_qr_scan"}, "is_disabled": 0, "fusion_lat": 0.0, "name": "8355060657e6021d45f870cc06aa89cb", "fusion_lon": 0.0}, {"is_reserved": 0, "type": "electric_bike", "bike_id": "ec4ed0a19674df8e892af2e6e3727179", "lat": 38.920383, "lon": -76.97957416666667, "rental_uris": {"android": "https://dc.lft.to/lastmile_qr_scan", "ios": "https://dc.lft.to/lastmile_qr_scan"}, "is_disabled": 0, "fusion_lat": 0.0, "name": "ec4ed0a19674df8e892af2e6e3727179", "fusion_lon": 0.0}, {"is_reserved": 0, "type": "electric_scooter", "bike_id": "c291b620e21de481ccc4f02c4a3351f4", "lat": 38.8987265, "lon": -76.93184933333333, "rental_uris": {"android": "https://dc.lft.to/lastmile_qr_scan", "ios": "https://dc.lft.to/lastmile_qr_scan"}, "is_disabled": 0, "fusion_lat": 0.0, "name": "c291b620e21de481ccc4f02c4a3351f4", "fusion_lon": 0.0}, {"is_reserved": 0, "type": "electric_scooter", "bike_id": "7f95c57a87392f9145a75debf432f985", "lat": 38.928869166666665, "lon": -77.01382266666667, "rental_uris": {"android": "https://dc.lft.to/lastmile_qr_scan", "ios": "https://dc.lft.to/lastmile_qr_scan"}, "is_disabled": 0, "fusion_lat": 0.0, "name": "7f95c57a87392f9145a75debf432f985", "fusion_lon": 0.0}, {"is_reserved": 0, "type": "electric_scooter", "bike_id": "daf2a18d750f1f5589521fed45975179", "lat": 38.906601, "lon": -77.00920916666666, "rental_uris": {"android": "https://dc.lft.to/lastmile_qr_scan", "ios": "https://dc.lft.to/lastmile_qr_scan"}, "is_disabled": 0, "fusion_lat": 0.0, "name": "daf2a18d750f1f5589521fed45975179", "fusion_lon": 0.0}, {"is_reserved": 0, "type": "electric_scooter", "bike_id": "557796767e60468c9356667741bbae01", "lat": 38.88524316666667, "lon": -76.99608283333333, "rental_uris": {"android": "https://dc.lft.to/lastmile_qr_scan", "ios": "https://dc.lft.to/lastmile_qr_scan"}, "is_disabled": 0, "fusion_lat": 0.0, "name": "557796767e60468c9356667741bbae01", "fusion_lon": 0.0}, {"is_reserved": 0, "type": "electric_scooter", "bike_id": "fb4248dc8b69fcf786f70b4a61d854e2", "lat": 38.92632233333333, "lon": -77.03635816666667, "rental_uris": {"android": "https://dc.lft.to/lastmile_qr_scan", "ios": "https://dc.lft.to/lastmile_qr_scan"}, "is_disabled": 0, "fusion_lat": 0.0, "name": "fb4248dc8b69fcf786f70b4a61d854e2", "fusion_lon": 0.0}, {"is_reserved": 0, "type": "electric_scooter", "bike_id": "23dc9503adbf7b5a9ca1836ffe428fee", "lat": 38.927491833333335, "lon": -77.0245135, "rental_uris": {"android": "https://dc.lft.to/lastmile_qr_scan", "ios": "https://dc.lft.to/lastmile_qr_scan"}, "is_disabled": 0, "fusion_lat": 0.0, "name": "23dc9503adbf7b5a9ca1836ffe428fee", "fusion_lon": 0.0}, {"is_reserved": 0, "type": "electric_scooter", "bike_id": "e11a4e9b92882441ce623dd84d7e44b1", "lat": 38.92766066666667, "lon": -77.02781066666667, "rental_uris": {"android": "https://dc.lft.to/lastmile_qr_scan", "ios": "https://dc.lft.to/lastmile_qr_scan"}, "is_disabled": 0, "fusion_lat": 0.0, "name": "e11a4e9b92882441ce623dd84d7e44b1", "fusion_lon": 0.0}, {"is_reserved": 0, "type": "electric_scooter", "bike_id": "8f4b9ed57452c4048f34c51b4ea9063d", "lat": 38.94228066666667, "lon": -77.07150366666667, "rental_uris": {"android": "https://dc.lft.to/lastmile_qr_scan", "ios": "https://dc.lft.to/lastmile_qr_scan"}, "is_disabled": 0, "fusion_lat": 0.0, "name": "8f4b9ed57452c4048f34c51b4ea9063d", "fusion_lon": 0.0}, {"is_reserved": 0, "type": "electric_scooter", "bike_id": "8f818c6555c3456a4ad383a7d28c58a5", "lat": 38.91948433333334, "lon": -77.01356133333333, "rental_uris": {"android": "https://dc.lft.to/lastmile_qr_scan", "ios": "https://dc.lft.to/lastmile_qr_scan"}, "is_disabled": 0, "fusion_lat": 0.0, "name": "8f818c6555c3456a4ad383a7d28c58a5", "fusion_lon": 0.0}, {"is_reserved": 0, "type": "electric_scooter", "bike_id": "1a628d30026ef7765d1472138f6c9c4d", "lat": 38.92332183333333, "lon": -77.0356575, "rental_uris": {"android": "https://dc.lft.to/lastmile_qr_scan", "ios": "https://dc.lft.to/lastmile_qr_scan"}, "is_disabled": 0, "fusion_lat": 0.0, "name": "1a628d30026ef7765d1472138f6c9c4d", "fusion_lon": 0.0}, {"is_reserved": 0, "type": "electric_scooter", "bike_id": "1b3c9df72904b88510cb66844806bd63", "lat": 38.940839, "lon": -77.05494816666666, "rental_uris": {"android": "https://dc.lft.to/lastmile_qr_scan", "ios": "https://dc.lft.to/lastmile_qr_scan"}, "is_disabled": 0, "fusion_lat": 0.0, "name": "1b3c9df72904b88510cb66844806bd63", "fusion_lon": 0.0}, {"is_reserved": 0, "type": "electric_scooter", "bike_id": "54b20206ce96446ccadeb976cceda414", "lat": 38.91754233333333, "lon": -77.02799916666666, "rental_uris": {"android": "https://dc.lft.to/lastmile_qr_scan", "ios": "https://dc.lft.to/lastmile_qr_scan"}, "is_disabled": 0, "fusion_lat": 0.0, "name": "54b20206ce96446ccadeb976cceda414", "fusion_lon": 0.0}, {"is_reserved": 0, "type": "electric_scooter", "bike_id": "b14c10a6fb58794beea65c2dbf818188", "lat": 38.906826833333334, "lon": -77.06252933333333, "rental_uris": {"android": "https://dc.lft.to/lastmile_qr_scan", "ios": "https://dc.lft.to/lastmile_qr_scan"}, "is_disabled": 0, "fusion_lat": 0.0, "name": "b14c10a6fb58794beea65c2dbf818188", "fusion_lon": 0.0}, {"is_reserved": 0, "type": "electric_scooter", "bike_id": "05051eb679df5e5c9ddb0afb16807b99", "lat": 38.92199816666667, "lon": -77.0470355, "rental_uris": {"android": "https://dc.lft.to/lastmile_qr_scan", "ios": "https://dc.lft.to/lastmile_qr_scan"}, "is_disabled": 0, "fusion_lat": 0.0, "name": "05051eb679df5e5c9ddb0afb16807b99", "fusion_lon": 0.0}, {"is_reserved": 0, "type": "electric_scooter", "bike_id": "b1265321c66258656b08761d6438f4e2", "lat": 38.9283995, "lon": -77.05505016666666, "rental_uris": {"android": "https://dc.lft.to/lastmile_qr_scan", "ios": "https://dc.lft.to/lastmile_qr_scan"}, "is_disabled": 0, "fusion_lat": 0.0, "name": "b1265321c66258656b08761d6438f4e2", "fusion_lon": 0.0}, {"is_reserved": 0, "type": "electric_scooter", "bike_id": "3a1ec0967db3e21309a18431954bb701", "lat": 38.905134833333335, "lon": -77.05133433333333, "rental_uris": {"android": "https://dc.lft.to/lastmile_qr_scan", "ios": "https://dc.lft.to/lastmile_qr_scan"}, "is_disabled": 0, "fusion_lat": 0.0, "name": "3a1ec0967db3e21309a18431954bb701", "fusion_lon": 0.0}, {"is_reserved": 0, "type": "electric_scooter", "bike_id": "c646134d7d99b59610cf1ffb4e3a4320", "lat": 38.92412516666667, "lon": -77.035414, "rental_uris": {"android": "https://dc.lft.to/lastmile_qr_scan", "ios": "https://dc.lft.to/lastmile_qr_scan"}, "is_disabled": 0, "fusion_lat": 0.0, "name": "c646134d7d99b59610cf1ffb4e3a4320", "fusion_lon": 0.0}, {"is_reserved": 0, "type": "electric_scooter", "bike_id": "8a5dfb31aadc46487c63dec759f0af40", "lat": 38.90117766666667, "lon": -77.03200833333334, "rental_uris": {"android": "https://dc.lft.to/lastmile_qr_scan", "ios": "https://dc.lft.to/lastmile_qr_scan"}, "is_disabled": 0, "fusion_lat": 0.0, "name": "8a5dfb31aadc46487c63dec759f0af40", "fusion_lon": 0.0}, {"is_reserved": 0, "type": "electric_scooter", "bike_id": "bdedd7b1343ef59915bd8fde74e6260b", "lat": 38.90722866666667, "lon": -77.04586833333333, "rental_uris": {"android": "https://dc.lft.to/lastmile_qr_scan", "ios": "https://dc.lft.to/lastmile_qr_scan"}, "is_disabled": 0, "fusion_lat": 0.0, "name": "bdedd7b1343ef59915bd8fde74e6260b", "fusion_lon": 0.0}, {"is_reserved": 0, "type": "electric_bike", "bike_id": "3d5a7166cd56ca5e1a3bacc298006fc6", "lat": 38.9333345, "lon": -77.03986066666667, "rental_uris": {"android": "https://dc.lft.to/lastmile_qr_scan", "ios": "https://dc.lft.to/lastmile_qr_scan"}, "is_disabled": 0, "fusion_lat": 0.0, "name": "3d5a7166cd56ca5e1a3bacc298006fc6", "fusion_lon": 0.0}, {"is_reserved": 0, "type": "electric_scooter", "bike_id": "98647e9e804e9c6f6bec54ed02cfe5ff", "lat": 38.90145233333333, "lon": -77.051451, "rental_uris": {"android": "https://dc.lft.to/lastmile_qr_scan", "ios": "https://dc.lft.to/lastmile_qr_scan"}, "is_disabled": 0, "fusion_lat": 0.0, "name": "98647e9e804e9c6f6bec54ed02cfe5ff", "fusion_lon": 0.0}, {"is_reserved": 0, "type": "electric_scooter", "bike_id": "3dd4b0eed4e6a6e595966474fd25deaf", "lat": 38.9178245, "lon": -77.029741, "rental_uris": {"android": "https://dc.lft.to/lastmile_qr_scan", "ios": "https://dc.lft.to/lastmile_qr_scan"}, "is_disabled": 0, "fusion_lat": 0.0, "name": "3dd4b0eed4e6a6e595966474fd25deaf", "fusion_lon": 0.0}, {"is_reserved": 0, "type": "electric_scooter", "bike_id": "857a78cd04831f2bdb3bc55ab857f2cc", "lat": 38.92484733333333, "lon": -77.02272683333334, "rental_uris": {"android": "https://dc.lft.to/lastmile_qr_scan", "ios": "https://dc.lft.to/lastmile_qr_scan"}, "is_disabled": 0, "fusion_lat": 0.0, "name": "857a78cd04831f2bdb3bc55ab857f2cc", "fusion_lon": 0.0}, {"is_reserved": 0, "type": "electric_scooter", "bike_id": "b3aa3c63f738ff7d0cf0e9ec753e10b3", "lat": 38.922766333333335, "lon": -77.04239983333333, "rental_uris": {"android": "https://dc.lft.to/lastmile_qr_scan", "ios": "https://dc.lft.to/lastmile_qr_scan"}, "is_disabled": 0, "fusion_lat": 0.0, "name": "b3aa3c63f738ff7d0cf0e9ec753e10b3", "fusion_lon": 0.0}, {"is_reserved": 0, "type": "electric_scooter", "bike_id": "dcb10ba33a2d8c9b0f86003045a88224", "lat": 38.89967266666667, "lon": -76.9903715, "rental_uris": {"android": "https://dc.lft.to/lastmile_qr_scan", "ios": "https://dc.lft.to/lastmile_qr_scan"}, "is_disabled": 0, "fusion_lat": 0.0, "name": "dcb10ba33a2d8c9b0f86003045a88224", "fusion_lon": 0.0}, {"is_reserved": 0, "type": "electric_bike", "bike_id": "82e65c7a0b3046eaf96529cfa6bfa61d", "lat": 38.845335166666665, "lon": -77.07643316666666, "rental_uris": {"android": "https://dc.lft.to/lastmile_qr_scan", "ios": "https://dc.lft.to/lastmile_qr_scan"}, "is_disabled": 0, "fusion_lat": 0.0, "name": "82e65c7a0b3046eaf96529cfa6bfa61d", "fusion_lon": 0.0}, {"is_reserved": 0, "type": "electric_scooter", "bike_id": "0d491cd97a3e7ae9d55fcb922cb82bf3", "lat": 38.92483983333333, "lon": -77.03197366666667, "rental_uris": {"android": "https://dc.lft.to/lastmile_qr_scan", "ios": "https://dc.lft.to/lastmile_qr_scan"}, "is_disabled": 0, "fusion_lat": 0.0, "name": "0d491cd97a3e7ae9d55fcb922cb82bf3", "fusion_lon": 0.0}, {"is_reserved": 0, "type": "electric_scooter", "bike_id": "0c7aea9f589967e72b3060251e5d7231", "lat": 38.926930166666665, "lon": -77.02579883333334, "rental_uris": {"android": "https://dc.lft.to/lastmile_qr_scan", "ios": "https://dc.lft.to/lastmile_qr_scan"}, "is_disabled": 0, "fusion_lat": 0.0, "name": "0c7aea9f589967e72b3060251e5d7231", "fusion_lon": 0.0}, {"is_reserved": 0, "type": "electric_bike", "bike_id": "725fe8c7b464dc66702b64723415e81f", "lat": 38.961256666666664, "lon": -77.03277466666667, "rental_uris": {"android": "https://dc.lft.to/lastmile_qr_scan", "ios": "https://dc.lft.to/lastmile_qr_scan"}, "is_disabled": 0, "fusion_lat": 0.0, "name": "725fe8c7b464dc66702b64723415e81f", "fusion_lon": 0.0}, {"is_reserved": 0, "type": "electric_scooter", "bike_id": "974612fa6952832a89489f0837015fc1", "lat": 38.87681, "lon": -76.99623083333333, "rental_uris": {"android": "https://dc.lft.to/lastmile_qr_scan", "ios": "https://dc.lft.to/lastmile_qr_scan"}, "is_disabled": 0, "fusion_lat": 0.0, "name": "974612fa6952832a89489f0837015fc1", "fusion_lon": 0.0}, {"is_reserved": 0, "type": "electric_scooter", "bike_id": "d767565535be7fd594a593e290374e0a", "lat": 38.91937866666667, "lon": -77.0363875, "rental_uris": {"android": "https://dc.lft.to/lastmile_qr_scan", "ios": "https://dc.lft.to/lastmile_qr_scan"}, "is_disabled": 0, "fusion_lat": 0.0, "name": "d767565535be7fd594a593e290374e0a", "fusion_lon": 0.0}, {"is_reserved": 0, "type": "electric_scooter", "bike_id": "7a4ff78ba608240ac05fbfa647263017", "lat": 38.9069905, "lon": -77.03452816666666, "rental_uris": {"android": "https://dc.lft.to/lastmile_qr_scan", "ios": "https://dc.lft.to/lastmile_qr_scan"}, "is_disabled": 0, "fusion_lat": 0.0, "name": "7a4ff78ba608240ac05fbfa647263017", "fusion_lon": 0.0}, {"is_reserved": 0, "type": "electric_scooter", "bike_id": "20c2dcd019c09e0d362612f4000cdc8e", "lat": 38.90512233333333, "lon": -77.06842916666666, "rental_uris": {"android": "https://dc.lft.to/lastmile_qr_scan", "ios": "https://dc.lft.to/lastmile_qr_scan"}, "is_disabled": 0, "fusion_lat": 0.0, "name": "20c2dcd019c09e0d362612f4000cdc8e", "fusion_lon": 0.0}, {"is_reserved": 0, "type": "electric_scooter", "bike_id": "e941b2dcb72168c39d3501b57a8f59f6", "lat": 38.898899666666665, "lon": -77.03966333333334, "rental_uris": {"android": "https://dc.lft.to/lastmile_qr_scan", "ios": "https://dc.lft.to/lastmile_qr_scan"}, "is_disabled": 0, "fusion_lat": 0.0, "name": "e941b2dcb72168c39d3501b57a8f59f6", "fusion_lon": 0.0}, {"is_reserved": 0, "type": "electric_scooter", "bike_id": "43e159e8ad82d737f4510dfc4cb54502", "lat": 38.928369833333335, "lon": -77.0060555, "rental_uris": {"android": "https://dc.lft.to/lastmile_qr_scan", "ios": "https://dc.lft.to/lastmile_qr_scan"}, "is_disabled": 0, "fusion_lat": 0.0, "name": "43e159e8ad82d737f4510dfc4cb54502", "fusion_lon": 0.0}, {"is_reserved": 0, "type": "electric_scooter", "bike_id": "d3657cefad68a04f355060aff8fa8324", "lat": 38.90000883333333, "lon": -77.03064733333333, "rental_uris": {"android": "https://dc.lft.to/lastmile_qr_scan", "ios": "https://dc.lft.to/lastmile_qr_scan"}, "is_disabled": 0, "fusion_lat": 0.0, "name": "d3657cefad68a04f355060aff8fa8324", "fusion_lon": 0.0}, {"is_reserved": 0, "type": "electric_scooter", "bike_id": "2bbd788177bef48416c3676635692d54", "lat": 38.973733333333335, "lon": -77.01816183333334, "rental_uris": {"android": "https://dc.lft.to/lastmile_qr_scan", "ios": "https://dc.lft.to/lastmile_qr_scan"}, "is_disabled": 0, "fusion_lat": 0.0, "name": "2bbd788177bef48416c3676635692d54", "fusion_lon": 0.0}, {"is_reserved": 0, "type": "electric_scooter", "bike_id": "20d1c28d3f00835fc67bb51306f9b1f7", "lat": 38.9248345, "lon": -77.03185816666667, "rental_uris": {"android": "https://dc.lft.to/lastmile_qr_scan", "ios": "https://dc.lft.to/lastmile_qr_scan"}, "is_disabled": 0, "fusion_lat": 0.0, "name": "20d1c28d3f00835fc67bb51306f9b1f7", "fusion_lon": 0.0}, {"is_reserved": 0, "type": "electric_scooter", "bike_id": "f94170dc96f6aa9758fdc085347f86d2", "lat": 38.9014985, "lon": -77.03197716666666, "rental_uris": {"android": "https://dc.lft.to/lastmile_qr_scan", "ios": "https://dc.lft.to/lastmile_qr_scan"}, "is_disabled": 0, "fusion_lat": 0.0, "name": "f94170dc96f6aa9758fdc085347f86d2", "fusion_lon": 0.0}, {"is_reserved": 0, "type": "electric_bike", "bike_id": "8c1ba436f5eba840c86c5d49074c89af", "lat": 38.913011166666664, "lon": -77.0829455, "rental_uris": {"android": "https://dc.lft.to/lastmile_qr_scan", "ios": "https://dc.lft.to/lastmile_qr_scan"}, "is_disabled": 0, "fusion_lat": 0.0, "name": "8c1ba436f5eba840c86c5d49074c89af", "fusion_lon": 0.0}, {"is_reserved": 0, "type": "electric_scooter", "bike_id": "c971fd9542c7c83ed738aa69eaf9dfe9", "lat": 38.92110133333333, "lon": -77.04699066666667, "rental_uris": {"android": "https://dc.lft.to/lastmile_qr_scan", "ios": "https://dc.lft.to/lastmile_qr_scan"}, "is_disabled": 0, "fusion_lat": 0.0, "name": "c971fd9542c7c83ed738aa69eaf9dfe9", "fusion_lon": 0.0}, {"is_reserved": 0, "type": "electric_scooter", "bike_id": "f7fe1a31bb2e000dd22dcc4875097d70", "lat": 38.93390516666667, "lon": -77.02383366666666, "rental_uris": {"android": "https://dc.lft.to/lastmile_qr_scan", "ios": "https://dc.lft.to/lastmile_qr_scan"}, "is_disabled": 0, "fusion_lat": 0.0, "name": "f7fe1a31bb2e000dd22dcc4875097d70", "fusion_lon": 0.0}, {"is_reserved": 0, "type": "electric_bike", "bike_id": "c4f97ff469f169bdb839c09707e13226", "lat": 38.83933316666667, "lon": -77.07897033333333, "rental_uris": {"android": "https://dc.lft.to/lastmile_qr_scan", "ios": "https://dc.lft.to/lastmile_qr_scan"}, "is_disabled": 0, "fusion_lat": 0.0, "name": "c4f97ff469f169bdb839c09707e13226", "fusion_lon": 0.0}, {"is_reserved": 0, "type": "electric_scooter", "bike_id": "c9bdfcfa722ec6b0746477ba50d1e81e", "lat": 38.90002966666667, "lon": -77.02705433333334, "rental_uris": {"android": "https://dc.lft.to/lastmile_qr_scan", "ios": "https://dc.lft.to/lastmile_qr_scan"}, "is_disabled": 0, "fusion_lat": 0.0, "name": "c9bdfcfa722ec6b0746477ba50d1e81e", "fusion_lon": 0.0}, {"is_reserved": 0, "type": "electric_scooter", "bike_id": "c32c23e902778151265daa7eccada28e", "lat": 38.933779333333334, "lon": -77.034673, "rental_uris": {"android": "https://dc.lft.to/lastmile_qr_scan", "ios": "https://dc.lft.to/lastmile_qr_scan"}, "is_disabled": 0, "fusion_lat": 0.0, "name": "c32c23e902778151265daa7eccada28e", "fusion_lon": 0.0}, {"is_reserved": 0, "type": "electric_scooter", "bike_id": "6afa50f699fe29e86a158fca750dc362", "lat": 38.902015666666664, "lon": -77.028576, "rental_uris": {"android": "https://dc.lft.to/lastmile_qr_scan", "ios": "https://dc.lft.to/lastmile_qr_scan"}, "is_disabled": 0, "fusion_lat": 0.0, "name": "6afa50f699fe29e86a158fca750dc362", "fusion_lon": 0.0}, {"is_reserved": 0, "type": "electric_scooter", "bike_id": "772adaea8a5dd4a28e79921770471a5b", "lat": 38.8988875, "lon": -76.99357233333333, "rental_uris": {"android": "https://dc.lft.to/lastmile_qr_scan", "ios": "https://dc.lft.to/lastmile_qr_scan"}, "is_disabled": 0, "fusion_lat": 0.0, "name": "772adaea8a5dd4a28e79921770471a5b", "fusion_lon": 0.0}, {"is_reserved": 0, "type": "electric_scooter", "bike_id": "c320696e2a6ebb58e69acd6c7a81c9d6", "lat": 38.883884, "lon": -77.02998883333333, "rental_uris": {"android": "https://dc.lft.to/lastmile_qr_scan", "ios": "https://dc.lft.to/lastmile_qr_scan"}, "is_disabled": 0, "fusion_lat": 0.0, "name": "c320696e2a6ebb58e69acd6c7a81c9d6", "fusion_lon": 0.0}, {"is_reserved": 0, "type": "electric_bike", "bike_id": "607eaf5a0c439add7505c3c87dff7c61", "lat": 38.945093666666665, "lon": -77.00671566666666, "rental_uris": {"android": "https://dc.lft.to/lastmile_qr_scan", "ios": "https://dc.lft.to/lastmile_qr_scan"}, "is_disabled": 0, "fusion_lat": 0.0, "name": "607eaf5a0c439add7505c3c87dff7c61", "fusion_lon": 0.0}, {"is_reserved": 0, "type": "electric_bike", "bike_id": "c18e84c34e2a9e321284db52cd44f565", "lat": 38.87731866666667, "lon": -77.11849816666667, "rental_uris": {"android": "https://dc.lft.to/lastmile_qr_scan", "ios": "https://dc.lft.to/lastmile_qr_scan"}, "is_disabled": 0, "fusion_lat": 0.0, "name": "c18e84c34e2a9e321284db52cd44f565", "fusion_lon": 0.0}, {"is_reserved": 0, "type": "electric_scooter", "bike_id": "cadcfe135c7b9ff24ccc2ceef196b3ff", "lat": 38.92070483333333, "lon": -77.02322233333334, "rental_uris": {"android": "https://dc.lft.to/lastmile_qr_scan", "ios": "https://dc.lft.to/lastmile_qr_scan"}, "is_disabled": 0, "fusion_lat": 0.0, "name": "cadcfe135c7b9ff24ccc2ceef196b3ff", "fusion_lon": 0.0}, {"is_reserved": 0, "type": "electric_scooter", "bike_id": "df520b19a72e1c0c48d74f1f615b74ae", "lat": 38.928758, "lon": -77.0328405, "rental_uris": {"android": "https://dc.lft.to/lastmile_qr_scan", "ios": "https://dc.lft.to/lastmile_qr_scan"}, "is_disabled": 0, "fusion_lat": 0.0, "name": "df520b19a72e1c0c48d74f1f615b74ae", "fusion_lon": 0.0}, {"is_reserved": 0, "type": "electric_scooter", "bike_id": "e674fc686013e1369aac3948931c50d5", "lat": 38.9340025, "lon": -77.02841933333333, "rental_uris": {"android": "https://dc.lft.to/lastmile_qr_scan", "ios": "https://dc.lft.to/lastmile_qr_scan"}, "is_disabled": 0, "fusion_lat": 0.0, "name": "e674fc686013e1369aac3948931c50d5", "fusion_lon": 0.0}, {"is_reserved": 0, "type": "electric_scooter", "bike_id": "fdfe5a9f02bb3feb82403a2fc2c573bf", "lat": 38.892396166666664, "lon": -77.04486383333334, "rental_uris": {"android": "https://dc.lft.to/lastmile_qr_scan", "ios": "https://dc.lft.to/lastmile_qr_scan"}, "is_disabled": 0, "fusion_lat": 0.0, "name": "fdfe5a9f02bb3feb82403a2fc2c573bf", "fusion_lon": 0.0}, {"is_reserved": 0, "type": "electric_scooter", "bike_id": "49ad10e459f821fe9ece566b12add34c", "lat": 38.889905166666665, "lon": -76.9929805, "rental_uris": {"android": "https://dc.lft.to/lastmile_qr_scan", "ios": "https://dc.lft.to/lastmile_qr_scan"}, "is_disabled": 0, "fusion_lat": 0.0, "name": "49ad10e459f821fe9ece566b12add34c", "fusion_lon": 0.0}, {"is_reserved": 0, "type": "electric_bike", "bike_id": "5e264fc6d3fcfcb80391c1166cb8877c", "lat": 39.08434033333333, "lon": -76.951472, "rental_uris": {"android": "https://dc.lft.to/lastmile_qr_scan", "ios": "https://dc.lft.to/lastmile_qr_scan"}, "is_disabled": 0, "fusion_lat": 0.0, "name": "5e264fc6d3fcfcb80391c1166cb8877c", "fusion_lon": 0.0}, {"is_reserved": 0, "type": "electric_scooter", "bike_id": "646aef6864802bc755002a6a4f6a0d33", "lat": 38.886597333333334, "lon": -76.93676683333334, "rental_uris": {"android": "https://dc.lft.to/lastmile_qr_scan", "ios": "https://dc.lft.to/lastmile_qr_scan"}, "is_disabled": 0, "fusion_lat": 0.0, "name": "646aef6864802bc755002a6a4f6a0d33", "fusion_lon": 0.0}, {"is_reserved": 0, "type": "electric_bike", "bike_id": "b25401cc2956564cc61b2c728ca235d1", "lat": 38.9453685, "lon": -77.3445905, "rental_uris": {"android": "https://dc.lft.to/lastmile_qr_scan", "ios": "https://dc.lft.to/lastmile_qr_scan"}, "is_disabled": 0, "fusion_lat": 0.0, "name": "b25401cc2956564cc61b2c728ca235d1", "fusion_lon": 0.0}, {"is_reserved": 0, "type": "electric_scooter", "bike_id": "dccc8f3ca46fbcf9469fd69d57bcd48d", "lat": 38.8827895, "lon": -76.994922, "rental_uris": {"android": "https://dc.lft.to/lastmile_qr_scan", "ios": "https://dc.lft.to/lastmile_qr_scan"}, "is_disabled": 0, "fusion_lat": 0.0, "name": "dccc8f3ca46fbcf9469fd69d57bcd48d", "fusion_lon": 0.0}, {"is_reserved": 0, "type": "electric_scooter", "bike_id": "e885c6788bd92e63864b5581e4dad6cf", "lat": 38.90082133333333, "lon": -76.92572483333333, "rental_uris": {"android": "https://dc.lft.to/lastmile_qr_scan", "ios": "https://dc.lft.to/lastmile_qr_scan"}, "is_disabled": 0, "fusion_lat": 0.0, "name": "e885c6788bd92e63864b5581e4dad6cf", "fusion_lon": 0.0}, {"is_reserved": 0, "type": "electric_scooter", "bike_id": "1c5b273114ecf2b1c173508b0aef5896", "lat": 38.90847516666667, "lon": -77.04740233333334, "rental_uris": {"android": "https://dc.lft.to/lastmile_qr_scan", "ios": "https://dc.lft.to/lastmile_qr_scan"}, "is_disabled": 0, "fusion_lat": 0.0, "name": "1c5b273114ecf2b1c173508b0aef5896", "fusion_lon": 0.0}, {"is_reserved": 0, "type": "electric_bike", "bike_id": "eab6fd2f6b31305b0e67793aff4d0c7f", "lat": 38.81942766666667, "lon": -77.00205666666666, "rental_uris": {"android": "https://dc.lft.to/lastmile_qr_scan", "ios": "https://dc.lft.to/lastmile_qr_scan"}, "is_disabled": 0, "fusion_lat": 0.0, "name": "eab6fd2f6b31305b0e67793aff4d0c7f", "fusion_lon": 0.0}, {"is_reserved": 0, "type": "electric_scooter", "bike_id": "2bb746d167323d48d1c5f1298621d38f", "lat": 38.934588833333336, "lon": -77.0208925, "rental_uris": {"android": "https://dc.lft.to/lastmile_qr_scan", "ios": "https://dc.lft.to/lastmile_qr_scan"}, "is_disabled": 0, "fusion_lat": 0.0, "name": "2bb746d167323d48d1c5f1298621d38f", "fusion_lon": 0.0}, {"is_reserved": 0, "type": "electric_scooter", "bike_id": "c0922dbec04ee7e31e741ac4e597d8b5", "lat": 38.90802216666667, "lon": -77.04483983333333, "rental_uris": {"android": "https://dc.lft.to/lastmile_qr_scan", "ios": "https://dc.lft.to/lastmile_qr_scan"}, "is_disabled": 0, "fusion_lat": 0.0, "name": "c0922dbec04ee7e31e741ac4e597d8b5", "fusion_lon": 0.0}, {"is_reserved": 0, "type": "electric_scooter", "bike_id": "577dd01ae50326dbcac8950f8a528124", "lat": 38.90037933333333, "lon": -76.99031116666667, "rental_uris": {"android": "https://dc.lft.to/lastmile_qr_scan", "ios": "https://dc.lft.to/lastmile_qr_scan"}, "is_disabled": 0, "fusion_lat": 0.0, "name": "577dd01ae50326dbcac8950f8a528124", "fusion_lon": 0.0}, {"is_reserved": 0, "type": "electric_scooter", "bike_id": "c4d0d03544b9a6f3dd1005668ef0433c", "lat": 38.87089783333333, "lon": -77.013772, "rental_uris": {"android": "https://dc.lft.to/lastmile_qr_scan", "ios": "https://dc.lft.to/lastmile_qr_scan"}, "is_disabled": 0, "fusion_lat": 0.0, "name": "c4d0d03544b9a6f3dd1005668ef0433c", "fusion_lon": 0.0}, {"is_reserved": 0, "type": "electric_scooter", "bike_id": "e769b298b866cc34af553d645d45a554", "lat": 38.9037685, "lon": -77.02863466666666, "rental_uris": {"android": "https://dc.lft.to/lastmile_qr_scan", "ios": "https://dc.lft.to/lastmile_qr_scan"}, "is_disabled": 0, "fusion_lat": 0.0, "name": "e769b298b866cc34af553d645d45a554", "fusion_lon": 0.0}, {"is_reserved": 0, "type": "electric_scooter", "bike_id": "b8027520b8661d52fc8ce6e3b8a6044e", "lat": 38.89880083333333, "lon": -77.048952, "rental_uris": {"android": "https://dc.lft.to/lastmile_qr_scan", "ios": "https://dc.lft.to/lastmile_qr_scan"}, "is_disabled": 0, "fusion_lat": 0.0, "name": "b8027520b8661d52fc8ce6e3b8a6044e", "fusion_lon": 0.0}, {"is_reserved": 0, "type": "electric_scooter", "bike_id": "2c736cb930e469599247c7e3479f03bd", "lat": 38.892251, "lon": -77.01603483333334, "rental_uris": {"android": "https://dc.lft.to/lastmile_qr_scan", "ios": "https://dc.lft.to/lastmile_qr_scan"}, "is_disabled": 0, "fusion_lat": 0.0, "name": "2c736cb930e469599247c7e3479f03bd", "fusion_lon": 0.0}, {"is_reserved": 0, "type": "electric_scooter", "bike_id": "f436b18c3fa963598e1b84f7387d6e1f", "lat": 38.89997416666667, "lon": -77.02900916666667, "rental_uris": {"android": "https://dc.lft.to/lastmile_qr_scan", "ios": "https://dc.lft.to/lastmile_qr_scan"}, "is_disabled": 0, "fusion_lat": 0.0, "name": "f436b18c3fa963598e1b84f7387d6e1f", "fusion_lon": 0.0}, {"is_reserved": 0, "type": "electric_scooter", "bike_id": "12db65a5c5f03b2e686679a905029b11", "lat": 38.8973425, "lon": -77.0237555, "rental_uris": {"android": "https://dc.lft.to/lastmile_qr_scan", "ios": "https://dc.lft.to/lastmile_qr_scan"}, "is_disabled": 0, "fusion_lat": 0.0, "name": "12db65a5c5f03b2e686679a905029b11", "fusion_lon": 0.0}, {"is_reserved": 0, "type": "electric_scooter", "bike_id": "8e12a34e6b7d923cc9e547f88b25641b", "lat": 38.91361083333334, "lon": -77.02000783333334, "rental_uris": {"android": "https://dc.lft.to/lastmile_qr_scan", "ios": "https://dc.lft.to/lastmile_qr_scan"}, "is_disabled": 0, "fusion_lat": 0.0, "name": "8e12a34e6b7d923cc9e547f88b25641b", "fusion_lon": 0.0}, {"is_reserved": 0, "type": "electric_bike", "bike_id": "f2926182d5c5d3db2d682685d5800073", "lat": 38.910655, "lon": -77.05338433333333, "rental_uris": {"android": "https://dc.lft.to/lastmile_qr_scan", "ios": "https://dc.lft.to/lastmile_qr_scan"}, "is_disabled": 0, "fusion_lat": 0.0, "name": "f2926182d5c5d3db2d682685d5800073", "fusion_lon": 0.0}, {"is_reserved": 0, "type": "electric_scooter", "bike_id": "6c51c6c04358f58167e341f9ad51e658", "lat": 38.92403316666667, "lon": -76.951546, "rental_uris": {"android": "https://dc.lft.to/lastmile_qr_scan", "ios": "https://dc.lft.to/lastmile_qr_scan"}, "is_disabled": 0, "fusion_lat": 0.0, "name": "6c51c6c04358f58167e341f9ad51e658", "fusion_lon": 0.0}, {"is_reserved": 0, "type": "electric_scooter", "bike_id": "07b09446e4a27cc2fc76f9f997ad3c80", "lat": 38.93396466666667, "lon": -77.04125733333333, "rental_uris": {"android": "https://dc.lft.to/lastmile_qr_scan", "ios": "https://dc.lft.to/lastmile_qr_scan"}, "is_disabled": 0, "fusion_lat": 0.0, "name": "07b09446e4a27cc2fc76f9f997ad3c80", "fusion_lon": 0.0}, {"is_reserved": 0, "type": "electric_scooter", "bike_id": "9ac61fcdf4a8306324014765163ccba1", "lat": 38.898589333333334, "lon": -76.9776535, "rental_uris": {"android": "https://dc.lft.to/lastmile_qr_scan", "ios": "https://dc.lft.to/lastmile_qr_scan"}, "is_disabled": 0, "fusion_lat": 0.0, "name": "9ac61fcdf4a8306324014765163ccba1", "fusion_lon": 0.0}, {"is_reserved": 0, "type": "electric_scooter", "bike_id": "fc0c78379842bcf229df7b6e32d74d4b", "lat": 38.88506566666667, "lon": -77.01759466666667, "rental_uris": {"android": "https://dc.lft.to/lastmile_qr_scan", "ios": "https://dc.lft.to/lastmile_qr_scan"}, "is_disabled": 0, "fusion_lat": 0.0, "name": "fc0c78379842bcf229df7b6e32d74d4b", "fusion_lon": 0.0}, {"is_reserved": 0, "type": "electric_bike", "bike_id": "18ebd542afcbbfcf34021acb0116997c", "lat": 38.943135166666664, "lon": -76.99016783333333, "rental_uris": {"android": "https://dc.lft.to/lastmile_qr_scan", "ios": "https://dc.lft.to/lastmile_qr_scan"}, "is_disabled": 0, "fusion_lat": 0.0, "name": "18ebd542afcbbfcf34021acb0116997c", "fusion_lon": 0.0}, {"is_reserved": 0, "type": "electric_scooter", "bike_id": "4de0be97ef8784133e41319116c1104d", "lat": 38.903936, "lon": -76.98947033333333, "rental_uris": {"android": "https://dc.lft.to/lastmile_qr_scan", "ios": "https://dc.lft.to/lastmile_qr_scan"}, "is_disabled": 0, "fusion_lat": 0.0, "name": "4de0be97ef8784133e41319116c1104d", "fusion_lon": 0.0}, {"is_reserved": 0, "type": "electric_scooter", "bike_id": "32ae5b664eca6c88d70ed971dea05a02", "lat": 38.900023833333336, "lon": -77.018957, "rental_uris": {"android": "https://dc.lft.to/lastmile_qr_scan", "ios": "https://dc.lft.to/lastmile_qr_scan"}, "is_disabled": 0, "fusion_lat": 0.0, "name": "32ae5b664eca6c88d70ed971dea05a02", "fusion_lon": 0.0}, {"is_reserved": 0, "type": "electric_bike", "bike_id": "f4d0ae28ec171876cf0fd337555706d2", "lat": 38.857826333333335, "lon": -76.98760916666667, "rental_uris": {"android": "https://dc.lft.to/lastmile_qr_scan", "ios": "https://dc.lft.to/lastmile_qr_scan"}, "is_disabled": 0, "fusion_lat": 0.0, "name": "f4d0ae28ec171876cf0fd337555706d2", "fusion_lon": 0.0}, {"is_reserved": 0, "type": "electric_bike", "bike_id": "6bcb376b0758c84a036fc34f8aee2f2f", "lat": 38.87209716666667, "lon": -77.1173855, "rental_uris": {"android": "https://dc.lft.to/lastmile_qr_scan", "ios": "https://dc.lft.to/lastmile_qr_scan"}, "is_disabled": 0, "fusion_lat": 0.0, "name": "6bcb376b0758c84a036fc34f8aee2f2f", "fusion_lon": 0.0}, {"is_reserved": 0, "type": "electric_bike", "bike_id": "189c8fdec530d37ad09c1face7d49178", "lat": 38.86452883333333, "lon": -76.97748316666667, "rental_uris": {"android": "https://dc.lft.to/lastmile_qr_scan", "ios": "https://dc.lft.to/lastmile_qr_scan"}, "is_disabled": 0, "fusion_lat": 0.0, "name": "189c8fdec530d37ad09c1face7d49178", "fusion_lon": 0.0}, {"is_reserved": 0, "type": "electric_scooter", "bike_id": "8747be5a33ac6a1e8ecfc2ed8b2e8bf6", "lat": 38.8842915, "lon": -76.9960005, "rental_uris": {"android": "https://dc.lft.to/lastmile_qr_scan", "ios": "https://dc.lft.to/lastmile_qr_scan"}, "is_disabled": 0, "fusion_lat": 0.0, "name": "8747be5a33ac6a1e8ecfc2ed8b2e8bf6", "fusion_lon": 0.0}, {"is_reserved": 0, "type": "electric_scooter", "bike_id": "0bda312109165ac2c7e061e16a2e2e56", "lat": 38.9059225, "lon": -77.03640616666667, "rental_uris": {"android": "https://dc.lft.to/lastmile_qr_scan", "ios": "https://dc.lft.to/lastmile_qr_scan"}, "is_disabled": 0, "fusion_lat": 0.0, "name": "0bda312109165ac2c7e061e16a2e2e56", "fusion_lon": 0.0}, {"is_reserved": 0, "type": "electric_scooter", "bike_id": "adb055d52e367d8806a468f47b428d07", "lat": 38.946929833333336, "lon": -77.0224665, "rental_uris": {"android": "https://dc.lft.to/lastmile_qr_scan", "ios": "https://dc.lft.to/lastmile_qr_scan"}, "is_disabled": 0, "fusion_lat": 0.0, "name": "adb055d52e367d8806a468f47b428d07", "fusion_lon": 0.0}, {"is_reserved": 0, "type": "electric_scooter", "bike_id": "c98b9158979a08add62955f53a9773f3", "lat": 38.905432, "lon": -77.059249, "rental_uris": {"android": "https://dc.lft.to/lastmile_qr_scan", "ios": "https://dc.lft.to/lastmile_qr_scan"}, "is_disabled": 0, "fusion_lat": 0.0, "name": "c98b9158979a08add62955f53a9773f3", "fusion_lon": 0.0}, {"is_reserved": 0, "type": "electric_scooter", "bike_id": "753804d141ce113cce6299fe0fb5a304", "lat": 38.927474833333335, "lon": -77.03417766666666, "rental_uris": {"android": "https://dc.lft.to/lastmile_qr_scan", "ios": "https://dc.lft.to/lastmile_qr_scan"}, "is_disabled": 0, "fusion_lat": 0.0, "name": "753804d141ce113cce6299fe0fb5a304", "fusion_lon": 0.0}, {"is_reserved": 0, "type": "electric_scooter", "bike_id": "1178327b2fb9eea932c668b5de4d8194", "lat": 38.920758, "lon": -77.0234155, "rental_uris": {"android": "https://dc.lft.to/lastmile_qr_scan", "ios": "https://dc.lft.to/lastmile_qr_scan"}, "is_disabled": 0, "fusion_lat": 0.0, "name": "1178327b2fb9eea932c668b5de4d8194", "fusion_lon": 0.0}, {"is_reserved": 0, "type": "electric_scooter", "bike_id": "58efa06ebc461e8caf386dc84d9d7a30", "lat": 38.908673, "lon": -77.0642015, "rental_uris": {"android": "https://dc.lft.to/lastmile_qr_scan", "ios": "https://dc.lft.to/lastmile_qr_scan"}, "is_disabled": 0, "fusion_lat": 0.0, "name": "58efa06ebc461e8caf386dc84d9d7a30", "fusion_lon": 0.0}, {"is_reserved": 0, "type": "electric_scooter", "bike_id": "510f0c565afaffa07a9cce7130be9ae8", "lat": 38.9364115, "lon": -77.08318116666666, "rental_uris": {"android": "https://dc.lft.to/lastmile_qr_scan", "ios": "https://dc.lft.to/lastmile_qr_scan"}, "is_disabled": 0, "fusion_lat": 0.0, "name": "510f0c565afaffa07a9cce7130be9ae8", "fusion_lon": 0.0}, {"is_reserved": 0, "type": "electric_scooter", "bike_id": "6e58fb700cceaba0d10f899c3b56f513", "lat": 38.907895, "lon": -77.0479885, "rental_uris": {"android": "https://dc.lft.to/lastmile_qr_scan", "ios": "https://dc.lft.to/lastmile_qr_scan"}, "is_disabled": 0, "fusion_lat": 0.0, "name": "6e58fb700cceaba0d10f899c3b56f513", "fusion_lon": 0.0}, {"is_reserved": 0, "type": "electric_scooter", "bike_id": "d44f23e61992a1e3f3e4bdef48d9cb4e", "lat": 38.892746, "lon": -77.03181816666667, "rental_uris": {"android": "https://dc.lft.to/lastmile_qr_scan", "ios": "https://dc.lft.to/lastmile_qr_scan"}, "is_disabled": 0, "fusion_lat": 0.0, "name": "d44f23e61992a1e3f3e4bdef48d9cb4e", "fusion_lon": 0.0}, {"is_reserved": 0, "type": "electric_scooter", "bike_id": "3a06a198cf82b778879dee5e3c90c2a8", "lat": 38.928683, "lon": -77.05370216666667, "rental_uris": {"android": "https://dc.lft.to/lastmile_qr_scan", "ios": "https://dc.lft.to/lastmile_qr_scan"}, "is_disabled": 0, "fusion_lat": 0.0, "name": "3a06a198cf82b778879dee5e3c90c2a8", "fusion_lon": 0.0}, {"is_reserved": 0, "type": "electric_scooter", "bike_id": "d3e3c9bc641aa735056fdfaa20e25789", "lat": 38.905382333333336, "lon": -77.05817333333333, "rental_uris": {"android": "https://dc.lft.to/lastmile_qr_scan", "ios": "https://dc.lft.to/lastmile_qr_scan"}, "is_disabled": 0, "fusion_lat": 0.0, "name": "d3e3c9bc641aa735056fdfaa20e25789", "fusion_lon": 0.0}, {"is_reserved": 0, "type": "electric_scooter", "bike_id": "d5da63963b462a7545bea96ce43b6bf2", "lat": 38.911186, "lon": -77.04360783333334, "rental_uris": {"android": "https://dc.lft.to/lastmile_qr_scan", "ios": "https://dc.lft.to/lastmile_qr_scan"}, "is_disabled": 0, "fusion_lat": 0.0, "name": "d5da63963b462a7545bea96ce43b6bf2", "fusion_lon": 0.0}, {"is_reserved": 0, "type": "electric_bike", "bike_id": "5b702a97ba7504bd603363c029b87237", "lat": 38.863291833333335, "lon": -76.98717733333334, "rental_uris": {"android": "https://dc.lft.to/lastmile_qr_scan", "ios": "https://dc.lft.to/lastmile_qr_scan"}, "is_disabled": 0, "fusion_lat": 0.0, "name": "5b702a97ba7504bd603363c029b87237", "fusion_lon": 0.0}, {"is_reserved": 0, "type": "electric_scooter", "bike_id": "e7911473d0a2676e4e860fbc37af6ecb", "lat": 38.925166, "lon": -77.0506285, "rental_uris": {"android": "https://dc.lft.to/lastmile_qr_scan", "ios": "https://dc.lft.to/lastmile_qr_scan"}, "is_disabled": 0, "fusion_lat": 0.0, "name": "e7911473d0a2676e4e860fbc37af6ecb", "fusion_lon": 0.0}, {"is_reserved": 0, "type": "electric_scooter", "bike_id": "5869143832080b58760b40a903af3282", "lat": 38.886277666666665, "lon": -77.02224566666666, "rental_uris": {"android": "https://dc.lft.to/lastmile_qr_scan", "ios": "https://dc.lft.to/lastmile_qr_scan"}, "is_disabled": 0, "fusion_lat": 0.0, "name": "5869143832080b58760b40a903af3282", "fusion_lon": 0.0}, {"is_reserved": 0, "type": "electric_scooter", "bike_id": "347ceccb74d973ff4e984c7f589d553a", "lat": 38.87539866666667, "lon": -77.00043916666667, "rental_uris": {"android": "https://dc.lft.to/lastmile_qr_scan", "ios": "https://dc.lft.to/lastmile_qr_scan"}, "is_disabled": 0, "fusion_lat": 0.0, "name": "347ceccb74d973ff4e984c7f589d553a", "fusion_lon": 0.0}, {"is_reserved": 0, "type": "electric_scooter", "bike_id": "8250d7b64513a983b9e1598c53d104ba", "lat": 38.908431, "lon": -77.04467716666667, "rental_uris": {"android": "https://dc.lft.to/lastmile_qr_scan", "ios": "https://dc.lft.to/lastmile_qr_scan"}, "is_disabled": 0, "fusion_lat": 0.0, "name": "8250d7b64513a983b9e1598c53d104ba", "fusion_lon": 0.0}, {"is_reserved": 0, "type": "electric_bike", "bike_id": "b967a064a64635a887d7f04c4a6247c4", "lat": 38.854163666666665, "lon": -77.08369633333334, "rental_uris": {"android": "https://dc.lft.to/lastmile_qr_scan", "ios": "https://dc.lft.to/lastmile_qr_scan"}, "is_disabled": 0, "fusion_lat": 0.0, "name": "b967a064a64635a887d7f04c4a6247c4", "fusion_lon": 0.0}, {"is_reserved": 0, "type": "electric_scooter", "bike_id": "9c2ceac6ad4f85a94d719ef1db58cb84", "lat": 38.92244816666667, "lon": -77.03085083333333, "rental_uris": {"android": "https://dc.lft.to/lastmile_qr_scan", "ios": "https://dc.lft.to/lastmile_qr_scan"}, "is_disabled": 0, "fusion_lat": 0.0, "name": "9c2ceac6ad4f85a94d719ef1db58cb84", "fusion_lon": 0.0}, {"is_reserved": 0, "type": "electric_bike", "bike_id": "101ee932543580cac9fb7beaedb637a0", "lat": 38.8698815, "lon": -77.22977983333334, "rental_uris": {"android": "https://dc.lft.to/lastmile_qr_scan", "ios": "https://dc.lft.to/lastmile_qr_scan"}, "is_disabled": 0, "fusion_lat": 0.0, "name": "101ee932543580cac9fb7beaedb637a0", "fusion_lon": 0.0}, {"is_reserved": 0, "type": "electric_scooter", "bike_id": "920ecae18c1adb5185f1400e43b5b149", "lat": 38.920778, "lon": -77.02322416666667, "rental_uris": {"android": "https://dc.lft.to/lastmile_qr_scan", "ios": "https://dc.lft.to/lastmile_qr_scan"}, "is_disabled": 0, "fusion_lat": 0.0, "name": "920ecae18c1adb5185f1400e43b5b149", "fusion_lon": 0.0}, {"is_reserved": 0, "type": "electric_scooter", "bike_id": "e46cda0c219b79c8da0c655a5aca125c", "lat": 38.900593666666666, "lon": -76.98656216666667, "rental_uris": {"android": "https://dc.lft.to/lastmile_qr_scan", "ios": "https://dc.lft.to/lastmile_qr_scan"}, "is_disabled": 0, "fusion_lat": 0.0, "name": "e46cda0c219b79c8da0c655a5aca125c", "fusion_lon": 0.0}, {"is_reserved": 0, "type": "electric_scooter", "bike_id": "a197b2388f4ed2d1ffd960b4fb91d331", "lat": 38.937594, "lon": -77.03156816666667, "rental_uris": {"android": "https://dc.lft.to/lastmile_qr_scan", "ios": "https://dc.lft.to/lastmile_qr_scan"}, "is_disabled": 0, "fusion_lat": 0.0, "name": "a197b2388f4ed2d1ffd960b4fb91d331", "fusion_lon": 0.0}, {"is_reserved": 0, "type": "electric_bike", "bike_id": "e42fd05a1b0be8d15253ed03b8e5654d", "lat": 38.889035166666666, "lon": -77.15956233333333, "rental_uris": {"android": "https://dc.lft.to/lastmile_qr_scan", "ios": "https://dc.lft.to/lastmile_qr_scan"}, "is_disabled": 0, "fusion_lat": 0.0, "name": "e42fd05a1b0be8d15253ed03b8e5654d", "fusion_lon": 0.0}, {"is_reserved": 0, "type": "electric_bike", "bike_id": "e247d6541454ab469b3b5bebc0c3032a", "lat": 38.932134833333336, "lon": -77.02336583333333, "rental_uris": {"android": "https://dc.lft.to/lastmile_qr_scan", "ios": "https://dc.lft.to/lastmile_qr_scan"}, "is_disabled": 0, "fusion_lat": 0.0, "name": "e247d6541454ab469b3b5bebc0c3032a", "fusion_lon": 0.0}, {"is_reserved": 0, "type": "electric_scooter", "bike_id": "8bb6d694b7996b2bcae80a76501572cd", "lat": 38.920952, "lon": -77.0178805, "rental_uris": {"android": "https://dc.lft.to/lastmile_qr_scan", "ios": "https://dc.lft.to/lastmile_qr_scan"}, "is_disabled": 0, "fusion_lat": 0.0, "name": "8bb6d694b7996b2bcae80a76501572cd", "fusion_lon": 0.0}, {"is_reserved": 0, "type": "electric_scooter", "bike_id": "9fce4092a241f378c388c354d6295ff9", "lat": 38.896479666666664, "lon": -77.0259865, "rental_uris": {"android": "https://dc.lft.to/lastmile_qr_scan", "ios": "https://dc.lft.to/lastmile_qr_scan"}, "is_disabled": 0, "fusion_lat": 0.0, "name": "9fce4092a241f378c388c354d6295ff9", "fusion_lon": 0.0}, {"is_reserved": 0, "type": "electric_scooter", "bike_id": "71d06d1a3df270ec31b95d7f0775fedc", "lat": 38.940332833333336, "lon": -77.026428, "rental_uris": {"android": "https://dc.lft.to/lastmile_qr_scan", "ios": "https://dc.lft.to/lastmile_qr_scan"}, "is_disabled": 0, "fusion_lat": 0.0, "name": "71d06d1a3df270ec31b95d7f0775fedc", "fusion_lon": 0.0}, {"is_reserved": 0, "type": "electric_scooter", "bike_id": "6b4de26dbef283b5eb5ec420785f7a14", "lat": 38.907202833333336, "lon": -77.04550816666666, "rental_uris": {"android": "https://dc.lft.to/lastmile_qr_scan", "ios": "https://dc.lft.to/lastmile_qr_scan"}, "is_disabled": 0, "fusion_lat": 0.0, "name": "6b4de26dbef283b5eb5ec420785f7a14", "fusion_lon": 0.0}, {"is_reserved": 0, "type": "electric_scooter", "bike_id": "b2e4aa8e8d5e0c76629fefce56f5a2c8", "lat": 38.90348083333333, "lon": -77.01111483333334, "rental_uris": {"android": "https://dc.lft.to/lastmile_qr_scan", "ios": "https://dc.lft.to/lastmile_qr_scan"}, "is_disabled": 0, "fusion_lat": 0.0, "name": "b2e4aa8e8d5e0c76629fefce56f5a2c8", "fusion_lon": 0.0}, {"is_reserved": 0, "type": "electric_scooter", "bike_id": "577bfdfa6de753ac97f2b8dd63a0a214", "lat": 38.882173333333334, "lon": -77.00616666666667, "rental_uris": {"android": "https://dc.lft.to/lastmile_qr_scan", "ios": "https://dc.lft.to/lastmile_qr_scan"}, "is_disabled": 0, "fusion_lat": 0.0, "name": "577bfdfa6de753ac97f2b8dd63a0a214", "fusion_lon": 0.0}, {"is_reserved": 0, "type": "electric_scooter", "bike_id": "452c0fd62f14844c7195bf640bf439b0", "lat": 38.90629716666667, "lon": -77.0435825, "rental_uris": {"android": "https://dc.lft.to/lastmile_qr_scan", "ios": "https://dc.lft.to/lastmile_qr_scan"}, "is_disabled": 0, "fusion_lat": 0.0, "name": "452c0fd62f14844c7195bf640bf439b0", "fusion_lon": 0.0}, {"is_reserved": 0, "type": "electric_scooter", "bike_id": "6a6165dea1e2f2b4d925b271a6cf14fc", "lat": 38.921094, "lon": -77.03183716666666, "rental_uris": {"android": "https://dc.lft.to/lastmile_qr_scan", "ios": "https://dc.lft.to/lastmile_qr_scan"}, "is_disabled": 0, "fusion_lat": 0.0, "name": "6a6165dea1e2f2b4d925b271a6cf14fc", "fusion_lon": 0.0}, {"is_reserved": 0, "type": "electric_scooter", "bike_id": "5d40983c47d519ffc9612d43c60f414d", "lat": 38.9286315, "lon": -77.03714083333334, "rental_uris": {"android": "https://dc.lft.to/lastmile_qr_scan", "ios": "https://dc.lft.to/lastmile_qr_scan"}, "is_disabled": 0, "fusion_lat": 0.0, "name": "5d40983c47d519ffc9612d43c60f414d", "fusion_lon": 0.0}, {"is_reserved": 0, "type": "electric_bike", "bike_id": "b129258dc2b8fc72597cb77464931738", "lat": 38.805619, "lon": -77.132263, "rental_uris": {"android": "https://dc.lft.to/lastmile_qr_scan", "ios": "https://dc.lft.to/lastmile_qr_scan"}, "is_disabled": 0, "fusion_lat": 0.0, "name": "b129258dc2b8fc72597cb77464931738", "fusion_lon": 0.0}, {"is_reserved": 0, "type": "electric_scooter", "bike_id": "227caf5c3cf8e0c1a380bbfd5adaf139", "lat": 38.905606666666664, "lon": -77.00755883333333, "rental_uris": {"android": "https://dc.lft.to/lastmile_qr_scan", "ios": "https://dc.lft.to/lastmile_qr_scan"}, "is_disabled": 0, "fusion_lat": 0.0, "name": "227caf5c3cf8e0c1a380bbfd5adaf139", "fusion_lon": 0.0}, {"is_reserved": 0, "type": "electric_scooter", "bike_id": "e6fe7f983818346a173237b25e69d89c", "lat": 38.915173333333335, "lon": -77.03460316666667, "rental_uris": {"android": "https://dc.lft.to/lastmile_qr_scan", "ios": "https://dc.lft.to/lastmile_qr_scan"}, "is_disabled": 0, "fusion_lat": 0.0, "name": "e6fe7f983818346a173237b25e69d89c", "fusion_lon": 0.0}, {"is_reserved": 0, "type": "electric_scooter", "bike_id": "473f02dd78692001e51011202f7acaa8", "lat": 38.89546816666667, "lon": -76.98339983333334, "rental_uris": {"android": "https://dc.lft.to/lastmile_qr_scan", "ios": "https://dc.lft.to/lastmile_qr_scan"}, "is_disabled": 0, "fusion_lat": 0.0, "name": "473f02dd78692001e51011202f7acaa8", "fusion_lon": 0.0}, {"is_reserved": 0, "type": "electric_bike", "bike_id": "7e2648bb2d7d845658423246799dc055", "lat": 38.98715883333333, "lon": -76.94584616666667, "rental_uris": {"android": "https://dc.lft.to/lastmile_qr_scan", "ios": "https://dc.lft.to/lastmile_qr_scan"}, "is_disabled": 0, "fusion_lat": 0.0, "name": "7e2648bb2d7d845658423246799dc055", "fusion_lon": 0.0}, {"is_reserved": 0, "type": "electric_scooter", "bike_id": "7111d91f46988284132d0a75285b0fc6", "lat": 38.93607433333333, "lon": -77.08186816666667, "rental_uris": {"android": "https://dc.lft.to/lastmile_qr_scan", "ios": "https://dc.lft.to/lastmile_qr_scan"}, "is_disabled": 0, "fusion_lat": 0.0, "name": "7111d91f46988284132d0a75285b0fc6", "fusion_lon": 0.0}, {"is_reserved": 0, "type": "electric_scooter", "bike_id": "3c9af934c45e26d80a3e7ea53ce195e0", "lat": 38.88652716666667, "lon": -76.99614616666666, "rental_uris": {"android": "https://dc.lft.to/lastmile_qr_scan", "ios": "https://dc.lft.to/lastmile_qr_scan"}, "is_disabled": 0, "fusion_lat": 0.0, "name": "3c9af934c45e26d80a3e7ea53ce195e0", "fusion_lon": 0.0}, {"is_reserved": 0, "type": "electric_scooter", "bike_id": "620476a4aa8f4b0c0c300b3898f5e652", "lat": 38.90362233333333, "lon": -77.0219855, "rental_uris": {"android": "https://dc.lft.to/lastmile_qr_scan", "ios": "https://dc.lft.to/lastmile_qr_scan"}, "is_disabled": 0, "fusion_lat": 0.0, "name": "620476a4aa8f4b0c0c300b3898f5e652", "fusion_lon": 0.0}, {"is_reserved": 0, "type": "electric_scooter", "bike_id": "9c104812e4536ac9d7e6862befc4e1ee", "lat": 38.88406116666667, "lon": -77.0193395, "rental_uris": {"android": "https://dc.lft.to/lastmile_qr_scan", "ios": "https://dc.lft.to/lastmile_qr_scan"}, "is_disabled": 0, "fusion_lat": 0.0, "name": "9c104812e4536ac9d7e6862befc4e1ee", "fusion_lon": 0.0}, {"is_reserved": 0, "type": "electric_bike", "bike_id": "d332f5e7029eb5a24b4a6259dfc9e5fa", "lat": 38.94796633333333, "lon": -76.94252583333333, "rental_uris": {"android": "https://dc.lft.to/lastmile_qr_scan", "ios": "https://dc.lft.to/lastmile_qr_scan"}, "is_disabled": 0, "fusion_lat": 0.0, "name": "d332f5e7029eb5a24b4a6259dfc9e5fa", "fusion_lon": 0.0}, {"is_reserved": 0, "type": "electric_scooter", "bike_id": "eac41b17b35d8f1a5d05779d6396562d", "lat": 38.91141483333333, "lon": -76.9846605, "rental_uris": {"android": "https://dc.lft.to/lastmile_qr_scan", "ios": "https://dc.lft.to/lastmile_qr_scan"}, "is_disabled": 0, "fusion_lat": 0.0, "name": "eac41b17b35d8f1a5d05779d6396562d", "fusion_lon": 0.0}, {"is_reserved": 0, "type": "electric_scooter", "bike_id": "7afaeb059b90ded003d22e3123ea0d1c", "lat": 38.908455333333336, "lon": -77.0206005, "rental_uris": {"android": "https://dc.lft.to/lastmile_qr_scan", "ios": "https://dc.lft.to/lastmile_qr_scan"}, "is_disabled": 0, "fusion_lat": 0.0, "name": "7afaeb059b90ded003d22e3123ea0d1c", "fusion_lon": 0.0}, {"is_reserved": 0, "type": "electric_scooter", "bike_id": "5dc5b658d33fc1839d8e24d5d4eba817", "lat": 38.930993666666666, "lon": -77.02403816666667, "rental_uris": {"android": "https://dc.lft.to/lastmile_qr_scan", "ios": "https://dc.lft.to/lastmile_qr_scan"}, "is_disabled": 0, "fusion_lat": 0.0, "name": "5dc5b658d33fc1839d8e24d5d4eba817", "fusion_lon": 0.0}, {"is_reserved": 0, "type": "electric_scooter", "bike_id": "114703e6e5294680e19cfec869fd47ca", "lat": 38.89655783333333, "lon": -77.02608716666667, "rental_uris": {"android": "https://dc.lft.to/lastmile_qr_scan", "ios": "https://dc.lft.to/lastmile_qr_scan"}, "is_disabled": 0, "fusion_lat": 0.0, "name": "114703e6e5294680e19cfec869fd47ca", "fusion_lon": 0.0}, {"is_reserved": 0, "type": "electric_scooter", "bike_id": "7d1cf8e9714f2a1b3b8724e226267d2f", "lat": 38.912673833333336, "lon": -77.01765883333333, "rental_uris": {"android": "https://dc.lft.to/lastmile_qr_scan", "ios": "https://dc.lft.to/lastmile_qr_scan"}, "is_disabled": 0, "fusion_lat": 0.0, "name": "7d1cf8e9714f2a1b3b8724e226267d2f", "fusion_lon": 0.0}, {"is_reserved": 0, "type": "electric_scooter", "bike_id": "e08fa858aab7b21b40fb4a4da30eb3de", "lat": 38.92374516666667, "lon": -77.03134333333334, "rental_uris": {"android": "https://dc.lft.to/lastmile_qr_scan", "ios": "https://dc.lft.to/lastmile_qr_scan"}, "is_disabled": 0, "fusion_lat": 0.0, "name": "e08fa858aab7b21b40fb4a4da30eb3de", "fusion_lon": 0.0}, {"is_reserved": 0, "type": "electric_bike", "bike_id": "3eb07f483b39abeb2d07db5eb5c82ab8", "lat": 38.973437, "lon": -76.9960275, "rental_uris": {"android": "https://dc.lft.to/lastmile_qr_scan", "ios": "https://dc.lft.to/lastmile_qr_scan"}, "is_disabled": 0, "fusion_lat": 0.0, "name": "3eb07f483b39abeb2d07db5eb5c82ab8", "fusion_lon": 0.0}, {"is_reserved": 0, "type": "electric_scooter", "bike_id": "0032155862487c237ba3ef0ba51fb385", "lat": 38.89502183333333, "lon": -76.93479116666667, "rental_uris": {"android": "https://dc.lft.to/lastmile_qr_scan", "ios": "https://dc.lft.to/lastmile_qr_scan"}, "is_disabled": 0, "fusion_lat": 0.0, "name": "0032155862487c237ba3ef0ba51fb385", "fusion_lon": 0.0}, {"is_reserved": 0, "type": "electric_bike", "bike_id": "24a59fb30cff8b4c12a2add575b937ae", "lat": 39.04235583333333, "lon": -76.99737616666667, "rental_uris": {"android": "https://dc.lft.to/lastmile_qr_scan", "ios": "https://dc.lft.to/lastmile_qr_scan"}, "is_disabled": 0, "fusion_lat": 0.0, "name": "24a59fb30cff8b4c12a2add575b937ae", "fusion_lon": 0.0}, {"is_reserved": 0, "type": "electric_scooter", "bike_id": "b3553ddb716bd343a8cfa06439f3b207", "lat": 38.900771, "lon": -76.9801985, "rental_uris": {"android": "https://dc.lft.to/lastmile_qr_scan", "ios": "https://dc.lft.to/lastmile_qr_scan"}, "is_disabled": 0, "fusion_lat": 0.0, "name": "b3553ddb716bd343a8cfa06439f3b207", "fusion_lon": 0.0}, {"is_reserved": 0, "type": "electric_bike", "bike_id": "eba46a01f8855baf44f951f9b93cde42", "lat": 38.936597, "lon": -77.03426166666667, "rental_uris": {"android": "https://dc.lft.to/lastmile_qr_scan", "ios": "https://dc.lft.to/lastmile_qr_scan"}, "is_disabled": 0, "fusion_lat": 0.0, "name": "eba46a01f8855baf44f951f9b93cde42", "fusion_lon": 0.0}, {"is_reserved": 0, "type": "electric_scooter", "bike_id": "b30569b2991312ff2a5f15a7e989123f", "lat": 38.911160333333335, "lon": -77.00366083333333, "rental_uris": {"android": "https://dc.lft.to/lastmile_qr_scan", "ios": "https://dc.lft.to/lastmile_qr_scan"}, "is_disabled": 0, "fusion_lat": 0.0, "name": "b30569b2991312ff2a5f15a7e989123f", "fusion_lon": 0.0}, {"is_reserved": 0, "type": "electric_scooter", "bike_id": "61ef0177b005835d81e054d00cd22be5", "lat": 38.9497705, "lon": -77.0244685, "rental_uris": {"android": "https://dc.lft.to/lastmile_qr_scan", "ios": "https://dc.lft.to/lastmile_qr_scan"}, "is_disabled": 0, "fusion_lat": 0.0, "name": "61ef0177b005835d81e054d00cd22be5", "fusion_lon": 0.0}, {"is_reserved": 0, "type": "electric_scooter", "bike_id": "b6a25d2544304bed90f89d840737f843", "lat": 38.928734666666664, "lon": -77.03448916666666, "rental_uris": {"android": "https://dc.lft.to/lastmile_qr_scan", "ios": "https://dc.lft.to/lastmile_qr_scan"}, "is_disabled": 0, "fusion_lat": 0.0, "name": "b6a25d2544304bed90f89d840737f843", "fusion_lon": 0.0}, {"is_reserved": 0, "type": "electric_bike", "bike_id": "12eff409a5982a08a1b6bbdc2a99cd71", "lat": 38.908015166666665, "lon": -77.0238195, "rental_uris": {"android": "https://dc.lft.to/lastmile_qr_scan", "ios": "https://dc.lft.to/lastmile_qr_scan"}, "is_disabled": 0, "fusion_lat": 0.0, "name": "12eff409a5982a08a1b6bbdc2a99cd71", "fusion_lon": 0.0}, {"is_reserved": 0, "type": "electric_scooter", "bike_id": "7170f93f1ae61e75758fe1035c9140dd", "lat": 38.905628166666666, "lon": -77.0427915, "rental_uris": {"android": "https://dc.lft.to/lastmile_qr_scan", "ios": "https://dc.lft.to/lastmile_qr_scan"}, "is_disabled": 0, "fusion_lat": 0.0, "name": "7170f93f1ae61e75758fe1035c9140dd", "fusion_lon": 0.0}, {"is_reserved": 0, "type": "electric_bike", "bike_id": "333dd168e3026252b722780c2a9f3c4a", "lat": 38.882439166666664, "lon": -76.962628, "rental_uris": {"android": "https://dc.lft.to/lastmile_qr_scan", "ios": "https://dc.lft.to/lastmile_qr_scan"}, "is_disabled": 0, "fusion_lat": 0.0, "name": "333dd168e3026252b722780c2a9f3c4a", "fusion_lon": 0.0}, {"is_reserved": 0, "type": "electric_bike", "bike_id": "025708318a59677ddf3c9ddac499eec6", "lat": 38.955971, "lon": -76.99535533333334, "rental_uris": {"android": "https://dc.lft.to/lastmile_qr_scan", "ios": "https://dc.lft.to/lastmile_qr_scan"}, "is_disabled": 0, "fusion_lat": 0.0, "name": "025708318a59677ddf3c9ddac499eec6", "fusion_lon": 0.0}, {"is_reserved": 0, "type": "electric_scooter", "bike_id": "573bb5da476e57d1647f939a96447d1d", "lat": 38.88746733333333, "lon": -77.01741616666666, "rental_uris": {"android": "https://dc.lft.to/lastmile_qr_scan", "ios": "https://dc.lft.to/lastmile_qr_scan"}, "is_disabled": 0, "fusion_lat": 0.0, "name": "573bb5da476e57d1647f939a96447d1d", "fusion_lon": 0.0}, {"is_reserved": 0, "type": "electric_scooter", "bike_id": "0c316aabce6a0a11f4b5ba77fbed57fb", "lat": 38.940038333333334, "lon": -77.02736916666667, "rental_uris": {"android": "https://dc.lft.to/lastmile_qr_scan", "ios": "https://dc.lft.to/lastmile_qr_scan"}, "is_disabled": 0, "fusion_lat": 0.0, "name": "0c316aabce6a0a11f4b5ba77fbed57fb", "fusion_lon": 0.0}, {"is_reserved": 0, "type": "electric_scooter", "bike_id": "df36698966a7871ada49a479e0c7db83", "lat": 38.905615166666664, "lon": -76.99779, "rental_uris": {"android": "https://dc.lft.to/lastmile_qr_scan", "ios": "https://dc.lft.to/lastmile_qr_scan"}, "is_disabled": 0, "fusion_lat": 0.0, "name": "df36698966a7871ada49a479e0c7db83", "fusion_lon": 0.0}, {"is_reserved": 0, "type": "electric_scooter", "bike_id": "7b881900c43f14efb58498a2ba28a06f", "lat": 38.924499, "lon": -77.02032466666667, "rental_uris": {"android": "https://dc.lft.to/lastmile_qr_scan", "ios": "https://dc.lft.to/lastmile_qr_scan"}, "is_disabled": 0, "fusion_lat": 0.0, "name": "7b881900c43f14efb58498a2ba28a06f", "fusion_lon": 0.0}, {"is_reserved": 0, "type": "electric_scooter", "bike_id": "cb9b7b5e57cfaccf81a38796c04f968d", "lat": 38.89953283333333, "lon": -77.05393133333334, "rental_uris": {"android": "https://dc.lft.to/lastmile_qr_scan", "ios": "https://dc.lft.to/lastmile_qr_scan"}, "is_disabled": 0, "fusion_lat": 0.0, "name": "cb9b7b5e57cfaccf81a38796c04f968d", "fusion_lon": 0.0}, {"is_reserved": 0, "type": "electric_scooter", "bike_id": "01a8dfb800b95af95494d1413b4af511", "lat": 38.9008835, "lon": -77.016232, "rental_uris": {"android": "https://dc.lft.to/lastmile_qr_scan", "ios": "https://dc.lft.to/lastmile_qr_scan"}, "is_disabled": 0, "fusion_lat": 0.0, "name": "01a8dfb800b95af95494d1413b4af511", "fusion_lon": 0.0}, {"is_reserved": 0, "type": "electric_scooter", "bike_id": "254f48e500e5c8b10c9a0212e88e3da3", "lat": 38.93781533333333, "lon": -77.07453233333334, "rental_uris": {"android": "https://dc.lft.to/lastmile_qr_scan", "ios": "https://dc.lft.to/lastmile_qr_scan"}, "is_disabled": 0, "fusion_lat": 0.0, "name": "254f48e500e5c8b10c9a0212e88e3da3", "fusion_lon": 0.0}, {"is_reserved": 0, "type": "electric_scooter", "bike_id": "a4c1b5fdd2e26791306c74a08ab493c2", "lat": 38.9206805, "lon": -77.0250565, "rental_uris": {"android": "https://dc.lft.to/lastmile_qr_scan", "ios": "https://dc.lft.to/lastmile_qr_scan"}, "is_disabled": 0, "fusion_lat": 0.0, "name": "a4c1b5fdd2e26791306c74a08ab493c2", "fusion_lon": 0.0}, {"is_reserved": 0, "type": "electric_scooter", "bike_id": "b24a82e8c6507306d7eb957d2f807480", "lat": 38.935255833333336, "lon": -77.02849783333333, "rental_uris": {"android": "https://dc.lft.to/lastmile_qr_scan", "ios": "https://dc.lft.to/lastmile_qr_scan"}, "is_disabled": 0, "fusion_lat": 0.0, "name": "b24a82e8c6507306d7eb957d2f807480", "fusion_lon": 0.0}, {"is_reserved": 0, "type": "electric_scooter", "bike_id": "5b80f7c775297b80d2c435732fc28d79", "lat": 38.89922166666667, "lon": -77.03368083333334, "rental_uris": {"android": "https://dc.lft.to/lastmile_qr_scan", "ios": "https://dc.lft.to/lastmile_qr_scan"}, "is_disabled": 0, "fusion_lat": 0.0, "name": "5b80f7c775297b80d2c435732fc28d79", "fusion_lon": 0.0}, {"is_reserved": 0, "type": "electric_scooter", "bike_id": "816d69f1d2befb2ab871997bd664fad1", "lat": 38.907398, "lon": -77.00760216666667, "rental_uris": {"android": "https://dc.lft.to/lastmile_qr_scan", "ios": "https://dc.lft.to/lastmile_qr_scan"}, "is_disabled": 0, "fusion_lat": 0.0, "name": "816d69f1d2befb2ab871997bd664fad1", "fusion_lon": 0.0}, {"is_reserved": 0, "type": "electric_scooter", "bike_id": "331bf22605159f932d49171d3bb8413f", "lat": 38.9215155, "lon": -77.038699, "rental_uris": {"android": "https://dc.lft.to/lastmile_qr_scan", "ios": "https://dc.lft.to/lastmile_qr_scan"}, "is_disabled": 0, "fusion_lat": 0.0, "name": "331bf22605159f932d49171d3bb8413f", "fusion_lon": 0.0}, {"is_reserved": 0, "type": "electric_scooter", "bike_id": "2436faac4fc9ccea3d57134bc1e15117", "lat": 38.9231415, "lon": -77.04513866666667, "rental_uris": {"android": "https://dc.lft.to/lastmile_qr_scan", "ios": "https://dc.lft.to/lastmile_qr_scan"}, "is_disabled": 0, "fusion_lat": 0.0, "name": "2436faac4fc9ccea3d57134bc1e15117", "fusion_lon": 0.0}, {"is_reserved": 0, "type": "electric_scooter", "bike_id": "6ecdd9541b08511f048f7eef8a3e75ea", "lat": 38.8891945, "lon": -76.99378533333334, "rental_uris": {"android": "https://dc.lft.to/lastmile_qr_scan", "ios": "https://dc.lft.to/lastmile_qr_scan"}, "is_disabled": 0, "fusion_lat": 0.0, "name": "6ecdd9541b08511f048f7eef8a3e75ea", "fusion_lon": 0.0}, {"is_reserved": 0, "type": "electric_scooter", "bike_id": "94adcb307e99bf55e74fdea072cd7097", "lat": 38.920648, "lon": -77.03220183333333, "rental_uris": {"android": "https://dc.lft.to/lastmile_qr_scan", "ios": "https://dc.lft.to/lastmile_qr_scan"}, "is_disabled": 0, "fusion_lat": 0.0, "name": "94adcb307e99bf55e74fdea072cd7097", "fusion_lon": 0.0}, {"is_reserved": 0, "type": "electric_scooter", "bike_id": "57d1568d64f3bd64440e61ddb59a69d7", "lat": 38.88201866666667, "lon": -77.006039, "rental_uris": {"android": "https://dc.lft.to/lastmile_qr_scan", "ios": "https://dc.lft.to/lastmile_qr_scan"}, "is_disabled": 0, "fusion_lat": 0.0, "name": "57d1568d64f3bd64440e61ddb59a69d7", "fusion_lon": 0.0}, {"is_reserved": 0, "type": "electric_scooter", "bike_id": "ea0e5f1556fdfa8f6987fc1c2a2764c7", "lat": 38.921201333333336, "lon": -77.039341, "rental_uris": {"android": "https://dc.lft.to/lastmile_qr_scan", "ios": "https://dc.lft.to/lastmile_qr_scan"}, "is_disabled": 0, "fusion_lat": 0.0, "name": "ea0e5f1556fdfa8f6987fc1c2a2764c7", "fusion_lon": 0.0}, {"is_reserved": 0, "type": "electric_scooter", "bike_id": "03534a09ce272c38217f20b34d6b1984", "lat": 38.89643183333333, "lon": -77.03306316666666, "rental_uris": {"android": "https://dc.lft.to/lastmile_qr_scan", "ios": "https://dc.lft.to/lastmile_qr_scan"}, "is_disabled": 0, "fusion_lat": 0.0, "name": "03534a09ce272c38217f20b34d6b1984", "fusion_lon": 0.0}, {"is_reserved": 0, "type": "electric_bike", "bike_id": "adb7ac730a3a936ee2047dd55f5547a4", "lat": 38.932108666666664, "lon": -77.02247616666666, "rental_uris": {"android": "https://dc.lft.to/lastmile_qr_scan", "ios": "https://dc.lft.to/lastmile_qr_scan"}, "is_disabled": 0, "fusion_lat": 0.0, "name": "adb7ac730a3a936ee2047dd55f5547a4", "fusion_lon": 0.0}, {"is_reserved": 0, "type": "electric_scooter", "bike_id": "ccb5ac21eb31d322a79e1e9205a0b35b", "lat": 38.9596115, "lon": -77.07262516666667, "rental_uris": {"android": "https://dc.lft.to/lastmile_qr_scan", "ios": "https://dc.lft.to/lastmile_qr_scan"}, "is_disabled": 0, "fusion_lat": 0.0, "name": "ccb5ac21eb31d322a79e1e9205a0b35b", "fusion_lon": 0.0}, {"is_reserved": 0, "type": "electric_scooter", "bike_id": "ecd886edcdf23a771c975ded5ee0a342", "lat": 38.9042745, "lon": -77.02599966666666, "rental_uris": {"android": "https://dc.lft.to/lastmile_qr_scan", "ios": "https://dc.lft.to/lastmile_qr_scan"}, "is_disabled": 0, "fusion_lat": 0.0, "name": "ecd886edcdf23a771c975ded5ee0a342", "fusion_lon": 0.0}, {"is_reserved": 0, "type": "electric_scooter", "bike_id": "4ba0bb0ee0fd78b1d9fd10fed5f13823", "lat": 38.943013666666666, "lon": -77.020025, "rental_uris": {"android": "https://dc.lft.to/lastmile_qr_scan", "ios": "https://dc.lft.to/lastmile_qr_scan"}, "is_disabled": 0, "fusion_lat": 0.0, "name": "4ba0bb0ee0fd78b1d9fd10fed5f13823", "fusion_lon": 0.0}, {"is_reserved": 0, "type": "electric_scooter", "bike_id": "7bca874e7026405ae4f1eca571ef71f0", "lat": 38.9318255, "lon": -77.0262965, "rental_uris": {"android": "https://dc.lft.to/lastmile_qr_scan", "ios": "https://dc.lft.to/lastmile_qr_scan"}, "is_disabled": 0, "fusion_lat": 0.0, "name": "7bca874e7026405ae4f1eca571ef71f0", "fusion_lon": 0.0}, {"is_reserved": 0, "type": "electric_scooter", "bike_id": "0802957c2feeb38c6eb42cfad914f68e", "lat": 38.88773066666667, "lon": -76.9326105, "rental_uris": {"android": "https://dc.lft.to/lastmile_qr_scan", "ios": "https://dc.lft.to/lastmile_qr_scan"}, "is_disabled": 0, "fusion_lat": 0.0, "name": "0802957c2feeb38c6eb42cfad914f68e", "fusion_lon": 0.0}, {"is_reserved": 0, "type": "electric_scooter", "bike_id": "d5b0f62ba5460b7cde2ca8bf806f6040", "lat": 38.905173166666664, "lon": -76.99564883333333, "rental_uris": {"android": "https://dc.lft.to/lastmile_qr_scan", "ios": "https://dc.lft.to/lastmile_qr_scan"}, "is_disabled": 0, "fusion_lat": 0.0, "name": "d5b0f62ba5460b7cde2ca8bf806f6040", "fusion_lon": 0.0}, {"is_reserved": 0, "type": "electric_scooter", "bike_id": "242b1538544316fd225de580267cb236", "lat": 38.91917616666667, "lon": -77.03432883333333, "rental_uris": {"android": "https://dc.lft.to/lastmile_qr_scan", "ios": "https://dc.lft.to/lastmile_qr_scan"}, "is_disabled": 0, "fusion_lat": 0.0, "name": "242b1538544316fd225de580267cb236", "fusion_lon": 0.0}, {"is_reserved": 0, "type": "electric_scooter", "bike_id": "b5d60f37f11a7b9e3fb7b5859b830fe8", "lat": 38.921420833333336, "lon": -77.01221616666666, "rental_uris": {"android": "https://dc.lft.to/lastmile_qr_scan", "ios": "https://dc.lft.to/lastmile_qr_scan"}, "is_disabled": 0, "fusion_lat": 0.0, "name": "b5d60f37f11a7b9e3fb7b5859b830fe8", "fusion_lon": 0.0}, {"is_reserved": 0, "type": "electric_scooter", "bike_id": "dfd93a1538ac2c640d1ac8dc0600b5f9", "lat": 38.905299, "lon": -77.06703116666667, "rental_uris": {"android": "https://dc.lft.to/lastmile_qr_scan", "ios": "https://dc.lft.to/lastmile_qr_scan"}, "is_disabled": 0, "fusion_lat": 0.0, "name": "dfd93a1538ac2c640d1ac8dc0600b5f9", "fusion_lon": 0.0}, {"is_reserved": 0, "type": "electric_scooter", "bike_id": "10c619d1261cea605e52534898db4c7b", "lat": 38.886442833333334, "lon": -76.99625066666667, "rental_uris": {"android": "https://dc.lft.to/lastmile_qr_scan", "ios": "https://dc.lft.to/lastmile_qr_scan"}, "is_disabled": 0, "fusion_lat": 0.0, "name": "10c619d1261cea605e52534898db4c7b", "fusion_lon": 0.0}, {"is_reserved": 0, "type": "electric_scooter", "bike_id": "df2015a7be2064d91cdfb2b54176ab51", "lat": 38.905774666666666, "lon": -77.02181316666666, "rental_uris": {"android": "https://dc.lft.to/lastmile_qr_scan", "ios": "https://dc.lft.to/lastmile_qr_scan"}, "is_disabled": 0, "fusion_lat": 0.0, "name": "df2015a7be2064d91cdfb2b54176ab51", "fusion_lon": 0.0}, {"is_reserved": 0, "type": "electric_scooter", "bike_id": "c4e9208701829f288756c97842e87f9f", "lat": 38.92770683333333, "lon": -77.02791083333334, "rental_uris": {"android": "https://dc.lft.to/lastmile_qr_scan", "ios": "https://dc.lft.to/lastmile_qr_scan"}, "is_disabled": 0, "fusion_lat": 0.0, "name": "c4e9208701829f288756c97842e87f9f", "fusion_lon": 0.0}, {"is_reserved": 0, "type": "electric_scooter", "bike_id": "8b24d9e7f10c22a29ad8b2a9a1d14b6b", "lat": 38.894383, "lon": -76.9808495, "rental_uris": {"android": "https://dc.lft.to/lastmile_qr_scan", "ios": "https://dc.lft.to/lastmile_qr_scan"}, "is_disabled": 0, "fusion_lat": 0.0, "name": "8b24d9e7f10c22a29ad8b2a9a1d14b6b", "fusion_lon": 0.0}, {"is_reserved": 0, "type": "electric_scooter", "bike_id": "64b51cdbdf803c7f6c8824deeeef9537", "lat": 38.91570183333333, "lon": -77.03659616666667, "rental_uris": {"android": "https://dc.lft.to/lastmile_qr_scan", "ios": "https://dc.lft.to/lastmile_qr_scan"}, "is_disabled": 0, "fusion_lat": 0.0, "name": "64b51cdbdf803c7f6c8824deeeef9537", "fusion_lon": 0.0}, {"is_reserved": 0, "type": "electric_scooter", "bike_id": "ea591cbe9d0d677c8e8c4f5bb6b04d68", "lat": 38.9111915, "lon": -77.01825716666667, "rental_uris": {"android": "https://dc.lft.to/lastmile_qr_scan", "ios": "https://dc.lft.to/lastmile_qr_scan"}, "is_disabled": 0, "fusion_lat": 0.0, "name": "ea591cbe9d0d677c8e8c4f5bb6b04d68", "fusion_lon": 0.0}, {"is_reserved": 0, "type": "electric_scooter", "bike_id": "e657fcfae8288b2cc0b61e43996f425e", "lat": 38.9306195, "lon": -77.028422, "rental_uris": {"android": "https://dc.lft.to/lastmile_qr_scan", "ios": "https://dc.lft.to/lastmile_qr_scan"}, "is_disabled": 0, "fusion_lat": 0.0, "name": "e657fcfae8288b2cc0b61e43996f425e", "fusion_lon": 0.0}, {"is_reserved": 0, "type": "electric_scooter", "bike_id": "39fbf022cfc4c609b63b0a739f6bd2f6", "lat": 38.938249, "lon": -77.02639133333334, "rental_uris": {"android": "https://dc.lft.to/lastmile_qr_scan", "ios": "https://dc.lft.to/lastmile_qr_scan"}, "is_disabled": 0, "fusion_lat": 0.0, "name": "39fbf022cfc4c609b63b0a739f6bd2f6", "fusion_lon": 0.0}, {"is_reserved": 0, "type": "electric_bike", "bike_id": "b12ba3f3b227fd165825a2f13943fe3a", "lat": 38.9742145, "lon": -77.01256, "rental_uris": {"android": "https://dc.lft.to/lastmile_qr_scan", "ios": "https://dc.lft.to/lastmile_qr_scan"}, "is_disabled": 0, "fusion_lat": 0.0, "name": "b12ba3f3b227fd165825a2f13943fe3a", "fusion_lon": 0.0}, {"is_reserved": 0, "type": "electric_scooter", "bike_id": "5d3e2bf2f34ab9197016975b3195be05", "lat": 38.895953666666664, "lon": -77.02588116666666, "rental_uris": {"android": "https://dc.lft.to/lastmile_qr_scan", "ios": "https://dc.lft.to/lastmile_qr_scan"}, "is_disabled": 0, "fusion_lat": 0.0, "name": "5d3e2bf2f34ab9197016975b3195be05", "fusion_lon": 0.0}, {"is_reserved": 0, "type": "electric_scooter", "bike_id": "c8d9ec4f8504b111c31d0beb201e84ae", "lat": 38.92015416666667, "lon": -77.02950016666666, "rental_uris": {"android": "https://dc.lft.to/lastmile_qr_scan", "ios": "https://dc.lft.to/lastmile_qr_scan"}, "is_disabled": 0, "fusion_lat": 0.0, "name": "c8d9ec4f8504b111c31d0beb201e84ae", "fusion_lon": 0.0}, {"is_reserved": 0, "type": "electric_scooter", "bike_id": "f2684cd54cff041d0baf540fa84c5c31", "lat": 38.919892833333336, "lon": -77.03312933333333, "rental_uris": {"android": "https://dc.lft.to/lastmile_qr_scan", "ios": "https://dc.lft.to/lastmile_qr_scan"}, "is_disabled": 0, "fusion_lat": 0.0, "name": "f2684cd54cff041d0baf540fa84c5c31", "fusion_lon": 0.0}, {"is_reserved": 0, "type": "electric_scooter", "bike_id": "e6f5f9169e6568724de0d6f4a4efe4f3", "lat": 38.896068, "lon": -77.047043, "rental_uris": {"android": "https://dc.lft.to/lastmile_qr_scan", "ios": "https://dc.lft.to/lastmile_qr_scan"}, "is_disabled": 0, "fusion_lat": 0.0, "name": "e6f5f9169e6568724de0d6f4a4efe4f3", "fusion_lon": 0.0}, {"is_reserved": 0, "type": "electric_scooter", "bike_id": "7e2e19b03b0a9ec1193a6f5c37f29985", "lat": 38.892732333333335, "lon": -76.95256083333334, "rental_uris": {"android": "https://dc.lft.to/lastmile_qr_scan", "ios": "https://dc.lft.to/lastmile_qr_scan"}, "is_disabled": 0, "fusion_lat": 0.0, "name": "7e2e19b03b0a9ec1193a6f5c37f29985", "fusion_lon": 0.0}, {"is_reserved": 0, "type": "electric_scooter", "bike_id": "431cb7e75a037badfe182867dfc72778", "lat": 38.897535500000004, "lon": -77.0020215, "rental_uris": {"android": "https://dc.lft.to/lastmile_qr_scan", "ios": "https://dc.lft.to/lastmile_qr_scan"}, "is_disabled": 0, "fusion_lat": 0.0, "name": "431cb7e75a037badfe182867dfc72778", "fusion_lon": 0.0}, {"is_reserved": 0, "type": "electric_scooter", "bike_id": "0c83f4327a2c235358db1f496daf2892", "lat": 38.924420833333336, "lon": -77.040303, "rental_uris": {"android": "https://dc.lft.to/lastmile_qr_scan", "ios": "https://dc.lft.to/lastmile_qr_scan"}, "is_disabled": 0, "fusion_lat": 0.0, "name": "0c83f4327a2c235358db1f496daf2892", "fusion_lon": 0.0}, {"is_reserved": 0, "type": "electric_scooter", "bike_id": "c38c2f3d8c06bb3daf499639131ecf7c", "lat": 38.899211, "lon": -76.9783275, "rental_uris": {"android": "https://dc.lft.to/lastmile_qr_scan", "ios": "https://dc.lft.to/lastmile_qr_scan"}, "is_disabled": 0, "fusion_lat": 0.0, "name": "c38c2f3d8c06bb3daf499639131ecf7c", "fusion_lon": 0.0}, {"is_reserved": 0, "type": "electric_scooter", "bike_id": "99d625046023e0ad0faccfa1493c3aa1", "lat": 38.911202833333334, "lon": -77.04508116666666, "rental_uris": {"android": "https://dc.lft.to/lastmile_qr_scan", "ios": "https://dc.lft.to/lastmile_qr_scan"}, "is_disabled": 0, "fusion_lat": 0.0, "name": "99d625046023e0ad0faccfa1493c3aa1", "fusion_lon": 0.0}, {"is_reserved": 0, "type": "electric_scooter", "bike_id": "0f638ba760cc8f550a65a306fbc8b6f8", "lat": 38.892211333333336, "lon": -77.0221995, "rental_uris": {"android": "https://dc.lft.to/lastmile_qr_scan", "ios": "https://dc.lft.to/lastmile_qr_scan"}, "is_disabled": 0, "fusion_lat": 0.0, "name": "0f638ba760cc8f550a65a306fbc8b6f8", "fusion_lon": 0.0}, {"is_reserved": 0, "type": "electric_scooter", "bike_id": "18dfbd98bf9e50284541de6dd91a214e", "lat": 38.92575883333333, "lon": -76.994906, "rental_uris": {"android": "https://dc.lft.to/lastmile_qr_scan", "ios": "https://dc.lft.to/lastmile_qr_scan"}, "is_disabled": 0, "fusion_lat": 0.0, "name": "18dfbd98bf9e50284541de6dd91a214e", "fusion_lon": 0.0}, {"is_reserved": 0, "type": "electric_scooter", "bike_id": "0e53026d4d859c67cbdb1d15280998b6", "lat": 38.896101, "lon": -77.046831, "rental_uris": {"android": "https://dc.lft.to/lastmile_qr_scan", "ios": "https://dc.lft.to/lastmile_qr_scan"}, "is_disabled": 0, "fusion_lat": 0.0, "name": "0e53026d4d859c67cbdb1d15280998b6", "fusion_lon": 0.0}, {"is_reserved": 0, "type": "electric_scooter", "bike_id": "880f03c0f4504cef5bb49a1f4477e01b", "lat": 38.90366916666667, "lon": -77.03038316666667, "rental_uris": {"android": "https://dc.lft.to/lastmile_qr_scan", "ios": "https://dc.lft.to/lastmile_qr_scan"}, "is_disabled": 0, "fusion_lat": 0.0, "name": "880f03c0f4504cef5bb49a1f4477e01b", "fusion_lon": 0.0}, {"is_reserved": 0, "type": "electric_bike", "bike_id": "7f4460342f85640bf345025239120bb9", "lat": 38.863308833333335, "lon": -76.98724266666666, "rental_uris": {"android": "https://dc.lft.to/lastmile_qr_scan", "ios": "https://dc.lft.to/lastmile_qr_scan"}, "is_disabled": 0, "fusion_lat": 0.0, "name": "7f4460342f85640bf345025239120bb9", "fusion_lon": 0.0}, {"is_reserved": 0, "type": "electric_scooter", "bike_id": "d5ad557aad6ec3bc22ca3b0c5795539c", "lat": 38.92984, "lon": -77.03792, "rental_uris": {"android": "https://dc.lft.to/lastmile_qr_scan", "ios": "https://dc.lft.to/lastmile_qr_scan"}, "is_disabled": 0, "fusion_lat": 0.0, "name": "d5ad557aad6ec3bc22ca3b0c5795539c", "fusion_lon": 0.0}, {"is_reserved": 0, "type": "electric_bike", "bike_id": "ac488c178d259c6ef16d43692a4c5d0d", "lat": 39.00002116666667, "lon": -76.918048, "rental_uris": {"android": "https://dc.lft.to/lastmile_qr_scan", "ios": "https://dc.lft.to/lastmile_qr_scan"}, "is_disabled": 0, "fusion_lat": 0.0, "name": "ac488c178d259c6ef16d43692a4c5d0d", "fusion_lon": 0.0}, {"is_reserved": 0, "type": "electric_scooter", "bike_id": "6e6f8987024005cd75b561ccbd8662bf", "lat": 38.927692, "lon": -77.0261555, "rental_uris": {"android": "https://dc.lft.to/lastmile_qr_scan", "ios": "https://dc.lft.to/lastmile_qr_scan"}, "is_disabled": 0, "fusion_lat": 0.0, "name": "6e6f8987024005cd75b561ccbd8662bf", "fusion_lon": 0.0}, {"is_reserved": 0, "type": "electric_bike", "bike_id": "09a9f0501ab549856ba43d6bd34016a8", "lat": 38.87424516666667, "lon": -77.08572033333333, "rental_uris": {"android": "https://dc.lft.to/lastmile_qr_scan", "ios": "https://dc.lft.to/lastmile_qr_scan"}, "is_disabled": 0, "fusion_lat": 0.0, "name": "09a9f0501ab549856ba43d6bd34016a8", "fusion_lon": 0.0}, {"is_reserved": 0, "type": "electric_bike", "bike_id": "cfe789d3cc6646948fa6ec2e321dcf7b", "lat": 39.010927, "lon": -77.04956066666666, "rental_uris": {"android": "https://dc.lft.to/lastmile_qr_scan", "ios": "https://dc.lft.to/lastmile_qr_scan"}, "is_disabled": 0, "fusion_lat": 0.0, "name": "cfe789d3cc6646948fa6ec2e321dcf7b", "fusion_lon": 0.0}, {"is_reserved": 0, "type": "electric_scooter", "bike_id": "394038537bce05dff23a3eb220bfa516", "lat": 38.9407485, "lon": -77.0291025, "rental_uris": {"android": "https://dc.lft.to/lastmile_qr_scan", "ios": "https://dc.lft.to/lastmile_qr_scan"}, "is_disabled": 0, "fusion_lat": 0.0, "name": "394038537bce05dff23a3eb220bfa516", "fusion_lon": 0.0}, {"is_reserved": 0, "type": "electric_scooter", "bike_id": "e86b7bba0b21c59713bfd4cc894d16c0", "lat": 38.8759285, "lon": -77.00047883333333, "rental_uris": {"android": "https://dc.lft.to/lastmile_qr_scan", "ios": "https://dc.lft.to/lastmile_qr_scan"}, "is_disabled": 0, "fusion_lat": 0.0, "name": "e86b7bba0b21c59713bfd4cc894d16c0", "fusion_lon": 0.0}, {"is_reserved": 0, "type": "electric_scooter", "bike_id": "b0f6a90949d74d7a50b0b5140bfdaffc", "lat": 38.876236666666664, "lon": -77.01249733333333, "rental_uris": {"android": "https://dc.lft.to/lastmile_qr_scan", "ios": "https://dc.lft.to/lastmile_qr_scan"}, "is_disabled": 0, "fusion_lat": 0.0, "name": "b0f6a90949d74d7a50b0b5140bfdaffc", "fusion_lon": 0.0}, {"is_reserved": 0, "type": "electric_scooter", "bike_id": "a4ec9c4ae37f4eeffa54dd97570a568d", "lat": 38.911712, "lon": -77.01090816666667, "rental_uris": {"android": "https://dc.lft.to/lastmile_qr_scan", "ios": "https://dc.lft.to/lastmile_qr_scan"}, "is_disabled": 0, "fusion_lat": 0.0, "name": "a4ec9c4ae37f4eeffa54dd97570a568d", "fusion_lon": 0.0}, {"is_reserved": 0, "type": "electric_scooter", "bike_id": "d11567d8b0af3e44e6b19c7dbef954b6", "lat": 38.935038166666665, "lon": -77.02005083333333, "rental_uris": {"android": "https://dc.lft.to/lastmile_qr_scan", "ios": "https://dc.lft.to/lastmile_qr_scan"}, "is_disabled": 0, "fusion_lat": 0.0, "name": "d11567d8b0af3e44e6b19c7dbef954b6", "fusion_lon": 0.0}, {"is_reserved": 0, "type": "electric_scooter", "bike_id": "965ed2242c0c56c1f9535895fecf82d0", "lat": 38.914819333333334, "lon": -77.01815916666666, "rental_uris": {"android": "https://dc.lft.to/lastmile_qr_scan", "ios": "https://dc.lft.to/lastmile_qr_scan"}, "is_disabled": 0, "fusion_lat": 0.0, "name": "965ed2242c0c56c1f9535895fecf82d0", "fusion_lon": 0.0}, {"is_reserved": 0, "type": "electric_bike", "bike_id": "793fb0fb9d5cba272fbd7c4e1897252e", "lat": 38.84559316666667, "lon": -76.97056833333333, "rental_uris": {"android": "https://dc.lft.to/lastmile_qr_scan", "ios": "https://dc.lft.to/lastmile_qr_scan"}, "is_disabled": 0, "fusion_lat": 0.0, "name": "793fb0fb9d5cba272fbd7c4e1897252e", "fusion_lon": 0.0}, {"is_reserved": 0, "type": "electric_scooter", "bike_id": "760f89ac41ea28aa6bc9339930b626ae", "lat": 38.901351166666664, "lon": -77.03210066666666, "rental_uris": {"android": "https://dc.lft.to/lastmile_qr_scan", "ios": "https://dc.lft.to/lastmile_qr_scan"}, "is_disabled": 0, "fusion_lat": 0.0, "name": "760f89ac41ea28aa6bc9339930b626ae", "fusion_lon": 0.0}, {"is_reserved": 0, "type": "electric_bike", "bike_id": "349bc2df4a100fbfad0d79e2a04bc3f0", "lat": 38.83811633333333, "lon": -77.09526116666666, "rental_uris": {"android": "https://dc.lft.to/lastmile_qr_scan", "ios": "https://dc.lft.to/lastmile_qr_scan"}, "is_disabled": 0, "fusion_lat": 0.0, "name": "349bc2df4a100fbfad0d79e2a04bc3f0", "fusion_lon": 0.0}, {"is_reserved": 0, "type": "electric_scooter", "bike_id": "858a9fc70be81d8be60955a7fc407dcc", "lat": 38.9180625, "lon": -77.034427, "rental_uris": {"android": "https://dc.lft.to/lastmile_qr_scan", "ios": "https://dc.lft.to/lastmile_qr_scan"}, "is_disabled": 0, "fusion_lat": 0.0, "name": "858a9fc70be81d8be60955a7fc407dcc", "fusion_lon": 0.0}, {"is_reserved": 0, "type": "electric_scooter", "bike_id": "50c352f1b356b8c4f78b852251a445ad", "lat": 38.88385983333333, "lon": -76.93034966666667, "rental_uris": {"android": "https://dc.lft.to/lastmile_qr_scan", "ios": "https://dc.lft.to/lastmile_qr_scan"}, "is_disabled": 0, "fusion_lat": 0.0, "name": "50c352f1b356b8c4f78b852251a445ad", "fusion_lon": 0.0}, {"is_reserved": 0, "type": "electric_scooter", "bike_id": "80b3c7ac00042488f1e68e66a445dd61", "lat": 38.93355233333333, "lon": -77.03422216666667, "rental_uris": {"android": "https://dc.lft.to/lastmile_qr_scan", "ios": "https://dc.lft.to/lastmile_qr_scan"}, "is_disabled": 0, "fusion_lat": 0.0, "name": "80b3c7ac00042488f1e68e66a445dd61", "fusion_lon": 0.0}, {"is_reserved": 0, "type": "electric_bike", "bike_id": "87577ad29450476696c89993f481505c", "lat": 38.89454383333333, "lon": -77.19130716666666, "rental_uris": {"android": "https://dc.lft.to/lastmile_qr_scan", "ios": "https://dc.lft.to/lastmile_qr_scan"}, "is_disabled": 0, "fusion_lat": 0.0, "name": "87577ad29450476696c89993f481505c", "fusion_lon": 0.0}, {"is_reserved": 0, "type": "electric_scooter", "bike_id": "514072c6197bedb3ea637827ab86f802", "lat": 38.93381316666667, "lon": -77.0454685, "rental_uris": {"android": "https://dc.lft.to/lastmile_qr_scan", "ios": "https://dc.lft.to/lastmile_qr_scan"}, "is_disabled": 0, "fusion_lat": 0.0, "name": "514072c6197bedb3ea637827ab86f802", "fusion_lon": 0.0}, {"is_reserved": 0, "type": "electric_scooter", "bike_id": "0010c406263209acc49936982c9ce3eb", "lat": 38.90178733333333, "lon": -77.02198516666667, "rental_uris": {"android": "https://dc.lft.to/lastmile_qr_scan", "ios": "https://dc.lft.to/lastmile_qr_scan"}, "is_disabled": 0, "fusion_lat": 0.0, "name": "0010c406263209acc49936982c9ce3eb", "fusion_lon": 0.0}, {"is_reserved": 0, "type": "electric_scooter", "bike_id": "b440186ee45db53ea1adef2519c79ff8", "lat": 38.9067115, "lon": -77.0762465, "rental_uris": {"android": "https://dc.lft.to/lastmile_qr_scan", "ios": "https://dc.lft.to/lastmile_qr_scan"}, "is_disabled": 0, "fusion_lat": 0.0, "name": "b440186ee45db53ea1adef2519c79ff8", "fusion_lon": 0.0}, {"is_reserved": 0, "type": "electric_scooter", "bike_id": "81381669d390b68538faad6c3a74c656", "lat": 38.918274, "lon": -77.02593816666666, "rental_uris": {"android": "https://dc.lft.to/lastmile_qr_scan", "ios": "https://dc.lft.to/lastmile_qr_scan"}, "is_disabled": 0, "fusion_lat": 0.0, "name": "81381669d390b68538faad6c3a74c656", "fusion_lon": 0.0}, {"is_reserved": 0, "type": "electric_scooter", "bike_id": "3c2bd917ec2baed006aa6a94b518b454", "lat": 38.924797833333336, "lon": -77.03913233333333, "rental_uris": {"android": "https://dc.lft.to/lastmile_qr_scan", "ios": "https://dc.lft.to/lastmile_qr_scan"}, "is_disabled": 0, "fusion_lat": 0.0, "name": "3c2bd917ec2baed006aa6a94b518b454", "fusion_lon": 0.0}, {"is_reserved": 0, "type": "electric_scooter", "bike_id": "8a2909074d8bd6eb818e8fd75e5be4b7", "lat": 38.88120383333333, "lon": -77.01976316666666, "rental_uris": {"android": "https://dc.lft.to/lastmile_qr_scan", "ios": "https://dc.lft.to/lastmile_qr_scan"}, "is_disabled": 0, "fusion_lat": 0.0, "name": "8a2909074d8bd6eb818e8fd75e5be4b7", "fusion_lon": 0.0}, {"is_reserved": 0, "type": "electric_scooter", "bike_id": "1ddabbb9dabf42d81da1e26a7046561e", "lat": 38.89324833333333, "lon": -77.0395795, "rental_uris": {"android": "https://dc.lft.to/lastmile_qr_scan", "ios": "https://dc.lft.to/lastmile_qr_scan"}, "is_disabled": 0, "fusion_lat": 0.0, "name": "1ddabbb9dabf42d81da1e26a7046561e", "fusion_lon": 0.0}, {"is_reserved": 0, "type": "electric_scooter", "bike_id": "3f6bce94aecd42ffff4c0402a4a0c565", "lat": 38.9258355, "lon": -77.02688533333334, "rental_uris": {"android": "https://dc.lft.to/lastmile_qr_scan", "ios": "https://dc.lft.to/lastmile_qr_scan"}, "is_disabled": 0, "fusion_lat": 0.0, "name": "3f6bce94aecd42ffff4c0402a4a0c565", "fusion_lon": 0.0}, {"is_reserved": 0, "type": "electric_scooter", "bike_id": "4766c6f1cc14c1bbf17d6b32128d2120", "lat": 38.897271, "lon": -77.02512183333333, "rental_uris": {"android": "https://dc.lft.to/lastmile_qr_scan", "ios": "https://dc.lft.to/lastmile_qr_scan"}, "is_disabled": 0, "fusion_lat": 0.0, "name": "4766c6f1cc14c1bbf17d6b32128d2120", "fusion_lon": 0.0}, {"is_reserved": 0, "type": "electric_scooter", "bike_id": "1af2da908098def567cd4b5a00c95b33", "lat": 38.91911416666667, "lon": -77.01344066666667, "rental_uris": {"android": "https://dc.lft.to/lastmile_qr_scan", "ios": "https://dc.lft.to/lastmile_qr_scan"}, "is_disabled": 0, "fusion_lat": 0.0, "name": "1af2da908098def567cd4b5a00c95b33", "fusion_lon": 0.0}, {"is_reserved": 0, "type": "electric_scooter", "bike_id": "7fe9143ca2308366be0a6dc6b6bd7364", "lat": 38.90020033333333, "lon": -77.011135, "rental_uris": {"android": "https://dc.lft.to/lastmile_qr_scan", "ios": "https://dc.lft.to/lastmile_qr_scan"}, "is_disabled": 0, "fusion_lat": 0.0, "name": "7fe9143ca2308366be0a6dc6b6bd7364", "fusion_lon": 0.0}, {"is_reserved": 0, "type": "electric_scooter", "bike_id": "f49b4521a5fe874d2223ff767f23e4f2", "lat": 38.90516216666666, "lon": -77.03181216666667, "rental_uris": {"android": "https://dc.lft.to/lastmile_qr_scan", "ios": "https://dc.lft.to/lastmile_qr_scan"}, "is_disabled": 0, "fusion_lat": 0.0, "name": "f49b4521a5fe874d2223ff767f23e4f2", "fusion_lon": 0.0}, {"is_reserved": 0, "type": "electric_scooter", "bike_id": "145083e3530577a8e1abbfc7eebbddee", "lat": 38.906882833333334, "lon": -77.06261366666666, "rental_uris": {"android": "https://dc.lft.to/lastmile_qr_scan", "ios": "https://dc.lft.to/lastmile_qr_scan"}, "is_disabled": 0, "fusion_lat": 0.0, "name": "145083e3530577a8e1abbfc7eebbddee", "fusion_lon": 0.0}, {"is_reserved": 0, "type": "electric_bike", "bike_id": "a76340c8130f60831b77f98d7aeb867e", "lat": 38.9595215, "lon": -76.98174766666666, "rental_uris": {"android": "https://dc.lft.to/lastmile_qr_scan", "ios": "https://dc.lft.to/lastmile_qr_scan"}, "is_disabled": 0, "fusion_lat": 0.0, "name": "a76340c8130f60831b77f98d7aeb867e", "fusion_lon": 0.0}, {"is_reserved": 0, "type": "electric_scooter", "bike_id": "a4abcc54020d5051641e0de530654296", "lat": 38.92486783333333, "lon": -77.0318595, "rental_uris": {"android": "https://dc.lft.to/lastmile_qr_scan", "ios": "https://dc.lft.to/lastmile_qr_scan"}, "is_disabled": 0, "fusion_lat": 0.0, "name": "a4abcc54020d5051641e0de530654296", "fusion_lon": 0.0}, {"is_reserved": 0, "type": "electric_scooter", "bike_id": "f52a82d3644a7a01223048766546aaaf", "lat": 38.88364383333333, "lon": -76.9951385, "rental_uris": {"android": "https://dc.lft.to/lastmile_qr_scan", "ios": "https://dc.lft.to/lastmile_qr_scan"}, "is_disabled": 0, "fusion_lat": 0.0, "name": "f52a82d3644a7a01223048766546aaaf", "fusion_lon": 0.0}, {"is_reserved": 0, "type": "electric_bike", "bike_id": "88dd03471c84049fc02fa9a57b9fa5cf", "lat": 39.0381425, "lon": -77.04257833333334, "rental_uris": {"android": "https://dc.lft.to/lastmile_qr_scan", "ios": "https://dc.lft.to/lastmile_qr_scan"}, "is_disabled": 0, "fusion_lat": 0.0, "name": "88dd03471c84049fc02fa9a57b9fa5cf", "fusion_lon": 0.0}, {"is_reserved": 0, "type": "electric_scooter", "bike_id": "a2e9a1714cf15440a79a3d182e2d1645", "lat": 38.90836933333333, "lon": -77.03373966666666, "rental_uris": {"android": "https://dc.lft.to/lastmile_qr_scan", "ios": "https://dc.lft.to/lastmile_qr_scan"}, "is_disabled": 0, "fusion_lat": 0.0, "name": "a2e9a1714cf15440a79a3d182e2d1645", "fusion_lon": 0.0}, {"is_reserved": 0, "type": "electric_scooter", "bike_id": "76936e5665611950f1d56139ec88aa5c", "lat": 38.87647183333333, "lon": -77.00738533333333, "rental_uris": {"android": "https://dc.lft.to/lastmile_qr_scan", "ios": "https://dc.lft.to/lastmile_qr_scan"}, "is_disabled": 0, "fusion_lat": 0.0, "name": "76936e5665611950f1d56139ec88aa5c", "fusion_lon": 0.0}, {"is_reserved": 0, "type": "electric_scooter", "bike_id": "7eec2a6eb75dce1d37b69cf0c6b813e9", "lat": 38.9057215, "lon": -77.03067733333333, "rental_uris": {"android": "https://dc.lft.to/lastmile_qr_scan", "ios": "https://dc.lft.to/lastmile_qr_scan"}, "is_disabled": 0, "fusion_lat": 0.0, "name": "7eec2a6eb75dce1d37b69cf0c6b813e9", "fusion_lon": 0.0}, {"is_reserved": 0, "type": "electric_scooter", "bike_id": "48afcf711dc75b213c23aec03415134d", "lat": 38.879213, "lon": -77.0024345, "rental_uris": {"android": "https://dc.lft.to/lastmile_qr_scan", "ios": "https://dc.lft.to/lastmile_qr_scan"}, "is_disabled": 0, "fusion_lat": 0.0, "name": "48afcf711dc75b213c23aec03415134d", "fusion_lon": 0.0}, {"is_reserved": 0, "type": "electric_scooter", "bike_id": "8c4fe045c86217cb4b850946805a11a9", "lat": 38.90086733333333, "lon": -76.98335533333334, "rental_uris": {"android": "https://dc.lft.to/lastmile_qr_scan", "ios": "https://dc.lft.to/lastmile_qr_scan"}, "is_disabled": 0, "fusion_lat": 0.0, "name": "8c4fe045c86217cb4b850946805a11a9", "fusion_lon": 0.0}, {"is_reserved": 0, "type": "electric_scooter", "bike_id": "9585bc30602e674a4a62e51910d965bc", "lat": 38.92923166666667, "lon": -77.02009033333333, "rental_uris": {"android": "https://dc.lft.to/lastmile_qr_scan", "ios": "https://dc.lft.to/lastmile_qr_scan"}, "is_disabled": 0, "fusion_lat": 0.0, "name": "9585bc30602e674a4a62e51910d965bc", "fusion_lon": 0.0}, {"is_reserved": 0, "type": "electric_bike", "bike_id": "c2145c52b8c00f393acaa090b13dd833", "lat": 38.9818425, "lon": -76.98206816666666, "rental_uris": {"android": "https://dc.lft.to/lastmile_qr_scan", "ios": "https://dc.lft.to/lastmile_qr_scan"}, "is_disabled": 0, "fusion_lat": 0.0, "name": "c2145c52b8c00f393acaa090b13dd833", "fusion_lon": 0.0}, {"is_reserved": 0, "type": "electric_scooter", "bike_id": "f4277352f640efe297a2c26aec653533", "lat": 38.89249383333333, "lon": -77.03347966666666, "rental_uris": {"android": "https://dc.lft.to/lastmile_qr_scan", "ios": "https://dc.lft.to/lastmile_qr_scan"}, "is_disabled": 0, "fusion_lat": 0.0, "name": "f4277352f640efe297a2c26aec653533", "fusion_lon": 0.0}, {"is_reserved": 0, "type": "electric_scooter", "bike_id": "c69ee35dff34bf15c65f9aa5105fafa7", "lat": 38.914127666666666, "lon": -77.0187625, "rental_uris": {"android": "https://dc.lft.to/lastmile_qr_scan", "ios": "https://dc.lft.to/lastmile_qr_scan"}, "is_disabled": 0, "fusion_lat": 0.0, "name": "c69ee35dff34bf15c65f9aa5105fafa7", "fusion_lon": 0.0}, {"is_reserved": 0, "type": "electric_scooter", "bike_id": "9d9d82be5fc815f7f0c64647edcf797d", "lat": 38.898501333333336, "lon": -76.92751966666667, "rental_uris": {"android": "https://dc.lft.to/lastmile_qr_scan", "ios": "https://dc.lft.to/lastmile_qr_scan"}, "is_disabled": 0, "fusion_lat": 0.0, "name": "9d9d82be5fc815f7f0c64647edcf797d", "fusion_lon": 0.0}, {"is_reserved": 0, "type": "electric_scooter", "bike_id": "7375a22ebeef3ab5045fc8aaa8d259e8", "lat": 38.93118616666667, "lon": -77.03031366666667, "rental_uris": {"android": "https://dc.lft.to/lastmile_qr_scan", "ios": "https://dc.lft.to/lastmile_qr_scan"}, "is_disabled": 0, "fusion_lat": 0.0, "name": "7375a22ebeef3ab5045fc8aaa8d259e8", "fusion_lon": 0.0}, {"is_reserved": 0, "type": "electric_scooter", "bike_id": "8e8dcb4315f3580a25fa8a3f2a597a64", "lat": 38.90103116666667, "lon": -77.03339783333334, "rental_uris": {"android": "https://dc.lft.to/lastmile_qr_scan", "ios": "https://dc.lft.to/lastmile_qr_scan"}, "is_disabled": 0, "fusion_lat": 0.0, "name": "8e8dcb4315f3580a25fa8a3f2a597a64", "fusion_lon": 0.0}, {"is_reserved": 0, "type": "electric_scooter", "bike_id": "da26f3a46d0c9a5e19c50074960abdc4", "lat": 38.871606666666665, "lon": -77.01353983333334, "rental_uris": {"android": "https://dc.lft.to/lastmile_qr_scan", "ios": "https://dc.lft.to/lastmile_qr_scan"}, "is_disabled": 0, "fusion_lat": 0.0, "name": "da26f3a46d0c9a5e19c50074960abdc4", "fusion_lon": 0.0}, {"is_reserved": 0, "type": "electric_scooter", "bike_id": "717351996a0205525f787a790e253ca2", "lat": 38.90604116666667, "lon": -77.0343715, "rental_uris": {"android": "https://dc.lft.to/lastmile_qr_scan", "ios": "https://dc.lft.to/lastmile_qr_scan"}, "is_disabled": 0, "fusion_lat": 0.0, "name": "717351996a0205525f787a790e253ca2", "fusion_lon": 0.0}, {"is_reserved": 0, "type": "electric_scooter", "bike_id": "0bb448282aa65d5db20fca22911ccaa0", "lat": 38.936287166666666, "lon": -77.0365005, "rental_uris": {"android": "https://dc.lft.to/lastmile_qr_scan", "ios": "https://dc.lft.to/lastmile_qr_scan"}, "is_disabled": 0, "fusion_lat": 0.0, "name": "0bb448282aa65d5db20fca22911ccaa0", "fusion_lon": 0.0}, {"is_reserved": 0, "type": "electric_scooter", "bike_id": "6bca20628e613ebd29abfdc96ca72065", "lat": 38.92563633333333, "lon": -76.9700425, "rental_uris": {"android": "https://dc.lft.to/lastmile_qr_scan", "ios": "https://dc.lft.to/lastmile_qr_scan"}, "is_disabled": 0, "fusion_lat": 0.0, "name": "6bca20628e613ebd29abfdc96ca72065", "fusion_lon": 0.0}, {"is_reserved": 0, "type": "electric_scooter", "bike_id": "57ff48adfe377887475c98ee90390faa", "lat": 38.9072925, "lon": -77.00705433333333, "rental_uris": {"android": "https://dc.lft.to/lastmile_qr_scan", "ios": "https://dc.lft.to/lastmile_qr_scan"}, "is_disabled": 0, "fusion_lat": 0.0, "name": "57ff48adfe377887475c98ee90390faa", "fusion_lon": 0.0}, {"is_reserved": 0, "type": "electric_bike", "bike_id": "bc84ac8d0a0f9131f1b6def6e1e0eca2", "lat": 38.82430816666667, "lon": -77.12036316666666, "rental_uris": {"android": "https://dc.lft.to/lastmile_qr_scan", "ios": "https://dc.lft.to/lastmile_qr_scan"}, "is_disabled": 0, "fusion_lat": 0.0, "name": "bc84ac8d0a0f9131f1b6def6e1e0eca2", "fusion_lon": 0.0}, {"is_reserved": 0, "type": "electric_scooter", "bike_id": "c43f3054067e0dba070b5f00c7535e17", "lat": 38.922171, "lon": -77.02959983333334, "rental_uris": {"android": "https://dc.lft.to/lastmile_qr_scan", "ios": "https://dc.lft.to/lastmile_qr_scan"}, "is_disabled": 0, "fusion_lat": 0.0, "name": "c43f3054067e0dba070b5f00c7535e17", "fusion_lon": 0.0}, {"is_reserved": 0, "type": "electric_bike", "bike_id": "c44dae89c0306387c40b4441337aaa83", "lat": 38.84506233333333, "lon": -76.99352133333333, "rental_uris": {"android": "https://dc.lft.to/lastmile_qr_scan", "ios": "https://dc.lft.to/lastmile_qr_scan"}, "is_disabled": 0, "fusion_lat": 0.0, "name": "c44dae89c0306387c40b4441337aaa83", "fusion_lon": 0.0}, {"is_reserved": 0, "type": "electric_scooter", "bike_id": "1ada8f4dcf5286ef163299342841d414", "lat": 38.91921416666667, "lon": -77.04609516666666, "rental_uris": {"android": "https://dc.lft.to/lastmile_qr_scan", "ios": "https://dc.lft.to/lastmile_qr_scan"}, "is_disabled": 0, "fusion_lat": 0.0, "name": "1ada8f4dcf5286ef163299342841d414", "fusion_lon": 0.0}, {"is_reserved": 0, "type": "electric_scooter", "bike_id": "09bc366fdb44edc059ae5ec682706e05", "lat": 38.9233665, "lon": -77.03621966666667, "rental_uris": {"android": "https://dc.lft.to/lastmile_qr_scan", "ios": "https://dc.lft.to/lastmile_qr_scan"}, "is_disabled": 0, "fusion_lat": 0.0, "name": "09bc366fdb44edc059ae5ec682706e05", "fusion_lon": 0.0}, {"is_reserved": 0, "type": "electric_scooter", "bike_id": "b71db83b20ccb41161472c42dfdb81b7", "lat": 38.93449716666667, "lon": -77.03499766666667, "rental_uris": {"android": "https://dc.lft.to/lastmile_qr_scan", "ios": "https://dc.lft.to/lastmile_qr_scan"}, "is_disabled": 0, "fusion_lat": 0.0, "name": "b71db83b20ccb41161472c42dfdb81b7", "fusion_lon": 0.0}, {"is_reserved": 0, "type": "electric_scooter", "bike_id": "2664534cac1691d908047a6b2f3d1c35", "lat": 38.897292166666666, "lon": -76.99515383333333, "rental_uris": {"android": "https://dc.lft.to/lastmile_qr_scan", "ios": "https://dc.lft.to/lastmile_qr_scan"}, "is_disabled": 0, "fusion_lat": 0.0, "name": "2664534cac1691d908047a6b2f3d1c35", "fusion_lon": 0.0}, {"is_reserved": 0, "type": "electric_scooter", "bike_id": "5826d53c45a2cef67439db87c08775d5", "lat": 38.88182033333333, "lon": -77.01771383333333, "rental_uris": {"android": "https://dc.lft.to/lastmile_qr_scan", "ios": "https://dc.lft.to/lastmile_qr_scan"}, "is_disabled": 0, "fusion_lat": 0.0, "name": "5826d53c45a2cef67439db87c08775d5", "fusion_lon": 0.0}, {"is_reserved": 0, "type": "electric_scooter", "bike_id": "38be52b2d89068c911a1336c44b7774c", "lat": 38.93347416666667, "lon": -77.034259, "rental_uris": {"android": "https://dc.lft.to/lastmile_qr_scan", "ios": "https://dc.lft.to/lastmile_qr_scan"}, "is_disabled": 0, "fusion_lat": 0.0, "name": "38be52b2d89068c911a1336c44b7774c", "fusion_lon": 0.0}, {"is_reserved": 0, "type": "electric_scooter", "bike_id": "a1ba71dd78b4b4f357234aca754d624d", "lat": 38.91328816666667, "lon": -77.05003416666666, "rental_uris": {"android": "https://dc.lft.to/lastmile_qr_scan", "ios": "https://dc.lft.to/lastmile_qr_scan"}, "is_disabled": 0, "fusion_lat": 0.0, "name": "a1ba71dd78b4b4f357234aca754d624d", "fusion_lon": 0.0}, {"is_reserved": 0, "type": "electric_scooter", "bike_id": "42b9f771af389f3d5c68d9bbb78b8cf2", "lat": 38.92074316666667, "lon": -77.07458516666667, "rental_uris": {"android": "https://dc.lft.to/lastmile_qr_scan", "ios": "https://dc.lft.to/lastmile_qr_scan"}, "is_disabled": 0, "fusion_lat": 0.0, "name": "42b9f771af389f3d5c68d9bbb78b8cf2", "fusion_lon": 0.0}, {"is_reserved": 0, "type": "electric_scooter", "bike_id": "f115b4e70fed219dfb2576995dcfdc59", "lat": 38.920881666666666, "lon": -77.03725483333334, "rental_uris": {"android": "https://dc.lft.to/lastmile_qr_scan", "ios": "https://dc.lft.to/lastmile_qr_scan"}, "is_disabled": 0, "fusion_lat": 0.0, "name": "f115b4e70fed219dfb2576995dcfdc59", "fusion_lon": 0.0}, {"is_reserved": 0, "type": "electric_scooter", "bike_id": "059f59bf4be7a4f0a6d0153f18cd5a6e", "lat": 38.89923233333333, "lon": -77.02671466666666, "rental_uris": {"android": "https://dc.lft.to/lastmile_qr_scan", "ios": "https://dc.lft.to/lastmile_qr_scan"}, "is_disabled": 0, "fusion_lat": 0.0, "name": "059f59bf4be7a4f0a6d0153f18cd5a6e", "fusion_lon": 0.0}, {"is_reserved": 0, "type": "electric_scooter", "bike_id": "53700c2796c096fda344f6d558ff0c97", "lat": 38.9041085, "lon": -77.025089, "rental_uris": {"android": "https://dc.lft.to/lastmile_qr_scan", "ios": "https://dc.lft.to/lastmile_qr_scan"}, "is_disabled": 0, "fusion_lat": 0.0, "name": "53700c2796c096fda344f6d558ff0c97", "fusion_lon": 0.0}, {"is_reserved": 0, "type": "electric_scooter", "bike_id": "a66ea8736f05d8b11e4b3bb58e6b5cd3", "lat": 38.889071333333334, "lon": -76.977351, "rental_uris": {"android": "https://dc.lft.to/lastmile_qr_scan", "ios": "https://dc.lft.to/lastmile_qr_scan"}, "is_disabled": 0, "fusion_lat": 0.0, "name": "a66ea8736f05d8b11e4b3bb58e6b5cd3", "fusion_lon": 0.0}, {"is_reserved": 0, "type": "electric_scooter", "bike_id": "891cc8959ffc333f7f19e2b0aeda2127", "lat": 38.900385, "lon": -77.00199033333334, "rental_uris": {"android": "https://dc.lft.to/lastmile_qr_scan", "ios": "https://dc.lft.to/lastmile_qr_scan"}, "is_disabled": 0, "fusion_lat": 0.0, "name": "891cc8959ffc333f7f19e2b0aeda2127", "fusion_lon": 0.0}, {"is_reserved": 0, "type": "electric_scooter", "bike_id": "b6437e26bfe273d2a570b718322c36d0", "lat": 38.949765, "lon": -77.02440433333334, "rental_uris": {"android": "https://dc.lft.to/lastmile_qr_scan", "ios": "https://dc.lft.to/lastmile_qr_scan"}, "is_disabled": 0, "fusion_lat": 0.0, "name": "b6437e26bfe273d2a570b718322c36d0", "fusion_lon": 0.0}, {"is_reserved": 0, "type": "electric_scooter", "bike_id": "1e1fb93fd2f9391fa47816636ee006f7", "lat": 38.9203185, "lon": -77.01034, "rental_uris": {"android": "https://dc.lft.to/lastmile_qr_scan", "ios": "https://dc.lft.to/lastmile_qr_scan"}, "is_disabled": 0, "fusion_lat": 0.0, "name": "1e1fb93fd2f9391fa47816636ee006f7", "fusion_lon": 0.0}, {"is_reserved": 0, "type": "electric_scooter", "bike_id": "1bffa11b6e1a1754f0042e4b48110eae", "lat": 38.906860333333334, "lon": -77.01015566666666, "rental_uris": {"android": "https://dc.lft.to/lastmile_qr_scan", "ios": "https://dc.lft.to/lastmile_qr_scan"}, "is_disabled": 0, "fusion_lat": 0.0, "name": "1bffa11b6e1a1754f0042e4b48110eae", "fusion_lon": 0.0}, {"is_reserved": 0, "type": "electric_scooter", "bike_id": "3ea9bd47da181bbd9f669839d0b6d066", "lat": 38.9240915, "lon": -77.02979833333333, "rental_uris": {"android": "https://dc.lft.to/lastmile_qr_scan", "ios": "https://dc.lft.to/lastmile_qr_scan"}, "is_disabled": 0, "fusion_lat": 0.0, "name": "3ea9bd47da181bbd9f669839d0b6d066", "fusion_lon": 0.0}, {"is_reserved": 0, "type": "electric_scooter", "bike_id": "4938035fbd75624429e72ac2dd73a110", "lat": 38.89530883333333, "lon": -77.01096233333334, "rental_uris": {"android": "https://dc.lft.to/lastmile_qr_scan", "ios": "https://dc.lft.to/lastmile_qr_scan"}, "is_disabled": 0, "fusion_lat": 0.0, "name": "4938035fbd75624429e72ac2dd73a110", "fusion_lon": 0.0}, {"is_reserved": 0, "type": "electric_scooter", "bike_id": "f45153a7da98813bcdb1c13563741818", "lat": 38.90065833333333, "lon": -77.04848266666667, "rental_uris": {"android": "https://dc.lft.to/lastmile_qr_scan", "ios": "https://dc.lft.to/lastmile_qr_scan"}, "is_disabled": 0, "fusion_lat": 0.0, "name": "f45153a7da98813bcdb1c13563741818", "fusion_lon": 0.0}, {"is_reserved": 0, "type": "electric_scooter", "bike_id": "95737ca051dfee60d74740f62ca95c4c", "lat": 38.90077183333333, "lon": -77.04751966666667, "rental_uris": {"android": "https://dc.lft.to/lastmile_qr_scan", "ios": "https://dc.lft.to/lastmile_qr_scan"}, "is_disabled": 0, "fusion_lat": 0.0, "name": "95737ca051dfee60d74740f62ca95c4c", "fusion_lon": 0.0}, {"is_reserved": 0, "type": "electric_scooter", "bike_id": "ed1e85f128597a23944e5dd85cb7b267", "lat": 38.92617166666667, "lon": -77.05652116666667, "rental_uris": {"android": "https://dc.lft.to/lastmile_qr_scan", "ios": "https://dc.lft.to/lastmile_qr_scan"}, "is_disabled": 0, "fusion_lat": 0.0, "name": "ed1e85f128597a23944e5dd85cb7b267", "fusion_lon": 0.0},